%time,field.robot_pose.position.x,field.robot_pose.position.y,field.robot_pose.position.z,field.robot_pose.orientation.x,field.robot_pose.orientation.y,field.robot_pose.orientation.z,field.robot_pose.orientation.w,field.ctime,field.hasac,field.acmd.linear.x,field.acmd.linear.y,field.acmd.linear.z,field.acmd.angular.x,field.acmd.angular.y,field.acmd.angular.z,field.hasuc,field.ucmd.linear.x,field.ucmd.linear.y,field.ucmd.linear.z,field.ucmd.angular.x,field.ucmd.angular.y,field.ucmd.angular.z,field.bcmd.linear.x,field.bcmd.linear.y,field.bcmd.linear.z,field.bcmd.angular.x,field.bcmd.angular.y,field.bcmd.angular.z,field.blending,field.blendingno,field.controlstate,field.alpha,field.source,field.sxb
1449615936466338270,0.0,0.0,0.0,0.0,0.0,0.0,1.0,1449615936463434760,0,0.0,0.0,0.0,0.0,0.0,0.0,1,-0.0,0.0,0.0,0.0,0.0,-0.0,-0.0,0.0,0.0,0.0,0.0,-0.0,,0,Sharing Zero Relinquish,10.0,teleoperation,0
1449615936505915336,0.0,0.0,0.0,0.0,0.0,0.0,1.0,1449615936503435480,0,0.0,0.0,0.0,0.0,0.0,0.0,1,-0.0,0.0,0.0,0.0,0.0,-0.0,-0.0,0.0,0.0,0.0,0.0,-0.0,,0,Sharing Zero Relinquish,10.0,teleoperation,0
1449615936543834516,0.0,0.0,0.0,0.0,0.0,0.0,1.0,1449615936543375235,0,0.0,0.0,0.0,0.0,0.0,0.0,1,-0.0,0.0,0.0,0.0,0.0,-0.0,-0.0,0.0,0.0,0.0,0.0,-0.0,,0,Sharing Zero Relinquish,10.0,teleoperation,0
1449615936583830290,0.0,0.0,0.0,0.0,0.0,0.0,1.0,1449615936583341696,0,0.0,0.0,0.0,0.0,0.0,0.0,1,-0.0,0.0,0.0,0.0,0.0,-0.0,-0.0,0.0,0.0,0.0,0.0,-0.0,,0,Sharing Zero Relinquish,10.0,teleoperation,0
1449615936623760325,0.0,0.0,0.0,0.0,0.0,0.0,1.0,1449615936623390775,0,0.0,0.0,0.0,0.0,0.0,0.0,1,-0.0,0.0,0.0,0.0,0.0,-0.0,-0.0,0.0,0.0,0.0,0.0,-0.0,,0,Sharing Zero Relinquish,10.0,teleoperation,0
1449615936663560545,0.0,0.0,0.0,0.0,0.0,0.0,1.0,1449615936663306823,0,0.0,0.0,0.0,0.0,0.0,0.0,1,-0.0,0.0,0.0,0.0,0.0,-0.0,-0.0,0.0,0.0,0.0,0.0,-0.0,,0,Sharing Zero Relinquish,10.0,teleoperation,0
1449615936707451714,0.0,0.0,0.0,0.0,0.0,0.0,1.0,1449615936703627911,0,0.0,0.0,0.0,0.0,0.0,0.0,1,-0.0,0.0,0.0,0.0,0.0,-0.0,-0.0,0.0,0.0,0.0,0.0,-0.0,,0,Sharing Zero Relinquish,10.0,teleoperation,0
1449615936744205432,0.0,0.0,0.0,0.0,0.0,0.0,1.0,1449615936743312815,0,0.0,0.0,0.0,0.0,0.0,0.0,1,-0.0,0.0,0.0,0.0,0.0,-0.0,-0.0,0.0,0.0,0.0,0.0,-0.0,,0,Sharing Zero Relinquish,10.0,teleoperation,0
1449615936784734433,0.0,0.0,0.0,0.0,0.0,0.0,1.0,1449615936783402434,0,0.0,0.0,0.0,0.0,0.0,0.0,1,-0.0,0.0,0.0,0.0,0.0,-0.0,-0.0,0.0,0.0,0.0,0.0,-0.0,,0,Sharing Zero Relinquish,10.0,teleoperation,0
1449615936823708041,0.0,0.0,0.0,0.0,0.0,0.0,1.0,1449615936823260739,0,0.0,0.0,0.0,0.0,0.0,0.0,1,-0.0,0.0,0.0,0.0,0.0,-0.0,-0.0,0.0,0.0,0.0,0.0,-0.0,,0,Sharing Zero Relinquish,10.0,teleoperation,0
1449615936864188882,0.0,0.0,0.0,0.0,0.0,0.0,1.0,1449615936863326953,0,0.0,0.0,0.0,0.0,0.0,0.0,1,-0.0,0.0,0.0,0.0,0.0,-0.0,-0.0,0.0,0.0,0.0,0.0,-0.0,,0,Sharing Zero Relinquish,10.0,teleoperation,0
1449615936903653748,0.0,0.0,0.0,0.0,0.0,0.0,1.0,1449615936903271710,0,0.0,0.0,0.0,0.0,0.0,0.0,1,-0.0,0.0,0.0,0.0,0.0,-0.0,-0.0,0.0,0.0,0.0,0.0,-0.0,,0,Sharing Zero Relinquish,10.0,teleoperation,0
1449615936943730003,0.0,0.0,0.0,0.0,0.0,0.0,1.0,1449615936943327222,0,0.0,0.0,0.0,0.0,0.0,0.0,1,-0.0,0.0,0.0,0.0,0.0,-0.0,-0.0,0.0,0.0,0.0,0.0,-0.0,,0,Sharing Zero Relinquish,10.0,teleoperation,0
1449615936984842657,0.0,0.0,0.0,0.0,0.0,0.0,1.0,1449615936983385177,0,0.0,0.0,0.0,0.0,0.0,0.0,1,-0.0,0.0,0.0,0.0,0.0,-0.0,-0.0,0.0,0.0,0.0,0.0,-0.0,,0,Sharing Zero Relinquish,10.0,teleoperation,0
1449615937023698321,0.0,0.0,0.0,0.0,0.0,0.0,1.0,1449615937023263907,0,0.0,0.0,0.0,0.0,0.0,0.0,1,-0.0,0.0,0.0,0.0,0.0,-0.0,-0.0,0.0,0.0,0.0,0.0,-0.0,,0,Sharing Zero Relinquish,10.0,teleoperation,0
1449615937065250830,0.0,0.0,0.0,0.0,0.0,0.0,1.0,1449615937063645068,0,0.0,0.0,0.0,0.0,0.0,0.0,1,-0.0,0.0,0.0,0.0,0.0,-0.0,-0.0,0.0,0.0,0.0,0.0,-0.0,,0,Sharing Zero Relinquish,10.0,teleoperation,0
1449615937103741634,0.0,0.0,0.0,0.0,0.0,0.0,1.0,1449615937103313929,0,0.0,0.0,0.0,0.0,0.0,0.0,1,-0.0,0.0,0.0,0.0,0.0,-0.0,-0.0,0.0,0.0,0.0,0.0,-0.0,,0,Sharing Zero Relinquish,10.0,teleoperation,0
1449615937143892680,0.0,0.0,0.0,0.0,0.0,0.0,1.0,1449615937143374683,0,0.0,0.0,0.0,0.0,0.0,0.0,1,-0.0,0.0,0.0,0.0,0.0,-0.0,-0.0,0.0,0.0,0.0,0.0,-0.0,,0,Sharing Zero Relinquish,10.0,teleoperation,0
1449615937184191878,0.0,0.0,0.0,0.0,0.0,0.0,1.0,1449615937183357376,0,0.0,0.0,0.0,0.0,0.0,0.0,1,-0.0,0.0,0.0,0.0,0.0,-0.0,-0.0,0.0,0.0,0.0,0.0,-0.0,,0,Sharing Zero Relinquish,10.0,teleoperation,0
1449615937224508118,0.0,0.0,0.0,0.0,0.0,0.0,1.0,1449615937223298596,0,0.0,0.0,0.0,0.0,0.0,0.0,1,-0.0,0.0,0.0,0.0,0.0,-0.0,-0.0,0.0,0.0,0.0,0.0,-0.0,,0,Sharing Zero Relinquish,10.0,teleoperation,0
1449615937265994068,0.0,0.0,0.0,0.0,0.0,0.0,1.0,1449615937263451046,0,0.0,0.0,0.0,0.0,0.0,0.0,1,-0.0,0.0,0.0,0.0,0.0,-0.0,-0.0,0.0,0.0,0.0,0.0,-0.0,,0,Sharing Zero Relinquish,10.0,teleoperation,0
1449615937303897592,0.0,0.0,0.0,0.0,0.0,0.0,1.0,1449615937303373313,0,0.0,0.0,0.0,0.0,0.0,0.0,1,-0.0,0.0,0.0,0.0,0.0,-0.0,-0.0,0.0,0.0,0.0,0.0,-0.0,,0,Sharing Zero Relinquish,10.0,teleoperation,0
1449615937344313235,0.0,0.0,0.0,0.0,0.0,0.0,1.0,1449615937343518277,0,0.0,0.0,0.0,0.0,0.0,0.0,1,-0.0,0.0,0.0,0.0,0.0,-0.0,-0.0,0.0,0.0,0.0,0.0,-0.0,,0,Sharing Zero Relinquish,10.0,teleoperation,0
1449615937383656558,0.0,0.0,0.0,0.0,0.0,0.0,1.0,1449615937383295975,0,0.0,0.0,0.0,0.0,0.0,0.0,1,-0.0,0.0,0.0,0.0,0.0,-0.0,-0.0,0.0,0.0,0.0,0.0,-0.0,,0,Sharing Zero Relinquish,10.0,teleoperation,0
1449615937423684604,0.0,0.0,0.0,0.0,0.0,0.0,1.0,1449615937423314295,0,0.0,0.0,0.0,0.0,0.0,0.0,1,-0.0,0.0,0.0,0.0,0.0,-0.0,-0.0,0.0,0.0,0.0,0.0,-0.0,,0,Sharing Zero Relinquish,10.0,teleoperation,0
1449615937464231430,0.0,0.0,0.0,0.0,0.0,0.0,1.0,1449615937463540941,0,0.0,0.0,0.0,0.0,0.0,0.0,1,-0.0,0.0,0.0,0.0,0.0,-0.0,-0.0,0.0,0.0,0.0,0.0,-0.0,,0,Sharing Zero Relinquish,10.0,teleoperation,0
1449615937505555519,0.0,0.0,0.0,0.0,0.0,0.0,1.0,1449615937503476765,0,0.0,0.0,0.0,0.0,0.0,0.0,1,-0.0,0.0,0.0,0.0,0.0,-0.0,-0.0,0.0,0.0,0.0,0.0,-0.0,,0,Sharing Zero Relinquish,10.0,teleoperation,0
1449615937543612101,0.0,0.0,0.0,0.0,0.0,0.0,1.0,1449615937543250672,0,0.0,0.0,0.0,0.0,0.0,0.0,1,-0.0,0.0,0.0,0.0,0.0,-0.0,-0.0,0.0,0.0,0.0,0.0,-0.0,,0,Sharing Zero Relinquish,10.0,teleoperation,0
1449615937584646380,0.0,0.0,0.0,0.0,0.0,0.0,1.0,1449615937583346619,0,0.0,0.0,0.0,0.0,0.0,0.0,1,-0.0,0.0,0.0,0.0,0.0,-0.0,-0.0,0.0,0.0,0.0,0.0,-0.0,,0,Sharing Zero Relinquish,10.0,teleoperation,0
1449615937624324354,0.0,0.0,0.0,0.0,0.0,0.0,1.0,1449615937623352780,0,0.0,0.0,0.0,0.0,0.0,0.0,1,-0.0,0.0,0.0,0.0,0.0,-0.0,-0.0,0.0,0.0,0.0,0.0,-0.0,,0,Sharing Zero Relinquish,10.0,teleoperation,0
1449615937663902611,0.0,0.0,0.0,0.0,0.0,0.0,1.0,1449615937663398255,0,0.0,0.0,0.0,0.0,0.0,0.0,1,-0.0,0.0,0.0,0.0,0.0,-0.0,-0.0,0.0,0.0,0.0,0.0,-0.0,,0,Sharing Zero Relinquish,10.0,teleoperation,0
1449615937703983843,0.0,0.0,0.0,0.0,0.0,0.0,1.0,1449615937703323460,0,0.0,0.0,0.0,0.0,0.0,0.0,1,-0.0,0.0,0.0,0.0,0.0,-0.0,-0.0,0.0,0.0,0.0,0.0,-0.0,,0,Sharing Zero Relinquish,10.0,teleoperation,0
1449615937743708294,0.0,0.0,0.0,0.0,0.0,0.0,1.0,1449615937743296523,0,0.0,0.0,0.0,0.0,0.0,0.0,1,-0.0,0.0,0.0,0.0,0.0,-0.0,-0.0,0.0,0.0,0.0,0.0,-0.0,,0,Sharing Zero Relinquish,10.0,teleoperation,0
1449615937783463933,0.0,0.0,0.0,0.0,0.0,0.0,1.0,1449615937783242561,0,0.0,0.0,0.0,0.0,0.0,0.0,1,-0.0,0.0,0.0,0.0,0.0,-0.0,-0.0,0.0,0.0,0.0,0.0,-0.0,,0,Sharing Zero Relinquish,10.0,teleoperation,0
1449615937823708636,0.0,0.0,0.0,0.0,0.0,0.0,1.0,1449615937823321482,0,0.0,0.0,0.0,0.0,0.0,0.0,1,-0.0,0.0,0.0,0.0,0.0,-0.0,-0.0,0.0,0.0,0.0,0.0,-0.0,,0,Sharing Zero Relinquish,10.0,teleoperation,0
1449615937864206280,0.0,0.0,0.0,0.0,0.0,0.0,1.0,1449615937863325472,0,0.0,0.0,0.0,0.0,0.0,0.0,1,-0.0,0.0,0.0,0.0,0.0,-0.0,-0.0,0.0,0.0,0.0,0.0,-0.0,,0,Sharing Zero Relinquish,10.0,teleoperation,0
1449615937903632711,0.0,0.0,0.0,0.0,0.0,0.0,1.0,1449615937903294996,0,0.0,0.0,0.0,0.0,0.0,0.0,1,-0.0,0.0,0.0,0.0,0.0,-0.0,-0.0,0.0,0.0,0.0,0.0,-0.0,,0,Sharing Zero Relinquish,10.0,teleoperation,0
1449615937943865082,0.0,0.0,0.0,0.0,0.0,0.0,1.0,1449615937943338398,0,0.0,0.0,0.0,0.0,0.0,0.0,1,-0.0,0.0,0.0,0.0,0.0,-0.0,-0.0,0.0,0.0,0.0,0.0,-0.0,,0,Sharing Zero Relinquish,10.0,teleoperation,0
1449615937983762505,0.0,0.0,0.0,0.0,0.0,0.0,1.0,1449615937983423763,0,0.0,0.0,0.0,0.0,0.0,0.0,1,-0.0,0.0,0.0,0.0,0.0,-0.0,-0.0,0.0,0.0,0.0,0.0,-0.0,,0,Sharing Zero Relinquish,10.0,teleoperation,0
1449615938024746641,0.0,0.0,0.0,0.0,0.0,0.0,1.0,1449615938023323944,0,0.0,0.0,0.0,0.0,0.0,0.0,1,-0.0,0.0,0.0,0.0,0.0,-0.0,-0.0,0.0,0.0,0.0,0.0,-0.0,,0,Sharing Zero Relinquish,10.0,teleoperation,0
1449615938065556547,0.0,0.0,0.0,0.0,0.0,0.0,1.0,1449615938063373850,0,0.0,0.0,0.0,0.0,0.0,0.0,1,-0.0,0.0,0.0,0.0,0.0,-0.0,-0.0,0.0,0.0,0.0,0.0,-0.0,,0,Sharing Zero Relinquish,10.0,teleoperation,0
1449615938103819568,0.0,0.0,0.0,0.0,0.0,0.0,1.0,1449615938103368771,0,0.0,0.0,0.0,0.0,0.0,0.0,1,-0.0,0.0,0.0,0.0,0.0,-0.0,-0.0,0.0,0.0,0.0,0.0,-0.0,,0,Sharing Zero Relinquish,10.0,teleoperation,0
1449615938145074422,0.0,0.0,0.0,0.0,0.0,0.0,1.0,1449615938143425544,0,0.0,0.0,0.0,0.0,0.0,0.0,1,-0.0,0.0,0.0,0.0,0.0,-0.0,-0.0,0.0,0.0,0.0,0.0,-0.0,,0,Sharing Zero Relinquish,10.0,teleoperation,0
1449615938184266776,0.0,0.0,0.0,0.0,0.0,0.0,1.0,1449615938183360342,0,0.0,0.0,0.0,0.0,0.0,0.0,1,-0.0,0.0,0.0,0.0,0.0,-0.0,-0.0,0.0,0.0,0.0,0.0,-0.0,,0,Sharing Zero Relinquish,10.0,teleoperation,0
1449615938223845075,0.0,0.0,0.0,0.0,0.0,0.0,1.0,1449615938223327800,0,0.0,0.0,0.0,0.0,0.0,0.0,1,-0.0,0.0,0.0,0.0,0.0,-0.0,-0.0,0.0,0.0,0.0,0.0,-0.0,,0,Sharing Zero Relinquish,10.0,teleoperation,0
1449615938266715998,0.0,0.0,0.0,0.0,0.0,0.0,1.0,1449615938265900264,0,0.0,0.0,0.0,0.0,0.0,0.0,1,-0.0,0.0,0.0,0.0,0.0,-0.0,-0.0,0.0,0.0,0.0,0.0,-0.0,,0,Sharing Zero Relinquish,10.0,teleoperation,0
1449615938303555933,0.0,0.0,0.0,0.0,0.0,0.0,1.0,1449615938303217886,0,0.0,0.0,0.0,0.0,0.0,0.0,1,-0.0,0.0,0.0,0.0,0.0,-0.0,-0.0,0.0,0.0,0.0,0.0,-0.0,,0,Sharing Zero Relinquish,10.0,teleoperation,0
1449615938346390478,0.0,0.0,0.0,0.0,0.0,0.0,1.0,1449615938343309543,0,0.0,0.0,0.0,0.0,0.0,0.0,1,-0.0,0.0,0.0,0.0,0.0,-0.0,-0.0,0.0,0.0,0.0,0.0,-0.0,,0,Sharing Zero Relinquish,10.0,teleoperation,0
1449615938383863291,0.0,0.0,0.0,0.0,0.0,0.0,1.0,1449615938383245648,0,0.0,0.0,0.0,0.0,0.0,0.0,1,-0.0,0.0,0.0,0.0,0.0,-0.0,-0.0,0.0,0.0,0.0,0.0,-0.0,,0,Sharing Zero Relinquish,10.0,teleoperation,0
1449615938423669650,0.0,0.0,0.0,0.0,0.0,0.0,1.0,1449615938423292990,0,0.0,0.0,0.0,0.0,0.0,0.0,1,-0.0,0.0,0.0,0.0,0.0,-0.0,-0.0,0.0,0.0,0.0,0.0,-0.0,,0,Sharing Zero Relinquish,10.0,teleoperation,0
1449615938464277279,0.0,0.0,0.0,0.0,0.0,0.0,1.0,1449615938463371205,0,0.0,0.0,0.0,0.0,0.0,0.0,1,-0.0,0.0,0.0,0.0,0.0,-0.0,-0.0,0.0,0.0,0.0,0.0,-0.0,,0,Sharing Zero Relinquish,10.0,teleoperation,0
1449615938503657063,0.0,0.0,0.0,0.0,0.0,0.0,1.0,1449615938503290790,0,0.0,0.0,0.0,0.0,0.0,0.0,1,-0.0,0.0,0.0,0.0,0.0,-0.0,-0.0,0.0,0.0,0.0,0.0,-0.0,,0,Sharing Zero Relinquish,10.0,teleoperation,0
1449615938544173450,0.0,0.0,0.0,0.0,0.0,0.0,1.0,1449615938543304913,0,0.0,0.0,0.0,0.0,0.0,0.0,1,-0.0,0.0,0.0,0.0,0.0,-0.0,-0.0,0.0,0.0,0.0,0.0,-0.0,,0,Sharing Zero Relinquish,10.0,teleoperation,0
1449615938585614733,0.0,0.0,0.0,0.0,0.0,0.0,1.0,1449615938583886812,0,0.0,0.0,0.0,0.0,0.0,0.0,1,-0.0,0.0,0.0,0.0,0.0,-0.0,-0.0,0.0,0.0,0.0,0.0,-0.0,,0,Sharing Zero Relinquish,10.0,teleoperation,0
1449615938623672218,0.0,0.0,0.0,0.0,0.0,0.0,1.0,1449615938623293436,0,0.0,0.0,0.0,0.0,0.0,0.0,1,-0.0,0.0,0.0,0.0,0.0,-0.0,-0.0,0.0,0.0,0.0,0.0,-0.0,,0,Sharing Zero Relinquish,10.0,teleoperation,0
1449615938663752214,0.0,0.0,0.0,0.0,0.0,0.0,1.0,1449615938663329657,0,0.0,0.0,0.0,0.0,0.0,0.0,1,-0.0,0.0,0.0,0.0,0.0,-0.0,-0.0,0.0,0.0,0.0,0.0,-0.0,,0,Sharing Zero Relinquish,10.0,teleoperation,0
1449615938703759091,0.0,0.0,0.0,0.0,0.0,0.0,1.0,1449615938703408536,0,0.0,0.0,0.0,0.0,0.0,0.0,1,-0.0,0.0,0.0,0.0,0.0,-0.0,-0.0,0.0,0.0,0.0,0.0,-0.0,,0,Sharing Zero Relinquish,10.0,teleoperation,0
1449615938743507079,0.0,0.0,0.0,0.0,0.0,0.0,1.0,1449615938743229557,0,0.0,0.0,0.0,0.0,0.0,0.0,1,-0.0,0.0,0.0,0.0,0.0,-0.0,-0.0,0.0,0.0,0.0,0.0,-0.0,,0,Sharing Zero Relinquish,10.0,teleoperation,0
1449615938783733644,0.0,0.0,0.0,0.0,0.0,0.0,1.0,1449615938783294520,0,0.0,0.0,0.0,0.0,0.0,0.0,1,-0.0,0.0,0.0,0.0,0.0,-0.0,-0.0,0.0,0.0,0.0,0.0,-0.0,,0,Sharing Zero Relinquish,10.0,teleoperation,0
1449615938824061073,0.0,0.0,0.0,0.0,0.0,0.0,1.0,1449615938823323269,0,0.0,0.0,0.0,0.0,0.0,0.0,1,0.00558730190992,0.0,0.0,0.0,0.0,0.0,0.00558730190992,0.0,0.0,0.0,0.0,0.0,,0,Sharing Zero Relinquish,10.0,teleoperation,0
1449615938863541407,0.0,0.0,0.0,0.0,0.0,0.0,1.0,1449615938863277881,0,0.0,0.0,0.0,0.0,0.0,0.0,1,0.00558730190992,0.0,0.0,0.0,0.0,0.0,0.00558730190992,0.0,0.0,0.0,0.0,0.0,,0,Sharing Zero Relinquish,10.0,teleoperation,0
1449615938904143266,0.0,0.0,0.0,0.0,0.0,0.0,1.0,1449615938903408929,0,0.0,0.0,0.0,0.0,0.0,0.0,1,0.0111746038198,0.0,0.0,0.0,0.0,0.0,0.0111746038198,0.0,0.0,0.0,0.0,0.0,,0,Sharing Zero Relinquish,10.0,teleoperation,0
1449615938943782054,0.0,0.0,0.0,0.0,0.0,0.0,1.0,1449615938943362169,0,0.0,0.0,0.0,0.0,0.0,0.0,1,0.0111746038198,0.0,0.0,0.0,0.0,0.0,0.0111746038198,0.0,0.0,0.0,0.0,0.0,,0,Sharing Zero Relinquish,10.0,teleoperation,0
1449615938986179481,0.0,0.0,0.0,0.0,0.0,0.0,1.0,1449615938983586461,0,0.0,0.0,0.0,0.0,0.0,0.0,1,0.0111746038198,0.0,0.0,0.0,0.0,0.0,0.0111746038198,0.0,0.0,0.0,0.0,0.0,,0,Sharing Zero Relinquish,10.0,teleoperation,0
1449615939025831313,0.0,0.0,0.0,0.0,0.0,0.0,1.0,1449615939023435944,0,0.0,0.0,0.0,0.0,0.0,0.0,1,0.00558730190992,0.0,0.0,0.0,0.0,0.0,0.00558730190992,0.0,0.0,0.0,0.0,0.0,,0,Sharing Zero Relinquish,10.0,teleoperation,0
1449615939064359370,0.0,0.0,0.0,0.0,0.0,0.0,1.0,1449615939063366643,0,0.0,0.0,0.0,0.0,0.0,0.0,1,0.00558730190992,0.0,0.0,0.0,0.0,0.0,0.00558730190992,0.0,0.0,0.0,0.0,0.0,,0,Sharing Zero Relinquish,10.0,teleoperation,0
1449615939107875623,0.0,0.0,0.0,0.0,0.0,0.0,1.0,1449615939104863291,0,0.0,0.0,0.0,0.0,0.0,0.0,1,0.0111746038198,0.0,0.0,0.0,0.0,0.0,0.0111746038198,0.0,0.0,0.0,0.0,0.0,,0,Sharing Zero Relinquish,10.0,teleoperation,0
1449615939143690999,0.0,0.0,0.0,0.0,0.0,0.0,1.0,1449615939143226145,0,0.0,0.0,0.0,0.0,0.0,0.0,1,0.0111746038198,0.0,0.0,0.0,0.0,0.0,0.0111746038198,0.0,0.0,0.0,0.0,0.0,,0,Sharing Zero Relinquish,10.0,teleoperation,0
1449615939183628940,0.0,0.0,0.0,0.0,0.0,0.0,1.0,1449615939183264761,0,0.0,0.0,0.0,0.0,0.0,0.0,1,0.0111746038198,0.0,0.0,0.0,0.0,0.0,0.0111746038198,0.0,0.0,0.0,0.0,0.0,,0,Sharing Zero Relinquish,10.0,teleoperation,0
1449615939223958503,0.0,0.0,0.0,0.0,0.0,0.0,1.0,1449615939223386376,0,0.0,0.0,0.0,0.0,0.0,0.0,1,0.00558730190992,0.0,0.0,0.0,0.0,0.0,0.00558730190992,0.0,0.0,0.0,0.0,0.0,,0,Sharing Zero Relinquish,10.0,teleoperation,0
1449615939263872332,0.0,0.0,0.0,0.0,0.0,0.0,1.0,1449615939263363105,0,0.0,0.0,0.0,0.0,0.0,0.0,1,0.00558730190992,0.0,0.0,0.0,0.0,0.0,0.00558730190992,0.0,0.0,0.0,0.0,0.0,,0,Sharing Zero Relinquish,10.0,teleoperation,0
1449615939303671839,0.0,0.0,0.0,0.0,0.0,0.0,1.0,1449615939303309059,0,0.0,0.0,0.0,0.0,0.0,0.0,1,0.00558730190992,0.0,0.0,0.0,0.0,0.0,0.00558730190992,0.0,0.0,0.0,0.0,0.0,,0,Sharing Zero Relinquish,10.0,teleoperation,0
1449615939343813485,0.0,0.0,0.0,0.0,0.0,0.0,1.0,1449615939343289470,0,0.0,0.0,0.0,0.0,0.0,0.0,1,0.00558730190992,0.0,0.0,0.0,0.0,0.0,0.00558730190992,0.0,0.0,0.0,0.0,0.0,,0,Sharing Zero Relinquish,10.0,teleoperation,0
1449615939385466286,0.0,0.0,0.0,0.0,0.0,0.0,1.0,1449615939383429871,0,0.0,0.0,0.0,0.0,0.0,0.0,1,0.00558730190992,0.0,0.0,0.0,0.0,0.0,0.00558730190992,0.0,0.0,0.0,0.0,0.0,,0,Sharing Zero Relinquish,10.0,teleoperation,0
1449615939423673244,0.0,0.0,0.0,0.0,0.0,0.0,1.0,1449615939423278027,0,0.0,0.0,0.0,0.0,0.0,0.0,1,0.0167619050741,0.0,0.0,0.0,0.0,0.0,0.0167619050741,0.0,0.0,0.0,0.0,0.0,,0,Sharing Zero Relinquish,10.0,teleoperation,0
1449615939464237641,0.0,0.0,0.0,0.0,0.0,0.0,1.0,1449615939463303372,0,0.0,0.0,0.0,0.0,0.0,0.0,1,0.0167619050741,0.0,0.0,0.0,0.0,0.0,0.0167619050741,0.0,0.0,0.0,0.0,0.0,,0,Sharing Zero Relinquish,10.0,teleoperation,0
1449615939504413565,0.0,0.0,0.0,0.0,0.0,0.0,1.0,1449615939503387212,0,0.0,0.0,0.0,0.0,0.0,0.0,1,0.128507939339,0.0,0.0,0.0,0.0,0.0,0.128507939339,0.0,0.0,0.0,0.0,0.0,,0,Sharing Zero Relinquish,10.0,teleoperation,0
1449615939543745205,0.0,0.0,0.0,0.0,0.0,0.0,1.0,1449615939543340705,0,0.0,0.0,0.0,0.0,0.0,0.0,1,0.128507939339,0.0,0.0,0.0,0.0,0.0,0.128507939339,0.0,0.0,0.0,0.0,0.0,,0,Sharing Zero Relinquish,10.0,teleoperation,0
1449615939584105629,0.0,0.0,0.0,0.0,0.0,0.0,1.0,1449615939583591635,0,0.0,0.0,0.0,0.0,0.0,0.0,1,0.128507939339,0.0,0.0,0.0,0.0,0.0,0.128507939339,0.0,0.0,0.0,0.0,0.0,,0,Sharing Zero Relinquish,10.0,teleoperation,0
1449615939623887316,0.0,0.0,0.0,0.0,0.0,0.0,1.0,1449615939623342181,0,0.0,0.0,0.0,0.0,0.0,0.0,1,0.268190481186,0.0,0.0,0.0,0.0,0.0,0.268190481186,0.0,0.0,0.0,0.0,0.0,,0,Sharing Zero Relinquish,10.0,teleoperation,0
1449615939665609262,0.0,0.0,0.0,0.0,0.0,0.0,1.0,1449615939663368920,0,0.0,0.0,0.0,0.0,0.0,0.0,1,0.268190481186,0.0,0.0,0.0,0.0,0.0,0.268190481186,0.0,0.0,0.0,0.0,0.0,,0,Sharing Zero Relinquish,10.0,teleoperation,0
1449615939703900284,0.0,0.0,0.0,0.0,0.0,0.0,1.0,1449615939703305971,0,0.0,0.0,0.0,0.0,0.0,0.0,1,0.346412698746,0.0,0.0,0.0,0.0,0.0,0.346412698746,0.0,0.0,0.0,0.0,0.0,,0,Sharing Zero Relinquish,10.0,teleoperation,0
1449615939744788300,0.0,0.0,0.0,0.0,0.0,0.0,1.0,1449615939743370711,0,0.0,0.0,0.0,0.0,0.0,0.0,1,0.346412698746,0.0,0.0,0.0,0.0,0.0,0.346412698746,0.0,0.0,0.0,0.0,0.0,,0,Sharing Zero Relinquish,10.0,teleoperation,0
1449615939783914177,0.0,0.0,0.0,0.0,0.0,0.0,1.0,1449615939783279012,0,0.0,0.0,0.0,0.0,0.0,0.0,1,0.346412698746,0.0,0.0,0.0,0.0,0.0,0.346412698746,0.0,0.0,0.0,0.0,0.0,,0,Sharing Zero Relinquish,10.0,teleoperation,0
1449615939824320067,0.0,0.0,0.0,0.0,0.0,0.0,1.0,1449615939823355669,0,0.0,0.0,0.0,0.0,0.0,0.0,1,0.346412698746,0.0,0.0,0.0,0.0,0.0,0.346412698746,0.0,0.0,0.0,0.0,0.0,,0,Sharing Zero Relinquish,10.0,teleoperation,0
1449615939864127446,0.0,0.0,0.0,0.0,0.0,0.0,1.0,1449615939863332402,0,0.0,0.0,0.0,0.0,0.0,0.0,1,0.346412698746,0.0,0.0,0.0,0.0,0.0,0.346412698746,0.0,0.0,0.0,0.0,0.0,,0,Sharing Zero Relinquish,10.0,teleoperation,0
1449615939904013370,0.0,0.0,0.0,0.0,0.0,0.0,1.0,1449615939903374267,0,0.0,0.0,0.0,0.0,0.0,0.0,1,0.346412698746,0.0,0.0,0.0,0.0,0.0,0.346412698746,0.0,0.0,0.0,0.0,0.0,,0,Sharing Zero Relinquish,10.0,teleoperation,0
1449615939943790677,0.0,0.0,0.0,0.0,0.0,0.0,1.0,1449615939943303046,0,0.0,0.0,0.0,0.0,0.0,0.0,1,0.346412698746,0.0,0.0,0.0,0.0,0.0,0.346412698746,0.0,0.0,0.0,0.0,0.0,,0,Sharing Zero Relinquish,10.0,teleoperation,0
1449615939985210028,0.0,0.0,0.0,0.0,0.0,0.0,1.0,1449615939983341410,0,0.0,0.0,0.0,0.0,0.0,0.0,1,0.346412698746,0.0,0.0,0.0,0.0,0.0,0.346412698746,0.0,0.0,0.0,0.0,0.0,,0,Sharing Zero Relinquish,10.0,teleoperation,0
1449615940024905894,0.0,0.0,0.0,0.0,0.0,0.0,1.0,1449615940023415669,0,0.0,0.0,0.0,0.0,0.0,0.0,1,0.346412698746,0.0,0.0,0.0,0.0,0.0,0.346412698746,0.0,0.0,0.0,0.0,0.0,,0,Sharing Zero Relinquish,10.0,teleoperation,0
1449615940064699653,0.00287963245437,-3.04332289367e-05,0.0,0.0,0.0,-0.0052839997518,0.999986039576,1449615940063403901,0,0.0,0.0,0.0,0.0,0.0,0.0,1,0.346412698746,0.0,0.0,0.0,0.0,0.0,0.346412698746,0.0,0.0,0.0,0.0,0.0,,0,Sharing Zero Relinquish,10.0,teleoperation,0
1449615940103526586,0.00287963245437,-3.04332289367e-05,0.0,0.0,0.0,-0.0052839997518,0.999986039576,1449615940103214328,0,0.0,0.0,0.0,0.0,0.0,0.0,1,0.346412698746,0.0,0.0,0.0,0.0,0.0,0.346412698746,0.0,0.0,0.0,0.0,0.0,,0,Sharing Zero Relinquish,10.0,teleoperation,0
1449615940144226940,0.00287963245437,-3.04332289367e-05,0.0,0.0,0.0,-0.0052839997518,0.999986039576,1449615940143638383,0,0.0,0.0,0.0,0.0,0.0,0.0,1,0.346412698746,0.0,0.0,0.0,0.0,0.0,0.346412698746,0.0,0.0,0.0,0.0,0.0,,0,Sharing Zero Relinquish,10.0,teleoperation,0
1449615940183646375,0.00287963245437,-3.04332289367e-05,0.0,0.0,0.0,-0.0052839997518,0.999986039576,1449615940183246465,0,0.0,0.0,0.0,0.0,0.0,0.0,1,0.346412698746,0.0,0.0,0.0,0.0,0.0,0.346412698746,0.0,0.0,0.0,0.0,0.0,,0,Sharing Zero Relinquish,10.0,teleoperation,0
1449615940223409029,0.00287963245437,-3.04332289367e-05,0.0,0.0,0.0,-0.0052839997518,0.999986039576,1449615940223232106,0,0.0,0.0,0.0,0.0,0.0,0.0,1,0.346412698746,0.0,0.0,0.0,0.0,0.00634920671582,0.346412698746,0.0,0.0,0.0,0.0,0.00634920671582,,0,Sharing Zero Relinquish,10.0,teleoperation,0
1449615940263770536,0.00287963245437,-3.04332289367e-05,0.0,0.0,0.0,-0.0052839997518,0.999986039576,1449615940263333135,0,0.0,0.0,0.0,0.0,0.0,0.0,1,0.346412698746,0.0,0.0,0.0,0.0,0.00634920671582,0.346412698746,0.0,0.0,0.0,0.0,0.00634920671582,,0,Sharing Zero Relinquish,10.0,teleoperation,0
1449615940303866755,0.00287963245437,-3.04332289367e-05,0.0,0.0,0.0,-0.0052839997518,0.999986039576,1449615940303349225,0,0.0,0.0,0.0,0.0,0.0,0.0,1,0.346412698746,0.0,0.0,0.0,0.0,0.00634920671582,0.346412698746,0.0,0.0,0.0,0.0,0.00634920671582,,0,Sharing Zero Relinquish,10.0,teleoperation,0
1449615940343952257,0.00575942572016,-3.04332289367e-05,0.0,0.0,0.0,0.0,1.0,1449615940343281216,0,0.0,0.0,0.0,0.0,0.0,0.0,1,0.346412698746,0.0,0.0,0.0,0.0,0.00634920671582,0.346412698746,0.0,0.0,0.0,0.0,0.00634920671582,,0,Sharing Zero Relinquish,10.0,teleoperation,0
1449615940384214973,0.00863905817453,-6.08664578733e-05,0.0,0.0,0.0,-0.0052839997518,0.999986039576,1449615940383323211,0,0.0,0.0,0.0,0.0,0.0,0.0,1,0.346412698746,0.0,0.0,0.0,0.0,0.00634920671582,0.346412698746,0.0,0.0,0.0,0.0,0.00634920671582,,0,Sharing Zero Relinquish,10.0,teleoperation,0
1449615940423605814,0.00863905817453,-6.08664578733e-05,0.0,0.0,0.0,-0.0052839997518,0.999986039576,1449615940423285236,0,0.0,0.0,0.0,0.0,0.0,0.0,1,0.346412698746,0.0,0.0,0.0,0.0,0.0,0.346412698746,0.0,0.0,0.0,0.0,0.0,,0,Sharing Zero Relinquish,10.0,teleoperation,0
1449615940463998569,0.0115188514403,-6.08664578733e-05,0.0,0.0,0.0,0.0,1.0,1449615940463425456,0,0.0,0.0,0.0,0.0,0.0,0.0,1,0.346412698746,0.0,0.0,0.0,0.0,0.0,0.346412698746,0.0,0.0,0.0,0.0,0.0,,0,Sharing Zero Relinquish,10.0,teleoperation,0
1449615940504535760,0.0115188514403,-6.08664578733e-05,0.0,0.0,0.0,0.0,1.0,1449615940503470159,0,0.0,0.0,0.0,0.0,0.0,0.0,1,0.346412698746,0.0,0.0,0.0,0.0,0.00634920671582,0.346412698746,0.0,0.0,0.0,0.0,0.00634920671582,,0,Sharing Zero Relinquish,10.0,teleoperation,0
1449615940544412398,0.0143984838947,-9.129968681e-05,0.0,0.0,0.0,-0.0052839997518,0.999986039576,1449615940543345431,0,0.0,0.0,0.0,0.0,0.0,0.0,1,0.346412698746,0.0,0.0,0.0,0.0,0.00634920671582,0.346412698746,0.0,0.0,0.0,0.0,0.00634920671582,,0,Sharing Zero Relinquish,10.0,teleoperation,0
1449615940583950147,0.0143984838947,-9.129968681e-05,0.0,0.0,0.0,-0.0052839997518,0.999986039576,1449615940583334778,0,0.0,0.0,0.0,0.0,0.0,0.0,1,0.346412698746,0.0,0.0,0.0,0.0,0.00634920671582,0.346412698746,0.0,0.0,0.0,0.0,0.00634920671582,,0,Sharing Zero Relinquish,10.0,teleoperation,0
1449615940624322503,0.0172782771605,-9.129968681e-05,0.0,0.0,0.0,0.0,1.0,1449615940623377232,0,0.0,0.0,0.0,0.0,0.0,0.0,1,0.346412698746,0.0,0.0,0.0,0.0,0.0126984134316,0.346412698746,0.0,0.0,0.0,0.0,0.0126984134316,,0,Sharing Zero Relinquish,10.0,teleoperation,0
1449615940665658609,0.0230378636921,-9.129968681e-05,0.0,0.0,0.0,0.0,1.0,1449615940663422868,0,0.0,0.0,0.0,0.0,0.0,0.0,1,0.346412698746,0.0,0.0,0.0,0.0,0.0126984134316,0.346412698746,0.0,0.0,0.0,0.0,0.0126984134316,,0,Sharing Zero Relinquish,10.0,teleoperation,0
1449615940703553061,0.0230378636921,-9.129968681e-05,0.0,0.0,0.0,0.0,1.0,1449615940703253685,0,0.0,0.0,0.0,0.0,0.0,0.0,1,0.346412698746,0.0,0.0,0.0,0.0,0.0126984134316,0.346412698746,0.0,0.0,0.0,0.0,0.0126984134316,,0,Sharing Zero Relinquish,10.0,teleoperation,0
1449615940743573048,0.0287974502236,-9.129968681e-05,0.0,0.0,0.0,0.0,1.0,1449615940743355511,0,0.0,0.0,0.0,0.0,0.0,0.0,1,0.346412698746,0.0,0.0,0.0,0.0,0.0126984134316,0.346412698746,0.0,0.0,0.0,0.0,0.0126984134316,,0,Sharing Zero Relinquish,10.0,teleoperation,0
1449615940783871050,0.0345570367552,-9.129968681e-05,0.0,0.0,0.0,0.0,1.0,1449615940783309307,0,0.0,0.0,0.0,0.0,0.0,0.0,1,0.346412698746,0.0,0.0,0.0,0.0,0.0126984134316,0.346412698746,0.0,0.0,0.0,0.0,0.0126984134316,,0,Sharing Zero Relinquish,10.0,teleoperation,0
1449615940826378586,0.0345570367552,-9.129968681e-05,0.0,0.0,0.0,0.0,1.0,1449615940823533461,0,0.0,0.0,0.0,0.0,0.0,0.0,1,0.340825397491,0.0,0.0,0.0,0.0,0.0190476194024,0.340825397491,0.0,0.0,0.0,0.0,0.0190476194024,,0,Sharing Zero Relinquish,10.0,teleoperation,0
1449615940864798440,0.0403166232868,-9.129968681e-05,0.0,0.0,0.0,0.0,1.0,1449615940863459599,0,0.0,0.0,0.0,0.0,0.0,0.0,1,0.340825397491,0.0,0.0,0.0,0.0,0.0190476194024,0.340825397491,0.0,0.0,0.0,0.0,0.0190476194024,,0,Sharing Zero Relinquish,10.0,teleoperation,0
1449615940903896378,0.0460762098184,-9.129968681e-05,0.0,0.0,0.0,0.0,1.0,1449615940903373274,0,0.0,0.0,0.0,0.0,0.0,0.0,1,0.335238096237,0.0,0.0,0.0,0.0,0.0761904776096,0.335238096237,0.0,0.0,0.0,0.0,0.0761904776096,,0,Sharing Zero Relinquish,10.0,teleoperation,0
1449615940946456783,0.0489558422728,-6.08664578733e-05,0.0,0.0,0.0,0.0052839997518,0.999986039576,1449615940945111241,0,0.0,0.0,0.0,0.0,0.0,0.0,1,0.335238096237,0.0,0.0,0.0,0.0,0.0761904776096,0.335238096237,0.0,0.0,0.0,0.0,0.0761904776096,,0,Sharing Zero Relinquish,10.0,teleoperation,0
1449615940983894115,0.0547151071815,4.06575814682e-20,0.0,0.0,0.0,0.0052839997518,0.999986039576,1449615940983299095,0,0.0,0.0,0.0,0.0,0.0,0.0,1,0.335238096237,0.0,0.0,0.0,0.0,0.0761904776096,0.335238096237,0.0,0.0,0.0,0.0,0.0761904776096,,0,Sharing Zero Relinquish,10.0,teleoperation,0
1449615941024298437,0.0604743720903,6.08664578733e-05,0.0,0.0,0.0,0.0052839997518,0.999986039576,1449615941023323201,0,0.0,0.0,0.0,0.0,0.0,0.0,1,0.301714288712,0.0,0.0,0.0,0.0,0.342857146263,0.301714288712,0.0,0.0,0.0,0.0,0.342857146263,,0,Sharing Zero Relinquish,10.0,teleoperation,0
1449615941064163773,0.066233636999,0.000121732915747,0.0,0.0,0.0,0.0052839997518,0.999986039576,1449615941063307213,0,0.0,0.0,0.0,0.0,0.0,0.0,1,0.301714288712,0.0,0.0,0.0,0.0,0.342857146263,0.301714288712,0.0,0.0,0.0,0.0,0.342857146263,,0,Sharing Zero Relinquish,10.0,teleoperation,0
1449615941103763029,0.0719929019077,0.00018259937362,0.0,0.0,0.0,0.0052839997518,0.999986039576,1449615941103294342,0,0.0,0.0,0.0,0.0,0.0,0.0,1,0.296126987457,0.0,0.0,0.0,0.0,0.342857146263,0.296126987457,0.0,0.0,0.0,0.0,0.342857146263,,0,Sharing Zero Relinquish,10.0,teleoperation,0
1449615941144345372,0.080630352022,0.000365188550652,0.0,0.0,0.0,0.0105678519699,0.999944158693,1449615941143289885,0,0.0,0.0,0.0,0.0,0.0,0.0,1,0.296126987457,0.0,0.0,0.0,0.0,0.342857146263,0.296126987457,0.0,0.0,0.0,0.0,0.342857146263,,0,Sharing Zero Relinquish,10.0,teleoperation,0
1449615941183791654,0.0863886520981,0.000486914668674,0.0,0.0,0.0,0.0105678519699,0.999944158693,1449615941183344278,0,0.0,0.0,0.0,0.0,0.0,0.0,1,0.296126987457,0.0,0.0,0.0,0.0,0.342857146263,0.296126987457,0.0,0.0,0.0,0.0,0.342857146263,,0,Sharing Zero Relinquish,10.0,teleoperation,0
1449615941224308062,0.0921469521743,0.000608640786695,0.0,0.0,0.0,0.0105678519699,0.999944158693,1449615941223777447,0,0.0,0.0,0.0,0.0,0.0,0.0,1,0.301714288712,0.0,0.0,0.0,0.0,0.336507940292,0.301714288712,0.0,0.0,0.0,0.0,0.336507940292,,0,Sharing Zero Relinquish,10.0,teleoperation,0
1449615941263777664,0.103663552327,0.000852093022738,0.0,0.0,0.0,0.0105678519699,0.999944158693,1449615941263308940,0,0.0,0.0,0.0,0.0,0.0,0.0,1,0.301714288712,0.0,0.0,0.0,0.0,0.336507940292,0.301714288712,0.0,0.0,0.0,0.0,0.336507940292,,0,Sharing Zero Relinquish,10.0,teleoperation,0
1449615941303857702,0.109421852403,0.00097381914076,0.0,0.0,0.0,0.0105678519699,0.999944158693,1449615941303290390,0,0.0,0.0,0.0,0.0,0.0,0.0,1,0.262603179932,0.0,0.0,0.0,0.0,0.298412704468,0.262603179932,0.0,0.0,0.0,0.0,0.298412704468,,0,Sharing Zero Relinquish,10.0,teleoperation,0
1449615941345326004,0.118056890615,0.00124767741598,0.0,0.0,0.0,0.0158514091245,0.999874358521,1449615941343425776,0,0.0,0.0,0.0,0.0,0.0,0.0,1,0.262603179932,0.0,0.0,0.0,0.0,0.298412704468,0.262603179932,0.0,0.0,0.0,0.0,0.298412704468,,0,Sharing Zero Relinquish,10.0,teleoperation,0
1449615941383979546,0.126688552542,0.00161277420417,0.0,0.0,0.0,0.0211345236944,0.999776641009,1449615941383267514,0,0.0,0.0,0.0,0.0,0.0,0.0,1,0.262603179932,0.0,0.0,0.0,0.0,0.298412704468,0.262603179932,0.0,0.0,0.0,0.0,0.298412704468,,0,Sharing Zero Relinquish,10.0,teleoperation,0
1449615941423585993,0.138197435111,0.00209956992177,0.0,0.0,0.0,0.0211345236944,0.999776641009,1449615941423308317,0,0.0,0.0,0.0,0.0,0.0,0.0,1,0.301714288712,0.0,0.0,0.0,0.0,0.342857146263,0.301714288712,0.0,0.0,0.0,0.0,0.342857146263,,0,Sharing Zero Relinquish,10.0,teleoperation,0
1449615941464191804,0.143951876395,0.00234296778057,0.0,0.0,0.0,0.0211345236944,0.999776641009,1449615941463371703,0,0.0,0.0,0.0,0.0,0.0,0.0,1,0.301714288712,0.0,0.0,0.0,0.0,0.342857146263,0.301714288712,0.0,0.0,0.0,0.0,0.342857146263,,0,Sharing Zero Relinquish,10.0,teleoperation,0
1449615941503896283,0.15257919803,0.00279926230678,0.0,0.0,0.0,0.0264170481704,0.999651008886,1449615941503298173,0,0.0,0.0,0.0,0.0,0.0,0.0,1,0.301714288712,0.0,0.0,0.0,0.0,0.342857146263,0.301714288712,0.0,0.0,0.0,0.0,0.342857146263,,0,Sharing Zero Relinquish,10.0,teleoperation,0
1449615941544621635,0.164082293543,0.00340765500839,0.0,0.0,0.0,0.0264170481704,0.999651008886,1449615941543338206,0,0.0,0.0,0.0,0.0,0.0,0.0,1,0.301714288712,0.0,0.0,0.0,0.0,0.342857146263,0.301714288712,0.0,0.0,0.0,0.0,0.342857146263,,0,Sharing Zero Relinquish,10.0,teleoperation,0
1449615941585790334,0.1698338413,0.0037118513592,0.0,0.0,0.0,0.0264170481704,0.999651008886,1449615941583609910,0,0.0,0.0,0.0,0.0,0.0,0.0,1,0.301714288712,0.0,0.0,0.0,0.0,0.342857146263,0.301714288712,0.0,0.0,0.0,0.0,0.342857146263,,0,Sharing Zero Relinquish,10.0,teleoperation,0
1449615941623653265,0.17845585912,0.00425929266326,0.0,0.0,0.0,0.0316988350601,0.999497465658,1449615941623296910,0,0.0,0.0,0.0,0.0,0.0,0.0,1,0.301714288712,0.0,0.0,0.0,0.0,0.336507940292,0.301714288712,0.0,0.0,0.0,0.0,0.336507940292,,0,Sharing Zero Relinquish,10.0,teleoperation,0
1449615941663742737,0.189951882881,0.004989214402,0.0,0.0,0.0,0.0316988350601,0.999497465658,1449615941663351607,0,0.0,0.0,0.0,0.0,0.0,0.0,1,0.301714288712,0.0,0.0,0.0,0.0,0.336507940292,0.301714288712,0.0,0.0,0.0,0.0,0.336507940292,,0,Sharing Zero Relinquish,10.0,teleoperation,0
1449615941705424380,0.198567633959,0.00562774134424,0.0,0.0,0.0,0.0369797368913,0.999316015612,1449615941703515611,0,0.0,0.0,0.0,0.0,0.0,0.0,1,0.301714288712,0.0,0.0,0.0,0.0,0.342857146263,0.301714288712,0.0,0.0,0.0,0.0,0.342857146263,,0,Sharing Zero Relinquish,10.0,teleoperation,0
1449615941744241276,0.207176156063,0.00635728261229,0.0,0.0,0.0,0.042259606217,0.999106663816,1449615941743399009,0,0.0,0.0,0.0,0.0,0.0,0.0,1,0.301714288712,0.0,0.0,0.0,0.0,0.342857146263,0.301714288712,0.0,0.0,0.0,0.0,0.342857146263,,0,Sharing Zero Relinquish,10.0,teleoperation,0
1449615941783725537,0.218654185536,0.00733000430302,0.0,0.0,0.0,0.042259606217,0.999106663816,1449615941783312243,0,0.0,0.0,0.0,0.0,0.0,0.0,1,0.301714288712,0.0,0.0,0.0,0.0,0.342857146263,0.301714288712,0.0,0.0,0.0,0.0,0.342857146263,,0,Sharing Zero Relinquish,10.0,teleoperation,0
1449615941823985086,0.224393200272,0.00781636514838,0.0,0.0,0.0,0.042259606217,0.999106663816,1449615941823541842,0,0.0,0.0,0.0,0.0,0.0,0.0,1,0.301714288712,0.0,0.0,0.0,0.0,0.342857146263,0.301714288712,0.0,0.0,0.0,0.0,0.342857146263,,0,Sharing Zero Relinquish,10.0,teleoperation,0
1449615941863987225,0.235848108014,0.00903145225883,0.0,0.0,0.0,0.0528156577107,0.998604279132,1449615941863355921,0,0.0,0.0,0.0,0.0,0.0,0.0,1,0.301714288712,0.0,0.0,0.0,0.0,0.342857146263,0.301714288712,0.0,0.0,0.0,0.0,0.342857146263,,0,Sharing Zero Relinquish,10.0,teleoperation,0
1449615941904091446,0.247303015755,0.0102465393693,0.0,0.0,0.0,0.0528156577107,0.998604279132,1449615941903346817,0,0.0,0.0,0.0,0.0,0.0,0.0,1,0.346412698746,0.0,0.0,0.0,0.0,0.00634920671582,0.346412698746,0.0,0.0,0.0,0.0,0.00634920671582,,0,Sharing Zero Relinquish,10.0,teleoperation,0
1449615941944917353,0.253030469626,0.0108540829245,0.0,0.0,0.0,0.0528156577107,0.998604279132,1449615941943732483,0,0.0,0.0,0.0,0.0,0.0,0.0,1,0.346412698746,0.0,0.0,0.0,0.0,0.00634920671582,0.346412698746,0.0,0.0,0.0,0.0,0.00634920671582,,0,Sharing Zero Relinquish,10.0,teleoperation,0
1449615941983608275,0.264457138524,0.0123109926534,0.0,0.0,0.0,0.0633658106137,0.997990367712,1449615941983275813,0,0.0,0.0,0.0,0.0,0.0,0.0,1,0.346412698746,0.0,0.0,0.0,0.0,0.00634920671582,0.346412698746,0.0,0.0,0.0,0.0,0.00634920671582,,0,Sharing Zero Relinquish,10.0,teleoperation,0
1449615942023490365,0.275883807422,0.0137679023823,0.0,0.0,0.0,0.0633658106137,0.997990367712,1449615942023247090,0,0.0,0.0,0.0,0.0,0.0,0.0,1,0.346412698746,0.0,0.0,0.0,0.0,0.0,0.346412698746,0.0,0.0,0.0,0.0,0.0,,0,Sharing Zero Relinquish,10.0,teleoperation,0
1449615942064249072,0.278736466025,0.014162298312,0.0,0.0,0.0,0.0686383068554,0.997641610415,1449615942063278766,0,0.0,0.0,0.0,0.0,0.0,0.0,1,0.346412698746,0.0,0.0,0.0,0.0,0.0,0.346412698746,0.0,0.0,0.0,0.0,0.0,,0,Sharing Zero Relinquish,10.0,teleoperation,0
1449615942104066933,0.292978122969,0.0162849002114,0.0,0.0,0.0,0.0739088866573,0.997264998119,1449615942103366630,0,0.0,0.0,0.0,0.0,0.0,0.0,1,0.346412698746,0.0,0.0,0.0,0.0,-0.00634920671582,0.346412698746,0.0,0.0,0.0,0.0,-0.00634920671582,,0,Sharing Zero Relinquish,10.0,teleoperation,0
1449615942144015375,0.304371448525,0.017982981731,0.0,0.0,0.0,0.0739088866573,0.997264998119,1449615942143286808,0,0.0,0.0,0.0,0.0,0.0,0.0,1,0.346412698746,0.0,0.0,0.0,0.0,-0.00634920671582,0.346412698746,0.0,0.0,0.0,0.0,-0.00634920671582,,0,Sharing Zero Relinquish,10.0,teleoperation,0
1449615942183736268,0.310048894829,0.0189522291044,0.0,0.0,0.0,0.0844437083633,0.996428251365,1449615942183298267,0,0.0,0.0,0.0,0.0,0.0,0.0,1,0.346412698746,0.0,0.0,0.0,0.0,-0.00634920671582,0.346412698746,0.0,0.0,0.0,0.0,-0.00634920671582,,0,Sharing Zero Relinquish,10.0,teleoperation,0
1449615942224284277,0.321403787439,0.0208907238511,0.0,0.0,0.0,0.0844437083633,0.996428251365,1449615942223970052,0,0.0,0.0,0.0,0.0,0.0,0.0,1,0.340825397491,0.0,0.0,0.0,0.0,-0.0317460328341,0.340825397491,0.0,0.0,0.0,0.0,-0.0317460328341,,0,Sharing Zero Relinquish,10.0,teleoperation,0
1449615942263858233,0.335571003454,0.0234637030047,0.0,0.0,0.0,0.0897076561262,0.99596814027,1449615942263285054,0,0.0,0.0,0.0,0.0,0.0,0.0,1,0.340825397491,0.0,0.0,0.0,0.0,-0.0317460328341,0.340825397491,0.0,0.0,0.0,0.0,-0.0317460328341,,0,Sharing Zero Relinquish,10.0,teleoperation,0
1449615942305126736,0.344054543876,0.0250972345148,0.0,0.0,0.0,0.0949690991753,0.995480220899,1449615942304144150,0,0.0,0.0,0.0,0.0,0.0,0.0,1,0.251428577423,0.0,0.0,0.0,0.0,-0.279365086555,0.251428577423,0.0,0.0,0.0,0.0,-0.279365086555,,0,Sharing Zero Relinquish,10.0,teleoperation,0
1449615942344240987,0.352520347647,0.0268203276056,0.0,0.0,0.0,0.100227890607,0.994964506877,1449615942343587087,0,0.0,0.0,0.0,0.0,0.0,0.0,1,0.251428577423,0.0,0.0,0.0,0.0,-0.279365086555,0.251428577423,0.0,0.0,0.0,0.0,-0.279365086555,,0,Sharing Zero Relinquish,10.0,teleoperation,0
1449615942387071211,0.366598883707,0.0298410979926,0.0,0.0,0.0,0.10548388359,0.994421012601,1449615942384005411,0,0.0,0.0,0.0,0.0,0.0,0.0,1,0.251428577423,0.0,0.0,0.0,0.0,-0.279365086555,0.251428577423,0.0,0.0,0.0,0.0,-0.279365086555,,0,Sharing Zero Relinquish,10.0,teleoperation,0
1449615942427254640,0.372230298132,0.0310494061473,0.0,0.0,0.0,0.10548388359,0.994421012601,1449615942423382320,0,0.0,0.0,0.0,0.0,0.0,0.0,1,0.296126987457,0.0,0.0,0.0,0.0,-0.342857146263,0.296126987457,0.0,0.0,0.0,0.0,-0.342857146263,,0,Sharing Zero Relinquish,10.0,teleoperation,0
1449615942463753759,0.386276124974,0.0342187877355,0.0,0.0,0.0,0.110736931374,0.993849753247,1449615942463348256,0,0.0,0.0,0.0,0.0,0.0,0.0,1,0.296126987457,0.0,0.0,0.0,0.0,-0.342857146263,0.296126987457,0.0,0.0,0.0,0.0,-0.342857146263,,0,Sharing Zero Relinquish,10.0,teleoperation,0
1449615942504018477,0.397456689942,0.0369912081664,0.0,0.0,0.0,0.121233604752,0.99262400388,1449615942503447309,0,0.0,0.0,0.0,0.0,0.0,0.0,1,0.301714288712,0.0,0.0,0.0,0.0,-0.342857146263,0.301714288712,0.0,0.0,0.0,0.0,-0.342857146263,,0,Sharing Zero Relinquish,10.0,teleoperation,0
1449615942544212255,0.405863619312,0.0389817914612,0.0,0.0,0.0,0.115986887289,0.993250744765,1449615942543348202,0,0.0,0.0,0.0,0.0,0.0,0.0,1,0.301714288712,0.0,0.0,0.0,0.0,-0.342857146263,0.301714288712,0.0,0.0,0.0,0.0,-0.342857146263,,0,Sharing Zero Relinquish,10.0,teleoperation,0
1449615942584044796,0.417014261415,0.0418722116319,0.0,0.0,0.0,0.126476937269,0.991969548091,1449615942583377587,0,0.0,0.0,0.0,0.0,0.0,0.0,1,0.301714288712,0.0,0.0,0.0,0.0,-0.342857146263,0.301714288712,0.0,0.0,0.0,0.0,-0.342857146263,,0,Sharing Zero Relinquish,10.0,teleoperation,0
1449615942624895500,0.430913603794,0.0456323330082,0.0,0.0,0.0,0.131716738444,0.99128739567,1449615942624217896,0,0.0,0.0,0.0,0.0,0.0,0.0,1,0.245841276169,0.0,0.0,0.0,0.0,-0.285714292526,0.245841276169,0.0,0.0,0.0,0.0,-0.285714292526,,0,Sharing Zero Relinquish,10.0,teleoperation,0
1449615942667761179,0.436473340746,0.0471363815588,0.0,0.0,0.0,0.131716738444,0.99128739567,1449615942663418494,0,0.0,0.0,0.0,0.0,0.0,0.0,1,0.245841276169,0.0,0.0,0.0,0.0,-0.285714292526,0.245841276169,0.0,0.0,0.0,0.0,-0.285714292526,,0,Sharing Zero Relinquish,10.0,teleoperation,0
1449615942703975900,0.450332170562,0.0510431791577,0.0,0.0,0.0,0.136952861975,0.990577565664,1449615942703449384,0,0.0,0.0,0.0,0.0,0.0,0.0,1,0.296126987457,0.0,0.0,0.0,0.0,-0.342857146263,0.296126987457,0.0,0.0,0.0,0.0,-0.342857146263,,0,Sharing Zero Relinquish,10.0,teleoperation,0
1449615942743619424,0.458622232239,0.0534750016579,0.0,0.0,0.0,0.142185161666,0.989840077892,1449615942743309058,0,0.0,0.0,0.0,0.0,0.0,0.0,1,0.296126987457,0.0,0.0,0.0,0.0,-0.342857146263,0.296126987457,0.0,0.0,0.0,0.0,-0.342857146263,,0,Sharing Zero Relinquish,10.0,teleoperation,0
1449615942783999577,0.466886131848,0.0559942965065,0.0,0.0,0.0,0.147413491427,0.989074952946,1449615942783369721,0,0.0,0.0,0.0,0.0,0.0,0.0,1,0.296126987457,0.0,0.0,0.0,0.0,-0.342857146263,0.296126987457,0.0,0.0,0.0,0.0,-0.342857146263,,0,Sharing Zero Relinquish,10.0,teleoperation,0
1449615942824239081,0.47790466466,0.0593533563047,0.0,0.0,0.0,0.147413491427,0.989074952946,1449615942823372598,0,0.0,0.0,0.0,0.0,0.0,0.0,1,0.296126987457,0.0,0.0,0.0,0.0,-0.336507940292,0.296126987457,0.0,0.0,0.0,0.0,-0.336507940292,,0,Sharing Zero Relinquish,10.0,teleoperation,0
1449615942864041813,0.491632689005,0.0636974993641,0.0,0.0,0.0,0.152637705278,0.988282212188,1449615942863335184,0,0.0,0.0,0.0,0.0,0.0,0.0,1,0.296126987457,0.0,0.0,0.0,0.0,-0.336507940292,0.296126987457,0.0,0.0,0.0,0.0,-0.336507940292,,0,Sharing Zero Relinquish,10.0,teleoperation,0
1449615942906282561,0.497123898743,0.0654351565879,0.0,0.0,0.0,0.152637705278,0.988282212188,1449615942903362896,0,0.0,0.0,0.0,0.0,0.0,0.0,1,0.296126987457,0.0,0.0,0.0,0.0,-0.336507940292,0.296126987457,0.0,0.0,0.0,0.0,-0.336507940292,,0,Sharing Zero Relinquish,10.0,teleoperation,0
1449615942943675692,0.505332708439,0.0681285423115,0.0,0.0,0.0,0.157857657354,0.987461877753,1449615942943218679,0,0.0,0.0,0.0,0.0,0.0,0.0,1,0.296126987457,0.0,0.0,0.0,0.0,-0.336507940292,0.296126987457,0.0,0.0,0.0,0.0,-0.336507940292,,0,Sharing Zero Relinquish,10.0,teleoperation,0
1449615942983833696,0.516277788034,0.0717197232762,0.0,0.0,0.0,0.157857657354,0.987461877753,1449615942983277518,0,0.0,0.0,0.0,0.0,0.0,0.0,1,0.296126987457,0.0,0.0,0.0,0.0,-0.336507940292,0.296126987457,0.0,0.0,0.0,0.0,-0.336507940292,,0,Sharing Zero Relinquish,10.0,teleoperation,0
1449615943023495927,0.524457676038,0.0744997080833,0.0,0.0,0.0,0.163073201911,0.986613972544,1449615943023237427,0,0.0,0.0,0.0,0.0,0.0,0.0,1,0.301714288712,0.0,0.0,0.0,0.0,-0.336507940292,0.301714288712,0.0,0.0,0.0,0.0,-0.336507940292,,0,Sharing Zero Relinquish,10.0,teleoperation,0
1449615943063462290,0.535364193376,0.0782063544928,0.0,0.0,0.0,0.163073201911,0.986613972544,1449615943063244846,0,0.0,0.0,0.0,0.0,0.0,0.0,1,0.301714288712,0.0,0.0,0.0,0.0,-0.336507940292,0.301714288712,0.0,0.0,0.0,0.0,-0.336507940292,,0,Sharing Zero Relinquish,10.0,teleoperation,0
1449615943104127568,0.543514246137,0.0810726279075,0.0,0.0,0.0,0.168284193326,0.985738520236,1449615943103341928,0,0.0,0.0,0.0,0.0,0.0,0.0,1,0.301714288712,0.0,0.0,0.0,0.0,-0.336507940292,0.301714288712,0.0,0.0,0.0,0.0,-0.336507940292,,0,Sharing Zero Relinquish,10.0,teleoperation,0
1449615943144226771,0.551694134141,0.0838526127146,0.0,0.0,0.0,0.163073201911,0.986613972544,1449615943143317740,0,0.0,0.0,0.0,0.0,0.0,0.0,1,0.301714288712,0.0,0.0,0.0,0.0,-0.336507940292,0.301714288712,0.0,0.0,0.0,0.0,-0.336507940292,,0,Sharing Zero Relinquish,10.0,teleoperation,0
1449615943183814608,0.559844186901,0.0867188861293,0.0,0.0,0.0,0.168284193326,0.985738520236,1449615943183287495,0,0.0,0.0,0.0,0.0,0.0,0.0,1,0.301714288712,0.0,0.0,0.0,0.0,-0.336507940292,0.301714288712,0.0,0.0,0.0,0.0,-0.336507940292,,0,Sharing Zero Relinquish,10.0,teleoperation,0
1449615943224170110,0.570710923915,0.0905405840155,0.0,0.0,0.0,0.168284193326,0.985738520236,1449615943223376930,0,0.0,0.0,0.0,0.0,0.0,0.0,1,0.296126987457,0.0,0.0,0.0,0.0,-0.342857146263,0.296126987457,0.0,0.0,0.0,0.0,-0.342857146263,,0,Sharing Zero Relinquish,10.0,teleoperation,0
1449615943266359754,0.578830231212,0.0934928259249,0.0,0.0,0.0,0.173490486104,0.984835545272,1449615943263327936,0,0.0,0.0,0.0,0.0,0.0,0.0,1,0.296126987457,0.0,0.0,0.0,0.0,-0.342857146263,0.296126987457,0.0,0.0,0.0,0.0,-0.342857146263,,0,Sharing Zero Relinquish,10.0,teleoperation,0
1449615943304568398,0.592413652479,0.0982699482827,0.0,0.0,0.0,0.168284193326,0.985738520236,1449615943303426868,0,0.0,0.0,0.0,0.0,0.0,0.0,1,0.301714288712,0.0,0.0,0.0,0.0,-0.336507940292,0.301714288712,0.0,0.0,0.0,0.0,-0.336507940292,,0,Sharing Zero Relinquish,10.0,teleoperation,0
1449615943344975878,0.597847020986,0.100180797226,0.0,0.0,0.0,0.168284193326,0.985738520236,1449615943343342509,0,0.0,0.0,0.0,0.0,0.0,0.0,1,0.301714288712,0.0,0.0,0.0,0.0,-0.336507940292,0.301714288712,0.0,0.0,0.0,0.0,-0.336507940292,,0,Sharing Zero Relinquish,10.0,teleoperation,0
1449615943384109800,0.608713758,0.104002495112,0.0,0.0,0.0,0.168284193326,0.985738520236,1449615943383551981,0,0.0,0.0,0.0,0.0,0.0,0.0,1,0.301714288712,0.0,0.0,0.0,0.0,-0.336507940292,0.301714288712,0.0,0.0,0.0,0.0,-0.336507940292,,0,Sharing Zero Relinquish,10.0,teleoperation,0
1449615943423961401,0.619580495014,0.107824192998,0.0,0.0,0.0,0.168284193326,0.985738520236,1449615943423277182,0,0.0,0.0,0.0,0.0,0.0,0.0,1,0.296126987457,0.0,0.0,0.0,0.0,-0.342857146263,0.296126987457,0.0,0.0,0.0,0.0,-0.342857146263,,0,Sharing Zero Relinquish,10.0,teleoperation,0
1449615943464779390,0.630447232027,0.111645890884,0.0,0.0,0.0,0.168284193326,0.985738520236,1449615943463348219,0,0.0,0.0,0.0,0.0,0.0,0.0,1,0.296126987457,0.0,0.0,0.0,0.0,-0.342857146263,0.296126987457,0.0,0.0,0.0,0.0,-0.342857146263,,0,Sharing Zero Relinquish,10.0,teleoperation,0
1449615943505722393,0.638627120031,0.114425875692,0.0,0.0,0.0,0.163073201911,0.986613972544,1449615943503382141,0,0.0,0.0,0.0,0.0,0.0,0.0,1,0.296126987457,0.0,0.0,0.0,0.0,-0.336507940292,0.296126987457,0.0,0.0,0.0,0.0,-0.336507940292,,0,Sharing Zero Relinquish,10.0,teleoperation,0
1449615943543883634,0.64953363737,0.118132522101,0.0,0.0,0.0,0.163073201911,0.986613972544,1449615943543294155,0,0.0,0.0,0.0,0.0,0.0,0.0,1,0.296126987457,0.0,0.0,0.0,0.0,-0.336507940292,0.296126987457,0.0,0.0,0.0,0.0,-0.336507940292,,0,Sharing Zero Relinquish,10.0,teleoperation,0
1449615943584380088,0.660440154708,0.121839168511,0.0,0.0,0.0,0.163073201911,0.986613972544,1449615943583383259,0,0.0,0.0,0.0,0.0,0.0,0.0,1,0.296126987457,0.0,0.0,0.0,0.0,-0.336507940292,0.296126987457,0.0,0.0,0.0,0.0,-0.336507940292,,0,Sharing Zero Relinquish,10.0,teleoperation,0
1449615943623603946,0.668648964404,0.124532554234,0.0,0.0,0.0,0.157857657354,0.987461877753,1449615943623248373,0,0.0,0.0,0.0,0.0,0.0,0.0,1,0.296126987457,0.0,0.0,0.0,0.0,-0.336507940292,0.296126987457,0.0,0.0,0.0,0.0,-0.336507940292,,0,Sharing Zero Relinquish,10.0,teleoperation,0
1449615943664539686,0.679594043999,0.128123735199,0.0,0.0,0.0,0.157857657354,0.987461877753,1449615943663526150,0,0.0,0.0,0.0,0.0,0.0,0.0,1,0.296126987457,0.0,0.0,0.0,0.0,-0.336507940292,0.296126987457,0.0,0.0,0.0,0.0,-0.336507940292,,0,Sharing Zero Relinquish,10.0,teleoperation,0
1449615943703581202,0.693322068344,0.132467878258,0.0,0.0,0.0,0.152637705278,0.988282212188,1449615943703305581,0,0.0,0.0,0.0,0.0,0.0,0.0,1,0.296126987457,0.0,0.0,0.0,0.0,-0.336507940292,0.296126987457,0.0,0.0,0.0,0.0,-0.336507940292,,0,Sharing Zero Relinquish,10.0,teleoperation,0
1449615943743861925,0.701585967953,0.134987173107,0.0,0.0,0.0,0.147413491427,0.989074952946,1449615943743288183,0,0.0,0.0,0.0,0.0,0.0,0.0,1,0.296126987457,0.0,0.0,0.0,0.0,-0.336507940292,0.296126987457,0.0,0.0,0.0,0.0,-0.336507940292,,0,Sharing Zero Relinquish,10.0,teleoperation,0
1449615943789327218,0.712604500765,0.138346232905,0.0,0.0,0.0,0.147413491427,0.989074952946,1449615943785738462,0,0.0,0.0,0.0,0.0,0.0,0.0,1,0.296126987457,0.0,0.0,0.0,0.0,-0.336507940292,0.296126987457,0.0,0.0,0.0,0.0,-0.336507940292,,0,Sharing Zero Relinquish,10.0,teleoperation,0
1449615943823667512,0.731947978012,0.144020485405,0.0,0.0,0.0,0.142185161666,0.989840077892,1449615943823277863,0,0.0,0.0,0.0,0.0,0.0,0.0,1,0.301714288712,0.0,0.0,0.0,0.0,-0.342857146263,0.301714288712,0.0,0.0,0.0,0.0,-0.342857146263,,0,Sharing Zero Relinquish,10.0,teleoperation,0
1449615943863743802,0.731947978012,0.144020485405,0.0,0.0,0.0,0.142185161666,0.989840077892,1449615943863365251,0,0.0,0.0,0.0,0.0,0.0,0.0,1,0.301714288712,0.0,0.0,0.0,0.0,-0.342857146263,0.301714288712,0.0,0.0,0.0,0.0,-0.342857146263,,0,Sharing Zero Relinquish,10.0,teleoperation,0
1449615943904991624,0.745806807828,0.147927283004,0.0,0.0,0.0,0.136952861975,0.990577565664,1449615943904789691,0,0.0,0.0,0.0,0.0,0.0,0.0,1,0.27377778244,0.0,0.0,0.0,0.0,-0.304761910439,0.27377778244,0.0,0.0,0.0,0.0,-0.304761910439,,0,Sharing Zero Relinquish,10.0,teleoperation,0
1449615943944084383,0.765265887159,0.153191452931,0.0,0.0,0.0,0.131716738444,0.99128739567,1449615943943395375,0,0.0,0.0,0.0,0.0,0.0,0.0,1,0.27377778244,0.0,0.0,0.0,0.0,-0.304761910439,0.27377778244,0.0,0.0,0.0,0.0,-0.304761910439,,0,Sharing Zero Relinquish,10.0,teleoperation,0
1449615943983560025,0.765265887159,0.153191452931,0.0,0.0,0.0,0.131716738444,0.99128739567,1449615943983218095,0,0.0,0.0,0.0,0.0,0.0,0.0,1,0.27377778244,0.0,0.0,0.0,0.0,-0.304761910439,0.27377778244,0.0,0.0,0.0,0.0,-0.304761910439,,0,Sharing Zero Relinquish,10.0,teleoperation,0
1449615944023855991,0.776446452127,0.155963873362,0.0,0.0,0.0,0.121233604752,0.99262400388,1449615944023287924,0,0.0,0.0,0.0,0.0,0.0,0.0,1,0.301714288712,0.0,0.0,0.0,0.0,-0.342857146263,0.301714288712,0.0,0.0,0.0,0.0,-0.342857146263,,0,Sharing Zero Relinquish,10.0,teleoperation,0
1449615944064277306,0.790458001077,0.159281512187,0.0,0.0,0.0,0.115986887289,0.993250744765,1449615944063318485,0,0.0,0.0,0.0,0.0,0.0,0.0,1,0.301714288712,0.0,0.0,0.0,0.0,-0.342857146263,0.301714288712,0.0,0.0,0.0,0.0,-0.342857146263,,0,Sharing Zero Relinquish,10.0,teleoperation,0
1449615944103958727,0.801667240237,0.161935623246,0.0,0.0,0.0,0.115986887289,0.993250744765,1449615944103327972,0,0.0,0.0,0.0,0.0,0.0,0.0,1,0.301714288712,0.0,0.0,0.0,0.0,-0.342857146263,0.301714288712,0.0,0.0,0.0,0.0,-0.342857146263,,0,Sharing Zero Relinquish,10.0,teleoperation,0
1449615944143966017,0.810094736342,0.163837252199,0.0,0.0,0.0,0.110736931374,0.993849753247,1449615944143371481,0,0.0,0.0,0.0,0.0,0.0,0.0,1,0.301714288712,0.0,0.0,0.0,0.0,-0.342857146263,0.301714288712,0.0,0.0,0.0,0.0,-0.342857146263,,0,Sharing Zero Relinquish,10.0,teleoperation,0
1449615944183630839,0.821382474703,0.166134709654,0.0,0.0,0.0,0.100227890607,0.994964506877,1449615944183288141,0,0.0,0.0,0.0,0.0,0.0,0.0,1,0.301714288712,0.0,0.0,0.0,0.0,-0.342857146263,0.301714288712,0.0,0.0,0.0,0.0,-0.342857146263,,0,Sharing Zero Relinquish,10.0,teleoperation,0
1449615944225129226,0.827026343884,0.167283438381,0.0,0.0,0.0,0.100227890607,0.994964506877,1449615944223356333,0,0.0,0.0,0.0,0.0,0.0,0.0,1,0.296126987457,0.0,0.0,0.0,0.0,-0.336507940292,0.296126987457,0.0,0.0,0.0,0.0,-0.336507940292,,0,Sharing Zero Relinquish,10.0,teleoperation,0
1449615944263697738,0.84116557792,0.170005990898,0.0,0.0,0.0,0.0949690991753,0.995480220899,1449615944263293144,0,0.0,0.0,0.0,0.0,0.0,0.0,1,0.296126987457,0.0,0.0,0.0,0.0,-0.336507940292,0.296126987457,0.0,0.0,0.0,0.0,-0.336507940292,,0,Sharing Zero Relinquish,10.0,teleoperation,0
1449615944303763290,0.849665907529,0.17154977839,0.0,0.0,0.0,0.0897076561262,0.99596814027,1449615944303336710,0,0.0,0.0,0.0,0.0,0.0,0.0,1,0.301714288712,0.0,0.0,0.0,0.0,-0.342857146263,0.301714288712,0.0,0.0,0.0,0.0,-0.342857146263,,0,Sharing Zero Relinquish,10.0,teleoperation,0
1449615944343639689,0.860999680341,0.173608161713,0.0,0.0,0.0,0.0897076561262,0.99596814027,1449615944343262706,0,0.0,0.0,0.0,0.0,0.0,0.0,1,0.301714288712,0.0,0.0,0.0,0.0,-0.342857146263,0.301714288712,0.0,0.0,0.0,0.0,-0.342857146263,,0,Sharing Zero Relinquish,10.0,teleoperation,0
1449615944384074864,0.872374424604,0.175426551387,0.0,0.0,0.0,0.0791774028604,0.996860541338,1449615944383290491,0,0.0,0.0,0.0,0.0,0.0,0.0,1,0.301714288712,0.0,0.0,0.0,0.0,-0.342857146263,0.301714288712,0.0,0.0,0.0,0.0,-0.342857146263,,0,Sharing Zero Relinquish,10.0,teleoperation,0
1449615944424414476,0.880919418771,0.176700112527,0.0,0.0,0.0,0.0739088866573,0.997264998119,1449615944423383737,0,0.0,0.0,0.0,0.0,0.0,0.0,1,0.296126987457,0.0,0.0,0.0,0.0,-0.336507940292,0.296126987457,0.0,0.0,0.0,0.0,-0.336507940292,,0,Sharing Zero Relinquish,10.0,teleoperation,0
1449615944464811970,0.88947739458,0.177883300316,0.0,0.0,0.0,0.0686383068554,0.997641610415,1449615944463632834,0,0.0,0.0,0.0,0.0,0.0,0.0,1,0.296126987457,0.0,0.0,0.0,0.0,-0.336507940292,0.296126987457,0.0,0.0,0.0,0.0,-0.336507940292,,0,Sharing Zero Relinquish,10.0,teleoperation,0
1449615944504930523,0.900888028991,0.179460884035,0.0,0.0,0.0,0.0686383068554,0.997641610415,1449615944503295868,0,0.0,0.0,0.0,0.0,0.0,0.0,1,0.296126987457,0.0,0.0,0.0,0.0,-0.336507940292,0.296126987457,0.0,0.0,0.0,0.0,-0.336507940292,,0,Sharing Zero Relinquish,10.0,teleoperation,0
1449615944544391120,0.912329456215,0.180796957062,0.0,0.0,0.0,0.0580915451448,0.99831126027,1449615944543349183,0,0.0,0.0,0.0,0.0,0.0,0.0,1,0.296126987457,0.0,0.0,0.0,0.0,-0.336507940292,0.296126987457,0.0,0.0,0.0,0.0,-0.336507940292,,0,Sharing Zero Relinquish,10.0,teleoperation,0
1449615944583886939,0.920920637021,0.181708272395,0.0,0.0,0.0,0.0528156577107,0.998604279132,1449615944583262057,0,0.0,0.0,0.0,0.0,0.0,0.0,1,0.296126987457,0.0,0.0,0.0,0.0,-0.336507940292,0.296126987457,0.0,0.0,0.0,0.0,-0.336507940292,,0,Sharing Zero Relinquish,10.0,teleoperation,0
1449615944623597889,0.92952096873,0.182528746512,0.0,0.0,0.0,0.0475382956186,0.998869416115,1449615944623241855,0,0.0,0.0,0.0,0.0,0.0,0.0,1,0.301714288712,0.0,0.0,0.0,0.0,-0.336507940292,0.301714288712,0.0,0.0,0.0,0.0,-0.336507940292,,0,Sharing Zero Relinquish,10.0,teleoperation,0
1449615944665016172,0.943868505571,0.183744648625,0.0,0.0,0.0,0.042259606217,0.999106663816,1449615944663274266,0,0.0,0.0,0.0,0.0,0.0,0.0,1,0.301714288712,0.0,0.0,0.0,0.0,-0.336507940292,0.301714288712,0.0,0.0,0.0,0.0,-0.336507940292,,0,Sharing Zero Relinquish,10.0,teleoperation,0
1449615944703967405,0.952484256648,0.184383175568,0.0,0.0,0.0,0.0369797368913,0.999316015612,1449615944703286207,0,0.0,0.0,0.0,0.0,0.0,0.0,1,0.301714288712,0.0,0.0,0.0,0.0,-0.336507940292,0.301714288712,0.0,0.0,0.0,0.0,-0.336507940292,,0,Sharing Zero Relinquish,10.0,teleoperation,0
1449615944743941469,0.961106274469,0.184930616872,0.0,0.0,0.0,0.0316988350601,0.999497465658,1449615944743304548,0,0.0,0.0,0.0,0.0,0.0,0.0,1,0.301714288712,0.0,0.0,0.0,0.0,-0.336507940292,0.301714288712,0.0,0.0,0.0,0.0,-0.336507940292,,0,Sharing Zero Relinquish,10.0,teleoperation,0
1449615944783659067,0.97548514386,0.185691107749,0.0,0.0,0.0,0.0264170481704,0.999651008886,1449615944783334419,0,0.0,0.0,0.0,0.0,0.0,0.0,1,0.301714288712,0.0,0.0,0.0,0.0,-0.336507940292,0.301714288712,0.0,0.0,0.0,0.0,-0.336507940292,,0,Sharing Zero Relinquish,10.0,teleoperation,0
1449615944824326744,0.981241836002,0.185873679932,0.0,0.0,0.0,0.0158514091245,0.999874358521,1449615944823438349,0,0.0,0.0,0.0,0.0,0.0,0.0,1,0.301714288712,0.0,0.0,0.0,0.0,-0.342857146263,0.301714288712,0.0,0.0,0.0,0.0,-0.342857146263,,0,Sharing Zero Relinquish,10.0,teleoperation,0
1449615944864730699,0.992755220285,0.186238824299,0.0,0.0,0.0,0.0158514091245,0.999874358521,1449615944863295377,0,0.0,0.0,0.0,0.0,0.0,0.0,1,0.301714288712,0.0,0.0,0.0,0.0,-0.342857146263,0.301714288712,0.0,0.0,0.0,0.0,-0.342857146263,,0,Sharing Zero Relinquish,10.0,teleoperation,0
1449615944904683203,1.0042737501,0.186360557215,0.0,0.0,0.0,0.0052839997518,0.999986039576,1449615944903282796,0,0.0,0.0,0.0,0.0,0.0,0.0,1,0.251428577423,0.0,0.0,0.0,0.0,-0.285714292526,0.251428577423,0.0,0.0,0.0,0.0,-0.285714292526,,0,Sharing Zero Relinquish,10.0,teleoperation,0
1449615944943962268,1.01579227992,0.186238824299,0.0,0.0,0.0,-0.0052839997518,0.999986039576,1449615944943543352,0,0.0,0.0,0.0,0.0,0.0,0.0,1,0.251428577423,0.0,0.0,0.0,0.0,-0.285714292526,0.251428577423,0.0,0.0,0.0,0.0,-0.285714292526,,0,Sharing Zero Relinquish,10.0,teleoperation,0
1449615944983816956,1.02155154483,0.186177957841,0.0,0.0,0.0,-0.0052839997518,0.999986039576,1449615944983342723,0,0.0,0.0,0.0,0.0,0.0,0.0,1,0.251428577423,0.0,0.0,0.0,0.0,-0.285714292526,0.251428577423,0.0,0.0,0.0,0.0,-0.285714292526,,0,Sharing Zero Relinquish,10.0,teleoperation,0
1449615945025113769,1.03594729502,0.185873642546,0.0,0.0,0.0,-0.0105678519699,0.999944158693,1449615945024450132,0,0.0,0.0,0.0,0.0,0.0,0.0,1,0.296126987457,0.0,0.0,0.0,0.0,-0.342857146263,0.296126987457,0.0,0.0,0.0,0.0,-0.342857146263,,0,Sharing Zero Relinquish,10.0,teleoperation,0
1449615945066877272,1.04745617759,0.185386846829,0.0,0.0,0.0,-0.0211345236944,0.999776641009,1449615945063581095,0,0.0,0.0,0.0,0.0,0.0,0.0,1,0.296126987457,0.0,0.0,0.0,0.0,-0.342857146263,0.296126987457,0.0,0.0,0.0,0.0,-0.342857146263,,0,Sharing Zero Relinquish,10.0,teleoperation,0
1449615945103951452,1.05608349922,0.184930552302,0.0,0.0,0.0,-0.0264170481704,0.999651008886,1449615945103366960,0,0.0,0.0,0.0,0.0,0.0,0.0,1,0.296126987457,0.0,0.0,0.0,0.0,-0.342857146263,0.296126987457,0.0,0.0,0.0,0.0,-0.342857146263,,0,Sharing Zero Relinquish,10.0,teleoperation,0
1449615945144344542,1.06470551704,0.184383110998,0.0,0.0,0.0,-0.0316988350601,0.999497465658,1449615945143320699,0,0.0,0.0,0.0,0.0,0.0,0.0,1,0.296126987457,0.0,0.0,0.0,0.0,-0.342857146263,0.296126987457,0.0,0.0,0.0,0.0,-0.342857146263,,0,Sharing Zero Relinquish,10.0,teleoperation,0
1449615945184305231,1.07332126812,0.183744584056,0.0,0.0,0.0,-0.0369797368913,0.999316015612,1449615945183529774,0,0.0,0.0,0.0,0.0,0.0,0.0,1,0.296126987457,0.0,0.0,0.0,0.0,-0.342857146263,0.296126987457,0.0,0.0,0.0,0.0,-0.342857146263,,0,Sharing Zero Relinquish,10.0,teleoperation,0
1449615945225854631,1.08478837707,0.182650618567,0.0,0.0,0.0,-0.0475382956186,0.998869416115,1449615945223493660,0,0.0,0.0,0.0,0.0,0.0,0.0,1,0.245841276169,0.0,0.0,0.0,0.0,-0.279365086555,0.245841276169,0.0,0.0,0.0,0.0,-0.279365086555,,0,Sharing Zero Relinquish,10.0,teleoperation,0
1449615945265131573,1.09337955787,0.181739303234,0.0,0.0,0.0,-0.0528156577107,0.998604279132,1449615945263336989,0,0.0,0.0,0.0,0.0,0.0,0.0,1,0.245841276169,0.0,0.0,0.0,0.0,-0.279365086555,0.245841276169,0.0,0.0,0.0,0.0,-0.279365086555,,0,Sharing Zero Relinquish,10.0,teleoperation,0
1449615945305365903,1.10480622677,0.180282393505,0.0,0.0,0.0,-0.0633658106137,0.997990367712,1449615945303348508,0,0.0,0.0,0.0,0.0,0.0,0.0,1,0.296126987457,0.0,0.0,0.0,0.0,-0.336507940292,0.296126987457,0.0,0.0,0.0,0.0,-0.336507940292,,0,Sharing Zero Relinquish,10.0,teleoperation,0
1449615945343858045,1.11051956122,0.179553938641,0.0,0.0,0.0,-0.0633658106137,0.997990367712,1449615945343326668,0,0.0,0.0,0.0,0.0,0.0,0.0,1,0.296126987457,0.0,0.0,0.0,0.0,-0.336507940292,0.296126987457,0.0,0.0,0.0,0.0,-0.336507940292,,0,Sharing Zero Relinquish,10.0,teleoperation,0
1449615945384421476,1.12191288678,0.177855857121,0.0,0.0,0.0,-0.0739088866573,0.997264998119,1449615945383497870,0,0.0,0.0,0.0,0.0,0.0,0.0,1,0.296126987457,0.0,0.0,0.0,0.0,-0.336507940292,0.296126987457,0.0,0.0,0.0,0.0,-0.336507940292,,0,Sharing Zero Relinquish,10.0,teleoperation,0
1449615945424875705,1.13044394497,0.176492064865,0.0,0.0,0.0,-0.0791774028604,0.996860541338,1449615945423431863,0,0.0,0.0,0.0,0.0,0.0,0.0,1,0.301714288712,0.0,0.0,0.0,0.0,-0.336507940292,0.301714288712,0.0,0.0,0.0,0.0,-0.336507940292,,0,Sharing Zero Relinquish,10.0,teleoperation,0
1449615945464724219,1.13896011443,0.175038193805,0.0,0.0,0.0,-0.0844437083633,0.996428251365,1449615945463386083,0,0.0,0.0,0.0,0.0,0.0,0.0,1,0.301714288712,0.0,0.0,0.0,0.0,-0.336507940292,0.301714288712,0.0,0.0,0.0,0.0,-0.336507940292,,0,Sharing Zero Relinquish,10.0,teleoperation,0
1449615945504439789,1.14746044404,0.173494406313,0.0,0.0,0.0,-0.0897076561262,0.99596814027,1449615945503345535,0,0.0,0.0,0.0,0.0,0.0,0.0,1,0.301714288712,0.0,0.0,0.0,0.0,-0.336507940292,0.301714288712,0.0,0.0,0.0,0.0,-0.336507940292,,0,Sharing Zero Relinquish,10.0,teleoperation,0
1449615945543624817,1.15594398446,0.171860874803,0.0,0.0,0.0,-0.0949690991753,0.995480220899,1449615945543298297,0,0.0,0.0,0.0,0.0,0.0,0.0,1,0.301714288712,0.0,0.0,0.0,0.0,-0.336507940292,0.301714288712,0.0,0.0,0.0,0.0,-0.336507940292,,0,Sharing Zero Relinquish,10.0,teleoperation,0
1449615945584027833,1.16440978823,0.170137781712,0.0,0.0,0.0,-0.100227890607,0.994964506877,1449615945583333751,0,0.0,0.0,0.0,0.0,0.0,0.0,1,0.301714288712,0.0,0.0,0.0,0.0,-0.336507940292,0.301714288712,0.0,0.0,0.0,0.0,-0.336507940292,,0,Sharing Zero Relinquish,10.0,teleoperation,0
1449615945624313179,1.17285690987,0.16832531948,0.0,0.0,0.0,-0.10548388359,0.994421012601,1449615945623338647,0,0.0,0.0,0.0,0.0,0.0,0.0,1,0.301714288712,0.0,0.0,0.0,0.0,-0.342857146263,0.301714288712,0.0,0.0,0.0,0.0,-0.342857146263,,0,Sharing Zero Relinquish,10.0,teleoperation,0
1449615945666753541,1.18128440597,0.166423690527,0.0,0.0,0.0,-0.110736931374,0.993849753247,1449615945663368584,0,0.0,0.0,0.0,0.0,0.0,0.0,1,0.301714288712,0.0,0.0,0.0,0.0,-0.342857146263,0.301714288712,0.0,0.0,0.0,0.0,-0.342857146263,,0,Sharing Zero Relinquish,10.0,teleoperation,0
1449615945704245783,1.18687468846,0.165037480312,0.0,0.0,0.0,-0.121233604752,0.99262400388,1449615945703294648,0,0.0,0.0,0.0,0.0,0.0,0.0,1,0.301714288712,0.0,0.0,0.0,0.0,-0.336507940292,0.301714288712,0.0,0.0,0.0,0.0,-0.336507940292,,0,Sharing Zero Relinquish,10.0,teleoperation,0
1449615945744056345,1.19523767003,0.162869665184,0.0,0.0,0.0,-0.126476937269,0.991969548091,1449615945743330106,0,0.0,0.0,0.0,0.0,0.0,0.0,1,0.301714288712,0.0,0.0,0.0,0.0,-0.336507940292,0.301714288712,0.0,0.0,0.0,0.0,-0.336507940292,,0,Sharing Zero Relinquish,10.0,teleoperation,0
1449615945784095226,1.20357727546,0.160613592358,0.0,0.0,0.0,-0.131716738444,0.99128739567,1449615945783365911,0,0.0,0.0,0.0,0.0,0.0,0.0,1,0.301714288712,0.0,0.0,0.0,0.0,-0.336507940292,0.301714288712,0.0,0.0,0.0,0.0,-0.336507940292,,0,Sharing Zero Relinquish,10.0,teleoperation,0
1449615945824929487,1.21189257335,0.158269513799,0.0,0.0,0.0,-0.136952861975,0.990577565664,1449615945823357893,0,0.0,0.0,0.0,0.0,0.0,0.0,1,0.296126987457,0.0,0.0,0.0,0.0,-0.336507940292,0.296126987457,0.0,0.0,0.0,0.0,-0.336507940292,,0,Sharing Zero Relinquish,10.0,teleoperation,0
1449615945864522847,1.22018263503,0.155837691298,0.0,0.0,0.0,-0.142185161666,0.989840077892,1449615945863600171,0,0.0,0.0,0.0,0.0,0.0,0.0,1,0.296126987457,0.0,0.0,0.0,0.0,-0.336507940292,0.296126987457,0.0,0.0,0.0,0.0,-0.336507940292,,0,Sharing Zero Relinquish,10.0,teleoperation,0
