%time,field.linear.x,field.linear.y,field.linear.z,field.angular.x,field.angular.y,field.angular.z
1449615936384513699,-0.0,0.0,0.0,0.0,0.0,-0.0
1449615936424323367,-0.0,0.0,0.0,0.0,0.0,-0.0
1449615936466414554,-0.0,0.0,0.0,0.0,0.0,-0.0
1449615936505806035,-0.0,0.0,0.0,0.0,0.0,-0.0
1449615936543808352,-0.0,0.0,0.0,0.0,0.0,-0.0
1449615936584155578,-0.0,0.0,0.0,0.0,0.0,-0.0
1449615936624452769,-0.0,0.0,0.0,0.0,0.0,-0.0
1449615936663795286,-0.0,0.0,0.0,0.0,0.0,-0.0
1449615936707734969,-0.0,0.0,0.0,0.0,0.0,-0.0
1449615936744331244,-0.0,0.0,0.0,0.0,0.0,-0.0
1449615936784605290,-0.0,0.0,0.0,0.0,0.0,-0.0
1449615936823688460,-0.0,0.0,0.0,0.0,0.0,-0.0
1449615936864135926,-0.0,0.0,0.0,0.0,0.0,-0.0
1449615936904364286,-0.0,0.0,0.0,0.0,0.0,-0.0
1449615936944175591,-0.0,0.0,0.0,0.0,0.0,-0.0
1449615936985939674,-0.0,0.0,0.0,0.0,0.0,-0.0
1449615937024575549,-0.0,0.0,0.0,0.0,0.0,-0.0
1449615937065358932,-0.0,0.0,0.0,0.0,0.0,-0.0
1449615937104284762,-0.0,0.0,0.0,0.0,0.0,-0.0
1449615937143871866,-0.0,0.0,0.0,0.0,0.0,-0.0
1449615937184130671,-0.0,0.0,0.0,0.0,0.0,-0.0
1449615937225791285,-0.0,0.0,0.0,0.0,0.0,-0.0
1449615937266242573,-0.0,0.0,0.0,0.0,0.0,-0.0
1449615937305905729,-0.0,0.0,0.0,0.0,0.0,-0.0
1449615937345665296,-0.0,0.0,0.0,0.0,0.0,-0.0
1449615937384120873,-0.0,0.0,0.0,0.0,0.0,-0.0
1449615937424066753,-0.0,0.0,0.0,0.0,0.0,-0.0
1449615937466327454,-0.0,0.0,0.0,0.0,0.0,-0.0
1449615937507517996,-0.0,0.0,0.0,0.0,0.0,-0.0
1449615937544981880,-0.0,0.0,0.0,0.0,0.0,-0.0
1449615937583872558,-0.0,0.0,0.0,0.0,0.0,-0.0
1449615937625098185,-0.0,0.0,0.0,0.0,0.0,-0.0
1449615937666176424,-0.0,0.0,0.0,0.0,0.0,-0.0
1449615937706132156,-0.0,0.0,0.0,0.0,0.0,-0.0
1449615937744426073,-0.0,0.0,0.0,0.0,0.0,-0.0
1449615937783773285,-0.0,0.0,0.0,0.0,0.0,-0.0
1449615937826619017,-0.0,0.0,0.0,0.0,0.0,-0.0
1449615937865008460,-0.0,0.0,0.0,0.0,0.0,-0.0
1449615937904047259,-0.0,0.0,0.0,0.0,0.0,-0.0
1449615937944339812,-0.0,0.0,0.0,0.0,0.0,-0.0
1449615937983978837,-0.0,0.0,0.0,0.0,0.0,-0.0
1449615938025469926,-0.0,0.0,0.0,0.0,0.0,-0.0
1449615938065792181,-0.0,0.0,0.0,0.0,0.0,-0.0
1449615938104220145,-0.0,0.0,0.0,0.0,0.0,-0.0
1449615938144931229,-0.0,0.0,0.0,0.0,0.0,-0.0
1449615938185210695,-0.0,0.0,0.0,0.0,0.0,-0.0
1449615938225624843,-0.0,0.0,0.0,0.0,0.0,-0.0
1449615938267020125,-0.0,0.0,0.0,0.0,0.0,-0.0
1449615938303536091,-0.0,0.0,0.0,0.0,0.0,-0.0
1449615938344527546,-0.0,0.0,0.0,0.0,0.0,-0.0
1449615938384449736,-0.0,0.0,0.0,0.0,0.0,-0.0
1449615938424274978,-0.0,0.0,0.0,0.0,0.0,-0.0
1449615938465256181,-0.0,0.0,0.0,0.0,0.0,-0.0
1449615938504168143,-0.0,0.0,0.0,0.0,0.0,-0.0
1449615938544145779,-0.0,0.0,0.0,0.0,0.0,-0.0
1449615938585807175,-0.0,0.0,0.0,0.0,0.0,-0.0
1449615938624595396,-0.0,0.0,0.0,0.0,0.0,-0.0
1449615938665487206,-0.0,0.0,0.0,0.0,0.0,-0.0
1449615938704739292,-0.0,0.0,0.0,0.0,0.0,-0.0
1449615938743580905,-0.0,0.0,0.0,0.0,0.0,-0.0
1449615938784693216,-0.0,0.0,0.0,0.0,0.0,-0.0
1449615938825357875,0.00558730190992,0.0,0.0,0.0,0.0,0.0
1449615938864180025,0.00558730190992,0.0,0.0,0.0,0.0,0.0
1449615938905248629,0.0111746038198,0.0,0.0,0.0,0.0,0.0
1449615938945064586,0.0111746038198,0.0,0.0,0.0,0.0,0.0
1449615938989136608,0.0111746038198,0.0,0.0,0.0,0.0,0.0
1449615939025699869,0.00558730190992,0.0,0.0,0.0,0.0,0.0
1449615939065610509,0.00558730190992,0.0,0.0,0.0,0.0,0.0
1449615939107785899,0.0111746038198,0.0,0.0,0.0,0.0,0.0
1449615939144098252,0.0111746038198,0.0,0.0,0.0,0.0,0.0
1449615939185072038,0.0111746038198,0.0,0.0,0.0,0.0,0.0
1449615939226002713,0.00558730190992,0.0,0.0,0.0,0.0,0.0
1449615939264132490,0.00558730190992,0.0,0.0,0.0,0.0,0.0
1449615939304368499,0.00558730190992,0.0,0.0,0.0,0.0,0.0
1449615939343955677,0.00558730190992,0.0,0.0,0.0,0.0,0.0
1449615939385161180,0.00558730190992,0.0,0.0,0.0,0.0,0.0
1449615939425179240,0.0167619050741,0.0,0.0,0.0,0.0,0.0
1449615939465074285,0.0167619050741,0.0,0.0,0.0,0.0,0.0
1449615939506376014,0.128507939339,0.0,0.0,0.0,0.0,0.0
1449615939544955479,0.128507939339,0.0,0.0,0.0,0.0,0.0
1449615939585835040,0.128507939339,0.0,0.0,0.0,0.0,0.0
1449615939624886705,0.268190481186,0.0,0.0,0.0,0.0,0.0
1449615939665839144,0.268190481186,0.0,0.0,0.0,0.0,0.0
1449615939705126373,0.346412698746,0.0,0.0,0.0,0.0,0.0
1449615939744572932,0.346412698746,0.0,0.0,0.0,0.0,0.0
1449615939786175413,0.346412698746,0.0,0.0,0.0,0.0,0.0
1449615939825006420,0.346412698746,0.0,0.0,0.0,0.0,0.0
1449615939866857970,0.346412698746,0.0,0.0,0.0,0.0,0.0
1449615939906051831,0.346412698746,0.0,0.0,0.0,0.0,0.0
1449615939944954798,0.346412698746,0.0,0.0,0.0,0.0,0.0
1449615939985263777,0.346412698746,0.0,0.0,0.0,0.0,0.0
1449615940025710977,0.346412698746,0.0,0.0,0.0,0.0,0.0
1449615940064799427,0.346412698746,0.0,0.0,0.0,0.0,0.0
1449615940104030929,0.346412698746,0.0,0.0,0.0,0.0,0.0
1449615940144156690,0.346412698746,0.0,0.0,0.0,0.0,0.0
1449615940184076121,0.346412698746,0.0,0.0,0.0,0.0,0.0
1449615940223956314,0.346412698746,0.0,0.0,0.0,0.0,0.00634920671582
1449615940264020212,0.346412698746,0.0,0.0,0.0,0.0,0.00634920671582
1449615940303944301,0.346412698746,0.0,0.0,0.0,0.0,0.00634920671582
1449615940343837121,0.346412698746,0.0,0.0,0.0,0.0,0.00634920671582
1449615940384433169,0.346412698746,0.0,0.0,0.0,0.0,0.00634920671582
1449615940423950051,0.346412698746,0.0,0.0,0.0,0.0,0.0
1449615940464771921,0.346412698746,0.0,0.0,0.0,0.0,0.0
1449615940505584391,0.346412698746,0.0,0.0,0.0,0.0,0.00634920671582
1449615940544225098,0.346412698746,0.0,0.0,0.0,0.0,0.00634920671582
1449615940584102686,0.346412698746,0.0,0.0,0.0,0.0,0.00634920671582
1449615940625430962,0.346412698746,0.0,0.0,0.0,0.0,0.0126984134316
1449615940671557964,0.346412698746,0.0,0.0,0.0,0.0,0.0126984134316
1449615940704302145,0.346412698746,0.0,0.0,0.0,0.0,0.0126984134316
1449615940746275554,0.346412698746,0.0,0.0,0.0,0.0,0.0126984134316
1449615940784189041,0.346412698746,0.0,0.0,0.0,0.0,0.0126984134316
1449615940826639624,0.340825397491,0.0,0.0,0.0,0.0,0.0190476194024
1449615940866653136,0.340825397491,0.0,0.0,0.0,0.0,0.0190476194024
1449615940904909388,0.335238096237,0.0,0.0,0.0,0.0,0.0761904776096
1449615940946269092,0.335238096237,0.0,0.0,0.0,0.0,0.0761904776096
1449615940984416551,0.335238096237,0.0,0.0,0.0,0.0,0.0761904776096
1449615941025082034,0.301714288712,0.0,0.0,0.0,0.0,0.342857146263
1449615941064114730,0.301714288712,0.0,0.0,0.0,0.0,0.342857146263
1449615941104570310,0.296126987457,0.0,0.0,0.0,0.0,0.342857146263
1449615941145814039,0.296126987457,0.0,0.0,0.0,0.0,0.342857146263
1449615941185733327,0.296126987457,0.0,0.0,0.0,0.0,0.342857146263
1449615941224246433,0.301714288712,0.0,0.0,0.0,0.0,0.336507940292
1449615941264590712,0.301714288712,0.0,0.0,0.0,0.0,0.336507940292
1449615941303820542,0.262603179932,0.0,0.0,0.0,0.0,0.298412704468
1449615941346378186,0.262603179932,0.0,0.0,0.0,0.0,0.298412704468
1449615941384722018,0.262603179932,0.0,0.0,0.0,0.0,0.298412704468
1449615941423701808,0.301714288712,0.0,0.0,0.0,0.0,0.342857146263
1449615941465094917,0.301714288712,0.0,0.0,0.0,0.0,0.342857146263
1449615941509787898,0.301714288712,0.0,0.0,0.0,0.0,0.342857146263
1449615941544524436,0.301714288712,0.0,0.0,0.0,0.0,0.342857146263
1449615941585637248,0.301714288712,0.0,0.0,0.0,0.0,0.342857146263
1449615941624606736,0.301714288712,0.0,0.0,0.0,0.0,0.336507940292
1449615941665175486,0.301714288712,0.0,0.0,0.0,0.0,0.336507940292
1449615941706391463,0.301714288712,0.0,0.0,0.0,0.0,0.342857146263
1449615941744391748,0.301714288712,0.0,0.0,0.0,0.0,0.342857146263
1449615941784150279,0.301714288712,0.0,0.0,0.0,0.0,0.342857146263
1449615941825225650,0.301714288712,0.0,0.0,0.0,0.0,0.342857146263
1449615941870143140,0.301714288712,0.0,0.0,0.0,0.0,0.342857146263
1449615941904775094,0.346412698746,0.0,0.0,0.0,0.0,0.00634920671582
1449615941945480669,0.346412698746,0.0,0.0,0.0,0.0,0.00634920671582
1449615941984037673,0.346412698746,0.0,0.0,0.0,0.0,0.00634920671582
1449615942024042676,0.346412698746,0.0,0.0,0.0,0.0,0.0
1449615942064498911,0.346412698746,0.0,0.0,0.0,0.0,0.0
1449615942107152733,0.346412698746,0.0,0.0,0.0,0.0,-0.00634920671582
1449615942144110742,0.346412698746,0.0,0.0,0.0,0.0,-0.00634920671582
1449615942184137200,0.346412698746,0.0,0.0,0.0,0.0,-0.00634920671582
1449615942224451011,0.340825397491,0.0,0.0,0.0,0.0,-0.0317460328341
1449615942265225899,0.340825397491,0.0,0.0,0.0,0.0,-0.0317460328341
1449615942306260060,0.251428577423,0.0,0.0,0.0,0.0,-0.279365086555
1449615942345322180,0.251428577423,0.0,0.0,0.0,0.0,-0.279365086555
1449615942386732883,0.251428577423,0.0,0.0,0.0,0.0,-0.279365086555
1449615942426887665,0.296126987457,0.0,0.0,0.0,0.0,-0.342857146263
1449615942468122219,0.296126987457,0.0,0.0,0.0,0.0,-0.342857146263
1449615942505454743,0.301714288712,0.0,0.0,0.0,0.0,-0.342857146263
1449615942544295238,0.301714288712,0.0,0.0,0.0,0.0,-0.342857146263
1449615942583989562,0.301714288712,0.0,0.0,0.0,0.0,-0.342857146263
1449615942631480626,0.245841276169,0.0,0.0,0.0,0.0,-0.285714292526
1449615942667327562,0.245841276169,0.0,0.0,0.0,0.0,-0.285714292526
1449615942705394052,0.296126987457,0.0,0.0,0.0,0.0,-0.342857146263
1449615942744075966,0.296126987457,0.0,0.0,0.0,0.0,-0.342857146263
1449615942784049278,0.296126987457,0.0,0.0,0.0,0.0,-0.342857146263
1449615942825127880,0.296126987457,0.0,0.0,0.0,0.0,-0.336507940292
1449615942864235850,0.296126987457,0.0,0.0,0.0,0.0,-0.336507940292
1449615942906149131,0.296126987457,0.0,0.0,0.0,0.0,-0.336507940292
1449615942943739332,0.296126987457,0.0,0.0,0.0,0.0,-0.336507940292
1449615942984007346,0.296126987457,0.0,0.0,0.0,0.0,-0.336507940292
1449615943023740028,0.301714288712,0.0,0.0,0.0,0.0,-0.336507940292
1449615943063709733,0.301714288712,0.0,0.0,0.0,0.0,-0.336507940292
1449615943105110941,0.301714288712,0.0,0.0,0.0,0.0,-0.336507940292
1449615943144394559,0.301714288712,0.0,0.0,0.0,0.0,-0.336507940292
1449615943184163010,0.301714288712,0.0,0.0,0.0,0.0,-0.336507940292
1449615943224275185,0.296126987457,0.0,0.0,0.0,0.0,-0.342857146263
1449615943265781107,0.296126987457,0.0,0.0,0.0,0.0,-0.342857146263
1449615943306207570,0.301714288712,0.0,0.0,0.0,0.0,-0.336507940292
1449615943344479356,0.301714288712,0.0,0.0,0.0,0.0,-0.336507940292
1449615943384700834,0.301714288712,0.0,0.0,0.0,0.0,-0.336507940292
1449615943424752296,0.296126987457,0.0,0.0,0.0,0.0,-0.342857146263
1449615943465893343,0.296126987457,0.0,0.0,0.0,0.0,-0.342857146263
1449615943505711588,0.296126987457,0.0,0.0,0.0,0.0,-0.336507940292
1449615943544630379,0.296126987457,0.0,0.0,0.0,0.0,-0.336507940292
1449615943585734074,0.296126987457,0.0,0.0,0.0,0.0,-0.336507940292
1449615943624329186,0.296126987457,0.0,0.0,0.0,0.0,-0.336507940292
1449615943666860328,0.296126987457,0.0,0.0,0.0,0.0,-0.336507940292
1449615943704127953,0.296126987457,0.0,0.0,0.0,0.0,-0.336507940292
1449615943744034171,0.296126987457,0.0,0.0,0.0,0.0,-0.336507940292
1449615943788905949,0.296126987457,0.0,0.0,0.0,0.0,-0.336507940292
1449615943825389043,0.301714288712,0.0,0.0,0.0,0.0,-0.342857146263
1449615943864113816,0.301714288712,0.0,0.0,0.0,0.0,-0.342857146263
1449615943906501902,0.27377778244,0.0,0.0,0.0,0.0,-0.304761910439
1449615943949696465,0.27377778244,0.0,0.0,0.0,0.0,-0.304761910439
1449615943984930054,0.27377778244,0.0,0.0,0.0,0.0,-0.304761910439
1449615944024085762,0.301714288712,0.0,0.0,0.0,0.0,-0.342857146263
1449615944064318507,0.301714288712,0.0,0.0,0.0,0.0,-0.342857146263
1449615944105865358,0.301714288712,0.0,0.0,0.0,0.0,-0.342857146263
1449615944144206281,0.301714288712,0.0,0.0,0.0,0.0,-0.342857146263
1449615944183686366,0.301714288712,0.0,0.0,0.0,0.0,-0.342857146263
1449615944227307337,0.296126987457,0.0,0.0,0.0,0.0,-0.336507940292
1449615944269872777,0.296126987457,0.0,0.0,0.0,0.0,-0.336507940292
1449615944304205357,0.301714288712,0.0,0.0,0.0,0.0,-0.342857146263
1449615944344488560,0.301714288712,0.0,0.0,0.0,0.0,-0.342857146263
1449615944385377623,0.301714288712,0.0,0.0,0.0,0.0,-0.342857146263
1449615944425596104,0.296126987457,0.0,0.0,0.0,0.0,-0.336507940292
1449615944465803257,0.296126987457,0.0,0.0,0.0,0.0,-0.336507940292
1449615944506118209,0.296126987457,0.0,0.0,0.0,0.0,-0.336507940292
1449615944544754969,0.296126987457,0.0,0.0,0.0,0.0,-0.336507940292
1449615944583838910,0.296126987457,0.0,0.0,0.0,0.0,-0.336507940292
1449615944624068326,0.301714288712,0.0,0.0,0.0,0.0,-0.336507940292
1449615944664571845,0.301714288712,0.0,0.0,0.0,0.0,-0.336507940292
1449615944704837961,0.301714288712,0.0,0.0,0.0,0.0,-0.336507940292
1449615944744198574,0.301714288712,0.0,0.0,0.0,0.0,-0.336507940292
1449615944784084397,0.301714288712,0.0,0.0,0.0,0.0,-0.336507940292
1449615944825535815,0.301714288712,0.0,0.0,0.0,0.0,-0.342857146263
1449615944864659405,0.301714288712,0.0,0.0,0.0,0.0,-0.342857146263
1449615944906480680,0.251428577423,0.0,0.0,0.0,0.0,-0.285714292526
1449615944944950307,0.251428577423,0.0,0.0,0.0,0.0,-0.285714292526
1449615944985366135,0.251428577423,0.0,0.0,0.0,0.0,-0.285714292526
1449615945025289974,0.296126987457,0.0,0.0,0.0,0.0,-0.342857146263
1449615945066984542,0.296126987457,0.0,0.0,0.0,0.0,-0.342857146263
1449615945104674241,0.296126987457,0.0,0.0,0.0,0.0,-0.342857146263
1449615945144276634,0.296126987457,0.0,0.0,0.0,0.0,-0.342857146263
1449615945185259825,0.296126987457,0.0,0.0,0.0,0.0,-0.342857146263
1449615945227318304,0.245841276169,0.0,0.0,0.0,0.0,-0.279365086555
1449615945265643899,0.245841276169,0.0,0.0,0.0,0.0,-0.279365086555
1449615945305119056,0.296126987457,0.0,0.0,0.0,0.0,-0.336507940292
1449615945345762589,0.296126987457,0.0,0.0,0.0,0.0,-0.336507940292
1449615945385949134,0.296126987457,0.0,0.0,0.0,0.0,-0.336507940292
1449615945426454003,0.301714288712,0.0,0.0,0.0,0.0,-0.336507940292
1449615945466116980,0.301714288712,0.0,0.0,0.0,0.0,-0.336507940292
1449615945506383424,0.301714288712,0.0,0.0,0.0,0.0,-0.336507940292
1449615945543837653,0.301714288712,0.0,0.0,0.0,0.0,-0.336507940292
1449615945584866820,0.301714288712,0.0,0.0,0.0,0.0,-0.336507940292
1449615945626302035,0.301714288712,0.0,0.0,0.0,0.0,-0.342857146263
1449615945666590009,0.301714288712,0.0,0.0,0.0,0.0,-0.342857146263
1449615945704171805,0.301714288712,0.0,0.0,0.0,0.0,-0.336507940292
1449615945745161588,0.301714288712,0.0,0.0,0.0,0.0,-0.336507940292
1449615945784972754,0.301714288712,0.0,0.0,0.0,0.0,-0.336507940292
1449615945824674633,0.296126987457,0.0,0.0,0.0,0.0,-0.336507940292
1449615945864694211,0.296126987457,0.0,0.0,0.0,0.0,-0.336507940292
1449615945904719361,0.301714288712,0.0,0.0,0.0,0.0,-0.342857146263
1449615945944311847,0.301714288712,0.0,0.0,0.0,0.0,-0.342857146263
1449615945985369404,0.301714288712,0.0,0.0,0.0,0.0,-0.342857146263
1449615946025303247,0.00558730190992,0.0,0.0,0.0,0.0,0.0
1449615946064686701,0.00558730190992,0.0,0.0,0.0,0.0,0.0
1449615946104457015,0.00558730190992,0.0,0.0,0.0,0.0,0.0
1449615946144365050,0.00558730190992,0.0,0.0,0.0,0.0,0.0
1449615946184523179,0.00558730190992,0.0,0.0,0.0,0.0,0.0
1449615946224235589,0.00558730190992,0.0,0.0,0.0,0.0,0.0
1449615946264379687,0.00558730190992,0.0,0.0,0.0,0.0,0.0
1449615946304233847,0.00558730190992,0.0,0.0,0.0,0.0,0.0
1449615946345091565,0.00558730190992,0.0,0.0,0.0,0.0,0.0
1449615946386003711,0.00558730190992,0.0,0.0,0.0,0.0,0.0
1449615946425163893,0.100571433067,0.0,0.0,0.0,0.0,-0.00634920671582
1449615946465005200,0.100571433067,0.0,0.0,0.0,0.0,-0.00634920671582
1449615946503736385,0.340825397491,0.0,0.0,0.0,0.0,0.0126984134316
1449615946543817781,0.340825397491,0.0,0.0,0.0,0.0,0.0126984134316
1449615946584619692,0.340825397491,0.0,0.0,0.0,0.0,0.0126984134316
1449615946623991303,0.301714288712,0.0,0.0,0.0,0.0,0.342857146263
1449615946664417104,0.301714288712,0.0,0.0,0.0,0.0,0.342857146263
1449615946707352395,0.301714288712,0.0,0.0,0.0,0.0,0.342857146263
1449615946745464820,0.301714288712,0.0,0.0,0.0,0.0,0.342857146263
1449615946784437299,0.301714288712,0.0,0.0,0.0,0.0,0.342857146263
1449615946824971404,0.301714288712,0.0,0.0,0.0,0.0,0.342857146263
1449615946866456982,0.301714288712,0.0,0.0,0.0,0.0,0.342857146263
1449615946904966236,0.296126987457,0.0,0.0,0.0,0.0,0.336507940292
1449615946944992377,0.296126987457,0.0,0.0,0.0,0.0,0.336507940292
1449615946984889949,0.296126987457,0.0,0.0,0.0,0.0,0.336507940292
1449615947024000575,0.162031746864,0.0,0.0,0.0,0.0,0.298412704468
1449615947064848613,0.162031746864,0.0,0.0,0.0,0.0,0.298412704468
1449615947104847392,0.027936508894,0.0,0.0,0.0,0.0,0.387301588058
1449615947145133370,0.027936508894,0.0,0.0,0.0,0.0,0.387301588058
1449615947185391761,0.027936508894,0.0,0.0,0.0,0.0,0.387301588058
1449615947226731845,0.15644444561,0.0,0.0,0.0,0.0,0.361904764175
1449615947265109969,0.15644444561,0.0,0.0,0.0,0.0,0.361904764175
1449615947305660840,0.162031746864,0.0,0.0,0.0,0.0,0.361904764175
1449615947344437858,0.162031746864,0.0,0.0,0.0,0.0,0.361904764175
1449615947384549977,0.162031746864,0.0,0.0,0.0,0.0,0.361904764175
1449615947424190585,0.15644444561,0.0,0.0,0.0,0.0,0.361904764175
1449615947466141977,0.15644444561,0.0,0.0,0.0,0.0,0.361904764175
1449615947506426763,0.301714288712,0.0,0.0,0.0,0.0,0.336507940292
1449615947546769197,0.301714288712,0.0,0.0,0.0,0.0,0.336507940292
1449615947584512277,0.301714288712,0.0,0.0,0.0,0.0,0.336507940292
1449615947627275121,0.296126987457,0.0,0.0,0.0,0.0,0.336507940292
1449615947664323561,0.296126987457,0.0,0.0,0.0,0.0,0.336507940292
1449615947704143827,0.301714288712,0.0,0.0,0.0,0.0,0.342857146263
1449615947744081831,0.301714288712,0.0,0.0,0.0,0.0,0.342857146263
1449615947786415868,0.301714288712,0.0,0.0,0.0,0.0,0.342857146263
1449615947825565105,0.162031746864,0.0,0.0,0.0,0.0,0.361904764175
1449615947864935087,0.162031746864,0.0,0.0,0.0,0.0,0.361904764175
1449615947911126217,0.111746035576,0.0,0.0,0.0,0.0,0.374603176117
1449615947944234714,0.111746035576,0.0,0.0,0.0,0.0,0.374603176117
1449615947985764964,0.111746035576,0.0,0.0,0.0,0.0,0.374603176117
1449615948025348917,0.106158734322,0.0,0.0,0.0,0.0,0.374603176117
1449615948065353787,0.106158734322,0.0,0.0,0.0,0.0,0.374603176117
1449615948104046062,0.111746035576,0.0,0.0,0.0,0.0,0.368253970146
1449615948145101494,0.111746035576,0.0,0.0,0.0,0.0,0.368253970146
1449615948186927057,0.111746035576,0.0,0.0,0.0,0.0,0.368253970146
1449615948227146624,0.134095240593,0.0,0.0,0.0,0.0,0.304761910439
1449615948266878641,0.134095240593,0.0,0.0,0.0,0.0,0.304761910439
1449615948305685985,0.301714288712,0.0,0.0,0.0,0.0,0.336507940292
1449615948346129548,0.301714288712,0.0,0.0,0.0,0.0,0.336507940292
1449615948385950134,0.301714288712,0.0,0.0,0.0,0.0,0.336507940292
1449615948423990272,0.296126987457,0.0,0.0,0.0,0.0,0.342857146263
1449615948467620880,0.296126987457,0.0,0.0,0.0,0.0,0.342857146263
1449615948504299251,0.251428577423,0.0,0.0,0.0,0.0,0.279365086555
1449615948545215503,0.251428577423,0.0,0.0,0.0,0.0,0.279365086555
1449615948584295961,0.251428577423,0.0,0.0,0.0,0.0,0.279365086555
1449615948625700398,0.296126987457,0.0,0.0,0.0,0.0,0.342857146263
1449615948664417185,0.296126987457,0.0,0.0,0.0,0.0,0.342857146263
1449615948703707988,0.162031746864,0.0,0.0,0.0,0.0,0.361904764175
1449615948745240636,0.162031746864,0.0,0.0,0.0,0.0,0.361904764175
1449615948785396362,0.162031746864,0.0,0.0,0.0,0.0,0.361904764175
1449615948825112799,0.189968263626,0.0,0.0,0.0,0.0,0.0
1449615948864270310,0.189968263626,0.0,0.0,0.0,0.0,0.0
1449615948908517904,0.346412698746,0.0,0.0,0.0,0.0,-0.00634920671582
1449615948943766629,0.346412698746,0.0,0.0,0.0,0.0,-0.00634920671582
1449615948985100630,0.346412698746,0.0,0.0,0.0,0.0,-0.00634920671582
1449615949024356857,0.346412698746,0.0,0.0,0.0,0.0,0.00634920671582
1449615949063761089,0.346412698746,0.0,0.0,0.0,0.0,0.00634920671582
1449615949105225902,0.340825397491,0.0,0.0,0.0,0.0,0.00634920671582
1449615949144077208,0.340825397491,0.0,0.0,0.0,0.0,0.00634920671582
1449615949184303929,0.340825397491,0.0,0.0,0.0,0.0,0.00634920671582
1449615949224878618,0.346412698746,0.0,0.0,0.0,0.0,0.0
1449615949265817353,0.346412698746,0.0,0.0,0.0,0.0,0.0
1449615949304675282,0.301714288712,0.0,0.0,0.0,0.0,0.0
1449615949344584431,0.301714288712,0.0,0.0,0.0,0.0,0.0
1449615949384149006,0.301714288712,0.0,0.0,0.0,0.0,0.0
1449615949424366136,0.329650794983,0.0,0.0,0.0,0.0,-0.126984131336
1449615949465172304,0.329650794983,0.0,0.0,0.0,0.0,-0.126984131336
1449615949505916895,0.329650794983,0.0,0.0,0.0,0.0,-0.120634925365
1449615949544655275,0.329650794983,0.0,0.0,0.0,0.0,-0.120634925365
1449615949587367392,0.329650794983,0.0,0.0,0.0,0.0,-0.120634925365
1449615949623771256,0.335238096237,0.0,0.0,0.0,0.0,-0.0761904776096
1449615949664867543,0.335238096237,0.0,0.0,0.0,0.0,-0.0761904776096
1449615949705434578,0.335238096237,0.0,0.0,0.0,0.0,-0.0761904776096
1449615949744907543,0.335238096237,0.0,0.0,0.0,0.0,-0.0761904776096
1449615949785704920,0.335238096237,0.0,0.0,0.0,0.0,-0.0761904776096
1449615949824571093,0.340825397491,0.0,0.0,0.0,0.0,-0.0761904776096
1449615949864736518,0.340825397491,0.0,0.0,0.0,0.0,-0.0761904776096
1449615949904263888,0.340825397491,0.0,0.0,0.0,0.0,-0.0253968268633
1449615949944569196,0.340825397491,0.0,0.0,0.0,0.0,-0.0253968268633
1449615949984706051,0.340825397491,0.0,0.0,0.0,0.0,-0.0253968268633
1449615950024638760,0.00558730190992,0.0,0.0,0.0,0.0,0.393650794029
1449615950065934528,0.00558730190992,0.0,0.0,0.0,0.0,0.393650794029
1449615950104372420,0.0167619050741,0.0,0.0,0.0,0.0,0.0
1449615950144316661,0.0167619050741,0.0,0.0,0.0,0.0,0.0
1449615950184546582,0.0167619050741,0.0,0.0,0.0,0.0,0.0
1449615950226685264,0.0893968305588,0.0,0.0,0.0,0.0,-0.00634920671582
1449615950265818478,0.0893968305588,0.0,0.0,0.0,0.0,-0.00634920671582
1449615950303819427,0.027936508894,0.0,0.0,0.0,0.0,0.0
1449615950345617847,0.027936508894,0.0,0.0,0.0,0.0,0.0
1449615950385845741,0.027936508894,0.0,0.0,0.0,0.0,0.0
1449615950425696796,0.346412698746,0.0,0.0,0.0,0.0,-0.00634920671582
1449615950464061536,0.346412698746,0.0,0.0,0.0,0.0,-0.00634920671582
1449615950505638695,0.284952384949,0.0,0.0,0.0,0.0,-0.00634920671582
1449615950547862623,0.284952384949,0.0,0.0,0.0,0.0,-0.00634920671582
1449615950585198804,0.284952384949,0.0,0.0,0.0,0.0,-0.00634920671582
1449615950625264352,0.318476192474,0.0,0.0,0.0,0.0,0.184126985073
1449615950664124709,0.318476192474,0.0,0.0,0.0,0.0,0.184126985073
1449615950704201413,0.301714288712,0.0,0.0,0.0,0.0,0.342857146263
1449615950744576237,0.301714288712,0.0,0.0,0.0,0.0,0.342857146263
1449615950787313339,0.301714288712,0.0,0.0,0.0,0.0,0.342857146263
1449615950824329459,0.301714288712,0.0,0.0,0.0,0.0,0.342857146263
1449615950864202936,0.301714288712,0.0,0.0,0.0,0.0,0.342857146263
1449615950904846513,0.296126987457,0.0,0.0,0.0,0.0,0.342857146263
1449615950946251611,0.296126987457,0.0,0.0,0.0,0.0,0.342857146263
1449615950985709739,0.296126987457,0.0,0.0,0.0,0.0,0.342857146263
1449615951023991375,0.15644444561,0.0,0.0,0.0,0.0,0.355555558205
1449615951064244492,0.15644444561,0.0,0.0,0.0,0.0,0.355555558205
1449615951108043962,0.111746035576,0.0,0.0,0.0,0.0,0.368253970146
1449615951143656557,0.111746035576,0.0,0.0,0.0,0.0,0.368253970146
1449615951184314347,0.111746035576,0.0,0.0,0.0,0.0,0.368253970146
1449615951224076506,0.111746035576,0.0,0.0,0.0,0.0,0.374603176117
1449615951264070274,0.111746035576,0.0,0.0,0.0,0.0,0.374603176117
1449615951308211843,0.111746035576,0.0,0.0,0.0,0.0,0.374603176117
1449615951345015025,0.111746035576,0.0,0.0,0.0,0.0,0.374603176117
1449615951386415358,0.111746035576,0.0,0.0,0.0,0.0,0.374603176117
1449615951423801052,0.111746035576,0.0,0.0,0.0,0.0,0.374603176117
1449615951464842791,0.111746035576,0.0,0.0,0.0,0.0,0.374603176117
1449615951509885952,0.162031746864,0.0,0.0,0.0,0.0,0.361904764175
1449615951545838823,0.162031746864,0.0,0.0,0.0,0.0,0.361904764175
1449615951584635996,0.162031746864,0.0,0.0,0.0,0.0,0.361904764175
1449615951623683674,0.162031746864,0.0,0.0,0.0,0.0,0.368253970146
1449615951663997514,0.162031746864,0.0,0.0,0.0,0.0,0.368253970146
1449615951703697240,0.134095240593,0.0,0.0,0.0,0.0,0.304761910439
1449615951743774099,0.134095240593,0.0,0.0,0.0,0.0,0.304761910439
1449615951783756087,0.134095240593,0.0,0.0,0.0,0.0,0.304761910439
1449615951824016805,0.15644444561,0.0,0.0,0.0,0.0,0.368253970146
1449615951863758353,0.15644444561,0.0,0.0,0.0,0.0,0.368253970146
1449615951904073531,0.162031746864,0.0,0.0,0.0,0.0,0.368253970146
1449615951943631552,0.162031746864,0.0,0.0,0.0,0.0,0.368253970146
1449615951984396660,0.162031746864,0.0,0.0,0.0,0.0,0.368253970146
1449615952023946884,0.111746035576,0.0,0.0,0.0,0.0,0.374603176117
1449615952064450403,0.111746035576,0.0,0.0,0.0,0.0,0.374603176117
1449615952103602824,0.106158734322,0.0,0.0,0.0,0.0,0.374603176117
1449615952143572683,0.106158734322,0.0,0.0,0.0,0.0,0.374603176117
1449615952183679752,0.106158734322,0.0,0.0,0.0,0.0,0.374603176117
1449615952223764135,0.0502857165337,0.0,0.0,0.0,0.0,0.380952382088
1449615952264413432,0.0502857165337,0.0,0.0,0.0,0.0,0.380952382088
1449615952303865151,0.0446984152794,0.0,0.0,0.0,0.0,0.380952382088
1449615952343660149,0.0446984152794,0.0,0.0,0.0,0.0,0.380952382088
1449615952384737043,0.0446984152794,0.0,0.0,0.0,0.0,0.380952382088
1449615952423918667,0.0502857165337,0.0,0.0,0.0,0.0,0.387301588058
1449615952464558171,0.0502857165337,0.0,0.0,0.0,0.0,0.387301588058
1449615952503459890,0.106158734322,0.0,0.0,0.0,0.0,0.374603176117
1449615952543675837,0.106158734322,0.0,0.0,0.0,0.0,0.374603176117
1449615952584487752,0.106158734322,0.0,0.0,0.0,0.0,0.374603176117
1449615952623611837,0.162031746864,0.0,0.0,0.0,0.0,0.361904764175
1449615952665451630,0.162031746864,0.0,0.0,0.0,0.0,0.361904764175
1449615952703858905,0.296126987457,0.0,0.0,0.0,0.0,0.336507940292
1449615952743605602,0.296126987457,0.0,0.0,0.0,0.0,0.336507940292
1449615952783602076,0.296126987457,0.0,0.0,0.0,0.0,0.336507940292
1449615952823796168,0.296126987457,0.0,0.0,0.0,0.0,0.342857146263
1449615952864459916,0.296126987457,0.0,0.0,0.0,0.0,0.342857146263
1449615952903402832,0.251428577423,0.0,0.0,0.0,0.0,0.285714292526
1449615952943701937,0.251428577423,0.0,0.0,0.0,0.0,0.285714292526
1449615952983515327,0.251428577423,0.0,0.0,0.0,0.0,0.285714292526
1449615953023536256,0.301714288712,0.0,0.0,0.0,0.0,0.342857146263
1449615953064313355,0.301714288712,0.0,0.0,0.0,0.0,0.342857146263
1449615953103529446,0.296126987457,0.0,0.0,0.0,0.0,0.336507940292
1449615953143510963,0.296126987457,0.0,0.0,0.0,0.0,0.336507940292
1449615953184029638,0.296126987457,0.0,0.0,0.0,0.0,0.336507940292
1449615953223543442,0.251428577423,0.0,0.0,0.0,0.0,0.285714292526
1449615953264269276,0.251428577423,0.0,0.0,0.0,0.0,0.285714292526
1449615953303577263,0.296126987457,0.0,0.0,0.0,0.0,0.342857146263
1449615953343448745,0.296126987457,0.0,0.0,0.0,0.0,0.342857146263
1449615953383744307,0.296126987457,0.0,0.0,0.0,0.0,0.342857146263
1449615953423657694,0.301714288712,0.0,0.0,0.0,0.0,0.342857146263
1449615953464616578,0.301714288712,0.0,0.0,0.0,0.0,0.342857146263
1449615953503723250,0.0558730177879,0.0,0.0,0.0,0.0,0.0507936537266
1449615953543503621,0.0558730177879,0.0,0.0,0.0,0.0,0.0507936537266
1449615953583815779,0.0558730177879,0.0,0.0,0.0,0.0,0.0507936537266
1449615953623537178,0.346412698746,0.0,0.0,0.0,0.0,-0.00634920671582
1449615953663679033,0.346412698746,0.0,0.0,0.0,0.0,-0.00634920671582
1449615953703443345,0.262603179932,0.0,0.0,0.0,0.0,-0.298412704468
1449615953743528693,0.262603179932,0.0,0.0,0.0,0.0,-0.298412704468
1449615953784124856,0.262603179932,0.0,0.0,0.0,0.0,-0.298412704468
1449615953823545736,0.296126987457,0.0,0.0,0.0,0.0,-0.336507940292
1449615953864661441,0.296126987457,0.0,0.0,0.0,0.0,-0.336507940292
1449615953903573073,0.106158734322,0.0,0.0,0.0,0.0,-0.374603176117
1449615953943559842,0.106158734322,0.0,0.0,0.0,0.0,-0.374603176117
1449615953983672730,0.106158734322,0.0,0.0,0.0,0.0,-0.374603176117
1449615954023770280,0.0223492076397,0.0,0.0,0.0,0.0,-0.387301588058
1449615954064040353,0.0223492076397,0.0,0.0,0.0,0.0,-0.387301588058
1449615954103593886,0.0223492076397,0.0,0.0,0.0,0.0,-0.387301588058
1449615954143549186,0.0223492076397,0.0,0.0,0.0,0.0,-0.387301588058
1449615954184247490,0.0223492076397,0.0,0.0,0.0,0.0,-0.387301588058
1449615954223715362,0.0167619050741,0.0,0.0,0.0,0.0,-0.387301588058
1449615954264148865,0.0167619050741,0.0,0.0,0.0,0.0,-0.387301588058
1449615954303555999,0.0167619050741,0.0,0.0,0.0,0.0,-0.387301588058
1449615954343560335,0.0167619050741,0.0,0.0,0.0,0.0,-0.387301588058
1449615954383739984,0.0167619050741,0.0,0.0,0.0,0.0,-0.387301588058
1449615954423805000,0.0223492076397,0.0,0.0,0.0,0.0,-0.387301588058
1449615954464247229,0.0223492076397,0.0,0.0,0.0,0.0,-0.387301588058
1449615954503415288,0.0223492076397,0.0,0.0,0.0,0.0,-0.387301588058
1449615954543430695,0.0223492076397,0.0,0.0,0.0,0.0,-0.387301588058
1449615954583855390,0.0223492076397,0.0,0.0,0.0,0.0,-0.387301588058
1449615954624889212,0.0223492076397,0.0,0.0,0.0,0.0,-0.387301588058
1449615954665055535,0.0223492076397,0.0,0.0,0.0,0.0,-0.387301588058
1449615954703796263,0.0223492076397,0.0,0.0,0.0,0.0,-0.387301588058
1449615954743444751,0.0223492076397,0.0,0.0,0.0,0.0,-0.387301588058
1449615954784148727,0.0223492076397,0.0,0.0,0.0,0.0,-0.387301588058
1449615954823592544,0.0223492076397,0.0,0.0,0.0,0.0,-0.393650794029
1449615954867429894,0.0223492076397,0.0,0.0,0.0,0.0,-0.393650794029
1449615954903555727,0.0223492076397,0.0,0.0,0.0,0.0,-0.393650794029
1449615954943434331,0.0223492076397,0.0,0.0,0.0,0.0,-0.393650794029
1449615954983888477,0.0223492076397,0.0,0.0,0.0,0.0,-0.393650794029
1449615955024152726,0.0670476202965,0.0,0.0,0.0,0.0,-0.380952382088
1449615955064836300,0.0670476202965,0.0,0.0,0.0,0.0,-0.380952382088
1449615955103576913,0.111746035576,0.0,0.0,0.0,0.0,-0.374603176117
1449615955143460034,0.111746035576,0.0,0.0,0.0,0.0,-0.374603176117
1449615955183790035,0.111746035576,0.0,0.0,0.0,0.0,-0.374603176117
1449615955223713223,0.0670476202965,0.0,0.0,0.0,0.0,-0.380952382088
1449615955264264213,0.0670476202965,0.0,0.0,0.0,0.0,-0.380952382088
1449615955303669670,0.0446984152794,0.0,0.0,0.0,0.0,-0.387301588058
1449615955343434117,0.0446984152794,0.0,0.0,0.0,0.0,-0.387301588058
1449615955384346345,0.0446984152794,0.0,0.0,0.0,0.0,-0.387301588058
1449615955423879641,0.0502857165337,0.0,0.0,0.0,0.0,-0.380952382088
1449615955464557724,0.0502857165337,0.0,0.0,0.0,0.0,-0.380952382088
1449615955503512801,0.0446984152794,0.0,0.0,0.0,0.0,-0.380952382088
1449615955543644725,0.0446984152794,0.0,0.0,0.0,0.0,-0.380952382088
1449615955583682841,0.0446984152794,0.0,0.0,0.0,0.0,-0.380952382088
1449615955623908868,0.0167619050741,0.0,0.0,0.0,0.0,-0.00634920671582
1449615955663628069,0.0167619050741,0.0,0.0,0.0,0.0,-0.00634920671582
1449615955703495434,0.0111746038198,0.0,0.0,0.0,0.0,0.0
1449615955743531511,0.0111746038198,0.0,0.0,0.0,0.0,0.0
1449615955784105659,0.0111746038198,0.0,0.0,0.0,0.0,0.0
1449615955823778970,0.00558730190992,0.0,0.0,0.0,0.0,0.0
1449615955864752741,0.00558730190992,0.0,0.0,0.0,0.0,0.0
1449615955903483830,0.00558730190992,0.0,0.0,0.0,0.0,0.0
1449615955943537291,0.00558730190992,0.0,0.0,0.0,0.0,0.0
1449615955983445469,0.00558730190992,0.0,0.0,0.0,0.0,0.0
1449615956023622468,0.346412698746,0.0,0.0,0.0,0.0,-0.0190476194024
1449615956064581464,0.346412698746,0.0,0.0,0.0,0.0,-0.0190476194024
1449615956103460266,0.346412698746,0.0,0.0,0.0,0.0,-0.0126984134316
1449615956143584400,0.346412698746,0.0,0.0,0.0,0.0,-0.0126984134316
1449615956183733133,0.346412698746,0.0,0.0,0.0,0.0,-0.0126984134316
1449615956224975745,0.346412698746,0.0,0.0,0.0,0.0,-0.0126984134316
1449615956264028346,0.346412698746,0.0,0.0,0.0,0.0,-0.0126984134316
1449615956303655746,0.346412698746,0.0,0.0,0.0,0.0,-0.0190476194024
1449615956343477758,0.346412698746,0.0,0.0,0.0,0.0,-0.0190476194024
1449615956383734576,0.346412698746,0.0,0.0,0.0,0.0,-0.0190476194024
1449615956423790700,0.346412698746,0.0,0.0,0.0,0.0,-0.0126984134316
1449615956464310456,0.346412698746,0.0,0.0,0.0,0.0,-0.0126984134316
1449615956503672776,0.340825397491,0.0,0.0,0.0,0.0,-0.0317460328341
1449615956543812863,0.340825397491,0.0,0.0,0.0,0.0,-0.0317460328341
1449615956583580919,0.340825397491,0.0,0.0,0.0,0.0,-0.0317460328341
1449615956623595953,0.329650794983,0.0,0.0,0.0,0.0,-0.120634925365
1449615956665828029,0.329650794983,0.0,0.0,0.0,0.0,-0.120634925365
1449615956703476572,0.329650794983,0.0,0.0,0.0,0.0,-0.126984131336
1449615956743856036,0.329650794983,0.0,0.0,0.0,0.0,-0.126984131336
1449615956783550367,0.329650794983,0.0,0.0,0.0,0.0,-0.126984131336
1449615956823816522,0.324063493729,0.0,0.0,0.0,0.0,-0.184126985073
1449615956864310578,0.324063493729,0.0,0.0,0.0,0.0,-0.184126985073
1449615956903829334,0.324063493729,0.0,0.0,0.0,0.0,-0.184126985073
1449615956943501044,0.324063493729,0.0,0.0,0.0,0.0,-0.184126985073
1449615956983875745,0.324063493729,0.0,0.0,0.0,0.0,-0.184126985073
1449615957023683335,0.268190481186,0.0,0.0,0.0,0.0,-0.152380955219
1449615957064176063,0.268190481186,0.0,0.0,0.0,0.0,-0.152380955219
1449615957103627954,0.318476192474,0.0,0.0,0.0,0.0,-0.177777779102
1449615957143508492,0.318476192474,0.0,0.0,0.0,0.0,-0.177777779102
1449615957183423095,0.318476192474,0.0,0.0,0.0,0.0,-0.177777779102
1449615957223664518,0.324063493729,0.0,0.0,0.0,0.0,-0.184126985073
1449615957265128651,0.324063493729,0.0,0.0,0.0,0.0,-0.184126985073
1449615957303670679,0.324063493729,0.0,0.0,0.0,0.0,-0.184126985073
1449615957343440211,0.324063493729,0.0,0.0,0.0,0.0,-0.184126985073
1449615957384127276,0.324063493729,0.0,0.0,0.0,0.0,-0.184126985073
1449615957423651445,0.318476192474,0.0,0.0,0.0,0.0,-0.177777779102
1449615957463950720,0.318476192474,0.0,0.0,0.0,0.0,-0.177777779102
1449615957503651100,0.268190481186,0.0,0.0,0.0,0.0,-0.152380955219
1449615957544011885,0.268190481186,0.0,0.0,0.0,0.0,-0.152380955219
1449615957584122764,0.268190481186,0.0,0.0,0.0,0.0,-0.152380955219
1449615957623741283,0.324063493729,0.0,0.0,0.0,0.0,-0.184126985073
1449615957665263892,0.324063493729,0.0,0.0,0.0,0.0,-0.184126985073
1449615957703729544,0.324063493729,0.0,0.0,0.0,0.0,-0.184126985073
1449615957743473853,0.324063493729,0.0,0.0,0.0,0.0,-0.184126985073
1449615957783706876,0.324063493729,0.0,0.0,0.0,0.0,-0.184126985073
1449615957823773016,0.318476192474,0.0,0.0,0.0,0.0,-0.184126985073
1449615957864379157,0.318476192474,0.0,0.0,0.0,0.0,-0.184126985073
1449615957903528564,0.318476192474,0.0,0.0,0.0,0.0,-0.184126985073
1449615957943859377,0.318476192474,0.0,0.0,0.0,0.0,-0.184126985073
1449615957983694903,0.318476192474,0.0,0.0,0.0,0.0,-0.184126985073
1449615958023727987,0.340825397491,0.0,0.0,0.0,0.0,-0.0571428596973
1449615958064118340,0.340825397491,0.0,0.0,0.0,0.0,-0.0571428596973
1449615958103729407,0.346412698746,0.0,0.0,0.0,0.0,-0.0317460328341
1449615958143548491,0.346412698746,0.0,0.0,0.0,0.0,-0.0317460328341
1449615958183648624,0.346412698746,0.0,0.0,0.0,0.0,-0.0317460328341
1449615958223719738,0.346412698746,0.0,0.0,0.0,0.0,0.0190476194024
1449615958263995393,0.346412698746,0.0,0.0,0.0,0.0,0.0190476194024
1449615958303573711,0.296126987457,0.0,0.0,0.0,0.0,0.336507940292
1449615958343462155,0.296126987457,0.0,0.0,0.0,0.0,0.336507940292
1449615958383558341,0.296126987457,0.0,0.0,0.0,0.0,0.336507940292
1449615958423576098,0.296126987457,0.0,0.0,0.0,0.0,0.342857146263
1449615958464048967,0.296126987457,0.0,0.0,0.0,0.0,0.342857146263
1449615958503662064,0.296126987457,0.0,0.0,0.0,0.0,0.342857146263
1449615958543428710,0.296126987457,0.0,0.0,0.0,0.0,0.342857146263
1449615958583649746,0.296126987457,0.0,0.0,0.0,0.0,0.342857146263
1449615958623575148,0.301714288712,0.0,0.0,0.0,0.0,0.342857146263
1449615958664327152,0.301714288712,0.0,0.0,0.0,0.0,0.342857146263
1449615958703532286,0.296126987457,0.0,0.0,0.0,0.0,0.336507940292
1449615958743372797,0.296126987457,0.0,0.0,0.0,0.0,0.336507940292
1449615958783533661,0.296126987457,0.0,0.0,0.0,0.0,0.336507940292
1449615958823466646,0.301714288712,0.0,0.0,0.0,0.0,0.342857146263
1449615958864100693,0.301714288712,0.0,0.0,0.0,0.0,0.342857146263
1449615958903452536,0.296126987457,0.0,0.0,0.0,0.0,0.342857146263
1449615958943451479,0.296126987457,0.0,0.0,0.0,0.0,0.342857146263
1449615958983581143,0.296126987457,0.0,0.0,0.0,0.0,0.342857146263
1449615959023679472,0.301714288712,0.0,0.0,0.0,0.0,0.342857146263
1449615959064690945,0.301714288712,0.0,0.0,0.0,0.0,0.342857146263
1449615959103507051,0.251428577423,0.0,0.0,0.0,0.0,0.285714292526
1449615959143482847,0.251428577423,0.0,0.0,0.0,0.0,0.285714292526
1449615959183738766,0.251428577423,0.0,0.0,0.0,0.0,0.285714292526
1449615959223583592,0.301714288712,0.0,0.0,0.0,0.0,0.342857146263
1449615959267193282,0.301714288712,0.0,0.0,0.0,0.0,0.342857146263
1449615959303476649,0.296126987457,0.0,0.0,0.0,0.0,0.342857146263
1449615959343463991,0.296126987457,0.0,0.0,0.0,0.0,0.342857146263
1449615959383892977,0.296126987457,0.0,0.0,0.0,0.0,0.342857146263
1449615959424084857,0.251428577423,0.0,0.0,0.0,0.0,0.285714292526
1449615959464355931,0.251428577423,0.0,0.0,0.0,0.0,0.285714292526
1449615959503603171,0.301714288712,0.0,0.0,0.0,0.0,0.342857146263
1449615959543580867,0.301714288712,0.0,0.0,0.0,0.0,0.342857146263
1449615959583552625,0.301714288712,0.0,0.0,0.0,0.0,0.342857146263
1449615959623677450,0.301714288712,0.0,0.0,0.0,0.0,0.342857146263
1449615959664596963,0.301714288712,0.0,0.0,0.0,0.0,0.342857146263
1449615959703651569,0.296126987457,0.0,0.0,0.0,0.0,0.342857146263
1449615959743494307,0.296126987457,0.0,0.0,0.0,0.0,0.342857146263
1449615959783816399,0.296126987457,0.0,0.0,0.0,0.0,0.342857146263
1449615959823779581,0.301714288712,0.0,0.0,0.0,0.0,0.336507940292
1449615959864946962,0.301714288712,0.0,0.0,0.0,0.0,0.336507940292
1449615959903808142,0.301714288712,0.0,0.0,0.0,0.0,0.342857146263
1449615959943527194,0.301714288712,0.0,0.0,0.0,0.0,0.342857146263
1449615959983782812,0.301714288712,0.0,0.0,0.0,0.0,0.342857146263
1449615960023810827,0.301714288712,0.0,0.0,0.0,0.0,0.342857146263
1449615960065519687,0.301714288712,0.0,0.0,0.0,0.0,0.342857146263
1449615960103746730,0.301714288712,0.0,0.0,0.0,0.0,0.342857146263
1449615960143612549,0.301714288712,0.0,0.0,0.0,0.0,0.342857146263
1449615960183590722,0.301714288712,0.0,0.0,0.0,0.0,0.342857146263
1449615960223607868,0.301714288712,0.0,0.0,0.0,0.0,0.336507940292
1449615960264341610,0.301714288712,0.0,0.0,0.0,0.0,0.336507940292
1449615960303433288,0.301714288712,0.0,0.0,0.0,0.0,0.342857146263
1449615960343569480,0.301714288712,0.0,0.0,0.0,0.0,0.342857146263
1449615960383492386,0.301714288712,0.0,0.0,0.0,0.0,0.342857146263
1449615960423522078,0.346412698746,0.0,0.0,0.0,0.0,0.00634920671582
1449615960464349731,0.346412698746,0.0,0.0,0.0,0.0,0.00634920671582
1449615960503747501,0.340825397491,0.0,0.0,0.0,0.0,-0.0317460328341
1449615960543455764,0.340825397491,0.0,0.0,0.0,0.0,-0.0317460328341
1449615960583517960,0.340825397491,0.0,0.0,0.0,0.0,-0.0317460328341
1449615960623878406,0.301714288712,0.0,0.0,0.0,0.0,-0.342857146263
1449615960664582695,0.301714288712,0.0,0.0,0.0,0.0,-0.342857146263
1449615960703663842,0.296126987457,0.0,0.0,0.0,0.0,-0.336507940292
1449615960743505016,0.296126987457,0.0,0.0,0.0,0.0,-0.336507940292
1449615960783591237,0.296126987457,0.0,0.0,0.0,0.0,-0.336507940292
1449615960823414430,0.296126987457,0.0,0.0,0.0,0.0,-0.336507940292
1449615960865654169,0.296126987457,0.0,0.0,0.0,0.0,-0.336507940292
1449615960903474693,0.268190481186,0.0,0.0,0.0,0.0,-0.304761910439
1449615960943533608,0.268190481186,0.0,0.0,0.0,0.0,-0.304761910439
1449615960983765807,0.268190481186,0.0,0.0,0.0,0.0,-0.304761910439
1449615961023587500,0.296126987457,0.0,0.0,0.0,0.0,-0.336507940292
1449615961064209053,0.296126987457,0.0,0.0,0.0,0.0,-0.336507940292
1449615961103538986,0.296126987457,0.0,0.0,0.0,0.0,-0.336507940292
1449615961143799524,0.296126987457,0.0,0.0,0.0,0.0,-0.336507940292
1449615961184852412,0.296126987457,0.0,0.0,0.0,0.0,-0.336507940292
1449615961223581652,0.301714288712,0.0,0.0,0.0,0.0,-0.342857146263
1449615961264592541,0.301714288712,0.0,0.0,0.0,0.0,-0.342857146263
1449615961303575019,0.296126987457,0.0,0.0,0.0,0.0,-0.336507940292
1449615961343466685,0.296126987457,0.0,0.0,0.0,0.0,-0.336507940292
1449615961383541549,0.296126987457,0.0,0.0,0.0,0.0,-0.336507940292
1449615961423783280,0.301714288712,0.0,0.0,0.0,0.0,-0.342857146263
1449615961465229359,0.301714288712,0.0,0.0,0.0,0.0,-0.342857146263
1449615961503459494,0.301714288712,0.0,0.0,0.0,0.0,-0.342857146263
1449615961543484483,0.301714288712,0.0,0.0,0.0,0.0,-0.342857146263
1449615961583727620,0.301714288712,0.0,0.0,0.0,0.0,-0.342857146263
1449615961623688727,0.15644444561,0.0,0.0,0.0,0.0,-0.361904764175
1449615961667339936,0.15644444561,0.0,0.0,0.0,0.0,-0.361904764175
1449615961703618062,0.15644444561,0.0,0.0,0.0,0.0,-0.361904764175
1449615961744192103,0.15644444561,0.0,0.0,0.0,0.0,-0.361904764175
1449615961783847533,0.15644444561,0.0,0.0,0.0,0.0,-0.361904764175
1449615961823859141,0.111746035576,0.0,0.0,0.0,0.0,-0.374603176117
1449615961863788371,0.111746035576,0.0,0.0,0.0,0.0,-0.374603176117
1449615961903598554,0.106158734322,0.0,0.0,0.0,0.0,-0.374603176117
1449615961943474265,0.106158734322,0.0,0.0,0.0,0.0,-0.374603176117
1449615961983775167,0.106158734322,0.0,0.0,0.0,0.0,-0.374603176117
1449615962023563628,0.0893968305588,0.0,0.0,0.0,0.0,-0.311111116409
1449615962065989127,0.0893968305588,0.0,0.0,0.0,0.0,-0.311111116409
1449615962103523192,0.106158734322,0.0,0.0,0.0,0.0,-0.374603176117
1449615962144048789,0.106158734322,0.0,0.0,0.0,0.0,-0.374603176117
1449615962183472517,0.106158734322,0.0,0.0,0.0,0.0,-0.374603176117
1449615962223569037,0.106158734322,0.0,0.0,0.0,0.0,-0.368253970146
1449615962264636872,0.106158734322,0.0,0.0,0.0,0.0,-0.368253970146
1449615962303661111,0.15644444561,0.0,0.0,0.0,0.0,-0.368253970146
1449615962343471431,0.15644444561,0.0,0.0,0.0,0.0,-0.368253970146
1449615962383772403,0.15644444561,0.0,0.0,0.0,0.0,-0.368253970146
1449615962423552874,0.301714288712,0.0,0.0,0.0,0.0,-0.336507940292
1449615962464631753,0.301714288712,0.0,0.0,0.0,0.0,-0.336507940292
1449615962503941697,0.301714288712,0.0,0.0,0.0,0.0,-0.0126984134316
1449615962544133077,0.301714288712,0.0,0.0,0.0,0.0,-0.0126984134316
1449615962583679032,0.301714288712,0.0,0.0,0.0,0.0,-0.0126984134316
1449615962623646255,0.346412698746,0.0,0.0,0.0,0.0,0.0
1449615962664189934,0.346412698746,0.0,0.0,0.0,0.0,0.0
1449615962703753210,0.307301589966,0.0,0.0,0.0,0.0,-0.00634920671582
1449615962743414731,0.307301589966,0.0,0.0,0.0,0.0,-0.00634920671582
1449615962783861008,0.307301589966,0.0,0.0,0.0,0.0,-0.00634920671582
1449615962823846576,0.346412698746,0.0,0.0,0.0,0.0,-0.00634920671582
1449615962864283510,0.346412698746,0.0,0.0,0.0,0.0,-0.00634920671582
1449615962903765117,0.346412698746,0.0,0.0,0.0,0.0,-0.00634920671582
1449615962944654702,0.346412698746,0.0,0.0,0.0,0.0,-0.00634920671582
1449615962983650447,0.346412698746,0.0,0.0,0.0,0.0,-0.00634920671582
1449615963023645937,0.352,0.0,0.0,0.0,0.0,-0.00634920671582
1449615963065016454,0.352,0.0,0.0,0.0,0.0,-0.00634920671582
1449615963104195527,0.346412698746,0.0,0.0,0.0,0.0,-0.00634920671582
1449615963143988915,0.346412698746,0.0,0.0,0.0,0.0,-0.00634920671582
1449615963183594807,0.346412698746,0.0,0.0,0.0,0.0,-0.00634920671582
1449615963223634887,0.346412698746,0.0,0.0,0.0,0.0,-0.00634920671582
1449615963264299887,0.346412698746,0.0,0.0,0.0,0.0,-0.00634920671582
1449615963303907529,0.346412698746,0.0,0.0,0.0,0.0,-0.00634920671582
1449615963343815551,0.346412698746,0.0,0.0,0.0,0.0,-0.00634920671582
1449615963383644358,0.346412698746,0.0,0.0,0.0,0.0,-0.00634920671582
1449615963423594470,0.346412698746,0.0,0.0,0.0,0.0,-0.00634920671582
1449615963466056835,0.346412698746,0.0,0.0,0.0,0.0,-0.00634920671582
1449615963503595730,0.346412698746,0.0,0.0,0.0,0.0,-0.00634920671582
1449615963543668936,0.346412698746,0.0,0.0,0.0,0.0,-0.00634920671582
1449615963583686172,0.346412698746,0.0,0.0,0.0,0.0,-0.00634920671582
1449615963623728470,0.346412698746,0.0,0.0,0.0,0.0,-0.00634920671582
1449615963663680792,0.346412698746,0.0,0.0,0.0,0.0,-0.00634920671582
1449615963703532469,0.346412698746,0.0,0.0,0.0,0.0,-0.00634920671582
1449615963743800288,0.346412698746,0.0,0.0,0.0,0.0,-0.00634920671582
1449615963783730552,0.346412698746,0.0,0.0,0.0,0.0,-0.00634920671582
1449615963823658206,0.346412698746,0.0,0.0,0.0,0.0,0.0
1449615963866044293,0.346412698746,0.0,0.0,0.0,0.0,0.0
1449615963903944453,0.346412698746,0.0,0.0,0.0,0.0,-0.00634920671582
1449615963944813665,0.346412698746,0.0,0.0,0.0,0.0,-0.00634920671582
1449615963983367185,0.346412698746,0.0,0.0,0.0,0.0,-0.00634920671582
1449615964023670367,0.346412698746,0.0,0.0,0.0,0.0,0.0
1449615964065327190,0.346412698746,0.0,0.0,0.0,0.0,0.0
1449615964103684448,0.346412698746,0.0,0.0,0.0,0.0,0.0
1449615964143645752,0.346412698746,0.0,0.0,0.0,0.0,0.0
1449615964183555762,0.346412698746,0.0,0.0,0.0,0.0,0.0
1449615964223779233,0.31288889122,0.0,0.0,0.0,0.0,0.0
1449615964264918444,0.31288889122,0.0,0.0,0.0,0.0,0.0
1449615964303570786,0.346412698746,0.0,0.0,0.0,0.0,0.0
1449615964346726884,0.346412698746,0.0,0.0,0.0,0.0,0.0
1449615964383467607,0.346412698746,0.0,0.0,0.0,0.0,0.0
1449615964423596528,0.290539686203,0.0,0.0,0.0,0.0,0.0444444447756
1449615964463644190,0.290539686203,0.0,0.0,0.0,0.0,0.0444444447756
1449615964503656490,0.301714288712,0.0,0.0,0.0,0.0,0.342857146263
1449615964543813660,0.301714288712,0.0,0.0,0.0,0.0,0.342857146263
1449615964583538031,0.301714288712,0.0,0.0,0.0,0.0,0.342857146263
1449615964623446334,0.301714288712,0.0,0.0,0.0,0.0,0.342857146263
1449615964664884548,0.301714288712,0.0,0.0,0.0,0.0,0.342857146263
1449615964703555925,0.268190481186,0.0,0.0,0.0,0.0,0.304761910439
1449615964743772459,0.268190481186,0.0,0.0,0.0,0.0,0.304761910439
1449615964783411612,0.268190481186,0.0,0.0,0.0,0.0,0.304761910439
1449615964823501910,0.301714288712,0.0,0.0,0.0,0.0,0.342857146263
1449615964863914561,0.301714288712,0.0,0.0,0.0,0.0,0.342857146263
1449615964903713326,0.301714288712,0.0,0.0,0.0,0.0,0.342857146263
1449615964943995818,0.301714288712,0.0,0.0,0.0,0.0,0.342857146263
1449615964983778384,0.301714288712,0.0,0.0,0.0,0.0,0.342857146263
1449615965023543561,0.257015878677,0.0,0.0,0.0,0.0,0.292063498497
1449615965065329609,0.257015878677,0.0,0.0,0.0,0.0,0.292063498497
1449615965104091973,0.301714288712,0.0,0.0,0.0,0.0,0.342857146263
1449615965145095945,0.301714288712,0.0,0.0,0.0,0.0,0.342857146263
1449615965183494134,0.301714288712,0.0,0.0,0.0,0.0,0.342857146263
1449615965223547815,0.301714288712,0.0,0.0,0.0,0.0,0.336507940292
1449615965263894246,0.301714288712,0.0,0.0,0.0,0.0,0.336507940292
1449615965304700189,0.301714288712,0.0,0.0,0.0,0.0,0.342857146263
1449615965344637535,0.301714288712,0.0,0.0,0.0,0.0,0.342857146263
1449615965383601197,0.301714288712,0.0,0.0,0.0,0.0,0.342857146263
1449615965423563775,0.296126987457,0.0,0.0,0.0,0.0,0.336507940292
1449615965463596282,0.296126987457,0.0,0.0,0.0,0.0,0.336507940292
1449615965503623645,0.301714288712,0.0,0.0,0.0,0.0,0.342857146263
1449615965543780763,0.301714288712,0.0,0.0,0.0,0.0,0.342857146263
1449615965583739991,0.301714288712,0.0,0.0,0.0,0.0,0.342857146263
1449615965623412758,0.301714288712,0.0,0.0,0.0,0.0,0.336507940292
1449615965666282679,0.301714288712,0.0,0.0,0.0,0.0,0.336507940292
1449615965704448223,0.301714288712,0.0,0.0,0.0,0.0,0.342857146263
1449615965744305723,0.301714288712,0.0,0.0,0.0,0.0,0.342857146263
1449615965783489205,0.301714288712,0.0,0.0,0.0,0.0,0.342857146263
1449615965823448041,0.296126987457,0.0,0.0,0.0,0.0,0.336507940292
1449615965863962677,0.296126987457,0.0,0.0,0.0,0.0,0.336507940292
1449615965904013870,0.301714288712,0.0,0.0,0.0,0.0,0.342857146263
1449615965943943778,0.301714288712,0.0,0.0,0.0,0.0,0.342857146263
1449615965983606325,0.301714288712,0.0,0.0,0.0,0.0,0.342857146263
1449615966023486713,0.296126987457,0.0,0.0,0.0,0.0,0.336507940292
1449615966063699492,0.296126987457,0.0,0.0,0.0,0.0,0.336507940292
1449615966104051170,0.301714288712,0.0,0.0,0.0,0.0,0.336507940292
1449615966144614050,0.301714288712,0.0,0.0,0.0,0.0,0.336507940292
1449615966183562565,0.301714288712,0.0,0.0,0.0,0.0,0.336507940292
1449615966223590938,0.296126987457,0.0,0.0,0.0,0.0,0.336507940292
1449615966263728314,0.296126987457,0.0,0.0,0.0,0.0,0.336507940292
1449615966303634068,0.296126987457,0.0,0.0,0.0,0.0,0.336507940292
1449615966345588084,0.296126987457,0.0,0.0,0.0,0.0,0.336507940292
1449615966383552807,0.296126987457,0.0,0.0,0.0,0.0,0.336507940292
1449615966423439946,0.296126987457,0.0,0.0,0.0,0.0,0.336507940292
1449615966463663259,0.296126987457,0.0,0.0,0.0,0.0,0.336507940292
1449615966504160501,0.301714288712,0.0,0.0,0.0,0.0,0.336507940292
1449615966544564099,0.301714288712,0.0,0.0,0.0,0.0,0.336507940292
1449615966583523874,0.301714288712,0.0,0.0,0.0,0.0,0.336507940292
1449615966623529303,0.296126987457,0.0,0.0,0.0,0.0,0.342857146263
1449615966664252790,0.296126987457,0.0,0.0,0.0,0.0,0.342857146263
1449615966703748575,0.296126987457,0.0,0.0,0.0,0.0,0.336507940292
1449615966745224700,0.296126987457,0.0,0.0,0.0,0.0,0.336507940292
1449615966783483320,0.296126987457,0.0,0.0,0.0,0.0,0.336507940292
1449615966823582397,0.296126987457,0.0,0.0,0.0,0.0,0.336507940292
1449615966863851230,0.296126987457,0.0,0.0,0.0,0.0,0.336507940292
1449615966903618096,0.251428577423,0.0,0.0,0.0,0.0,0.279365086555
1449615966944150250,0.251428577423,0.0,0.0,0.0,0.0,0.279365086555
1449615966983535369,0.251428577423,0.0,0.0,0.0,0.0,0.279365086555
1449615967023426697,0.301714288712,0.0,0.0,0.0,0.0,0.342857146263
1449615967063591934,0.301714288712,0.0,0.0,0.0,0.0,0.342857146263
1449615967104372915,0.301714288712,0.0,0.0,0.0,0.0,0.336507940292
1449615967144583691,0.301714288712,0.0,0.0,0.0,0.0,0.336507940292
1449615967183635649,0.301714288712,0.0,0.0,0.0,0.0,0.336507940292
1449615967223414155,0.251428577423,0.0,0.0,0.0,0.0,0.285714292526
1449615967264328379,0.251428577423,0.0,0.0,0.0,0.0,0.285714292526
1449615967303893533,0.296126987457,0.0,0.0,0.0,0.0,0.336507940292
1449615967345337691,0.296126987457,0.0,0.0,0.0,0.0,0.336507940292
1449615967383591294,0.296126987457,0.0,0.0,0.0,0.0,0.336507940292
1449615967423474253,0.296126987457,0.0,0.0,0.0,0.0,0.342857146263
1449615967463773855,0.296126987457,0.0,0.0,0.0,0.0,0.342857146263
1449615967503759310,0.296126987457,0.0,0.0,0.0,0.0,0.336507940292
1449615967543819851,0.296126987457,0.0,0.0,0.0,0.0,0.336507940292
1449615967583725869,0.296126987457,0.0,0.0,0.0,0.0,0.336507940292
1449615967623494535,0.301714288712,0.0,0.0,0.0,0.0,0.342857146263
1449615967665220360,0.301714288712,0.0,0.0,0.0,0.0,0.342857146263
1449615967704193119,0.296126987457,0.0,0.0,0.0,0.0,0.342857146263
1449615967744252707,0.296126987457,0.0,0.0,0.0,0.0,0.342857146263
1449615967783746830,0.296126987457,0.0,0.0,0.0,0.0,0.342857146263
1449615967823488342,0.301714288712,0.0,0.0,0.0,0.0,0.342857146263
1449615967863758451,0.301714288712,0.0,0.0,0.0,0.0,0.342857146263
1449615967904495132,0.296126987457,0.0,0.0,0.0,0.0,0.342857146263
1449615967944338984,0.296126987457,0.0,0.0,0.0,0.0,0.342857146263
1449615967983577701,0.296126987457,0.0,0.0,0.0,0.0,0.342857146263
1449615968023518699,0.301714288712,0.0,0.0,0.0,0.0,0.342857146263
1449615968063972575,0.301714288712,0.0,0.0,0.0,0.0,0.342857146263
1449615968103980042,0.296126987457,0.0,0.0,0.0,0.0,0.336507940292
1449615968143895290,0.296126987457,0.0,0.0,0.0,0.0,0.336507940292
1449615968183543035,0.296126987457,0.0,0.0,0.0,0.0,0.336507940292
1449615968223535155,0.346412698746,0.0,0.0,0.0,0.0,0.0126984134316
1449615968264149160,0.346412698746,0.0,0.0,0.0,0.0,0.0126984134316
1449615968303936062,0.346412698746,0.0,0.0,0.0,0.0,0.00634920671582
1449615968345264380,0.346412698746,0.0,0.0,0.0,0.0,0.00634920671582
1449615968383587977,0.346412698746,0.0,0.0,0.0,0.0,0.00634920671582
1449615968423386465,0.346412698746,0.0,0.0,0.0,0.0,0.0
1449615968463833078,0.346412698746,0.0,0.0,0.0,0.0,0.0
1449615968503758943,0.346412698746,0.0,0.0,0.0,0.0,0.00634920671582
1449615968545556773,0.346412698746,0.0,0.0,0.0,0.0,0.00634920671582
1449615968583507446,0.346412698746,0.0,0.0,0.0,0.0,0.00634920671582
1449615968623437665,0.346412698746,0.0,0.0,0.0,0.0,0.0
1449615968663764923,0.346412698746,0.0,0.0,0.0,0.0,0.0
1449615968703906645,0.346412698746,0.0,0.0,0.0,0.0,0.0
1449615968744367877,0.346412698746,0.0,0.0,0.0,0.0,0.0
1449615968783613657,0.346412698746,0.0,0.0,0.0,0.0,0.0
1449615968823434267,0.346412698746,0.0,0.0,0.0,0.0,-0.0126984134316
1449615968864089219,0.346412698746,0.0,0.0,0.0,0.0,-0.0126984134316
1449615968903569565,0.340825397491,0.0,0.0,0.0,0.0,-0.0190476194024
1449615968945677664,0.340825397491,0.0,0.0,0.0,0.0,-0.0190476194024
1449615968983557880,0.340825397491,0.0,0.0,0.0,0.0,-0.0190476194024
1449615969023468686,0.346412698746,0.0,0.0,0.0,0.0,-0.0253968268633
1449615969063493952,0.346412698746,0.0,0.0,0.0,0.0,-0.0253968268633
1449615969103842045,0.340825397491,0.0,0.0,0.0,0.0,-0.0253968268633
1449615969143761053,0.340825397491,0.0,0.0,0.0,0.0,-0.0253968268633
1449615969183551371,0.340825397491,0.0,0.0,0.0,0.0,-0.0253968268633
1449615969223417437,0.346412698746,0.0,0.0,0.0,0.0,-0.0317460328341
1449615969263800124,0.346412698746,0.0,0.0,0.0,0.0,-0.0317460328341
1449615969303764608,0.340825397491,0.0,0.0,0.0,0.0,-0.0317460328341
1449615969343790173,0.340825397491,0.0,0.0,0.0,0.0,-0.0317460328341
1449615969383533634,0.340825397491,0.0,0.0,0.0,0.0,-0.0317460328341
1449615969423456396,0.340825397491,0.0,0.0,0.0,0.0,-0.0253968268633
1449615969463681438,0.340825397491,0.0,0.0,0.0,0.0,-0.0253968268633
1449615969504459365,0.335238096237,0.0,0.0,0.0,0.0,-0.0571428596973
1449615969543970047,0.335238096237,0.0,0.0,0.0,0.0,-0.0571428596973
1449615969583539554,0.335238096237,0.0,0.0,0.0,0.0,-0.0571428596973
1449615969623370813,0.340825397491,0.0,0.0,0.0,0.0,-0.0317460328341
1449615969663578823,0.340825397491,0.0,0.0,0.0,0.0,-0.0317460328341
1449615969703969302,0.346412698746,0.0,0.0,0.0,0.0,-0.0317460328341
1449615969743783875,0.346412698746,0.0,0.0,0.0,0.0,-0.0317460328341
1449615969783904928,0.346412698746,0.0,0.0,0.0,0.0,-0.0317460328341
1449615969823466283,0.340825397491,0.0,0.0,0.0,0.0,-0.0317460328341
1449615969863509119,0.340825397491,0.0,0.0,0.0,0.0,-0.0317460328341
1449615969903887261,0.340825397491,0.0,0.0,0.0,0.0,-0.0507936537266
1449615969944143069,0.340825397491,0.0,0.0,0.0,0.0,-0.0507936537266
1449615969983583004,0.340825397491,0.0,0.0,0.0,0.0,-0.0507936537266
1449615970023437948,0.340825397491,0.0,0.0,0.0,0.0,-0.0507936537266
1449615970063656346,0.340825397491,0.0,0.0,0.0,0.0,-0.0507936537266
1449615970103603664,0.340825397491,0.0,0.0,0.0,0.0,-0.0507936537266
1449615970144178969,0.340825397491,0.0,0.0,0.0,0.0,-0.0507936537266
1449615970183457029,0.340825397491,0.0,0.0,0.0,0.0,-0.0507936537266
1449615970223543354,0.340825397491,0.0,0.0,0.0,0.0,-0.0317460328341
1449615970263682955,0.340825397491,0.0,0.0,0.0,0.0,-0.0317460328341
1449615970304045534,0.346412698746,0.0,0.0,0.0,0.0,-0.0317460328341
1449615970345671720,0.346412698746,0.0,0.0,0.0,0.0,-0.0317460328341
1449615970383663989,0.346412698746,0.0,0.0,0.0,0.0,-0.0317460328341
1449615970423526622,0.340825397491,0.0,0.0,0.0,0.0,-0.0317460328341
1449615970464045070,0.340825397491,0.0,0.0,0.0,0.0,-0.0317460328341
1449615970504110756,0.340825397491,0.0,0.0,0.0,0.0,-0.0317460328341
1449615970543634622,0.340825397491,0.0,0.0,0.0,0.0,-0.0317460328341
1449615970583478926,0.340825397491,0.0,0.0,0.0,0.0,-0.0317460328341
1449615970623548463,0.346412698746,0.0,0.0,0.0,0.0,-0.0317460328341
1449615970663886986,0.346412698746,0.0,0.0,0.0,0.0,-0.0317460328341
1449615970703547671,0.346412698746,0.0,0.0,0.0,0.0,-0.0253968268633
1449615970744495521,0.346412698746,0.0,0.0,0.0,0.0,-0.0253968268633
1449615970783620187,0.346412698746,0.0,0.0,0.0,0.0,-0.0253968268633
1449615970823470102,0.340825397491,0.0,0.0,0.0,0.0,-0.0253968268633
1449615970863739927,0.340825397491,0.0,0.0,0.0,0.0,-0.0253968268633
1449615970903917906,0.346412698746,0.0,0.0,0.0,0.0,-0.0253968268633
1449615970944315752,0.346412698746,0.0,0.0,0.0,0.0,-0.0253968268633
1449615970983494954,0.346412698746,0.0,0.0,0.0,0.0,-0.0253968268633
1449615971023460347,0.340825397491,0.0,0.0,0.0,0.0,-0.0253968268633
1449615971063838390,0.340825397491,0.0,0.0,0.0,0.0,-0.0253968268633
1449615971103518524,0.340825397491,0.0,0.0,0.0,0.0,-0.0253968268633
1449615971144625435,0.340825397491,0.0,0.0,0.0,0.0,-0.0253968268633
1449615971183541595,0.340825397491,0.0,0.0,0.0,0.0,-0.0253968268633
1449615971223460374,0.340825397491,0.0,0.0,0.0,0.0,-0.0253968268633
1449615971264272279,0.340825397491,0.0,0.0,0.0,0.0,-0.0253968268633
1449615971303914109,0.318476192474,0.0,0.0,0.0,0.0,-0.0253968268633
1449615971343861879,0.318476192474,0.0,0.0,0.0,0.0,-0.0253968268633
1449615971384535911,0.318476192474,0.0,0.0,0.0,0.0,-0.0253968268633
1449615971423451127,0.340825397491,0.0,0.0,0.0,0.0,-0.0253968268633
1449615971463685942,0.340825397491,0.0,0.0,0.0,0.0,-0.0253968268633
1449615971503634577,0.290539686203,0.0,0.0,0.0,0.0,-0.0190476194024
1449615971544333701,0.290539686203,0.0,0.0,0.0,0.0,-0.0190476194024
1449615971583497930,0.290539686203,0.0,0.0,0.0,0.0,-0.0190476194024
1449615971623459024,0.346412698746,0.0,0.0,0.0,0.0,-0.0190476194024
1449615971664178871,0.346412698746,0.0,0.0,0.0,0.0,-0.0190476194024
1449615971703609871,0.296126987457,0.0,0.0,0.0,0.0,-0.0190476194024
1449615971743978660,0.296126987457,0.0,0.0,0.0,0.0,-0.0190476194024
1449615971783412840,0.296126987457,0.0,0.0,0.0,0.0,-0.0190476194024
1449615971823591250,0.346412698746,0.0,0.0,0.0,0.0,-0.0253968268633
1449615971863654175,0.346412698746,0.0,0.0,0.0,0.0,-0.0253968268633
1449615971903632616,0.296126987457,0.0,0.0,0.0,0.0,-0.0190476194024
1449615971944235448,0.296126987457,0.0,0.0,0.0,0.0,-0.0190476194024
1449615971983517395,0.296126987457,0.0,0.0,0.0,0.0,-0.0190476194024
1449615972023543730,0.346412698746,0.0,0.0,0.0,0.0,-0.0253968268633
1449615972064230495,0.346412698746,0.0,0.0,0.0,0.0,-0.0253968268633
1449615972103437527,0.296126987457,0.0,0.0,0.0,0.0,-0.0190476194024
1449615972144966790,0.296126987457,0.0,0.0,0.0,0.0,-0.0190476194024
1449615972183688934,0.296126987457,0.0,0.0,0.0,0.0,-0.0190476194024
1449615972223843612,0.340825397491,0.0,0.0,0.0,0.0,-0.0253968268633
1449615972263723586,0.340825397491,0.0,0.0,0.0,0.0,-0.0253968268633
1449615972303859317,0.284952384949,0.0,0.0,0.0,0.0,-0.0507936537266
1449615972344460715,0.284952384949,0.0,0.0,0.0,0.0,-0.0507936537266
1449615972383609523,0.284952384949,0.0,0.0,0.0,0.0,-0.0507936537266
1449615972423581593,0.296126987457,0.0,0.0,0.0,0.0,-0.342857146263
1449615972463998756,0.296126987457,0.0,0.0,0.0,0.0,-0.342857146263
1449615972503542412,0.301714288712,0.0,0.0,0.0,0.0,-0.342857146263
1449615972545037563,0.301714288712,0.0,0.0,0.0,0.0,-0.342857146263
1449615972583724372,0.301714288712,0.0,0.0,0.0,0.0,-0.342857146263
1449615972623800623,0.296126987457,0.0,0.0,0.0,0.0,-0.336507940292
1449615972663797754,0.296126987457,0.0,0.0,0.0,0.0,-0.336507940292
1449615972703853186,0.296126987457,0.0,0.0,0.0,0.0,-0.342857146263
1449615972744141955,0.296126987457,0.0,0.0,0.0,0.0,-0.342857146263
1449615972783542294,0.296126987457,0.0,0.0,0.0,0.0,-0.342857146263
1449615972824300823,0.301714288712,0.0,0.0,0.0,0.0,-0.336507940292
1449615972863640259,0.301714288712,0.0,0.0,0.0,0.0,-0.336507940292
1449615972903578440,0.245841276169,0.0,0.0,0.0,0.0,-0.279365086555
1449615972943913534,0.245841276169,0.0,0.0,0.0,0.0,-0.279365086555
1449615972983515056,0.245841276169,0.0,0.0,0.0,0.0,-0.279365086555
1449615973023688333,0.301714288712,0.0,0.0,0.0,0.0,-0.336507940292
1449615973063767771,0.301714288712,0.0,0.0,0.0,0.0,-0.336507940292
1449615973103697894,0.301714288712,0.0,0.0,0.0,0.0,-0.336507940292
1449615973145225579,0.301714288712,0.0,0.0,0.0,0.0,-0.336507940292
1449615973183577702,0.301714288712,0.0,0.0,0.0,0.0,-0.336507940292
1449615973224662578,0.251428577423,0.0,0.0,0.0,0.0,-0.285714292526
1449615973263778559,0.251428577423,0.0,0.0,0.0,0.0,-0.285714292526
1449615973303570711,0.301714288712,0.0,0.0,0.0,0.0,-0.342857146263
1449615973343964155,0.301714288712,0.0,0.0,0.0,0.0,-0.342857146263
1449615973383578044,0.301714288712,0.0,0.0,0.0,0.0,-0.342857146263
1449615973423567766,0.329650794983,0.0,0.0,0.0,0.0,-0.126984131336
1449615973463590258,0.329650794983,0.0,0.0,0.0,0.0,-0.126984131336
