%time,field.header.seq,field.header.stamp,field.header.frame_id,field.polygon.points0.x,field.polygon.points0.y,field.polygon.points0.z,field.polygon.points1.x,field.polygon.points1.y,field.polygon.points1.z,field.polygon.points2.x,field.polygon.points2.y,field.polygon.points2.z,field.polygon.points3.x,field.polygon.points3.y,field.polygon.points3.z,field.polygon.points4.x,field.polygon.points4.y,field.polygon.points4.z
1449615933860106589,1,1449615933859765562,odom,0.569999992847,0.0,0.0,0.469999998808,-0.305000007153,0.0,-0.730000019073,-0.305000007153,0.0,-0.730000019073,0.305000007153,0.0,0.469999998808,0.305000007153,0.0
1449615934060305313,2,1449615934059971693,odom,0.569999992847,0.0,0.0,0.469999998808,-0.305000007153,0.0,-0.730000019073,-0.305000007153,0.0,-0.730000019073,0.305000007153,0.0,0.469999998808,0.305000007153,0.0
1449615934259977778,3,1449615934259606430,odom,0.569999992847,0.0,0.0,0.469999998808,-0.305000007153,0.0,-0.730000019073,-0.305000007153,0.0,-0.730000019073,0.305000007153,0.0,0.469999998808,0.305000007153,0.0
1449615934459908526,4,1449615934459557900,odom,0.569999992847,0.0,0.0,0.469999998808,-0.305000007153,0.0,-0.730000019073,-0.305000007153,0.0,-0.730000019073,0.305000007153,0.0,0.469999998808,0.305000007153,0.0
1449615934659823239,5,1449615934659528905,odom,0.569999992847,0.0,0.0,0.469999998808,-0.305000007153,0.0,-0.730000019073,-0.305000007153,0.0,-0.730000019073,0.305000007153,0.0,0.469999998808,0.305000007153,0.0
1449615934859983875,6,1449615934859809039,odom,0.569999992847,0.0,0.0,0.469999998808,-0.305000007153,0.0,-0.730000019073,-0.305000007153,0.0,-0.730000019073,0.305000007153,0.0,0.469999998808,0.305000007153,0.0
1449615935059562867,7,1449615935059415318,odom,0.569999992847,0.0,0.0,0.469999998808,-0.305000007153,0.0,-0.730000019073,-0.305000007153,0.0,-0.730000019073,0.305000007153,0.0,0.469999998808,0.305000007153,0.0
1449615935259579777,8,1449615935259382836,odom,0.569999992847,0.0,0.0,0.469999998808,-0.305000007153,0.0,-0.730000019073,-0.305000007153,0.0,-0.730000019073,0.305000007153,0.0,0.469999998808,0.305000007153,0.0
1449615935459622146,9,1449615935459433751,odom,0.569999992847,0.0,0.0,0.469999998808,-0.305000007153,0.0,-0.730000019073,-0.305000007153,0.0,-0.730000019073,0.305000007153,0.0,0.469999998808,0.305000007153,0.0
1449615935659742616,10,1449615935659478455,odom,0.569999992847,0.0,0.0,0.469999998808,-0.305000007153,0.0,-0.730000019073,-0.305000007153,0.0,-0.730000019073,0.305000007153,0.0,0.469999998808,0.305000007153,0.0
1449615936006206276,11,1449615936002723910,odom,0.569999992847,0.0,0.0,0.469999998808,-0.305000007153,0.0,-0.730000019073,-0.305000007153,0.0,-0.730000019073,0.305000007153,0.0,0.469999998808,0.305000007153,0.0
1449615936175385347,12,1449615936175047797,odom,0.569999992847,0.0,0.0,0.469999998808,-0.305000007153,0.0,-0.730000019073,-0.305000007153,0.0,-0.730000019073,0.305000007153,0.0,0.469999998808,0.305000007153,0.0
1449615936389418584,13,1449615936389166554,odom,0.569999992847,0.0,0.0,0.469999998808,-0.305000007153,0.0,-0.730000019073,-0.305000007153,0.0,-0.730000019073,0.305000007153,0.0,0.469999998808,0.305000007153,0.0
1449615936539933810,14,1449615936539674867,odom,0.569999992847,0.0,0.0,0.469999998808,-0.305000007153,0.0,-0.730000019073,-0.305000007153,0.0,-0.730000019073,0.305000007153,0.0,0.469999998808,0.305000007153,0.0
1449615936744340580,15,1449615936743289970,odom,0.569999992847,0.0,0.0,0.469999998808,-0.305000007153,0.0,-0.730000019073,-0.305000007153,0.0,-0.730000019073,0.305000007153,0.0,0.469999998808,0.305000007153,0.0
1449615936956597123,16,1449615936956463575,odom,0.569999992847,0.0,0.0,0.469999998808,-0.305000007153,0.0,-0.730000019073,-0.305000007153,0.0,-0.730000019073,0.305000007153,0.0,0.469999998808,0.305000007153,0.0
1449615937159059956,17,1449615937158810549,odom,0.569999992847,0.0,0.0,0.469999998808,-0.305000007153,0.0,-0.730000019073,-0.305000007153,0.0,-0.730000019073,0.305000007153,0.0,0.469999998808,0.305000007153,0.0
1449615937339362160,18,1449615937339168013,odom,0.569999992847,0.0,0.0,0.469999998808,-0.305000007153,0.0,-0.730000019073,-0.305000007153,0.0,-0.730000019073,0.305000007153,0.0,0.469999998808,0.305000007153,0.0
1449615937543149960,19,1449615937542924126,odom,0.569999992847,0.0,0.0,0.469999998808,-0.305000007153,0.0,-0.730000019073,-0.305000007153,0.0,-0.730000019073,0.305000007153,0.0,0.469999998808,0.305000007153,0.0
1449615937748326648,20,1449615937747723590,odom,0.569999992847,0.0,0.0,0.469999998808,-0.305000007153,0.0,-0.730000019073,-0.305000007153,0.0,-0.730000019073,0.305000007153,0.0,0.469999998808,0.305000007153,0.0
1449615937957907502,21,1449615937957792027,odom,0.569999992847,0.0,0.0,0.469999998808,-0.305000007153,0.0,-0.730000019073,-0.305000007153,0.0,-0.730000019073,0.305000007153,0.0,0.469999998808,0.305000007153,0.0
1449615938152816087,22,1449615938152589734,odom,0.569999992847,0.0,0.0,0.469999998808,-0.305000007153,0.0,-0.730000019073,-0.305000007153,0.0,-0.730000019073,0.305000007153,0.0,0.469999998808,0.305000007153,0.0
1449615938365302027,23,1449615938365073502,odom,0.569999992847,0.0,0.0,0.469999998808,-0.305000007153,0.0,-0.730000019073,-0.305000007153,0.0,-0.730000019073,0.305000007153,0.0,0.469999998808,0.305000007153,0.0
1449615938549024097,24,1449615938548501008,odom,0.569999992847,0.0,0.0,0.469999998808,-0.305000007153,0.0,-0.730000019073,-0.305000007153,0.0,-0.730000019073,0.305000007153,0.0,0.469999998808,0.305000007153,0.0
1449615938746883000,25,1449615938746713900,odom,0.569999992847,0.0,0.0,0.469999998808,-0.305000007153,0.0,-0.730000019073,-0.305000007153,0.0,-0.730000019073,0.305000007153,0.0,0.469999998808,0.305000007153,0.0
1449615938946575595,26,1449615938945987588,odom,0.569999992847,0.0,0.0,0.469999998808,-0.305000007153,0.0,-0.730000019073,-0.305000007153,0.0,-0.730000019073,0.305000007153,0.0,0.469999998808,0.305000007153,0.0
1449615939166636676,27,1449615939166482592,odom,0.569999992847,0.0,0.0,0.469999998808,-0.305000007153,0.0,-0.730000019073,-0.305000007153,0.0,-0.730000019073,0.305000007153,0.0,0.469999998808,0.305000007153,0.0
1449615939362739444,28,1449615939362618892,odom,0.569999992847,0.0,0.0,0.469999998808,-0.305000007153,0.0,-0.730000019073,-0.305000007153,0.0,-0.730000019073,0.305000007153,0.0,0.469999998808,0.305000007153,0.0
1449615939548832089,29,1449615939548545971,odom,0.569999992847,0.0,0.0,0.469999998808,-0.305000007153,0.0,-0.730000019073,-0.305000007153,0.0,-0.730000019073,0.305000007153,0.0,0.469999998808,0.305000007153,0.0
1449615939757880619,30,1449615939757308230,odom,0.569999992847,0.0,0.0,0.469999998808,-0.305000007153,0.0,-0.730000019073,-0.305000007153,0.0,-0.730000019073,0.305000007153,0.0,0.469999998808,0.305000007153,0.0
1449615939940776466,31,1449615939940630893,odom,0.569999992847,0.0,0.0,0.469999998808,-0.305000007153,0.0,-0.730000019073,-0.305000007153,0.0,-0.730000019073,0.305000007153,0.0,0.469999998808,0.305000007153,0.0
1449615940146476048,32,1449615940145700168,odom,0.572847783566,-0.00605410896242,0.0,0.469630181789,-0.309980303049,0.0,-0.730302810669,-0.297298878431,0.0,-0.723856449127,0.312667071819,0.0,0.476076573133,0.299985647202,0.0
1449615940338449103,33,1449615940336103702,odom,0.572847783566,-0.00605410896242,0.0,0.469630181789,-0.309980303049,0.0,-0.730302810669,-0.297298878431,0.0,-0.723856449127,0.312667071819,0.0,0.476076573133,0.299985647202,0.0
1449615940577852106,34,1449615940577443882,odom,0.581518828869,-6.08664595347e-05,0.0,0.481518864632,-0.305060863495,0.0,-0.718481183052,-0.305060863495,0.0,-0.718481183052,0.30493915081,0.0,0.481518864632,0.30493915081,0.0
1449615940781686795,35,1449615940781380676,odom,0.593037843704,-9.12996838451e-05,0.0,0.493037849665,-0.305091321468,0.0,-0.706962168217,-0.305091321468,0.0,-0.706962168217,0.304908692837,0.0,0.493037849665,0.304908692837,0.0
1449615940953682191,36,1449615940953310084,odom,0.616076231003,-9.12996838451e-05,0.0,0.516076207161,-0.305091321468,0.0,-0.683923780918,-0.305091321468,0.0,-0.683923780918,0.304908692837,0.0,0.516076207161,0.304908692837,0.0
1449615941136163238,37,1449615941135654740,odom,0.641961038113,0.00620627496392,0.0,0.545189857483,-0.299833476543,0.0,-0.654743134975,-0.312514901161,0.0,-0.661189556122,0.297451049089,0.0,0.538743436337,0.310132473707,0.0
1449615941336842175,38,1449615941336522494,odom,0.679294526577,0.0130204977468,0.0,0.585762917995,-0.294024825096,0.0,-0.613969087601,-0.319386273623,0.0,-0.626861155033,0.290477484465,0.0,0.572870850563,0.315838932991,0.0
1449615941553226635,39,1449615941552972610,odom,0.721783638,0.0329041853547,0.0,0.638031959534,-0.276951700449,0.0,-0.560293197632,-0.340330481529,0.0,-0.592510700226,0.26881814003,0.0,0.60581445694,0.33219692111,0.0
1449615941761812716,40,1449615941759739944,odom,0.767008662224,0.0477558076382,0.0,0.689824402332,-0.263800919056,0.0,-0.506893634796,-0.3524915874,0.0,-0.551978051662,0.255840092897,0.0,0.644739985466,0.344530761242,0.0
1449615941953075935,41,1449615941952659696,odom,0.814122974873,0.0703723505139,0.0,0.746853470802,-0.243474453688,0.0,-0.446451753378,-0.370055109262,0.0,-0.510796904564,0.236541718245,0.0,0.682508289814,0.363122373819,0.0
1449615942183536701,42,1449615942183334777,odom,0.856750845909,0.100310586393,0.0,0.802804470062,-0.216098621488,0.0,-0.384085506201,-0.392994821072,0.0,-0.474007725716,0.21034091711,0.0,0.712882220745,0.387237101793,0.0
1449615942348860718,43,1449615942348681412,odom,0.903772711754,0.132872670889,0.0,0.863245904446,-0.185533642769,0.0,-0.315108239651,-0.412429302931,0.0,-0.430446863174,0.186567366123,0.0,0.747907221317,0.413463026285,0.0
1449615942539161289,44,1449615942538681172,odom,0.950701415539,0.174178108573,0.0,0.927047967911,-0.145924255252,0.0,-0.237677827477,-0.434738785028,0.0,-0.384491890669,0.157330185175,0.0,0.780233919621,0.44614470005,0.0
1449615942767194628,45,1449615942766873323,odom,0.998950242996,0.205698356032,0.0,0.985455513,-0.114992931485,0.0,-0.169529870152,-0.44058278203,0.0,-0.335038036108,0.146534815431,0.0,0.819947361946,0.472124665976,0.0
1449615942957640368,46,1449615942951528309,odom,1.04056382179,0.237403154373,0.0,1.03724145889,-0.0835547223687,0.0,-0.106842674315,-0.44559264183,0.0,-0.290878623724,0.135983482003,0.0,0.853205561638,0.498021394014,0.0
1449615943145551888,47,1449615943144945853,odom,1.08122992516,0.270180612803,0.0,1.08808326721,-0.0507212840021,0.0,-0.0439498275518,-0.44884338975,0.0,-0.246328577399,0.126606747508,0.0,0.88570445776,0.524728834629,0.0
1449615943354180467,48,1449615943353980580,odom,1.13012933731,0.287377953529,0.0,1.13698267937,-0.0335239619017,0.0,0.00494957761839,-0.431646078825,0.0,-0.197429165244,0.143804058433,0.0,0.934603869915,0.541926205158,0.0
1449615943554243718,49,1449615943552194159,odom,1.17831122875,0.297840803862,0.0,1.18177294731,-0.023115599528,0.0,0.0455957762897,-0.40925231576,0.0,-0.15069039166,0.168304383755,0.0,0.985486745834,0.554441094398,0.0
1449615943749315067,50,1449615943749116047,odom,1.23676204681,0.304435878992,0.0,1.23343968391,-0.0165220033377,0.0,0.0893554911017,-0.378559917212,0.0,-0.0946804508567,0.203016206622,0.0,1.04940366745,0.565054118633,0.0
1449615943953529443,51,1449615943952558906,odom,1.29442489147,0.30258244276,0.0,1.28093016148,-0.018108824268,0.0,0.125944763422,-0.343698680401,0.0,-0.0395634099841,0.24341891706,0.0,1.11542201042,0.569008767605,0.0
1449615944148659827,52,1449615944148332041,odom,1.35633087158,0.29326826334,0.0,1.32929599285,-0.0265662614256,0.0,0.161583021283,-0.303056001663,0.0,0.0210340600461,0.290531396866,0.0,1.18874692917,0.567021131516,0.0
1449615944368808884,53,1449615944368547527,odom,1.41049182415,0.273404181004,0.0,1.3666023016,-0.0445560663939,0.0,0.185916230083,-0.258986383677,0.0,0.0769141465425,0.341195702553,0.0,1.25760030746,0.555626034737,0.0
1449615944552474936,54,1449615944551429495,odom,1.46551728249,0.257524013519,0.0,1.4082300663,-0.0582974366844,0.0,0.219537004828,-0.222640872002,0.0,0.13599576056,0.381611466408,0.0,1.32468891144,0.545954883099,0.0
1449615944753255386,55,1449615944752966478,odom,1.52092528343,0.226511240005,0.0,1.44374096394,-0.085045479238,0.0,0.247023001313,-0.173736140132,0.0,0.201938584447,0.434595525265,0.0,1.39865660667,0.523286163807,0.0
1449615944956632001,56,1449615944951974745,odom,1.5742418766,0.19238422811,0.0,1.47747075558,-0.113655529916,0.0,0.277537703514,-0.126336947083,0.0,0.27109131217,0.483628988266,0.0,1.47102427483,0.496310412884,0.0
1449615945144484783,57,1449615945141389114,odom,1.62528789043,0.154825627804,0.0,1.50931870937,-0.144467115402,0.0,0.31099358201,-0.0810883268714,0.0,0.343211144209,0.528060317039,0.0,1.54153633118,0.464681506157,0.0
1449615945384411100,58,1449615945383788243,odom,1.67022883892,0.108190536499,0.0,1.53245639801,-0.1817124933,0.0,0.342092961073,-0.0299401599914,0.0,0.419243901968,0.575161278248,0.0,1.60960733891,0.423388957977,0.0
1449615945532109584,59,1449615945531925128,odom,1.7082862854,0.0716400071979,0.0,1.55539476871,-0.210581853986,0.0,0.374708682299,0.0038484679535,0.0,0.483710765839,0.604030549526,0.0,1.66439688206,0.389600247145,0.0
1449615945750529730,60,1449615945748091823,odom,1.74011945724,0.027850581333,0.0,1.56965196133,-0.244116023183,0.0,0.404926121235,0.044698510319,0.0,0.551740169525,0.636767446995,0.0,1.71646595001,0.347952932119,0.0
1449615945989463126,61,1449615945988344753,odom,1.77367353439,-0.0128970127553,0.0,1.58907985687,-0.275480687618,0.0,0.441233575344,0.0744465142488,0.0,0.619113206863,0.657935023308,0.0,1.76695942879,0.308007836342,0.0
1449615946137364999,62,1449615946137192305,odom,1.80098986626,-0.0740560144186,0.0,1.59488201141,-0.320114016533,0.0,0.480684667826,0.125491708517,0.0,0.707200944424,0.691875338554,0.0,1.82139825821,0.246269598603,0.0
1449615946335291303,63,1449615946334993369,odom,1.8285087347,-0.132727146149,0.0,1.60477864742,-0.362878978252,0.0,0.526562929153,0.163857102394,0.0,0.794320464134,0.71195012331,0.0,1.8725361824,0.185214027762,0.0
1449615946537874650,64,1449615946537659645,odom,1.84644043446,-0.190743267536,0.0,1.60631203651,-0.403729975224,0.0,0.569975674152,0.201255187392,0.0,0.877509772778,0.728059470654,0.0,1.91384613514,0.123074315488,0.0
1449615946748780537,65,1449615946748141704,odom,1.85737812519,-0.233220681548,0.0,1.60633575916,-0.433227598667,0.0,0.603398561478,0.225647971034,0.0,0.938327014446,0.735474407673,0.0,1.94126415253,0.0765988156199,0.0
1449615946934815245,66,1449615946934645000,odom,1.86265683174,-0.266201227903,0.0,1.60338664055,-0.455420523882,0.0,0.629189193249,0.245250195265,0.0,0.985363483429,0.740467190742,0.0,1.95956087112,0.039796512574,0.0
1449615947138336634,67,1449615947138133824,odom,1.87538969517,-0.282966315746,0.0,1.61413431168,-0.469435125589,0.0,0.647395849228,0.241491630673,0.0,1.00878357887,0.732917010784,0.0,1.97552204132,0.0219902489334,0.0
1449615947352701560,68,1449615947352492129,odom,1.8879083395,-0.299913913012,0.0,1.62469696999,-0.483611375093,0.0,0.665525436401,0.237492024899,0.0,1.03208637238,0.72507083416,0.0,1.99125778675,0.00396746024489,0.0
1449615947536538480,69,1449615947536358286,odom,1.90641391277,-0.313635975122,0.0,1.64320242405,-0.497333467007,0.0,0.684031009674,0.223769947886,0.0,1.05059194565,0.711348772049,0.0,2.00976347923,-0.00975462049246,0.0
1449615947739480445,70,1449615947739330011,odom,1.93081557751,-0.324254691601,0.0,1.66956019402,-0.510723471642,0.0,0.702821731567,0.20020326972,0.0,1.06420946121,0.69162863493,0.0,2.03094792366,-0.0192981027067,0.0
1449615947932911919,71,1449615947932483241,odom,1.96131670475,-0.331164777279,0.0,1.7040605545,-0.523113429546,0.0,0.722512960434,0.167222976685,0.0,1.07343399525,0.666176319122,0.0,2.05498147011,-0.0241600647569,0.0
1449615948156965926,72,1449615948156647618,odom,1.99192273617,-0.337479025126,0.0,1.73878085613,-0.534821808338,0.0,0.742862582207,0.13461586833,0.0,1.08316004276,0.640874326229,0.0,2.0790784359,-0.0285633355379,0.0
1449615948335872655,73,1449615948334870888,odom,2.03326869011,-0.342546880245,0.0,1.78650963306,-0.547814786434,0.0,0.769871413708,0.0897170379758,0.0,1.09395003319,0.606508135796,0.0,2.11058831215,-0.0310236737132,0.0
1449615948551652619,74,1449615948551054275,odom,2.06489992142,-0.340337216854,0.0,1.82477164268,-0.553323924541,0.0,0.788435280323,0.0516612455249,0.0,1.09596943855,0.578465521336,0.0,2.1323056221,-0.0265196245164,0.0
1449615948739126622,75,1449615948738930739,odom,2.09684324265,-0.330282360315,0.0,1.86593008041,-0.553226530552,0.0,0.804953098297,0.00742300599813,0.0,1.08994996548,0.546752989292,0.0,2.15092682838,-0.0138965882361,0.0
1449615948948420282,76,1449615948944138686,odom,2.1282916069,-0.318967998028,0.0,1.90700626373,-0.551471292973,0.0,0.823284268379,-0.036159068346,0.0,1.08523464203,0.514732956886,0.0,2.16895675659,-0.000579293060582,0.0
1449615949128776541,77,1449615949128246679,odom,2.15920972824,-0.306390613317,0.0,1.94794750214,-0.548037648201,0.0,0.843416810036,-0.0789834409952,0.0,1.08185267448,0.482486367226,0.0,2.18638348579,0.0134321367368,0.0
1449615949323685622,78,1449615949323505748,odom,2.19493699074,-0.294599294662,0.0,1.99407541752,-0.544958353043,0.0,0.870709300041,-0.12300016731,0.0,1.0852047205,0.448044270277,0.0,2.20857071877,0.0260860919952,0.0
1449615949568793008,79,1449615949568438249,odom,2.22930550575,-0.2745051682,0.0,2.04194736481,-0.535123407841,0.0,0.897863090038,-0.17308549583,0.0,1.0818990469,0.408490628004,0.0,2.22598314285,0.0464527085423,0.0
1449615949723228746,80,1449615949721916659,odom,2.26368308067,-0.259607791901,0.0,2.08750557899,-0.527910888195,0.0,0.929143965244,-0.214544951916,0.0,1.08843839169,0.374288916588,0.0,2.24679994583,0.0609229765832,0.0
1449615949947283331,81,1449615949946146100,odom,2.29879498482,-0.250010341406,0.0,2.1312110424,-0.523763239384,0.0,0.963498234749,-0.247273489833,0.0,1.10404717922,0.346313923597,0.0,2.27175998688,0.0698241665959,0.0
1449615950165308226,82,1449615950163563148,odom,2.3407535553,-0.247221469879,0.0,2.17899274826,-0.524455010891,0.0,1.00569725037,-0.272706091404,0.0,1.13366961479,0.32371917367,0.0,2.30696511269,0.0719702318311,0.0
1449615950348986053,83,1449615950348662934,odom,2.38834810257,-0.24439689517,0.0,2.23248267174,-0.524987280369,0.0,1.05412852764,-0.298091590405,0.0,1.16946709156,0.30090507865,0.0,2.34782123566,0.074009411037,0.0
1449615950541725527,84,1449615950539346453,odom,2.44543719292,-0.235687792301,0.0,2.29854440689,-0.521077930927,0.0,1.11359012127,-0.33164870739,0.0,1.20988333225,0.270703047514,0.0,2.39483761787,0.0812738537788,0.0
1449615950740104337,85,1449615950739439721,odom,2.48711013794,-0.229564547539,0.0,2.34628176689,-0.517995417118,0.0,1.15758860111,-0.353651970625,0.0,1.24112987518,0.250600337982,0.0,2.42982292175,0.0862569063902,0.0
1449615950929835435,86,1449615950926834818,odom,2.52293968201,-0.221773207188,0.0,2.38823866844,-0.513116002083,0.0,1.19633769989,-0.373931735754,0.0,1.26708972454,0.231951236725,0.0,2.45899057388,0.092766970396,0.0
1449615951133449043,87,1449615951133210875,odom,2.55626678467,-0.20698364079,0.0,2.43086862564,-0.50244987011,0.0,1.23515474796,-0.401117444038,0.0,1.2866653204,0.206703796983,0.0,2.48237919807,0.10537134856,0.0
1449615951323890723,88,1449615951323332729,odom,2.59162163734,-0.197492942214,0.0,2.47249603271,-0.495543420315,0.0,1.27490758896,-0.419504463673,0.0,1.31356072426,0.189269676805,0.0,2.51114916801,0.113230705261,0.0
1449615951525087590,89,1449615951524956571,odom,2.62411403656,-0.18108536303,0.0,2.51449608803,-0.482762217522,0.0,1.31509912014,-0.44472360611,0.0,1.33443546295,0.164969861507,0.0,2.53383255005,0.126931250095,0.0
1449615951709687446,90,1449615951709416501,odom,2.65316009521,-0.169618889689,0.0,2.54994249344,-0.473545074463,0.0,1.35000932217,-0.460863649845,0.0,1.35645580292,0.149102285504,0.0,2.55638885498,0.136420875788,0.0
1449615951896733269,91,1449615951896391114,odom,2.67897963524,-0.15130507946,0.0,2.58544802666,-0.458350419998,0.0,1.38571608067,-0.483711838722,0.0,1.37282407284,0.126151919365,0.0,2.57255601883,0.15151335299,0.0
1449615952109058144,92,1449615952108920923,odom,2.6984539032,-0.132455781102,0.0,2.61470222473,-0.442311674356,0.0,1.41637718678,-0.505690455437,0.0,1.38415968418,0.103458173573,0.0,2.58248472214,0.166836962104,0.0
1449615952299565983,93,1449615952299472136,odom,2.71964812279,-0.106756135821,0.0,2.64906573296,-0.41987451911,0.0,1.45448935032,-0.53383743763,0.0,1.39655828476,0.0734055116773,0.0,2.59113454819,0.187368422747,0.0
1449615952497392663,94,1449615952497277169,odom,2.73401451111,-0.0808214321733,0.0,2.67672729492,-0.396642893553,0.0,1.48803424835,-0.560986340046,0.0,1.40449297428,0.0432660095394,0.0,2.59318614006,0.207609444857,0.0
1449615952704129524,95,1449615952703974886,odom,2.74157524109,-0.0551518239081,0.0,2.69768595695,-0.373112082481,0.0,1.51699972153,-0.587542414665,0.0,1.40799772739,0.012639711611,0.0,2.58868384361,0.22707003355,0.0
1449615952897129840,96,1449615952897056445,odom,2.74653029442,-0.0357024557889,0.0,2.71274185181,-0.354894161224,0.0,1.53944635391,-0.606643080711,0.0,1.41147398949,-0.0102178435773,0.0,2.58476948738,0.241531103849,0.0
1449615953098737412,97,1449615953098608367,odom,2.75086641312,-0.0161057896912,0.0,2.72721290588,-0.33620813489,0.0,1.56248700619,-0.625022649765,0.0,1.4156730175,-0.0329537168145,0.0,2.58039879799,0.255860805511,0.0
1449615953297416746,98,1449615953297333245,odom,2.75457882881,0.00361847132444,0.0,2.74108409882,-0.317072808743,0.0,1.58609879017,-0.642662644386,0.0,1.42059063911,-0.0555450618267,0.0,2.57557606697,0.270044773817,0.0
1449615953495614031,99,1449615953495502659,odom,2.75937151909,0.0367218963802,0.0,2.76283311844,-0.284234523773,0.0,1.62665605545,-0.670371234417,0.0,1.43036985397,-0.092814527452,0.0,2.56654691696,0.293322205544,0.0
1449615953692054916,100,1449615953691941727,odom,2.76279425621,0.0767394006252,0.0,2.78658652306,-0.243352666497,0.0,1.67716062069,-0.700708150864,0.0,1.44467151165,-0.136749967933,0.0,2.55409741402,0.320605546236,0.0
1449615953895491097,101,1449615953895330138,odom,2.76883721352,0.119449466467,0.0,2.81286478043,-0.198491707444,0.0,1.73464894295,-0.72522777319,0.0,1.46689152718,-0.177134782076,0.0,2.54510712624,0.349601298571,0.0
1449615954098315228,102,1449615954098251569,odom,2.76663446426,0.16627535224,0.0,2.83404016495,-0.147542223334,0.0,1.79770386219,-0.752527415752,0.0,1.49016976357,-0.225723102689,0.0,2.52650594711,0.379262089729,0.0
1449615954300896215,103,1449615954300777084,odom,2.77449846268,0.192210778594,0.0,2.85181808472,-0.119312413037,0.0,1.83517980576,-0.756844222546,0.0,1.51110112667,-0.240053117275,0.0,2.52773928642,0.397478669882,0.0
1449615954499848608,104,1449615954499735355,odom,2.77854180336,0.201964110136,0.0,2.85914897919,-0.108724586666,0.0,1.84930491447,-0.756964445114,0.0,1.51978290081,-0.243627056479,0.0,2.52962708473,0.404612839222,0.0
1449615954706928111,105,1449615954706831912,odom,2.78337192535,0.20510096848,0.0,2.8639793396,-0.105587728322,0.0,1.85413527489,-0.753827631474,0.0,1.52461326122,-0.240490198135,0.0,2.53445744514,0.407749682665,0.0
1449615954900572545,106,1449615954900459115,odom,2.78337192535,0.20510096848,0.0,2.8639793396,-0.105587728322,0.0,1.85413527489,-0.753827631474,0.0,1.52461326122,-0.240490198135,0.0,2.53445744514,0.407749682665,0.0
1449615955109868256,107,1449615955109699485,odom,2.78487706184,0.191860407591,0.0,2.85890007019,-0.120462492108,0.0,1.83558118343,-0.747215032578,0.0,1.51698195934,-0.227027967572,0.0,2.5403008461,0.399724543095,0.0
1449615955294587585,108,1449615955294436387,odom,2.79200434685,0.168228581548,0.0,2.85276269913,-0.146943494678,0.0,1.80387163162,-0.729891061783,0.0,1.50753998756,-0.1967048347,0.0,2.55643081665,0.386242747307,0.0
1449615955496013540,109,1449615955495867155,odom,2.80321860313,0.147007450461,0.0,2.85060358047,-0.170450687408,0.0,1.77801465988,-0.708551764488,0.0,1.5044798851,-0.163319006562,0.0,2.57706904411,0.374782085419,0.0
1449615955700007689,110,1449615955699920018,odom,2.81363940239,0.132020711899,0.0,2.8509376049,-0.186779946089,0.0,1.7618303299,-0.690610766411,0.0,1.50571632385,-0.136981278658,0.0,2.59482359886,0.366849571466,0.0
1449615955890530563,111,1449615955890401689,odom,2.82384681702,0.123368836939,0.0,2.85439872742,-0.196148887277,0.0,1.7548866272,-0.676849424839,0.0,1.5105304718,-0.117930740118,0.0,2.61004257202,0.362769812346,0.0
1449615956093207321,112,1449615956093109144,odom,2.83348441124,0.107796251774,0.0,2.85389256477,-0.212529361248,0.0,1.7396954298,-0.6581351161,0.0,1.51317918301,-0.0917514711618,0.0,2.62737631798,0.353854238987,0.0
1449615956295806482,113,1449615956295691075,odom,2.83348441124,0.107796251774,0.0,2.85389256477,-0.212529361248,0.0,1.7396954298,-0.6581351161,0.0,1.51317918301,-0.0917514711618,0.0,2.62737631798,0.353854238987,0.0
1449615956492479901,114,1449615956492291007,odom,2.83348441124,0.107796251774,0.0,2.85389256477,-0.212529361248,0.0,1.7396954298,-0.6581351161,0.0,1.51317918301,-0.0917514711618,0.0,2.62737631798,0.353854238987,0.0
1449615956690698425,115,1449615956690437219,odom,2.8338804245,0.114474974573,0.0,2.85767269135,-0.205617085099,0.0,1.74824678898,-0.66297262907,0.0,1.51575767994,-0.0990143939853,0.0,2.62518358231,0.358341127634,0.0
1449615956899133582,116,1449615956898994032,odom,2.83919358253,0.11669819802,0.0,2.86298584938,-0.203393861651,0.0,1.7535598278,-0.66074937582,0.0,1.52107083797,-0.0967911705375,0.0,2.63049674034,0.360564351082,0.0
1449615957097633536,117,1449615957097471164,odom,2.8547949791,0.116548523307,0.0,2.87520337105,-0.203777089715,0.0,1.76100599766,-0.649382829666,0.0,1.53448975086,-0.0829991996288,0.0,2.64868712425,0.362606525421,0.0
1449615957300499383,118,1449615957300304794,odom,2.87578558922,0.118259243667,0.0,2.89280772209,-0.202264159918,0.0,1.77396357059,-0.636070311069,0.0,1.55344545841,-0.0673245489597,0.0,2.67228960991,0.366481631994,0.0
1449615957501535509,119,1449615957501399021,odom,2.91655564308,0.107252635062,0.0,2.92001748085,-0.213703781366,0.0,1.78384029865,-0.599840521812,0.0,1.58755409718,-0.0222837906331,0.0,2.72373127937,0.36385294795,0.0
1449615957696252769,120,1449615957696139658,odom,2.95315480232,0.106549873948,0.0,2.94983243942,-0.214408010244,0.0,1.80574834347,-0.576445937157,0.0,1.62171244621,0.00513020018116,0.0,2.76579666138,0.36716812849,0.0
1449615957889127598,121,1449615957888897968,odom,2.99746704102,0.0879108458757,0.0,2.97719788551,-0.232423603535,0.0,1.81558918953,-0.533530652523,0.0,1.66252636909,0.0569537319243,0.0,2.82413506508,0.358060777187,0.0
1449615958085938626,122,1449615958085701830,odom,3.04369878769,0.0805376917124,0.0,3.01328539848,-0.238993257284,0.0,1.8427157402,-0.503127336502,0.0,1.70844757557,0.0919122025371,0.0,2.87901711464,0.356046289206,0.0
1449615958284146697,123,1449615958283979020,odom,3.08804988861,0.0647600218654,0.0,3.04416060448,-0.253200232983,0.0,1.86347448826,-0.467630535364,0.0,1.75447237492,0.132551565766,0.0,2.93515849113,0.346981883049,0.0
1449615958484597731,124,1449615958484370400,odom,3.13738131523,0.0480312332511,0.0,3.08009409904,-0.267790228128,0.0,1.89140105247,-0.432133644819,0.0,1.80785989761,0.172118678689,0.0,2.99655294418,0.336462110281,0.0
1449615958685693279,125,1449615958685596823,odom,3.1938791275,0.0367420054972,0.0,3.12660956383,-0.277104794979,0.0,1.93330430984,-0.403685450554,0.0,1.86895918846,0.202911376953,0.0,3.06226444244,0.329492032528,0.0
1449615958890171416,126,1449615958889955071,odom,3.24090981483,0.02891269885,0.0,3.16702222824,-0.283442288637,0.0,1.97130835056,-0.384774744511,0.0,1.91979777813,0.223046496511,0.0,3.11551165581,0.324378937483,0.0
1449615959087260421,127,1449615959086969398,odom,3.29019236565,0.0267385356128,0.0,3.21300816536,-0.284818172455,0.0,2.01629018784,-0.373508840799,0.0,1.97120571136,0.234822809696,0.0,3.16792368889,0.323513478041,0.0
1449615959296141373,128,1449615959295990026,odom,3.34187984467,0.0306607112288,0.0,3.26469540596,-0.280896008015,0.0,2.06797742844,-0.369586676359,0.0,2.02289295197,0.238744989038,0.0,3.21961092949,0.327435642481,0.0
1449615959490908028,129,1449615959490740759,odom,3.38899803162,0.0532470680773,0.0,3.32172846794,-0.260599732399,0.0,2.12842321396,-0.387180387974,0.0,2.06407809258,0.219416439533,0.0,3.25738334656,0.345997095108,0.0
1449615959693733048,130,1449615959693433324,odom,3.43909144402,0.0711646452546,0.0,3.378469944,-0.244033768773,0.0,2.18810629845,-0.395806103945,0.0,2.11095547676,0.209295347333,0.0,3.3013188839,0.361067682505,0.0
1449615959891509742,131,1449615959891381256,odom,3.48306465149,0.0895290523767,0.0,3.42911839485,-0.226880162954,0.0,2.242228508,-0.403776347637,0.0,2.15230607986,0.199559375644,0.0,3.33919620514,0.376455575228,0.0
1449615960096461892,132,1449615960096337862,odom,3.52436447144,0.121392101049,0.0,3.48383760452,-0.197014212608,0.0,2.30548357964,-0.42390987277,0.0,2.19014501572,0.175086796284,0.0,3.3684990406,0.401982456446,0.0
1449615960288717688,133,1449615960288526205,odom,3.57129263878,0.162697404623,0.0,3.54763913155,-0.157404959202,0.0,2.38291335106,-0.446219474077,0.0,2.23609924316,0.145849466324,0.0,3.40082502365,0.434664011002,0.0
1449615960496296647,134,1449615960496061633,odom,3.61496186256,0.199754178524,0.0,3.60485696793,-0.12106180191,0.0,2.45337677002,-0.458839178085,0.0,2.2816734314,0.126496553421,0.0,3.43315339088,0.464273929596,0.0
1449615960693105474,135,1449615960692479114,odom,3.65216112137,0.243910461664,0.0,3.65901446342,-0.0769914388657,0.0,2.52698159218,-0.47511357069,0.0,2.32460284233,0.100336581469,0.0,3.45663571358,0.498458683491,0.0
1449615960905205131,136,1449615960905097930,odom,3.68186211586,0.294738948345,0.0,3.70903587341,-0.025083815679,0.0,2.6045050621,-0.494138032198,0.0,2.36606907845,0.0673317611217,0.0,3.47059988976,0.536386013031,0.0
1449615961102442617,137,1449615961102320616,odom,3.7138402462,0.342579603195,0.0,3.75786781311,0.0246384236962,0.0,2.67965197563,-0.502097666264,0.0,2.41189455986,0.0459953472018,0.0,3.49011039734,0.572731435299,0.0
1449615961292940883,138,1449615961292761132,odom,3.74369931221,0.385228097439,0.0,3.80112338066,0.0694315358996,0.0,2.74613046646,-0.502398967743,0.0,2.45545005798,0.0338890850544,0.0,3.51044297218,0.605719566345,0.0
1449615961492505707,139,1449615961492310751,odom,3.77235364914,0.422384262085,0.0,3.83975934982,0.108566686511,0.0,2.80342316628,-0.496418476105,0.0,2.49588894844,0.0303858164698,0.0,3.53222537041,0.635370969772,0.0
1449615961690795198,140,1449615961690534589,odom,3.80557322502,0.456607073545,0.0,3.87959623337,0.144284173846,0.0,2.85627746582,-0.482468336821,0.0,2.53767824173,0.0377187021077,0.0,3.56099700928,0.664471209049,0.0
1449615961900446667,141,1449615961900324558,odom,3.84486579895,0.480672627687,0.0,3.91888904572,0.168349742889,0.0,2.89557003975,-0.458402782679,0.0,2.57697105408,0.0617842711508,0.0,3.60028982162,0.688536763191,0.0
1449615962092964451,142,1449615962092824977,odom,3.89481830597,0.503810703754,0.0,3.96553659439,0.190722972155,0.0,2.93565154076,-0.425180256367,0.0,2.62256741524,0.0983446389437,0.0,3.65245246887,0.714247882366,0.0
1449615962292381747,143,1449615962292228438,odom,3.93631386757,0.506793498993,0.0,3.99707221985,0.191621422768,0.0,2.94818115234,-0.391326129436,0.0,2.65184950829,0.141860082746,0.0,3.70074057579,0.724807679653,0.0
1449615962492719241,144,1449615962492563071,odom,3.96735739708,0.509951114655,0.0,4.02144098282,0.19356533885,0.0,2.9604640007,-0.367084205151,0.0,2.67546725273,0.172245740891,0.0,3.73644423485,0.732895314693,0.0
1449615962696660886,145,1449615962696477312,odom,3.99882030487,0.498610019684,0.0,4.03948545456,0.1802213341,0.0,2.95576334,-0.335090905428,0.0,2.69381308556,0.215801119804,0.0,3.7775349617,0.731113374233,0.0
1449615962895389419,146,1449615962895135408,odom,4.01958560944,0.494875103235,0.0,4.05351257324,0.175698101521,0.0,2.95914173126,-0.316595077515,0.0,2.70889258385,0.239710077643,0.0,3.80326342583,0.73200327158,0.0
1449615963095414907,147,1449615963095023649,odom,4.0452671051,0.486215025187,0.0,4.06905937195,0.166122972965,0.0,2.95963358879,-0.291232526302,0.0,2.72714447975,0.27272567153,0.0,3.83657050133,0.7300812006,0.0
1449615963301685616,148,1449615963301529387,odom,4.07109737396,0.483668595552,0.0,4.08811903,0.163145184517,0.0,2.96927499771,-0.270660996437,0.0,2.74875688553,0.298084795475,0.0,3.86760115623,0.731890976429,0.0
1449615963491929157,149,1449615963491802246,odom,4.10228061676,0.482544958591,0.0,4.11252450943,0.161733403802,0.0,2.98476219177,-0.248329639435,0.0,2.7763133049,0.324949651957,0.0,3.90407586098,0.735012710094,0.0
1449615963692968768,150,1449615963692715719,odom,4.13892745972,0.482501238585,0.0,4.14238882065,0.161544829607,0.0,3.00621199608,-0.224591895938,0.0,2.8099257946,0.352964818478,0.0,3.94610285759,0.739101529121,0.0
1449615963893027353,151,1449615963892867644,odom,4.18565320969,0.478333860636,0.0,4.1789393425,0.157428994775,0.0,3.03109312057,-0.192498192191,0.0,2.85321354866,0.390990316868,0.0,4.00105953217,0.740917503834,0.0
1449615964094506623,152,1449615964094382961,odom,4.23430395126,0.486517965794,0.0,4.22419929504,0.165701985359,0.0,3.07271909714,-0.172075390816,0.0,2.9010155201,0.413260340691,0.0,4.05249595642,0.751037716866,0.0
1449615964299741952,153,1449615964299414036,odom,4.29197835922,0.483211249113,0.0,4.2717089653,0.162876814604,0.0,3.11010050774,-0.138230249286,0.0,2.9570376873,0.452254146338,0.0,4.1186466217,0.753361225128,0.0
1449615964504667650,154,1449615964504584567,odom,4.3507566452,0.485468238592,0.0,4.32372188568,0.165633738041,0.0,3.15600895882,-0.11085601151,0.0,3.01546001434,0.48273140192,0.0,4.18317317963,0.75922113657,0.0
1449615964706690664,155,1449615964706621708,odom,4.40550708771,0.491553664207,0.0,4.37509346008,0.17202270031,0.0,3.20452404022,-0.0921113938093,0.0,3.07025575638,0.502928197384,0.0,4.24082517624,0.767062246799,0.0
1449615964895547398,156,1449615964895363959,odom,4.4643535614,0.491827428341,0.0,4.42719364166,0.173010617495,0.0,3.25130319595,-0.0663250535727,0.0,3.12964105606,0.531419277191,0.0,4.30553150177,0.770754933357,0.0
1449615965098413134,157,1449615965098088090,odom,4.5078701973,0.494444340467,0.0,4.46734380722,0.17603802681,0.0,3.28898954391,-0.0508576445282,0.0,3.17365074158,0.548139035702,0.0,4.35200500488,0.775034725666,0.0
1449615965303105445,158,1449615965302899288,odom,4.55309820175,0.503246068954,0.0,4.51257133484,0.184839755297,0.0,3.33421730995,-0.0420559160411,0.0,3.21887874603,0.556940734386,0.0,4.3972325325,0.783836424351,0.0
1449615965500671704,159,1449615965500485176,odom,4.60142183304,0.525717616081,0.0,4.56763315201,0.20652590692,0.0,3.39433765411,-0.0452230349183,0.0,3.26636528969,0.551202237606,0.0,4.439661026,0.802951157093,0.0
1449615965701645320,160,1449615965701434940,odom,4.64500188828,0.554543912411,0.0,4.62134838104,0.234441563487,0.0,3.45662260056,-0.0543729625642,0.0,3.30980849266,0.537696003914,0.0,4.47453451157,0.826510548592,0.0
1449615965895857520,161,1449615965895627983,odom,4.68763065338,0.584796011448,0.0,4.6741361618,0.264104753733,0.0,3.51915073395,-0.0614851042628,0.0,3.35364246368,0.525632500648,0.0,4.50862789154,0.851222336292,0.0
1449615966096798615,162,1449615966096620152,odom,4.73090314865,0.629916548729,0.0,4.73436498642,0.308960139751,0.0,3.59818792343,-0.0771765708923,0.0,3.40190172195,0.500380158424,0.0,4.53807878494,0.886516869068,0.0
1449615966307197709,163,1449615966307098683,odom,4.77084541321,0.663602828979,0.0,4.78447914124,0.342917442322,0.0,3.66111302376,-0.07904073596,0.0,3.4466176033,0.492003709078,0.0,4.56998348236,0.91396188736,0.0
1449615966507611126,164,1449615966507484620,odom,4.8045706749,0.710639119148,0.0,4.8351225853,0.391121387482,0.0,3.73561048508,-0.0895791649818,0.0,3.49125432968,0.469339519739,0.0,4.5907664299,0.950040102005,0.0
1449615966707153476,165,1449615966706977153,odom,4.83559513092,0.766079306602,0.0,4.8863325119,0.449139624834,0.0,3.8194899559,-0.100266374648,0.0,3.54020857811,0.442045271397,0.0,4.60705089569,0.991451263428,0.0
1449615966906390500,166,1449615966906243677,odom,4.85814523697,0.82033765316,0.0,4.92886352539,0.507249891758,0.0,3.89897847176,-0.108653329313,0.0,3.58589434624,0.414871573448,0.0,4.61577939987,1.03077483177,0.0
1449615967091381054,167,1449615967091262729,odom,4.87731170654,0.875763058662,0.0,4.9677271843,0.567785680294,0.0,3.97893881798,-0.112139336765,0.0,3.63331031799,0.390494644642,0.0,4.62209844589,1.07041966915,0.0
1449615967298396561,168,1449615967298254248,odom,4.89892578125,0.929265856743,0.0,5.0054807663,0.626493632793,0.0,4.05398368835,-0.104705870152,0.0,3.68229055405,0.378971993923,0.0,4.63378810883,1.11017143726,0.0
1449615967492653071,169,1449615967492536606,odom,4.90686845779,0.983146250248,0.0,5.03239488602,0.687734484673,0.0,4.12914276123,-0.102288000286,0.0,3.72754788399,0.35686519742,0.0,4.63080024719,1.14688766003,0.0
1449615967695516799,170,1449615967695211468,odom,4.9158000946,1.04112529755,0.0,5.05979299545,0.754261314869,0.0,4.20841646194,-0.0914088264108,0.0,3.77853417397,0.341374278069,0.0,4.62991094589,1.1870443821,0.0
1449615967895970953,171,1449615967895796594,odom,4.91710615158,1.09534621239,0.0,5.07898712158,0.818182885647,0.0,4.2829079628,-0.0797359123826,0.0,3.82646608353,0.324937611818,0.0,4.62254524231,1.2228564024,0.0
1449615968090777789,172,1449615968090668433,odom,4.92161798477,1.14797067642,0.0,5.09791183472,0.879744052887,0.0,4.35036802292,-0.0589669831097,0.0,3.87318992615,0.321034431458,0.0,4.62073373795,1.25974547863,0.0
1449615968292650258,173,1449615968292536662,odom,4.91639041901,1.21264576912,0.0,5.1120262146,0.958182394505,0.0,4.43590593338,-0.0332113541663,0.0,3.93194770813,0.310483068228,0.0,4.60806798935,1.30187678337,0.0
1449615968489688347,174,1449615968489597842,odom,4.9063949585,1.27675461769,0.0,5.12030315399,1.03744649887,0.0,4.51930475235,-0.00120714062359,0.0,3.99132275581,0.304300248623,0.0,4.59232091904,1.34295380116,0.0
1449615968695732853,175,1449615968695608979,odom,4.88899183273,1.33486270905,0.0,5.12000131607,1.11201882362,0.0,4.59741306305,0.0317868031561,0.0,4.04829502106,0.297436058521,0.0,4.57088375092,1.37766802311,0.0
1449615968885510274,176,1449615968885403811,odom,4.87702989578,1.39691674709,0.0,5.12169647217,1.18915867805,0.0,4.66860771179,0.0779833495617,0.0,4.10376024246,0.308303445578,0.0,4.55684900284,1.41947877407,0.0
1449615969084706679,177,1449615969084581891,odom,4.87277126312,1.45405638218,0.0,5.12599897385,1.25682353973,0.0,4.72027254105,0.127493441105,0.0,4.14619636536,0.333737552166,0.0,4.55192279816,1.46306765079,0.0
1449615969285400663,178,1449615969285257044,odom,4.86088228226,1.51558303833,0.0,5.12417316437,1.33199977875,0.0,4.77865982056,0.182817310095,0.0,4.19449186325,0.35845336318,0.0,4.5400056839,1.50763583183,0.0
1449615969484687089,179,1449615969484534616,odom,4.85991477966,1.57871162891,0.0,5.12889289856,1.4035667181,0.0,4.81998062134,0.244009301066,0.0,4.2305393219,0.401039659977,0.0,4.53945112228,1.56059706211,0.0
1449615969685826636,180,1449615969685692371,odom,4.85546398163,1.63621234894,0.0,5.12985897064,1.46968173981,0.0,4.85785865784,0.300914913416,0.0,4.26373529434,0.43918171525,0.0,4.53573560715,1.60794854164,0.0
1449615969887174311,181,1449615969887069808,odom,4.85601472855,1.6950814724,0.0,5.13386774063,1.53438723087,0.0,4.88662958145,0.360132843256,0.0,4.28971672058,0.485812276602,0.0,4.53695487976,1.66006660461,0.0
1449615970088093734,182,1449615970087986576,odom,4.85555934906,1.75390136242,0.0,5.13674688339,1.5991153717,0.0,4.91438102722,0.419897973537,0.0,4.31494569778,0.532933831215,0.0,4.53731107712,1.71215116978,0.0
1449615970287537716,183,1449615970287313912,odom,4.85920476913,1.80885887146,0.0,5.14201211929,1.65705299377,0.0,4.93212032318,0.475551605225,0.0,4.33152389526,0.582246422768,0.0,4.54141521454,1.76374781132,0.0
1449615970492018321,184,1449615970491932420,odom,4.85575771332,1.86198401451,0.0,5.14171028137,1.71618914604,0.0,4.9568362236,0.530515611172,0.0,4.35411882401,0.624493300915,0.0,4.53899288177,1.81016683578,0.0
1449615970689898820,185,1449615970689788060,odom,4.86448049545,1.91891491413,0.0,5.15043306351,1.77312004566,0.0,4.96555900574,0.587446510792,0.0,4.36284160614,0.681424200535,0.0,4.54771566391,1.8670976162,0.0
1449615970897818218,186,1449615970897695490,odom,4.85979127884,1.9719735384,0.0,5.14876127243,1.83225464821,0.0,4.98898744583,0.642938733101,0.0,4.38441848755,0.724157273769,0.0,4.54419231415,1.91347312927,0.0
1449615971097127138,187,1449615971097008883,odom,4.8666934967,2.02334833145,0.0,5.15566301346,1.88362932205,0.0,4.99588918686,0.694313466549,0.0,4.39132022858,0.775532007217,0.0,4.55109453201,1.96484792233,0.0
1449615971292257198,188,1449615971292138334,odom,4.86828804016,2.08411836624,0.0,5.15871858597,1.94746088982,0.0,5.01152181625,0.756523013115,0.0,4.40612840652,0.831348001957,0.0,4.55332517624,2.02228593826,0.0
1449615971500716426,189,1449615971500578137,odom,4.86797857285,2.13345170021,0.0,5.15983724594,1.99987113476,0.0,5.02523422241,0.807444155216,0.0,4.41908359528,0.875867307186,0.0,4.5536866188,2.06829428673,0.0
1449615971700788781,190,1449615971700684270,odom,4.86803627014,2.18847608566,0.0,5.16128969193,2.05798745155,0.0,5.03929567337,0.864204645157,0.0,4.43245601654,0.926218271255,0.0,4.5544500351,2.12000107765,0.0
1449615971894550388,191,1449615971893968667,odom,4.86745166779,2.24350428581,0.0,5.16206789017,2.11612176895,0.0,5.05269622803,0.921116411686,0.0,4.44523525238,0.97671353817,0.0,4.55460691452,2.17171907425,0.0
1449615972095306129,192,1449615972095157182,odom,4.87165117264,2.28938913345,0.0,5.16626739502,2.16200685501,0.0,5.05689573288,0.967001318932,0.0,4.44943475723,1.02259850502,0.0,4.55880641937,2.21760392189,0.0
1449615972300411111,193,1449615972300279964,odom,4.86344814301,2.33627820015,0.0,5.16069078445,2.21515083313,0.0,5.07659959793,1.01810085773,0.0,4.46809911728,1.0608471632,0.0,4.5521903038,2.2578971386,0.0
1449615972497898604,194,1449615972497621436,odom,4.86688947678,2.38222551346,0.0,5.16413211823,2.26109814644,0.0,5.0800409317,1.06404829025,0.0,4.47154045105,1.10679459572,0.0,4.55563163757,2.3038444519,0.0
1449615972708907565,195,1449615972708743277,odom,4.86351060867,2.42573237419,0.0,5.16201686859,2.30775284767,0.0,5.09058046341,1.10988116264,0.0,4.48166227341,1.14619445801,0.0,4.55309867859,2.34406638145,0.0
1449615972900542799,196,1449615972900431167,odom,4.86591100693,2.46597790718,0.0,5.16441679001,2.34799861908,0.0,5.09298086166,1.15012669563,0.0,4.48406267166,1.18644011021,0.0,4.55549860001,2.38431191444,0.0
1449615973102999530,197,1449615973102848833,odom,4.87458467484,2.5087018013,0.0,5.17182731628,2.3875746727,0.0,5.08773612976,1.19052457809,0.0,4.47923564911,1.23327088356,0.0,4.56332683563,2.43032097816,0.0
1449615973311416617,198,1449615973311287049,odom,4.89009475708,2.55367255211,0.0,5.18471097946,2.42629027367,0.0,5.07533931732,1.23128473759,0.0,4.46787834167,1.28688192368,0.0,4.57724952698,2.48188734055,0.0
1449615973504162020,199,1449615973503622111,odom,4.90076446533,2.60182404518,0.0,5.19401788712,2.47133541107,0.0,5.07202386856,1.27755248547,0.0,4.46518421173,1.33956599236,0.0,4.58717823029,2.53334879875,0.0
1449615973700166644,200,1449615973700069865,odom,4.93074989319,2.64453959465,0.0,5.21822738647,2.5017747879,0.0,5.04589319229,1.31421375275,0.0,4.44221639633,1.40181672573,0.0,4.61455011368,2.58937764168,0.0
1449615973906908023,201,1449615973906726024,odom,4.9556350708,2.68427848816,0.0,5.23844242096,2.53247261047,0.0,5.02855110168,1.35097134113,0.0,4.42795467377,1.45766615868,0.0,4.63784599304,2.63916754723,0.0
1449615974096594907,202,1449615974096434396,odom,4.97598218918,2.72732949257,0.0,5.25551795959,2.56958031654,0.0,5.0207028389,1.39277887344,0.0,4.42249536514,1.51214313507,0.0,4.65731048584,2.68894481659,0.0
1449615974307804896,203,1449615974307641338,odom,4.99744272232,2.76989674568,0.0,5.27358198166,2.60627532005,0.0,5.01394844055,1.43469917774,0.0,4.41839694977,1.56667971611,0.0,4.67803096771,2.73825573921,0.0
1449615974499907632,204,1449615974499769823,odom,5.0210146904,2.81763195992,0.0,5.29363441467,2.64821100235,0.0,5.00929784775,1.48238384724,0.0,4.41666936874,1.62692153454,0.0,4.70100593567,2.79274868965,0.0
1449615974708465394,205,1449615974707670997,odom,5.04538393021,2.86490988731,0.0,5.3143620491,2.6897649765,0.0,5.00544977188,1.53020763397,0.0,4.41600799561,1.68723797798,0.0,4.72492027283,2.84679532051,0.0
1449615974903061893,206,1449615974902908735,odom,5.05887460709,2.9149582386,0.0,5.32785272598,2.73981332779,0.0,5.01894044876,1.58025598526,0.0,4.42949867249,1.73728632927,0.0,4.73841094971,2.8968436718,0.0
1449615975103811045,207,1449615975103379346,odom,5.08298921585,2.95608043671,0.0,5.34820556641,2.77528977394,0.0,5.01485586166,1.62252008915,0.0,4.42886447906,1.7919729948,0.0,4.76221466064,2.9447426796,0.0
1449615975308558747,208,1449615975308440452,odom,5.08362436295,3.00372433662,0.0,5.35260248184,2.82857942581,0.0,5.04369068146,1.66902208328,0.0,4.45424890518,1.82605242729,0.0,4.7631611824,2.98560976982,0.0
1449615975510541890,209,1449615975510425772,odom,5.08200550079,3.0457444191,0.0,5.35462522507,2.87632322311,0.0,5.07028865814,1.71049618721,0.0,4.47766017914,1.85503387451,0.0,4.76199674606,3.02086091042,0.0
1449615975723690347,210,1449615975723559256,odom,5.07402658463,3.09185218811,0.0,5.35187959671,2.93115782738,0.0,5.10464143753,1.75690352917,0.0,4.50772857666,1.88258290291,0.0,4.75496721268,3.05683732033,0.0
1449615975912211441,211,1449615975911975046,odom,5.05971574783,3.1472966671,0.0,5.3441119194,2.99848794937,0.0,5.14671802521,1.8148342371,0.0,4.54502725601,1.91517615318,0.0,4.74242115021,3.09882974625,0.0
1449615976115976019,212,1449615976115369077,odom,5.02976322174,3.19780182838,0.0,5.32301712036,3.06731319427,0.0,5.20102310181,1.87353026867,0.0,4.59418344498,1.93554389477,0.0,4.71617746353,3.12932682037,0.0
1449615976330267398,213,1449615976330112330,odom,5.00310277939,3.24890017509,0.0,5.30283880234,3.13408184052,0.0,5.24406576157,1.93552196026,0.0,4.63479757309,1.96539843082,0.0,4.6935710907,3.16395831108,0.0
1449615976522380960,214,1449615976522258549,odom,4.96734189987,3.29559254646,0.0,5.27375125885,3.19999814034,0.0,5.29104375839,2.00012254715,0.0,4.68110704422,1.99133229256,0.0,4.66381454468,3.19120764732,0.0
1449615976732000129,215,1449615976731737491,odom,4.92880821228,3.33416557312,0.0,5.24065923691,3.25817918777,0.0,5.33394813538,2.06181097031,0.0,4.7257938385,2.01438903809,0.0,4.63250494003,3.21075749397,0.0
1449615976948328546,216,1449615976947922696,odom,4.88820934296,3.37025523186,0.0,5.20424890518,3.31418204308,0.0,5.37315893173,2.12612938881,0.0,4.7692322731,2.04026675224,0.0,4.60032176971,3.22831940651,0.0
1449615977134631046,217,1449615977134250806,odom,4.85764598846,3.40609884262,0.0,5.17577266693,3.3634314537,0.0,5.39473867416,2.18357825279,0.0,4.79498004913,2.07227039337,0.0,4.5760140419,3.2521238327,0.0
1449615977341811818,218,1449615977341124060,odom,4.8199300766,3.43633556366,0.0,5.13986635208,3.41052985191,0.0,5.42084121704,2.24388813972,0.0,4.82779836655,2.10105895996,0.0,4.54682350159,3.26770091057,0.0
1449615977554812944,219,1449615977554279341,odom,4.79824733734,3.47244739532,0.0,5.11865711212,3.45340919495,0.0,5.42422580719,2.29296636581,0.0,4.83433389664,2.13763570786,0.0,4.52876520157,3.29807853699,0.0
1449615977743801522,220,1449615977742563095,odom,4.78090190887,3.51251244545,0.0,5.10149478912,3.49686145782,0.0,5.41931009293,2.33971261978,0.0,4.83109283447,2.1781566143,0.0,4.51327753067,3.33530545235,0.0
1449615977950572913,221,1449615977950356100,odom,4.76638936996,3.54134273529,0.0,5.08713006973,3.52908039093,0.0,5.41715621948,2.37535476685,0.0,4.83067893982,2.20759153366,0.0,4.50065326691,3.36131739616,0.0
1449615978147026321,222,1449615978146858457,odom,4.76514959335,3.56791210175,0.0,5.08574295044,3.5522608757,0.0,5.4035577774,2.39511203766,0.0,4.81534051895,2.23355603218,0.0,4.49752521515,3.39070487022,0.0
1449615978349261617,223,1449615978349048459,odom,4.77389574051,3.58212685585,0.0,5.09408664703,3.55970358849,0.0,5.38737535477,2.39609646797,0.0,4.79587459564,2.24700808525,0.0,4.50258636475,3.41061544418,0.0
1449615978554353996,224,1449615978553060533,odom,4.78428936005,3.59055423737,0.0,5.10393476486,3.56136894226,0.0,5.37256526947,2.39182305336,0.0,4.77804613113,2.2552690506,0.0,4.50941562653,3.4248149395,0.0
1449615978760584866,225,1449615978760407215,odom,4.78955221176,3.59468483925,0.0,5.10887145996,3.56212329865,0.0,5.36512756348,2.38980388641,0.0,4.76919841766,2.25954055786,0.0,4.51294231415,3.43185997009,0.0
1449615978956175561,226,1449615978952782645,odom,4.8002076149,3.60277843475,0.0,5.11876773834,3.56347560883,0.0,5.35018968582,2.38600206375,0.0,4.75164079666,2.26836252213,0.0,4.52021837234,3.44583582878,0.0
1449615979180819866,227,1449615979180389687,odom,4.81103181839,3.61064505577,0.0,5.12868976593,3.56461834908,0.0,5.33517503738,2.38251686096,0.0,4.73427343369,2.27755355835,0.0,4.52778816223,3.45965504646,0.0
1449615979346882805,228,1449615979346666864,odom,4.81650590897,3.61449217796,0.0,5.13365936279,3.56511092186,0.0,5.32764101028,2.38089346886,0.0,4.72566366196,2.28228616714,0.0,4.53168201447,3.46650385857,0.0
1449615979537189448,229,1449615979536745656,odom,4.81554460526,3.62017083168,0.0,5.13269853592,3.570789814,0.0,5.32667970657,2.38657212257,0.0,4.72470235825,2.28796505928,0.0,4.53072118759,3.47218251228,0.0
1449615979744565865,230,1449615979744345542,odom,4.81368255615,3.63153815269,0.0,5.13083648682,3.58215713501,0.0,5.32481765747,2.39793944359,0.0,4.72284030914,2.29933238029,0.0,4.52885913849,3.4835498333,0.0
1449615979938143834,231,1449615979937951313,odom,4.82306909561,3.65045332909,0.0,5.139108181,3.59438037872,0.0,5.30801868439,2.40632772446,0.0,4.70409154892,2.32046484947,0.0,4.53518152237,3.50851774216,0.0
1449615980166487700,232,1449615980166173826,odom,4.83204221725,3.67486810684,0.0,5.14682579041,3.61212825775,0.0,5.29058933258,2.42077112198,0.0,4.68498277664,2.34769129753,0.0,4.54121923447,3.5390484333,0.0
1449615980352986068,233,1449615980352792938,odom,4.84039163589,3.7105512619,0.0,5.15377902985,3.64117264748,0.0,5.27233171463,2.44704318047,0.0,4.66531562805,2.38677883148,0.0,4.54676294327,3.58090829849,0.0
1449615980560540676,234,1449615980559889950,odom,4.84898471832,3.75178647041,0.0,5.16083574295,3.67580008507,0.0,5.25412464142,2.47943162918,0.0,4.64597082138,2.43200969696,0.0,4.55268192291,3.62837815285,0.0
1449615980743905323,235,1449615980743795211,odom,4.85850811005,3.79283452034,0.0,5.1686835289,3.71027421951,0.0,5.23666667938,2.51220154762,0.0,4.62764644623,2.47764325142,0.0,4.55966329575,3.67571616173,0.0
1449615980963053994,236,1449615980962808995,odom,4.86890506744,3.83943653107,0.0,5.17726659775,3.75033926964,0.0,5.2199139595,2.55109739304,0.0,4.61029911041,2.52941823006,0.0,4.56765174866,3.72866010666,0.0
1449615981150430918,237,1449615981150224061,odom,4.8861451149,3.88874053955,0.0,5.1915268898,3.78991317749,0.0,5.19613838196,2.58992218971,0.0,4.58614301682,2.58757805824,0.0,4.58153152466,3.78756904602,0.0
1449615981339799555,238,1449615981339093581,odom,4.88596773148,3.93481683731,0.0,5.19134998322,3.83598971367,0.0,5.19596147537,2.63599848747,0.0,4.58596611023,2.633654356,0.0,4.58135461807,3.8336455822,0.0
1449615981555631452,239,1449615981555278418,odom,4.88597345352,3.98089289665,0.0,5.19135570526,3.88206577301,0.0,5.19596719742,2.68207454681,0.0,4.58597135544,2.67973041534,0.0,4.58135986328,3.87972164154,0.0
1449615981757453286,240,1449615981756535981,odom,4.87942695618,4.0297908783,0.0,5.18583631516,3.93419647217,0.0,5.2031288147,2.7343211174,0.0,4.59319257736,2.72553086281,0.0,4.57589960098,3.92540621758,0.0
1449615981953754484,241,1449615981953443610,odom,4.85974645615,4.0781712532,0.0,5.16903209686,3.9923377037,0.0,5.22435092926,2.79361343384,0.0,4.61499929428,2.76549315453,0.0,4.55968093872,3.96421742439,0.0
1449615982138530981,242,1449615982138094005,odom,4.84450864792,4.12922286987,0.0,5.15553951263,4.04994487762,0.0,5.23617982864,2.85265755653,0.0,4.62755870819,2.81166529655,0.0,4.54691839218,4.00895261765,0.0
1449615982334346712,243,1449615982333535264,odom,4.80875682831,4.18081235886,0.0,5.12354040146,4.11807250977,0.0,5.26730394363,2.92671537399,0.0,4.6616973877,2.85363554955,0.0,4.51793384552,4.04499292374,0.0
1449615982542141488,244,1449615982541823681,odom,4.77138137817,4.22477626801,0.0,5.08903932571,4.17874956131,0.0,5.29552459717,2.9966480732,0.0,4.69462299347,2.89168477058,0.0,4.48813772202,4.0737862587,0.0
1449615982744099006,245,1449615982743701860,odom,4.73194551468,4.26674604416,0.0,5.05159091949,4.23756074905,0.0,5.3202214241,3.06801509857,0.0,4.72570228577,2.93146109581,0.0,4.45707178116,4.10100698471,0.0
1449615982950552539,246,1449615982950316871,odom,4.68993520737,4.30646800995,0.0,5.01067590714,4.29420566559,0.0,5.34070205688,3.14048027992,0.0,4.75422477722,2.97271704674,0.0,4.42419862747,4.1264424324,0.0
1449615983159191470,247,1449615983158811679,odom,4.64275169373,4.33366918564,0.0,4.96362495422,4.341755867,0.0,5.36609458923,3.21126103401,0.0,4.79142618179,3.00667238235,0.0,4.38895702362,4.13716697693,0.0
1449615983359927836,248,1449615983359616861,odom,4.59212064743,4.3632979393,0.0,4.91183662415,4.39170026779,0.0,5.38513231277,3.28898048401,0.0,4.82458257675,3.04838848114,0.0,4.35128736496,4.15110874176,0.0
1449615983533265666,249,1449615983533011055,odom,4.54201364517,4.38437843323,0.0,4.85928726196,4.4329829216,0.0,5.40150594711,3.36246967316,0.0,4.85732841492,3.08684158325,0.0,4.31510972977,4.1573548317,0.0
1449615983780949574,250,1449615983780701955,odom,4.48798847198,4.40733528137,0.0,4.80154466629,4.47594642639,0.0,5.41050815582,3.44194293022,0.0,4.88488960266,3.132386446,0.0,4.27592611313,4.16639041901,0.0
1449615983937313461,251,1449615983934072370,odom,4.4354133606,4.42177629471,0.0,4.74399185181,4.5101184845,0.0,5.41725206375,3.51678013802,0.0,4.91230487823,3.17453956604,0.0,4.23904514313,4.16787815094,0.0
1449615984133859828,252,1449615984130927776,odom,4.38225078583,4.43301725388,0.0,4.6846113205,4.54073476791,0.0,5.41946220398,3.59205460548,0.0,4.93721628189,3.21850538254,0.0,4.20236539841,4.16718578339,0.0
1449615984336751476,253,1449615984335684187,odom,4.3416686058,4.44463205338,0.0,4.63920688629,4.56503152847,0.0,5.41349220276,3.6482527256,0.0,4.94746303558,3.25465798378,0.0,4.17317771912,4.17143630981,0.0
1449615984567451766,254,1449615984567107629,odom,4.3032951355,4.46083879471,0.0,4.59686756134,4.59060907364,0.0,5.39982414246,3.69883513451,0.0,4.94650602341,3.29066562653,0.0,4.14354896545,4.18243932724,0.0
1449615984749838359,255,1449615984747502467,odom,4.27343034744,4.48427677155,0.0,4.56561517715,4.61714220047,0.0,5.37795114517,3.73390388489,0.0,4.92897129059,3.32096624374,0.0,4.11663532257,4.20420503616,0.0
1449615984933217092,256,1449615984932977623,odom,4.23957586288,4.51178359985,0.0,4.53033971786,4.64772939682,0.0,5.35196447372,3.77312493324,0.0,4.90737390518,3.35546565056,0.0,4.08574914932,4.23007011414,0.0
1449615985130166751,257,1449615985129741320,odom,4.21459007263,4.54753398895,0.0,4.50677442551,4.68039941788,0.0,5.31911039352,3.79716086388,0.0,4.87013101578,3.38422346115,0.0,4.05779457092,4.26746177673,0.0
1449615985335834091,258,1449615985335385253,odom,4.2042965889,4.57701587677,0.0,4.49922370911,4.70367670059,0.0,5.29271125793,3.80346703529,0.0,4.83510494232,3.40011072159,0.0,4.04161691666,4.30032014847,0.0
1449615985566837665,259,1449615985566706578,odom,4.20127058029,4.60850954056,0.0,4.50006484985,4.72575807571,0.0,5.26461839676,3.80084824562,0.0,4.79445552826,3.41220021248,0.0,4.02990245819,4.33711004257,0.0
1449615985747959798,260,1449615985747731694,odom,4.19934082031,4.64015865326,0.0,4.50170135498,4.74787664413,0.0,5.23655176163,3.79919624329,0.0,4.75430583954,3.42564702034,0.0,4.01945543289,4.37432765961,0.0
1449615985959319358,261,1449615985959068491,odom,4.20518255234,4.68371582031,0.0,4.51281023026,4.77531385422,0.0,5.19652986526,3.78914570808,0.0,4.69522809982,3.44158816338,0.0,4.01150798798,4.42775630951,0.0
1449615986138820071,262,1449615986138451087,odom,4.2169713974,4.73250627518,0.0,4.52978515625,4.80442714691,0.0,5.14964151382,3.77691674232,0.0,4.62732362747,3.4618229866,0.0,4.0074672699,4.48933362961,0.0
1449615986322379727,263,1449615986322190512,odom,4.23580694199,4.7857260704,0.0,4.55308055878,4.83433055878,0.0,5.09529972076,3.76381731033,0.0,4.55112218857,3.48818922043,0.0,4.00890302658,4.55870246887,0.0
1449615986530815716,264,1449615986530454599,odom,4.2472038269,4.83254432678,0.0,4.56660175323,4.86432409286,0.0,5.05152416229,3.76666760445,0.0,4.49354839325,3.520165205,0.0,4.00862598419,4.61782217026,0.0
1449615986752027260,265,1449615986751717312,odom,4.2653465271,4.86800813675,0.0,4.58597707748,4.88287401199,0.0,5.01224946976,3.76113796234,0.0,4.44203329086,3.54444956779,0.0,4.01576137543,4.66618585587,0.0
1449615986922802138,266,1449615986922451746,odom,4.26397037506,4.88901519775,0.0,4.5847401619,4.90049219131,0.0,4.99913406372,3.77431368828,0.0,4.42666006088,3.56366348267,0.0,4.01226615906,4.68984174728,0.0
1449615987133974014,267,1449615987133711825,odom,4.26955366135,4.90934371948,0.0,4.59049415588,4.91403865814,0.0,4.98099422455,3.77935385704,0.0,4.40419626236,3.58084964752,0.0,4.0136961937,4.71553468704,0.0
1449615987323714013,268,1449615987323269422,odom,4.25044870377,4.92699670792,0.0,4.5712184906,4.93847370148,0.0,4.98561239243,3.81229519844,0.0,4.41313838959,3.60164499283,0.0,3.99874448776,4.72782325745,0.0
1449615987536867286,269,1449615987536579774,odom,4.23147964478,4.95987081528,0.0,4.55211019516,4.97473669052,0.0,4.9783821106,3.85300064087,0.0,4.40816640854,3.63631248474,0.0,3.98189425468,4.75804853439,0.0
1449615987720370193,270,1449615987720123434,odom,4.19832801819,4.99316072464,0.0,4.5183262825,5.01818275452,0.0,4.97994184494,3.91052269936,0.0,4.41688156128,3.67586827278,0.0,3.95526576042,4.78352832794,0.0
1449615987931825350,271,1449615987931486081,odom,4.15271091461,5.03596782684,0.0,4.47136592865,5.07449054718,0.0,4.97937870026,3.9873278141,0.0,4.4267373085,3.72908806801,0.0,3.91872477531,4.81625127792,0.0
1449615988118254145,272,1449615988117772530,odom,4.10792827606,5.07167100906,0.0,4.42467069626,5.12362575531,0.0,4.97817230225,4.05890226364,0.0,4.43693780899,3.7775387764,0.0,3.883436203,4.84226226807,0.0
1449615988322027650,273,1449615988321869375,odom,4.06191730499,5.1055803299,0.0,4.37618112564,5.1708741188,0.0,4.97418308258,4.13049268723,0.0,4.44532251358,3.82650852203,0.0,3.84732031822,4.86688995361,0.0
1449615988526694413,274,1449615988526432343,odom,4.01743602753,5.1325545311,0.0,4.32865953445,5.21107053757,0.0,4.97009372711,4.19688987732,0.0,4.45455169678,3.87082743645,0.0,3.81311774254,4.88500833511,0.0
1449615988708445231,275,1449615988708111159,odom,3.98549056053,5.15990018845,0.0,4.29498529434,5.24497652054,0.0,4.95771026611,4.24457836151,0.0,4.44917488098,3.90769338608,0.0,3.78644990921,4.90809106827,0.0
1449615988924656278,276,1449615988924082834,odom,3.95923542976,5.17689323425,0.0,4.2668633461,5.268491745,0.0,4.95058298111,4.28232336044,0.0,4.44928073883,3.93476605415,0.0,3.76556110382,4.92093420029,0.0
1449615989124775189,277,1449615989124612344,odom,3.93595838547,5.18862962723,0.0,4.24158143997,5.28670883179,0.0,4.94599103928,4.31521129608,0.0,4.45214605331,3.95713663101,0.0,3.74773693085,4.92863416672,0.0
1449615989307761603,278,1449615989307571824,odom,3.93257761002,5.1932926178,0.0,4.23820066452,5.29137182236,0.0,4.94260978699,4.31987428665,0.0,4.44876527786,3.96179938316,0.0,3.74435591698,4.93329715729,0.0
1449615989509049274,279,1449615989503873748,odom,3.93580722809,5.1991519928,0.0,4.24244976044,5.29399585724,0.0,4.9365530014,4.31510829926,0.0,4.43895196915,3.96227240562,0.0,3.74484848976,4.94115972519,0.0
1449615989707941469,280,1449615989707775786,odom,3.93580722809,5.1991519928,0.0,4.24244976044,5.29399585724,0.0,4.9365530014,4.31510829926,0.0,4.43895196915,3.96227240562,0.0,3.74484848976,4.94115972519,0.0
