%time,field.x,field.y,field.z
1449615932745979027,0.0,0.0,269.0
1449615932748267634,0.0,0.0,269.0
1449615932758776560,0.0,0.0,269.0
1449615932775201824,0.0,0.0,278.0
1449615932787530112,0.0,0.0,274.0
1449615932803866050,0.0,0.0,275.0
1449615932816145673,0.0,0.0,274.0
1449615932832508086,0.0,0.0,278.0
1449615932848987924,0.0,0.0,275.0
1449615932861210043,0.0,0.0,275.0
1449615932877672542,0.0,0.0,275.0
1449615932894052957,0.0,0.0,277.0
1449615932906347895,0.0,0.0,271.0
1449615932922818245,0.0,0.0,271.0
1449615932939109477,0.0,0.0,268.0
1449615932951379104,0.0,0.0,267.0
1449615932967859183,0.0,0.0,278.0
1449615932984142043,0.0,0.0,266.0
1449615932996493304,0.0,0.0,277.0
1449615933012880891,0.0,0.0,266.0
1449615933029251598,0.0,0.0,276.0
1449615933041554740,0.0,0.0,266.0
1449615933057983295,0.0,0.0,270.0
1449615933074379983,0.0,0.0,269.0
1449615933086560924,0.0,0.0,277.0
1449615933103030446,0.0,0.0,275.0
1449615933119370132,0.0,0.0,273.0
1449615933131727877,0.0,0.0,278.0
1449615933147986837,0.0,0.0,268.0
1449615933164371550,0.0,0.0,277.0
1449615933176676494,0.0,0.0,271.0
1449615933193287829,0.0,0.0,272.0
1449615933205348406,0.0,0.0,272.0
1449615933221737782,0.0,0.0,284.0
1449615933238175160,0.0,0.0,269.0
1449615933253107475,0.0,0.0,275.0
1449615933281845112,0.0,0.0,271.0
1449615933305201879,0.0,0.0,272.0
1449615933307620230,0.0,0.0,267.0
1449615933316003584,0.0,0.0,270.0
1449615933332396259,0.0,0.0,271.0
1449615933344565312,0.0,0.0,276.0
1449615933361050888,0.0,0.0,271.0
1449615933373351395,0.0,0.0,267.0
1449615933389859070,0.0,0.0,273.0
1449615933406089297,0.0,0.0,268.0
1449615933418351945,0.0,0.0,274.0
1449615933434841010,0.0,0.0,276.0
1449615933451123204,0.0,0.0,270.0
1449615933463408655,0.0,0.0,280.0
1449615933479929998,0.0,0.0,271.0
1449615933496190325,0.0,0.0,276.0
1449615933508529428,0.0,0.0,269.0
1449615933525035859,0.0,0.0,269.0
1449615933541241094,0.0,0.0,271.0
1449615933553554809,0.0,0.0,271.0
1449615933569981314,0.0,0.0,268.0
1449615933586295039,0.0,0.0,265.0
1449615933598705066,0.0,0.0,269.0
1449615933614982338,0.0,0.0,269.0
1449615933631462045,0.0,0.0,272.0
1449615933643651625,0.0,0.0,263.0
1449615933660158244,0.0,0.0,264.0
1449615933676445544,0.0,0.0,263.0
1449615933688763788,0.0,0.0,275.0
1449615933705123797,0.0,0.0,267.0
1449615933721527814,0.0,0.0,267.0
1449615933733787767,0.0,0.0,273.0
1449615933750209803,0.0,0.0,259.0
1449615933762540858,0.0,0.0,273.0
1449615933778938975,0.0,0.0,266.0
1449615933795326836,0.0,0.0,270.0
1449615933807570091,0.0,0.0,261.0
1449615933823971393,0.0,0.0,263.0
1449615933840387268,0.0,0.0,265.0
1449615933852637907,0.0,0.0,265.0
1449615933869218054,0.0,0.0,265.0
1449615933885379160,0.0,0.0,266.0
1449615933897953065,0.0,0.0,270.0
1449615933914081391,0.0,0.0,265.0
1449615933930702742,0.0,0.0,265.0
1449615933943182520,0.0,0.0,259.0
1449615933959276193,0.0,0.0,261.0
1449615933975568424,0.0,0.0,266.0
1449615933987932744,0.0,0.0,264.0
1449615934004340148,0.0,0.0,264.0
1449615934020542452,0.0,0.0,260.0
1449615934033095176,0.0,0.0,260.0
1449615934049316465,0.0,0.0,256.0
1449615934065856315,0.0,0.0,267.0
1449615934078081038,0.0,0.0,258.0
1449615934094451231,0.0,0.0,260.0
1449615934110692241,0.0,0.0,265.0
1449615934123213502,0.0,0.0,263.0
1449615934139420903,0.0,0.0,263.0
1449615934151741132,0.0,0.0,262.0
1449615934168051781,0.0,0.0,267.0
1449615934184642394,0.0,0.0,264.0
1449615934197068710,0.0,0.0,266.0
1449615934213169678,0.0,0.0,258.0
1449615934229435580,0.0,0.0,258.0
1449615934241837121,0.0,0.0,259.0
1449615934258226796,0.0,0.0,261.0
1449615934274638278,0.0,0.0,259.0
1449615934286867331,0.0,0.0,258.0
1449615934303266340,0.0,0.0,260.0
1449615934319623027,0.0,0.0,259.0
1449615934332088614,0.0,0.0,264.0
1449615934348300322,0.0,0.0,258.0
1449615934364845154,0.0,0.0,259.0
1449615934377058578,0.0,0.0,262.0
1449615934393722266,0.0,0.0,263.0
1449615934409727554,0.0,0.0,258.0
1449615934422167219,0.0,0.0,255.0
1449615934438605890,0.0,0.0,265.0
1449615934454937921,0.0,0.0,260.0
1449615934467264030,0.0,0.0,261.0
1449615934483547320,0.0,0.0,259.0
1449615934499841339,0.0,0.0,260.0
1449615934512185098,0.0,0.0,258.0
1449615934528668237,0.0,0.0,266.0
1449615934540879235,0.0,0.0,259.0
1449615934557402062,0.0,0.0,254.0
1449615934573708721,0.0,0.0,260.0
1449615934585954199,0.0,0.0,257.0
1449615934602611538,0.0,0.0,260.0
1449615934618673406,0.0,0.0,256.0
1449615934631134306,0.0,0.0,257.0
1449615934647342618,0.0,0.0,260.0
1449615934663889144,0.0,0.0,257.0
1449615934676099751,0.0,0.0,255.0
1449615934692438108,0.0,0.0,255.0
1449615934708893702,0.0,0.0,258.0
1449615934721171399,0.0,0.0,257.0
1449615934737746552,0.0,0.0,258.0
1449615934753853647,0.0,0.0,257.0
1449615934766358395,0.0,0.0,266.0
1449615934782546833,0.0,0.0,260.0
1449615934799379085,0.0,0.0,260.0
1449615934811765448,0.0,0.0,257.0
1449615934827719448,0.0,0.0,260.0
1449615934844026503,0.0,0.0,261.0
1449615934856235680,0.0,0.0,259.0
1449615934873118498,0.0,0.0,258.0
1449615934884897999,0.0,0.0,257.0
1449615934905514444,0.0,0.0,262.0
1449615934918106372,0.0,0.0,258.0
1449615934934302360,0.0,0.0,258.0
1449615934950517085,0.0,0.0,256.0
1449615934962912064,0.0,0.0,260.0
1449615934979125110,0.0,0.0,257.0
1449615934995739354,0.0,0.0,258.0
1449615935007853257,0.0,0.0,254.0
1449615935024211929,0.0,0.0,256.0
1449615935040641820,0.0,0.0,265.0
1449615935053012531,0.0,0.0,257.0
1449615935069605840,0.0,0.0,255.0
1449615935085577322,0.0,0.0,252.0
1449615935097941963,0.0,0.0,260.0
1449615935114372436,0.0,0.0,254.0
1449615935131091372,0.0,0.0,258.0
1449615935143247940,0.0,0.0,257.0
1449615935159422263,0.0,0.0,247.0
1449615935175847291,0.0,0.0,260.0
1449615935188041116,0.0,0.0,253.0
1449615935204792533,0.0,0.0,256.0
1449615935220844701,0.0,0.0,251.0
1449615935233182275,0.0,0.0,256.0
1449615935249515267,0.0,0.0,251.0
1449615935266086760,0.0,0.0,260.0
1449615935278438175,0.0,0.0,255.0
1449615935294741429,0.0,0.0,251.0
1449615935306995669,0.0,0.0,253.0
1449615935323528188,0.0,0.0,254.0
1449615935339928266,0.0,0.0,256.0
1449615935351892706,0.0,0.0,253.0
1449615935368298405,0.0,0.0,257.0
1449615935384716322,0.0,0.0,250.0
1449615935397269312,0.0,0.0,257.0
1449615935413837775,0.0,0.0,250.0
1449615935429974947,0.0,0.0,249.0
1449615935442122168,0.0,0.0,254.0
1449615935458455999,0.0,0.0,253.0
1449615935475043785,0.0,0.0,252.0
1449615935487350484,0.0,0.0,250.0
1449615935503464729,0.0,0.0,253.0
1449615935519952802,0.0,0.0,251.0
1449615935532299318,0.0,0.0,258.0
1449615935548551314,0.0,0.0,253.0
1449615935565074250,0.0,0.0,252.0
1449615935577255754,0.0,0.0,253.0
1449615935593654672,0.0,0.0,255.0
1449615935610096837,0.0,0.0,253.0
1449615935622434603,0.0,0.0,245.0
1449615935638818515,0.0,0.0,261.0
1449615935655081664,0.0,0.0,254.0
1449615935668346537,0.0,0.0,254.0
1449615935683824468,0.0,0.0,252.0
1449615935696067219,0.0,0.0,246.0
1449615935712502918,0.0,0.0,251.0
1449615935728900670,0.0,0.0,248.0
1449615935741276985,0.0,0.0,243.0
1449615935757866389,0.0,0.0,248.0
1449615935774129100,0.0,0.0,249.0
1449615935787902585,0.0,0.0,250.0
1449615935803384637,0.0,0.0,249.0
1449615935819621281,0.0,0.0,250.0
1449615935831760767,0.0,0.0,249.0
1449615935847785180,0.0,0.0,248.0
1449615935865706382,0.0,0.0,246.0
1449615935876967887,0.0,0.0,249.0
1449615935893276606,0.0,0.0,246.0
1449615935910048465,0.0,0.0,250.0
1449615935922518899,0.0,0.0,247.0
1449615935938125189,0.0,0.0,247.0
1449615935954615286,0.0,0.0,255.0
1449615935966501624,0.0,0.0,247.0
1449615935983769846,0.0,0.0,248.0
1449615935999703080,0.0,0.0,250.0
1449615936011668722,0.0,0.0,247.0
1449615936028274737,0.0,0.0,249.0
1449615936044730743,0.0,0.0,249.0
1449615936057878449,0.0,0.0,249.0
1449615936073061197,0.0,0.0,248.0
1449615936085709642,0.0,0.0,252.0
1449615936102187509,0.0,0.0,250.0
1449615936118542233,0.0,0.0,248.0
1449615936130887005,0.0,0.0,247.0
1449615936150907002,0.0,0.0,248.0
1449615936163068858,0.0,0.0,246.0
1449615936175395776,0.0,0.0,246.0
1449615936192166465,0.0,0.0,247.0
1449615936208688533,0.0,0.0,243.0
1449615936225480857,0.0,0.0,245.0
1449615936237247127,0.0,0.0,250.0
1449615936253517426,0.0,0.0,247.0
1449615936265914016,0.0,0.0,246.0
1449615936281982014,0.0,0.0,246.0
1449615936298643893,0.0,0.0,246.0
1449615936310713483,0.0,0.0,251.0
1449615936327351412,0.0,0.0,246.0
1449615936343979461,0.0,0.0,250.0
1449615936359621744,0.0,0.0,250.0
1449615936372084277,0.0,0.0,248.0
1449615936389397479,0.0,0.0,245.0
1449615936400850926,0.0,0.0,244.0
1449615936417139947,0.0,0.0,246.0
1449615936431650730,0.0,0.0,247.0
1449615936445983315,0.0,0.0,250.0
1449615936466439637,0.0,0.0,247.0
1449615936474388898,0.0,0.0,248.0
1449615936490735852,0.0,0.0,248.0
1449615936508039147,0.0,0.0,243.0
1449615936519599976,0.0,0.0,245.0
1449615936535905255,0.0,0.0,255.0
1449615936552346901,0.0,0.0,245.0
1449615936564656443,0.0,0.0,248.0
1449615936581173954,0.0,0.0,244.0
1449615936597441391,0.0,0.0,247.0
1449615936609733975,0.0,0.0,247.0
1449615936626141534,0.0,0.0,247.0
1449615936642601643,0.0,0.0,243.0
1449615936655442862,0.0,0.0,246.0
1449615936671094726,0.0,0.0,245.0
1449615936687829220,0.0,0.0,241.0
1449615936700257668,0.0,0.0,245.0
1449615936716080545,0.0,0.0,244.0
1449615936732988964,0.0,0.0,251.0
1449615936745018471,0.0,0.0,249.0
1449615936761341874,0.0,0.0,248.0
1449615936778060441,0.0,0.0,248.0
1449615936794043101,0.0,0.0,244.0
1449615936806392847,0.0,0.0,246.0
1449615936818473487,0.0,0.0,246.0
1449615936834939041,0.0,0.0,244.0
1449615936851371264,0.0,0.0,248.0
1449615936864177085,0.0,0.0,248.0
1449615936880271301,0.0,0.0,247.0
1449615936896348067,0.0,0.0,247.0
1449615936908695289,0.0,0.0,239.0
1449615936925247251,0.0,0.0,240.0
1449615936941523075,0.0,0.0,247.0
1449615936953731713,0.0,0.0,245.0
1449615936970482765,0.0,0.0,247.0
1449615936987931841,0.0,0.0,250.0
1449615936999919713,0.0,0.0,248.0
1449615937015070285,0.0,0.0,245.0
1449615937031665599,0.0,0.0,242.0
1449615937044670609,0.0,0.0,241.0
1449615937060553554,0.0,0.0,243.0
1449615937076555925,0.0,0.0,250.0
1449615937088921540,0.0,0.0,245.0
1449615937105236145,0.0,0.0,245.0
1449615937123525615,0.0,0.0,245.0
1449615937134858597,0.0,0.0,244.0
1449615937150402249,0.0,0.0,246.0
1449615937167082813,0.0,0.0,246.0
1449615937179418168,0.0,0.0,243.0
1449615937195758835,0.0,0.0,243.0
1449615937207949806,0.0,0.0,246.0
1449615937225884592,0.0,0.0,243.0
1449615937240503221,0.0,0.0,248.0
1449615937253093815,0.0,0.0,250.0
1449615937269222380,0.0,0.0,246.0
1449615937285662877,0.0,0.0,246.0
1449615937298267458,0.0,0.0,245.0
1449615937314125543,0.0,0.0,245.0
1449615937330587290,0.0,0.0,247.0
1449615937343755743,0.0,0.0,243.0
1449615937359794966,0.0,0.0,242.0
1449615937375919319,0.0,0.0,241.0
1449615937389785724,0.0,0.0,241.0
1449615937408562945,0.0,0.0,245.0
1449615937424278816,0.0,0.0,250.0
1449615937437217042,0.0,0.0,247.0
1449615937453541701,0.0,0.0,240.0
1449615937466620095,0.0,0.0,239.0
1449615937482188602,0.0,0.0,247.0
1449615937498994049,0.0,0.0,248.0
1449615937510903904,0.0,0.0,245.0
1449615937527272934,0.0,0.0,246.0
1449615937543706521,0.0,0.0,243.0
1449615937557201412,0.0,0.0,244.0
1449615937572667502,0.0,0.0,243.0
1449615937592137815,0.0,0.0,245.0
1449615937600955952,0.0,0.0,245.0
1449615937617535669,0.0,0.0,244.0
1449615937629910528,0.0,0.0,245.0
1449615937646080831,0.0,0.0,250.0
1449615937662614525,0.0,0.0,241.0
1449615937674802289,0.0,0.0,245.0
1449615937691243076,0.0,0.0,241.0
1449615937707650919,0.0,0.0,241.0
1449615937721359118,0.0,0.0,242.0
1449615937736375901,0.0,0.0,240.0
1449615937752859696,0.0,0.0,237.0
1449615937765201352,0.0,0.0,243.0
1449615937781304309,0.0,0.0,243.0
1449615937798660685,0.0,0.0,244.0
1449615937810086802,0.0,0.0,243.0
1449615937826760500,0.0,0.0,238.0
1449615937842763406,0.0,0.0,245.0
1449615937856395867,0.0,0.0,241.0
1449615937871919614,0.0,0.0,244.0
1449615937887963828,0.0,0.0,245.0
1449615937900009386,0.0,0.0,249.0
1449615937916658050,0.0,0.0,243.0
1449615937932998766,0.0,0.0,243.0
1449615937945722616,0.0,0.0,240.0
1449615937961495284,0.0,0.0,244.0
1449615937973735391,0.0,0.0,239.0
1449615937998018720,0.0,0.0,239.0
1449615938006915225,0.0,0.0,244.0
1449615938018862150,0.0,0.0,243.0
1449615938035212596,0.0,0.0,247.0
1449615938052082433,0.0,0.0,243.0
1449615938065541099,0.0,0.0,244.0
1449615938080284543,0.0,0.0,244.0
1449615938109079232,0.0,0.0,246.0
1449615938186867281,0.0,0.0,244.0
1449615938203515065,0.0,0.0,246.0
1449615938216042560,0.0,0.0,247.0
1449615938232059398,0.0,0.0,244.0
1449615938248323347,0.0,0.0,244.0
1449615938260791542,0.0,0.0,240.0
1449615938277246558,0.0,0.0,245.0
1449615938293751840,0.0,0.0,250.0
1449615938305779174,0.0,0.0,244.0
1449615938323612006,0.0,0.0,242.0
1449615938338688745,0.0,0.0,243.0
1449615938351026302,0.0,0.0,243.0
1449615938367031957,0.0,0.0,242.0
1449615938383414180,0.0,0.0,243.0
1449615938395772789,0.0,0.0,245.0
1449615938412519612,0.0,0.0,242.0
1449615938428562024,0.0,0.0,247.0
1449615938440774299,0.0,0.0,246.0
1449615938457228457,0.0,0.0,244.0
1449615938473755532,0.0,0.0,242.0
1449615938485890576,0.0,0.0,243.0
1449615938502221473,0.0,0.0,242.0
1449615938522403628,0.0,0.0,241.0
1449615938531100337,0.0,0.0,239.0
1449615938547429092,0.0,0.0,242.0
1449615938559821193,0.0,0.0,241.0
1449615938575995651,0.0,0.0,243.0
1449615938592366717,0.0,0.0,241.0
1449615938604674038,0.0,0.0,243.0
1449615938621186656,0.0,0.0,242.0
1449615938637507622,0.0,0.0,243.0
1449615938649581173,0.0,0.0,242.0
1449615938667226237,0.0,0.0,245.0
1449615938682498718,0.0,0.0,249.0
1449615938694795311,0.0,0.0,244.0
1449615938711395007,0.0,0.0,243.0
1449615938727602456,0.0,0.0,243.0
1449615938739924251,0.0,0.0,243.0
1449615938756413491,0.0,0.0,240.0
1449615938772936668,0.0,0.0,240.0
1449615938785032853,0.0,0.0,242.0
1449615938801302063,0.0,0.0,239.0
1449615938817578568,0.0,0.0,246.0
1449615938829943513,0.0,0.0,245.0
1449615938847683804,0.0,0.0,240.0
1449615938862822524,0.0,0.0,241.0
1449615938875925662,0.0,0.0,241.0
1449615938891479757,0.0,0.0,243.0
1449615938908286650,0.0,0.0,243.0
1449615938920884079,0.0,0.0,244.0
1449615938939247414,0.0,0.0,242.0
1449615938949072070,0.0,0.0,244.0
1449615938965844294,0.0,0.0,241.0
1449615938982939375,0.0,0.0,241.0
1449615938993873979,0.0,0.0,245.0
1449615939010168579,0.0,0.0,239.0
1449615939026682080,0.0,0.0,248.0
1449615939039358973,0.0,0.0,244.0
1449615939055668253,0.0,0.0,241.0
1449615939071902620,0.0,0.0,251.0
1449615939084040256,0.0,0.0,242.0
1449615939100151832,0.0,0.0,239.0
1449615939116771181,0.0,0.0,244.0
1449615939130876466,0.0,0.0,244.0
1449615939145975179,0.0,0.0,243.0
1449615939164570835,0.0,0.0,245.0
1449615939174574058,0.0,0.0,243.0
1449615939191915674,0.0,0.0,243.0
1449615939207215445,0.0,0.0,247.0
1449615939219303987,0.0,0.0,241.0
1449615939235738275,0.0,0.0,233.0
1449615939251910023,0.0,0.0,237.0
1449615939266108383,0.0,0.0,243.0
1449615939281225086,0.0,0.0,244.0
1449615939297097034,0.0,0.0,243.0
1449615939309570010,0.0,0.0,239.0
1449615939325545021,0.0,0.0,240.0
1449615939338455631,0.0,0.0,238.0
1449615939354380649,0.0,0.0,242.0
1449615939370989579,0.0,0.0,248.0
1449615939383320129,0.0,0.0,243.0
1449615939399624235,0.0,0.0,244.0
1449615939416017623,0.0,0.0,244.0
1449615939427948863,0.0,0.0,241.0
1449615939444453582,0.0,0.0,237.0
1449615939460780876,0.0,0.0,246.0
1449615939473627076,0.0,0.0,245.0
1449615939489631716,0.0,0.0,241.0
1449615939507203491,0.0,0.0,240.0
1449615939518216760,0.0,0.0,244.0
1449615939534686002,0.0,0.0,242.0
1449615939551207060,0.0,0.0,241.0
1449615939563321906,0.0,0.0,242.0
1449615939582354628,0.0,0.0,242.0
1449615939596450657,0.0,0.0,251.0
1449615939608595331,0.0,0.0,242.0
1449615939625283393,0.0,0.0,244.0
1449615939642096009,0.0,0.0,242.0
1449615939653205455,0.0,0.0,242.0
1449615939670176772,0.0,0.0,235.0
1449615939686561459,0.0,0.0,240.0
1449615939698328356,0.0,0.0,240.0
1449615939716310323,0.0,0.0,241.0
1449615939727003056,0.0,0.0,240.0
1449615939744751527,0.0,0.0,240.0
1449615939760640495,0.0,0.0,245.0
1449615939773113110,0.0,0.0,242.0
1449615939788782950,0.0,0.0,241.0
1449615939805179040,0.0,0.0,251.0
1449615939817325318,0.0,0.0,244.0
1449615939833778568,0.0,0.0,245.0
1449615939850182200,0.0,0.0,240.0
1449615939862216074,0.0,0.0,239.0
1449615939881922493,0.0,0.0,243.0
1449615939895245892,0.0,0.0,248.0
1449615939907558983,0.0,0.0,250.0
1449615939924135858,0.0,0.0,248.0
1449615939940344317,0.0,-2.0,242.0
1449615939955501722,0.0,-2.0,242.0
1449615939970378267,0.0,-2.0,242.0
1449615939987968817,0.0,-2.0,268.0
1449615939997547356,0.0,-2.0,247.0
1449615940013775775,0.0,-2.0,298.0
1449615940031795093,0.0,-2.0,252.0
1449615940043040788,0.0,-2.0,296.0
1449615940061626363,0.0,-2.0,250.0
1449615940075567122,0.0,-2.0,292.0
1449615940087948544,0.0,-2.0,253.0
1449615940103807645,0.0,-2.0,299.0
1449615940116480765,0.0,-2.0,247.0
1449615940132814535,0.0,-2.0,291.0
1449615940149191506,0.0,-2.0,248.0
1449615940161700164,0.0,-2.0,244.0
1449615940177757211,0.0,-2.0,242.0
1449615940194825962,-2.0,-2.0,236.0
1449615940206579585,-2.0,-2.0,231.0
1449615940222801897,-2.0,-2.0,233.0
1449615940239487947,-2.0,-2.0,231.0
1449615940252004798,-2.0,-4.0,231.0
1449615940268832319,-2.0,-4.0,234.0
1449615940284121868,-2.0,-4.0,224.0
1449615940296530396,-2.0,-4.0,219.0
1449615940312927893,-2.0,-4.0,224.0
1449615940329250153,-2.0,-4.0,279.0
1449615940341705010,-4.0,-4.0,234.0
1449615940361664297,-4.0,-4.0,293.0
1449615940374986445,-4.0,-4.0,244.0
1449615940386759455,-4.0,-4.0,292.0
1449615940403360128,-4.0,-6.0,240.0
1449615940419302282,-4.0,-6.0,296.0
1449615940433309066,-4.0,-6.0,242.0
1449615940448565958,-4.0,-6.0,288.0
1449615940464783030,-6.0,-6.0,232.0
1449615940477148348,-6.0,-6.0,276.0
1449615940495305269,-6.0,-6.0,227.0
1449615940505594382,-6.0,-8.0,225.0
1449615940522634676,-8.0,-8.0,229.0
1449615940538230863,-8.0,-8.0,234.0
1449615940550815215,-8.0,-8.0,237.0
1449615940566687775,-8.0,-8.0,243.0
1449615940583776747,-8.0,-8.0,241.0
1449615940595439095,-10.0,-10.0,232.0
1449615940612656091,-10.0,-10.0,230.0
1449615940628502363,-10.0,-10.0,226.0
1449615940644780331,-10.0,-10.0,225.0
1449615940661662059,-12.0,-12.0,242.0
1449615940673556619,-12.0,-12.0,238.0
1449615940689779911,-12.0,-12.0,240.0
1449615940706205329,-14.0,-12.0,234.0
1449615940719621936,-14.0,-12.0,229.0
1449615940735042193,-14.0,-14.0,225.0
1449615940751070864,-16.0,-14.0,234.0
1449615940763591761,-16.0,-14.0,237.0
1449615940780132777,-16.0,-16.0,237.0
1449615940796516896,-16.0,-16.0,288.0
1449615940808904066,-18.0,-16.0,232.0
1449615940825680381,-18.0,-16.0,221.0
1449615940841682351,-20.0,-18.0,239.0
1449615940853768664,-20.0,-18.0,246.0
1449615940870805492,-20.0,-18.0,243.0
1449615940882526552,-22.0,-20.0,233.0
1449615940899009772,-22.0,-20.0,225.0
1449615940915498887,-24.0,-20.0,239.0
1449615940927413502,-24.0,-22.0,245.0
1449615940944872184,-24.0,-22.0,244.0
1449615940961302483,-26.0,-24.0,230.0
1449615940973646356,-26.0,-24.0,228.0
1449615940988753937,-28.0,-24.0,240.0
1449615941008547334,-28.0,-26.0,245.0
1449615941018357203,-30.0,-26.0,232.0
1449615941034375517,-30.0,-28.0,233.0
1449615941050698272,-32.0,-28.0,241.0
1449615941062920430,-32.0,-28.0,250.0
1449615941079403808,-34.0,-30.0,229.0
1449615941095439317,-34.0,-30.0,214.0
1449615941107622477,-36.0,-32.0,277.0
1449615941124403650,-36.0,-32.0,244.0
1449615941140745092,-38.0,-34.0,277.0
1449615941153160074,-40.0,-34.0,240.0
1449615941169718911,-40.0,-36.0,245.0
1449615941185824418,-42.0,-36.0,234.0
1449615941197733203,-42.0,-36.0,278.0
1449615941214094922,-44.0,-38.0,247.0
1449615941230857685,-46.0,-38.0,287.0
1449615941242875411,-46.0,-40.0,230.0
1449615941259081340,-48.0,-40.0,295.0
1449615941272826455,-48.0,-42.0,249.0
1449615941287848481,-50.0,-42.0,288.0
1449615941304445239,-52.0,-44.0,245.0
1449615941316719440,-52.0,-44.0,303.0
1449615941333569836,-54.0,-46.0,237.0
1449615941349781988,-56.0,-46.0,249.0
1449615941361643210,-56.0,-48.0,257.0
1449615941378167713,-58.0,-48.0,288.0
1449615941394495347,-60.0,-50.0,254.0
1449615941408883526,-60.0,-50.0,307.0
1449615941423106293,-62.0,-52.0,231.0
1449615941439592448,-64.0,-52.0,304.0
1449615941451826112,-64.0,-54.0,261.0
1449615941468126610,-66.0,-54.0,290.0
1449615941484539346,-68.0,-56.0,255.0
1449615941496787852,-68.0,-56.0,309.0
1449615941514147392,-70.0,-58.0,247.0
1449615941529437207,-72.0,-58.0,312.0
1449615941541788606,-72.0,-60.0,267.0
1449615941559593784,-74.0,-60.0,304.0
1449615941574565637,-76.0,-62.0,263.0
1449615941588191631,-76.0,-62.0,311.0
1449615941603518291,-78.0,-64.0,250.0
1449615941619687202,-80.0,-64.0,263.0
1449615941631815472,-82.0,-66.0,261.0
1449615941649802354,-82.0,-66.0,259.0
1449615941660950806,-84.0,-68.0,276.0
1449615941677475170,-86.0,-68.0,263.0
1449615941693696831,-86.0,-70.0,259.0
1449615941705653590,-88.0,-70.0,276.0
1449615941723328505,-90.0,-72.0,266.0
1449615941738802887,-92.0,-72.0,272.0
1449615941750979407,-92.0,-74.0,285.0
1449615941767260256,-94.0,-74.0,263.0
1449615941783611362,-96.0,-76.0,273.0
1449615941796011375,-98.0,-76.0,272.0
1449615941812258218,-98.0,-78.0,270.0
1449615941828847501,-100.0,-78.0,288.0
1449615941840761675,-102.0,-80.0,274.0
1449615941863936682,-104.0,-80.0,281.0
1449615941874196762,-104.0,-82.0,287.0
1449615941886804748,-106.0,-82.0,272.0
1449615941902446386,-108.0,-84.0,285.0
1449615941918969492,-110.0,-84.0,279.0
1449615941930858800,-110.0,-84.0,279.0
1449615941950337512,-112.0,-86.0,296.0
1449615941965993595,-114.0,-88.0,280.0
1449615941975989367,-116.0,-88.0,295.0
1449615941997964149,-118.0,-88.0,284.0
1449615942013462423,-118.0,-90.0,288.0
1449615942021033932,-120.0,-92.0,300.0
1449615942037605558,-122.0,-92.0,282.0
1449615942049688091,-124.0,-92.0,296.0
1449615942066854365,-126.0,-94.0,286.0
1449615942083006508,-128.0,-96.0,296.0
1449615942095642334,-128.0,-96.0,309.0
1449615942112347601,-130.0,-98.0,317.0
1449615942127931367,-132.0,-98.0,307.0
1449615942140028730,-134.0,-100.0,321.0
1449615942156346202,-136.0,-100.0,303.0
1449615942173126146,-138.0,-102.0,328.0
1449615942185406486,-138.0,-102.0,300.0
1449615942201323324,-140.0,-104.0,336.0
1449615942217843480,-142.0,-104.0,299.0
1449615942233638255,-144.0,-106.0,316.0
1449615942248735650,-146.0,-106.0,310.0
1449615942262752828,-148.0,-108.0,336.0
1449615942275406917,-148.0,-108.0,313.0
1449615942292510284,-150.0,-110.0,325.0
1449615942307853280,-152.0,-112.0,322.0
1449615942320248112,-154.0,-112.0,325.0
1449615942336508591,-156.0,-114.0,321.0
1449615942353119285,-158.0,-114.0,360.0
1449615942365923306,-160.0,-116.0,317.0
1449615942382842534,-162.0,-116.0,315.0
1449615942398093365,-162.0,-118.0,307.0
1449615942410814180,-164.0,-120.0,378.0
1449615942429824311,-166.0,-120.0,305.0
1449615942439192661,-168.0,-120.0,381.0
1449615942455366692,-170.0,-122.0,313.0
1449615942471822846,-172.0,-124.0,371.0
1449615942484020971,-174.0,-124.0,309.0
1449615942500413355,-176.0,-126.0,357.0
1449615942516787409,-176.0,-128.0,328.0
1449615942528983529,-178.0,-128.0,358.0
1449615942545639578,-180.0,-128.0,314.0
1449615942562104110,-182.0,-130.0,365.0
1449615942574348091,-184.0,-132.0,330.0
1449615942592141227,-186.0,-132.0,364.0
1449615942609584954,-186.0,-134.0,307.0
1449615942619313519,-188.0,-134.0,379.0
1449615942635603084,-190.0,-136.0,310.0
1449615942652040032,-192.0,-136.0,323.0
1449615942667645104,-194.0,-138.0,313.0
1449615942681953151,-194.0,-140.0,354.0
1449615942697237659,-196.0,-140.0,327.0
1449615942715645593,-198.0,-140.0,353.0
1449615942728161880,-200.0,-142.0,309.0
1449615942741989334,-202.0,-144.0,357.0
1449615942754436139,-202.0,-144.0,298.0
1449615942771783761,-204.0,-146.0,314.0
1449615942787182990,-206.0,-146.0,295.0
1449615942799548689,-208.0,-148.0,304.0
1449615942816073199,-208.0,-148.0,305.0
1449615942829859291,-210.0,-150.0,285.0
1449615942844712786,-212.0,-150.0,291.0
1449615942860995480,-212.0,-152.0,287.0
1449615942873838218,-214.0,-152.0,267.0
1449615942889719408,-216.0,-154.0,284.0
1449615942906470624,-218.0,-156.0,268.0
1449615942918531179,-218.0,-156.0,281.0
1449615942934741076,-220.0,-158.0,269.0
1449615942951078010,-222.0,-158.0,252.0
1449615942970359897,-222.0,-160.0,243.0
1449615942979887881,-224.0,-160.0,261.0
1449615942995939849,-226.0,-162.0,243.0
1449615943008524643,-226.0,-164.0,238.0
1449615943024834213,-228.0,-164.0,249.0
1449615943043911353,-230.0,-166.0,234.0
1449615943054290216,-230.0,-166.0,235.0
1449615943069813661,-232.0,-168.0,250.0
1449615943086434611,-234.0,-170.0,239.0
1449615943098582230,-234.0,-170.0,236.0
1449615943115051454,-236.0,-172.0,256.0
1449615943131709540,-238.0,-172.0,245.0
1449615943147687431,-240.0,-174.0,256.0
1449615943164392995,-240.0,-176.0,259.0
1449615943177282860,-242.0,-178.0,253.0
1449615943192894645,-244.0,-178.0,262.0
1449615943205009137,-244.0,-180.0,275.0
1449615943229991576,-246.0,-182.0,263.0
1449615943237976979,-246.0,-182.0,269.0
1449615943250503331,-248.0,-184.0,283.0
1449615943266744012,-250.0,-186.0,271.0
1449615943283175511,-250.0,-186.0,268.0
1449615943296131124,-252.0,-188.0,288.0
1449615943311673024,-254.0,-190.0,278.0
1449615943328092814,-254.0,-192.0,276.0
1449615943341046230,-256.0,-192.0,297.0
1449615943356615651,-258.0,-194.0,286.0
1449615943373324861,-258.0,-196.0,279.0
1449615943385363355,-260.0,-198.0,299.0
1449615943401906400,-262.0,-198.0,292.0
1449615943418315219,-262.0,-200.0,287.0
1449615943430243512,-264.0,-202.0,298.0
1449615943446737432,-264.0,-204.0,326.0
1449615943463564903,-266.0,-204.0,277.0
1449615943476141288,-268.0,-206.0,303.0
1449615943491943693,-268.0,-208.0,306.0
1449615943508294186,-270.0,-210.0,293.0
1449615943520588185,-272.0,-212.0,303.0
1449615943538443724,-272.0,-212.0,310.0
1449615943553093136,-274.0,-214.0,298.0
1449615943565529147,-276.0,-216.0,299.0
1449615943582369771,-276.0,-218.0,309.0
1449615943594459261,-278.0,-220.0,342.0
1449615943610745830,-278.0,-222.0,292.0
1449615943627235690,-280.0,-222.0,310.0
1449615943639375794,-282.0,-224.0,298.0
1449615943655501761,-282.0,-226.0,292.0
1449615943673145260,-284.0,-228.0,302.0
1449615943684831203,-284.0,-230.0,308.0
1449615943701696639,-286.0,-232.0,292.0
1449615943717513151,-288.0,-234.0,298.0
1449615943729170334,-288.0,-234.0,307.0
1449615943747619950,-290.0,-236.0,294.0
1449615943762146208,-290.0,-238.0,285.0
1449615943774519885,-292.0,-240.0,299.0
1449615943791260702,-292.0,-242.0,296.0
1449615943808477827,-294.0,-244.0,285.0
1449615943819772260,-296.0,-246.0,294.0
1449615943835776870,-296.0,-246.0,301.0
1449615943852395250,-298.0,-248.0,283.0
1449615943865020184,-298.0,-250.0,279.0
1449615943881516785,-300.0,-252.0,289.0
1449615943897616306,-300.0,-254.0,289.0
1449615943910564806,-302.0,-256.0,274.0
1449615943926139017,-304.0,-258.0,284.0
1449615943942701283,-304.0,-260.0,287.0
1449615943955047884,-306.0,-260.0,275.0
1449615943971977502,-306.0,-262.0,271.0
1449615943983183598,-308.0,-264.0,274.0
1449615943999999234,-308.0,-266.0,283.0
1449615944017276517,-310.0,-268.0,270.0
1449615944028424380,-310.0,-270.0,268.0
1449615944045899153,-312.0,-272.0,277.0
1449615944061418647,-312.0,-274.0,286.0
1449615944078014622,-314.0,-274.0,276.0
1449615944090569690,-314.0,-276.0,271.0
1449615944106618150,-316.0,-278.0,279.0
1449615944119349184,-316.0,-280.0,282.0
1449615944135084886,-318.0,-282.0,270.0
1449615944152358592,-320.0,-284.0,267.0
1449615944165974595,-320.0,-286.0,272.0
1449615944180002667,-320.0,-286.0,287.0
1449615944196724719,-322.0,-288.0,267.0
1449615944211585262,-324.0,-290.0,269.0
1449615944227337597,-324.0,-292.0,274.0
1449615944243968863,-324.0,-294.0,305.0
1449615944253553461,-326.0,-296.0,267.0
1449615944272060292,-326.0,-296.0,284.0
1449615944286495834,-328.0,-298.0,272.0
1449615944299217406,-328.0,-300.0,304.0
1449615944315263062,-330.0,-302.0,266.0
1449615944331702939,-330.0,-304.0,255.0
1449615944344593575,-332.0,-306.0,268.0
1449615944360371686,-332.0,-308.0,299.0
1449615944372613839,-334.0,-308.0,261.0
1449615944389079767,-334.0,-310.0,274.0
1449615944407316790,-336.0,-312.0,263.0
1449615944417575432,-336.0,-314.0,292.0
1449615944436094749,-338.0,-316.0,256.0
1449615944450225540,-338.0,-318.0,267.0
1449615944464752096,-340.0,-320.0,258.0
1449615944479191602,-340.0,-320.0,264.0
1449615944495687844,-340.0,-322.0,257.0
1449615944507886120,-342.0,-324.0,272.0
1449615944524847375,-342.0,-326.0,239.0
1449615944541675086,-344.0,-328.0,277.0
1449615944553070515,-344.0,-330.0,259.0
1449615944569184920,-346.0,-332.0,268.0
1449615944585611438,-346.0,-334.0,289.0
1449615944598578623,-348.0,-334.0,273.0
1449615944614358257,-348.0,-336.0,255.0
1449615944630818605,-350.0,-338.0,292.0
1449615944645171752,-350.0,-340.0,236.0
1449615944660855924,-352.0,-342.0,297.0
1449615944680049453,-352.0,-344.0,251.0
1449615944688051721,-352.0,-346.0,303.0
1449615944704190875,-354.0,-348.0,238.0
1449615944720942450,-354.0,-348.0,278.0
1449615944733735976,-356.0,-350.0,243.0
1449615944749700259,-356.0,-352.0,279.0
1449615944761740408,-358.0,-354.0,235.0
1449615944778360210,-358.0,-356.0,280.0
1449615944794954913,-360.0,-358.0,242.0
1449615944807186047,-360.0,-360.0,295.0
1449615944823622754,-360.0,-362.0,249.0
1449615944839725993,-362.0,-364.0,260.0
1449615944851864432,-362.0,-364.0,231.0
1449615944868174665,-364.0,-366.0,247.0
1449615944884785498,-364.0,-368.0,250.0
1449615944896827222,-366.0,-370.0,247.0
1449615944913499020,-366.0,-372.0,235.0
1449615944929695002,-366.0,-374.0,237.0
1449615944942385178,-368.0,-376.0,243.0
1449615944958487612,-368.0,-378.0,246.0
1449615944974805302,-370.0,-380.0,242.0
1449615944987562125,-370.0,-380.0,234.0
1449615945003327187,-372.0,-382.0,248.0
1449615945020150329,-372.0,-384.0,278.0
1449615945032399977,-372.0,-386.0,256.0
1449615945051320766,-374.0,-388.0,243.0
1449615945067001146,-374.0,-390.0,238.0
1449615945077664302,-376.0,-392.0,250.0
1449615945093623954,-376.0,-394.0,255.0
1449615945110409469,-376.0,-394.0,253.0
1449615945123260845,-378.0,-396.0,243.0
1449615945139016132,-378.0,-398.0,233.0
1449615945151517188,-380.0,-400.0,243.0
1449615945167945901,-380.0,-402.0,289.0
1449615945184016345,-380.0,-404.0,254.0
1449615945196379803,-382.0,-404.0,236.0
1449615945213767993,-382.0,-406.0,240.0
1449615945231697856,-382.0,-408.0,233.0
1449615945243715999,-384.0,-410.0,247.0
1449615945257391772,-384.0,-412.0,251.0
1449615945274637138,-384.0,-412.0,247.0
1449615945286158325,-386.0,-414.0,291.0
1449615945302670174,-386.0,-416.0,230.0
1449615945318765480,-388.0,-418.0,242.0
1449615945335656732,-388.0,-420.0,240.0
1449615945347936140,-388.0,-420.0,247.0
1449615945363745587,-390.0,-422.0,234.0
1449615945377239091,-390.0,-424.0,234.0
1449615945392667964,-390.0,-426.0,227.0
1449615945409189258,-392.0,-428.0,239.0
1449615945421275048,-392.0,-428.0,242.0
1449615945437503102,-392.0,-430.0,244.0
1449615945454318684,-394.0,-432.0,230.0
1449615945466508175,-394.0,-432.0,226.0
1449615945482819959,-394.0,-434.0,225.0
1449615945500636567,-396.0,-436.0,235.0
1449615945511841323,-396.0,-438.0,241.0
1449615945528148564,-396.0,-440.0,241.0
1449615945540112572,-398.0,-440.0,226.0
1449615945556424618,-398.0,-442.0,220.0
1449615945573056536,-398.0,-444.0,221.0
1449615945586659729,-400.0,-444.0,231.0
1449615945601663187,-400.0,-446.0,232.0
1449615945617788569,-400.0,-448.0,233.0
1449615945630380790,-402.0,-450.0,221.0
1449615945651004427,-402.0,-452.0,266.0
1449615945663104031,-402.0,-452.0,241.0
1449615945679924551,-404.0,-454.0,276.0
1449615945695775957,-404.0,-456.0,230.0
1449615945712641365,-404.0,-458.0,255.0
1449615945724252415,-406.0,-460.0,216.0
1449615945741126707,-406.0,-460.0,235.0
1449615945753256750,-406.0,-462.0,207.0
1449615945769541253,-408.0,-464.0,246.0
1449615945786564797,-408.0,-466.0,229.0
1449615945798206804,-408.0,-468.0,253.0
1449615945814557341,-410.0,-470.0,217.0
1449615945833651911,-410.0,-472.0,238.0
1449615945844518533,-410.0,-472.0,210.0
1449615945862214592,-412.0,-474.0,246.0
1449615945878201512,-412.0,-476.0,227.0
1449615945888350194,-412.0,-478.0,226.0
1449615945904811262,-414.0,-480.0,214.0
1449615945917235317,-414.0,-482.0,232.0
1449615945933366173,-414.0,-484.0,208.0
1449615945949479538,-416.0,-484.0,245.0
1449615945961814428,-416.0,-486.0,223.0
1449615945978497511,-416.0,-488.0,248.0
1449615945994851519,-418.0,-490.0,209.0
1449615946010755911,-418.0,-492.0,228.0
1449615946026282339,-418.0,-494.0,200.0
1449615946040055964,-420.0,-496.0,213.0
1449615946052119032,-420.0,-496.0,220.0
1449615946068775969,-420.0,-500.0,245.0
1449615946084988208,-422.0,-500.0,205.0
1449615946097227620,-422.0,-502.0,226.0
1449615946113545457,-422.0,-504.0,196.0
1449615946130207136,-424.0,-506.0,258.0
1449615946142365253,-424.0,-508.0,210.0
1449615946158701786,-424.0,-510.0,215.0
1449615946175747502,-426.0,-512.0,201.0
1449615946187579242,-426.0,-512.0,205.0
1449615946203914563,-426.0,-514.0,197.0
1449615946220782735,-426.0,-516.0,200.0
1449615946232411553,-428.0,-518.0,213.0
1449615946249959015,-428.0,-520.0,220.0
1449615946265164017,-428.0,-522.0,219.0
1449615946277533584,-430.0,-524.0,208.0
1449615946294205355,-430.0,-524.0,207.0
1449615946306029892,-430.0,-526.0,206.0
1449615946323066404,-432.0,-528.0,222.0
1449615946338684611,-432.0,-530.0,227.0
1449615946351274720,-432.0,-530.0,233.0
1449615946368208985,-432.0,-532.0,235.0
1449615946384453290,-434.0,-534.0,223.0
1449615946396319155,-434.0,-534.0,216.0
1449615946413041999,-434.0,-536.0,215.0
1449615946429942879,-434.0,-538.0,228.0
1449615946442133785,-436.0,-538.0,232.0
1449615946457671228,-436.0,-540.0,233.0
1449615946474039495,-436.0,-542.0,242.0
1449615946486691242,-436.0,-542.0,236.0
1449615946502885143,-438.0,-544.0,228.0
1449615946518931066,-438.0,-544.0,219.0
1449615946532715883,-438.0,-546.0,222.0
1449615946547728832,-438.0,-548.0,223.0
1449615946566102707,-440.0,-548.0,235.0
1449615946576582397,-440.0,-550.0,237.0
1449615946592752451,-440.0,-550.0,240.0
1449615946609314770,-440.0,-552.0,246.0
1449615946621534687,-440.0,-552.0,244.0
1449615946637873443,-442.0,-554.0,230.0
1449615946654423729,-442.0,-554.0,227.0
1449615946666564804,-442.0,-556.0,232.0
1449615946683388916,-442.0,-556.0,229.0
1449615946695080203,-442.0,-558.0,276.0
1449615946711772482,-442.0,-558.0,232.0
1449615946728004375,-444.0,-558.0,294.0
1449615946740440528,-444.0,-560.0,244.0
1449615946756854818,-444.0,-560.0,297.0
1449615946774937334,-444.0,-562.0,250.0
1449615946787074924,-444.0,-562.0,305.0
1449615946805711407,-444.0,-562.0,255.0
1449615946818313888,-446.0,-564.0,290.0
1449615946830346547,-446.0,-564.0,239.0
1449615946847735407,-446.0,-564.0,291.0
1449615946866585008,-446.0,-566.0,235.0
1449615946876076249,-446.0,-566.0,298.0
1449615946891769879,-446.0,-566.0,234.0
1449615946908572506,-448.0,-568.0,297.0
1449615946920700619,-448.0,-568.0,250.0
1449615946936799394,-448.0,-568.0,255.0
1449615946953278132,-448.0,-570.0,259.0
1449615946967186291,-448.0,-570.0,259.0
1449615946982822175,-450.0,-570.0,248.0
1449615946998974980,-450.0,-572.0,246.0
1449615947010540615,-450.0,-572.0,241.0
1449615947027275790,-450.0,-572.0,243.0
1449615947043658354,-450.0,-572.0,242.0
1449615947056571441,-452.0,-574.0,253.0
1449615947072323043,-452.0,-574.0,256.0
1449615947084535088,-452.0,-574.0,259.0
1449615947100892294,-454.0,-576.0,250.0
1449615947117396638,-454.0,-576.0,246.0
1449615947129502233,-454.0,-576.0,240.0
1449615947148196061,-454.0,-576.0,242.0
1449615947162664672,-456.0,-578.0,253.0
1449615947177234278,-456.0,-578.0,257.0
1449615947193432334,-456.0,-578.0,261.0
1449615947207738768,-458.0,-580.0,244.0
1449615947219901571,-458.0,-580.0,242.0
1449615947239223729,-458.0,-580.0,240.0
1449615947253012622,-460.0,-580.0,256.0
1449615947265122689,-460.0,-582.0,257.0
1449615947281986610,-460.0,-582.0,260.0
1449615947297532778,-462.0,-582.0,250.0
1449615947309788080,-462.0,-584.0,246.0
1449615947326108936,-462.0,-584.0,241.0
1449615947343315418,-464.0,-584.0,252.0
1449615947354706892,-464.0,-586.0,260.0
1449615947371257872,-464.0,-586.0,264.0
1449615947387385767,-466.0,-586.0,249.0
1449615947400135316,-466.0,-586.0,241.0
1449615947416267976,-466.0,-588.0,243.0
1449615947437855501,-468.0,-588.0,252.0
1449615947444816850,-468.0,-588.0,258.0
1449615947461751890,-468.0,-590.0,256.0
1449615947478186155,-470.0,-590.0,240.0
1449615947489867680,-470.0,-590.0,240.0
1449615947506607425,-472.0,-592.0,255.0
1449615947518826817,-472.0,-592.0,254.0
1449615947538009355,-472.0,-592.0,257.0
1449615947551539282,-474.0,-592.0,247.0
1449615947563816849,-474.0,-594.0,239.0
1449615947580010757,-474.0,-594.0,238.0
1449615947596331225,-476.0,-594.0,253.0
1449615947609306570,-476.0,-596.0,260.0
1449615947627314593,-478.0,-596.0,243.0
1449615947641805215,-478.0,-596.0,242.0
1449615947653894213,-478.0,-596.0,245.0
1449615947671899993,-480.0,-598.0,253.0
1449615947688140955,-480.0,-598.0,258.0
1449615947699213452,-482.0,-598.0,247.0
1449615947715436050,-482.0,-600.0,238.0
1449615947731478028,-484.0,-600.0,249.0
1449615947744148600,-484.0,-600.0,254.0
1449615947761007297,-484.0,-602.0,248.0
1449615947777389782,-486.0,-602.0,241.0
1449615947789478822,-486.0,-602.0,236.0
1449615947805408704,-488.0,-602.0,248.0
1449615947821906196,-488.0,-604.0,250.0
1449615947834528335,-490.0,-604.0,241.0
1449615947851794625,-490.0,-604.0,231.0
1449615947863758744,-492.0,-606.0,240.0
1449615947879325334,-492.0,-606.0,250.0
1449615947895463200,-494.0,-606.0,235.0
1449615947911288309,-494.0,-608.0,226.0
1449615947924492716,-496.0,-608.0,241.0
1449615947940468594,-496.0,-608.0,252.0
1449615947952839476,-498.0,-610.0,236.0
1449615947969265619,-498.0,-610.0,227.0
1449615947985777389,-500.0,-610.0,245.0
1449615947998182253,-500.0,-612.0,240.0
1449615948014334501,-502.0,-612.0,226.0
1449615948030638027,-504.0,-612.0,246.0
1449615948043025189,-504.0,-614.0,243.0
1449615948061923022,-506.0,-614.0,255.0
1449615948076189790,-506.0,-614.0,225.0
1449615948088327821,-508.0,-616.0,263.0
1449615948104212578,-508.0,-616.0,245.0
1449615948120589154,-510.0,-616.0,252.0
1449615948134092550,-510.0,-618.0,226.0
1449615948154559578,-512.0,-618.0,243.0
1449615948166089313,-514.0,-618.0,229.0
1449615948182433208,-514.0,-620.0,221.0
1449615948198498920,-516.0,-620.0,260.0
1449615948211251145,-516.0,-620.0,243.0
1449615948227931460,-518.0,-622.0,253.0
1449615948239997906,-518.0,-622.0,224.0
1449615948257136723,-520.0,-622.0,252.0
1449615948272434217,-520.0,-622.0,240.0
1449615948285084024,-522.0,-624.0,254.0
1449615948302152912,-522.0,-624.0,219.0
1449615948317414972,-524.0,-624.0,276.0
1449615948329704769,-524.0,-624.0,239.0
1449615948346666755,-526.0,-624.0,277.0
1449615948362308484,-526.0,-624.0,219.0
1449615948376267617,-526.0,-626.0,271.0
1449615948391381081,-528.0,-626.0,232.0
1449615948407714925,-528.0,-626.0,240.0
1449615948419825071,-530.0,-626.0,227.0
1449615948436265255,-530.0,-626.0,274.0
1449615948452858432,-532.0,-628.0,231.0
1449615948465863186,-532.0,-628.0,287.0
1449615948482065684,-532.0,-628.0,239.0
1449615948497649341,-534.0,-628.0,223.0
1449615948510532806,-534.0,-628.0,217.0
1449615948527196098,-536.0,-628.0,229.0
1449615948543309007,-536.0,-628.0,234.0
1449615948555465508,-536.0,-630.0,236.0
1449615948571358959,-538.0,-630.0,218.0
1449615948588322978,-538.0,-630.0,215.0
1449615948602675510,-540.0,-630.0,228.0
1449615948620107474,-540.0,-630.0,238.0
1449615948629416063,-540.0,-630.0,233.0
1449615948645618288,-542.0,-630.0,219.0
1449615948664281945,-542.0,-632.0,215.0
1449615948674112465,-544.0,-632.0,250.0
1449615948690764680,-544.0,-632.0,233.0
1449615948706416457,-544.0,-632.0,234.0
1449615948718850409,-546.0,-632.0,219.0
1449615948735173370,-546.0,-632.0,216.0
1449615948751679527,-548.0,-634.0,228.0
1449615948764203396,-548.0,-634.0,234.0
1449615948780682891,-550.0,-634.0,220.0
1449615948796762632,-550.0,-634.0,218.0
1449615948810303923,-552.0,-634.0,227.0
1449615948825454995,-552.0,-636.0,263.0
1449615948841741399,-554.0,-636.0,229.0
1449615948854297558,-554.0,-636.0,215.0
1449615948870428920,-556.0,-636.0,228.0
1449615948887017213,-556.0,-636.0,235.0
1449615948899295026,-556.0,-636.0,232.0
1449615948915609894,-558.0,-638.0,214.0
1449615948932189748,-560.0,-638.0,223.0
1449615948944201577,-560.0,-638.0,259.0
1449615948960833773,-560.0,-638.0,227.0
1449615948977439303,-562.0,-638.0,214.0
1449615948989187216,-564.0,-638.0,223.0
1449615949005733369,-564.0,-640.0,232.0
1449615949018068699,-564.0,-640.0,226.0
1449615949034257735,-566.0,-640.0,210.0
1449615949050706800,-568.0,-640.0,223.0
1449615949062895184,-568.0,-640.0,232.0
1449615949079411590,-570.0,-642.0,215.0
1449615949095656590,-570.0,-642.0,208.0
1449615949108322193,-572.0,-642.0,221.0
1449615949124388726,-572.0,-642.0,226.0
1449615949140752001,-574.0,-642.0,213.0
1449615949154021853,-574.0,-642.0,205.0
1449615949169545061,-576.0,-644.0,215.0
1449615949187347205,-576.0,-644.0,223.0
1449615949198675784,-578.0,-644.0,208.0
1449615949214657514,-578.0,-644.0,202.0
1449615949234260452,-580.0,-644.0,214.0
1449615949243282748,-580.0,-646.0,219.0
1449615949262496291,-582.0,-646.0,204.0
1449615949276136173,-582.0,-646.0,197.0
1449615949288582860,-584.0,-646.0,207.0
1449615949305175981,-584.0,-646.0,216.0
1449615949320971086,-586.0,-648.0,206.0
1449615949333415004,-586.0,-648.0,195.0
1449615949353991694,-588.0,-648.0,204.0
1449615949366373460,-588.0,-648.0,211.0
1449615949378397687,-590.0,-648.0,198.0
1449615949395173466,-590.0,-650.0,191.0
1449615949407198887,-592.0,-650.0,205.0
1449615949423452537,-592.0,-650.0,213.0
1449615949440213343,-594.0,-650.0,198.0
1449615949452250631,-594.0,-652.0,191.0
1449615949468578066,-596.0,-652.0,209.0
1449615949484892119,-596.0,-652.0,215.0
1449615949500398831,-598.0,-652.0,198.0
1449615949516142020,-598.0,-652.0,195.0
1449615949531401880,-600.0,-654.0,211.0
1449615949542547226,-600.0,-654.0,221.0
1449615949558969796,-602.0,-654.0,203.0
1449615949575042895,-604.0,-654.0,203.0
1449615949587472490,-604.0,-656.0,220.0
1449615949603780777,-606.0,-656.0,211.0
1449615949620378337,-606.0,-656.0,209.0
1449615949632583255,-608.0,-656.0,220.0
1449615949649372663,-608.0,-658.0,232.0
1449615949666739029,-610.0,-658.0,216.0
1449615949678432716,-610.0,-658.0,238.0
1449615949694097212,-612.0,-660.0,221.0
1449615949711947018,-612.0,-660.0,232.0
1449615949723796537,-614.0,-660.0,221.0
1449615949739178694,-616.0,-662.0,276.0
1449615949755750915,-616.0,-662.0,241.0
1449615949768625032,-618.0,-662.0,276.0
1449615949784832493,-618.0,-664.0,217.0
1449615949800722986,-620.0,-664.0,281.0
1449615949815525272,-620.0,-664.0,244.0
1449615949829226655,-622.0,-666.0,277.0
1449615949841293795,-624.0,-666.0,238.0
1449615949858581237,-624.0,-668.0,295.0
1449615949874111490,-626.0,-668.0,231.0
1449615949886510516,-626.0,-668.0,280.0
1449615949904100395,-628.0,-670.0,249.0
1449615949919452559,-630.0,-670.0,288.0
1449615949931513461,-630.0,-672.0,233.0
1449615949948026097,-632.0,-672.0,298.0
1449615949964333864,-632.0,-674.0,248.0
1449615949976657214,-634.0,-674.0,233.0
1449615949993953788,-636.0,-676.0,246.0
1449615950009201508,-636.0,-676.0,302.0
1449615950024651620,-638.0,-678.0,238.0
1449615950038090828,-640.0,-678.0,306.0
1449615950061302937,-642.0,-680.0,250.0
1449615950067113816,-642.0,-680.0,291.0
1449615950084732070,-644.0,-682.0,260.0
1449615950099412747,-646.0,-682.0,299.0
1449615950115963644,-646.0,-684.0,243.0
1449615950131173355,-648.0,-684.0,289.0
1449615950146674673,-650.0,-686.0,250.0
1449615950156707210,-652.0,-686.0,310.0
1449615950174490390,-652.0,-688.0,261.0
1449615950185324755,-654.0,-690.0,243.0
1449615950208106264,-656.0,-690.0,256.0
1449615950218692876,-658.0,-692.0,252.0
1449615950230680581,-658.0,-692.0,246.0
1449615950249475825,-660.0,-694.0,286.0
1449615950264600514,-662.0,-694.0,248.0
1449615950275549955,-664.0,-696.0,252.0
1449615950292085507,-664.0,-696.0,258.0
1449615950308519467,-666.0,-698.0,237.0
1449615950320408079,-668.0,-700.0,255.0
1449615950336891002,-670.0,-700.0,249.0
1449615950353754231,-670.0,-702.0,241.0
1449615950366061414,-672.0,-702.0,256.0
1449615950382225429,-674.0,-704.0,245.0
1449615950398427197,-676.0,-704.0,279.0
1449615950413072720,-676.0,-706.0,255.0
1449615950427308233,-678.0,-706.0,245.0
1449615950443644295,-680.0,-708.0,252.0
1449615950455744422,-680.0,-708.0,260.0
1449615950472838159,-682.0,-710.0,241.0
1449615950488850825,-684.0,-710.0,253.0
1449615950501065602,-684.0,-712.0,258.0
1449615950518119588,-686.0,-712.0,238.0
1449615950533687408,-688.0,-712.0,246.0
1449615950546779892,-688.0,-714.0,253.0
1449615950562401008,-690.0,-714.0,241.0
1449615950574542274,-690.0,-716.0,233.0
1449615950590904895,-692.0,-716.0,245.0
1449615950608084711,-692.0,-718.0,246.0
1449615950620086371,-694.0,-718.0,234.0
1449615950636116037,-696.0,-718.0,245.0
1449615950652658333,-696.0,-720.0,247.0
1449615950668922706,-698.0,-720.0,234.0
1449615950685375679,-698.0,-722.0,229.0
1449615950697826090,-700.0,-722.0,242.0
1449615950713875253,-700.0,-722.0,246.0
1449615950730417601,-702.0,-724.0,229.0
1449615950750601060,-702.0,-724.0,232.0
1449615950759952570,-704.0,-724.0,238.0
1449615950775854480,-704.0,-726.0,229.0
1449615950788116028,-706.0,-726.0,228.0
1449615950804335924,-706.0,-728.0,225.0
1449615950822397843,-708.0,-728.0,241.0
1449615950832603947,-708.0,-728.0,239.0
1449615950849131636,-710.0,-730.0,225.0
1449615950865810488,-710.0,-730.0,215.0
1449615950878477429,-712.0,-730.0,231.0
1449615950894583040,-712.0,-732.0,237.0
1449615950912469993,-714.0,-732.0,226.0
1449615950922960842,-714.0,-732.0,215.0
1449615950939600759,-716.0,-734.0,227.0
1449615950951466963,-716.0,-734.0,231.0
1449615950968418191,-718.0,-734.0,217.0
1449615950984684970,-718.0,-736.0,216.0
1449615950996741593,-720.0,-736.0,221.0
1449615951012876506,-720.0,-736.0,229.0
1449615951029503427,-722.0,-738.0,213.0
1449615951041532361,-722.0,-738.0,205.0
1449615951058855763,-724.0,-738.0,215.0
1449615951075059340,-724.0,-740.0,225.0
1449615951087000896,-726.0,-740.0,208.0
1449615951104092150,-726.0,-740.0,203.0
1449615951119318069,-728.0,-742.0,217.0
1449615951132054820,-728.0,-742.0,217.0
1449615951148476170,-730.0,-742.0,210.0
1449615951164356122,-730.0,-744.0,201.0
1449615951177043164,-732.0,-744.0,216.0
1449615951193252494,-732.0,-744.0,221.0
1449615951209661928,-734.0,-746.0,239.0
1449615951221845569,-734.0,-746.0,202.0
1449615951238232947,-736.0,-746.0,248.0
1449615951254740915,-736.0,-748.0,228.0
1449615951266998427,-738.0,-748.0,213.0
1449615951283556714,-740.0,-748.0,221.0
1449615951299595590,-740.0,-750.0,254.0
1449615951311812875,-742.0,-750.0,225.0
1449615951328406307,-742.0,-750.0,239.0
1449615951341298027,-744.0,-752.0,232.0
1449615951356948169,-744.0,-752.0,263.0
1449615951373926702,-746.0,-752.0,230.0
1449615951386473679,-746.0,-754.0,242.0
1449615951402511503,-748.0,-754.0,234.0
1449615951418362698,-748.0,-754.0,266.0
1449615951430773383,-750.0,-756.0,220.0
1449615951447950015,-750.0,-756.0,248.0
1449615951463977424,-752.0,-756.0,238.0
1449615951475718409,-752.0,-756.0,270.0
1449615951492205980,-754.0,-758.0,237.0
1449615951509816302,-754.0,-758.0,252.0
1449615951520968706,-754.0,-758.0,237.0
1449615951537315670,-756.0,-758.0,242.0
1449615951553533629,-756.0,-760.0,247.0
1449615951566310343,-758.0,-760.0,259.0
1449615951582353454,-758.0,-760.0,228.0
1449615951598617522,-760.0,-760.0,267.0
1449615951611529628,-760.0,-762.0,247.0
1449615951627630865,-762.0,-762.0,253.0
1449615951643748268,-762.0,-762.0,228.0
1449615951656666327,-764.0,-762.0,267.0
1449615951672405615,-764.0,-764.0,245.0
1449615951690079883,-764.0,-764.0,298.0
1449615951700968825,-766.0,-764.0,230.0
1449615951717567388,-766.0,-764.0,225.0
1449615951729652537,-768.0,-764.0,235.0
1449615951746083051,-768.0,-766.0,246.0
1449615951762496569,-770.0,-766.0,231.0
1449615951774888184,-770.0,-766.0,222.0
1449615951791065253,-770.0,-766.0,220.0
1449615951807536192,-772.0,-766.0,259.0
1449615951820251123,-772.0,-766.0,241.0
1449615951836299410,-774.0,-768.0,226.0
1449615951852650205,-774.0,-768.0,214.0
1449615951865147605,-774.0,-768.0,218.0
1449615951881298824,-776.0,-768.0,234.0
1449615951897669958,-776.0,-768.0,236.0
1449615951910050778,-778.0,-768.0,222.0
1449615951926474844,-778.0,-770.0,218.0
1449615951942716991,-778.0,-770.0,215.0
1449615951955831095,-780.0,-770.0,251.0
1449615951971474685,-780.0,-770.0,233.0
1449615951987833397,-780.0,-770.0,227.0
1449615952000071137,-782.0,-770.0,221.0
1449615952016611296,-782.0,-772.0,216.0
1449615952032780833,-784.0,-772.0,226.0
1449615952045042582,-784.0,-772.0,235.0
1449615952061650839,-784.0,-772.0,224.0
1449615952078082328,-786.0,-772.0,244.0
1449615952090213054,-786.0,-772.0,212.0
1449615952106540671,-788.0,-772.0,228.0
1449615952118851345,-788.0,-772.0,236.0
1449615952135239315,-788.0,-774.0,228.0
1449615952151651707,-790.0,-774.0,218.0
1449615952163873406,-790.0,-774.0,215.0
1449615952180557925,-792.0,-774.0,236.0
1449615952196705668,-792.0,-774.0,235.0
1449615952209019171,-794.0,-774.0,228.0
1449615952225311603,-794.0,-774.0,274.0
1449615952241827684,-794.0,-774.0,217.0
1449615952254344167,-796.0,-776.0,230.0
1449615952270390469,-796.0,-776.0,236.0
1449615952287360284,-796.0,-776.0,228.0
1449615952299046984,-798.0,-776.0,228.0
1449615952315624166,-798.0,-776.0,223.0
1449615952331994546,-800.0,-776.0,236.0
1449615952344848926,-800.0,-776.0,237.0
1449615952360526550,-800.0,-776.0,249.0
1449615952377050971,-802.0,-776.0,230.0
1449615952391079522,-802.0,-776.0,227.0
1449615952405559944,-802.0,-776.0,229.0
1449615952421977701,-804.0,-776.0,242.0
1449615952434236227,-804.0,-776.0,249.0
1449615952450968247,-804.0,-776.0,256.0
1449615952463229748,-806.0,-776.0,238.0
1449615952479309943,-806.0,-776.0,235.0
1449615952495698380,-806.0,-776.0,239.0
1449615952508093518,-808.0,-776.0,248.0
1449615952524540739,-808.0,-776.0,246.0
1449615952540741603,-808.0,-776.0,261.0
1449615952553173549,-808.0,-776.0,264.0
1449615952569407214,-810.0,-776.0,248.0
1449615952585911908,-810.0,-776.0,250.0
1449615952598196376,-810.0,-776.0,245.0
1449615952614505909,-810.0,-776.0,242.0
1449615952630879185,-812.0,-776.0,258.0
1449615952643248466,-812.0,-776.0,263.0
1449615952660233042,-812.0,-776.0,272.0
1449615952675960761,-812.0,-776.0,277.0
1449615952688447212,-812.0,-776.0,278.0
1449615952705400605,-814.0,-776.0,270.0
1449615952721609962,-814.0,-776.0,268.0
1449615952735009741,-814.0,-776.0,256.0
1449615952749754809,-814.0,-776.0,261.0
1449615952766070316,-816.0,-776.0,269.0
1449615952778330655,-816.0,-776.0,277.0
1449615952795448554,-816.0,-776.0,278.0
1449615952811106706,-816.0,-776.0,280.0
1449615952823557479,-816.0,-776.0,291.0
1449615952839983472,-818.0,-776.0,279.0
1449615952852550609,-818.0,-776.0,276.0
1449615952868410344,-818.0,-776.0,268.0
1449615952885036137,-818.0,-776.0,262.0
1449615952897100595,-818.0,-776.0,265.0
1449615952913469032,-820.0,-776.0,281.0
1449615952930399295,-820.0,-776.0,281.0
1449615952942166970,-820.0,-776.0,289.0
1449615952958573136,-820.0,-776.0,316.0
1449615952975155541,-822.0,-776.0,278.0
1449615952987551611,-822.0,-776.0,295.0
1449615953003723363,-822.0,-776.0,268.0
1449615953020435036,-822.0,-776.0,294.0
1449615953032375803,-824.0,-776.0,289.0
1449615953048803094,-824.0,-776.0,317.0
1449615953065698852,-824.0,-776.0,292.0
1449615953077370208,-824.0,-776.0,322.0
1449615953093832922,-826.0,-776.0,288.0
1449615953110201027,-826.0,-776.0,282.0
1449615953122581046,-826.0,-776.0,278.0
1449615953138973404,-826.0,-776.0,309.0
1449615953155464495,-828.0,-776.0,298.0
1449615953171704512,-828.0,-776.0,328.0
1449615953188228608,-828.0,-776.0,306.0
1449615953200191118,-830.0,-776.0,289.0
1449615953216656457,-830.0,-776.0,286.0
1449615953233092760,-830.0,-776.0,287.0
1449615953245476870,-832.0,-776.0,302.0
1449615953261919081,-832.0,-776.0,303.0
1449615953274066315,-832.0,-776.0,310.0
1449615953290373184,-834.0,-776.0,292.0
1449615953306860152,-834.0,-776.0,286.0
1449615953319139193,-834.0,-776.0,296.0
1449615953335453229,-836.0,-776.0,303.0
1449615953351983350,-836.0,-776.0,306.0
1449615953364211155,-838.0,-776.0,318.0
1449615953380489099,-838.0,-776.0,292.0
1449615953396923836,-838.0,-776.0,288.0
1449615953409146003,-840.0,-776.0,299.0
1449615953425680299,-840.0,-776.0,309.0
1449615953441976600,-842.0,-776.0,292.0
1449615953455326333,-842.0,-776.0,286.0
1449615953470651328,-844.0,-776.0,299.0
1449615953487160755,-844.0,-776.0,304.0
1449615953499326885,-846.0,-776.0,290.0
1449615953515823779,-846.0,-776.0,287.0
1449615953532110662,-848.0,-776.0,298.0
1449615953544411345,-848.0,-776.0,306.0
1449615953560728038,-850.0,-776.0,288.0
1449615953577072452,-850.0,-776.0,278.0
1449615953589639695,-852.0,-776.0,298.0
1449615953605808155,-854.0,-776.0,285.0
1449615953622305660,-854.0,-776.0,281.0
1449615953634477201,-856.0,-776.0,341.0
1449615953651339882,-856.0,-776.0,302.0
1449615953663283637,-858.0,-776.0,289.0
1449615953679705064,-858.0,-776.0,271.0
1449615953695948083,-860.0,-776.0,290.0
1449615953708285016,-860.0,-776.0,295.0
1449615953724811310,-862.0,-776.0,281.0
1449615953741015127,-862.0,-776.0,275.0
1449615953753363290,-864.0,-776.0,298.0
1449615953769710249,-864.0,-778.0,291.0
1449615953786237387,-866.0,-778.0,278.0
1449615953798511793,-868.0,-778.0,279.0
1449615953814705495,-868.0,-778.0,290.0
1449615953831133993,-868.0,-778.0,287.0
1449615953843502327,-870.0,-778.0,275.0
1449615953860016566,-870.0,-778.0,277.0
1449615953876263412,-872.0,-778.0,281.0
1449615953888456261,-872.0,-778.0,289.0
1449615953904878899,-874.0,-778.0,273.0
1449615953921418824,-874.0,-778.0,272.0
1449615953933742855,-876.0,-778.0,286.0
1449615953949945159,-876.0,-778.0,284.0
1449615953966336627,-878.0,-778.0,274.0
1449615953978689851,-878.0,-778.0,267.0
1449615953995214307,-878.0,-780.0,271.0
1449615954012087504,-880.0,-780.0,279.0
1449615954023807375,-880.0,-780.0,283.0
1449615954040125571,-882.0,-780.0,279.0
1449615954052405936,-882.0,-780.0,270.0
1449615954069038268,-882.0,-780.0,263.0
1449615954085287078,-884.0,-780.0,273.0
1449615954097471551,-884.0,-780.0,282.0
1449615954113908789,-884.0,-780.0,286.0
1449615954130464792,-886.0,-780.0,270.0
1449615954142443302,-886.0,-780.0,266.0
1449615954158875634,-886.0,-782.0,265.0
1449615954175340471,-888.0,-782.0,280.0
1449615954188069243,-888.0,-782.0,276.0
1449615954203917233,-888.0,-782.0,278.0
1449615954220829413,-888.0,-782.0,275.0
1449615954232546783,-890.0,-782.0,268.0
1449615954249104796,-890.0,-782.0,265.0
1449615954265564803,-890.0,-782.0,258.0
1449615954277621457,-890.0,-784.0,259.0
1449615954294102721,-892.0,-784.0,271.0
1449615954310381773,-892.0,-784.0,266.0
1449615954326078618,-892.0,-784.0,275.0
1449615954339095450,-892.0,-784.0,277.0
1449615954355604637,-892.0,-784.0,278.0
1449615954367761778,-892.0,-784.0,272.0
1449615954384228874,-894.0,-784.0,271.0
1449615954396925449,-894.0,-784.0,257.0
1449615954412890450,-894.0,-784.0,253.0
1449615954429304299,-894.0,-784.0,253.0
1449615954441623483,-894.0,-784.0,250.0
1449615954458102442,-894.0,-784.0,260.0
1449615954474261589,-894.0,-784.0,253.0
1449615954486563674,-894.0,-784.0,257.0
1449615954502957664,-894.0,-784.0,256.0
1449615954519436033,-894.0,-786.0,254.0
1449615954531748445,-894.0,-786.0,248.0
1449615954548148525,-894.0,-786.0,255.0
1449615954564540161,-894.0,-786.0,250.0
1449615954576599114,-894.0,-786.0,253.0
1449615954593234604,-894.0,-786.0,251.0
1449615954609444851,-894.0,-786.0,278.0
1449615954621912817,-894.0,-786.0,251.0
1449615954638087096,-894.0,-786.0,274.0
1449615954654696511,-894.0,-786.0,252.0
1449615954666824980,-894.0,-786.0,246.0
1449615954683173495,-894.0,-786.0,247.0
1449615954699587185,-894.0,-786.0,304.0
1449615954711969801,-894.0,-786.0,254.0
1449615954728338299,-894.0,-786.0,308.0
1449615954744592997,-894.0,-786.0,257.0
1449615954757004782,-894.0,-786.0,316.0
1449615954773356862,-894.0,-786.0,262.0
1449615954785605877,-894.0,-786.0,316.0
1449615954801975404,-892.0,-786.0,261.0
1449615954818662933,-892.0,-786.0,322.0
1449615954830732576,-892.0,-786.0,269.0
1449615954847166309,-892.0,-786.0,325.0
1449615954864237204,-892.0,-786.0,268.0
1449615954875696973,-892.0,-786.0,311.0
1449615954892262295,-892.0,-786.0,265.0
1449615954908721461,-892.0,-786.0,259.0
1449615954920912269,-890.0,-786.0,247.0
1449615954937148427,-890.0,-786.0,244.0
1449615954953824949,-890.0,-786.0,247.0
1449615954965908952,-890.0,-786.0,251.0
1449615954982324250,-890.0,-786.0,263.0
1449615954999263467,-890.0,-786.0,260.0
1449615955010867278,-888.0,-788.0,272.0
1449615955027322625,-888.0,-788.0,273.0
1449615955043993877,-888.0,-788.0,262.0
1449615955056399841,-888.0,-788.0,262.0
1449615955072366794,-888.0,-788.0,256.0
1449615955088737160,-886.0,-788.0,246.0
1449615955101038759,-886.0,-788.0,252.0
1449615955117513136,-886.0,-788.0,248.0
1449615955134005469,-886.0,-788.0,253.0
1449615955146104608,-886.0,-788.0,252.0
1449615955162752625,-884.0,-788.0,263.0
1449615955174892398,-884.0,-788.0,267.0
1449615955191440079,-884.0,-790.0,275.0
1449615955207516272,-884.0,-790.0,323.0
1449615955220160417,-884.0,-790.0,269.0
1449615955236231017,-884.0,-790.0,263.0
1449615955252612012,-884.0,-790.0,257.0
1449615955265007006,-882.0,-790.0,246.0
1449615955281344654,-882.0,-790.0,250.0
1449615955297653805,-882.0,-792.0,252.0
1449615955309935900,-882.0,-792.0,254.0
1449615955326510999,-882.0,-792.0,256.0
1449615955342705697,-882.0,-792.0,253.0
1449615955355189779,-882.0,-792.0,309.0
1449615955371552683,-880.0,-792.0,263.0
1449615955388020603,-880.0,-792.0,267.0
1449615955400411923,-880.0,-792.0,271.0
1449615955416531828,-880.0,-792.0,267.0
1449615955432888777,-880.0,-792.0,268.0
1449615955445255002,-880.0,-794.0,272.0
1449615955461785174,-880.0,-794.0,261.0
1449615955477872739,-880.0,-794.0,256.0
1449615955490192731,-880.0,-794.0,249.0
1449615955506546735,-880.0,-794.0,262.0
1449615955523039433,-880.0,-794.0,265.0
1449615955535573683,-880.0,-796.0,263.0
1449615955551782509,-880.0,-796.0,260.0
1449615955563952986,-880.0,-796.0,253.0
1449615955580339152,-878.0,-796.0,247.0
1449615955596719804,-878.0,-796.0,245.0
1449615955609022054,-878.0,-796.0,246.0
1449615955625378779,-878.0,-796.0,257.0
1449615955641829407,-878.0,-798.0,248.0
1449615955658589086,-878.0,-798.0,246.0
1449615955674526294,-878.0,-798.0,245.0
1449615955686836138,-878.0,-798.0,236.0
1449615955703228646,-878.0,-798.0,245.0
1449615955719839878,-878.0,-800.0,242.0
1449615955731885836,-878.0,-800.0,245.0
1449615955748255105,-878.0,-800.0,249.0
1449615955764761719,-878.0,-800.0,252.0
1449615955776932813,-878.0,-800.0,256.0
1449615955793486433,-878.0,-800.0,252.0
1449615955809737347,-878.0,-802.0,253.0
1449615955822092952,-878.0,-802.0,261.0
1449615955838482099,-878.0,-802.0,248.0
1449615955854861661,-878.0,-802.0,249.0
1449615955867179333,-878.0,-802.0,250.0
1449615955883485732,-876.0,-802.0,250.0
1449615955899903898,-876.0,-802.0,263.0
1449615955912494098,-876.0,-804.0,260.0
1449615955928577568,-876.0,-804.0,258.0
1449615955940878048,-876.0,-804.0,259.0
1449615955957346343,-876.0,-804.0,254.0
1449615955973713575,-876.0,-804.0,257.0
1449615955986105711,-876.0,-804.0,257.0
1449615956002342560,-876.0,-804.0,255.0
1449615956018686389,-876.0,-804.0,250.0
1449615956031005686,-876.0,-804.0,254.0
1449615956047477477,-876.0,-804.0,251.0
1449615956072154576,-876.0,-804.0,254.0
1449615956076142071,-876.0,-804.0,257.0
1449615956092450466,-876.0,-804.0,256.0
1449615956108762271,-876.0,-804.0,251.0
1449615956121172906,-876.0,-804.0,251.0
1449615956137783372,-876.0,-804.0,259.0
1449615956153948389,-876.0,-804.0,253.0
1449615956166184767,-876.0,-804.0,258.0
1449615956182771554,-876.0,-804.0,255.0
1449615956198935049,-876.0,-804.0,258.0
1449615956211157595,-876.0,-804.0,265.0
1449615956227601937,-876.0,-804.0,267.0
1449615956244065067,-876.0,-804.0,253.0
1449615956256699766,-876.0,-804.0,263.0
1449615956272833993,-876.0,-804.0,258.0
1449615956289392381,-876.0,-804.0,253.0
1449615956301230437,-876.0,-804.0,255.0
1449615956317664236,-876.0,-804.0,282.0
1449615956330000605,-876.0,-804.0,257.0
1449615956346401934,-876.0,-804.0,253.0
1449615956362701854,-876.0,-804.0,257.0
1449615956375082665,-876.0,-804.0,272.0
1449615956391855577,-878.0,-804.0,247.0
1449615956407818099,-878.0,-804.0,293.0
1449615956420212506,-878.0,-804.0,248.0
1449615956436518187,-878.0,-804.0,296.0
1449615956453123025,-878.0,-804.0,246.0
1449615956465386710,-878.0,-804.0,240.0
