%time,field.header.seq,field.header.stamp,field.header.frame_id,field.command.linear.x,field.command.linear.y,field.command.linear.z,field.command.angular.x,field.command.angular.y,field.command.angular.z,field.goal_source
1449615932451001744,7,1449615932450449203,base_footprint,0.0,0.0,0.0,0.0,0.0,0.0,teleoperation
1449615932484448575,8,1449615932483796590,base_footprint,0.0,0.0,0.0,0.0,0.0,0.0,teleoperation
1449615932517615276,9,1449615932517129989,base_footprint,0.0,0.0,0.0,0.0,0.0,0.0,teleoperation
1449615932551125972,10,1449615932550451001,base_footprint,-0.0,0.0,0.0,0.0,0.0,-0.0,teleoperation
1449615932584308661,11,1449615932583800518,base_footprint,-0.0,0.0,0.0,0.0,0.0,-0.0,teleoperation
1449615932617687116,12,1449615932617114029,base_footprint,-0.0,0.0,0.0,0.0,0.0,-0.0,teleoperation
1449615932651030791,13,1449615932650479057,base_footprint,-0.0,0.0,0.0,0.0,0.0,-0.0,teleoperation
1449615932684320336,14,1449615932683811683,base_footprint,-0.0,0.0,0.0,0.0,0.0,-0.0,teleoperation
1449615932717664609,15,1449615932717127635,base_footprint,-0.0,0.0,0.0,0.0,0.0,-0.0,teleoperation
1449615932751037613,16,1449615932750481578,base_footprint,-0.0,0.0,0.0,0.0,0.0,-0.0,teleoperation
1449615932784351945,17,1449615932783808035,base_footprint,-0.0,0.0,0.0,0.0,0.0,-0.0,teleoperation
1449615932817943000,18,1449615932817103882,base_footprint,-0.0,0.0,0.0,0.0,0.0,-0.0,teleoperation
1449615932850966714,19,1449615932850446473,base_footprint,-0.0,0.0,0.0,0.0,0.0,-0.0,teleoperation
1449615932884861117,20,1449615932883802106,base_footprint,-0.0,0.0,0.0,0.0,0.0,-0.0,teleoperation
1449615932917909544,21,1449615932917134668,base_footprint,-0.0,0.0,0.0,0.0,0.0,-0.0,teleoperation
1449615932951111348,22,1449615932950450110,base_footprint,-0.0,0.0,0.0,0.0,0.0,-0.0,teleoperation
1449615932984308046,23,1449615932983782834,base_footprint,-0.0,0.0,0.0,0.0,0.0,-0.0,teleoperation
1449615933017782325,24,1449615933017133123,base_footprint,-0.0,0.0,0.0,0.0,0.0,-0.0,teleoperation
1449615933051053288,25,1449615933050465238,base_footprint,-0.0,0.0,0.0,0.0,0.0,-0.0,teleoperation
1449615933084372646,26,1449615933083796256,base_footprint,-0.0,0.0,0.0,0.0,0.0,-0.0,teleoperation
1449615933117785521,27,1449615933117129484,base_footprint,-0.0,0.0,0.0,0.0,0.0,-0.0,teleoperation
1449615933150997637,28,1449615933150448823,base_footprint,-0.0,0.0,0.0,0.0,0.0,-0.0,teleoperation
1449615933184404676,29,1449615933183797171,base_footprint,-0.0,0.0,0.0,0.0,0.0,-0.0,teleoperation
1449615933217769509,30,1449615933217114936,base_footprint,-0.0,0.0,0.0,0.0,0.0,-0.0,teleoperation
1449615933251037397,31,1449615933250465346,base_footprint,-0.0,0.0,0.0,0.0,0.0,-0.0,teleoperation
1449615933284381918,32,1449615933283782815,base_footprint,-0.0,0.0,0.0,0.0,0.0,-0.0,teleoperation
1449615933317701049,33,1449615933317113769,base_footprint,-0.0,0.0,0.0,0.0,0.0,-0.0,teleoperation
1449615933351037786,34,1449615933350461310,base_footprint,-0.0,0.0,0.0,0.0,0.0,-0.0,teleoperation
1449615933384527056,35,1449615933383791176,base_footprint,-0.0,0.0,0.0,0.0,0.0,-0.0,teleoperation
1449615933417564657,36,1449615933417113723,base_footprint,-0.0,0.0,0.0,0.0,0.0,-0.0,teleoperation
1449615933451141072,37,1449615933450459062,base_footprint,-0.0,0.0,0.0,0.0,0.0,-0.0,teleoperation
1449615933484438365,38,1449615933483782118,base_footprint,-0.0,0.0,0.0,0.0,0.0,-0.0,teleoperation
1449615933517823154,39,1449615933517128853,base_footprint,-0.0,0.0,0.0,0.0,0.0,-0.0,teleoperation
1449615933550870570,40,1449615933550449279,base_footprint,-0.0,0.0,0.0,0.0,0.0,-0.0,teleoperation
1449615933584376983,41,1449615933583784514,base_footprint,-0.0,0.0,0.0,0.0,0.0,-0.0,teleoperation
1449615933617537330,42,1449615933617115884,base_footprint,-0.0,0.0,0.0,0.0,0.0,-0.0,teleoperation
1449615933651001863,43,1449615933650446159,base_footprint,-0.0,0.0,0.0,0.0,0.0,-0.0,teleoperation
1449615933684407909,44,1449615933683797416,base_footprint,-0.0,0.0,0.0,0.0,0.0,-0.0,teleoperation
1449615933717873018,45,1449615933717134037,base_footprint,-0.0,0.0,0.0,0.0,0.0,-0.0,teleoperation
1449615933750979182,46,1449615933750447124,base_footprint,-0.0,0.0,0.0,0.0,0.0,-0.0,teleoperation
1449615933784446282,47,1449615933783801379,base_footprint,-0.0,0.0,0.0,0.0,0.0,-0.0,teleoperation
1449615933817782285,48,1449615933817131037,base_footprint,-0.0,0.0,0.0,0.0,0.0,-0.0,teleoperation
1449615933851281511,49,1449615933850452906,base_footprint,-0.0,0.0,0.0,0.0,0.0,-0.0,teleoperation
1449615933884413202,50,1449615933883794650,base_footprint,-0.0,0.0,0.0,0.0,0.0,-0.0,teleoperation
1449615933917837012,51,1449615933917126589,base_footprint,-0.0,0.0,0.0,0.0,0.0,-0.0,teleoperation
1449615933951048409,52,1449615933950447794,base_footprint,-0.0,0.0,0.0,0.0,0.0,-0.0,teleoperation
1449615933984683773,53,1449615933983789107,base_footprint,-0.0,0.0,0.0,0.0,0.0,-0.0,teleoperation
1449615934017733633,54,1449615934017134179,base_footprint,-0.0,0.0,0.0,0.0,0.0,-0.0,teleoperation
1449615934051256042,55,1449615934050460001,base_footprint,-0.0,0.0,0.0,0.0,0.0,-0.0,teleoperation
1449615934084429423,56,1449615934083798154,base_footprint,-0.0,0.0,0.0,0.0,0.0,-0.0,teleoperation
1449615934117787094,57,1449615934117126828,base_footprint,-0.0,0.0,0.0,0.0,0.0,-0.0,teleoperation
1449615934151148917,58,1449615934150459725,base_footprint,-0.0,0.0,0.0,0.0,0.0,-0.0,teleoperation
1449615934184700929,59,1449615934183809936,base_footprint,-0.0,0.0,0.0,0.0,0.0,-0.0,teleoperation
1449615934217780190,60,1449615934217134994,base_footprint,-0.0,0.0,0.0,0.0,0.0,-0.0,teleoperation
1449615934251194553,61,1449615934250451349,base_footprint,-0.0,0.0,0.0,0.0,0.0,-0.0,teleoperation
1449615934284392727,62,1449615934283755231,base_footprint,-0.0,0.0,0.0,0.0,0.0,-0.0,teleoperation
1449615934317744628,63,1449615934317130334,base_footprint,-0.0,0.0,0.0,0.0,0.0,-0.0,teleoperation
1449615934351160424,64,1449615934350457375,base_footprint,-0.0,0.0,0.0,0.0,0.0,-0.0,teleoperation
1449615934384830302,65,1449615934383800222,base_footprint,-0.0,0.0,0.0,0.0,0.0,-0.0,teleoperation
1449615934417650804,66,1449615934417124803,base_footprint,-0.0,0.0,0.0,0.0,0.0,-0.0,teleoperation
1449615934451294935,67,1449615934450450271,base_footprint,-0.0,0.0,0.0,0.0,0.0,-0.0,teleoperation
1449615934484393147,68,1449615934483782009,base_footprint,-0.0,0.0,0.0,0.0,0.0,-0.0,teleoperation
1449615934517872419,69,1449615934517124181,base_footprint,-0.0,0.0,0.0,0.0,0.0,-0.0,teleoperation
1449615934551096412,70,1449615934550448548,base_footprint,-0.0,0.0,0.0,0.0,0.0,-0.0,teleoperation
1449615934584418365,71,1449615934583803454,base_footprint,-0.0,0.0,0.0,0.0,0.0,-0.0,teleoperation
1449615934617753809,72,1449615934617124540,base_footprint,-0.0,0.0,0.0,0.0,0.0,-0.0,teleoperation
1449615934651132342,73,1449615934650452015,base_footprint,-0.0,0.0,0.0,0.0,0.0,-0.0,teleoperation
1449615934684462802,74,1449615934683796914,base_footprint,-0.0,0.0,0.0,0.0,0.0,-0.0,teleoperation
1449615934717796350,75,1449615934717114952,base_footprint,-0.0,0.0,0.0,0.0,0.0,-0.0,teleoperation
1449615934751379398,76,1449615934750451703,base_footprint,-0.0,0.0,0.0,0.0,0.0,-0.0,teleoperation
1449615934784474920,77,1449615934783784705,base_footprint,-0.0,0.0,0.0,0.0,0.0,-0.0,teleoperation
1449615934817724679,78,1449615934817113708,base_footprint,-0.0,0.0,0.0,0.0,0.0,-0.0,teleoperation
1449615934851268126,79,1449615934850451222,base_footprint,-0.0,0.0,0.0,0.0,0.0,-0.0,teleoperation
1449615934884482268,80,1449615934883803209,base_footprint,-0.0,0.0,0.0,0.0,0.0,-0.0,teleoperation
1449615934918097493,81,1449615934917125959,base_footprint,-0.0,0.0,0.0,0.0,0.0,-0.0,teleoperation
1449615934951106867,82,1449615934950450492,base_footprint,-0.0,0.0,0.0,0.0,0.0,-0.0,teleoperation
1449615934984560253,83,1449615934983796052,base_footprint,-0.0,0.0,0.0,0.0,0.0,-0.0,teleoperation
1449615935017822730,84,1449615935017115088,base_footprint,-0.0,0.0,0.0,0.0,0.0,-0.0,teleoperation
1449615935051281644,85,1449615935050461266,base_footprint,-0.0,0.0,0.0,0.0,0.0,-0.0,teleoperation
1449615935084493459,86,1449615935083799080,base_footprint,-0.0,0.0,0.0,0.0,0.0,-0.0,teleoperation
1449615935118246495,87,1449615935117118276,base_footprint,-0.0,0.0,0.0,0.0,0.0,-0.0,teleoperation
1449615935151111835,88,1449615935150459381,base_footprint,-0.0,0.0,0.0,0.0,0.0,-0.0,teleoperation
1449615935184596913,89,1449615935183786142,base_footprint,-0.0,0.0,0.0,0.0,0.0,-0.0,teleoperation
1449615935217774693,90,1449615935217126689,base_footprint,-0.0,0.0,0.0,0.0,0.0,-0.0,teleoperation
1449615935251203137,91,1449615935250450058,base_footprint,-0.0,0.0,0.0,0.0,0.0,-0.0,teleoperation
1449615935284886284,92,1449615935283783714,base_footprint,-0.0,0.0,0.0,0.0,0.0,-0.0,teleoperation
1449615935318010748,93,1449615935317128897,base_footprint,-0.0,0.0,0.0,0.0,0.0,-0.0,teleoperation
1449615935351120258,94,1449615935350461613,base_footprint,-0.0,0.0,0.0,0.0,0.0,-0.0,teleoperation
1449615935384709328,95,1449615935383787592,base_footprint,-0.0,0.0,0.0,0.0,0.0,-0.0,teleoperation
1449615935417776439,96,1449615935417127242,base_footprint,-0.0,0.0,0.0,0.0,0.0,-0.0,teleoperation
1449615935451326767,97,1449615935450461169,base_footprint,-0.0,0.0,0.0,0.0,0.0,-0.0,teleoperation
1449615935484896649,98,1449615935483810911,base_footprint,-0.0,0.0,0.0,0.0,0.0,-0.0,teleoperation
1449615935518120976,99,1449615935517123456,base_footprint,-0.0,0.0,0.0,0.0,0.0,-0.0,teleoperation
1449615935552027508,100,1449615935550484120,base_footprint,-0.0,0.0,0.0,0.0,0.0,-0.0,teleoperation
1449615935584828114,101,1449615935583792590,base_footprint,-0.0,0.0,0.0,0.0,0.0,-0.0,teleoperation
1449615935617817350,102,1449615935617129230,base_footprint,-0.0,0.0,0.0,0.0,0.0,-0.0,teleoperation
1449615935651066083,103,1449615935650452256,base_footprint,-0.0,0.0,0.0,0.0,0.0,-0.0,teleoperation
1449615935684773819,104,1449615935683787439,base_footprint,-0.0,0.0,0.0,0.0,0.0,-0.0,teleoperation
1449615935718992896,105,1449615935717129087,base_footprint,-0.0,0.0,0.0,0.0,0.0,-0.0,teleoperation
1449615935752556350,106,1449615935750509861,base_footprint,-0.0,0.0,0.0,0.0,0.0,-0.0,teleoperation
1449615935788152240,107,1449615935783861453,base_footprint,-0.0,0.0,0.0,0.0,0.0,-0.0,teleoperation
1449615935820336034,108,1449615935817142149,base_footprint,-0.0,0.0,0.0,0.0,0.0,-0.0,teleoperation
1449615935853394503,109,1449615935850464106,base_footprint,-0.0,0.0,0.0,0.0,0.0,-0.0,teleoperation
1449615935889890808,110,1449615935883802082,base_footprint,-0.0,0.0,0.0,0.0,0.0,-0.0,teleoperation
1449615935919470660,111,1449615935917125998,base_footprint,-0.0,0.0,0.0,0.0,0.0,-0.0,teleoperation
1449615935953670216,112,1449615935950490724,base_footprint,-0.0,0.0,0.0,0.0,0.0,-0.0,teleoperation
1449615935987967657,113,1449615935984737677,base_footprint,-0.0,0.0,0.0,0.0,0.0,-0.0,teleoperation
1449615936019596524,114,1449615936017129237,base_footprint,-0.0,0.0,0.0,0.0,0.0,-0.0,teleoperation
1449615936056161832,115,1449615936051179424,base_footprint,-0.0,0.0,0.0,0.0,0.0,-0.0,teleoperation
1449615936086746822,116,1449615936083812706,base_footprint,-0.0,0.0,0.0,0.0,0.0,-0.0,teleoperation
1449615936125206898,117,1449615936117136380,base_footprint,-0.0,0.0,0.0,0.0,0.0,-0.0,teleoperation
1449615936152740580,118,1449615936150457314,base_footprint,-0.0,0.0,0.0,0.0,0.0,-0.0,teleoperation
1449615936187220632,119,1449615936183790559,base_footprint,-0.0,0.0,0.0,0.0,0.0,-0.0,teleoperation
1449615936220379218,120,1449615936217131308,base_footprint,-0.0,0.0,0.0,0.0,0.0,-0.0,teleoperation
1449615936254789595,121,1449615936251298616,base_footprint,-0.0,0.0,0.0,0.0,0.0,-0.0,teleoperation
1449615936304374677,122,1449615936283786885,base_footprint,-0.0,0.0,0.0,0.0,0.0,-0.0,teleoperation
1449615936344453650,123,1449615936317129920,base_footprint,-0.0,0.0,0.0,0.0,0.0,-0.0,teleoperation
1449615936383786989,124,1449615936350455482,base_footprint,-0.0,0.0,0.0,0.0,0.0,-0.0,teleoperation
1449615936424317151,125,1449615936383789835,base_footprint,-0.0,0.0,0.0,0.0,0.0,-0.0,teleoperation
1449615936466320485,126,1449615936423994831,base_footprint,-0.0,0.0,0.0,0.0,0.0,-0.0,teleoperation
1449615936505903391,127,1449615936464545186,base_footprint,-0.0,0.0,0.0,0.0,0.0,-0.0,teleoperation
1449615936543827930,128,1449615936504511577,base_footprint,-0.0,0.0,0.0,0.0,0.0,-0.0,teleoperation
1449615936584047728,129,1449615936543566068,base_footprint,-0.0,0.0,0.0,0.0,0.0,-0.0,teleoperation
1449615936624463416,130,1449615936583836291,base_footprint,-0.0,0.0,0.0,0.0,0.0,-0.0,teleoperation
1449615936663555330,131,1449615936623862607,base_footprint,-0.0,0.0,0.0,0.0,0.0,-0.0,teleoperation
1449615936707341020,132,1449615936663432646,base_footprint,-0.0,0.0,0.0,0.0,0.0,-0.0,teleoperation
1449615936744335530,133,1449615936705004871,base_footprint,-0.0,0.0,0.0,0.0,0.0,-0.0,teleoperation
1449615936784660805,134,1449615936743813205,base_footprint,-0.0,0.0,0.0,0.0,0.0,-0.0,teleoperation
1449615936824060495,135,1449615936784133162,base_footprint,-0.0,0.0,0.0,0.0,0.0,-0.0,teleoperation
1449615936864148752,136,1449615936823772623,base_footprint,-0.0,0.0,0.0,0.0,0.0,-0.0,teleoperation
1449615936904371883,137,1449615936863596858,base_footprint,-0.0,0.0,0.0,0.0,0.0,-0.0,teleoperation
1449615936944080603,138,1449615936903581155,base_footprint,-0.0,0.0,0.0,0.0,0.0,-0.0,teleoperation
1449615936984782335,139,1449615936943805812,base_footprint,-0.0,0.0,0.0,0.0,0.0,-0.0,teleoperation
1449615937024036510,140,1449615936984071683,base_footprint,-0.0,0.0,0.0,0.0,0.0,-0.0,teleoperation
1449615937065187277,141,1449615937023519762,base_footprint,-0.0,0.0,0.0,0.0,0.0,-0.0,teleoperation
1449615937104213657,142,1449615937064131037,base_footprint,-0.0,0.0,0.0,0.0,0.0,-0.0,teleoperation
1449615937143884424,143,1449615937103750757,base_footprint,-0.0,0.0,0.0,0.0,0.0,-0.0,teleoperation
1449615937184145645,144,1449615937143566565,base_footprint,-0.0,0.0,0.0,0.0,0.0,-0.0,teleoperation
1449615937224498328,145,1449615937183852148,base_footprint,-0.0,0.0,0.0,0.0,0.0,-0.0,teleoperation
1449615937265490467,146,1449615937223860953,base_footprint,-0.0,0.0,0.0,0.0,0.0,-0.0,teleoperation
1449615937306443898,147,1449615937264658240,base_footprint,-0.0,0.0,0.0,0.0,0.0,-0.0,teleoperation
1449615937345677733,148,1449615937305309818,base_footprint,-0.0,0.0,0.0,0.0,0.0,-0.0,teleoperation
1449615937383842135,149,1449615937344508366,base_footprint,-0.0,0.0,0.0,0.0,0.0,-0.0,teleoperation
1449615937423755795,150,1449615937383488962,base_footprint,-0.0,0.0,0.0,0.0,0.0,-0.0,teleoperation
1449615937464466209,151,1449615937423687309,base_footprint,-0.0,0.0,0.0,0.0,0.0,-0.0,teleoperation
1449615937505393341,152,1449615937464297544,base_footprint,-0.0,0.0,0.0,0.0,0.0,-0.0,teleoperation
1449615937543833877,153,1449615937504679584,base_footprint,-0.0,0.0,0.0,0.0,0.0,-0.0,teleoperation
1449615937584032425,154,1449615937543481469,base_footprint,-0.0,0.0,0.0,0.0,0.0,-0.0,teleoperation
1449615937624860441,155,1449615937583648792,base_footprint,-0.0,0.0,0.0,0.0,0.0,-0.0,teleoperation
1449615937666266675,156,1449615937624102330,base_footprint,-0.0,0.0,0.0,0.0,0.0,-0.0,teleoperation
1449615937703957761,157,1449615937664045456,base_footprint,-0.0,0.0,0.0,0.0,0.0,-0.0,teleoperation
1449615937744441423,158,1449615937703527360,base_footprint,-0.0,0.0,0.0,0.0,0.0,-0.0,teleoperation
1449615937783446270,159,1449615937743687578,base_footprint,-0.0,0.0,0.0,0.0,0.0,-0.0,teleoperation
1449615937826732110,160,1449615937783352670,base_footprint,-0.0,0.0,0.0,0.0,0.0,-0.0,teleoperation
1449615937864174965,161,1449615937823702828,base_footprint,-0.0,0.0,0.0,0.0,0.0,-0.0,teleoperation
1449615937903749515,162,1449615937863985316,base_footprint,-0.0,0.0,0.0,0.0,0.0,-0.0,teleoperation
1449615937944308143,163,1449615937903491961,base_footprint,-0.0,0.0,0.0,0.0,0.0,-0.0,teleoperation
1449615937984718142,164,1449615937943854059,base_footprint,-0.0,0.0,0.0,0.0,0.0,-0.0,teleoperation
1449615938024720823,165,1449615937984142625,base_footprint,-0.0,0.0,0.0,0.0,0.0,-0.0,teleoperation
1449615938065812906,166,1449615938024044059,base_footprint,-0.0,0.0,0.0,0.0,0.0,-0.0,teleoperation
1449615938104252714,167,1449615938065129940,base_footprint,-0.0,0.0,0.0,0.0,0.0,-0.0,teleoperation
1449615938145059010,168,1449615938103663607,base_footprint,-0.0,0.0,0.0,0.0,0.0,-0.0,teleoperation
1449615938184268385,169,1449615938144136950,base_footprint,-0.0,0.0,0.0,0.0,0.0,-0.0,teleoperation
1449615938225501102,170,1449615938183890810,base_footprint,-0.0,0.0,0.0,0.0,0.0,-0.0,teleoperation
1449615938266689732,171,1449615938224280445,base_footprint,-0.0,0.0,0.0,0.0,0.0,-0.0,teleoperation
1449615938303856021,172,1449615938266296731,base_footprint,-0.0,0.0,0.0,0.0,0.0,-0.0,teleoperation
1449615938346368855,173,1449615938303786626,base_footprint,-0.0,0.0,0.0,0.0,0.0,-0.0,teleoperation
1449615938383836054,174,1449615938343979353,base_footprint,-0.0,0.0,0.0,0.0,0.0,-0.0,teleoperation
1449615938424019225,175,1449615938383643992,base_footprint,-0.0,0.0,0.0,0.0,0.0,-0.0,teleoperation
1449615938464266864,176,1449615938423748284,base_footprint,-0.0,0.0,0.0,0.0,0.0,-0.0,teleoperation
1449615938503596184,177,1449615938464004181,base_footprint,-0.0,0.0,0.0,0.0,0.0,-0.0,teleoperation
1449615938544159344,178,1449615938503454778,base_footprint,-0.0,0.0,0.0,0.0,0.0,-0.0,teleoperation
1449615938586332561,179,1449615938543874802,base_footprint,-0.0,0.0,0.0,0.0,0.0,-0.0,teleoperation
1449615938624600206,180,1449615938584284270,base_footprint,-0.0,0.0,0.0,0.0,0.0,-0.0,teleoperation
1449615938665552487,181,1449615938623661256,base_footprint,-0.0,0.0,0.0,0.0,0.0,-0.0,teleoperation
1449615938704022145,182,1449615938664365547,base_footprint,-0.0,0.0,0.0,0.0,0.0,-0.0,teleoperation
1449615938743658130,183,1449615938703779925,base_footprint,-0.0,0.0,0.0,0.0,0.0,-0.0,teleoperation
1449615938784694014,184,1449615938743427127,base_footprint,0.00558730190992,0.0,0.0,0.0,0.0,0.0,teleoperation
1449615938825411450,185,1449615938783896802,base_footprint,0.00558730190992,0.0,0.0,0.0,0.0,0.0,teleoperation
1449615938863881899,186,1449615938823755160,base_footprint,0.0111746038198,0.0,0.0,0.0,0.0,0.0,teleoperation
1449615938904131210,187,1449615938863608064,base_footprint,0.0111746038198,0.0,0.0,0.0,0.0,0.0,teleoperation
1449615938945264786,188,1449615938903939182,base_footprint,0.0111746038198,0.0,0.0,0.0,0.0,0.0,teleoperation
1449615938986173240,189,1449615938943858622,base_footprint,0.00558730190992,0.0,0.0,0.0,0.0,0.0,teleoperation
1449615939025752465,190,1449615938984762011,base_footprint,0.00558730190992,0.0,0.0,0.0,0.0,0.0,teleoperation
1449615939064329343,191,1449615939024488832,base_footprint,0.0111746038198,0.0,0.0,0.0,0.0,0.0,teleoperation
1449615939107869671,192,1449615939063975550,base_footprint,0.0111746038198,0.0,0.0,0.0,0.0,0.0,teleoperation
1449615939143674922,193,1449615939105956779,base_footprint,0.0111746038198,0.0,0.0,0.0,0.0,0.0,teleoperation
1449615939183732240,194,1449615939143423146,base_footprint,0.00558730190992,0.0,0.0,0.0,0.0,0.0,teleoperation
1449615939226172107,195,1449615939183483619,base_footprint,0.00558730190992,0.0,0.0,0.0,0.0,0.0,teleoperation
1449615939264360009,196,1449615939225993247,base_footprint,0.00558730190992,0.0,0.0,0.0,0.0,0.0,teleoperation
1449615939303696681,197,1449615939264000613,base_footprint,0.00558730190992,0.0,0.0,0.0,0.0,0.0,teleoperation
1449615939344106181,198,1449615939303628821,base_footprint,0.00558730190992,0.0,0.0,0.0,0.0,0.0,teleoperation
1449615939385420697,199,1449615939344014894,base_footprint,0.0167619050741,0.0,0.0,0.0,0.0,0.0,teleoperation
1449615939423663926,200,1449615939384244693,base_footprint,0.0167619050741,0.0,0.0,0.0,0.0,0.0,teleoperation
1449615939464103988,201,1449615939423448266,base_footprint,0.128507939339,0.0,0.0,0.0,0.0,0.0,teleoperation
1449615939504402062,202,1449615939463540652,base_footprint,0.128507939339,0.0,0.0,0.0,0.0,0.0,teleoperation
1449615939543870458,203,1449615939504037641,base_footprint,0.128507939339,0.0,0.0,0.0,0.0,0.0,teleoperation
1449615939584493445,204,1449615939543771574,base_footprint,0.268190481186,0.0,0.0,0.0,0.0,0.0,teleoperation
1449615939625271294,205,1449615939583883637,base_footprint,0.268190481186,0.0,0.0,0.0,0.0,0.0,teleoperation
1449615939664472581,206,1449615939623837347,base_footprint,0.346412698746,0.0,0.0,0.0,0.0,0.0,teleoperation
1449615939703893520,207,1449615939663959116,base_footprint,0.346412698746,0.0,0.0,0.0,0.0,0.0,teleoperation
1449615939744719878,208,1449615939703706229,base_footprint,0.346412698746,0.0,0.0,0.0,0.0,0.0,teleoperation
1449615939783883348,209,1449615939744025378,base_footprint,0.346412698746,0.0,0.0,0.0,0.0,0.0,teleoperation
1449615939824313892,210,1449615939783463857,base_footprint,0.346412698746,0.0,0.0,0.0,0.0,0.0,teleoperation
1449615939864127950,211,1449615939823984911,base_footprint,0.346412698746,0.0,0.0,0.0,0.0,0.0,teleoperation
1449615939904711237,212,1449615939863877898,base_footprint,0.346412698746,0.0,0.0,0.0,0.0,0.0,teleoperation
1449615939944206386,213,1449615939904098411,base_footprint,0.346412698746,0.0,0.0,0.0,0.0,0.0,teleoperation
1449615939985129123,214,1449615939943893854,base_footprint,0.346412698746,0.0,0.0,0.0,0.0,0.0,teleoperation
1449615940024886072,215,1449615939984198726,base_footprint,0.346412698746,0.0,0.0,0.0,0.0,0.0,teleoperation
1449615940064575729,216,1449615940024167291,base_footprint,0.346412698746,0.0,0.0,0.0,0.0,0.0,teleoperation
1449615940103649944,217,1449615940063968902,base_footprint,0.346412698746,0.0,0.0,0.0,0.0,0.0,teleoperation
1449615940144261683,218,1449615940103371952,base_footprint,0.346412698746,0.0,0.0,0.0,0.0,0.0,teleoperation
1449615940183735289,219,1449615940143877980,base_footprint,0.346412698746,0.0,0.0,0.0,0.0,0.00634920671582,teleoperation
1449615940223674907,220,1449615940183598946,base_footprint,0.346412698746,0.0,0.0,0.0,0.0,0.00634920671582,teleoperation
1449615940264014000,221,1449615940223402106,base_footprint,0.346412698746,0.0,0.0,0.0,0.0,0.00634920671582,teleoperation
1449615940303859499,222,1449615940263809524,base_footprint,0.346412698746,0.0,0.0,0.0,0.0,0.00634920671582,teleoperation
1449615940343951307,223,1449615940303587532,base_footprint,0.346412698746,0.0,0.0,0.0,0.0,0.00634920671582,teleoperation
1449615940384207647,224,1449615940343649034,base_footprint,0.346412698746,0.0,0.0,0.0,0.0,0.0,teleoperation
1449615940423801946,225,1449615940383808133,base_footprint,0.346412698746,0.0,0.0,0.0,0.0,0.0,teleoperation
1449615940464040227,226,1449615940423571230,base_footprint,0.346412698746,0.0,0.0,0.0,0.0,0.00634920671582,teleoperation
1449615940504468826,227,1449615940463769173,base_footprint,0.346412698746,0.0,0.0,0.0,0.0,0.00634920671582,teleoperation
1449615940544324308,228,1449615940504187422,base_footprint,0.346412698746,0.0,0.0,0.0,0.0,0.00634920671582,teleoperation
1449615940584941638,229,1449615940543607388,base_footprint,0.346412698746,0.0,0.0,0.0,0.0,0.0126984134316,teleoperation
1449615940624247854,230,1449615940584218752,base_footprint,0.346412698746,0.0,0.0,0.0,0.0,0.0126984134316,teleoperation
1449615940665019703,231,1449615940624033536,base_footprint,0.346412698746,0.0,0.0,0.0,0.0,0.0126984134316,teleoperation
1449615940703535777,232,1449615940664121801,base_footprint,0.346412698746,0.0,0.0,0.0,0.0,0.0126984134316,teleoperation
1449615940744248686,233,1449615940703423716,base_footprint,0.346412698746,0.0,0.0,0.0,0.0,0.0126984134316,teleoperation
1449615940783868062,234,1449615940743644260,base_footprint,0.340825397491,0.0,0.0,0.0,0.0,0.0190476194024,teleoperation
1449615940825665841,235,1449615940783742333,base_footprint,0.340825397491,0.0,0.0,0.0,0.0,0.0190476194024,teleoperation
1449615940864775267,236,1449615940824201015,base_footprint,0.335238096237,0.0,0.0,0.0,0.0,0.0761904776096,teleoperation
1449615940904065701,237,1449615940864269263,base_footprint,0.335238096237,0.0,0.0,0.0,0.0,0.0761904776096,teleoperation
1449615940946415387,238,1449615940903670120,base_footprint,0.335238096237,0.0,0.0,0.0,0.0,0.0761904776096,teleoperation
1449615940984006170,239,1449615940945499605,base_footprint,0.301714288712,0.0,0.0,0.0,0.0,0.342857146263,teleoperation
1449615941024295916,240,1449615940983596315,base_footprint,0.301714288712,0.0,0.0,0.0,0.0,0.342857146263,teleoperation
1449615941064151022,241,1449615941024003993,base_footprint,0.296126987457,0.0,0.0,0.0,0.0,0.342857146263,teleoperation
1449615941104581623,242,1449615941063845855,base_footprint,0.296126987457,0.0,0.0,0.0,0.0,0.342857146263,teleoperation
1449615941144451582,243,1449615941103698824,base_footprint,0.296126987457,0.0,0.0,0.0,0.0,0.342857146263,teleoperation
1449615941184199414,244,1449615941143973869,base_footprint,0.301714288712,0.0,0.0,0.0,0.0,0.336507940292,teleoperation
1449615941225187087,245,1449615941183683160,base_footprint,0.301714288712,0.0,0.0,0.0,0.0,0.336507940292,teleoperation
1449615941264599124,246,1449615941224942702,base_footprint,0.262603179932,0.0,0.0,0.0,0.0,0.298412704468,teleoperation
1449615941304098087,247,1449615941263592436,base_footprint,0.262603179932,0.0,0.0,0.0,0.0,0.298412704468,teleoperation
1449615941346562551,248,1449615941303745956,base_footprint,0.262603179932,0.0,0.0,0.0,0.0,0.298412704468,teleoperation
1449615941383964787,249,1449615941344590399,base_footprint,0.301714288712,0.0,0.0,0.0,0.0,0.342857146263,teleoperation
1449615941424142762,250,1449615941383693725,base_footprint,0.301714288712,0.0,0.0,0.0,0.0,0.342857146263,teleoperation
1449615941465163454,251,1449615941423646750,base_footprint,0.301714288712,0.0,0.0,0.0,0.0,0.342857146263,teleoperation
1449615941504126620,252,1449615941464642452,base_footprint,0.301714288712,0.0,0.0,0.0,0.0,0.342857146263,teleoperation
1449615941544606176,253,1449615941503701700,base_footprint,0.301714288712,0.0,0.0,0.0,0.0,0.342857146263,teleoperation
1449615941585751428,254,1449615941543979527,base_footprint,0.301714288712,0.0,0.0,0.0,0.0,0.336507940292,teleoperation
1449615941624639965,255,1449615941584804568,base_footprint,0.301714288712,0.0,0.0,0.0,0.0,0.336507940292,teleoperation
1449615941664271772,256,1449615941623623451,base_footprint,0.301714288712,0.0,0.0,0.0,0.0,0.342857146263,teleoperation
1449615941705395037,257,1449615941663602691,base_footprint,0.301714288712,0.0,0.0,0.0,0.0,0.342857146263,teleoperation
1449615941744402626,258,1449615941704573576,base_footprint,0.301714288712,0.0,0.0,0.0,0.0,0.342857146263,teleoperation
1449615941783628717,259,1449615941743977400,base_footprint,0.301714288712,0.0,0.0,0.0,0.0,0.342857146263,teleoperation
1449615941825700181,260,1449615941783479037,base_footprint,0.301714288712,0.0,0.0,0.0,0.0,0.342857146263,teleoperation
1449615941864868553,261,1449615941824897713,base_footprint,0.346412698746,0.0,0.0,0.0,0.0,0.00634920671582,teleoperation
1449615941904079729,262,1449615941864147288,base_footprint,0.346412698746,0.0,0.0,0.0,0.0,0.00634920671582,teleoperation
1449615941945133844,263,1449615941903891876,base_footprint,0.346412698746,0.0,0.0,0.0,0.0,0.00634920671582,teleoperation
1449615941984132777,264,1449615941944774510,base_footprint,0.346412698746,0.0,0.0,0.0,0.0,0.0,teleoperation
1449615942023877540,265,1449615941983645839,base_footprint,0.346412698746,0.0,0.0,0.0,0.0,0.0,teleoperation
1449615942064217753,266,1449615942023454773,base_footprint,0.346412698746,0.0,0.0,0.0,0.0,-0.00634920671582,teleoperation
1449615942107506175,267,1449615942063784150,base_footprint,0.346412698746,0.0,0.0,0.0,0.0,-0.00634920671582,teleoperation
1449615942144001015,268,1449615942104875380,base_footprint,0.346412698746,0.0,0.0,0.0,0.0,-0.00634920671582,teleoperation
1449615942183826637,269,1449615942143776197,base_footprint,0.340825397491,0.0,0.0,0.0,0.0,-0.0317460328341,teleoperation
1449615942224773121,270,1449615942183749284,base_footprint,0.340825397491,0.0,0.0,0.0,0.0,-0.0317460328341,teleoperation
1449615942263853267,271,1449615942224175285,base_footprint,0.251428577423,0.0,0.0,0.0,0.0,-0.279365086555,teleoperation
1449615942305075720,272,1449615942263680188,base_footprint,0.251428577423,0.0,0.0,0.0,0.0,-0.279365086555,teleoperation
1449615942345335620,273,1449615942304805625,base_footprint,0.251428577423,0.0,0.0,0.0,0.0,-0.279365086555,teleoperation
1449615942386942830,274,1449615942344433853,base_footprint,0.296126987457,0.0,0.0,0.0,0.0,-0.342857146263,teleoperation
1449615942424342596,275,1449615942384915239,base_footprint,0.296126987457,0.0,0.0,0.0,0.0,-0.342857146263,teleoperation
1449615942463689288,276,1449615942423845742,base_footprint,0.301714288712,0.0,0.0,0.0,0.0,-0.342857146263,teleoperation
1449615942504007002,277,1449615942463560502,base_footprint,0.301714288712,0.0,0.0,0.0,0.0,-0.342857146263,teleoperation
1449615942544159489,278,1449615942503678553,base_footprint,0.301714288712,0.0,0.0,0.0,0.0,-0.342857146263,teleoperation
1449615942584035650,279,1449615942543785839,base_footprint,0.245841276169,0.0,0.0,0.0,0.0,-0.285714292526,teleoperation
1449615942624801817,280,1449615942583881827,base_footprint,0.245841276169,0.0,0.0,0.0,0.0,-0.285714292526,teleoperation
1449615942667637815,281,1449615942624445724,base_footprint,0.296126987457,0.0,0.0,0.0,0.0,-0.342857146263,teleoperation
1449615942704253943,282,1449615942665301849,base_footprint,0.296126987457,0.0,0.0,0.0,0.0,-0.342857146263,teleoperation
1449615942743869378,283,1449615942703691166,base_footprint,0.296126987457,0.0,0.0,0.0,0.0,-0.342857146263,teleoperation
1449615942784624403,284,1449615942743701126,base_footprint,0.296126987457,0.0,0.0,0.0,0.0,-0.336507940292,teleoperation
1449615942825175755,285,1449615942784115743,base_footprint,0.296126987457,0.0,0.0,0.0,0.0,-0.336507940292,teleoperation
1449615942866696266,286,1449615942824782170,base_footprint,0.296126987457,0.0,0.0,0.0,0.0,-0.336507940292,teleoperation
1449615942907343318,287,1449615942864057862,base_footprint,0.296126987457,0.0,0.0,0.0,0.0,-0.336507940292,teleoperation
1449615942943673962,288,1449615942905278081,base_footprint,0.296126987457,0.0,0.0,0.0,0.0,-0.336507940292,teleoperation
1449615942985706973,289,1449615942943464127,base_footprint,0.301714288712,0.0,0.0,0.0,0.0,-0.336507940292,teleoperation
1449615943025529765,290,1449615942983469208,base_footprint,0.301714288712,0.0,0.0,0.0,0.0,-0.336507940292,teleoperation
1449615943064175901,291,1449615943023384367,base_footprint,0.301714288712,0.0,0.0,0.0,0.0,-0.336507940292,teleoperation
1449615943108828457,292,1449615943063752884,base_footprint,0.301714288712,0.0,0.0,0.0,0.0,-0.336507940292,teleoperation
1449615943147073244,293,1449615943105102401,base_footprint,0.301714288712,0.0,0.0,0.0,0.0,-0.336507940292,teleoperation
1449615943185650021,294,1449615943144206094,base_footprint,0.296126987457,0.0,0.0,0.0,0.0,-0.342857146263,teleoperation
1449615943229975190,295,1449615943183492845,base_footprint,0.296126987457,0.0,0.0,0.0,0.0,-0.342857146263,teleoperation
1449615943266104883,296,1449615943224215275,base_footprint,0.301714288712,0.0,0.0,0.0,0.0,-0.336507940292,teleoperation
1449615943304548997,297,1449615943263778771,base_footprint,0.301714288712,0.0,0.0,0.0,0.0,-0.336507940292,teleoperation
1449615943344809443,298,1449615943304143118,base_footprint,0.301714288712,0.0,0.0,0.0,0.0,-0.336507940292,teleoperation
1449615943384794925,299,1449615943343573266,base_footprint,0.296126987457,0.0,0.0,0.0,0.0,-0.342857146263,teleoperation
1449615943423882064,300,1449615943384189193,base_footprint,0.296126987457,0.0,0.0,0.0,0.0,-0.342857146263,teleoperation
1449615943464743425,301,1449615943423671552,base_footprint,0.296126987457,0.0,0.0,0.0,0.0,-0.336507940292,teleoperation
1449615943504795547,302,1449615943464106164,base_footprint,0.296126987457,0.0,0.0,0.0,0.0,-0.336507940292,teleoperation
1449615943544030647,303,1449615943503953925,base_footprint,0.296126987457,0.0,0.0,0.0,0.0,-0.336507940292,teleoperation
1449615943584373078,304,1449615943543665522,base_footprint,0.296126987457,0.0,0.0,0.0,0.0,-0.336507940292,teleoperation
1449615943624403737,305,1449615943584073228,base_footprint,0.296126987457,0.0,0.0,0.0,0.0,-0.336507940292,teleoperation
1449615943666987856,306,1449615943623750417,base_footprint,0.296126987457,0.0,0.0,0.0,0.0,-0.336507940292,teleoperation
1449615943704078743,307,1449615943664652535,base_footprint,0.296126987457,0.0,0.0,0.0,0.0,-0.336507940292,teleoperation
1449615943744376011,308,1449615943703610204,base_footprint,0.296126987457,0.0,0.0,0.0,0.0,-0.336507940292,teleoperation
1449615943789092921,309,1449615943743694886,base_footprint,0.301714288712,0.0,0.0,0.0,0.0,-0.342857146263,teleoperation
1449615943824528225,310,1449615943786166334,base_footprint,0.301714288712,0.0,0.0,0.0,0.0,-0.342857146263,teleoperation
1449615943865013981,311,1449615943823753932,base_footprint,0.27377778244,0.0,0.0,0.0,0.0,-0.304761910439,teleoperation
1449615943907119861,312,1449615943864309627,base_footprint,0.27377778244,0.0,0.0,0.0,0.0,-0.304761910439,teleoperation
1449615943947386276,313,1449615943905356630,base_footprint,0.27377778244,0.0,0.0,0.0,0.0,-0.304761910439,teleoperation
1449615943985022872,314,1449615943944396704,base_footprint,0.301714288712,0.0,0.0,0.0,0.0,-0.342857146263,teleoperation
1449615944024096215,315,1449615943983407784,base_footprint,0.301714288712,0.0,0.0,0.0,0.0,-0.342857146263,teleoperation
1449615944065432294,316,1449615944023652153,base_footprint,0.301714288712,0.0,0.0,0.0,0.0,-0.342857146263,teleoperation
1449615944104381820,317,1449615944064665385,base_footprint,0.301714288712,0.0,0.0,0.0,0.0,-0.342857146263,teleoperation
1449615944144213449,318,1449615944103841797,base_footprint,0.301714288712,0.0,0.0,0.0,0.0,-0.342857146263,teleoperation
1449615944183717451,319,1449615944143849439,base_footprint,0.296126987457,0.0,0.0,0.0,0.0,-0.336507940292,teleoperation
1449615944225080901,320,1449615944183531427,base_footprint,0.296126987457,0.0,0.0,0.0,0.0,-0.336507940292,teleoperation
1449615944269897038,321,1449615944224213317,base_footprint,0.301714288712,0.0,0.0,0.0,0.0,-0.342857146263,teleoperation
1449615944304233363,322,1449615944263653616,base_footprint,0.301714288712,0.0,0.0,0.0,0.0,-0.342857146263,teleoperation
1449615944344517878,323,1449615944303690344,base_footprint,0.301714288712,0.0,0.0,0.0,0.0,-0.342857146263,teleoperation
1449615944385645805,324,1449615944343642986,base_footprint,0.296126987457,0.0,0.0,0.0,0.0,-0.336507940292,teleoperation
1449615944424399524,325,1449615944384563087,base_footprint,0.296126987457,0.0,0.0,0.0,0.0,-0.336507940292,teleoperation
1449615944464740245,326,1449615944423963572,base_footprint,0.296126987457,0.0,0.0,0.0,0.0,-0.336507940292,teleoperation
1449615944504851207,327,1449615944464076943,base_footprint,0.296126987457,0.0,0.0,0.0,0.0,-0.336507940292,teleoperation
1449615944544911022,328,1449615944503691353,base_footprint,0.296126987457,0.0,0.0,0.0,0.0,-0.336507940292,teleoperation
1449615944583859150,329,1449615944543774727,base_footprint,0.301714288712,0.0,0.0,0.0,0.0,-0.336507940292,teleoperation
1449615944624063095,330,1449615944583689107,base_footprint,0.301714288712,0.0,0.0,0.0,0.0,-0.336507940292,teleoperation
1449615944665006631,331,1449615944623513522,base_footprint,0.301714288712,0.0,0.0,0.0,0.0,-0.336507940292,teleoperation
1449615944703938568,332,1449615944663610278,base_footprint,0.301714288712,0.0,0.0,0.0,0.0,-0.336507940292,teleoperation
1449615944744307981,333,1449615944703764875,base_footprint,0.301714288712,0.0,0.0,0.0,0.0,-0.336507940292,teleoperation
1449615944784030086,334,1449615944743915882,base_footprint,0.301714288712,0.0,0.0,0.0,0.0,-0.342857146263,teleoperation
1449615944824516394,335,1449615944783585902,base_footprint,0.301714288712,0.0,0.0,0.0,0.0,-0.342857146263,teleoperation
1449615944864674055,336,1449615944824114179,base_footprint,0.251428577423,0.0,0.0,0.0,0.0,-0.285714292526,teleoperation
1449615944904675912,337,1449615944863873950,base_footprint,0.251428577423,0.0,0.0,0.0,0.0,-0.285714292526,teleoperation
1449615944945170629,338,1449615944903935919,base_footprint,0.251428577423,0.0,0.0,0.0,0.0,-0.285714292526,teleoperation
1449615944985409078,339,1449615944943884771,base_footprint,0.296126987457,0.0,0.0,0.0,0.0,-0.342857146263,teleoperation
1449615945025294556,340,1449615944983833476,base_footprint,0.296126987457,0.0,0.0,0.0,0.0,-0.342857146263,teleoperation
1449615945066809807,341,1449615945025129959,base_footprint,0.296126987457,0.0,0.0,0.0,0.0,-0.342857146263,teleoperation
1449615945104362064,342,1449615945065060402,base_footprint,0.296126987457,0.0,0.0,0.0,0.0,-0.342857146263,teleoperation
1449615945144452532,343,1449615945103729352,base_footprint,0.296126987457,0.0,0.0,0.0,0.0,-0.342857146263,teleoperation
1449615945184772666,344,1449615945143960937,base_footprint,0.245841276169,0.0,0.0,0.0,0.0,-0.279365086555,teleoperation
1449615945225323827,345,1449615945184078728,base_footprint,0.245841276169,0.0,0.0,0.0,0.0,-0.279365086555,teleoperation
1449615945265035835,346,1449615945224074763,base_footprint,0.296126987457,0.0,0.0,0.0,0.0,-0.336507940292,teleoperation
1449615945305252309,347,1449615945264159737,base_footprint,0.296126987457,0.0,0.0,0.0,0.0,-0.336507940292,teleoperation
1449615945344093274,348,1449615945304003404,base_footprint,0.296126987457,0.0,0.0,0.0,0.0,-0.336507940292,teleoperation
1449615945390207554,349,1449615945343717655,base_footprint,0.301714288712,0.0,0.0,0.0,0.0,-0.336507940292,teleoperation
1449615945424578839,350,1449615945389325711,base_footprint,0.301714288712,0.0,0.0,0.0,0.0,-0.336507940292,teleoperation
1449615945466277316,351,1449615945424272294,base_footprint,0.301714288712,0.0,0.0,0.0,0.0,-0.336507940292,teleoperation
1449615945504429677,352,1449615945465751545,base_footprint,0.301714288712,0.0,0.0,0.0,0.0,-0.336507940292,teleoperation
1449615945543835778,353,1449615945503940510,base_footprint,0.301714288712,0.0,0.0,0.0,0.0,-0.336507940292,teleoperation
1449615945585188882,354,1449615945543617245,base_footprint,0.301714288712,0.0,0.0,0.0,0.0,-0.342857146263,teleoperation
1449615945624255678,355,1449615945584532073,base_footprint,0.301714288712,0.0,0.0,0.0,0.0,-0.342857146263,teleoperation
1449615945666672563,356,1449615945623923820,base_footprint,0.301714288712,0.0,0.0,0.0,0.0,-0.336507940292,teleoperation
1449615945704239173,357,1449615945664225973,base_footprint,0.301714288712,0.0,0.0,0.0,0.0,-0.336507940292,teleoperation
1449615945745191477,358,1449615945703713028,base_footprint,0.301714288712,0.0,0.0,0.0,0.0,-0.336507940292,teleoperation
1449615945784267144,359,1449615945743952194,base_footprint,0.296126987457,0.0,0.0,0.0,0.0,-0.336507940292,teleoperation
1449615945824709973,360,1449615945784142716,base_footprint,0.296126987457,0.0,0.0,0.0,0.0,-0.336507940292,teleoperation
1449615945864509707,361,1449615945823832506,base_footprint,0.301714288712,0.0,0.0,0.0,0.0,-0.342857146263,teleoperation
1449615945903782459,362,1449615945864193530,base_footprint,0.301714288712,0.0,0.0,0.0,0.0,-0.342857146263,teleoperation
1449615945944263399,363,1449615945903497956,base_footprint,0.301714288712,0.0,0.0,0.0,0.0,-0.342857146263,teleoperation
1449615945985584005,364,1449615945943848903,base_footprint,0.00558730190992,0.0,0.0,0.0,0.0,0.0,teleoperation
1449615946025578621,365,1449615945984527544,base_footprint,0.00558730190992,0.0,0.0,0.0,0.0,0.0,teleoperation
1449615946064077288,366,1449615946023899797,base_footprint,0.00558730190992,0.0,0.0,0.0,0.0,0.0,teleoperation
1449615946103867074,367,1449615946063665205,base_footprint,0.00558730190992,0.0,0.0,0.0,0.0,0.0,teleoperation
1449615946144182878,368,1449615946103717604,base_footprint,0.00558730190992,0.0,0.0,0.0,0.0,0.0,teleoperation
1449615946184320864,369,1449615946143706691,base_footprint,0.00558730190992,0.0,0.0,0.0,0.0,0.0,teleoperation
1449615946224245722,370,1449615946184111032,base_footprint,0.00558730190992,0.0,0.0,0.0,0.0,0.0,teleoperation
1449615946264392781,371,1449615946223706842,base_footprint,0.00558730190992,0.0,0.0,0.0,0.0,0.0,teleoperation
1449615946303930614,372,1449615946263605346,base_footprint,0.00558730190992,0.0,0.0,0.0,0.0,0.0,teleoperation
1449615946345110358,373,1449615946303634123,base_footprint,0.00558730190992,0.0,0.0,0.0,0.0,0.0,teleoperation
1449615946384401771,374,1449615946343619038,base_footprint,0.100571433067,0.0,0.0,0.0,0.0,-0.00634920671582,teleoperation
1449615946424953026,375,1449615946383958798,base_footprint,0.100571433067,0.0,0.0,0.0,0.0,-0.00634920671582,teleoperation
1449615946465023918,376,1449615946423702622,base_footprint,0.340825397491,0.0,0.0,0.0,0.0,0.0126984134316,teleoperation
1449615946505881726,377,1449615946463816526,base_footprint,0.340825397491,0.0,0.0,0.0,0.0,0.0126984134316,teleoperation
1449615946543669198,378,1449615946503944215,base_footprint,0.340825397491,0.0,0.0,0.0,0.0,0.0126984134316,teleoperation
1449615946584129163,379,1449615946543557565,base_footprint,0.301714288712,0.0,0.0,0.0,0.0,0.342857146263,teleoperation
1449615946624024373,380,1449615946583831602,base_footprint,0.301714288712,0.0,0.0,0.0,0.0,0.342857146263,teleoperation
1449615946664428641,381,1449615946623454564,base_footprint,0.301714288712,0.0,0.0,0.0,0.0,0.342857146263,teleoperation
1449615946707453080,382,1449615946663691786,base_footprint,0.301714288712,0.0,0.0,0.0,0.0,0.342857146263,teleoperation
1449615946745717152,383,1449615946703813915,base_footprint,0.301714288712,0.0,0.0,0.0,0.0,0.342857146263,teleoperation
1449615946784308639,384,1449615946744050156,base_footprint,0.301714288712,0.0,0.0,0.0,0.0,0.342857146263,teleoperation
1449615946824041852,385,1449615946783770419,base_footprint,0.301714288712,0.0,0.0,0.0,0.0,0.342857146263,teleoperation
1449615946866577417,386,1449615946823879004,base_footprint,0.296126987457,0.0,0.0,0.0,0.0,0.336507940292,teleoperation
1449615946904326055,387,1449615946865396724,base_footprint,0.296126987457,0.0,0.0,0.0,0.0,0.336507940292,teleoperation
1449615946944168329,388,1449615946903883284,base_footprint,0.296126987457,0.0,0.0,0.0,0.0,0.336507940292,teleoperation
1449615946984027498,389,1449615946943816199,base_footprint,0.162031746864,0.0,0.0,0.0,0.0,0.298412704468,teleoperation
1449615947024095887,390,1449615946983785373,base_footprint,0.162031746864,0.0,0.0,0.0,0.0,0.298412704468,teleoperation
1449615947064859137,391,1449615947023620644,base_footprint,0.027936508894,0.0,0.0,0.0,0.0,0.387301588058,teleoperation
1449615947104178193,392,1449615947064035009,base_footprint,0.027936508894,0.0,0.0,0.0,0.0,0.387301588058,teleoperation
1449615947146706361,393,1449615947103762187,base_footprint,0.027936508894,0.0,0.0,0.0,0.0,0.387301588058,teleoperation
1449615947185659005,394,1449615947146143669,base_footprint,0.15644444561,0.0,0.0,0.0,0.0,0.361904764175,teleoperation
1449615947224829337,395,1449615947184402415,base_footprint,0.15644444561,0.0,0.0,0.0,0.0,0.361904764175,teleoperation
1449615947264032404,396,1449615947224173756,base_footprint,0.162031746864,0.0,0.0,0.0,0.0,0.361904764175,teleoperation
1449615947304826649,397,1449615947263830488,base_footprint,0.162031746864,0.0,0.0,0.0,0.0,0.361904764175,teleoperation
1449615947344071029,398,1449615947304059781,base_footprint,0.162031746864,0.0,0.0,0.0,0.0,0.361904764175,teleoperation
1449615947384566740,399,1449615947343942703,base_footprint,0.15644444561,0.0,0.0,0.0,0.0,0.361904764175,teleoperation
1449615947424000028,400,1449615947383705661,base_footprint,0.15644444561,0.0,0.0,0.0,0.0,0.361904764175,teleoperation
1449615947464657209,401,1449615947423810385,base_footprint,0.301714288712,0.0,0.0,0.0,0.0,0.336507940292,teleoperation
1449615947503826622,402,1449615947463996431,base_footprint,0.301714288712,0.0,0.0,0.0,0.0,0.336507940292,teleoperation
1449615947546814702,403,1449615947503555020,base_footprint,0.301714288712,0.0,0.0,0.0,0.0,0.336507940292,teleoperation
1449615947584037272,404,1449615947545483947,base_footprint,0.296126987457,0.0,0.0,0.0,0.0,0.336507940292,teleoperation
1449615947624526104,405,1449615947583788499,base_footprint,0.296126987457,0.0,0.0,0.0,0.0,0.336507940292,teleoperation
1449615947664337699,406,1449615947623897589,base_footprint,0.301714288712,0.0,0.0,0.0,0.0,0.342857146263,teleoperation
1449615947704165071,407,1449615947663860699,base_footprint,0.301714288712,0.0,0.0,0.0,0.0,0.342857146263,teleoperation
1449615947744087674,408,1449615947703806821,base_footprint,0.301714288712,0.0,0.0,0.0,0.0,0.342857146263,teleoperation
1449615947784667075,409,1449615947743612257,base_footprint,0.162031746864,0.0,0.0,0.0,0.0,0.361904764175,teleoperation
1449615947823834391,410,1449615947783799723,base_footprint,0.162031746864,0.0,0.0,0.0,0.0,0.361904764175,teleoperation
1449615947864081980,411,1449615947823690820,base_footprint,0.111746035576,0.0,0.0,0.0,0.0,0.374603176117,teleoperation
1449615947905772555,412,1449615947863787952,base_footprint,0.111746035576,0.0,0.0,0.0,0.0,0.374603176117,teleoperation
1449615947944321152,413,1449615947904277718,base_footprint,0.111746035576,0.0,0.0,0.0,0.0,0.374603176117,teleoperation
1449615947984404027,414,1449615947943570152,base_footprint,0.106158734322,0.0,0.0,0.0,0.0,0.374603176117,teleoperation
1449615948023989784,415,1449615947983566206,base_footprint,0.106158734322,0.0,0.0,0.0,0.0,0.374603176117,teleoperation
1449615948065658322,416,1449615948023540275,base_footprint,0.111746035576,0.0,0.0,0.0,0.0,0.368253970146,teleoperation
1449615948103633922,417,1449615948064054546,base_footprint,0.111746035576,0.0,0.0,0.0,0.0,0.368253970146,teleoperation
1449615948144875996,418,1449615948103511311,base_footprint,0.111746035576,0.0,0.0,0.0,0.0,0.368253970146,teleoperation
1449615948185012276,419,1449615948144012766,base_footprint,0.134095240593,0.0,0.0,0.0,0.0,0.304761910439,teleoperation
1449615948227203380,420,1449615948184320873,base_footprint,0.134095240593,0.0,0.0,0.0,0.0,0.304761910439,teleoperation
1449615948266588579,421,1449615948224819812,base_footprint,0.301714288712,0.0,0.0,0.0,0.0,0.336507940292,teleoperation
1449615948305798860,422,1449615948264194917,base_footprint,0.301714288712,0.0,0.0,0.0,0.0,0.336507940292,teleoperation
1449615948345844803,423,1449615948303998733,base_footprint,0.301714288712,0.0,0.0,0.0,0.0,0.336507940292,teleoperation
1449615948384782132,424,1449615948344662351,base_footprint,0.296126987457,0.0,0.0,0.0,0.0,0.342857146263,teleoperation
1449615948423643604,425,1449615948384313449,base_footprint,0.296126987457,0.0,0.0,0.0,0.0,0.342857146263,teleoperation
1449615948465858546,426,1449615948423490024,base_footprint,0.251428577423,0.0,0.0,0.0,0.0,0.279365086555,teleoperation
1449615948503735323,427,1449615948464948414,base_footprint,0.251428577423,0.0,0.0,0.0,0.0,0.279365086555,teleoperation
1449615948544620077,428,1449615948503553517,base_footprint,0.251428577423,0.0,0.0,0.0,0.0,0.279365086555,teleoperation
1449615948584154477,429,1449615948544178294,base_footprint,0.296126987457,0.0,0.0,0.0,0.0,0.342857146263,teleoperation
1449615948626937791,430,1449615948583615217,base_footprint,0.296126987457,0.0,0.0,0.0,0.0,0.342857146263,teleoperation
1449615948664314776,431,1449615948623769080,base_footprint,0.162031746864,0.0,0.0,0.0,0.0,0.361904764175,teleoperation
1449615948703481616,432,1449615948663838985,base_footprint,0.162031746864,0.0,0.0,0.0,0.0,0.361904764175,teleoperation
1449615948744776203,433,1449615948703382973,base_footprint,0.162031746864,0.0,0.0,0.0,0.0,0.361904764175,teleoperation
1449615948784293198,434,1449615948743940404,base_footprint,0.189968263626,0.0,0.0,0.0,0.0,0.0,teleoperation
1449615948824070217,435,1449615948783895307,base_footprint,0.189968263626,0.0,0.0,0.0,0.0,0.0,teleoperation
1449615948863891265,436,1449615948823897571,base_footprint,0.346412698746,0.0,0.0,0.0,0.0,-0.00634920671582,teleoperation
1449615948908099111,437,1449615948863756494,base_footprint,0.346412698746,0.0,0.0,0.0,0.0,-0.00634920671582,teleoperation
1449615948943777723,438,1449615948904179940,base_footprint,0.346412698746,0.0,0.0,0.0,0.0,-0.00634920671582,teleoperation
1449615948985231665,439,1449615948943632438,base_footprint,0.346412698746,0.0,0.0,0.0,0.0,0.00634920671582,teleoperation
1449615949024376152,440,1449615948984461805,base_footprint,0.346412698746,0.0,0.0,0.0,0.0,0.00634920671582,teleoperation
1449615949063985516,441,1449615949023760800,base_footprint,0.340825397491,0.0,0.0,0.0,0.0,0.00634920671582,teleoperation
1449615949104588701,442,1449615949063637070,base_footprint,0.340825397491,0.0,0.0,0.0,0.0,0.00634920671582,teleoperation
1449615949144066470,443,1449615949103963861,base_footprint,0.340825397491,0.0,0.0,0.0,0.0,0.00634920671582,teleoperation
1449615949184285353,444,1449615949143670929,base_footprint,0.346412698746,0.0,0.0,0.0,0.0,0.0,teleoperation
1449615949224709488,445,1449615949183808028,base_footprint,0.346412698746,0.0,0.0,0.0,0.0,0.0,teleoperation
1449615949264675192,446,1449615949223851038,base_footprint,0.301714288712,0.0,0.0,0.0,0.0,0.0,teleoperation
1449615949304456334,447,1449615949264281838,base_footprint,0.301714288712,0.0,0.0,0.0,0.0,0.0,teleoperation
1449615949344380893,448,1449615949303812467,base_footprint,0.301714288712,0.0,0.0,0.0,0.0,0.0,teleoperation
1449615949383622741,449,1449615949344074996,base_footprint,0.329650794983,0.0,0.0,0.0,0.0,-0.126984131336,teleoperation
1449615949423847509,450,1449615949383497846,base_footprint,0.329650794983,0.0,0.0,0.0,0.0,-0.126984131336,teleoperation
1449615949464164798,451,1449615949423672864,base_footprint,0.329650794983,0.0,0.0,0.0,0.0,-0.120634925365,teleoperation
1449615949506026384,452,1449615949463848860,base_footprint,0.329650794983,0.0,0.0,0.0,0.0,-0.120634925365,teleoperation
1449615949545203409,453,1449615949505112609,base_footprint,0.329650794983,0.0,0.0,0.0,0.0,-0.120634925365,teleoperation
1449615949584841268,454,1449615949544231766,base_footprint,0.335238096237,0.0,0.0,0.0,0.0,-0.0761904776096,teleoperation
1449615949624601903,455,1449615949584356411,base_footprint,0.335238096237,0.0,0.0,0.0,0.0,-0.0761904776096,teleoperation
1449615949664298664,456,1449615949623935767,base_footprint,0.335238096237,0.0,0.0,0.0,0.0,-0.0761904776096,teleoperation
1449615949708722005,457,1449615949663988625,base_footprint,0.335238096237,0.0,0.0,0.0,0.0,-0.0761904776096,teleoperation
1449615949744578180,458,1449615949706746445,base_footprint,0.335238096237,0.0,0.0,0.0,0.0,-0.0761904776096,teleoperation
1449615949784355576,459,1449615949744095581,base_footprint,0.340825397491,0.0,0.0,0.0,0.0,-0.0761904776096,teleoperation
1449615949824470321,460,1449615949783765151,base_footprint,0.340825397491,0.0,0.0,0.0,0.0,-0.0761904776096,teleoperation
1449615949864242559,461,1449615949823719735,base_footprint,0.340825397491,0.0,0.0,0.0,0.0,-0.0253968268633,teleoperation
1449615949904391156,462,1449615949863691596,base_footprint,0.340825397491,0.0,0.0,0.0,0.0,-0.0253968268633,teleoperation
1449615949944270048,463,1449615949903764257,base_footprint,0.340825397491,0.0,0.0,0.0,0.0,-0.0253968268633,teleoperation
1449615949983777935,464,1449615949943989353,base_footprint,0.00558730190992,0.0,0.0,0.0,0.0,0.393650794029,teleoperation
1449615950024205469,465,1449615949983550674,base_footprint,0.00558730190992,0.0,0.0,0.0,0.0,0.393650794029,teleoperation
1449615950066230239,466,1449615950023657745,base_footprint,0.0167619050741,0.0,0.0,0.0,0.0,0.0,teleoperation
1449615950103932927,467,1449615950064322263,base_footprint,0.0167619050741,0.0,0.0,0.0,0.0,0.0,teleoperation
1449615950144441919,468,1449615950103694610,base_footprint,0.0167619050741,0.0,0.0,0.0,0.0,0.0,teleoperation
1449615950183649440,469,1449615950143768251,base_footprint,0.0893968305588,0.0,0.0,0.0,0.0,-0.00634920671582,teleoperation
1449615950225188581,470,1449615950183406137,base_footprint,0.0893968305588,0.0,0.0,0.0,0.0,-0.00634920671582,teleoperation
1449615950265841058,471,1449615950224649745,base_footprint,0.027936508894,0.0,0.0,0.0,0.0,0.0,teleoperation
1449615950303828251,472,1449615950264758030,base_footprint,0.027936508894,0.0,0.0,0.0,0.0,0.0,teleoperation
1449615950345637228,473,1449615950303405447,base_footprint,0.027936508894,0.0,0.0,0.0,0.0,0.0,teleoperation
1449615950383907492,474,1449615950343938957,base_footprint,0.346412698746,0.0,0.0,0.0,0.0,-0.00634920671582,teleoperation
1449615950424557750,475,1449615950383532056,base_footprint,0.346412698746,0.0,0.0,0.0,0.0,-0.00634920671582,teleoperation
1449615950464110163,476,1449615950424162676,base_footprint,0.284952384949,0.0,0.0,0.0,0.0,-0.00634920671582,teleoperation
1449615950505690814,477,1449615950463747870,base_footprint,0.284952384949,0.0,0.0,0.0,0.0,-0.00634920671582,teleoperation
1449615950545748664,478,1449615950504309005,base_footprint,0.284952384949,0.0,0.0,0.0,0.0,-0.00634920671582,teleoperation
1449615950584932609,479,1449615950543981281,base_footprint,0.318476192474,0.0,0.0,0.0,0.0,0.184126985073,teleoperation
1449615950625319672,480,1449615950584245833,base_footprint,0.318476192474,0.0,0.0,0.0,0.0,0.184126985073,teleoperation
1449615950663641945,481,1449615950624334543,base_footprint,0.301714288712,0.0,0.0,0.0,0.0,0.342857146263,teleoperation
1449615950704097674,482,1449615950663542247,base_footprint,0.301714288712,0.0,0.0,0.0,0.0,0.342857146263,teleoperation
1449615950744672847,483,1449615950703664445,base_footprint,0.301714288712,0.0,0.0,0.0,0.0,0.342857146263,teleoperation
1449615950787449253,484,1449615950743929935,base_footprint,0.301714288712,0.0,0.0,0.0,0.0,0.342857146263,teleoperation
1449615950824365006,485,1449615950783899786,base_footprint,0.301714288712,0.0,0.0,0.0,0.0,0.342857146263,teleoperation
1449615950864216252,486,1449615950823691036,base_footprint,0.296126987457,0.0,0.0,0.0,0.0,0.342857146263,teleoperation
1449615950903950549,487,1449615950863764221,base_footprint,0.296126987457,0.0,0.0,0.0,0.0,0.342857146263,teleoperation
1449615950944702406,488,1449615950903791471,base_footprint,0.296126987457,0.0,0.0,0.0,0.0,0.342857146263,teleoperation
1449615950984514742,489,1449615950943973432,base_footprint,0.15644444561,0.0,0.0,0.0,0.0,0.355555558205,teleoperation
1449615951024003074,490,1449615950983978116,base_footprint,0.15644444561,0.0,0.0,0.0,0.0,0.355555558205,teleoperation
1449615951064579091,491,1449615951023914203,base_footprint,0.111746035576,0.0,0.0,0.0,0.0,0.368253970146,teleoperation
1449615951103887784,492,1449615951064149896,base_footprint,0.111746035576,0.0,0.0,0.0,0.0,0.368253970146,teleoperation
1449615951143710264,493,1449615951103549967,base_footprint,0.111746035576,0.0,0.0,0.0,0.0,0.368253970146,teleoperation
1449615951184361671,494,1449615951143528303,base_footprint,0.111746035576,0.0,0.0,0.0,0.0,0.374603176117,teleoperation
1449615951224090454,495,1449615951183607302,base_footprint,0.111746035576,0.0,0.0,0.0,0.0,0.374603176117,teleoperation
1449615951263944755,496,1449615951223555246,base_footprint,0.111746035576,0.0,0.0,0.0,0.0,0.374603176117,teleoperation
1449615951304008018,497,1449615951263520019,base_footprint,0.111746035576,0.0,0.0,0.0,0.0,0.374603176117,teleoperation
1449615951344870309,498,1449615951303833698,base_footprint,0.111746035576,0.0,0.0,0.0,0.0,0.374603176117,teleoperation
1449615951386440414,499,1449615951344077170,base_footprint,0.111746035576,0.0,0.0,0.0,0.0,0.374603176117,teleoperation
1449615951423854014,500,1449615951385853574,base_footprint,0.111746035576,0.0,0.0,0.0,0.0,0.374603176117,teleoperation
1449615951464023393,501,1449615951423528377,base_footprint,0.162031746864,0.0,0.0,0.0,0.0,0.361904764175,teleoperation
1449615951504049394,502,1449615951463642270,base_footprint,0.162031746864,0.0,0.0,0.0,0.0,0.361904764175,teleoperation
1449615951546119614,503,1449615951503706346,base_footprint,0.162031746864,0.0,0.0,0.0,0.0,0.361904764175,teleoperation
1449615951583603673,504,1449615951544370952,base_footprint,0.162031746864,0.0,0.0,0.0,0.0,0.368253970146,teleoperation
1449615951624210849,505,1449615951583520522,base_footprint,0.162031746864,0.0,0.0,0.0,0.0,0.368253970146,teleoperation
1449615951664015768,506,1449615951623599902,base_footprint,0.134095240593,0.0,0.0,0.0,0.0,0.304761910439,teleoperation
1449615951703703180,507,1449615951663451198,base_footprint,0.134095240593,0.0,0.0,0.0,0.0,0.304761910439,teleoperation
1449615951743781201,508,1449615951703372404,base_footprint,0.134095240593,0.0,0.0,0.0,0.0,0.304761910439,teleoperation
1449615951783770050,509,1449615951743512229,base_footprint,0.15644444561,0.0,0.0,0.0,0.0,0.368253970146,teleoperation
1449615951824503826,510,1449615951783419569,base_footprint,0.15644444561,0.0,0.0,0.0,0.0,0.368253970146,teleoperation
1449615951863829749,511,1449615951823728602,base_footprint,0.162031746864,0.0,0.0,0.0,0.0,0.368253970146,teleoperation
1449615951904101050,512,1449615951863766757,base_footprint,0.162031746864,0.0,0.0,0.0,0.0,0.368253970146,teleoperation
1449615951943820750,513,1449615951903732202,base_footprint,0.162031746864,0.0,0.0,0.0,0.0,0.368253970146,teleoperation
1449615951984165037,514,1449615951943491190,base_footprint,0.111746035576,0.0,0.0,0.0,0.0,0.374603176117,teleoperation
1449615952023679141,515,1449615951983485162,base_footprint,0.111746035576,0.0,0.0,0.0,0.0,0.374603176117,teleoperation
1449615952064489138,516,1449615952023468612,base_footprint,0.106158734322,0.0,0.0,0.0,0.0,0.374603176117,teleoperation
1449615952103454424,517,1449615952063623122,base_footprint,0.106158734322,0.0,0.0,0.0,0.0,0.374603176117,teleoperation
1449615952143765436,518,1449615952103318345,base_footprint,0.106158734322,0.0,0.0,0.0,0.0,0.374603176117,teleoperation
1449615952183865927,519,1449615952143539306,base_footprint,0.0502857165337,0.0,0.0,0.0,0.0,0.380952382088,teleoperation
1449615952223683608,520,1449615952183489665,base_footprint,0.0502857165337,0.0,0.0,0.0,0.0,0.380952382088,teleoperation
1449615952263744056,521,1449615952223445096,base_footprint,0.0446984152794,0.0,0.0,0.0,0.0,0.380952382088,teleoperation
1449615952303626527,522,1449615952263494540,base_footprint,0.0446984152794,0.0,0.0,0.0,0.0,0.380952382088,teleoperation
1449615952343667135,523,1449615952303356637,base_footprint,0.0446984152794,0.0,0.0,0.0,0.0,0.380952382088,teleoperation
1449615952383708522,524,1449615952343433404,base_footprint,0.0502857165337,0.0,0.0,0.0,0.0,0.387301588058,teleoperation
1449615952423612509,525,1449615952383510408,base_footprint,0.0502857165337,0.0,0.0,0.0,0.0,0.387301588058,teleoperation
1449615952464356936,526,1449615952423361033,base_footprint,0.106158734322,0.0,0.0,0.0,0.0,0.374603176117,teleoperation
1449615952503609583,527,1449615952463739007,base_footprint,0.106158734322,0.0,0.0,0.0,0.0,0.374603176117,teleoperation
1449615952543483194,528,1449615952503389306,base_footprint,0.106158734322,0.0,0.0,0.0,0.0,0.374603176117,teleoperation
1449615952583887863,529,1449615952543326265,base_footprint,0.162031746864,0.0,0.0,0.0,0.0,0.361904764175,teleoperation
1449615952623618536,530,1449615952583489396,base_footprint,0.162031746864,0.0,0.0,0.0,0.0,0.361904764175,teleoperation
1449615952664326055,531,1449615952623380283,base_footprint,0.296126987457,0.0,0.0,0.0,0.0,0.336507940292,teleoperation
1449615952703604770,532,1449615952663946380,base_footprint,0.296126987457,0.0,0.0,0.0,0.0,0.336507940292,teleoperation
1449615952743557589,533,1449615952703443132,base_footprint,0.296126987457,0.0,0.0,0.0,0.0,0.336507940292,teleoperation
1449615952783512908,534,1449615952743410651,base_footprint,0.296126987457,0.0,0.0,0.0,0.0,0.342857146263,teleoperation
1449615952823801256,535,1449615952783332389,base_footprint,0.296126987457,0.0,0.0,0.0,0.0,0.342857146263,teleoperation
1449615952864038195,536,1449615952823418488,base_footprint,0.251428577423,0.0,0.0,0.0,0.0,0.285714292526,teleoperation
1449615952903408065,537,1449615952863537980,base_footprint,0.251428577423,0.0,0.0,0.0,0.0,0.285714292526,teleoperation
1449615952943816274,538,1449615952903307796,base_footprint,0.251428577423,0.0,0.0,0.0,0.0,0.285714292526,teleoperation
1449615952983727911,539,1449615952943488687,base_footprint,0.301714288712,0.0,0.0,0.0,0.0,0.342857146263,teleoperation
1449615953023781153,540,1449615952983455062,base_footprint,0.301714288712,0.0,0.0,0.0,0.0,0.342857146263,teleoperation
1449615953063866177,541,1449615953023448785,base_footprint,0.296126987457,0.0,0.0,0.0,0.0,0.336507940292,teleoperation
1449615953103443761,542,1449615953063606039,base_footprint,0.296126987457,0.0,0.0,0.0,0.0,0.336507940292,teleoperation
