%time,field.x,field.y,field.z
1449615930410014012,6.0,6.0,0.0
1449615930443382315,6.0,6.0,0.0
1449615930476676754,6.0,6.0,0.0
1449615930509987944,6.0,6.0,0.0
1449615930543387766,6.0,6.0,0.0
1449615930576686250,6.0,6.0,0.0
1449615930609986509,6.0,6.0,0.0
1449615930643325881,6.0,6.0,0.0
1449615930676690762,6.0,6.0,0.0
1449615930709998342,6.0,6.0,0.0
1449615930743340164,6.0,6.0,0.0
1449615930776649118,6.0,6.0,0.0
1449615930809987408,6.0,6.0,0.0
1449615930843395521,6.0,6.0,0.0
1449615930876710881,6.0,6.0,0.0
1449615930909958876,6.0,6.0,0.0
1449615930943364603,6.0,6.0,0.0
1449615930976744664,6.0,6.0,0.0
1449615931009966449,6.0,6.0,0.0
1449615931043337620,6.0,6.0,0.0
1449615931076681130,6.0,6.0,0.0
1449615931110017052,6.0,6.0,0.0
1449615931143334056,6.0,6.0,0.0
1449615931176646443,6.0,6.0,0.0
1449615931210003772,6.0,6.0,0.0
1449615931243307483,6.0,6.0,0.0
1449615931276732828,6.0,6.0,0.0
1449615931310143431,6.0,6.0,0.0
1449615931343601786,6.0,6.0,0.0
1449615931376674715,6.0,6.0,0.0
1449615931410133759,6.0,6.0,0.0
1449615931443366460,6.0,6.0,0.0
1449615931476637363,6.0,6.0,0.0
1449615931510278109,6.0,6.0,0.0
1449615931543421115,6.0,6.0,0.0
1449615931576666724,6.0,6.0,0.0
1449615931610022456,6.0,6.0,0.0
1449615931643373502,6.0,6.0,0.0
1449615931676737047,6.0,6.0,0.0
1449615931710045844,6.0,6.0,0.0
1449615931743595403,6.0,6.0,0.0
1449615931776721127,6.0,6.0,0.0
1449615931810071795,6.0,6.0,0.0
1449615931843441394,6.0,6.0,0.0
1449615931876732319,6.0,6.0,0.0
1449615931910014507,6.0,6.0,0.0
1449615931943361439,6.0,6.0,0.0
1449615931976671319,6.0,6.0,0.0
1449615932009985175,6.0,6.0,0.0
1449615932043369922,6.0,6.0,0.0
1449615932076741068,6.0,6.0,0.0
1449615932110091005,6.0,6.0,0.0
1449615932143450756,6.0,6.0,0.0
1449615932176682026,6.0,6.0,0.0
1449615932209979714,6.0,6.0,0.0
1449615932243358536,6.0,6.0,0.0
1449615932276756000,6.0,6.0,0.0
1449615932310080731,6.0,6.0,0.0
1449615932343363419,6.0,6.0,0.0
1449615932376765647,6.0,6.0,0.0
1449615932410144647,6.0,6.0,0.0
1449615932443347905,6.0,6.0,0.0
1449615932476632485,6.0,6.0,0.0
1449615932509999755,6.0,6.0,0.0
1449615932543361645,6.0,6.0,0.0
1449615932576642978,6.0,6.0,0.0
1449615932609992109,6.0,6.0,0.0
1449615932643308928,6.0,6.0,0.0
1449615932676642011,6.0,6.0,0.0
1449615932709937004,6.0,6.0,0.0
1449615932743307648,6.0,6.0,0.0
1449615932776620464,6.0,6.0,0.0
1449615932809981127,6.0,6.0,0.0
1449615932843335899,6.0,6.0,0.0
1449615932876665808,6.0,6.0,0.0
1449615932910090627,6.0,6.0,0.0
1449615932943324420,6.0,6.0,0.0
1449615932976682215,6.0,6.0,0.0
1449615933010042209,6.0,6.0,0.0
1449615933043416242,6.0,6.0,0.0
1449615933076755597,6.0,6.0,0.0
1449615933110051253,6.0,6.0,0.0
1449615933143408278,6.0,6.0,0.0
1449615933176672559,6.0,6.0,0.0
1449615933209949639,6.0,6.0,0.0
1449615933243360577,6.0,6.0,0.0
1449615933276583534,6.0,6.0,0.0
1449615933309974289,6.0,6.0,0.0
1449615933343267811,6.0,6.0,0.0
1449615933376739492,6.0,6.0,0.0
1449615933409980392,6.0,6.0,0.0
1449615933443408079,6.0,6.0,0.0
1449615933476662779,6.0,6.0,0.0
1449615933510047584,6.0,6.0,0.0
1449615933543293930,6.0,6.0,0.0
1449615933576674384,6.0,6.0,0.0
1449615933609973983,6.0,6.0,0.0
1449615933643292804,6.0,6.0,0.0
1449615933676592793,6.0,6.0,0.0
1449615933709994206,6.0,6.0,0.0
1449615933743329894,6.0,6.0,0.0
1449615933776761195,6.0,6.0,0.0
1449615933810011495,6.0,6.0,0.0
1449615933843414072,6.0,6.0,0.0
1449615933876746199,6.0,6.0,0.0
1449615933909965510,6.0,6.0,0.0
1449615933944357435,6.0,6.0,0.0
1449615933976761076,6.0,6.0,0.0
1449615934010298665,6.0,6.0,0.0
1449615934043394083,6.0,6.0,0.0
1449615934076874796,6.0,6.0,0.0
1449615934110044100,6.0,6.0,0.0
1449615934143747209,6.0,6.0,0.0
1449615934176728932,6.0,6.0,0.0
1449615934210420276,6.0,6.0,0.0
1449615934243348145,6.0,6.0,0.0
1449615934276725993,6.0,6.0,0.0
1449615934310081080,6.0,6.0,0.0
1449615934343604144,6.0,6.0,0.0
1449615934376740619,6.0,6.0,0.0
1449615934410026939,6.0,6.0,0.0
1449615934443305943,6.0,6.0,0.0
1449615934476747370,6.0,6.0,0.0
1449615934510071779,6.0,6.0,0.0
1449615934543631714,6.0,6.0,0.0
1449615934576693058,6.0,6.0,0.0
1449615934610019000,6.0,6.0,0.0
1449615934643430437,6.0,6.0,0.0
1449615934677067876,6.0,6.0,0.0
1449615934710060095,6.0,6.0,0.0
1449615934743481573,6.0,6.0,0.0
1449615934776697946,6.0,6.0,0.0
1449615934810167149,6.0,6.0,0.0
1449615934843332725,6.0,6.0,0.0
1449615934876762853,6.0,6.0,0.0
1449615934910088507,6.0,6.0,0.0
1449615934943362350,6.0,6.0,0.0
1449615934976686419,6.0,6.0,0.0
1449615935010034660,6.0,6.0,0.0
1449615935043333864,6.0,6.0,0.0
1449615935076889186,6.0,6.0,0.0
1449615935110053261,6.0,6.0,0.0
1449615935143482579,6.0,6.0,0.0
1449615935176691121,6.0,6.0,0.0
1449615935210406418,6.0,6.0,0.0
1449615935243471116,6.0,6.0,0.0
1449615935276941383,6.0,6.0,0.0
1449615935310063528,6.0,6.0,0.0
1449615935343592103,6.0,6.0,0.0
1449615935376691250,6.0,6.0,0.0
1449615935410056278,6.0,6.0,0.0
1449615935443378147,6.0,6.0,0.0
1449615935476795761,6.0,6.0,0.0
1449615935510060945,6.0,6.0,0.0
1449615935543579398,6.0,6.0,0.0
1449615935576745644,6.0,6.0,0.0
1449615935610053191,6.0,6.0,0.0
1449615935643488267,6.0,6.0,0.0
1449615935676928029,6.0,6.0,0.0
1449615935710236763,6.0,6.0,0.0
1449615935743763485,6.0,6.0,0.0
1449615935778761962,6.0,6.0,0.0
1449615935810872457,6.0,6.0,0.0
1449615935844853930,6.0,6.0,0.0
1449615935877145961,6.0,6.0,0.0
1449615935910174464,6.0,6.0,0.0
1449615935944520797,6.0,6.0,0.0
1449615935977129140,6.0,6.0,0.0
1449615936010569628,6.0,6.0,0.0
1449615936044347479,6.0,6.0,0.0
1449615936076951736,6.0,6.0,0.0
1449615936110870510,6.0,6.0,0.0
1449615936143692839,6.0,6.0,0.0
1449615936176737574,6.0,6.0,0.0
1449615936210595173,6.0,6.0,0.0
1449615936243778034,6.0,6.0,0.0
1449615936277122285,6.0,6.0,0.0
1449615936310619594,6.0,6.0,0.0
1449615936343971264,6.0,6.0,0.0
1449615936377179427,6.0,6.0,0.0
1449615936410485966,6.0,6.0,0.0
1449615936443677151,6.0,6.0,0.0
1449615936476868606,6.0,6.0,0.0
1449615936510329433,6.0,6.0,0.0
1449615936543822981,6.0,6.0,0.0
1449615936577148547,6.0,6.0,0.0
1449615936610412535,6.0,6.0,0.0
1449615936643663605,6.0,6.0,0.0
1449615936676968240,6.0,6.0,0.0
1449615936711102274,6.0,6.0,0.0
1449615936744181809,6.0,6.0,0.0
1449615936777860378,6.0,6.0,0.0
1449615936810280396,6.0,6.0,0.0
1449615936843416700,6.0,6.0,0.0
1449615936877209641,6.0,6.0,0.0
1449615936910402720,6.0,6.0,0.0
1449615936943611946,6.0,6.0,0.0
1449615936977142374,6.0,6.0,0.0
1449615937010264596,6.0,6.0,0.0
1449615937044193415,6.0,6.0,0.0
1449615937076896412,6.0,6.0,0.0
1449615937110026103,6.0,6.0,0.0
1449615937143452456,6.0,6.0,0.0
1449615937177013127,6.0,6.0,0.0
1449615937210188232,6.0,6.0,0.0
1449615937243821524,6.0,6.0,0.0
1449615937277530438,6.0,6.0,0.0
1449615937310291049,6.0,6.0,0.0
1449615937344122967,6.0,6.0,0.0
1449615937377058181,6.0,6.0,0.0
1449615937410595435,6.0,6.0,0.0
1449615937443910687,6.0,6.0,0.0
1449615937476966475,6.0,6.0,0.0
1449615937510705690,6.0,6.0,0.0
1449615937543605872,6.0,6.0,0.0
1449615937577417341,6.0,6.0,0.0
1449615937610306318,6.0,6.0,0.0
1449615937643892017,6.0,6.0,0.0
1449615937677016752,6.0,6.0,0.0
1449615937710658124,6.0,6.0,0.0
1449615937743690905,6.0,6.0,0.0
1449615937776791140,6.0,6.0,0.0
1449615937810601107,6.0,6.0,0.0
1449615937843470646,6.0,6.0,0.0
1449615937879128971,6.0,6.0,0.0
1449615937910576512,6.0,6.0,0.0
1449615937943756036,6.0,6.0,0.0
1449615937976981924,6.0,6.0,0.0
1449615938010335634,6.0,6.0,0.0
1449615938043634251,6.0,6.0,0.0
1449615938077115167,6.0,6.0,0.0
1449615938110239313,6.0,6.0,0.0
1449615938145038631,6.0,6.0,0.0
1449615938176853958,6.0,6.0,0.0
1449615938210366562,6.0,6.0,0.0
1449615938243641810,6.0,6.0,0.0
1449615938279675919,6.0,6.0,0.0
1449615938310487803,6.0,6.0,0.0
1449615938344535452,6.0,6.0,0.0
1449615938377105213,6.0,6.0,0.0
1449615938410707046,6.0,6.0,0.0
1449615938443917273,6.0,6.0,0.0
1449615938477289572,6.0,6.0,0.0
1449615938510045739,6.0,6.0,0.0
1449615938543453994,6.0,6.0,0.0
1449615938577541566,6.0,6.0,0.0
1449615938610524354,6.0,6.0,0.0
1449615938643620408,6.0,6.0,0.0
1449615938677255530,6.0,6.0,0.0
1449615938710470975,6.0,6.0,0.0
1449615938743495503,6.0,6.0,0.0
1449615938776873842,6.0,6.0,0.0
1449615938810230589,6.0,6.0,0.0
1449615938845342084,6.0,6.0,0.0
1449615938877123057,6.01773968356,6.0,0.0
1449615938910206347,6.01773968356,6.0,0.0
1449615938943760993,6.03547936713,6.0,0.0
1449615938977219832,6.03547936713,6.0,0.0
1449615939010159528,6.03547936713,6.0,0.0
1449615939044724517,6.03547936713,6.0,0.0
1449615939076984635,6.01773968356,6.0,0.0
1449615939110670357,6.01773968356,6.0,0.0
1449615939143670209,6.03547936713,6.0,0.0
1449615939176780135,6.03547936713,6.0,0.0
1449615939210480922,6.03547936713,6.0,0.0
1449615939243694002,6.03547936713,6.0,0.0
1449615939276891593,6.01773968356,6.0,0.0
1449615939310322903,6.01773968356,6.0,0.0
1449615939343668570,6.01773968356,6.0,0.0
1449615939376870520,6.01773968356,6.0,0.0
1449615939410283206,6.01773968356,6.0,0.0
1449615939443567010,6.01773968356,6.0,0.0
1449615939477461959,6.05321904861,6.0,0.0
1449615939510102707,6.05321904861,6.0,0.0
1449615939543610131,6.22617397324,6.0,0.0
1449615939577410317,6.22617397324,6.0,0.0
1449615939610444424,6.22617397324,6.0,0.0
1449615939643746792,6.22617397324,6.0,0.0
1449615939677107801,6.47201524689,6.0,0.0
1449615939710485431,6.47201524689,6.0,0.0
1449615939744642500,6.60968634979,6.0,0.0
1449615939778621769,6.60968634979,6.0,0.0
1449615939811699041,6.60968634979,6.0,0.0
1449615939843540376,6.60968634979,6.0,0.0
1449615939876829267,6.60968634979,6.0,0.0
1449615939910228130,6.60968634979,6.0,0.0
1449615939943770978,6.60968634979,6.0,0.0
1449615939977552704,6.60968634979,6.0,0.0
1449615940010527245,6.60968634979,6.0,0.0
1449615940044260139,6.60968634979,6.0,0.0
1449615940077172804,6.60968634979,6.0,0.0
1449615940110243889,6.60968634979,6.0,0.0
1449615940143647224,6.60968634979,6.0,0.0
1449615940177041482,6.60968634979,6.0,0.0
1449615940210941505,6.60968634979,6.0,0.0
1449615940243740336,6.60968634979,6.0,0.0
1449615940276888282,6.60968634979,5.98935714224,0.0
1449615940310631576,6.60968634979,5.98935714224,0.0
1449615940343939224,6.60968634979,5.98935714224,0.0
1449615940377291503,6.60968634979,5.98935714224,0.0
1449615940410421112,6.60968634979,5.98935714224,0.0
1449615940443393514,6.60968634979,5.98935714224,0.0
1449615940477126407,6.60968634979,6.0,0.0
1449615940510477026,6.60968634979,6.0,0.0
1449615940544282657,6.60968634979,5.98935714224,0.0
1449615940576985259,6.60968634979,5.98935714224,0.0
1449615940610520669,6.60968634979,5.98935714224,0.0
1449615940643856329,6.60968634979,5.98935714224,0.0
1449615940676869142,6.60968634979,5.97871428449,0.0
1449615940710164307,6.60968634979,5.97871428449,0.0
1449615940743559059,6.60968634979,5.97871428449,0.0
1449615940777402298,6.60968634979,5.97871428449,0.0
1449615940810103630,6.60968634979,5.97871428449,0.0
1449615940843859075,6.60968634979,5.97871428449,0.0
1449615940876851907,6.59985269958,5.96807142798,0.0
1449615940910687419,6.59985269958,5.96807142798,0.0
1449615940943986942,6.59001904938,5.87228571191,0.0
1449615940977263121,6.59001904938,5.87228571191,0.0
1449615941011077712,6.59001904938,5.87228571191,0.0
1449615941043680733,6.59001904938,5.87228571191,0.0
1449615941077097236,6.53101714813,5.42528570858,0.0
1449615941110607837,6.53101714813,5.42528570858,0.0
1449615941144242076,6.52118349792,5.42528570858,0.0
1449615941177608995,6.52118349792,5.42528570858,0.0
1449615941211270852,6.52118349792,5.42528570858,0.0
1449615941243951376,6.52118349792,5.42528570858,0.0
1449615941276725310,6.53101714813,5.43592856508,0.0
1449615941310256750,6.53101714813,5.43592856508,0.0
1449615941344940579,6.46218159668,5.49978570414,0.0
1449615941377391791,6.46218159668,5.49978570414,0.0
1449615941410380081,6.46218159668,5.49978570414,0.0
1449615941443557797,6.46218159668,5.49978570414,0.0
1449615941477344398,6.53101714813,5.42528570858,0.0
1449615941510654323,6.53101714813,5.42528570858,0.0
1449615941544537784,6.53101714813,5.42528570858,0.0
1449615941577234924,6.53101714813,5.42528570858,0.0
1449615941611669098,6.53101714813,5.42528570858,0.0
1449615941644562407,6.53101714813,5.42528570858,0.0
1449615941677049444,6.53101714813,5.43592856508,0.0
1449615941710840856,6.53101714813,5.43592856508,0.0
1449615941744213567,6.53101714813,5.42528570858,0.0
1449615941777001096,6.53101714813,5.42528570858,0.0
1449615941810212194,6.53101714813,5.42528570858,0.0
1449615941844084403,6.53101714813,5.42528570858,0.0
1449615941876854932,6.53101714813,5.42528570858,0.0
1449615941910841860,6.53101714813,5.42528570858,0.0
1449615941944710742,6.60968634979,5.98935714224,0.0
1449615941977281130,6.60968634979,5.98935714224,0.0
1449615942010741058,6.60968634979,5.98935714224,0.0
1449615942044181504,6.60968634979,5.98935714224,0.0
1449615942076935261,6.60968634979,6.0,0.0
1449615942112308187,6.60968634979,6.0,0.0
1449615942143990481,6.60968634979,6.01064285776,0.0
1449615942177149945,6.60968634979,6.01064285776,0.0
1449615942211209172,6.60968634979,6.01064285776,0.0
1449615942243865709,6.60968634979,6.01064285776,0.0
1449615942277104441,6.59985269958,6.05321428754,0.0
1449615942310243491,6.59985269958,6.05321428754,0.0
1449615942344219815,6.44251429626,6.46828572634,0.0
1449615942377640574,6.44251429626,6.46828572634,0.0
1449615942410805082,6.44251429626,6.46828572634,0.0
1449615942443534925,6.44251429626,6.46828572634,0.0
1449615942476718490,6.52118349792,6.57471429142,0.0
1449615942512830590,6.52118349792,6.57471429142,0.0
1449615942544145345,6.53101714813,6.57471429142,0.0
1449615942577764595,6.53101714813,6.57471429142,0.0
1449615942610354013,6.53101714813,6.57471429142,0.0
1449615942643865941,6.53101714813,6.57471429142,0.0
1449615942677684246,6.43268064606,6.47892858285,0.0
1449615942714597858,6.43268064606,6.47892858285,0.0
1449615942743564404,6.52118349792,6.57471429142,0.0
1449615942777080472,6.52118349792,6.57471429142,0.0
1449615942810751061,6.52118349792,6.57471429142,0.0
1449615942843895114,6.52118349792,6.57471429142,0.0
1449615942877004863,6.52118349792,6.56407143492,0.0
1449615942911356466,6.52118349792,6.56407143492,0.0
1449615942943666783,6.52118349792,6.56407143492,0.0
1449615942976965089,6.52118349792,6.56407143492,0.0
1449615943010196282,6.52118349792,6.56407143492,0.0
1449615943043793677,6.52118349792,6.56407143492,0.0
1449615943077358770,6.53101714813,6.56407143492,0.0
1449615943110584377,6.53101714813,6.56407143492,0.0
1449615943144201966,6.53101714813,6.56407143492,0.0
1449615943177265008,6.53101714813,6.56407143492,0.0
1449615943210847962,6.53101714813,6.56407143492,0.0
1449615943244421036,6.53101714813,6.56407143492,0.0
1449615943277274733,6.52118349792,6.57471429142,0.0
1449615943310082368,6.52118349792,6.57471429142,0.0
1449615943344810143,6.53101714813,6.56407143492,0.0
1449615943377565827,6.53101714813,6.56407143492,0.0
1449615943413877507,6.53101714813,6.56407143492,0.0
1449615943443728340,6.53101714813,6.56407143492,0.0
1449615943477217054,6.52118349792,6.57471429142,0.0
1449615943511134755,6.52118349792,6.57471429142,0.0
1449615943543849046,6.52118349792,6.56407143492,0.0
1449615943577134029,6.52118349792,6.56407143492,0.0
1449615943610378727,6.52118349792,6.56407143492,0.0
1449615943643415199,6.52118349792,6.56407143492,0.0
1449615943678300665,6.52118349792,6.56407143492,0.0
1449615943710457719,6.52118349792,6.56407143492,0.0
1449615943743853790,6.52118349792,6.56407143492,0.0
1449615943776858649,6.52118349792,6.56407143492,0.0
1449615943810704014,6.52118349792,6.56407143492,0.0
1449615943843946509,6.52118349792,6.56407143492,0.0
1449615943876980590,6.53101714813,6.57471429142,0.0
1449615943913892621,6.53101714813,6.57471429142,0.0
1449615943943990945,6.48184889709,6.51085715237,0.0
1449615943977052701,6.48184889709,6.51085715237,0.0
1449615944010545791,6.48184889709,6.51085715237,0.0
1449615944044020258,6.48184889709,6.51085715237,0.0
1449615944077716527,6.53101714813,6.57471429142,0.0
1449615944110243977,6.53101714813,6.57471429142,0.0
1449615944143691396,6.53101714813,6.57471429142,0.0
1449615944177095859,6.53101714813,6.57471429142,0.0
1449615944210905465,6.53101714813,6.57471429142,0.0
1449615944243817120,6.53101714813,6.57471429142,0.0
1449615944277048103,6.52118349792,6.56407143492,0.0
1449615944310960231,6.52118349792,6.56407143492,0.0
1449615944343615588,6.53101714813,6.57471429142,0.0
1449615944377181615,6.53101714813,6.57471429142,0.0
1449615944410287071,6.53101714813,6.57471429142,0.0
1449615944443633835,6.53101714813,6.57471429142,0.0
1449615944477139081,6.52118349792,6.56407143492,0.0
1449615944510117218,6.52118349792,6.56407143492,0.0
1449615944544382063,6.52118349792,6.56407143492,0.0
1449615944577544104,6.52118349792,6.56407143492,0.0
1449615944610387730,6.52118349792,6.56407143492,0.0
1449615944645586083,6.52118349792,6.56407143492,0.0
1449615944680027747,6.53101714813,6.56407143492,0.0
1449615944710264790,6.53101714813,6.56407143492,0.0
1449615944743926040,6.53101714813,6.56407143492,0.0
1449615944777520022,6.53101714813,6.56407143492,0.0
1449615944811329778,6.53101714813,6.56407143492,0.0
1449615944844642647,6.53101714813,6.56407143492,0.0
1449615944877014999,6.53101714813,6.57471429142,0.0
1449615944910331502,6.53101714813,6.57471429142,0.0
1449615944943553116,6.44251429626,6.47892858285,0.0
1449615944977226731,6.44251429626,6.47892858285,0.0
1449615945010341885,6.44251429626,6.47892858285,0.0
1449615945044053141,6.44251429626,6.47892858285,0.0
1449615945076904401,6.52118349792,6.57471429142,0.0
1449615945110511773,6.52118349792,6.57471429142,0.0
1449615945144304059,6.52118349792,6.57471429142,0.0
1449615945177410668,6.52118349792,6.57471429142,0.0
1449615945211571098,6.52118349792,6.57471429142,0.0
1449615945243774716,6.52118349792,6.57471429142,0.0
1449615945277613543,6.43268064606,6.46828572634,0.0
1449615945310504514,6.43268064606,6.46828572634,0.0
1449615945344426299,6.52118349792,6.56407143492,0.0
1449615945377391696,6.52118349792,6.56407143492,0.0
1449615945410271422,6.52118349792,6.56407143492,0.0
1449615945444047855,6.52118349792,6.56407143492,0.0
1449615945476949097,6.53101714813,6.56407143492,0.0
1449615945510704974,6.53101714813,6.56407143492,0.0
1449615945543442305,6.53101714813,6.56407143492,0.0
1449615945576917385,6.53101714813,6.56407143492,0.0
1449615945610134369,6.53101714813,6.56407143492,0.0
1449615945643482502,6.53101714813,6.56407143492,0.0
1449615945677847490,6.53101714813,6.57471429142,0.0
1449615945712298615,6.53101714813,6.57471429142,0.0
1449615945743891302,6.53101714813,6.56407143492,0.0
1449615945777237270,6.53101714813,6.56407143492,0.0
1449615945810597661,6.53101714813,6.56407143492,0.0
1449615945844498031,6.53101714813,6.56407143492,0.0
1449615945878196565,6.52118349792,6.56407143492,0.0
1449615945910293965,6.52118349792,6.56407143492,0.0
1449615945943962523,6.53101714813,6.57471429142,0.0
1449615945977497144,6.53101714813,6.57471429142,0.0
1449615946010552106,6.53101714813,6.57471429142,0.0
1449615946043555582,6.53101714813,6.57471429142,0.0
1449615946077967462,6.01773968356,6.0,0.0
1449615946110523911,6.01773968356,6.0,0.0
1449615946143866204,6.01773968356,6.0,0.0
1449615946178282730,6.01773968356,6.0,0.0
1449615946210180354,6.01773968356,6.0,0.0
1449615946243660957,6.01773968356,6.0,0.0
1449615946277187396,6.01773968356,6.0,0.0
1449615946310258724,6.01773968356,6.0,0.0
1449615946343617387,6.01773968356,6.0,0.0
1449615946377472223,6.01773968356,6.0,0.0
1449615946410458015,6.01773968356,6.0,0.0
1449615946444047292,6.01773968356,6.0,0.0
1449615946478014816,6.1770057222,6.01064285776,0.0
1449615946510333931,6.1770057222,6.01064285776,0.0
1449615946543465267,6.59985269958,5.97871428449,0.0
1449615946576941774,6.59985269958,5.97871428449,0.0
1449615946610649547,6.59985269958,5.97871428449,0.0
1449615946645099907,6.59985269958,5.97871428449,0.0
1449615946677821566,6.53101714813,5.42528570858,0.0
1449615946711653162,6.53101714813,5.42528570858,0.0
1449615946744727680,6.53101714813,5.42528570858,0.0
1449615946777410476,6.53101714813,5.42528570858,0.0
1449615946810250842,6.53101714813,5.42528570858,0.0
1449615946844179131,6.53101714813,5.42528570858,0.0
1449615946876919698,6.53101714813,5.42528570858,0.0
1449615946910198200,6.53101714813,5.42528570858,0.0
1449615946943963305,6.52118349792,5.43592856508,0.0
1449615946977437483,6.52118349792,5.43592856508,0.0
1449615947010195119,6.52118349792,5.43592856508,0.0
1449615947043664978,6.52118349792,5.43592856508,0.0
1449615947076748089,6.28517587448,5.49978570414,0.0
1449615947110350258,6.28517587448,5.49978570414,0.0
1449615947145277183,6.08869841574,5.35078571302,0.0
1449615947177010176,6.08869841574,5.35078571302,0.0
1449615947210836079,6.08869841574,5.35078571302,0.0
1449615947244419488,6.08869841574,5.35078571302,0.0
1449615947277144799,6.27534222427,5.39335713905,0.0
1449615947310491328,6.27534222427,5.39335713905,0.0
1449615947343798796,6.28517587448,5.39335713905,0.0
1449615947377043199,6.28517587448,5.39335713905,0.0
1449615947410744685,6.28517587448,5.39335713905,0.0
1449615947443424949,6.28517587448,5.39335713905,0.0
1449615947477538576,6.27534222427,5.39335713905,0.0
1449615947510445376,6.27534222427,5.39335713905,0.0
1449615947545193730,6.53101714813,5.43592856508,0.0
1449615947576980055,6.53101714813,5.43592856508,0.0
1449615947611485312,6.53101714813,5.43592856508,0.0
1449615947643797904,6.53101714813,5.43592856508,0.0
1449615947676902457,6.52118349792,5.43592856508,0.0
1449615947711190277,6.52118349792,5.43592856508,0.0
1449615947743629428,6.53101714813,5.42528570858,0.0
1449615947777357709,6.53101714813,5.42528570858,0.0
1449615947810259942,6.53101714813,5.42528570858,0.0
1449615947844084407,6.53101714813,5.42528570858,0.0
1449615947877091812,6.28517587448,5.39335713905,0.0
1449615947911152684,6.28517587448,5.39335713905,0.0
1449615947944280681,6.19667302261,5.37207142603,0.0
1449615947977281872,6.19667302261,5.37207142603,0.0
1449615948010518410,6.19667302261,5.37207142603,0.0
1449615948043446558,6.19667302261,5.37207142603,0.0
1449615948077383466,6.18683937241,5.37207142603,0.0
1449615948110340769,6.18683937241,5.37207142603,0.0
1449615948144349771,6.19667302261,5.38271428254,0.0
1449615948176857547,6.19667302261,5.38271428254,0.0
1449615948211146902,6.19667302261,5.38271428254,0.0
1449615948243983750,6.19667302261,5.38271428254,0.0
1449615948277182250,6.23600762344,5.48914284763,0.0
1449615948310473428,6.23600762344,5.48914284763,0.0
1449615948344193814,6.53101714813,5.43592856508,0.0
1449615948376937682,6.53101714813,5.43592856508,0.0
1449615948410710814,6.53101714813,5.43592856508,0.0
1449615948443932634,6.53101714813,5.43592856508,0.0
1449615948477675863,6.52118349792,5.42528570858,0.0
1449615948510470056,6.52118349792,5.42528570858,0.0
1449615948544193756,6.44251429626,5.53171427366,0.0
1449615948577368573,6.44251429626,5.53171427366,0.0
1449615948611922369,6.44251429626,5.53171427366,0.0
1449615948643896822,6.44251429626,5.53171427366,0.0
1449615948677037279,6.52118349792,5.42528570858,0.0
1449615948710700658,6.52118349792,5.42528570858,0.0
1449615948743632877,6.28517587448,5.39335713905,0.0
1449615948778259252,6.28517587448,5.39335713905,0.0
1449615948810747967,6.28517587448,5.39335713905,0.0
1449615948843429610,6.28517587448,5.39335713905,0.0
1449615948877475901,6.33434414398,6.0,0.0
1449615948910497160,6.33434414398,6.0,0.0
1449615948943470493,6.60968634979,6.01064285776,0.0
1449615948977116128,6.60968634979,6.01064285776,0.0
1449615949010654132,6.60968634979,6.01064285776,0.0
1449615949043779178,6.60968634979,6.01064285776,0.0
1449615949077178275,6.60968634979,5.98935714224,0.0
1449615949110660209,6.60968634979,5.98935714224,0.0
1449615949143473664,6.59985269958,5.98935714224,0.0
1449615949177266289,6.59985269958,5.98935714224,0.0
1449615949211325040,6.59985269958,5.98935714224,0.0
1449615949243454309,6.59985269958,5.98935714224,0.0
1449615949276843707,6.60968634979,6.0,0.0
1449615949310184742,6.60968634979,6.0,0.0
1449615949344299712,6.53101714813,6.0,0.0
1449615949377086250,6.53101714813,6.0,0.0
1449615949410262136,6.53101714813,6.0,0.0
1449615949444117893,6.53101714813,6.0,0.0
1449615949477565778,6.58018539917,6.21285715015,0.0
1449615949510352424,6.58018539917,6.21285715015,0.0
1449615949544726841,6.58018539917,6.20221429364,0.0
1449615949577052867,6.58018539917,6.20221429364,0.0
1449615949610459051,6.58018539917,6.20221429364,0.0
1449615949643817556,6.58018539917,6.20221429364,0.0
1449615949677862501,6.59001904938,6.12771428809,0.0
1449615949711893482,6.59001904938,6.12771428809,0.0
1449615949744031530,6.59001904938,6.12771428809,0.0
1449615949778844053,6.59001904938,6.12771428809,0.0
1449615949810248145,6.59001904938,6.12771428809,0.0
1449615949843740905,6.59001904938,6.12771428809,0.0
1449615949877280992,6.59985269958,6.12771428809,0.0
1449615949910390787,6.59985269958,6.12771428809,0.0
1449615949944131403,6.59985269958,6.04257143103,0.0
1449615949976926753,6.59985269958,6.04257143103,0.0
1449615950010220245,6.59985269958,6.04257143103,0.0
1449615950043996037,6.59985269958,6.04257143103,0.0
1449615950077224960,6.01773968356,5.34014285651,0.0
1449615950110473207,6.01773968356,5.34014285651,0.0
1449615950143548164,6.05321904861,6.0,0.0
1449615950176821876,6.05321904861,6.0,0.0
1449615950210480569,6.05321904861,6.0,0.0
1449615950243884133,6.05321904861,6.0,0.0
1449615950276827820,6.15733842178,6.01064285776,0.0
1449615950310329406,6.15733842178,6.01064285776,0.0
1449615950343772175,6.08869841574,6.0,0.0
1449615950380198245,6.08869841574,6.0,0.0
1449615950410347929,6.08869841574,6.0,0.0
1449615950443690804,6.08869841574,6.0,0.0
1449615950477217432,6.60968634979,6.01064285776,0.0
1449615950510421786,6.60968634979,6.01064285776,0.0
1449615950545693517,6.50151619751,6.01064285776,0.0
1449615950577104534,6.50151619751,6.01064285776,0.0
1449615950610932104,6.50151619751,6.01064285776,0.0
1449615950643983489,6.50151619751,6.01064285776,0.0
1449615950677412978,6.56051809875,5.69135714127,0.0
1449615950710038940,6.56051809875,5.69135714127,0.0
1449615950744649852,6.53101714813,5.42528570858,0.0
1449615950777482266,6.53101714813,5.42528570858,0.0
1449615950810296011,6.53101714813,5.42528570858,0.0
1449615950844274788,6.53101714813,5.42528570858,0.0
1449615950877458609,6.53101714813,5.42528570858,0.0
1449615950912416022,6.53101714813,5.42528570858,0.0
1449615950943837493,6.52118349792,5.42528570858,0.0
1449615950976761821,6.52118349792,5.42528570858,0.0
1449615951010199740,6.52118349792,5.42528570858,0.0
1449615951044739545,6.52118349792,5.42528570858,0.0
1449615951077473315,6.27534222427,5.40399999556,0.0
1449615951111901097,6.27534222427,5.40399999556,0.0
1449615951143619045,6.19667302261,5.38271428254,0.0
1449615951177108982,6.19667302261,5.38271428254,0.0
1449615951210098926,6.19667302261,5.38271428254,0.0
1449615951243623083,6.19667302261,5.38271428254,0.0
1449615951276936325,6.19667302261,5.37207142603,0.0
1449615951310278926,6.19667302261,5.37207142603,0.0
1449615951343575270,6.19667302261,5.37207142603,0.0
1449615951377373634,6.19667302261,5.37207142603,0.0
1449615951410156548,6.19667302261,5.37207142603,0.0
1449615951443782216,6.19667302261,5.37207142603,0.0
1449615951476891718,6.19667302261,5.37207142603,0.0
1449615951510605295,6.19667302261,5.37207142603,0.0
1449615951543679686,6.28517587448,5.39335713905,0.0
1449615951576777668,6.28517587448,5.39335713905,0.0
1449615951610568956,6.28517587448,5.39335713905,0.0
1449615951643506175,6.28517587448,5.39335713905,0.0
1449615951676869888,6.28517587448,5.38271428254,0.0
1449615951710921670,6.28517587448,5.38271428254,0.0
1449615951743594169,6.23600762344,5.48914284763,0.0
1449615951776786367,6.23600762344,5.48914284763,0.0
1449615951810290332,6.23600762344,5.48914284763,0.0
1449615951843364495,6.23600762344,5.48914284763,0.0
1449615951876850107,6.27534222427,5.38271428254,0.0
1449615951910164781,6.27534222427,5.38271428254,0.0
1449615951943554907,6.28517587448,5.38271428254,0.0
1449615951976748792,6.28517587448,5.38271428254,0.0
1449615952010073253,6.28517587448,5.38271428254,0.0
1449615952043350910,6.28517587448,5.38271428254,0.0
1449615952076793549,6.19667302261,5.37207142603,0.0
1449615952110033993,6.19667302261,5.37207142603,0.0
1449615952143370883,6.18683937241,5.37207142603,0.0
1449615952176937676,6.18683937241,5.37207142603,0.0
1449615952210072892,6.18683937241,5.37207142603,0.0
1449615952243529700,6.18683937241,5.37207142603,0.0
1449615952276683922,6.0885028611,5.36142856953,0.0
1449615952310061749,6.0885028611,5.36142856953,0.0
1449615952343542666,6.14191746851,5.36142856953,0.0
1449615952376924473,6.14191746851,5.36142856953,0.0
1449615952410133166,6.14191746851,5.36142856953,0.0
1449615952443448681,6.14191746851,5.36142856953,0.0
1449615952476660870,6.0885028611,5.35078571302,0.0
1449615952510022016,6.0885028611,5.35078571302,0.0
1449615952543421803,6.18683937241,5.37207142603,0.0
1449615952576779622,6.18683937241,5.37207142603,0.0
1449615952610098084,6.18683937241,5.37207142603,0.0
1449615952643417202,6.18683937241,5.37207142603,0.0
1449615952676692911,6.28517587448,5.39335713905,0.0
1449615952709956847,6.28517587448,5.39335713905,0.0
1449615952743499051,6.52118349792,5.43592856508,0.0
1449615952776748904,6.52118349792,5.43592856508,0.0
1449615952810068305,6.52118349792,5.43592856508,0.0
1449615952843636924,6.52118349792,5.43592856508,0.0
1449615952876697255,6.52118349792,5.42528570858,0.0
1449615952909997902,6.52118349792,5.42528570858,0.0
1449615952943513832,6.44251429626,5.52107141715,0.0
1449615952976773854,6.44251429626,5.52107141715,0.0
1449615953010154387,6.44251429626,5.52107141715,0.0
1449615953043472323,6.44251429626,5.52107141715,0.0
1449615953076738118,6.53101714813,5.42528570858,0.0
1449615953110036227,6.53101714813,5.42528570858,0.0
1449615953143337203,6.52118349792,5.43592856508,0.0
1449615953176873226,6.52118349792,5.43592856508,0.0
1449615953210018515,6.52118349792,5.43592856508,0.0
1449615953243480020,6.52118349792,5.43592856508,0.0
1449615953276676868,6.44251429626,5.52107141715,0.0
1449615953310135922,6.44251429626,5.52107141715,0.0
1449615953343373722,6.52118349792,5.42528570858,0.0
1449615953376695785,6.52118349792,5.42528570858,0.0
1449615953410004744,6.52118349792,5.42528570858,0.0
1449615953443361558,6.52118349792,5.42528570858,0.0
1449615953476690651,6.53101714813,5.42528570858,0.0
1449615953509998555,6.53101714813,5.42528570858,0.0
1449615953543437615,6.09833651131,5.91485713794,0.0
1449615953576679293,6.09833651131,5.91485713794,0.0
1449615953609992540,6.09833651131,5.91485713794,0.0
1449615953643340463,6.09833651131,5.91485713794,0.0
1449615953676646288,6.60968634979,6.01064285776,0.0
1449615953710056894,6.60968634979,6.01064285776,0.0
1449615953743466495,6.46218159668,6.50021429586,0.0
1449615953776740044,6.46218159668,6.50021429586,0.0
1449615953810049494,6.46218159668,6.50021429586,0.0
1449615953843419344,6.46218159668,6.50021429586,0.0
1449615953876620030,6.52118349792,6.56407143492,0.0
1449615953910012807,6.52118349792,6.56407143492,0.0
1449615953943436429,6.18683937241,6.62792857397,0.0
1449615953976664385,6.18683937241,6.62792857397,0.0
1449615954010033188,6.18683937241,6.62792857397,0.0
1449615954043460658,6.18683937241,6.62792857397,0.0
1449615954076648044,6.07095873426,6.64921428698,0.0
1449615954109970807,6.07095873426,6.64921428698,0.0
1449615954143382499,6.07095873426,6.64921428698,0.0
1449615954176756000,6.07095873426,6.64921428698,0.0
1449615954209971794,6.07095873426,6.64921428698,0.0
1449615954243444273,6.07095873426,6.64921428698,0.0
1449615954276649772,6.05321904861,6.64921428698,0.0
1449615954309984671,6.05321904861,6.64921428698,0.0
1449615954343344780,6.05321904861,6.64921428698,0.0
1449615954376752448,6.05321904861,6.64921428698,0.0
1449615954410048936,6.05321904861,6.64921428698,0.0
1449615954443324642,6.05321904861,6.64921428698,0.0
1449615954476652663,6.07095873426,6.64921428698,0.0
1449615954510006929,6.07095873426,6.64921428698,0.0
1449615954543346550,6.07095873426,6.64921428698,0.0
1449615954576632498,6.07095873426,6.64921428698,0.0
1449615954609978765,6.07095873426,6.64921428698,0.0
1449615954643452025,6.07095873426,6.64921428698,0.0
1449615954676657137,6.07095873426,6.64921428698,0.0
1449615954710010693,6.07095873426,6.64921428698,0.0
1449615954743340699,6.07095873426,6.64921428698,0.0
1449615954776628627,6.07095873426,6.64921428698,0.0
1449615954810129982,6.07095873426,6.64921428698,0.0
1449615954843370871,6.07095873426,6.64921428698,0.0
1449615954876637040,6.07095873426,6.65985714349,0.0
1449615954910079475,6.07095873426,6.65985714349,0.0
1449615954943356358,6.07095873426,6.65985714349,0.0
1449615954976743587,6.07095873426,6.65985714349,0.0
1449615955010007033,6.07095873426,6.65985714349,0.0
1449615955043521044,6.07095873426,6.65985714349,0.0
1449615955076672621,6.11800381172,6.63857143047,0.0
1449615955110038112,6.11800381172,6.63857143047,0.0
1449615955143372296,6.19667302261,6.62792857397,0.0
1449615955176739622,6.19667302261,6.62792857397,0.0
1449615955209985291,6.19667302261,6.62792857397,0.0
1449615955243403253,6.19667302261,6.62792857397,0.0
1449615955276677367,6.11800381172,6.63857143047,0.0
1449615955309959655,6.11800381172,6.63857143047,0.0
1449615955343327941,6.14191746851,6.64921428698,0.0
1449615955376936241,6.14191746851,6.64921428698,0.0
1449615955410138214,6.14191746851,6.64921428698,0.0
1449615955443466183,6.14191746851,6.64921428698,0.0
1449615955476722137,6.0885028611,6.63857143047,0.0
1449615955510049284,6.0885028611,6.63857143047,0.0
1449615955543394856,6.14191746851,6.63857143047,0.0
1449615955576763084,6.14191746851,6.63857143047,0.0
1449615955609983258,6.14191746851,6.63857143047,0.0
1449615955643422173,6.14191746851,6.63857143047,0.0
1449615955676606418,6.05321904861,6.01064285776,0.0
1449615955709991049,6.05321904861,6.01064285776,0.0
1449615955743428952,6.03547936713,6.0,0.0
1449615955776693333,6.03547936713,6.0,0.0
1449615955810013267,6.03547936713,6.0,0.0
1449615955843376446,6.03547936713,6.0,0.0
1449615955876687924,6.01773968356,6.0,0.0
1449615955910013249,6.01773968356,6.0,0.0
1449615955943359875,6.01773968356,6.0,0.0
1449615955977063408,6.01773968356,6.0,0.0
1449615956010018669,6.01773968356,6.0,0.0
1449615956043660891,6.01773968356,6.0,0.0
1449615956076690761,6.60968634979,6.03192857202,0.0
1449615956110088753,6.60968634979,6.03192857202,0.0
1449615956143450504,6.60968634979,6.02128571551,0.0
1449615956176678471,6.60968634979,6.02128571551,0.0
1449615956210035065,6.60968634979,6.02128571551,0.0
1449615956243453489,6.60968634979,6.02128571551,0.0
1449615956276721173,6.60968634979,6.02128571551,0.0
1449615956310163940,6.60968634979,6.02128571551,0.0
1449615956343498940,6.60968634979,6.03192857202,0.0
1449615956376899369,6.60968634979,6.03192857202,0.0
1449615956409999600,6.60968634979,6.03192857202,0.0
1449615956443437909,6.60968634979,6.03192857202,0.0
1449615956476734096,6.60968634979,6.02128571551,0.0
1449615956510075770,6.60968634979,6.02128571551,0.0
1449615956543499901,6.59985269958,6.05321428754,0.0
1449615956576675901,6.59985269958,6.05321428754,0.0
1449615956610034332,6.59985269958,6.05321428754,0.0
1449615956643410381,6.59985269958,6.05321428754,0.0
1449615956676750767,6.58018539917,6.20221429364,0.0
1449615956710014527,6.58018539917,6.20221429364,0.0
1449615956743636086,6.58018539917,6.21285715015,0.0
1449615956776794826,6.58018539917,6.21285715015,0.0
1449615956809962157,6.58018539917,6.21285715015,0.0
1449615956843534414,6.58018539917,6.21285715015,0.0
1449615956876691490,6.57035174896,6.30864285873,0.0
1449615956910128053,6.57035174896,6.30864285873,0.0
1449615956943433974,6.57035174896,6.30864285873,0.0
1449615956976859972,6.57035174896,6.30864285873,0.0
1449615957010010908,6.57035174896,6.30864285873,0.0
1449615957043382718,6.57035174896,6.30864285873,0.0
1449615957076663203,6.47201524689,6.25542857619,0.0
1449615957110079774,6.47201524689,6.25542857619,0.0
1449615957143392147,6.56051809875,6.29800000222,0.0
1449615957176921731,6.56051809875,6.29800000222,0.0
1449615957210025912,6.56051809875,6.29800000222,0.0
1449615957243509328,6.56051809875,6.29800000222,0.0
1449615957276617391,6.57035174896,6.30864285873,0.0
1449615957310167185,6.57035174896,6.30864285873,0.0
1449615957343339930,6.57035174896,6.30864285873,0.0
1449615957376834474,6.57035174896,6.30864285873,0.0
1449615957409990336,6.57035174896,6.30864285873,0.0
1449615957443326678,6.57035174896,6.30864285873,0.0
1449615957476679230,6.56051809875,6.29800000222,0.0
1449615957510049162,6.56051809875,6.29800000222,0.0
1449615957543506110,6.47201524689,6.25542857619,0.0
1449615957576753274,6.47201524689,6.25542857619,0.0
1449615957609989261,6.47201524689,6.25542857619,0.0
1449615957643488553,6.47201524689,6.25542857619,0.0
1449615957676712283,6.57035174896,6.30864285873,0.0
1449615957710143807,6.57035174896,6.30864285873,0.0
1449615957743347955,6.57035174896,6.30864285873,0.0
1449615957777131421,6.57035174896,6.30864285873,0.0
1449615957809986983,6.57035174896,6.30864285873,0.0
1449615957843452882,6.57035174896,6.30864285873,0.0
1449615957876665420,6.56051809875,6.30864285873,0.0
1449615957910049729,6.56051809875,6.30864285873,0.0
1449615957943635200,6.56051809875,6.30864285873,0.0
1449615957976723105,6.56051809875,6.30864285873,0.0
1449615958009995896,6.56051809875,6.30864285873,0.0
1449615958043461799,6.56051809875,6.30864285873,0.0
1449615958076661545,6.59985269958,6.09578571857,0.0
1449615958110160779,6.59985269958,6.09578571857,0.0
1449615958143359890,6.60968634979,6.05321428754,0.0
1449615958176811845,6.60968634979,6.05321428754,0.0
1449615958209983892,6.60968634979,6.05321428754,0.0
1449615958243344241,6.60968634979,6.05321428754,0.0
1449615958276673345,6.60968634979,5.96807142798,0.0
1449615958310049017,6.60968634979,5.96807142798,0.0
1449615958343323297,6.52118349792,5.43592856508,0.0
1449615958376720594,6.52118349792,5.43592856508,0.0
1449615958410005200,6.52118349792,5.43592856508,0.0
1449615958443498109,6.52118349792,5.43592856508,0.0
1449615958476643604,6.52118349792,5.42528570858,0.0
1449615958510096336,6.52118349792,5.42528570858,0.0
1449615958543314646,6.52118349792,5.42528570858,0.0
1449615958576773938,6.52118349792,5.42528570858,0.0
1449615958610020841,6.52118349792,5.42528570858,0.0
1449615958643462863,6.52118349792,5.42528570858,0.0
1449615958676631572,6.53101714813,5.42528570858,0.0
1449615958710059947,6.53101714813,5.42528570858,0.0
1449615958743285239,6.52118349792,5.43592856508,0.0
1449615958776766570,6.52118349792,5.43592856508,0.0
1449615958809985492,6.52118349792,5.43592856508,0.0
1449615958843461969,6.52118349792,5.43592856508,0.0
1449615958876637481,6.53101714813,5.42528570858,0.0
1449615958910181125,6.53101714813,5.42528570858,0.0
1449615958943322772,6.52118349792,5.42528570858,0.0
1449615958976863903,6.52118349792,5.42528570858,0.0
1449615959009979307,6.52118349792,5.42528570858,0.0
1449615959043437575,6.52118349792,5.42528570858,0.0
1449615959076687898,6.53101714813,5.42528570858,0.0
1449615959110020986,6.53101714813,5.42528570858,0.0
1449615959143363779,6.44251429626,5.52107141715,0.0
1449615959176752620,6.44251429626,5.52107141715,0.0
1449615959209974924,6.44251429626,5.52107141715,0.0
1449615959243404245,6.44251429626,5.52107141715,0.0
1449615959276756984,6.53101714813,5.42528570858,0.0
1449615959310211232,6.53101714813,5.42528570858,0.0
1449615959343314601,6.52118349792,5.42528570858,0.0
1449615959376647810,6.52118349792,5.42528570858,0.0
1449615959409980158,6.52118349792,5.42528570858,0.0
1449615959443339768,6.52118349792,5.42528570858,0.0
1449615959476720549,6.44251429626,5.52107141715,0.0
1449615959509994651,6.44251429626,5.52107141715,0.0
1449615959543383998,6.53101714813,5.42528570858,0.0
1449615959576682631,6.53101714813,5.42528570858,0.0
1449615959610019961,6.53101714813,5.42528570858,0.0
1449615959643376055,6.53101714813,5.42528570858,0.0
1449615959676760218,6.53101714813,5.42528570858,0.0
1449615959710071888,6.53101714813,5.42528570858,0.0
1449615959743342607,6.52118349792,5.42528570858,0.0
1449615959776763963,6.52118349792,5.42528570858,0.0
1449615959809992038,6.52118349792,5.42528570858,0.0
1449615959843349257,6.52118349792,5.42528570858,0.0
1449615959876698387,6.53101714813,5.43592856508,0.0
1449615959910005036,6.53101714813,5.43592856508,0.0
1449615959943456703,6.53101714813,5.42528570858,0.0
1449615959976657977,6.53101714813,5.42528570858,0.0
1449615960010005569,6.53101714813,5.42528570858,0.0
1449615960043373283,6.53101714813,5.42528570858,0.0
1449615960076694297,6.53101714813,5.42528570858,0.0
1449615960110042754,6.53101714813,5.42528570858,0.0
1449615960143358081,6.53101714813,5.42528570858,0.0
1449615960176724159,6.53101714813,5.42528570858,0.0
1449615960209993109,6.53101714813,5.42528570858,0.0
1449615960243450166,6.53101714813,5.42528570858,0.0
1449615960276645326,6.53101714813,5.43592856508,0.0
1449615960309966990,6.53101714813,5.43592856508,0.0
1449615960343322231,6.53101714813,5.42528570858,0.0
1449615960376637120,6.53101714813,5.42528570858,0.0
1449615960410076950,6.53101714813,5.42528570858,0.0
1449615960443384307,6.53101714813,5.42528570858,0.0
1449615960476984827,6.60968634979,5.98935714224,0.0
1449615960510025402,6.60968634979,5.98935714224,0.0
1449615960543330625,6.59985269958,6.05321428754,0.0
1449615960576692234,6.59985269958,6.05321428754,0.0
1449615960610372887,6.59985269958,6.05321428754,0.0
1449615960643364281,6.59985269958,6.05321428754,0.0
1449615960677488296,6.53101714813,6.57471429142,0.0
1449615960709978416,6.53101714813,6.57471429142,0.0
1449615960743354643,6.52118349792,6.56407143492,0.0
1449615960776712022,6.52118349792,6.56407143492,0.0
1449615960810099492,6.52118349792,6.56407143492,0.0
1449615960843442682,6.52118349792,6.56407143492,0.0
1449615960876713430,6.52118349792,6.56407143492,0.0
1449615960910067648,6.52118349792,6.56407143492,0.0
1449615960943361068,6.47201524689,6.51085715237,0.0
1449615960976812235,6.47201524689,6.51085715237,0.0
1449615961010001074,6.47201524689,6.51085715237,0.0
1449615961043642265,6.47201524689,6.51085715237,0.0
1449615961076670251,6.52118349792,6.56407143492,0.0
1449615961109961916,6.52118349792,6.56407143492,0.0
1449615961143535968,6.52118349792,6.56407143492,0.0
1449615961176688492,6.52118349792,6.56407143492,0.0
1449615961209976612,6.52118349792,6.56407143492,0.0
1449615961243380689,6.52118349792,6.56407143492,0.0
1449615961276815947,6.53101714813,6.57471429142,0.0
1449615961310011664,6.53101714813,6.57471429142,0.0
1449615961343358235,6.52118349792,6.56407143492,0.0
1449615961376658759,6.52118349792,6.56407143492,0.0
1449615961410268340,6.52118349792,6.56407143492,0.0
1449615961443338731,6.52118349792,6.56407143492,0.0
1449615961476665485,6.53101714813,6.57471429142,0.0
1449615961509978543,6.53101714813,6.57471429142,0.0
1449615961543379619,6.53101714813,6.57471429142,0.0
1449615961576735577,6.53101714813,6.57471429142,0.0
1449615961610006167,6.53101714813,6.57471429142,0.0
1449615961643377733,6.53101714813,6.57471429142,0.0
1449615961676612719,6.27534222427,6.60664286095,0.0
1449615961710004550,6.27534222427,6.60664286095,0.0
1449615961744130821,6.27534222427,6.60664286095,0.0
1449615961776798208,6.27534222427,6.60664286095,0.0
1449615961809967707,6.27534222427,6.60664286095,0.0
1449615961843440885,6.27534222427,6.60664286095,0.0
1449615961876754793,6.19667302261,6.62792857397,0.0
1449615961910034430,6.19667302261,6.62792857397,0.0
1449615961943386332,6.18683937241,6.62792857397,0.0
1449615961976667833,6.18683937241,6.62792857397,0.0
1449615962010098248,6.18683937241,6.62792857397,0.0
1449615962043476823,6.18683937241,6.62792857397,0.0
1449615962076916236,6.15733842178,6.52150000888,0.0
1449615962109988818,6.15733842178,6.52150000888,0.0
1449615962145357389,6.18683937241,6.62792857397,0.0
1449615962176740933,6.18683937241,6.62792857397,0.0
1449615962210290464,6.18683937241,6.62792857397,0.0
1449615962243359280,6.18683937241,6.62792857397,0.0
1449615962277135829,6.18683937241,6.61728571746,0.0
1449615962309988871,6.18683937241,6.61728571746,0.0
1449615962343340761,6.27534222427,6.61728571746,0.0
1449615962376656220,6.27534222427,6.61728571746,0.0
1449615962410039967,6.27534222427,6.61728571746,0.0
1449615962443380636,6.27534222427,6.61728571746,0.0
1449615962476935188,6.53101714813,6.56407143492,0.0
1449615962509985359,6.53101714813,6.56407143492,0.0
1449615962543619604,6.53101714813,6.02128571551,0.0
1449615962576827362,6.53101714813,6.02128571551,0.0
1449615962610009657,6.53101714813,6.02128571551,0.0
1449615962643398300,6.53101714813,6.02128571551,0.0
1449615962676705590,6.60968634979,6.0,0.0
1449615962710039964,6.60968634979,6.0,0.0
1449615962743366943,6.54085079834,6.01064285776,0.0
1449615962776659407,6.54085079834,6.01064285776,0.0
1449615962810040072,6.54085079834,6.01064285776,0.0
1449615962843423357,6.54085079834,6.01064285776,0.0
1449615962876844226,6.60968634979,6.01064285776,0.0
1449615962909994087,6.60968634979,6.01064285776,0.0
1449615962943580820,6.60968634979,6.01064285776,0.0
1449615962976763046,6.60968634979,6.01064285776,0.0
1449615963010004105,6.60968634979,6.01064285776,0.0
1449615963043420797,6.60968634979,6.01064285776,0.0
1449615963076793591,6.61952,6.01064285776,0.0
1449615963109996570,6.61952,6.01064285776,0.0
1449615963143873003,6.60968634979,6.01064285776,0.0
1449615963176737992,6.60968634979,6.01064285776,0.0
1449615963210032812,6.60968634979,6.01064285776,0.0
1449615963243526307,6.60968634979,6.01064285776,0.0
1449615963277190916,6.60968634979,6.01064285776,0.0
1449615963309966431,6.60968634979,6.01064285776,0.0
1449615963343476504,6.60968634979,6.01064285776,0.0
1449615963376657871,6.60968634979,6.01064285776,0.0
1449615963410084081,6.60968634979,6.01064285776,0.0
1449615963443375867,6.60968634979,6.01064285776,0.0
1449615963476725946,6.60968634979,6.01064285776,0.0
1449615963509992742,6.60968634979,6.01064285776,0.0
1449615963543481347,6.60968634979,6.01064285776,0.0
1449615963576783255,6.60968634979,6.01064285776,0.0
1449615963610115125,6.60968634979,6.01064285776,0.0
1449615963643360637,6.60968634979,6.01064285776,0.0
1449615963676714426,6.60968634979,6.01064285776,0.0
1449615963710055702,6.60968634979,6.01064285776,0.0
1449615963743459844,6.60968634979,6.01064285776,0.0
1449615963776870924,6.60968634979,6.01064285776,0.0
1449615963810014501,6.60968634979,6.01064285776,0.0
1449615963843383140,6.60968634979,6.01064285776,0.0
1449615963876806251,6.60968634979,6.0,0.0
1449615963910045910,6.60968634979,6.0,0.0
1449615963943549329,6.60968634979,6.01064285776,0.0
1449615963976685121,6.60968634979,6.01064285776,0.0
1449615964010236833,6.60968634979,6.01064285776,0.0
1449615964043353840,6.60968634979,6.01064285776,0.0
1449615964076836872,6.60968634979,6.0,0.0
1449615964110043600,6.60968634979,6.0,0.0
1449615964143424300,6.60968634979,6.0,0.0
1449615964176666930,6.60968634979,6.0,0.0
1449615964210150910,6.60968634979,6.0,0.0
1449615964243417232,6.60968634979,6.0,0.0
1449615964277150591,6.55068444855,6.0,0.0
1449615964310071798,6.55068444855,6.0,0.0
1449615964343792754,6.60968634979,6.0,0.0
1449615964376713792,6.60968634979,6.0,0.0
1449615964410562329,6.60968634979,6.0,0.0
1449615964443329045,6.60968634979,6.0,0.0
1449615964476786467,6.51134984772,5.92549999944,0.0
1449615964509962266,6.51134984772,5.92549999944,0.0
1449615964543831927,6.53101714813,5.42528570858,0.0
1449615964576685236,6.53101714813,5.42528570858,0.0
1449615964610313201,6.53101714813,5.42528570858,0.0
1449615964643380997,6.53101714813,5.42528570858,0.0
1449615964676921035,6.53101714813,5.42528570858,0.0
1449615964709986510,6.53101714813,5.42528570858,0.0
1449615964743734245,6.47201524689,5.48914284763,0.0
1449615964776677641,6.47201524689,5.48914284763,0.0
1449615964810181517,6.47201524689,5.48914284763,0.0
1449615964843521011,6.47201524689,5.48914284763,0.0
1449615964877026265,6.53101714813,5.42528570858,0.0
1449615964910008062,6.53101714813,5.42528570858,0.0
1449615964943647211,6.53101714813,5.42528570858,0.0
1449615964976701325,6.53101714813,5.42528570858,0.0
1449615965010373018,6.53101714813,5.42528570858,0.0
1449615965043395837,6.53101714813,5.42528570858,0.0
1449615965077437962,6.45234794647,5.51042856064,0.0
1449615965110039074,6.45234794647,5.51042856064,0.0
1449615965144060983,6.53101714813,5.42528570858,0.0
1449615965176703393,6.53101714813,5.42528570858,0.0
1449615965210573353,6.53101714813,5.42528570858,0.0
1449615965243340317,6.53101714813,5.42528570858,0.0
1449615965277307524,6.53101714813,5.43592856508,0.0
1449615965310143100,6.53101714813,5.43592856508,0.0
1449615965344655712,6.53101714813,5.42528570858,0.0
1449615965376693187,6.53101714813,5.42528570858,0.0
1449615965410500896,6.53101714813,5.42528570858,0.0
1449615965443500922,6.53101714813,5.42528570858,0.0
1449615965477570713,6.52118349792,5.43592856508,0.0
1449615965510007118,6.52118349792,5.43592856508,0.0
1449615965543795913,6.53101714813,5.42528570858,0.0
1449615965576852284,6.53101714813,5.42528570858,0.0
1449615965610080964,6.53101714813,5.42528570858,0.0
1449615965643418269,6.53101714813,5.42528570858,0.0
1449615965676918428,6.53101714813,5.43592856508,0.0
1449615965710038362,6.53101714813,5.43592856508,0.0
1449615965743784491,6.53101714813,5.42528570858,0.0
1449615965776843010,6.53101714813,5.42528570858,0.0
1449615965810540078,6.53101714813,5.42528570858,0.0
1449615965843323815,6.53101714813,5.42528570858,0.0
1449615965876871642,6.52118349792,5.43592856508,0.0
1449615965910018001,6.52118349792,5.43592856508,0.0
1449615965943822058,6.53101714813,5.42528570858,0.0
1449615965976695119,6.53101714813,5.42528570858,0.0
1449615966010228356,6.53101714813,5.42528570858,0.0
1449615966043416869,6.53101714813,5.42528570858,0.0
1449615966077081293,6.52118349792,5.43592856508,0.0
1449615966109981451,6.52118349792,5.43592856508,0.0
1449615966143823599,6.53101714813,5.43592856508,0.0
1449615966176684149,6.53101714813,5.43592856508,0.0
1449615966210286115,6.53101714813,5.43592856508,0.0
1449615966243361154,6.53101714813,5.43592856508,0.0
1449615966277396470,6.52118349792,5.43592856508,0.0
1449615966309938151,6.52118349792,5.43592856508,0.0
1449615966344193142,6.52118349792,5.43592856508,0.0
1449615966376690504,6.52118349792,5.43592856508,0.0
1449615966410425209,6.52118349792,5.43592856508,0.0
1449615966443267915,6.52118349792,5.43592856508,0.0
1449615966476924498,6.52118349792,5.43592856508,0.0
1449615966509946205,6.52118349792,5.43592856508,0.0
1449615966543753638,6.53101714813,5.43592856508,0.0
1449615966576694548,6.53101714813,5.43592856508,0.0
1449615966610242621,6.53101714813,5.43592856508,0.0
1449615966643319791,6.53101714813,5.43592856508,0.0
1449615966676944439,6.52118349792,5.42528570858,0.0
1449615966710020418,6.52118349792,5.42528570858,0.0
1449615966743587379,6.52118349792,5.43592856508,0.0
1449615966776615393,6.52118349792,5.43592856508,0.0
1449615966810600486,6.52118349792,5.43592856508,0.0
1449615966843420086,6.52118349792,5.43592856508,0.0
1449615966877021852,6.52118349792,5.43592856508,0.0
1449615966911248226,6.52118349792,5.43592856508,0.0
1449615966943546592,6.44251429626,5.53171427366,0.0
1449615966976815065,6.44251429626,5.53171427366,0.0
1449615967010215941,6.44251429626,5.53171427366,0.0
1449615967043299562,6.44251429626,5.53171427366,0.0
1449615967077622096,6.53101714813,5.42528570858,0.0
1449615967110140747,6.53101714813,5.42528570858,0.0
1449615967143636861,6.53101714813,5.43592856508,0.0
1449615967176677184,6.53101714813,5.43592856508,0.0
1449615967210307753,6.53101714813,5.43592856508,0.0
1449615967243446914,6.53101714813,5.43592856508,0.0
1449615967277171051,6.44251429626,5.52107141715,0.0
1449615967310055748,6.44251429626,5.52107141715,0.0
1449615967343954655,6.52118349792,5.43592856508,0.0
1449615967376762820,6.52118349792,5.43592856508,0.0
1449615967411267456,6.52118349792,5.43592856508,0.0
1449615967443442050,6.52118349792,5.43592856508,0.0
1449615967477000808,6.52118349792,5.42528570858,0.0
1449615967509964332,6.52118349792,5.42528570858,0.0
1449615967543679453,6.52118349792,5.43592856508,0.0
1449615967576664167,6.52118349792,5.43592856508,0.0
1449615967610401396,6.52118349792,5.43592856508,0.0
1449615967643534010,6.52118349792,5.43592856508,0.0
1449615967677042479,6.53101714813,5.42528570858,0.0
1449615967709983074,6.53101714813,5.42528570858,0.0
1449615967744062066,6.52118349792,5.42528570858,0.0
1449615967776646739,6.52118349792,5.42528570858,0.0
1449615967810670231,6.52118349792,5.42528570858,0.0
1449615967843337108,6.52118349792,5.42528570858,0.0
1449615967877462142,6.53101714813,5.42528570858,0.0
1449615967910001734,6.53101714813,5.42528570858,0.0
1449615967943559772,6.52118349792,5.42528570858,0.0
1449615967976811796,6.52118349792,5.42528570858,0.0
1449615968011582434,6.52118349792,5.42528570858,0.0
1449615968043435993,6.52118349792,5.42528570858,0.0
1449615968077438733,6.53101714813,5.42528570858,0.0
1449615968110116073,6.53101714813,5.42528570858,0.0
1449615968143502579,6.52118349792,5.43592856508,0.0
1449615968176684298,6.52118349792,5.43592856508,0.0
1449615968210295807,6.52118349792,5.43592856508,0.0
1449615968243441106,6.52118349792,5.43592856508,0.0
1449615968277520633,6.60968634979,5.97871428449,0.0
1449615968310043245,6.60968634979,5.97871428449,0.0
1449615968343730072,6.60968634979,5.98935714224,0.0
1449615968376847785,6.60968634979,5.98935714224,0.0
1449615968411064870,6.60968634979,5.98935714224,0.0
1449615968443326995,6.60968634979,5.98935714224,0.0
1449615968476799641,6.60968634979,6.0,0.0
1449615968510022426,6.60968634979,6.0,0.0
1449615968545366832,6.60968634979,5.98935714224,0.0
1449615968576681100,6.60968634979,5.98935714224,0.0
1449615968610190087,6.60968634979,5.98935714224,0.0
1449615968643506009,6.60968634979,5.98935714224,0.0
1449615968676988685,6.60968634979,6.0,0.0
1449615968710093688,6.60968634979,6.0,0.0
1449615968743600382,6.60968634979,6.0,0.0
1449615968776811219,6.60968634979,6.0,0.0
1449615968810913414,6.60968634979,6.0,0.0
1449615968843427035,6.60968634979,6.0,0.0
1449615968877099787,6.60968634979,6.02128571551,0.0
1449615968909966081,6.60968634979,6.02128571551,0.0
1449615968943953249,6.59985269958,6.03192857202,0.0
1449615968976736177,6.59985269958,6.03192857202,0.0
1449615969010722619,6.59985269958,6.03192857202,0.0
1449615969043361362,6.59985269958,6.03192857202,0.0
1449615969076915053,6.60968634979,6.04257143103,0.0
1449615969109970754,6.60968634979,6.04257143103,0.0
1449615969143684568,6.59985269958,6.04257143103,0.0
1449615969176777927,6.59985269958,6.04257143103,0.0
1449615969210221899,6.59985269958,6.04257143103,0.0
1449615969243440853,6.59985269958,6.04257143103,0.0
1449615969276921076,6.60968634979,6.05321428754,0.0
1449615969310091433,6.60968634979,6.05321428754,0.0
1449615969343612523,6.59985269958,6.05321428754,0.0
1449615969376719607,6.59985269958,6.05321428754,0.0
1449615969410486028,6.59985269958,6.05321428754,0.0
1449615969443396145,6.59985269958,6.05321428754,0.0
1449615969476903792,6.59985269958,6.04257143103,0.0
1449615969510116832,6.59985269958,6.04257143103,0.0
1449615969543623677,6.59001904938,6.09578571857,0.0
1449615969576810604,6.59001904938,6.09578571857,0.0
1449615969610712232,6.59001904938,6.09578571857,0.0
1449615969643446548,6.59001904938,6.09578571857,0.0
1449615969676897006,6.59985269958,6.05321428754,0.0
1449615969710023835,6.59985269958,6.05321428754,0.0
1449615969743624559,6.60968634979,6.05321428754,0.0
1449615969776794221,6.60968634979,6.05321428754,0.0
1449615969810328047,6.60968634979,6.05321428754,0.0
1449615969843376906,6.60968634979,6.05321428754,0.0
1449615969877084177,6.59985269958,6.05321428754,0.0
1449615969910254577,6.59985269958,6.05321428754,0.0
1449615969944150670,6.59985269958,6.08514286206,0.0
1449615969976793993,6.59985269958,6.08514286206,0.0
1449615970010220775,6.59985269958,6.08514286206,0.0
1449615970043343398,6.59985269958,6.08514286206,0.0
1449615970076831225,6.59985269958,6.08514286206,0.0
1449615970110001912,6.59985269958,6.08514286206,0.0
1449615970143750348,6.59985269958,6.08514286206,0.0
1449615970176711253,6.59985269958,6.08514286206,0.0
1449615970210288574,6.59985269958,6.08514286206,0.0
1449615970243431884,6.59985269958,6.08514286206,0.0
1449615970276801481,6.59985269958,6.05321428754,0.0
1449615970310285990,6.59985269958,6.05321428754,0.0
1449615970343804242,6.60968634979,6.05321428754,0.0
1449615970376740803,6.60968634979,6.05321428754,0.0
1449615970410268956,6.60968634979,6.05321428754,0.0
1449615970443374151,6.60968634979,6.05321428754,0.0
1449615970477137862,6.59985269958,6.05321428754,0.0
1449615970510055105,6.59985269958,6.05321428754,0.0
1449615970543515817,6.59985269958,6.05321428754,0.0
1449615970576778704,6.59985269958,6.05321428754,0.0
1449615970610251725,6.59985269958,6.05321428754,0.0
1449615970643388379,6.59985269958,6.05321428754,0.0
1449615970676813639,6.60968634979,6.05321428754,0.0
1449615970710020984,6.60968634979,6.05321428754,0.0
1449615970744565150,6.60968634979,6.04257143103,0.0
1449615970776722388,6.60968634979,6.04257143103,0.0
1449615970810492496,6.60968634979,6.04257143103,0.0
1449615970843434579,6.60968634979,6.04257143103,0.0
1449615970877126965,6.59985269958,6.04257143103,0.0
1449615970910054513,6.59985269958,6.04257143103,0.0
1449615970943875480,6.60968634979,6.04257143103,0.0
1449615970976826551,6.60968634979,6.04257143103,0.0
1449615971010541580,6.60968634979,6.04257143103,0.0
1449615971043365511,6.60968634979,6.04257143103,0.0
1449615971077529610,6.59985269958,6.04257143103,0.0
1449615971110055713,6.59985269958,6.04257143103,0.0
1449615971144024802,6.59985269958,6.04257143103,0.0
1449615971176938881,6.59985269958,6.04257143103,0.0
1449615971210604428,6.59985269958,6.04257143103,0.0
1449615971243405170,6.59985269958,6.04257143103,0.0
1449615971276986807,6.59985269958,6.04257143103,0.0
1449615971310080990,6.59985269958,6.04257143103,0.0
1449615971343598038,6.56051809875,6.04257143103,0.0
1449615971376751873,6.56051809875,6.04257143103,0.0
1449615971410387966,6.56051809875,6.04257143103,0.0
1449615971443343925,6.56051809875,6.04257143103,0.0
1449615971476938555,6.59985269958,6.04257143103,0.0
1449615971510311075,6.59985269958,6.04257143103,0.0
1449615971544411445,6.51134984772,6.03192857202,0.0
1449615971576716824,6.51134984772,6.03192857202,0.0
1449615971610408092,6.51134984772,6.03192857202,0.0
1449615971643475960,6.51134984772,6.03192857202,0.0
1449615971677285000,6.60968634979,6.03192857202,0.0
1449615971710048996,6.60968634979,6.03192857202,0.0
1449615971743699966,6.52118349792,6.03192857202,0.0
1449615971776813647,6.52118349792,6.03192857202,0.0
1449615971810199144,6.52118349792,6.03192857202,0.0
1449615971843430581,6.52118349792,6.03192857202,0.0
1449615971876855321,6.60968634979,6.04257143103,0.0
1449615971910096247,6.60968634979,6.04257143103,0.0
1449615971944301201,6.52118349792,6.03192857202,0.0
1449615971977043310,6.52118349792,6.03192857202,0.0
1449615972010272486,6.52118349792,6.03192857202,0.0
1449615972043403902,6.52118349792,6.03192857202,0.0
1449615972077303162,6.60968634979,6.04257143103,0.0
1449615972110106098,6.60968634979,6.04257143103,0.0
1449615972143884242,6.52118349792,6.03192857202,0.0
1449615972176853900,6.52118349792,6.03192857202,0.0
1449615972210603227,6.52118349792,6.03192857202,0.0
1449615972243461126,6.52118349792,6.03192857202,0.0
1449615972277745401,6.59985269958,6.04257143103,0.0
1449615972310264857,6.59985269958,6.04257143103,0.0
1449615972344477719,6.50151619751,6.08514286206,0.0
1449615972377014214,6.50151619751,6.08514286206,0.0
1449615972410540660,6.50151619751,6.08514286206,0.0
1449615972443500192,6.50151619751,6.08514286206,0.0
1449615972476970590,6.52118349792,6.57471429142,0.0
1449615972510331200,6.52118349792,6.57471429142,0.0
1449615972543875267,6.53101714813,6.57471429142,0.0
1449615972576887277,6.53101714813,6.57471429142,0.0
1449615972610326016,6.53101714813,6.57471429142,0.0
1449615972643583179,6.53101714813,6.57471429142,0.0
1449615972676920264,6.52118349792,6.56407143492,0.0
1449615972710158560,6.52118349792,6.56407143492,0.0
1449615972744171387,6.52118349792,6.57471429142,0.0
1449615972776940180,6.52118349792,6.57471429142,0.0
