%time,field.header.seq,field.header.stamp,field.header.frame_id,field.ns,field.id,field.type,field.action,field.pose.position.x,field.pose.position.y,field.pose.position.z,field.pose.orientation.x,field.pose.orientation.y,field.pose.orientation.z,field.pose.orientation.w,field.scale.x,field.scale.y,field.scale.z,field.color.r,field.color.g,field.color.b,field.color.a,field.lifetime,field.frame_locked,field.text,field.mesh_resource,field.mesh_use_embedded_materials
1449617836459417890,0,0,/odom,acmd_vector,0,0,0,0.0,0.0,0.0,0.0,0.0,0.0,1.0,1e-05,0.05,0.05,1.0,0.0,0.0,1.0,0,0,,,0
1449617836481978007,1,0,/odom,acmd_vector,0,0,0,0.0,0.0,0.0,0.0,0.0,0.0,1.0,1e-05,0.05,0.05,1.0,0.0,0.0,1.0,0,0,,,0
1449617836542311998,2,0,/odom,acmd_vector,0,0,0,0.0,0.0,0.0,0.0,0.0,0.0,1.0,1e-05,0.05,0.05,1.0,0.0,0.0,1.0,0,0,,,0
1449617836567940695,3,0,/odom,acmd_vector,0,0,0,0.0,0.0,0.0,0.0,0.0,0.0,1.0,1e-05,0.05,0.05,1.0,0.0,0.0,1.0,0,0,,,0
1449617836631535883,4,0,/odom,acmd_vector,0,0,0,0.0,0.0,0.0,0.0,0.0,0.0,1.0,1e-05,0.05,0.05,1.0,0.0,0.0,1.0,0,0,,,0
1449617836658744435,5,0,/odom,acmd_vector,0,0,0,0.0,0.0,0.0,0.0,0.0,0.0,1.0,1e-05,0.05,0.05,1.0,0.0,0.0,1.0,0,0,,,0
1449617836689103848,6,0,/odom,acmd_vector,0,0,0,0.0,0.0,0.0,0.0,0.0,0.0,1.0,1e-05,0.05,0.05,1.0,0.0,0.0,1.0,0,0,,,0
1449617836723490225,7,0,/odom,acmd_vector,0,0,0,0.0,0.0,0.0,0.0,0.0,0.0,1.0,1e-05,0.05,0.05,1.0,0.0,0.0,1.0,0,0,,,0
1449617836768900679,8,0,/odom,acmd_vector,0,0,0,0.0,0.0,0.0,0.0,0.0,0.0,1.0,1e-05,0.05,0.05,1.0,0.0,0.0,1.0,0,0,,,0
1449617836805529016,9,0,/odom,acmd_vector,0,0,0,0.0,0.0,0.0,0.0,0.0,0.0,1.0,1e-05,0.05,0.05,1.0,0.0,0.0,1.0,0,0,,,0
1449617836857445467,10,0,/odom,acmd_vector,0,0,0,0.0,0.0,0.0,0.0,0.0,0.0,1.0,1e-05,0.05,0.05,1.0,0.0,0.0,1.0,0,0,,,0
1449617836890200556,11,0,/odom,acmd_vector,0,0,0,0.0,0.0,0.0,0.0,0.0,0.0,1.0,1e-05,0.05,0.05,1.0,0.0,0.0,1.0,0,0,,,0
1449617836925258315,12,0,/odom,acmd_vector,0,0,0,0.0,0.0,0.0,0.0,0.0,0.0,1.0,1e-05,0.05,0.05,1.0,0.0,0.0,1.0,0,0,,,0
1449617837019157171,13,0,/odom,acmd_vector,0,0,0,0.0,0.0,0.0,0.0,0.0,0.0,1.0,1e-05,0.05,0.05,1.0,0.0,0.0,1.0,0,0,,,0
1449617837033969651,14,0,/odom,acmd_vector,0,0,0,0.0,0.0,0.0,0.0,0.0,0.0,1.0,1e-05,0.05,0.05,1.0,0.0,0.0,1.0,0,0,,,0
1449617837054844327,15,0,/odom,acmd_vector,0,0,0,0.0,0.0,0.0,0.0,0.0,0.0,1.0,1e-05,0.05,0.05,1.0,0.0,0.0,1.0,0,0,,,0
1449617837124913707,16,0,/odom,acmd_vector,0,0,0,0.0,0.0,0.0,0.0,0.0,-0.0105261213988,0.99994459885,0.12001,0.05,0.05,1.0,0.0,0.0,1.0,0,0,,,0
1449617837133065520,17,0,/odom,acmd_vector,0,0,0,0.0,0.0,0.0,0.0,0.0,-0.0105261213988,0.99994459885,0.12001,0.05,0.05,1.0,0.0,0.0,1.0,0,0,,,0
1449617837171017761,18,0,/odom,acmd_vector,0,0,0,0.0,0.0,0.0,0.0,0.0,-0.0105261213988,0.99994459885,0.12001,0.05,0.05,1.0,0.0,0.0,1.0,0,0,,,0
1449617837205074698,19,0,/odom,acmd_vector,0,0,0,0.0,0.0,0.0,0.0,0.0,-0.0105261213988,0.99994459885,0.12001,0.05,0.05,1.0,0.0,0.0,1.0,0,0,,,0
1449617837260085529,20,0,/odom,acmd_vector,0,0,0,0.0,0.0,0.0,0.0,0.0,-0.0105261213988,0.99994459885,0.12001,0.05,0.05,1.0,0.0,0.0,1.0,0,0,,,0
1449617837289009441,21,0,/odom,acmd_vector,0,0,0,0.0,0.0,0.0,0.0,0.0,-0.0105261213988,0.99994459885,0.12001,0.05,0.05,1.0,0.0,0.0,1.0,0,0,,,0
1449617837325512617,22,0,/odom,acmd_vector,0,0,0,0.0,0.0,0.0,0.0,0.0,-0.0105261213988,0.99994459885,0.12001,0.05,0.05,1.0,0.0,0.0,1.0,0,0,,,0
1449617837410658432,23,0,/odom,acmd_vector,0,0,0,0.0,0.0,0.0,0.0,0.0,-0.0105261213988,0.99994459885,0.12001,0.05,0.05,1.0,0.0,0.0,1.0,0,0,,,0
1449617837433949185,24,0,/odom,acmd_vector,0,0,0,0.0,0.0,0.0,0.0,0.0,-0.0105261213988,0.99994459885,0.12001,0.05,0.05,1.0,0.0,0.0,1.0,0,0,,,0
1449617837445849378,25,0,/odom,acmd_vector,0,0,0,0.00287963245437,3.04332289367e-05,0.0,0.0,0.0,-0.0052422674375,0.999986259222,0.12001,0.05,0.05,1.0,0.0,0.0,1.0,0,0,,,0
1449617837543371545,26,0,/odom,acmd_vector,0,0,0,0.00287963245437,3.04332289367e-05,0.0,0.0,0.0,-0.0052422674375,0.999986259222,0.12001,0.05,0.05,1.0,0.0,0.0,1.0,0,0,,,0
1449617837552714018,27,0,/odom,acmd_vector,0,0,0,0.00287963245437,3.04332289367e-05,0.0,0.0,0.0,-0.0052422674375,0.999986259222,0.12001,0.05,0.05,1.0,0.0,0.0,1.0,0,0,,,0
1449617837568526956,28,0,/odom,acmd_vector,0,0,0,0.00287963245437,3.04332289367e-05,0.0,0.0,0.0,-0.0052422674375,0.999986259222,0.12001,0.05,0.05,1.0,0.0,0.0,1.0,0,0,,,0
1449617837658199346,29,0,/odom,acmd_vector,0,0,0,0.00287963245437,3.04332289367e-05,0.0,0.0,0.0,-0.0052422674375,0.999986259222,0.12001,0.05,0.05,1.0,0.0,0.0,1.0,0,0,,,0
1449617837669182619,30,0,/odom,acmd_vector,0,0,0,0.00287963245437,3.04332289367e-05,0.0,0.0,0.0,-0.0052422674375,0.999986259222,0.12001,0.05,0.05,1.0,0.0,0.0,1.0,0,0,,,0
1449617837685681713,31,0,/odom,acmd_vector,0,0,0,0.00287963245437,3.04332289367e-05,0.0,0.0,0.0,-0.0262918929799,0.99965430843,0.12001,0.05,0.05,1.0,0.0,0.0,1.0,0,0,,,0
1449617837750821838,32,0,/odom,acmd_vector,0,0,0,0.00287963245437,3.04332289367e-05,0.0,0.0,0.0,-0.0262918929799,0.99965430843,0.12001,0.05,0.05,1.0,0.0,0.0,1.0,0,0,,,0
1449617837769271382,33,0,/odom,acmd_vector,0,0,0,0.00863889736311,9.129968681e-05,0.0,0.0,0.0,-0.0262918929799,0.99965430843,0.12001,0.05,0.05,1.0,0.0,0.0,1.0,0,0,,,0
1449617837805873439,34,0,/odom,acmd_vector,0,0,0,0.00863889736311,9.129968681e-05,0.0,0.0,0.0,-0.0262918929799,0.99965430843,0.12001,0.05,0.05,1.0,0.0,0.0,1.0,0,0,,,0
1449617837842475463,35,0,/odom,acmd_vector,0,0,0,0.00863889736311,9.129968681e-05,0.0,0.0,0.0,-0.0262918929799,0.99965430843,0.12001,0.05,0.05,1.0,0.0,0.0,1.0,0,0,,,0
1449617837921455576,36,0,/odom,acmd_vector,0,0,0,0.0115180474012,0.000152162745821,0.0,0.0,0.0,-0.0210093528163,0.999779279188,0.12001,0.05,0.05,1.0,0.0,0.0,1.0,0,0,,,0
1449617837935517278,37,0,/odom,acmd_vector,0,0,0,0.0143976798556,0.000182595974757,0.0,0.0,0.0,-0.0262918929799,0.99965430843,0.12001,0.05,0.05,1.0,0.0,0.0,1.0,0,0,,,0
1449617837971212250,38,0,/odom,acmd_vector,0,0,0,0.0143976798556,0.000182595974757,0.0,0.0,0.0,-0.0262918929799,0.99965430843,0.12001,0.05,0.05,1.0,0.0,0.0,1.0,0,0,,,0
1449617838020319917,39,0,/odom,acmd_vector,0,0,0,0.0172768298936,0.000243459033768,0.0,0.0,0.0,-0.0210093528163,0.999779279188,0.12001,0.05,0.05,1.0,0.0,0.0,1.0,0,0,,,0
1449617838069854858,40,0,/odom,acmd_vector,0,0,0,0.0172768298936,0.000243459033768,0.0,0.0,0.0,-0.0210093528163,0.999779279188,0.12001,0.05,0.05,1.0,0.0,0.0,1.0,0,0,,,0
1449617838093346776,41,0,/odom,acmd_vector,0,0,0,0.0230343260025,0.000395608184518,0.0,0.0,0.0,-0.0210093528163,0.999779279188,0.12001,0.05,0.05,1.0,0.0,0.0,1.0,0,0,,,0
1449617838166142121,42,0,/odom,acmd_vector,0,0,0,0.0230343260025,0.000395608184518,0.0,0.0,0.0,-0.0210093528163,0.999779279188,0.12001,0.05,0.05,1.0,0.0,0.0,1.0,0,0,,,0
1449617838177770173,43,0,/odom,acmd_vector,0,0,0,0.0259126720733,0.000486894276258,0.0,0.0,0.0,-0.0367712143494,0.999323710214,0.12001,0.05,0.05,1.0,0.0,0.0,1.0,0,0,,,0
1449617838204930343,44,0,/odom,acmd_vector,0,0,0,0.0259126720733,0.000486894276258,0.0,0.0,0.0,-0.0367712143494,0.999323710214,0.12001,0.05,0.05,1.0,0.0,0.0,1.0,0,0,,,0
1449617838247354667,45,0,/odom,acmd_vector,0,0,0,0.0316693642148,0.000669466459736,0.0,0.0,0.0,-0.0157262260538,0.999876335261,0.12001,0.05,0.05,1.0,0.0,0.0,1.0,0,0,,,0
1449617838302865939,46,0,/odom,acmd_vector,0,0,0,0.0316693642148,0.000669466459736,0.0,0.0,0.0,-0.0157262260538,0.999876335261,0.12001,0.05,0.05,1.0,0.0,0.0,1.0,0,0,,,0
1449617838326424263,47,0,/odom,acmd_vector,0,0,0,0.0374260563564,0.000852038643215,0.0,0.0,0.0,-0.0157262260538,0.999876335261,0.12001,0.05,0.05,1.0,0.0,0.0,1.0,0,0,,,0
1449617838368512351,48,0,/odom,acmd_vector,0,0,0,0.0374260563564,0.000852038643215,0.0,0.0,0.0,-0.0157262260538,0.999876335261,0.12001,0.05,0.05,1.0,0.0,0.0,1.0,0,0,,,0
1449617838408850418,49,0,/odom,acmd_vector,0,0,0,0.0403032769986,0.000973737572614,0.0,0.0,0.0,-0.0104426602016,0.999945473937,0.12001,0.05,0.05,1.0,0.0,0.0,1.0,0,0,,,0
1449617838446979890,50,0,/odom,acmd_vector,0,0,0,0.0460577182832,0.00121713543141,0.0,0.0,0.0,-0.0104426602016,0.999945473937,0.12001,0.05,0.05,1.0,0.0,0.0,1.0,0,0,,,0
1449617838485949603,51,0,/odom,acmd_vector,0,0,0,0.0460577182832,0.00121713543141,0.0,0.0,0.0,-0.0104426602016,0.999945473937,0.12001,0.05,0.05,1.0,0.0,0.0,1.0,0,0,,,0
1449617838530721870,52,0,/odom,acmd_vector,0,0,0,0.0489334921614,0.00136923360681,0.0,0.0,0.0,-0.00515880278156,0.999986693288,0.12001,0.05,0.05,1.0,0.0,0.0,1.0,0,0,,,0
1449617838569734498,53,0,/odom,acmd_vector,0,0,0,0.0518107128037,0.00149093253621,0.0,0.0,0.0,-0.0104426602016,0.999945473937,0.12001,0.05,0.05,1.0,0.0,0.0,1.0,0,0,,,0
1449617838610546271,54,0,/odom,acmd_vector,0,0,0,0.0546864866819,0.00164303071162,0.0,0.0,0.0,-0.00515880278156,0.999986693288,0.12001,0.05,0.05,1.0,0.0,0.0,1.0,0,0,,,0
1449617838682909827,55,0,/odom,acmd_vector,0,0,0,0.0604380344384,0.00194722706242,0.0,0.0,0.0,-0.00515880278156,0.999986693288,0.12001,0.05,0.05,1.0,0.0,0.0,1.0,0,0,,,0
1449617838694794687,56,0,/odom,acmd_vector,0,0,0,0.0661895821948,0.00225142341323,0.0,0.0,0.0,-0.00515880278156,0.999986693288,0.12001,0.05,0.05,1.0,0.0,0.0,1.0,0,0,,,0
1449617838724504660,57,0,/odom,acmd_vector,0,0,0,0.0661895821948,0.00225142341323,0.0,0.0,0.0,-0.00515880278156,0.999986693288,0.12001,0.05,0.05,1.0,0.0,0.0,1.0,0,0,,,0
1449617838821291162,58,0,/odom,acmd_vector,0,0,0,0.0719411299513,0.00255561976404,0.0,0.0,0.0,-0.00515880278156,0.999986693288,0.12001,0.05,0.05,1.0,0.0,0.0,1.0,0,0,,,0
1449617838821315740,59,0,/odom,acmd_vector,0,0,0,0.0805631477721,0.0031030610681,0.0,0.0,0.0,0.000125198676653,0.999999992163,0.12001,0.05,0.05,1.0,0.0,0.0,1.0,0,0,,,0
1449617838851420214,60,0,/odom,acmd_vector,0,0,0,0.0805631477721,0.0031030610681,0.0,0.0,0.0,0.000125198676653,0.999999992163,0.12001,0.05,0.05,1.0,0.0,0.0,1.0,0,0,,,0
1449617838961043140,61,0,/odom,acmd_vector,0,0,0,0.0863111596526,0.00346802193747,0.0,0.0,0.0,0.000125198676653,0.999999992163,0.12001,0.05,0.05,1.0,0.0,0.0,1.0,0,0,,,0
1449617838990643342,62,0,/odom,acmd_vector,0,0,0,0.100670744782,0.00453223350786,0.0,0.0,0.0,-0.0156427705362,0.99987764438,0.12001,0.05,0.05,1.0,0.0,0.0,1.0,0,0,,,0
1449617839014577237,63,0,/odom,acmd_vector,0,0,0,0.106414578833,0.00495791813602,0.0,0.0,0.0,-0.0156427705362,0.99987764438,0.12001,0.05,0.05,1.0,0.0,0.0,1.0,0,0,,,0
1449617839058611864,64,0,/odom,acmd_vector,0,0,0,0.106414578833,0.00495791813602,0.0,0.0,0.0,-0.0156427705362,0.99987764438,0.12001,0.05,0.05,1.0,0.0,0.0,1.0,0,0,,,0
1449617839097159648,65,0,/odom,acmd_vector,0,0,0,0.115023100938,0.00568745940406,0.0,0.0,0.0,-0.112489207734,0.993652946528,1e-05,0.05,0.05,1.0,0.0,0.0,1.0,0,0,,,0
1449617839134444277,66,0,/odom,acmd_vector,0,0,0,0.120762115674,0.00617382024943,0.0,0.0,0.0,-0.112489207734,0.993652946528,1e-05,0.05,0.05,1.0,0.0,0.0,1.0,0,0,,,0
1449617839167383286,67,0,/odom,acmd_vector,0,0,0,0.12650113041,0.0066601810948,0.0,0.0,0.0,-0.112489207734,0.993652946528,1e-05,0.05,0.05,1.0,0.0,0.0,1.0,0,0,,,0
1449617839237503936,68,0,/odom,acmd_vector,0,0,0,0.135101462119,0.00748065521159,0.0,0.0,0.0,-0.107237175414,0.994233467657,1e-05,0.05,0.05,1.0,0.0,0.0,1.0,0,0,,,0
1449617839250158808,69,0,/odom,acmd_vector,0,0,0,0.152310315933,0.00903067059643,0.0,0.0,0.0,-0.110114766347,0.993918879101,1e-05,0.05,0.05,1.0,0.0,0.0,1.0,0,0,,,0
1449617839290477130,70,0,/odom,acmd_vector,0,0,0,0.152310315933,0.00903067059643,0.0,0.0,0.0,-0.151854023748,0.98840293174,1e-05,0.05,0.05,1.0,0.0,0.0,1.0,0,0,,,0
1449617839329121384,71,0,/odom,acmd_vector,0,0,0,0.158043870405,0.00957765334095,0.0,0.0,0.0,-0.151854023748,0.98840293174,1e-05,0.05,0.05,1.0,0.0,0.0,1.0,0,0,,,0
1449617839427393737,72,0,/odom,acmd_vector,0,0,0,0.169510979351,0.01067161883,0.0,0.0,0.0,-0.151854023748,0.98840293174,1e-05,0.05,0.05,1.0,0.0,0.0,1.0,0,0,,,0
1449617839460536515,73,0,/odom,acmd_vector,0,0,0,0.195302823575,0.0132238823964,0.0,0.0,0.0,-0.146629182955,0.989191529839,1e-05,0.05,0.05,1.0,0.0,0.0,1.0,0,0,,,0
1449617839471122173,74,0,/odom,acmd_vector,0,0,0,0.195302823575,0.0132238823964,0.0,0.0,0.0,0.0528156577107,0.998604279132,1e-05,0.05,0.05,1.0,0.0,0.0,1.0,0,0,,,0
1449617839507421859,75,0,/odom,acmd_vector,0,0,0,0.206757731317,0.0144389695069,0.0,0.0,0.0,0.0528156577107,0.998604279132,1e-05,0.05,0.05,1.0,0.0,0.0,1.0,0,0,,,0
1449617839528672142,76,0,/odom,acmd_vector,0,0,0,0.218212639059,0.0156540566173,0.0,0.0,0.0,0.0528156577107,0.998604279132,1e-05,0.05,0.05,1.0,0.0,0.0,1.0,0,0,,,0
1449617839596549808,77,0,/odom,acmd_vector,0,0,0,0.218212639059,0.0156540566173,0.0,0.0,0.0,0.0528156577107,0.998604279132,1e-05,0.05,0.05,1.0,0.0,0.0,1.0,0,0,,,0
1449617839613298408,78,0,/odom,acmd_vector,0,0,0,0.235395000672,0.017476687283,0.0,0.0,0.0,0.0528156577107,0.998604279132,1e-05,0.05,0.05,1.0,0.0,0.0,1.0,0,0,,,0
1449617839650536767,79,0,/odom,acmd_vector,0,0,0,0.235395000672,0.017476687283,0.0,0.0,0.0,0.0528156577107,0.998604279132,1e-05,0.05,0.05,1.0,0.0,0.0,1.0,0,0,,,0
1449617839733140555,80,0,/odom,acmd_vector,0,0,0,0.246849908414,0.0186917743934,0.0,0.0,0.0,0.0528156577107,0.998604279132,1e-05,0.05,0.05,1.0,0.0,0.0,1.0,0,0,,,0
1449617839739575131,81,0,/odom,acmd_vector,0,0,0,0.266872406056,0.021029902192,0.0,0.0,0.0,0.0580915451448,0.99831126027,1e-05,0.05,0.05,1.0,0.0,0.0,1.0,0,0,,,0
1449617839788892726,82,0,/odom,acmd_vector,0,0,0,0.266872406056,0.021029902192,0.0,0.0,0.0,0.0580915451448,0.99831126027,1e-05,0.05,0.05,1.0,0.0,0.0,1.0,0,0,,,0
1449617839836308682,83,0,/odom,acmd_vector,0,0,0,0.281191040733,0.02254876108,0.0,0.0,0.0,0.0528156577107,0.998604279132,1e-05,0.05,0.05,1.0,0.0,0.0,1.0,0,0,,,0
1449617839849877615,84,0,/odom,acmd_vector,0,0,0,0.301227018893,0.0247659029613,0.0,0.0,0.0,0.0580915451448,0.99831126027,1e-05,0.05,0.05,1.0,0.0,0.0,1.0,0,0,,,0
1449617839895081082,85,0,/odom,acmd_vector,0,0,0,0.301227018893,0.0247659029613,0.0,0.0,0.0,0.0580915451448,0.99831126027,1e-05,0.05,0.05,1.0,0.0,0.0,1.0,0,0,,,0
1449617839936523600,86,0,/odom,acmd_vector,0,0,0,0.312668446117,0.026101975989,0.0,0.0,0.0,0.0580915451448,0.99831126027,1e-05,0.05,0.05,1.0,0.0,0.0,1.0,0,0,,,0
1449617839973449025,87,0,/odom,acmd_vector,0,0,0,0.326987080794,0.0276208348771,0.0,0.0,0.0,0.0528156577107,0.998604279132,1e-05,0.05,0.05,1.0,0.0,0.0,1.0,0,0,,,0
1449617840012475745,88,0,/odom,acmd_vector,0,0,0,0.338441988536,0.0288359219875,0.0,0.0,0.0,0.0528156577107,0.998604279132,1e-05,0.05,0.05,1.0,0.0,0.0,1.0,0,0,,,0
1449617840099986829,89,0,/odom,acmd_vector,0,0,0,0.344169442407,0.0294434655428,0.0,0.0,0.0,0.0528156577107,0.998604279132,1e-05,0.05,0.05,1.0,0.0,0.0,1.0,0,0,,,0
1449617840115158501,90,0,/odom,acmd_vector,0,0,0,0.369970437534,0.0319048878931,0.0,0.0,0.0,0.0475382956186,0.998869416115,1e-05,0.05,0.05,1.0,0.0,0.0,1.0,0,0,,,0
1449617840131035996,91,0,/odom,acmd_vector,0,0,0,0.37856161834,0.032816203226,0.0,0.0,0.0,0.0528156577107,0.998604279132,1e-05,0.05,0.05,1.0,0.0,0.0,1.0,0,0,,,0
1449617840204236157,92,0,/odom,acmd_vector,0,0,0,0.37856161834,0.032816203226,0.0,0.0,0.0,0.0528156577107,0.998604279132,1e-05,0.05,0.05,1.0,0.0,0.0,1.0,0,0,,,0
1449617840211279808,93,0,/odom,acmd_vector,0,0,0,0.398629058995,0.0347306428318,0.0,0.0,0.0,0.0475382956186,0.998869416115,1e-05,0.05,0.05,1.0,0.0,0.0,1.0,0,0,,,0
1449617840250212590,94,0,/odom,acmd_vector,0,0,0,0.398629058995,0.0347306428318,0.0,0.0,0.0,0.0475382956186,0.998869416115,1e-05,0.05,0.05,1.0,0.0,0.0,1.0,0,0,,,0
1449617840291777083,95,0,/odom,acmd_vector,0,0,0,0.412976595836,0.0359465449452,0.0,0.0,0.0,0.042259606217,0.999106663816,1e-05,0.05,0.05,1.0,0.0,0.0,1.0,0,0,,,0
1449617840345904887,96,0,/odom,acmd_vector,0,0,0,0.424454625308,0.036919266636,0.0,0.0,0.0,0.042259606217,0.999106663816,1e-05,0.05,0.05,1.0,0.0,0.0,1.0,0,0,,,0
1449617840377596911,97,0,/odom,acmd_vector,0,0,0,0.430193640044,0.0374056274813,0.0,0.0,0.0,0.042259606217,0.999106663816,1e-05,0.05,0.05,1.0,0.0,0.0,1.0,0,0,,,0
1449617840439785584,98,0,/odom,acmd_vector,0,0,0,0.444553225173,0.0384698390517,0.0,0.0,0.0,0.0369797368913,0.999316015612,1e-05,0.05,0.05,1.0,0.0,0.0,1.0,0,0,,,0
1449617840450288397,99,0,/odom,acmd_vector,0,0,0,0.46752856138,0.0401725775643,0.0,0.0,0.0,0.0369797368913,0.999316015612,1e-05,0.05,0.05,1.0,0.0,0.0,1.0,0,0,,,0
1449617840489583801,100,0,/odom,acmd_vector,0,0,0,0.46752856138,0.0401725775643,0.0,0.0,0.0,0.0369797368913,0.999316015612,1e-05,0.05,0.05,1.0,0.0,0.0,1.0,0,0,,,0
1449617840583271083,101,0,/odom,acmd_vector,0,0,0,0.479016229483,0.0410239468207,0.0,0.0,0.0,0.0369797368913,0.999316015612,1e-05,0.05,0.05,1.0,0.0,0.0,1.0,0,0,,,0
1449617840595056413,102,0,/odom,acmd_vector,0,0,0,0.504873927287,0.0427877182504,0.0,0.0,0.0,0.0316988350601,0.999497465658,1e-05,0.05,0.05,1.0,0.0,0.0,1.0,0,0,,,0
1449617840678401010,103,0,/odom,acmd_vector,0,0,0,0.510621939168,0.0431526791198,0.0,0.0,0.0,0.0316988350601,0.999497465658,1e-05,0.05,0.05,1.0,0.0,0.0,1.0,0,0,,,0
1449617840724059428,104,0,/odom,acmd_vector,0,0,0,0.530752356316,0.0442173663476,0.0,0.0,0.0,0.0264170481704,0.999651008886,1e-05,0.05,0.05,1.0,0.0,0.0,1.0,0,0,,,0
1449617840734607753,105,0,/odom,acmd_vector,0,0,0,0.542255451828,0.0448257590492,0.0,0.0,0.0,0.0264170481704,0.999651008886,1e-05,0.05,0.05,1.0,0.0,0.0,1.0,0,0,,,0
1449617840770447594,106,0,/odom,acmd_vector,0,0,0,0.542255451828,0.0448257590492,0.0,0.0,0.0,0.0264170481704,0.999651008886,1e-05,0.05,0.05,1.0,0.0,0.0,1.0,0,0,,,0
1449617840813378157,107,0,/odom,acmd_vector,0,0,0,0.55664155504,0.0454342536962,0.0,0.0,0.0,0.0211345236944,0.999776641009,1e-05,0.05,0.05,1.0,0.0,0.0,1.0,0,0,,,0
1449617840872183050,108,0,/odom,acmd_vector,0,0,0,0.565276593252,0.0457081119714,0.0,0.0,0.0,0.0158514091245,0.999874358521,1e-05,0.05,0.05,1.0,0.0,0.0,1.0,0,0,,,0
1449617840893263242,109,0,/odom,acmd_vector,0,0,0,0.582543293391,0.0463470670348,0.0,0.0,0.0,0.0158514091245,0.999874358521,1e-05,0.05,0.05,1.0,0.0,0.0,1.0,0,0,,,0
1449617840957313678,110,0,/odom,acmd_vector,0,0,0,0.582543293391,0.0463470670348,0.0,0.0,0.0,0.0158514091245,0.999874358521,1e-05,0.05,0.05,1.0,0.0,0.0,1.0,0,0,,,0
1449617840972833246,111,0,/odom,acmd_vector,0,0,0,0.605574081794,0.0469252406051,0.0,0.0,0.0,0.0158514091245,0.999874358521,1e-05,0.05,0.05,1.0,0.0,0.0,1.0,0,0,,,0
1449617841009485922,112,0,/odom,acmd_vector,0,0,0,0.605574081794,0.0469252406051,0.0,0.0,0.0,0.0158514091245,0.999874358521,1e-05,0.05,0.05,1.0,0.0,0.0,1.0,0,0,,,0
1449617841074564033,113,0,/odom,acmd_vector,0,0,0,0.614211531908,0.0471078297821,0.0,0.0,0.0,0.0105678519699,0.999944158693,1e-05,0.05,0.05,1.0,0.0,0.0,1.0,0,0,,,0
1449617841090418814,114,0,/odom,acmd_vector,0,0,0,0.634367029424,0.047442581705,0.0,0.0,0.0,0.0052839997518,0.999986039576,1e-05,0.05,0.05,1.0,0.0,0.0,1.0,0,0,,,0
1449617841129139334,115,0,/odom,acmd_vector,0,0,0,0.634367029424,0.047442581705,0.0,0.0,0.0,0.0052839997518,0.999986039576,1e-05,0.05,0.05,1.0,0.0,0.0,1.0,0,0,,,0
1449617841189483429,116,0,/odom,acmd_vector,0,0,0,0.648765995753,0.047442581705,0.0,0.0,0.0,0.0,1.0,1e-05,0.05,0.05,1.0,0.0,0.0,1.0,0,0,,,0
1449617841209747181,117,0,/odom,acmd_vector,0,0,0,0.668924066179,0.0473512820182,0.0,0.0,0.0,-0.0052839997518,0.999986039576,1e-05,0.05,0.05,1.0,0.0,0.0,1.0,0,0,,,0
1449617841248185793,118,0,/odom,acmd_vector,0,0,0,0.668924066179,0.0473512820182,0.0,0.0,0.0,-0.0052839997518,0.999986039576,1e-05,0.05,0.05,1.0,0.0,0.0,1.0,0,0,,,0
1449617841302640515,119,0,/odom,acmd_vector,0,0,0,0.680442595996,0.0472295491024,0.0,0.0,0.0,-0.0052839997518,0.999986039576,1e-05,0.05,0.05,1.0,0.0,0.0,1.0,0,0,,,0
1449617841334052480,120,0,/odom,acmd_vector,0,0,0,0.691961125814,0.0471078161867,0.0,0.0,0.0,-0.0052839997518,0.999986039576,1e-05,0.05,0.05,1.0,0.0,0.0,1.0,0,0,,,0
1449617841382795216,121,0,/odom,acmd_vector,0,0,0,0.700598575928,0.0469252270097,0.0,0.0,0.0,-0.0105678519699,0.999944158693,1e-05,0.05,0.05,1.0,0.0,0.0,1.0,0,0,,,0
1449617841410721983,122,0,/odom,acmd_vector,0,0,0,0.71211517608,0.0466817747736,0.0,0.0,0.0,-0.0105678519699,0.999944158693,1e-05,0.05,0.05,1.0,0.0,0.0,1.0,0,0,,,0
1449617841466582328,123,0,/odom,acmd_vector,0,0,0,0.720750214293,0.0464079164984,0.0,0.0,0.0,-0.0158514091245,0.999874358521,1e-05,0.05,0.05,1.0,0.0,0.0,1.0,0,0,,,0
1449617841500730218,124,0,/odom,acmd_vector,0,0,0,0.746649701787,0.0454342774844,0.0,0.0,0.0,-0.0211345236944,0.999776641009,1e-05,0.05,0.05,1.0,0.0,0.0,1.0,0,0,,,0
1449617841532367216,125,0,/odom,acmd_vector,0,0,0,0.746649701787,0.0454342774844,0.0,0.0,0.0,-0.0211345236944,0.999776641009,1e-05,0.05,0.05,1.0,0.0,0.0,1.0,0,0,,,0
1449617841580127239,126,0,/odom,acmd_vector,0,0,0,0.752404143072,0.0451908796257,0.0,0.0,0.0,-0.0211345236944,0.999776641009,1e-05,0.05,0.05,1.0,0.0,0.0,1.0,0,0,,,0
1449617841626308208,127,0,/odom,acmd_vector,0,0,0,0.763913025641,0.0447040839081,0.0,0.0,0.0,-0.0211345236944,0.999776641009,1e-05,0.05,0.05,1.0,0.0,0.0,1.0,0,0,,,0
1449617841652346455,128,0,/odom,acmd_vector,0,0,0,0.784043442788,0.0436393966802,0.0,0.0,0.0,-0.0264170481704,0.999651008886,1e-05,0.05,0.05,1.0,0.0,0.0,1.0,0,0,,,0
1449617841690759032,129,0,/odom,acmd_vector,0,0,0,0.784043442788,0.0436393966802,0.0,0.0,0.0,-0.0264170481704,0.999651008886,1e-05,0.05,0.05,1.0,0.0,0.0,1.0,0,0,,,0
1449617841764327974,130,0,/odom,acmd_vector,0,0,0,0.795546538301,0.0430310039786,0.0,0.0,0.0,-0.0264170481704,0.999651008886,1e-05,0.05,0.05,1.0,0.0,0.0,1.0,0,0,,,0
1449617841777503956,131,0,/odom,acmd_vector,0,0,0,0.81853231908,0.041480074863,0.0,0.0,0.0,-0.0369797368913,0.999316015612,1e-05,0.05,0.05,1.0,0.0,0.0,1.0,0,0,,,0
1449617841860729514,132,0,/odom,acmd_vector,0,0,0,0.81853231908,0.041480074863,0.0,0.0,0.0,-0.0369797368913,0.999316015612,1e-05,0.05,0.05,1.0,0.0,0.0,1.0,0,0,,,0
1449617841884334122,133,0,/odom,acmd_vector,0,0,0,0.838628509287,0.0398991643386,0.0,0.0,0.0,-0.042259606217,0.999106663816,1e-05,0.05,0.05,1.0,0.0,0.0,1.0,0,0,,,0
1449617841897584327,134,0,/odom,acmd_vector,0,0,0,0.85010653876,0.0389264426479,0.0,0.0,0.0,-0.042259606217,0.999106663816,1e-05,0.05,0.05,1.0,0.0,0.0,1.0,0,0,,,0
1449617841991852106,135,0,/odom,acmd_vector,0,0,0,0.85010653876,0.0389264426479,0.0,0.0,0.0,-0.042259606217,0.999106663816,1e-05,0.05,0.05,1.0,0.0,0.0,1.0,0,0,,,0
1449617842008529180,136,0,/odom,acmd_vector,0,0,0,0.88164108836,0.035918037553,0.0,0.0,0.0,-0.0475382956186,0.998869416115,1e-05,0.05,0.05,1.0,0.0,0.0,1.0,0,0,,,0
1449617842025535086,137,0,/odom,acmd_vector,0,0,0,0.88164108836,0.035918037553,0.0,0.0,0.0,-0.0475382956186,0.998869416115,1e-05,0.05,0.05,1.0,0.0,0.0,1.0,0,0,,,0
1449617842084883704,138,0,/odom,acmd_vector,0,0,0,0.890232269166,0.0350067222201,0.0,0.0,0.0,-0.0528156577107,0.998604279132,1e-05,0.05,0.05,1.0,0.0,0.0,1.0,0,0,,,0
1449617842102338947,139,0,/odom,acmd_vector,0,0,0,0.901687176908,0.0337916351097,0.0,0.0,0.0,-0.0528156577107,0.998604279132,1e-05,0.05,0.05,1.0,0.0,0.0,1.0,0,0,,,0
1449617842145300511,140,0,/odom,acmd_vector,0,0,0,0.901687176908,0.0337916351097,0.0,0.0,0.0,-0.0528156577107,0.998604279132,1e-05,0.05,0.05,1.0,0.0,0.0,1.0,0,0,,,0
1449617842184210043,141,0,/odom,acmd_vector,0,0,0,0.921723155068,0.0315744932284,0.0,0.0,0.0,-0.0580915451448,0.99831126027,1e-05,0.05,0.05,1.0,0.0,0.0,1.0,0,0,,,0
1449617842218599537,142,0,/odom,acmd_vector,0,0,0,0.921723155068,0.0315744932284,0.0,0.0,0.0,-0.0580915451448,0.99831126027,1e-05,0.05,0.05,1.0,0.0,0.0,1.0,0,0,,,0
1449617842282783576,143,0,/odom,acmd_vector,0,0,0,0.930293156741,0.0304818109317,0.0,0.0,0.0,-0.0633658106137,0.997990367712,1e-05,0.05,0.05,1.0,0.0,0.0,1.0,0,0,,,0
1449617842304531845,144,0,/odom,acmd_vector,0,0,0,0.947433160088,0.0282964463384,0.0,0.0,0.0,-0.0633658106137,0.997990367712,1e-05,0.05,0.05,1.0,0.0,0.0,1.0,0,0,,,0
1449617842335515382,145,0,/odom,acmd_vector,0,0,0,0.947433160088,0.0282964463384,0.0,0.0,0.0,-0.0633658106137,0.997990367712,1e-05,0.05,0.05,1.0,0.0,0.0,1.0,0,0,,,0
1449617842410368547,146,0,/odom,acmd_vector,0,0,0,0.958859828986,0.0268395366095,0.0,0.0,0.0,-0.0633658106137,0.997990367712,1e-05,0.05,0.05,1.0,0.0,0.0,1.0,0,0,,,0
1449617842438438302,147,0,/odom,acmd_vector,0,0,0,0.973123122,0.0248675569613,0.0,0.0,0.0,-0.0686383068554,0.997641610415,1e-05,0.05,0.05,1.0,0.0,0.0,1.0,0,0,,,0
1449617842451578719,148,0,/odom,acmd_vector,0,0,0,0.984533756412,0.0232899732427,0.0,0.0,0.0,-0.0686383068554,0.997641610415,1e-05,0.05,0.05,1.0,0.0,0.0,1.0,0,0,,,0
1449617842538486756,149,0,/odom,acmd_vector,0,0,0,0.984533756412,0.0232899732427,0.0,0.0,0.0,-0.0686383068554,0.997641610415,1e-05,0.05,0.05,1.0,0.0,0.0,1.0,0,0,,,0
1449617842547159509,150,0,/odom,acmd_vector,0,0,0,0.998775413356,0.0211673713432,0.0,0.0,0.0,-0.0739088866573,0.997264998119,1e-05,0.05,0.05,1.0,0.0,0.0,1.0,0,0,,,0
1449617842572016584,151,0,/odom,acmd_vector,0,0,0,1.00730647155,0.0198035790874,0.0,0.0,0.0,-0.0791774028604,0.996860541338,1e-05,0.05,0.05,1.0,0.0,0.0,1.0,0,0,,,0
1449617842631867951,152,0,/odom,acmd_vector,0,0,0,1.00730647155,0.0198035790874,0.0,0.0,0.0,-0.0791774028604,0.996860541338,1e-05,0.05,0.05,1.0,0.0,0.0,1.0,0,0,,,0
1449617842655711338,153,0,/odom,acmd_vector,0,0,0,1.01869515179,0.0180754205291,0.0,0.0,0.0,-0.0791774028604,0.996860541338,1e-05,0.05,0.05,1.0,0.0,0.0,1.0,0,0,,,0
1449617842745727093,154,0,/odom,acmd_vector,0,0,0,1.01869515179,0.0180754205291,0.0,0.0,0.0,-0.0791774028604,0.996860541338,1e-05,0.05,0.05,1.0,0.0,0.0,1.0,0,0,,,0
1449617842762417173,155,0,/odom,acmd_vector,0,0,0,1.03858606551,0.0148031597946,0.0,0.0,0.0,-0.0844437083633,0.996428251365,1e-05,0.05,0.05,1.0,0.0,0.0,1.0,0,0,,,0
1449617842783410276,156,0,/odom,acmd_vector,0,0,0,1.04426351181,0.0138339124213,0.0,0.0,0.0,-0.0844437083633,0.996428251365,1e-05,0.05,0.05,1.0,0.0,0.0,1.0,0,0,,,0
1449617842836323709,157,0,/odom,acmd_vector,0,0,0,1.04426351181,0.0138339124213,0.0,0.0,0.0,-0.0844437083633,0.996428251365,1e-05,0.05,0.05,1.0,0.0,0.0,1.0,0,0,,,0
1449617842857716206,158,0,/odom,acmd_vector,0,0,0,1.05844128772,0.0113208775558,0.0,0.0,0.0,-0.0897076561262,0.99596814027,1e-05,0.05,0.05,1.0,0.0,0.0,1.0,0,0,,,0
1449617842891466345,159,0,/odom,acmd_vector,0,0,0,1.05844128772,0.0113208775558,0.0,0.0,0.0,-0.0897076561262,0.99596814027,1e-05,0.05,0.05,1.0,0.0,0.0,1.0,0,0,,,0
1449617842941836289,160,0,/odom,acmd_vector,0,0,0,1.06410817413,0.0102916858943,0.0,0.0,0.0,-0.0897076561262,0.99596814027,1e-05,0.05,0.05,1.0,0.0,0.0,1.0,0,0,,,0
1449617842977305971,161,0,/odom,acmd_vector,0,0,0,1.06977506054,0.00926249423289,0.0,0.0,0.0,-0.0897076561262,0.99596814027,1e-05,0.05,0.05,1.0,0.0,0.0,1.0,0,0,,,0
1449617843073004722,162,0,/odom,acmd_vector,0,0,0,1.07825860096,0.00762896272284,0.0,0.0,0.0,-0.0949690991753,0.995480220899,1e-05,0.05,0.05,1.0,0.0,0.0,1.0,0,0,,,0
1449617843090697647,163,0,/odom,acmd_vector,0,0,0,1.1008981646,0.00336262271394,0.0,0.0,0.0,-0.0949690991753,0.995480220899,1e-05,0.05,0.05,1.0,0.0,0.0,1.0,0,0,,,0
1449617843102800159,164,0,/odom,acmd_vector,0,0,0,1.1008981646,0.00336262271394,0.0,0.0,0.0,-0.0949690991753,0.995480220899,1e-05,0.05,0.05,1.0,0.0,0.0,1.0,0,0,,,0
1449617843142592329,165,0,/odom,acmd_vector,0,0,0,1.1008981646,0.00336262271394,0.0,0.0,0.0,-0.0949690991753,0.995480220899,1e-05,0.05,0.05,1.0,0.0,0.0,1.0,0,0,,,0
1449617843190634607,166,0,/odom,acmd_vector,0,0,0,1.10655385822,0.00227360170724,0.0,0.0,0.0,-0.0949690991753,0.995480220899,1e-05,0.05,0.05,1.0,0.0,0.0,1.0,0,0,,,0
1449617843214797477,167,0,/odom,acmd_vector,0,0,0,1.12066353117,-0.000598220110881,0.0,0.0,0.0,-0.100227890607,0.994964506877,1e-05,0.05,0.05,1.0,0.0,0.0,1.0,0,0,,,0
1449617843251896988,168,0,/odom,acmd_vector,0,0,0,1.12066353117,-0.000598220110881,0.0,0.0,0.0,-0.100227890607,0.994964506877,1e-05,0.05,0.05,1.0,0.0,0.0,1.0,0,0,,,0
1449617843297149007,169,0,/odom,acmd_vector,0,0,0,1.12630740035,-0.00174694883813,0.0,0.0,0.0,-0.100227890607,0.994964506877,1e-05,0.05,0.05,1.0,0.0,0.0,1.0,0,0,,,0
1449617843331733988,170,0,/odom,acmd_vector,0,0,0,1.13475452199,-0.00355941107029,0.0,0.0,0.0,-0.10548388359,0.994421012601,1e-05,0.05,0.05,1.0,0.0,0.0,1.0,0,0,,,0
1449617843372605710,171,0,/odom,acmd_vector,0,0,0,1.14038593641,-0.00476771922506,0.0,0.0,0.0,-0.10548388359,0.994421012601,1e-05,0.05,0.05,1.0,0.0,0.0,1.0,0,0,,,0
1449617843421680053,172,0,/odom,acmd_vector,0,0,0,1.14881343252,-0.00666934817798,0.0,0.0,0.0,-0.110736931374,0.993849753247,1e-05,0.05,0.05,1.0,0.0,0.0,1.0,0,0,,,0
1449617843462730130,173,0,/odom,acmd_vector,0,0,0,1.15443176325,-0.00793710081326,0.0,0.0,0.0,-0.110736931374,0.993849753247,1e-05,0.05,0.05,1.0,0.0,0.0,1.0,0,0,,,0
1449617843527150271,174,0,/odom,acmd_vector,0,0,0,1.16005009399,-0.00920485344854,0.0,0.0,0.0,-0.110736931374,0.993849753247,1e-05,0.05,0.05,1.0,0.0,0.0,1.0,0,0,,,0
1449617843536677276,175,0,/odom,acmd_vector,0,0,0,1.17406164294,-0.0125224922732,0.0,0.0,0.0,-0.115986887289,0.993250744765,1e-05,0.05,0.05,1.0,0.0,0.0,1.0,0,0,,,0
1449617843569075339,176,0,/odom,acmd_vector,0,0,0,1.17406164294,-0.0125224922732,0.0,0.0,0.0,-0.115986887289,0.993250744765,1e-05,0.05,0.05,1.0,0.0,0.0,1.0,0,0,,,0
1449617843623744729,177,0,/odom,acmd_vector,0,0,0,1.17966626252,-0.0138495478031,0.0,0.0,0.0,-0.115986887289,0.993250744765,1e-05,0.05,0.05,1.0,0.0,0.0,1.0,0,0,,,0
1449617843659103793,178,0,/odom,acmd_vector,0,0,0,1.1852708821,-0.0151766033329,0.0,0.0,0.0,-0.115986887289,0.993250744765,1e-05,0.05,0.05,1.0,0.0,0.0,1.0,0,0,,,0
1449617843706252167,179,0,/odom,acmd_vector,0,0,0,1.19365630583,-0.0172559186561,0.0,0.0,0.0,-0.121233604752,0.99262400388,1e-05,0.05,0.05,1.0,0.0,0.0,1.0,0,0,,,0
1449617843743087958,180,0,/odom,acmd_vector,0,0,0,1.19924658831,-0.0186421288715,0.0,0.0,0.0,-0.121233604752,0.99262400388,1e-05,0.05,0.05,1.0,0.0,0.0,1.0,0,0,,,0
1449617843798760111,181,0,/odom,acmd_vector,0,0,0,1.20483687079,-0.0200283390869,0.0,0.0,0.0,-0.121233604752,0.99262400388,1e-05,0.05,0.05,1.0,0.0,0.0,1.0,0,0,,,0
1449617843819254671,182,0,/odom,acmd_vector,0,0,0,1.21879013486,-0.0235823644304,0.0,0.0,0.0,-0.126476937269,0.991969548091,1e-05,0.05,0.05,1.0,0.0,0.0,1.0,0,0,,,0
1449617843873233062,183,0,/odom,acmd_vector,0,0,0,1.21879013486,-0.0235823644304,0.0,0.0,0.0,-0.126476937269,0.991969548091,1e-05,0.05,0.05,1.0,0.0,0.0,1.0,0,0,,,0
1449617843896039123,184,0,/odom,acmd_vector,0,0,0,1.22994825767,-0.0264432846662,0.0,0.0,0.0,-0.126476937269,0.991969548091,1e-05,0.05,0.05,1.0,0.0,0.0,1.0,0,0,,,0
1449617843933220991,185,0,/odom,acmd_vector,0,0,0,1.22994825767,-0.0264432846662,0.0,0.0,0.0,-0.126476937269,0.991969548091,1e-05,0.05,0.05,1.0,0.0,0.0,1.0,0,0,,,0
1449617844017631631,186,0,/odom,acmd_vector,0,0,0,1.23552357873,-0.0278884947516,0.0,0.0,0.0,-0.126476937269,0.991969548091,1e-05,0.05,0.05,1.0,0.0,0.0,1.0,0,0,,,0
1449617844059779896,187,0,/odom,acmd_vector,0,0,0,1.24386318415,-0.0301445675774,0.0,0.0,0.0,-0.131716738444,0.99128739567,1e-05,0.05,0.05,1.0,0.0,0.0,1.0,0,0,,,0
1449617844075274484,188,0,/odom,acmd_vector,0,0,0,1.2494229211,-0.0316486161279,0.0,0.0,0.0,-0.131716738444,0.99128739567,1e-05,0.05,0.05,1.0,0.0,0.0,1.0,0,0,,,0
1449617844150280005,189,0,/odom,acmd_vector,0,0,0,1.25498265806,-0.0331526646784,0.0,0.0,0.0,-0.131716738444,0.99128739567,1e-05,0.05,0.05,1.0,0.0,0.0,1.0,0,0,,,0
1449617844173955849,190,0,/odom,acmd_vector,0,0,0,1.26331416097,-0.0354380727487,0.0,0.0,0.0,-0.136952861975,0.990577565664,1e-05,0.05,0.05,1.0,0.0,0.0,1.0,0,0,,,0
1449617844200662123,191,0,/odom,acmd_vector,0,0,0,1.26331416097,-0.0354380727487,0.0,0.0,0.0,-0.136952861975,0.990577565664,1e-05,0.05,0.05,1.0,0.0,0.0,1.0,0,0,,,0
1449617844243144351,192,0,/odom,acmd_vector,0,0,0,1.2688576929,-0.0370007917883,0.0,0.0,0.0,-0.136952861975,0.990577565664,1e-05,0.05,0.05,1.0,0.0,0.0,1.0,0,0,,,0
1449617844255779314,193,0,/odom,acmd_vector,0,0,0,1.27440122482,-0.0385635108279,0.0,0.0,0.0,-0.136952861975,0.990577565664,1e-05,0.05,0.05,1.0,0.0,0.0,1.0,0,0,,,0
1449617844291675955,194,0,/odom,acmd_vector,0,0,0,1.27440122482,-0.0385635108279,0.0,0.0,0.0,-0.136952861975,0.990577565664,1e-05,0.05,0.05,1.0,0.0,0.0,1.0,0,0,,,0
1449617844372512164,195,0,/odom,acmd_vector,0,0,0,1.27994475675,-0.0401262298675,0.0,0.0,0.0,-0.136952861975,0.990577565664,1e-05,0.05,0.05,1.0,0.0,0.0,1.0,0,0,,,0
1449617844388796264,196,0,/odom,acmd_vector,0,0,0,1.28548828868,-0.0416889489071,0.0,0.0,0.0,-0.136952861975,0.990577565664,1e-05,0.05,0.05,1.0,0.0,0.0,1.0,0,0,,,0
1449617844438732388,197,0,/odom,acmd_vector,0,0,0,1.2910318206,-0.0432516679466,0.0,0.0,0.0,-0.136952861975,0.990577565664,1e-05,0.05,0.05,1.0,0.0,0.0,1.0,0,0,,,0
1449617844452503669,198,0,/odom,acmd_vector,0,0,0,1.2937951745,-0.0440622754467,0.0,0.0,0.0,-0.142185161666,0.989840077892,1e-05,0.05,0.05,1.0,0.0,0.0,1.0,0,0,,,0
1449617844496317437,199,0,/odom,acmd_vector,0,0,0,1.2937951745,-0.0440622754467,0.0,0.0,0.0,-0.142185161666,0.989840077892,1e-05,0.05,0.05,1.0,0.0,0.0,1.0,0,0,,,0
1449617844558738953,200,0,/odom,acmd_vector,0,0,0,1.29932188228,-0.0456834904468,0.0,0.0,0.0,-0.142185161666,0.989840077892,1e-05,0.05,0.05,1.0,0.0,0.0,1.0,0,0,,,0
1449617844572887271,201,0,/odom,acmd_vector,0,0,0,1.30758578189,-0.0482027852954,0.0,0.0,0.0,-0.147413491427,0.989074952946,1e-05,0.05,0.05,1.0,0.0,0.0,1.0,0,0,,,0
1449617844610717418,202,0,/odom,acmd_vector,0,0,0,1.30758578189,-0.0482027852954,0.0,0.0,0.0,-0.147413491427,0.989074952946,1e-05,0.05,0.05,1.0,0.0,0.0,1.0,0,0,,,0
1449617844655117834,203,0,/odom,acmd_vector,0,0,0,1.31034913578,-0.0490133927955,0.0,0.0,0.0,-0.142185161666,0.989840077892,1e-05,0.05,0.05,1.0,0.0,0.0,1.0,0,0,,,0
1449617844705570251,204,0,/odom,acmd_vector,0,0,0,1.31310376898,-0.049853157745,0.0,0.0,0.0,-0.147413491427,0.989074952946,1e-05,0.05,0.05,1.0,0.0,0.0,1.0,0,0,,,0
1449617844732808645,205,0,/odom,acmd_vector,0,0,0,1.31861303539,-0.0515326876441,0.0,0.0,0.0,-0.147413491427,0.989074952946,1e-05,0.05,0.05,1.0,0.0,0.0,1.0,0,0,,,0
1449617844790538375,206,0,/odom,acmd_vector,0,0,0,1.3241223018,-0.0532122175432,0.0,0.0,0.0,-0.147413491427,0.989074952946,1e-05,0.05,0.05,1.0,0.0,0.0,1.0,0,0,,,0
1449617844811046448,207,0,/odom,acmd_vector,0,0,0,1.32962253987,-0.0549208111046,0.0,0.0,0.0,-0.147413491427,0.989074952946,1e-05,0.05,0.05,1.0,0.0,0.0,1.0,0,0,,,0
1449617844890524290,208,0,/odom,acmd_vector,0,0,0,1.32962253987,-0.0549208111046,0.0,0.0,0.0,-0.147413491427,0.989074952946,1e-05,0.05,0.05,1.0,0.0,0.0,1.0,0,0,,,0
1449617844913442399,209,0,/odom,acmd_vector,0,0,0,1.33785935448,-0.0575272969403,0.0,0.0,0.0,-0.152637705278,0.988282212188,1e-05,0.05,0.05,1.0,0.0,0.0,1.0,0,0,,,0
1449617844985490232,210,0,/odom,acmd_vector,0,0,0,1.34335056421,-0.0592649541641,0.0,0.0,0.0,-0.152637705278,0.988282212188,1e-05,0.05,0.05,1.0,0.0,0.0,1.0,0,0,,,0
1449617844997634280,211,0,/odom,acmd_vector,0,0,0,1.34608683411,-0.0601627494053,0.0,0.0,0.0,-0.157857657354,0.987461877753,1e-05,0.05,0.05,1.0,0.0,0.0,1.0,0,0,,,0
1449617845012610331,212,0,/odom,acmd_vector,0,0,0,1.34883243898,-0.0610315780171,0.0,0.0,0.0,-0.152637705278,0.988282212188,1e-05,0.05,0.05,1.0,0.0,0.0,1.0,0,0,,,0
1449617845052421749,213,0,/odom,acmd_vector,0,0,0,1.34883243898,-0.0610315780171,0.0,0.0,0.0,-0.152637705278,0.988282212188,1e-05,0.05,0.05,1.0,0.0,0.0,1.0,0,0,,,0
1449617845134068567,214,0,/odom,acmd_vector,0,0,0,1.35156870888,-0.0619293732583,0.0,0.0,0.0,-0.157857657354,0.987461877753,1e-05,0.05,0.05,1.0,0.0,0.0,1.0,0,0,,,0
1449617845150860665,215,0,/odom,acmd_vector,0,0,0,1.35705058365,-0.0636959971114,0.0,0.0,0.0,-0.157857657354,0.987461877753,1e-05,0.05,0.05,1.0,0.0,0.0,1.0,0,0,,,0
1449617845218778223,216,0,/odom,acmd_vector,0,0,0,1.36252312345,-0.0654915875938,0.0,0.0,0.0,-0.157857657354,0.987461877753,1e-05,0.05,0.05,1.0,0.0,0.0,1.0,0,0,,,0
1449617845250499163,217,0,/odom,acmd_vector,0,0,0,1.36252312345,-0.0654915875938,0.0,0.0,0.0,-0.157857657354,0.987461877753,1e-05,0.05,0.05,1.0,0.0,0.0,1.0,0,0,,,0
1449617845279497843,218,0,/odom,acmd_vector,0,0,0,1.36799566324,-0.0672871780762,0.0,0.0,0.0,-0.16824305546,0.985745542363,0.148603536696,0.05,0.05,1.0,0.0,0.0,1.0,0,0,,,0
1449617845360883243,219,0,/odom,acmd_vector,0,0,0,1.36799566324,-0.0672871780762,0.0,0.0,0.0,-0.16824305546,0.985745542363,0.148603536696,0.05,0.05,1.0,0.0,0.0,1.0,0,0,,,0
1449617845378210299,220,0,/odom,acmd_vector,0,0,0,1.37345856248,-0.0691116349197,0.0,0.0,0.0,-0.16824305546,0.985745542363,0.148603536696,0.05,0.05,1.0,0.0,0.0,1.0,0,0,,,0
1449617845396911804,221,0,/odom,acmd_vector,0,0,0,1.37345856248,-0.0691116349197,0.0,0.0,0.0,-0.16824305546,0.985745542363,0.146299851165,0.05,0.05,1.0,0.0,0.0,1.0,0,0,,,0
1449617845433395637,222,0,/odom,acmd_vector,0,0,0,1.37618519181,-0.0700382965221,0.0,0.0,0.0,-0.173449385917,0.984842784674,0.144764053554,0.05,0.05,1.0,0.0,0.0,1.0,0,0,,,0
1449617845502951392,223,0,/odom,acmd_vector,0,0,0,1.37892146171,-0.0709360917633,0.0,0.0,0.0,-0.16824305546,0.985745542363,0.144764053554,0.05,0.05,1.0,0.0,0.0,1.0,0,0,,,0
1449617845548863602,224,0,/odom,acmd_vector,0,0,0,1.37892146171,-0.0709360917633,0.0,0.0,0.0,-0.16824305546,0.985745542363,0.143228395734,0.05,0.05,1.0,0.0,0.0,1.0,0,0,,,0
1449617845576790845,225,0,/odom,acmd_vector,0,0,0,1.38164809104,-0.0718627533657,0.0,0.0,0.0,-0.173449385917,0.984842784674,0.142460623628,0.05,0.05,1.0,0.0,0.0,1.0,0,0,,,0
1449617845597829845,226,0,/odom,acmd_vector,0,0,0,1.38164809104,-0.0718627533657,0.0,0.0,0.0,-0.173449385917,0.984842784674,0.142460623628,0.05,0.05,1.0,0.0,0.0,1.0,0,0,,,0
1449617845693637317,227,0,/odom,acmd_vector,0,0,0,1.38710134971,-0.0737160765704,0.0,0.0,0.0,-0.173449385917,0.984842784674,0.141692713604,0.05,0.05,1.0,0.0,0.0,1.0,0,0,,,0
1449617845774404530,228,0,/odom,acmd_vector,0,0,0,1.38981803397,-0.074671501042,0.0,0.0,0.0,-0.17865087352,0.983912529339,0.141692713604,0.05,0.05,1.0,0.0,0.0,1.0,0,0,,,0
1449617845799146466,229,0,/odom,acmd_vector,0,0,0,1.3925446633,-0.0755981626443,0.0,0.0,0.0,-0.173449385917,0.984842784674,0.140924975484,0.05,0.05,1.0,0.0,0.0,1.0,0,0,,,0
1449617845863418074,230,0,/odom,acmd_vector,0,0,0,1.39526134756,-0.0765535871159,0.0,0.0,0.0,-0.168284193326,0.985738520236,0.139389475821,0.05,0.05,1.0,0.0,0.0,1.0,0,0,,,0
1449617845930209622,231,0,/odom,acmd_vector,0,0,0,1.39798797689,-0.0774802487183,0.0,0.0,0.0,-0.163073201911,0.986613972544,0.139389475821,0.05,0.05,1.0,0.0,0.0,1.0,0,0,,,0
1449617845974426759,232,0,/odom,acmd_vector,0,0,0,1.40070466114,-0.0784356731898,0.0,0.0,0.0,-0.168284193326,0.985738520236,0.137854201237,0.05,0.05,1.0,0.0,0.0,1.0,0,0,,,0
1449617846017685583,233,0,/odom,acmd_vector,0,0,0,1.40613802965,-0.0803465221329,0.0,0.0,0.0,-0.168284193326,0.985738520236,0.137086663554,0.05,0.05,1.0,0.0,0.0,1.0,0,0,,,0
1449617846062185817,234,0,/odom,acmd_vector,0,0,0,1.40613802965,-0.0803465221329,0.0,0.0,0.0,-0.168284193326,0.985738520236,0.137086663554,0.05,0.05,1.0,0.0,0.0,1.0,0,0,,,0
1449617846090838827,235,0,/odom,acmd_vector,0,0,0,1.40884446542,-0.0813306027694,0.0,0.0,0.0,-0.173490486104,0.984835545272,0.131666084737,0.05,0.05,1.0,0.0,0.0,1.0,0,0,,,0
1449617846130496628,236,0,/odom,acmd_vector,0,0,0,1.41156114967,-0.0822860272409,0.0,0.0,0.0,-0.168284193326,0.985738520236,0.131666084737,0.05,0.05,1.0,0.0,0.0,1.0,0,0,,,0
1449617846198492135,237,0,/odom,acmd_vector,0,0,0,1.41426758544,-0.0832701078774,0.0,0.0,0.0,-0.173490486104,0.984835545272,0.131666084737,0.05,0.05,1.0,0.0,0.0,1.0,0,0,,,0
1449617846220670080,238,0,/odom,acmd_vector,0,0,0,1.41969070545,-0.0852096129854,0.0,0.0,0.0,-0.173490486104,0.984835545272,0.130514829869,0.05,0.05,1.0,0.0,0.0,1.0,0,0,,,0
1449617846253653057,239,0,/odom,acmd_vector,0,0,0,1.41969070545,-0.0852096129854,0.0,0.0,0.0,-0.173490486104,0.984835545272,0.130514829869,0.05,0.05,1.0,0.0,0.0,1.0,0,0,,,0
1449617846309244290,240,0,/odom,acmd_vector,0,0,0,1.41969070545,-0.0852096129854,0.0,0.0,0.0,-0.173490486104,0.984835545272,0.130514829869,0.05,0.05,1.0,0.0,0.0,1.0,0,0,,,0
1449617846345631481,241,0,/odom,acmd_vector,0,0,0,1.42510357699,-0.0871777742583,0.0,0.0,0.0,-0.173490486104,0.984835545272,0.130514829869,0.05,0.05,1.0,0.0,0.0,1.0,0,0,,,0
1449617846413349315,242,0,/odom,acmd_vector,0,0,0,1.42510357699,-0.0871777742583,0.0,0.0,0.0,-0.173490486104,0.984835545272,0.130514829869,0.05,0.05,1.0,0.0,0.0,1.0,0,0,,,0
1449617846444747276,243,0,/odom,acmd_vector,0,0,0,1.43051644852,-0.0891459355312,0.0,0.0,0.0,-0.173490486104,0.984835545272,0.130514829869,0.05,0.05,1.0,0.0,0.0,1.0,0,0,,,0
1449617846468636565,244,0,/odom,acmd_vector,0,0,0,1.43051644852,-0.0891459355312,0.0,0.0,0.0,-0.173490486104,0.984835545272,0.130514829869,0.05,0.05,1.0,0.0,0.0,1.0,0,0,,,0
1449617846490590648,245,0,/odom,acmd_vector,0,0,0,1.43592932005,-0.0911140968041,0.0,0.0,0.0,-0.173490486104,0.984835545272,0.130514829869,0.05,0.05,1.0,0.0,0.0,1.0,0,0,,,0
1449617846513261154,246,0,/odom,acmd_vector,0,0,0,1.43592932005,-0.0911140968041,0.0,0.0,0.0,-0.173490486104,0.984835545272,0.130514829869,0.05,0.05,1.0,0.0,0.0,1.0,0,0,,,0
1449617846604561796,247,0,/odom,acmd_vector,0,0,0,1.43592932005,-0.0911140968041,0.0,0.0,0.0,-0.173490486104,0.984835545272,0.130514829869,0.05,0.05,1.0,0.0,0.0,1.0,0,0,,,0
1449617846657691390,248,0,/odom,acmd_vector,0,0,0,1.44133164083,-0.0931108043372,0.0,0.0,0.0,-0.173490486104,0.984835545272,0.130514829869,0.05,0.05,1.0,0.0,0.0,1.0,0,0,,,0
1449617846700170768,249,0,/odom,acmd_vector,0,0,0,1.44133164083,-0.0931108043372,0.0,0.0,0.0,-0.173490486104,0.984835545272,0.130514829869,0.05,0.05,1.0,0.0,0.0,1.0,0,0,,,0
1449617846759782170,250,0,/odom,acmd_vector,0,0,0,1.44402752585,-0.0941234312338,0.0,0.0,0.0,-0.17869193488,0.983905072865,1e-05,0.05,0.05,1.0,0.0,0.0,1.0,0,0,,,0
1449617846770175146,251,0,/odom,acmd_vector,0,0,0,1.44942984663,-0.0961201387669,0.0,0.0,0.0,-0.17869193488,0.983905072865,1e-05,0.05,0.05,1.0,0.0,0.0,1.0,0,0,,,0
1449617846801408742,252,0,/odom,acmd_vector,0,0,0,1.44942984663,-0.0961201387669,0.0,0.0,0.0,-0.17869193488,0.983905072865,1e-05,0.05,0.05,1.0,0.0,0.0,1.0,0,0,,,0
1449617846848039375,253,0,/odom,acmd_vector,0,0,0,1.44942984663,-0.0961201387669,0.0,0.0,0.0,-0.17869193488,0.983905072865,1e-05,0.05,0.05,1.0,0.0,0.0,1.0,0,0,,,0
1449617846875429994,254,0,/odom,acmd_vector,0,0,0,1.4521362824,-0.0971042194033,0.0,0.0,0.0,-0.173490486104,0.984835545272,1e-05,0.05,0.05,1.0,0.0,0.0,1.0,0,0,,,0
1449617846913677710,255,0,/odom,acmd_vector,0,0,0,1.45483216741,-0.0981168463,0.0,0.0,0.0,-0.17869193488,0.983905072865,1e-05,0.05,0.05,1.0,0.0,0.0,1.0,0,0,,,0
1449617846954669452,256,0,/odom,acmd_vector,0,0,0,1.45483216741,-0.0981168463,0.0,0.0,0.0,-0.17869193488,0.983905072865,1e-05,0.05,0.05,1.0,0.0,0.0,1.0,0,0,,,0
1449617847020162497,257,0,/odom,acmd_vector,0,0,0,1.4575172006,-0.099157906364,0.0,0.0,0.0,-0.183888394426,0.982947128993,1e-05,0.05,0.05,1.0,0.0,0.0,1.0,0,0,,,0
1449617847045448495,258,0,/odom,acmd_vector,0,0,0,1.46021308561,-0.100170533261,0.0,0.0,0.0,-0.17869193488,0.983905072865,1e-05,0.05,0.05,1.0,0.0,0.0,1.0,0,0,,,0
1449617847133989105,259,0,/odom,acmd_vector,0,0,0,1.46021308561,-0.100170533261,0.0,0.0,0.0,-0.17869193488,0.983905072865,1e-05,0.05,0.05,1.0,0.0,0.0,1.0,0,0,,,0
1449617847156221150,260,0,/odom,acmd_vector,0,0,0,1.4628981188,-0.101211593325,0.0,0.0,0.0,-0.183888394426,0.982947128993,1e-05,0.05,0.05,1.0,0.0,0.0,1.0,0,0,,,0
1449617847239073354,261,0,/odom,acmd_vector,0,0,0,1.46559400381,-0.102224220221,0.0,0.0,0.0,-0.17869193488,0.983905072865,1e-05,0.05,0.05,1.0,0.0,0.0,1.0,0,0,,,0
1449617847257011619,262,0,/odom,acmd_vector,0,0,0,1.468279037,-0.103265280285,0.0,0.0,0.0,-0.183888394426,0.982947128993,1e-05,0.05,0.05,1.0,0.0,0.0,1.0,0,0,,,0
1449617847294465226,263,0,/odom,acmd_vector,0,0,0,1.468279037,-0.103265280285,0.0,0.0,0.0,-0.183888394426,0.982947128993,1e-05,0.05,0.05,1.0,0.0,0.0,1.0,0,0,,,0
1449617847351881056,264,0,/odom,acmd_vector,0,0,0,1.468279037,-0.103265280285,0.0,0.0,0.0,-0.183888394426,0.982947128993,1e-05,0.05,0.05,1.0,0.0,0.0,1.0,0,0,,,0
1449617847402205828,265,0,/odom,acmd_vector,0,0,0,1.47097492201,-0.104277907182,0.0,0.0,0.0,-0.17869193488,0.983905072865,1e-05,0.05,0.05,1.0,0.0,0.0,1.0,0,0,,,0
1449617847422774357,266,0,/odom,acmd_vector,0,0,0,1.47097492201,-0.104277907182,0.0,0.0,0.0,-0.17869193488,0.983905072865,1e-05,0.05,0.05,1.0,0.0,0.0,1.0,0,0,,,0
1449617847478597983,267,0,/odom,acmd_vector,0,0,0,1.47097492201,-0.104277907182,0.0,0.0,0.0,-0.17869193488,0.983905072865,1e-05,0.05,0.05,1.0,0.0,0.0,1.0,0,0,,,0
1449617847501091843,268,0,/odom,acmd_vector,0,0,0,1.4736599552,-0.105318967246,0.0,0.0,0.0,-0.183888394426,0.982947128993,1e-05,0.05,0.05,1.0,0.0,0.0,1.0,0,0,,,0
1449617847556718681,269,0,/odom,acmd_vector,0,0,0,1.4736599552,-0.105318967246,0.0,0.0,0.0,-0.183888394426,0.982947128993,1e-05,0.05,0.05,1.0,0.0,0.0,1.0,0,0,,,0
1449617847593617161,270,0,/odom,acmd_vector,0,0,0,1.4736599552,-0.105318967246,0.0,0.0,0.0,-0.183888394426,0.982947128993,1e-05,0.05,0.05,1.0,0.0,0.0,1.0,0,0,,,0
1449617847654775224,271,0,/odom,acmd_vector,0,0,0,1.4736599552,-0.105318967246,0.0,0.0,0.0,-0.183888394426,0.982947128993,1e-05,0.05,0.05,1.0,0.0,0.0,1.0,0,0,,,0
1449617847677078126,272,0,/odom,acmd_vector,0,0,0,1.4736599552,-0.105318967246,0.0,0.0,0.0,-0.183888394426,0.982947128993,1e-05,0.05,0.05,1.0,0.0,0.0,1.0,0,0,,,0
1449617847696245192,273,0,/odom,acmd_vector,0,0,0,1.4736599552,-0.105318967246,0.0,0.0,0.0,-0.183888394426,0.982947128993,1e-05,0.05,0.05,1.0,0.0,0.0,1.0,0,0,,,0
1449617847798670755,274,0,/odom,acmd_vector,0,0,0,1.4736599552,-0.105318967246,0.0,0.0,0.0,-0.183888394426,0.982947128993,1e-05,0.05,0.05,1.0,0.0,0.0,1.0,0,0,,,0
1449617847817387278,275,0,/odom,acmd_vector,0,0,0,1.4736599552,-0.105318967246,0.0,0.0,0.0,-0.183888394426,0.982947128993,1e-05,0.05,0.05,1.0,0.0,0.0,1.0,0,0,,,0
1449617847884073127,276,0,/odom,acmd_vector,0,0,0,1.4736599552,-0.105318967246,0.0,0.0,0.0,-0.183888394426,0.982947128993,1e-05,0.05,0.05,1.0,0.0,0.0,1.0,0,0,,,0
1449617847906656136,277,0,/odom,acmd_vector,0,0,0,1.4736599552,-0.105318967246,0.0,0.0,0.0,-0.183888394426,0.982947128993,1e-05,0.05,0.05,1.0,0.0,0.0,1.0,0,0,,,0
1449617847941063493,278,0,/odom,acmd_vector,0,0,0,1.47633383668,-0.106388344209,0.0,0.0,0.0,-0.189079719651,0.981961740404,1e-05,0.05,0.05,1.0,0.0,0.0,1.0,0,0,,,0
1449617848007378721,279,0,/odom,acmd_vector,0,0,0,1.47633383668,-0.106388344209,0.0,0.0,0.0,-0.189079719651,0.981961740404,1e-05,0.05,0.05,1.0,0.0,0.0,1.0,0,0,,,0
1449617848030379631,280,0,/odom,acmd_vector,0,0,0,1.47901886986,-0.107429404273,0.0,0.0,0.0,-0.183888394426,0.982947128993,1e-05,0.05,0.05,1.0,0.0,0.0,1.0,0,0,,,0
1449617848083352004,281,0,/odom,acmd_vector,0,0,0,1.47901886986,-0.107429404273,0.0,0.0,0.0,-0.183888394426,0.982947128993,1e-05,0.05,0.05,1.0,0.0,0.0,1.0,0,0,,,0
1449617848150679044,282,0,/odom,acmd_vector,0,0,0,1.47901886986,-0.107429404273,0.0,0.0,0.0,-0.183888394426,0.982947128993,1e-05,0.05,0.05,1.0,0.0,0.0,1.0,0,0,,,0
1449617848212097753,283,0,/odom,acmd_vector,0,0,0,1.47901886986,-0.107429404273,0.0,0.0,0.0,-0.183888394426,0.982947128993,1e-05,0.05,0.05,1.0,0.0,0.0,1.0,0,0,,,0
1449617848245382454,284,0,/odom,acmd_vector,0,0,0,1.47901886986,-0.107429404273,0.0,0.0,0.0,-0.183888394426,0.982947128993,1e-05,0.05,0.05,1.0,0.0,0.0,1.0,0,0,,,0
1449617848313202879,285,0,/odom,acmd_vector,0,0,0,1.47901886986,-0.107429404273,0.0,0.0,0.0,-0.183888394426,0.982947128993,1e-05,0.05,0.05,1.0,0.0,0.0,1.0,0,0,,,0
1449617848335059909,286,0,/odom,acmd_vector,0,0,0,1.47901886986,-0.107429404273,0.0,0.0,0.0,-0.183888394426,0.982947128993,1e-05,0.05,0.05,1.0,0.0,0.0,1.0,0,0,,,0
1449617848377710493,287,0,/odom,acmd_vector,0,0,0,1.47901886986,-0.107429404273,0.0,0.0,0.0,-0.183888394426,0.982947128993,1e-05,0.05,0.05,1.0,0.0,0.0,1.0,0,0,,,0
1449617848393180453,288,0,/odom,acmd_vector,0,0,0,1.47901886986,-0.107429404273,0.0,0.0,0.0,-0.183888394426,0.982947128993,1e-05,0.05,0.05,1.0,0.0,0.0,1.0,0,0,,,0
1449617848447747933,289,0,/odom,acmd_vector,0,0,0,1.47901886986,-0.107429404273,0.0,0.0,0.0,-0.183888394426,0.982947128993,1e-05,0.05,0.05,1.0,0.0,0.0,1.0,0,0,,,0
1449617848516030095,290,0,/odom,acmd_vector,0,0,0,1.47901886986,-0.107429404273,0.0,0.0,0.0,-0.183888394426,0.982947128993,1e-05,0.05,0.05,1.0,0.0,0.0,1.0,0,0,,,0
1449617848594076460,291,0,/odom,acmd_vector,0,0,0,1.47901886986,-0.107429404273,0.0,0.0,0.0,-0.183888394426,0.982947128993,1e-05,0.05,0.05,1.0,0.0,0.0,1.0,0,0,,,0
1449617848629868640,292,0,/odom,acmd_vector,0,0,0,1.47901886986,-0.107429404273,0.0,0.0,0.0,-0.183888394426,0.982947128993,1e-05,0.05,0.05,1.0,0.0,0.0,1.0,0,0,,,0
1449617848662020035,293,0,/odom,acmd_vector,0,0,0,1.47901886986,-0.107429404273,0.0,0.0,0.0,-0.183888394426,0.982947128993,1e-05,0.05,0.05,1.0,0.0,0.0,1.0,0,0,,,0
1449617848695478418,294,0,/odom,acmd_vector,0,0,0,1.47901886986,-0.107429404273,0.0,0.0,0.0,-0.183888394426,0.982947128993,1e-05,0.05,0.05,1.0,0.0,0.0,1.0,0,0,,,0
1449617848784298420,295,0,/odom,acmd_vector,0,0,0,1.47901886986,-0.107429404273,0.0,0.0,0.0,-0.183888394426,0.982947128993,1e-05,0.05,0.05,1.0,0.0,0.0,1.0,0,0,,,0
1449617848817969304,296,0,/odom,acmd_vector,0,0,0,1.47901886986,-0.107429404273,0.0,0.0,0.0,-0.183888394426,0.982947128993,1e-05,0.05,0.05,1.0,0.0,0.0,1.0,0,0,,,0
1449617848847255049,297,0,/odom,acmd_vector,0,0,0,1.47901886986,-0.107429404273,0.0,0.0,0.0,-0.183888394426,0.982947128993,1e-05,0.05,0.05,1.0,0.0,0.0,1.0,0,0,,,0
1449617848899509050,298,0,/odom,acmd_vector,0,0,0,1.47901886986,-0.107429404273,0.0,0.0,0.0,-0.183888394426,0.982947128993,1e-05,0.05,0.05,1.0,0.0,0.0,1.0,0,0,,,0
1449617848937980694,299,0,/odom,acmd_vector,0,0,0,1.47901886986,-0.107429404273,0.0,0.0,0.0,-0.183888394426,0.982947128993,1e-05,0.05,0.05,1.0,0.0,0.0,1.0,0,0,,,0
1449617848952299723,300,0,/odom,acmd_vector,0,0,0,1.47901886986,-0.107429404273,0.0,0.0,0.0,-0.183888394426,0.982947128993,1e-05,0.05,0.05,1.0,0.0,0.0,1.0,0,0,,,0
1449617848977645207,301,0,/odom,acmd_vector,0,0,0,1.47901886986,-0.107429404273,0.0,0.0,0.0,-0.183888394426,0.982947128993,1e-05,0.05,0.05,1.0,0.0,0.0,1.0,0,0,,,0
1449617849054953878,302,0,/odom,acmd_vector,0,0,0,1.47901886986,-0.107429404273,0.0,0.0,0.0,-0.183888394426,0.982947128993,1e-05,0.05,0.05,1.0,0.0,0.0,1.0,0,0,,,0
1449617849084020695,303,0,/odom,acmd_vector,0,0,0,1.47901886986,-0.107429404273,0.0,0.0,0.0,-0.183888394426,0.982947128993,1e-05,0.05,0.05,1.0,0.0,0.0,1.0,0,0,,,0
1449617849168148479,304,0,/odom,acmd_vector,0,0,0,1.47901886986,-0.107429404273,0.0,0.0,0.0,-0.183888394426,0.982947128993,1e-05,0.05,0.05,1.0,0.0,0.0,1.0,0,0,,,0
1449617849206042506,305,0,/odom,acmd_vector,0,0,0,1.47901886986,-0.107429404273,0.0,0.0,0.0,-0.183888394426,0.982947128993,1e-05,0.05,0.05,1.0,0.0,0.0,1.0,0,0,,,0
1449617849245525781,306,0,/odom,acmd_vector,0,0,0,1.47901886986,-0.107429404273,0.0,0.0,0.0,-0.183888394426,0.982947128993,1e-05,0.05,0.05,1.0,0.0,0.0,1.0,0,0,,,0
1449617849273229502,307,0,/odom,acmd_vector,0,0,0,1.47901886986,-0.107429404273,0.0,0.0,0.0,-0.183888394426,0.982947128993,1e-05,0.05,0.05,1.0,0.0,0.0,1.0,0,0,,,0
1449617849333804779,308,0,/odom,acmd_vector,0,0,0,1.47901886986,-0.107429404273,0.0,0.0,0.0,-0.183888394426,0.982947128993,1e-05,0.05,0.05,1.0,0.0,0.0,1.0,0,0,,,0
1449617849416367575,309,0,/odom,acmd_vector,0,0,0,1.48169275134,-0.108498781236,0.0,0.0,0.0,-0.189079719651,0.981961740404,1e-05,0.05,0.05,1.0,0.0,0.0,1.0,0,0,,,0
1449617849449781409,310,0,/odom,acmd_vector,0,0,0,1.48169275134,-0.108498781236,0.0,0.0,0.0,-0.189079719651,0.981961740404,1e-05,0.05,0.05,1.0,0.0,0.0,1.0,0,0,,,0
1449617849473227550,311,0,/odom,acmd_vector,0,0,0,1.48169275134,-0.108498781236,0.0,0.0,0.0,-0.189079719651,0.981961740404,1e-05,0.05,0.05,1.0,0.0,0.0,1.0,0,0,,,0
1449617849544599355,312,0,/odom,acmd_vector,0,0,0,1.48169275134,-0.108498781236,0.0,0.0,0.0,-0.189079719651,0.981961740404,1e-05,0.05,0.05,1.0,0.0,0.0,1.0,0,0,,,0
1449617849575073112,313,0,/odom,acmd_vector,0,0,0,1.48169275134,-0.108498781236,0.0,0.0,0.0,-0.189079719651,0.981961740404,1e-05,0.05,0.05,1.0,0.0,0.0,1.0,0,0,,,0
1449617849635563577,314,0,/odom,acmd_vector,0,0,0,1.48169275134,-0.108498781236,0.0,0.0,0.0,-0.189079719651,0.981961740404,1e-05,0.05,0.05,1.0,0.0,0.0,1.0,0,0,,,0
1449617849676310394,315,0,/odom,acmd_vector,0,0,0,1.48169275134,-0.108498781236,0.0,0.0,0.0,-0.189079719651,0.981961740404,1e-05,0.05,0.05,1.0,0.0,0.0,1.0,0,0,,,0
1449617849695687883,316,0,/odom,acmd_vector,0,0,0,1.48169275134,-0.108498781236,0.0,0.0,0.0,-0.189079719651,0.981961740404,1e-05,0.05,0.05,1.0,0.0,0.0,1.0,0,0,,,0
1449617849734385841,317,0,/odom,acmd_vector,0,0,0,1.48169275134,-0.108498781236,0.0,0.0,0.0,-0.189079719651,0.981961740404,1e-05,0.05,0.05,1.0,0.0,0.0,1.0,0,0,,,0
1449617849760236007,318,0,/odom,acmd_vector,0,0,0,1.48169275134,-0.108498781236,0.0,0.0,0.0,-0.189079719651,0.981961740404,1e-05,0.05,0.05,1.0,0.0,0.0,1.0,0,0,,,0
1449617849800675970,319,0,/odom,acmd_vector,0,0,0,1.48169275134,-0.108498781236,0.0,0.0,0.0,-0.189079719651,0.981961740404,1e-05,0.05,0.05,1.0,0.0,0.0,1.0,0,0,,,0
1449617849860965399,320,0,/odom,acmd_vector,0,0,0,1.48169275134,-0.108498781236,0.0,0.0,0.0,-0.189079719651,0.981961740404,1e-05,0.05,0.05,1.0,0.0,0.0,1.0,0,0,,,0
1449617849875846119,321,0,/odom,acmd_vector,0,0,0,1.48169275134,-0.108498781236,0.0,0.0,0.0,-0.189079719651,0.981961740404,1e-05,0.05,0.05,1.0,0.0,0.0,1.0,0,0,,,0
1449617849919019789,322,0,/odom,acmd_vector,0,0,0,1.48169275134,-0.108498781236,0.0,0.0,0.0,-0.189079719651,0.981961740404,1e-05,0.05,0.05,1.0,0.0,0.0,1.0,0,0,,,0
1449617850017885626,323,0,/odom,acmd_vector,0,0,0,1.48169275134,-0.108498781236,0.0,0.0,0.0,-0.189079719651,0.981961740404,1e-05,0.05,0.05,1.0,0.0,0.0,1.0,0,0,,,0
1449617850075187402,324,0,/odom,acmd_vector,0,0,0,1.48169275134,-0.108498781236,0.0,0.0,0.0,-0.189079719651,0.981961740404,1e-05,0.05,0.05,1.0,0.0,0.0,1.0,0,0,,,0
1449617850093052863,325,0,/odom,acmd_vector,0,0,0,1.48169275134,-0.108498781236,0.0,0.0,0.0,-0.189079719651,0.981961740404,1e-05,0.05,0.05,1.0,0.0,0.0,1.0,0,0,,,0
1449617850119107992,326,0,/odom,acmd_vector,0,0,0,1.48169275134,-0.108498781236,0.0,0.0,0.0,-0.189079719651,0.981961740404,1e-05,0.05,0.05,1.0,0.0,0.0,1.0,0,0,,,0
1449617850194897344,327,0,/odom,acmd_vector,0,0,0,1.48169275134,-0.108498781236,0.0,0.0,0.0,-0.189079719651,0.981961740404,1e-05,0.05,0.05,1.0,0.0,0.0,1.0,0,0,,,0
1449617850234287487,328,0,/odom,acmd_vector,0,0,0,1.48169275134,-0.108498781236,0.0,0.0,0.0,-0.189079719651,0.981961740404,1e-05,0.05,0.05,1.0,0.0,0.0,1.0,0,0,,,0
1449617850295671756,329,0,/odom,acmd_vector,0,0,0,1.48437778452,-0.1095398413,0.0,0.0,0.0,-0.183888394426,0.982947128993,1e-05,0.05,0.05,1.0,0.0,0.0,1.0,0,0,,,0
1449617850320191695,330,0,/odom,acmd_vector,0,0,0,1.48437778452,-0.1095398413,0.0,0.0,0.0,-0.183888394426,0.982947128993,1e-05,0.05,0.05,1.0,0.0,0.0,1.0,0,0,,,0
1449617850338369947,331,0,/odom,acmd_vector,0,0,0,1.48437778452,-0.1095398413,0.0,0.0,0.0,-0.183888394426,0.982947128993,1e-05,0.05,0.05,1.0,0.0,0.0,1.0,0,0,,,0
1449617850384528349,332,0,/odom,acmd_vector,0,0,0,1.48437778452,-0.1095398413,0.0,0.0,0.0,-0.183888394426,0.982947128993,1e-05,0.05,0.05,1.0,0.0,0.0,1.0,0,0,,,0
1449617850405730017,333,0,/odom,acmd_vector,0,0,0,1.48437778452,-0.1095398413,0.0,0.0,0.0,-0.183888394426,0.982947128993,1e-05,0.05,0.05,1.0,0.0,0.0,1.0,0,0,,,0
1449617850435136968,334,0,/odom,acmd_vector,0,0,0,1.48437778452,-0.1095398413,0.0,0.0,0.0,-0.183888394426,0.982947128993,1e-05,0.05,0.05,1.0,0.0,0.0,1.0,0,0,,,0
1449617850491402431,335,0,/odom,acmd_vector,0,0,0,1.48437778452,-0.1095398413,0.0,0.0,0.0,-0.183888394426,0.982947128993,1e-05,0.05,0.05,1.0,0.0,0.0,1.0,0,0,,,0
1449617850520061065,336,0,/odom,acmd_vector,0,0,0,1.48437778452,-0.1095398413,0.0,0.0,0.0,-0.183888394426,0.982947128993,1e-05,0.05,0.05,1.0,0.0,0.0,1.0,0,0,,,0
1449617850556484529,337,0,/odom,acmd_vector,0,0,0,1.48437778452,-0.1095398413,0.0,0.0,0.0,-0.183888394426,0.982947128993,1e-05,0.05,0.05,1.0,0.0,0.0,1.0,0,0,,,0
1449617850659009392,338,0,/odom,acmd_vector,0,0,0,1.48437778452,-0.1095398413,0.0,0.0,0.0,-0.183888394426,0.982947128993,1e-05,0.05,0.05,1.0,0.0,0.0,1.0,0,0,,,0
1449617850684201910,339,0,/odom,acmd_vector,0,0,0,1.48437778452,-0.1095398413,0.0,0.0,0.0,-0.183888394426,0.982947128993,1e-05,0.05,0.05,1.0,0.0,0.0,1.0,0,0,,,0
1449617850789715525,340,0,/odom,acmd_vector,0,0,0,1.48437778452,-0.1095398413,0.0,0.0,0.0,-0.00599344762769,0.999982039131,0.35201,0.05,0.05,1.0,0.0,0.0,1.0,0,0,,,0
1449617850824231435,341,0,/odom,acmd_vector,0,0,0,1.48437778452,-0.1095398413,0.0,0.0,0.0,-0.00599344762769,0.999982039131,0.35201,0.05,0.05,1.0,0.0,0.0,1.0,0,0,,,0
1449617850915894251,342,0,/odom,acmd_vector,0,0,0,1.48437778452,-0.1095398413,0.0,0.0,0.0,-0.00599344762769,0.999982039131,0.35201,0.05,0.05,1.0,0.0,0.0,1.0,0,0,,,0
1449617851017854885,343,0,/odom,acmd_vector,0,0,0,1.48707366954,-0.110552468197,0.0,0.0,0.0,-0.000709459110038,0.999999748334,0.35201,0.05,0.05,1.0,0.0,0.0,1.0,0,0,,,0
1449617851050980053,344,0,/odom,acmd_vector,0,0,0,1.49245458774,-0.112606155157,0.0,0.0,0.0,-0.0848179568945,0.99639646436,0.196778207664,0.05,0.05,1.0,0.0,0.0,1.0,0,0,,,0
1449617851163669498,345,0,/odom,acmd_vector,0,0,0,1.49245458774,-0.112606155157,0.0,0.0,0.0,-0.0848179568945,0.99639646436,0.195855687635,0.05,0.05,1.0,0.0,0.0,1.0,0,0,,,0
1449617851179245232,346,0,/odom,acmd_vector,0,0,0,1.50326978005,-0.116571023963,0.0,0.0,0.0,-0.0848179568945,0.99639646436,0.194936404072,0.05,0.05,1.0,0.0,0.0,1.0,0,0,,,0
1449617851258676588,347,0,/odom,acmd_vector,0,0,0,1.50326978005,-0.116571023963,0.0,0.0,0.0,-0.0848179568945,0.99639646436,0.194936404072,0.05,0.05,1.0,0.0,0.0,1.0,0,0,,,0
1449617851286472849,348,0,/odom,acmd_vector,0,0,0,1.50869290007,-0.118510529071,0.0,0.0,0.0,-0.0742834502103,0.997237167892,0.194014665004,0.05,0.05,1.0,0.0,0.0,1.0,0,0,,,0
1449617851314859877,349,0,/odom,acmd_vector,0,0,0,1.51412626858,-0.120421378014,0.0,0.0,0.0,-0.0742834502103,0.997237167892,0.190322819157,0.05,0.05,1.0,0.0,0.0,1.0,0,0,,,0
1449617851337285614,350,0,/odom,acmd_vector,0,0,0,1.51955963709,-0.122332226958,0.0,0.0,0.0,-0.0742834502103,0.997237167892,0.190322819157,0.05,0.05,1.0,0.0,0.0,1.0,0,0,,,0
1449617851432099113,351,0,/odom,acmd_vector,0,0,0,1.51955963709,-0.122332226958,0.0,0.0,0.0,-0.0742834502103,0.997237167892,0.190322819157,0.05,0.05,1.0,0.0,0.0,1.0,0,0,,,0
1449617851453078683,352,0,/odom,acmd_vector,0,0,0,1.5331728936,-0.127023060708,0.0,0.0,0.0,-0.0690130122342,0.99761575977,0.190322819157,0.05,0.05,1.0,0.0,0.0,1.0,0,0,,,0
1449617851497959702,353,0,/odom,acmd_vector,0,0,0,1.5331728936,-0.127023060708,0.0,0.0,0.0,-0.0690130122342,0.99761575977,0.184777907969,0.05,0.05,1.0,0.0,0.0,1.0,0,0,,,0
1449617851537443978,354,0,/odom,acmd_vector,0,0,0,1.54138170329,-0.129716446431,0.0,0.0,0.0,-0.0637406473563,0.997966497371,0.184777907969,0.05,0.05,1.0,0.0,0.0,1.0,0,0,,,0
1449617851565912518,355,0,/odom,acmd_vector,0,0,0,1.54685424309,-0.131512036914,0.0,0.0,0.0,-0.0637406473563,0.997966497371,0.184777907969,0.05,0.05,1.0,0.0,0.0,1.0,0,0,,,0
1449617851627511532,356,0,/odom,acmd_vector,0,0,0,1.5550910577,-0.134118522749,0.0,0.0,0.0,-0.0584665027854,0.9982893709,0.184777907969,0.05,0.05,1.0,0.0,0.0,1.0,0,0,,,0
1449617851653118041,357,0,/odom,acmd_vector,0,0,0,1.56884616704,-0.138375474822,0.0,0.0,0.0,-0.0531907257802,0.998584371343,0.180156674615,0.05,0.05,1.0,0.0,0.0,1.0,0,0,,,0
1449617851682348159,358,0,/odom,acmd_vector,0,0,0,1.56884616704,-0.138375474822,0.0,0.0,0.0,-0.0531907257802,0.998584371343,0.180156674615,0.05,0.05,1.0,0.0,0.0,1.0,0,0,,,0
1449617851762108557,359,0,/odom,acmd_vector,0,0,0,1.57435543345,-0.140055004721,0.0,0.0,0.0,-0.0531907257802,0.998584371343,0.180156674615,0.05,0.05,1.0,0.0,0.0,1.0,0,0,,,0
1449617851787842813,360,0,/odom,acmd_vector,0,0,0,1.59096079302,-0.14483090578,0.0,0.0,0.0,-0.0426348637248,0.999090720803,0.172743177546,0.05,0.05,1.0,0.0,0.0,1.0,0,0,,,0
1449617851866891547,361,0,/odom,acmd_vector,0,0,0,1.59096079302,-0.14483090578,0.0,0.0,0.0,-0.0426348637248,0.999090720803,0.172743177546,0.05,0.05,1.0,0.0,0.0,1.0,0,0,,,0
1449617851904358886,362,0,/odom,acmd_vector,0,0,0,1.60204785687,-0.14795634386,0.0,0.0,0.0,-0.0426348637248,0.999090720803,0.172743177546,0.05,0.05,1.0,0.0,0.0,1.0,0,0,,,0
1449617851942355393,363,0,/odom,acmd_vector,0,0,0,1.6103874623,-0.150212416685,0.0,0.0,0.0,-0.0373550734032,0.999302055682,0.16810522774,0.05,0.05,1.0,0.0,0.0,1.0,0,0,,,0
1449617852010062490,364,0,/odom,acmd_vector,0,0,0,1.61875044387,-0.152380231814,0.0,0.0,0.0,-0.0320742400964,0.9994854892,0.16810522774,0.05,0.05,1.0,0.0,0.0,1.0,0,0,,,0
1449617852054568814,365,0,/odom,acmd_vector,0,0,0,1.62990108598,-0.155270651984,0.0,0.0,0.0,-0.0320742400964,0.9994854892,0.160671728461,0.05,0.05,1.0,0.0,0.0,1.0,0,0,,,0
