%time,field.goals0.navgoal_poses0.header.seq,field.goals0.navgoal_poses0.header.stamp,field.goals0.navgoal_poses0.header.frame_id,field.goals0.navgoal_poses0.pose.position.x,field.goals0.navgoal_poses0.pose.position.y,field.goals0.navgoal_poses0.pose.position.z,field.goals0.navgoal_poses0.pose.orientation.x,field.goals0.navgoal_poses0.pose.orientation.y,field.goals0.navgoal_poses0.pose.orientation.z,field.goals0.navgoal_poses0.pose.orientation.w,field.goals0.goal_pose.header.seq,field.goals0.goal_pose.header.stamp,field.goals0.goal_pose.header.frame_id,field.goals0.goal_pose.pose.position.x,field.goals0.goal_pose.pose.position.y,field.goals0.goal_pose.pose.position.z,field.goals0.goal_pose.pose.orientation.x,field.goals0.goal_pose.pose.orientation.y,field.goals0.goal_pose.pose.orientation.z,field.goals0.goal_pose.pose.orientation.w,field.goals0.goal_type,field.goals0.goal_source,field.goals0.score,field.goals0.t_eval
1449617832530055921,0,1449617832505127022,/odom,nan,nan,0.0,nan,nan,nan,nan,0,1449617832505127022,/odom,nan,nan,0.0,nan,nan,nan,nan,0,user,1.0,0
1449617832595223664,0,1449617832586604398,/odom,0.0,0.0,0.0,0.0,0.0,0.0,1.0,0,1449617832586604398,/odom,0.0,0.0,0.0,0.0,0.0,0.0,1.0,0,user,1.0,0
1449617832711308084,0,1449617832689628351,/odom,0.0,0.0,0.0,0.0,0.0,0.0,1.0,0,1449617832689628351,/odom,0.0,0.0,0.0,0.0,0.0,0.0,1.0,0,user,1.0,0
1449617832798258368,0,1449617832789384189,/odom,0.0,0.0,0.0,0.0,0.0,0.0,1.0,0,1449617832789384189,/odom,0.0,0.0,0.0,0.0,0.0,0.0,1.0,0,user,1.0,0
1449617832904027905,0,1449617832884114777,/odom,0.0,0.0,0.0,0.0,0.0,0.0,1.0,0,1449617832884114777,/odom,0.0,0.0,0.0,0.0,0.0,0.0,1.0,0,user,1.0,0
1449617832986324308,0,1449617832981477465,/odom,0.0,0.0,0.0,0.0,0.0,0.0,1.0,0,1449617832981477465,/odom,0.0,0.0,0.0,0.0,0.0,0.0,1.0,0,user,1.0,0
1449617833096502230,0,1449617833083438466,/odom,0.0,0.0,0.0,0.0,0.0,0.0,1.0,0,1449617833083438466,/odom,0.0,0.0,0.0,0.0,0.0,0.0,1.0,0,user,1.0,0
1449617833188225611,0,1449617833184232210,/odom,0.0,0.0,0.0,0.0,0.0,0.0,1.0,0,1449617833184232210,/odom,0.0,0.0,0.0,0.0,0.0,0.0,1.0,0,user,1.0,0
1449617833285410369,0,1449617833283517516,/odom,0.0,0.0,0.0,0.0,0.0,0.0,1.0,0,1449617833283517516,/odom,0.0,0.0,0.0,0.0,0.0,0.0,1.0,0,user,1.0,0
1449617833390918468,0,1449617833388483161,/odom,0.0,0.0,0.0,0.0,0.0,0.0,1.0,0,1449617833388483161,/odom,0.0,0.0,0.0,0.0,0.0,0.0,1.0,0,user,1.0,0
1449617833491780482,0,1449617833482314139,/odom,0.0,0.0,0.0,0.0,0.0,0.0,1.0,0,1449617833482314139,/odom,0.0,0.0,0.0,0.0,0.0,0.0,1.0,0,user,1.0,0
1449617833589509998,0,1449617833582739940,/odom,0.0,0.0,0.0,0.0,0.0,0.0,1.0,0,1449617833582739940,/odom,0.0,0.0,0.0,0.0,0.0,0.0,1.0,0,user,1.0,0
1449617833685183743,0,1449617833683643138,/odom,0.0,0.0,0.0,0.0,0.0,0.0,1.0,0,1449617833683643138,/odom,0.0,0.0,0.0,0.0,0.0,0.0,1.0,0,user,1.0,0
1449617833784941872,0,1449617833782850683,/odom,0.0,0.0,0.0,0.0,0.0,0.0,1.0,0,1449617833782850683,/odom,0.0,0.0,0.0,0.0,0.0,0.0,1.0,0,user,1.0,0
1449617833882289711,0,1449617833880650944,/odom,0.0,0.0,0.0,0.0,0.0,0.0,1.0,0,1449617833880650944,/odom,0.0,0.0,0.0,0.0,0.0,0.0,1.0,0,user,1.0,0
1449617833995585412,0,1449617833981542927,/odom,0.0,0.0,0.0,0.0,0.0,0.0,1.0,0,1449617833981542927,/odom,0.0,0.0,0.0,0.0,0.0,0.0,1.0,0,user,1.0,0
1449617834087177466,0,1449617834084750117,/odom,0.0,0.0,0.0,0.0,0.0,0.0,1.0,0,1449617834084750117,/odom,0.0,0.0,0.0,0.0,0.0,0.0,1.0,0,user,1.0,0
1449617834182401842,0,1449617834180203230,/odom,0.0,0.0,0.0,0.0,0.0,0.0,1.0,0,1449617834180203230,/odom,0.0,0.0,0.0,0.0,0.0,0.0,1.0,0,user,1.0,0
1449617834286104948,0,1449617834283317240,/odom,0.0,0.0,0.0,0.0,0.0,0.0,1.0,0,1449617834283317240,/odom,0.0,0.0,0.0,0.0,0.0,0.0,1.0,0,user,1.0,0
1449617834386144913,0,1449617834382264924,/odom,0.0,0.0,0.0,0.0,0.0,0.0,1.0,0,1449617834382264924,/odom,0.0,0.0,0.0,0.0,0.0,0.0,1.0,0,user,1.0,0
1449617834484142947,0,1449617834481462131,/odom,0.0,0.0,0.0,0.0,0.0,0.0,1.0,0,1449617834481462131,/odom,0.0,0.0,0.0,0.0,0.0,0.0,1.0,0,user,1.0,0
1449617834591286043,0,1449617834586628262,/odom,0.0,0.0,0.0,0.0,0.0,0.0,1.0,0,1449617834586628262,/odom,0.0,0.0,0.0,0.0,0.0,0.0,1.0,0,user,1.0,0
1449617834688108963,0,1449617834681784422,/odom,-0.00287963245437,-3.04332289367e-05,0.0,0.0,0.0,0.0052839997518,0.999986039576,0,1449617834681784422,/odom,-0.00287963245437,-3.04332289367e-05,0.0,0.0,0.0,0.0052839997518,0.999986039576,0,user,1.0,0
1449617834783760475,0,1449617834781538274,/odom,-0.00287963245437,-3.04332289367e-05,0.0,0.0,0.0,0.0052839997518,0.999986039576,0,1449617834781538274,/odom,-0.00287963245437,-3.04332289367e-05,0.0,0.0,0.0,0.0052839997518,0.999986039576,0,user,1.0,0
1449617834887448835,0,1449617834883701965,/odom,1.60811419144e-07,-3.04332289367e-05,0.0,0.0,0.0,0.0,1.0,0,1449617834883701965,/odom,1.60811419144e-07,-3.04332289367e-05,0.0,0.0,0.0,0.0,1.0,0,user,1.0,0
1449617834998317136,0,1449617834981387129,/odom,1.60811419144e-07,-3.04332289367e-05,0.0,0.0,0.0,0.0,1.0,0,1449617834981387129,/odom,1.60811419144e-07,-3.04332289367e-05,0.0,0.0,0.0,0.0,1.0,0,user,1.0,0
1449617835101541559,0,1449617835081619929,/odom,1.60811419144e-07,-3.04332289367e-05,0.0,0.0,0.0,0.0,1.0,0,1449617835081619929,/odom,1.60811419144e-07,-3.04332289367e-05,0.0,0.0,0.0,0.0,1.0,0,user,1.0,0
1449617835191026424,0,1449617835187209702,/odom,1.60811419144e-07,-3.04332289367e-05,0.0,0.0,0.0,0.0,1.0,0,1449617835187209702,/odom,1.60811419144e-07,-3.04332289367e-05,0.0,0.0,0.0,0.0,1.0,0,user,1.0,0
1449617835282978119,0,1449617835281283450,/odom,1.60811419144e-07,-3.04332289367e-05,0.0,0.0,0.0,0.0,1.0,0,1449617835281283450,/odom,1.60811419144e-07,-3.04332289367e-05,0.0,0.0,0.0,0.0,1.0,0,user,1.0,0
1449617835396420904,0,1449617835382096717,/odom,1.60811419144e-07,-3.04332289367e-05,0.0,0.0,0.0,0.0,1.0,0,1449617835382096717,/odom,1.60811419144e-07,-3.04332289367e-05,0.0,0.0,0.0,0.0,1.0,0,user,1.0,0
1449617835504366022,0,1449617835483311582,/odom,1.60811419144e-07,-3.04332289367e-05,0.0,0.0,0.0,0.0,1.0,0,1449617835483311582,/odom,1.60811419144e-07,-3.04332289367e-05,0.0,0.0,0.0,0.0,1.0,0,user,1.0,0
1449617835589726663,0,1449617835581018607,/odom,1.60811419144e-07,-3.04332289367e-05,0.0,0.0,0.0,0.0,1.0,0,1449617835581018607,/odom,1.60811419144e-07,-3.04332289367e-05,0.0,0.0,0.0,0.0,1.0,0,user,1.0,0
1449617835695401178,0,1449617835685858825,/odom,1.60811419144e-07,-3.04332289367e-05,0.0,0.0,0.0,0.0,1.0,0,1449617835685858825,/odom,1.60811419144e-07,-3.04332289367e-05,0.0,0.0,0.0,0.0,1.0,0,user,1.0,0
1449617835796201430,0,1449617835782843473,/odom,1.60811419144e-07,-3.04332289367e-05,0.0,0.0,0.0,0.0,1.0,0,1449617835782843473,/odom,1.60811419144e-07,-3.04332289367e-05,0.0,0.0,0.0,0.0,1.0,0,user,1.0,0
1449617835886859705,0,1449617835880408080,/odom,1.60811419144e-07,-3.04332289367e-05,0.0,0.0,0.0,0.0,1.0,0,1449617835880408080,/odom,1.60811419144e-07,-3.04332289367e-05,0.0,0.0,0.0,0.0,1.0,0,user,1.0,0
1449617835983097504,0,1449617835980697839,/odom,1.60811419144e-07,-3.04332289367e-05,0.0,0.0,0.0,0.0,1.0,0,1449617835980697839,/odom,1.60811419144e-07,-3.04332289367e-05,0.0,0.0,0.0,0.0,1.0,0,user,1.0,0
1449617836101838221,0,1449617836084293099,/odom,-0.00287947164295,-6.08664578733e-05,0.0,0.0,0.0,0.0052839997518,0.999986039576,0,1449617836084293099,/odom,-0.00287947164295,-6.08664578733e-05,0.0,0.0,0.0,0.0052839997518,0.999986039576,0,user,1.0,0
1449617836186517053,0,1449617836183694244,/odom,0.00287979326579,0.0,0.0,0.0,0.0,0.0052839997518,0.999986039576,0,1449617836183694244,/odom,0.00287979326579,0.0,0.0,0.0,0.0,0.0052839997518,0.999986039576,0,user,1.0,0
1449617836321059843,0,1449617836314756674,/odom,0.0,0.0,0.0,0.0,0.0,0.0,1.0,0,1449617836314756674,/odom,0.0,0.0,0.0,0.0,0.0,0.0,1.0,0,user,1.0,0
1449617836385856224,0,1449617836381196995,/odom,0.0,0.0,0.0,0.0,0.0,0.0,1.0,0,1449617836381196995,/odom,0.0,0.0,0.0,0.0,0.0,0.0,1.0,0,user,1.0,0
1449617836481401873,0,1449617836479639495,/odom,0.0,0.0,0.0,0.0,0.0,0.0,1.0,0,1449617836479639495,/odom,0.0,0.0,0.0,0.0,0.0,0.0,1.0,0,user,1.0,0
1449617836583816978,0,1449617836581083244,/odom,0.0054904534118,0.0,0.0,0.0,0.0,0.0,1.0,0,1449617836581083244,/odom,0.0054904534118,0.0,0.0,0.0,0.0,0.0,1.0,0,user,1.0,0
1449617836686432378,0,1449617836680691711,/odom,0.010263473843,0.0,0.0,0.0,0.0,0.0,1.0,0,1449617836680691711,/odom,0.010263473843,0.0,0.0,0.0,0.0,0.0,1.0,0,user,1.0,0
1449617836783836075,0,1449617836781779263,/odom,0.319921200107,-0.00100392645039,0.0,0.0,0.0,-0.00287652591558,0.999995862791,0,1449617836781779263,/odom,0.319921200107,-0.00100392645039,0.0,0.0,0.0,-0.00287652591558,0.999995862791,0,user,1.0,0
1449617836887325249,0,1449617836880741909,/odom,0.487006497608,-0.00233058633571,0.0,0.0,0.0,-0.00438669228882,0.999990378419,0,1449617836880741909,/odom,0.487006497608,-0.00233058633571,0.0,0.0,0.0,-0.00438669228882,0.999990378419,0,user,1.0,0
1449617837026025965,0,1449617837016951300,/odom,0.611114543275,-0.00370579557665,0.0,0.0,0.0,-0.00555856538827,0.999984551056,0,1449617837016951300,/odom,0.611114543275,-0.00370579557665,0.0,0.0,0.0,-0.00555856538827,0.999984551056,0,user,1.0,0
1449617837095784655,0,1449617837081680883,/odom,0.548462046073,-0.00231169335103,0.0,0.0,0.0,-0.00386359354017,0.999992536295,0,1449617837081680883,/odom,0.548462046073,-0.00231169335103,0.0,0.0,0.0,-0.00386359354017,0.999992536295,0,user,1.0,0
1449617837190588529,0,1449617837182597157,/odom,0.479015284321,-0.00123870507918,0.0,0.0,0.0,-0.00237043806054,0.999997190508,0,1449617837182597157,/odom,0.479015284321,-0.00123870507918,0.0,0.0,0.0,-0.00237043806054,0.999997190508,0,user,1.0,0
1449617837287224598,0,1449617837283107390,/odom,0.460684755456,-0.000893693195083,0.0,0.0,0.0,-0.00177826006406,0.999998418894,0,1449617837283107390,/odom,0.460684755456,-0.000893693195083,0.0,0.0,0.0,-0.00177826006406,0.999998418894,0,user,1.0,0
1449617837410585709,0,1449617837381955180,/odom,0.438735775281,-0.000414170104971,0.0,0.0,0.0,-0.000865340350134,0.999999625593,0,1449617837381955180,/odom,0.438735775281,-0.000414170104971,0.0,0.0,0.0,-0.000865340350134,0.999999625593,0,user,1.0,0
1449617837547770130,0,1449617837487304675,/odom,0.41298863715,-0.000246412170972,0.0,0.0,0.0,-0.000546934624847,0.999999850431,0,1449617837487304675,/odom,0.41298863715,-0.000246412170972,0.0,0.0,0.0,-0.000546934624847,0.999999850431,0,user,1.0,0
1449617837591678703,0,1449617837583819634,/odom,0.416963542548,0.00421538498428,0.0,0.0,0.0,0.00486063165784,0.99998818706,0,1449617837583819634,/odom,0.416963542548,0.00421538498428,0.0,0.0,0.0,0.00486063165784,0.99998818706,0,user,1.0,0
1449617837687503027,0,1449617837683041555,/odom,0.418870672502,0.00433051645368,0.0,0.0,0.0,0.00507183489546,0.999987138163,0,1449617837683041555,/odom,0.418870672502,0.00433051645368,0.0,0.0,0.0,0.00507183489546,0.999987138163,0,user,1.0,0
1449617837797113563,0,1449617837788687794,/odom,0.419480058122,0.00436748918871,0.0,0.0,0.0,0.00513931927027,0.999986793612,0,1449617837788687794,/odom,0.419480058122,0.00436748918871,0.0,0.0,0.0,0.00513931927027,0.999986793612,0,user,1.0,0
1449617837919602033,0,1449617837912458413,/odom,0.425756628814,0.00445981309064,0.0,0.0,0.0,0.0051966086014,0.999986497538,0,1449617837912458413,/odom,0.425756628814,0.00445981309064,0.0,0.0,0.0,0.0051966086014,0.999986497538,0,user,1.0,0
1449617837987407740,0,1449617837981494680,/odom,0.431969792601,0.00457879386541,0.0,0.0,0.0,0.00524692956117,0.99998623477,0,1449617837981494680,/odom,0.431969792601,0.00457879386541,0.0,0.0,0.0,0.00524692956117,0.99998623477,0,user,1.0,0
1449617838090277447,0,1449617838087345084,/odom,0.426519115499,0.00888171821292,0.0,0.0,0.0,0.0105391643669,0.999944461465,0,1449617838087345084,/odom,0.426519115499,0.00888171821292,0.0,0.0,0.0,0.0105391643669,0.999944461465,0,user,1.0,0
1449617838186187500,0,1449617838182783917,/odom,0.436689213751,0.00913365810703,0.0,0.0,0.0,0.0105538931191,0.999944306119,0,1449617838182783917,/odom,0.436689213751,0.00913365810703,0.0,0.0,0.0,0.0105538931191,0.999944306119,0,user,1.0,0
1449617838302737811,0,1449617838297772888,/odom,0.446211404944,0.0130706806717,0.0,0.0,0.0,0.0142037868549,0.999899121131,0,1449617838297772888,/odom,0.446211404944,0.0130706806717,0.0,0.0,0.0,0.0142037868549,0.999899121131,0,user,1.0,0
1449617838390609391,0,1449617838385432819,/odom,0.453644574581,0.0120593020679,0.0,0.0,0.0,0.0114662522569,0.999934260369,0,1449617838385432819,/odom,0.453644574581,0.0120593020679,0.0,0.0,0.0,0.0114662522569,0.999934260369,0,user,1.0,0
1449617838484262990,0,1449617838481160360,/odom,0.589201905995,0.0225454169042,0.0,0.0,0.0,0.0183628966178,0.999831387799,0,1449617838481160360,/odom,0.589201905995,0.0225454169042,0.0,0.0,0.0,0.0183628966178,0.999831387799,0,user,1.0,0
1449617838588150469,0,1449617838581167496,/odom,0.654000496685,0.0302281545366,0.0,0.0,0.0,0.0216692237673,0.999765194804,0,1449617838581167496,/odom,0.654000496685,0.0302281545366,0.0,0.0,0.0,0.0216692237673,0.999765194804,0,user,1.0,0
1449617838684358500,0,1449617838681675962,/odom,0.711843169922,0.0325441948126,0.0,0.0,0.0,0.021006556734,0.999779337941,0,1449617838681675962,/odom,0.711843169922,0.0325441948126,0.0,0.0,0.0,0.021006556734,0.999779337941,0,user,1.0,0
1449617838821217044,0,1449617838809757951,/odom,0.76120513631,0.0343632325285,0.0,0.0,0.0,0.0203044951804,0.999793842487,0,1449617838809757951,/odom,0.76120513631,0.0343632325285,0.0,0.0,0.0,0.0203044951804,0.999793842487,0,user,1.0,0
1449617838965279141,0,1449617838960135405,/odom,0.791849151729,0.0419745627831,0.0,0.0,0.0,0.0236233728644,0.999720929187,0,1449617838960135405,/odom,0.791849151729,0.0419745627831,0.0,0.0,0.0,0.0236233728644,0.999720929187,0,user,1.0,0
1449617838992143773,0,1449617838989692308,/odom,0.829906209881,0.0483546427568,0.0,0.0,0.0,0.0241938289167,0.999707286481,0,1449617838989692308,/odom,0.829906209881,0.0483546427568,0.0,0.0,0.0,0.0241938289167,0.999707286481,0,user,1.0,0
1449617839094547923,0,1449617839089704255,/odom,0.838669337999,0.0303119063217,0.0,0.0,0.0,0.000903016731774,0.99999959228,0,1449617839089704255,/odom,0.838669337999,0.0303119063217,0.0,0.0,0.0,0.000903016731774,0.99999959228,0,user,1.0,0
1449617839220923996,0,1449617839215481773,/odom,0.855342973678,0.0205278438167,0.0,0.0,0.0,-0.0173161846968,0.999850063633,0,1449617839215481773,/odom,0.855342973678,0.0205278438167,0.0,0.0,0.0,-0.0173161846968,0.999850063633,0,user,1.0,0
1449617839290465244,0,1449617839282264734,/odom,0.879124405799,0.0154689298554,0.0,0.0,0.0,-0.0261763918467,0.999657339547,0,1449617839282264734,/odom,0.879124405799,0.0154689298554,0.0,0.0,0.0,-0.0261763918467,0.999657339547,0,user,1.0,0
1449617839416074611,0,1449617839409140121,/odom,0.88934123593,0.0220499923438,0.0,0.0,0.0,-0.0239955665471,0.99971206494,0,1449617839409140121,/odom,0.88934123593,0.0220499923438,0.0,0.0,0.0,-0.0239955665471,0.99971206494,0,user,1.0,0
1449617839503596037,0,1449617839494926315,/odom,0.907430003621,-0.00288158555113,0.0,0.0,0.0,-0.0589183052432,0.998262807735,0,1449617839494926315,/odom,0.907430003621,-0.00288158555113,0.0,0.0,0.0,-0.0589183052432,0.998262807735,0,user,1.0,0
1449617839601369335,0,1449617839595614778,/odom,0.927940518657,0.00174964087364,0.0,0.0,0.0,-0.0601244877745,0.998190886539,0,1449617839595614778,/odom,0.927940518657,0.00174964087364,0.0,0.0,0.0,-0.0601244877745,0.998190886539,0,user,1.0,0
1449617839739072695,0,1449617839685329266,/odom,0.95715086777,-0.00601554622546,0.0,0.0,0.0,-0.0737922034473,0.997273638833,0,1449617839685329266,/odom,0.95715086777,-0.00601554622546,0.0,0.0,0.0,-0.0737922034473,0.997273638833,0,user,1.0,0
1449617839788776017,0,1449617839781512006,/odom,0.989065469919,0.0039295718703,0.0,0.0,0.0,-0.0700804852068,0.997541340293,0,1449617839781512006,/odom,0.989065469919,0.0039295718703,0.0,0.0,0.0,-0.0700804852068,0.997541340293,0,user,1.0,0
1449617839887637287,0,1449617839881178614,/odom,1.01468305045,-0.00420393634275,0.0,0.0,0.0,-0.0794386804001,0.996839754452,0,1449617839881178614,/odom,1.01468305045,-0.00420393634275,0.0,0.0,0.0,-0.0794386804001,0.996839754452,0,user,1.0,0
1449617839993226468,0,1449617839988641001,/odom,1.03503302427,0.00290515070488,0.0,0.0,0.0,-0.0777844475944,0.996970200012,0,1449617839988641001,/odom,1.03503302427,0.00290515070488,0.0,0.0,0.0,-0.0777844475944,0.996970200012,0,user,1.0,0
1449617840112618278,0,1449617840099818808,/odom,1.06643019636,-0.000441325007516,0.0,0.0,0.0,-0.0818489211817,0.996644748193,0,1449617840099818808,/odom,1.06643019636,-0.000441325007516,0.0,0.0,0.0,-0.0818489211817,0.996644748193,0,user,1.0,0
1449617840197424604,0,1449617840189202045,/odom,1.1007538308,0.00112708805591,0.0,0.0,0.0,-0.0841306597666,0.99645473158,0,1449617840189202045,/odom,1.1007538308,0.00112708805591,0.0,0.0,0.0,-0.0841306597666,0.99645473158,0,user,1.0,0
1449617840288127625,0,1449617840280772551,/odom,1.12062051326,-0.00316633735054,0.0,0.0,0.0,-0.0875890710896,0.996156691804,0,1449617840280772551,/odom,1.12062051326,-0.00316633735054,0.0,0.0,0.0,-0.0875890710896,0.996156691804,0,user,1.0,0
1449617840382958518,0,1449617840380624512,/odom,1.14592585143,-0.00949569699708,0.0,0.0,0.0,-0.0939794008058,0.995574142003,0,1449617840380624512,/odom,1.14592585143,-0.00949569699708,0.0,0.0,0.0,-0.0939794008058,0.995574142003,0,user,1.0,0
1449617840483395254,0,1449617840480417230,/odom,1.12445042502,-0.00801324072267,0.0,0.0,0.0,-0.0932608703897,0.995641707671,0,1449617840480417230,/odom,1.12445042502,-0.00801324072267,0.0,0.0,0.0,-0.0932608703897,0.995641707671,0,user,1.0,0
1449617840587428852,0,1449617840581485114,/odom,1.17456693813,-0.0092471399663,0.0,0.0,0.0,-0.0968089116778,0.995302986341,0,1449617840581485114,/odom,1.17456693813,-0.0092471399663,0.0,0.0,0.0,-0.0968089116778,0.995302986341,0,user,1.0,0
1449617840722506297,0,1449617840717633778,/odom,1.21846803227,-0.0178207154087,0.0,0.0,0.0,-0.104992889109,0.994472972602,0,1449617840717633778,/odom,1.21846803227,-0.0178207154087,0.0,0.0,0.0,-0.104992889109,0.994472972602,0,user,1.0,0
1449617840789420236,0,1449617840785780414,/odom,1.25375756017,-0.0229406091538,0.0,0.0,0.0,-0.108845200834,0.994058711674,0,1449617840785780414,/odom,1.25375756017,-0.0229406091538,0.0,0.0,0.0,-0.108845200834,0.994058711674,0,user,1.0,0
1449617840889419024,0,1449617840881261075,/odom,1.27706428257,-0.0381012215041,0.0,0.0,0.0,-0.120355679881,0.992730834779,0,1449617840881261075,/odom,1.27706428257,-0.0381012215041,0.0,0.0,0.0,-0.120355679881,0.992730834779,0,user,1.0,0
1449617840988966160,0,1449617840985309816,/odom,1.29733413375,-0.0391067113468,0.0,0.0,0.0,-0.121976078349,0.992533040413,0,1449617840985309816,/odom,1.29733413375,-0.0391067113468,0.0,0.0,0.0,-0.121976078349,0.992533040413,0,user,1.0,0
1449617841084270979,0,1449617841081744895,/odom,1.32881195697,-0.0463195868354,0.0,0.0,0.0,-0.127627446784,0.991822179036,0,1449617841081744895,/odom,1.32881195697,-0.0463195868354,0.0,0.0,0.0,-0.127627446784,0.991822179036,0,user,1.0,0
1449617841202881836,0,1449617841187279604,/odom,1.34915308723,-0.054234576583,0.0,0.0,0.0,-0.133528715623,0.991044944543,0,1449617841187279604,/odom,1.34915308723,-0.054234576583,0.0,0.0,0.0,-0.133528715623,0.991044944543,0,user,1.0,0
1449617841305861344,0,1449617841291584835,/odom,1.38715650791,-0.0584433163679,0.0,0.0,0.0,-0.129293342555,0.991606389436,0,1449617841291584835,/odom,1.38715650791,-0.0584433163679,0.0,0.0,0.0,-0.129293342555,0.991606389436,0,user,1.0,0
1449617841412458523,0,1449617841406309486,/odom,1.38582475103,-0.0470037232226,0.0,0.0,0.0,-0.115808773451,0.993271527827,0,1449617841406309486,/odom,1.38582475103,-0.0470037232226,0.0,0.0,0.0,-0.115808773451,0.993271527827,0,user,1.0,0
1449617841501470698,0,1449617841498237714,/odom,1.41743908707,-0.052125704089,0.0,0.0,0.0,-0.115323942571,0.993327935915,0,1449617841498237714,/odom,1.41743908707,-0.052125704089,0.0,0.0,0.0,-0.115323942571,0.993327935915,0,user,1.0,0
1449617841619684929,0,1449617841607957951,/odom,1.46696053421,-0.0550682212833,0.0,0.0,0.0,-0.109247050035,0.994014628694,0,1449617841607957951,/odom,1.46696053421,-0.0550682212833,0.0,0.0,0.0,-0.109247050035,0.994014628694,0,user,1.0,0
1449617841685549221,0,1449617841682378268,/odom,1.50023698852,-0.0651914619368,0.0,0.0,0.0,-0.115255971047,0.993335824955,0,1449617841682378268,/odom,1.50023698852,-0.0651914619368,0.0,0.0,0.0,-0.115255971047,0.993335824955,0,user,1.0,0
1449617841791939063,0,1449617841782688279,/odom,1.52024241501,-0.0648594620763,0.0,0.0,0.0,-0.113215386119,0.993570468737,0,1449617841782688279,/odom,1.52024241501,-0.0648594620763,0.0,0.0,0.0,-0.113215386119,0.993570468737,0,user,1.0,0
1449617841884317328,0,1449617841882373755,/odom,1.5564550614,-0.0825983016868,0.0,0.0,0.0,-0.122895273252,0.992419645015,0,1449617841882373755,/odom,1.5564550614,-0.0825983016868,0.0,0.0,0.0,-0.122895273252,0.992419645015,0,user,1.0,0
1449617841988829075,0,1449617841984127628,/odom,1.58399574716,-0.0921331367191,0.0,0.0,0.0,-0.126426654065,0.991975957945,0,1449617841984127628,/odom,1.58399574716,-0.0921331367191,0.0,0.0,0.0,-0.126426654065,0.991975957945,0,user,1.0,0
1449617842092761553,0,1449617842086251999,/odom,1.61055123733,-0.101983000129,0.0,0.0,0.0,-0.131385444506,0.991331359825,0,1449617842086251999,/odom,1.61055123733,-0.101983000129,0.0,0.0,0.0,-0.131385444506,0.991331359825,0,user,1.0,0
1449617842191308775,0,1449617842180966008,/odom,1.62787868885,-0.111479941367,0.0,0.0,0.0,-0.136525065006,0.990636616841,0,1449617842180966008,/odom,1.62787868885,-0.111479941367,0.0,0.0,0.0,-0.136525065006,0.990636616841,0,user,1.0,0
1449617842287761438,0,1449617842280770773,/odom,1.6521134241,-0.1297763564,0.0,0.0,0.0,-0.146895698665,0.989151987166,0,1449617842280770773,/odom,1.6521134241,-0.1297763564,0.0,0.0,0.0,-0.146895698665,0.989151987166,0,user,1.0,0
1449617842404142975,0,1449617842397047472,/odom,1.67375620729,-0.132876878078,0.0,0.0,0.0,-0.146795106472,0.989166920553,0,1449617842397047472,/odom,1.67375620729,-0.132876878078,0.0,0.0,0.0,-0.146795106472,0.989166920553,0,user,1.0,0
1449617842524991296,0,1449617842481385228,/odom,1.7091652425,-0.124289358234,0.0,0.0,0.0,-0.125701053456,0.992068165581,0,1449617842481385228,/odom,1.7091652425,-0.124289358234,0.0,0.0,0.0,-0.125701053456,0.992068165581,0,user,1.0,0
1449617842586981835,0,1449617842584412070,/odom,1.64021979376,-0.105160621399,0.0,0.0,0.0,-0.116338900039,0.993209575235,0,1449617842584412070,/odom,1.64021979376,-0.105160621399,0.0,0.0,0.0,-0.116338900039,0.993209575235,0,user,1.0,0
1449617842683951719,0,1449617842681576217,/odom,1.68772809198,-0.105022759748,0.0,0.0,0.0,-0.104865153454,0.99448645018,0,1449617842681576217,/odom,1.68772809198,-0.105022759748,0.0,0.0,0.0,-0.104865153454,0.99448645018,0,user,1.0,0
1449617842785809671,0,1449617842783592921,/odom,1.74893753569,-0.110859751229,0.0,0.0,0.0,-0.094244574103,0.995549074758,0,1449617842783592921,/odom,1.74893753569,-0.110859751229,0.0,0.0,0.0,-0.094244574103,0.995549074758,0,user,1.0,0
1449617842883013633,0,1449617842880960221,/odom,1.77846386323,-0.120921915039,0.0,0.0,0.0,-0.095881340876,0.995392770956,0,1449617842880960221,/odom,1.77846386323,-0.120921915039,0.0,0.0,0.0,-0.095881340876,0.995392770956,0,user,1.0,0
1449617842985821721,0,1449617842982950258,/odom,1.80881543601,-0.129725712888,0.0,0.0,0.0,-0.0953576747373,0.995443074148,0,1449617842982950258,/odom,1.80881543601,-0.129725712888,0.0,0.0,0.0,-0.0953576747373,0.995443074148,0,user,1.0,0
1449617843090072484,0,1449617843084712023,/odom,1.82788248141,-0.139731415375,0.0,0.0,0.0,-0.0985083441752,0.99513622491,0,1449617843084712023,/odom,1.82788248141,-0.139731415375,0.0,0.0,0.0,-0.0985083441752,0.99513622491,0,user,1.0,0
1449617843188202532,0,1449617843180384050,/odom,1.80665168189,-0.133349706356,0.0,0.0,0.0,-0.0959878537845,0.995382505334,0,1449617843180384050,/odom,1.80665168189,-0.133349706356,0.0,0.0,0.0,-0.0959878537845,0.995382505334,0,user,1.0,0
1449617843297463167,0,1449617843287633362,/odom,1.83352211621,-0.146285734259,0.0,0.0,0.0,-0.100959163924,0.994890570475,0,1449617843287633362,/odom,1.83352211621,-0.146285734259,0.0,0.0,0.0,-0.100959163924,0.994890570475,0,user,1.0,0
1449617843390534896,0,1449617843384614815,/odom,1.74480887092,-0.13479668269,0.0,0.0,0.0,-0.105970284981,0.994369296942,0,1449617843384614815,/odom,1.74480887092,-0.13479668269,0.0,0.0,0.0,-0.105970284981,0.994369296942,0,user,1.0,0
1449617843527036469,0,1449617843499209535,/odom,1.69698951212,-0.130572824235,0.0,0.0,0.0,-0.111072201297,0.993812339478,0,1449617843499209535,/odom,1.69698951212,-0.130572824235,0.0,0.0,0.0,-0.111072201297,0.993812339478,0,user,1.0,0
1449617843593804946,0,1449617843587498410,/odom,1.66029746156,-0.127764597586,0.0,0.0,0.0,-0.116184990685,0.993227591209,0,1449617843587498410,/odom,1.66029746156,-0.127764597586,0.0,0.0,0.0,-0.116184990685,0.993227591209,0,user,1.0,0
1449617843686054088,0,1449617843682473906,/odom,1.66330537651,-0.12844650613,0.0,0.0,0.0,-0.116133744705,0.993233584481,0,1449617843682473906,/odom,1.66330537651,-0.12844650613,0.0,0.0,0.0,-0.116133744705,0.993233584481,0,user,1.0,0
1449617843798935039,0,1449617843793208803,/odom,1.64013656019,-0.128006043598,0.0,0.0,0.0,-0.121306289017,0.992615123925,0,1449617843793208803,/odom,1.64013656019,-0.128006043598,0.0,0.0,0.0,-0.121306289017,0.992615123925,0,user,1.0,0
1449617843895998967,0,1449617843880510249,/odom,1.6428661468,-0.133529547141,0.0,0.0,0.0,-0.126517267172,0.991964405161,0,1449617843880510249,/odom,1.6428661468,-0.133529547141,0.0,0.0,0.0,-0.126517267172,0.991964405161,0,user,1.0,0
1449617844021789050,0,1449617844015634625,/odom,1.63850582768,-0.132361675472,0.0,0.0,0.0,-0.126505931783,0.991965850835,0,1449617844015634625,/odom,1.63850582768,-0.132361675472,0.0,0.0,0.0,-0.126505931783,0.991965850835,0,user,1.0,0
1449617844091853277,0,1449617844082903642,/odom,1.77015090305,-0.17253010771,0.0,0.0,0.0,-0.131735220086,0.991284939757,0,1449617844082903642,/odom,1.77015090305,-0.17253010771,0.0,0.0,0.0,-0.131735220086,0.991284939757,0,user,1.0,0
1449617844194390357,0,1449617844182881467,/odom,1.84109172151,-0.191719032209,0.0,0.0,0.0,-0.131729939635,0.99128564148,0,1449617844182881467,/odom,1.84109172151,-0.191719032209,0.0,0.0,0.0,-0.131729939635,0.99128564148,0,user,1.0,0
1449617844501239207,0,1449617844498324761,/odom,3.01211377034,-0.528465639496,0.0,0.0,0.0,-0.136974144229,0.990574623041,0,1449617844498324761,/odom,3.01211377034,-0.528465639496,0.0,0.0,0.0,-0.136974144229,0.990574623041,0,user,1.0,0
1449617844604625277,0,1449617844603068202,/odom,3.01166151062,-0.548024132379,0.0,0.0,0.0,-0.142205593977,0.989837142686,0,1449617844603068202,/odom,3.01166151062,-0.548024132379,0.0,0.0,0.0,-0.142205593977,0.989837142686,0,user,1.0,0
1449617844717708736,0,1449617844714890368,/odom,2.7545546665,-0.472678563563,0.0,0.0,0.0,-0.142196866325,0.989838396511,0,1449617844714890368,/odom,2.7545546665,-0.472678563563,0.0,0.0,0.0,-0.142196866325,0.989838396511,0,user,1.0,0
1449617844905155201,0,1449617844889325913,/odom,2.62167740502,-0.448789424846,0.0,0.0,0.0,-0.147420550942,0.989073900758,0,1449617844889325913,/odom,2.62167740502,-0.448789424846,0.0,0.0,0.0,-0.147420550942,0.989073900758,0,user,1.0,0
1449617844913386529,0,1449617844906192112,/odom,1.79978699929,-0.203702466354,0.0,0.0,0.0,-0.15263984949,0.988281881018,0,1449617844906192112,/odom,1.79978699929,-0.203702466354,0.0,0.0,0.0,-0.15263984949,0.988281881018,0,user,1.0,0
1449617845012515490,0,1449617845007581942,/odom,1.77254637158,-0.195081687232,0.0,0.0,0.0,-0.152638743734,0.988282051801,0,1449617845007581942,/odom,1.77254637158,-0.195081687232,0.0,0.0,0.0,-0.152638743734,0.988282051801,0,user,1.0,0
1449617845131958535,0,1449617845124821350,/odom,1.76619560477,-0.193103731919,0.0,0.0,0.0,-0.152638344002,0.988282113539,0,1449617845124821350,/odom,1.76619560477,-0.193103731919,0.0,0.0,0.0,-0.152638344002,0.988282113539,0,user,1.0,0
1449617845218765544,0,1449617845209900715,/odom,1.75950201916,-0.195744092207,0.0,0.0,0.0,-0.157857838559,0.987461848785,0,1449617845209900715,/odom,1.75950201916,-0.195744092207,0.0,0.0,0.0,-0.157857838559,0.987461848785,0,user,1.0,0
1449617845343939239,0,1449617845336980975,/odom,1.75958451391,-0.195771130429,0.0,0.0,0.0,-0.157857781205,0.987461857953,0,1449617845336980975,/odom,1.75958451391,-0.195771130429,0.0,0.0,0.0,-0.157857781205,0.987461857953,0,user,1.0,0
1449617845411745600,0,1449617845407625972,/odom,1.76639752576,-0.202686520915,0.0,0.0,0.0,-0.163073285902,0.986613958661,0,1449617845407625972,/odom,1.76639752576,-0.202686520915,0.0,0.0,0.0,-0.163073285902,0.986613958661,0,user,1.0,0
1449617845525456268,0,1449617845518206742,/odom,1.76813781051,-0.203245811128,0.0,0.0,0.0,-0.163073258974,0.986613963112,0,1449617845518206742,/odom,1.76813781051,-0.203245811128,0.0,0.0,0.0,-0.163073258974,0.986613963112,0,user,1.0,0
1449617845669774406,0,1449617845610323311,/odom,1.76974816476,-0.203760943459,0.0,0.0,0.0,-0.163073231107,0.986613967718,0,1449617845610323311,/odom,1.76974816476,-0.203760943459,0.0,0.0,0.0,-0.163073231107,0.986613967718,0,user,1.0,0
1449617845954032305,0,1449617845941402116,/odom,2.6566042463,-0.520184736449,0.0,0.0,0.0,-0.168284253471,0.985738509968,0,1449617845941402116,/odom,2.6566042463,-0.520184736449,0.0,0.0,0.0,-0.168284253471,0.985738509968,0,user,1.0,0
1449617846177115054,0,1449617846146810299,/odom,2.65967942638,-0.521201712622,0.0,0.0,0.0,-0.168284250035,0.985738510554,0,1449617846146810299,/odom,2.65967942638,-0.521201712622,0.0,0.0,0.0,-0.168284250035,0.985738510554,0,user,1.0,0
1449617846322733202,0,1449617846310325124,/odom,2.64899153669,-0.51750742446,0.0,0.0,0.0,-0.168284244449,0.985738511508,0,1449617846310325124,/odom,2.64899153669,-0.51750742446,0.0,0.0,0.0,-0.168284244449,0.985738511508,0,user,1.0,0
1449617846513239724,0,1449617846505175593,/odom,2.62227992525,-0.522480262596,0.0,0.0,0.0,-0.173490527842,0.98483553792,0,1449617846505175593,/odom,2.62227992525,-0.522480262596,0.0,0.0,0.0,-0.173490527842,0.98483553792,0,user,1.0,0
1449617846772432717,0,1449617846766963103,/odom,2.60667421731,-0.516805897909,0.0,0.0,0.0,-0.173490521202,0.984835539089,0,1449617846766963103,/odom,2.60667421731,-0.516805897909,0.0,0.0,0.0,-0.173490521202,0.984835539089,0,user,1.0,0
1449617846907331742,0,1449617846903821469,/odom,2.61080478209,-0.532355221227,0.0,0.0,0.0,-0.178691968385,0.98390506678,0,1449617846903821469,/odom,2.61080478209,-0.532355221227,0.0,0.0,0.0,-0.178691968385,0.98390506678,0,user,1.0,0
1449617847133941628,0,1449617847127794683,/odom,2.57824805893,-0.520093754746,0.0,0.0,0.0,-0.178691956067,0.983905069017,0,1449617847127794683,/odom,2.57824805893,-0.520093754746,0.0,0.0,0.0,-0.178691956067,0.983905069017,0,user,1.0,0
1449617847351863085,0,1449617847344348063,/odom,2.56672106001,-0.529193658065,0.0,0.0,0.0,-0.18388841227,0.982947125655,0,1449617847344348063,/odom,2.56672106001,-0.529193658065,0.0,0.0,0.0,-0.18388841227,0.982947125655,0,user,1.0,0
1449617847603820111,0,1449617847594612007,/odom,2.57412051938,-0.518640891183,0.0,0.0,0.0,-0.178691950912,0.983905069953,0,1449617847594612007,/odom,2.57412051938,-0.518640891183,0.0,0.0,0.0,-0.178691950912,0.983905069953,0,user,1.0,0
1449617847808602056,0,1449617847805651435,/odom,2.56790478548,-0.529587335172,0.0,0.0,0.0,-0.1838884095,0.982947126173,0,1449617847805651435,/odom,2.56790478548,-0.529587335172,0.0,0.0,0.0,-0.1838884095,0.982947126173,0,user,1.0,0
1449617848010023010,0,1449617848002018444,/odom,2.55425777698,-0.524296016463,0.0,0.0,0.0,-0.183888406617,0.982947126712,0,1449617848002018444,/odom,2.55425777698,-0.524296016463,0.0,0.0,0.0,-0.183888406617,0.982947126712,0,user,1.0,0
1449617848306755522,0,1449617848302367073,/odom,2.55662961004,-0.525248279254,0.0,0.0,0.0,-0.183888405255,0.982947126967,0,1449617848302367073,/odom,2.55662961004,-0.525248279254,0.0,0.0,0.0,-0.183888405255,0.982947126967,0,user,1.0,0
1449617848511117675,0,1449617848506026326,/odom,2.55505396841,-0.524637359379,0.0,0.0,0.0,-0.183888404536,0.982947127102,0,1449617848506026326,/odom,2.55505396841,-0.524637359379,0.0,0.0,0.0,-0.183888404536,0.982947127102,0,user,1.0,0
1449617848804424781,0,1449617848798481103,/odom,2.55209423848,-0.52348979016,0.0,0.0,0.0,-0.183888403186,0.982947127354,0,1449617848798481103,/odom,2.55209423848,-0.52348979016,0.0,0.0,0.0,-0.183888403186,0.982947127354,0,user,1.0,0
1449617848994370287,0,1449617848984760659,/odom,2.60320909471,-0.543308403706,0.0,0.0,0.0,-0.183888402659,0.982947127453,0,1449617848984760659,/odom,2.60320909471,-0.543308403706,0.0,0.0,0.0,-0.183888402659,0.982947127453,0,user,1.0,0
1449617849254741239,0,1449617849249742307,/odom,2.6662833435,-0.567763997463,0.0,0.0,0.0,-0.183888402032,0.98294712757,0,1449617849249742307,/odom,2.6662833435,-0.567763997463,0.0,0.0,0.0,-0.183888402032,0.98294712757,0,user,1.0,0
1449617849478355844,0,1449617849475448619,/odom,2.72522155534,-0.588400232444,0.0,0.0,0.0,-0.182417167851,0.983221224788,0,1449617849475448619,/odom,2.72522155534,-0.588400232444,0.0,0.0,0.0,-0.182417167851,0.983221224788,0,user,1.0,0
1449617849687355917,0,1449617849682632868,/odom,2.78416206196,-0.61956611939,0.0,0.0,0.0,-0.182874261907,0.983136310148,0,1449617849682632868,/odom,2.78416206196,-0.61956611939,0.0,0.0,0.0,-0.182874261907,0.983136310148,0,user,1.0,0
1449617849859072500,0,1449617849813772324,/odom,2.90258595357,-0.418281516663,0.0,0.0,0.0,-0.0297902603963,0.999556171701,0,1449617849813772324,/odom,2.90258595357,-0.418281516663,0.0,0.0,0.0,-0.0297902603963,0.999556171701,0,user,1.0,0
1449617850020732672,0,1449617850015107918,/odom,2.99293606114,-0.0870417068956,0.0,0.0,0.0,0.190491733615,0.981688799684,0,1449617850015107918,/odom,2.99293606114,-0.0870417068956,0.0,0.0,0.0,0.190491733615,0.981688799684,0,user,1.0,0
1449617850227894218,0,1449617850216052312,/odom,2.98606246674,0.137421917854,0.0,0.0,0.0,0.328504120661,0.944502537164,0,1449617850216052312,/odom,2.98606246674,0.137421917854,0.0,0.0,0.0,0.328504120661,0.944502537164,0,user,1.0,0
1449617850478265900,0,1449617850453468422,/odom,2.96642990863,0.254848709974,0.0,0.0,0.0,0.39518192108,0.91860287897,0,1449617850453468422,/odom,2.96642990863,0.254848709974,0.0,0.0,0.0,0.39518192108,0.91860287897,0,user,1.0,0
1449617850660187622,0,1449617850653341269,/odom,2.96078308672,0.283890184455,0.0,0.0,0.0,0.412302985468,0.911046787039,0,1449617850653341269,/odom,2.96078308672,0.283890184455,0.0,0.0,0.0,0.412302985468,0.911046787039,0,user,1.0,0
1449617850672041598,0,1449617850663369534,/odom,2.07280164534,-0.156623362291,0.0,0.0,0.0,0.0808367120427,0.9967273579,0,1449617850663369534,/odom,2.07280164534,-0.156623362291,0.0,0.0,0.0,0.0808367120427,0.9967273579,0,user,1.0,0
1449617850693715102,0,1449617850686232632,/odom,2.10840517388,-0.108421215692,0.0,0.0,0.0,0.155131519194,0.987893826154,0,1449617850686232632,/odom,2.10840517388,-0.108421215692,0.0,0.0,0.0,0.155131519194,0.987893826154,0,user,1.0,0
1449617850810479934,0,1449617850781417862,/odom,2.11301490659,-0.098916286757,0.0,0.0,0.0,0.168794968539,0.985651185053,0,1449617850781417862,/odom,2.11301490659,-0.098916286757,0.0,0.0,0.0,0.168794968539,0.985651185053,0,user,1.0,0
1449617850907004921,0,1449617850884447916,/odom,2.11813630783,-0.0876512458786,0.0,0.0,0.0,0.184697840291,0.982795353973,0,1449617850884447916,/odom,2.11813630783,-0.0876512458786,0.0,0.0,0.0,0.184697840291,0.982795353973,0,user,1.0,0
1449617851319133409,0,1449617851310754876,/odom,2.64015174214,0.814730061949,0.0,0.0,0.0,0.73274738602,0.680500748185,0,1449617851310754876,/odom,2.64015174214,0.814730061949,0.0,0.0,0.0,0.73274738602,0.680500748185,0,user,1.0,0
1449617851328355515,0,1449617851320905838,/odom,2.1534566305,-0.0804074387344,0.0,0.0,0.0,0.200086108397,0.979778316369,0,1449617851320905838,/odom,2.1534566305,-0.0804074387344,0.0,0.0,0.0,0.200086108397,0.979778316369,0,user,1.0,0
1449617851434389322,0,1449617851431299729,/odom,2.16609570754,-0.0748879135761,0.0,0.0,0.0,0.20655633889,0.978434708534,0,1449617851431299729,/odom,2.16609570754,-0.0748879135761,0.0,0.0,0.0,0.20655633889,0.978434708534,0,user,1.0,0
1449617851528486709,0,1449617851523901162,/odom,2.17917147615,-0.072748899193,0.0,0.0,0.0,0.211723504033,0.977329605527,0,1449617851523901162,/odom,2.17917147615,-0.072748899193,0.0,0.0,0.0,0.211723504033,0.977329605527,0,user,1.0,0
1449617851627760033,0,1449617851620981077,/odom,2.18920696984,-0.0720728962801,0.0,0.0,0.0,0.214990513626,0.976616137001,0,1449617851620981077,/odom,2.18920696984,-0.0720728962801,0.0,0.0,0.0,0.214990513626,0.976616137001,0,user,1.0,0
1449617851896722298,0,1449617851888655164,/odom,3.35232002287,0.302017846614,0.0,0.0,0.0,0.364077572529,0.931368627978,0,1449617851888655164,/odom,3.35232002287,0.302017846614,0.0,0.0,0.0,0.364077572529,0.931368627978,0,user,1.0,0
1449617852149536083,0,1449617852146796219,/odom,3.41794910115,0.282776832242,0.0,0.0,0.0,0.343900789064,0.939005988949,0,1449617852146796219,/odom,3.41794910115,0.282776832242,0.0,0.0,0.0,0.343900789064,0.939005988949,0,user,1.0,0
1449617852402530100,0,1449617852393196830,/odom,3.48780516111,0.249039317581,0.0,0.0,0.0,0.321111249146,0.947041480439,0,1449617852393196830,/odom,3.48780516111,0.249039317581,0.0,0.0,0.0,0.321111249146,0.947041480439,0,user,1.0,0
1449617852593368926,0,1449617852586965517,/odom,3.54036445722,0.2188725936,0.0,0.0,0.0,0.297907744049,0.954594665832,0,1449617852586965517,/odom,3.54036445722,0.2188725936,0.0,0.0,0.0,0.297907744049,0.954594665832,0,user,1.0,0
1449617852841205759,0,1449617852835265144,/odom,3.59643438057,0.174929780231,0.0,0.0,0.0,0.261236970893,0.965274699264,0,1449617852835265144,/odom,3.59643438057,0.174929780231,0.0,0.0,0.0,0.261236970893,0.965274699264,0,user,1.0,0
1449617853089838095,0,1449617853087363290,/odom,3.57225268046,0.126174865511,0.0,0.0,0.0,0.23009917663,0.973167184462,0,1449617853087363290,/odom,3.57225268046,0.126174865511,0.0,0.0,0.0,0.23009917663,0.973167184462,0,user,1.0,0
1449617853447352367,0,1449617853423257810,/odom,3.60110569196,0.182044812396,0.0,0.0,0.0,0.236993564652,0.97151121986,0,1449617853423257810,/odom,3.60110569196,0.182044812396,0.0,0.0,0.0,0.236993564652,0.97151121986,0,user,1.0,0
1449617853653748863,0,1449617853647632916,/odom,3.48816681802,0.26730511617,0.0,0.0,0.0,0.256576292285,0.966523981201,0,1449617853647632916,/odom,3.48816681802,0.26730511617,0.0,0.0,0.0,0.256576292285,0.966523981201,0,user,1.0,0
1449617853876305641,0,1449617853856527945,/odom,3.5205567089,0.343918286812,0.0,0.0,0.0,0.269450668042,0.963014193816,0,1449617853856527945,/odom,3.5205567089,0.343918286812,0.0,0.0,0.0,0.269450668042,0.963014193816,0,user,1.0,0
1449617853889218557,0,1449617853879085779,/odom,2.59773186604,-0.0162529598151,0.0,0.0,0.0,0.163842576377,0.986486497711,0,1449617853879085779,/odom,2.59773186604,-0.0162529598151,0.0,0.0,0.0,0.163842576377,0.986486497711,0,user,1.0,0
1449617853993051793,0,1449617853985783737,/odom,2.03354614713,-0.165896170186,0.0,0.0,0.0,0.0739088866573,0.997264998119,0,1449617853985783737,/odom,2.03354614713,-0.165896170186,0.0,0.0,0.0,0.0739088866573,0.997264998119,0,user,1.0,0
1449617854102141951,0,1449617854087021749,/odom,2.06136990219,-0.157767479499,0.0,0.0,0.0,0.0949690991753,0.995480220899,0,1449617854087021749,/odom,2.06136990219,-0.157767479499,0.0,0.0,0.0,0.0949690991753,0.995480220899,0,user,1.0,0
1449617854198211757,0,1449617854183791538,/odom,2.09760561511,-0.148398341543,0.0,0.0,0.0,0.10548388359,0.994421012601,0,1449617854183791538,/odom,2.09760561511,-0.148398341543,0.0,0.0,0.0,0.10548388359,0.994421012601,0,user,1.0,0
1449617854288084400,0,1449617854279246577,/odom,2.26393561028,-0.0992124172034,0.0,0.0,0.0,0.131716738444,0.99128739567,0,1449617854279246577,/odom,2.26393561028,-0.0992124172034,0.0,0.0,0.0,0.131716738444,0.99128739567,0,user,1.0,0
1449617854381585917,0,1449617854377214583,/odom,2.34502351549,-0.0739581547485,0.0,0.0,0.0,0.136952861975,0.990577565664,0,1449617854377214583,/odom,2.34502351549,-0.0739581547485,0.0,0.0,0.0,0.136952861975,0.990577565664,0,user,1.0,0
1449617854491838968,0,1449617854479784171,/odom,2.55275370952,-0.0042204952432,0.0,0.0,0.0,0.147413491427,0.989074952946,0,1449617854479784171,/odom,2.55275370952,-0.0042204952432,0.0,0.0,0.0,0.147413491427,0.989074952946,0,user,1.0,0
1449617854588997477,0,1449617854583891449,/odom,2.63376081937,0.0332979661363,0.0,0.0,0.0,0.157857657354,0.987461877753,0,1449617854583891449,/odom,2.63376081937,0.0332979661363,0.0,0.0,0.0,0.157857657354,0.987461877753,0,user,1.0,0
1449617854704083380,0,1449617854690716990,/odom,2.7217957774,0.076744755154,0.0,0.0,0.0,0.168284193326,0.985738520236,0,1449617854690716990,/odom,2.7217957774,0.076744755154,0.0,0.0,0.0,0.168284193326,0.985738520236,0,user,1.0,0
1449617854788986631,0,1449617854782029987,/odom,2.78579844972,0.107167651169,0.0,0.0,0.0,0.173490486104,0.984835545272,0,1449617854782029987,/odom,2.78579844972,0.107167651169,0.0,0.0,0.0,0.173490486104,0.984835545272,0,user,1.0,0
1449617854882108101,0,1449617854877492888,/odom,2.79523058489,0.126479285088,0.0,0.0,0.0,0.183888394426,0.982947128993,0,1449617854877492888,/odom,2.79523058489,0.126479285088,0.0,0.0,0.0,0.183888394426,0.982947128993,0,user,1.0,0
1449617855012846626,0,1449617855003435011,/odom,2.83649832136,0.148200569469,0.0,0.0,0.0,0.18602314223,0.982545363103,0,1449617855003435011,/odom,2.83649832136,0.148200569469,0.0,0.0,0.0,0.18602314223,0.982545363103,0,user,1.0,0
1449617855082235523,0,1449617855078781147,/odom,2.85251231635,0.116072965133,0.0,0.0,0.0,0.131314882041,0.991340709219,0,1449617855078781147,/odom,2.85251231635,0.116072965133,0.0,0.0,0.0,0.131314882041,0.991340709219,0,user,1.0,0
1449617855317957401,0,1449617855312189043,/odom,3.46914775034,-0.0893089878468,0.0,0.0,0.0,-0.174378214282,0.984678748823,0,1449617855312189043,/odom,3.46914775034,-0.0893089878468,0.0,0.0,0.0,-0.174378214282,0.984678748823,0,user,1.0,0
1449617855327977732,0,1449617855318982258,/odom,2.89912551945,0.0459063133446,0.0,0.0,0.0,0.000462052560235,0.999999893254,0,1449617855318982258,/odom,2.89912551945,0.0459063133446,0.0,0.0,0.0,0.000462052560235,0.999999893254,0,user,1.0,0
1449617855517776821,0,1449617855509715318,/odom,3.43162337767,-0.795388274501,0.0,0.0,0.0,-0.657609122859,0.753359304404,0,1449617855509715318,/odom,3.43162337767,-0.795388274501,0.0,0.0,0.0,-0.657609122859,0.753359304404,0,user,1.0,0
1449617855672170453,0,1449617855659205774,/odom,3.46158810106,-0.699096627381,0.0,0.0,0.0,-0.620593652384,0.78413233489,0,1449617855659205774,/odom,3.46158810106,-0.699096627381,0.0,0.0,0.0,-0.620593652384,0.78413233489,0,user,1.0,0
1449617855867646782,0,1449617855849679484,/odom,3.45137920787,-0.53361052252,0.0,0.0,0.0,-0.546769661278,0.837283068923,0,1449617855849679484,/odom,3.45137920787,-0.53361052252,0.0,0.0,0.0,-0.546769661278,0.837283068923,0,user,1.0,0
1449617855986525344,0,1449617855980529755,/odom,3.44349158355,-0.440178049153,0.0,0.0,0.0,-0.502784277006,0.864411921942,0,1449617855980529755,/odom,3.44349158355,-0.440178049153,0.0,0.0,0.0,-0.502784277006,0.864411921942,0,user,1.0,0
1449617856154266816,0,1449617856146061674,/odom,3.45155604148,-0.43679809366,0.0,0.0,0.0,-0.501619129738,0.865088578517,0,1449617856146061674,/odom,3.45155604148,-0.43679809366,0.0,0.0,0.0,-0.501619129738,0.865088578517,0,user,1.0,0
1449617856262037247,0,1449617856252933964,/odom,3.42301952128,-0.362792810467,0.0,0.0,0.0,-0.46121493571,0.887288444125,0,1449617856252933964,/odom,3.42301952128,-0.362792810467,0.0,0.0,0.0,-0.46121493571,0.887288444125,0,user,1.0,0
1449617856319916684,0,1449617856310522391,/odom,3.33965944687,-0.245009140928,0.0,0.0,0.0,-0.385886430257,0.922546293117,0,1449617856310522391,/odom,3.33965944687,-0.245009140928,0.0,0.0,0.0,-0.385886430257,0.922546293117,0,user,1.0,0
1449617856408954280,0,1449617856405201554,/odom,3.34288184987,-0.239289355364,0.0,0.0,0.0,-0.383591724239,0.923502782397,0,1449617856405201554,/odom,3.34288184987,-0.239289355364,0.0,0.0,0.0,-0.383591724239,0.923502782397,0,user,1.0,0
1449617856504530736,0,1449617856502521882,/odom,3.3465145083,-0.242923411385,0.0,0.0,0.0,-0.38610176336,0.922456193177,0,1449617856502521882,/odom,3.3465145083,-0.242923411385,0.0,0.0,0.0,-0.38610176336,0.922456193177,0,user,1.0,0
1449617856557765043,0,1449617856551947991,/odom,3.24187966743,-0.140290629809,0.0,0.0,0.0,-0.306782947337,0.951779503469,0,1449617856551947991,/odom,3.24187966743,-0.140290629809,0.0,0.0,0.0,-0.306782947337,0.951779503469,0,user,1.0,0
1449617856599141013,0,1449617856596806555,/odom,3.17349388327,0.0293764159904,0.0,0.0,0.0,-0.124279358595,0.992247268088,0,1449617856596806555,/odom,3.17349388327,0.0293764159904,0.0,0.0,0.0,-0.124279358595,0.992247268088,0,user,1.0,0
1449617856682604586,0,1449617856680629968,/odom,3.20230489223,0.0967994991219,0.0,0.0,0.0,-0.0556221806125,0.998451888187,0,1449617856680629968,/odom,3.20230489223,0.0967994991219,0.0,0.0,0.0,-0.0556221806125,0.998451888187,0,user,1.0,0
1449617856790396018,0,1449617856787050669,/odom,3.2215998704,0.118436525076,0.0,0.0,0.0,-0.0299518299003,0.999551343296,0,1449617856787050669,/odom,3.2215998704,0.118436525076,0.0,0.0,0.0,-0.0299518299003,0.999551343296,0,user,1.0,0
1449617856896309251,0,1449617856892845433,/odom,3.19541240525,0.140929272756,0.0,0.0,0.0,-0.00110372481354,0.999999390896,0,1449617856892845433,/odom,3.19541240525,0.140929272756,0.0,0.0,0.0,-0.00110372481354,0.999999390896,0,user,1.0,0
1449617857021161919,0,1449617857018490461,/odom,3.24200068049,0.151620611146,0.0,0.0,0.0,0.00602743627071,0.999981834841,0,1449617857018490461,/odom,3.24200068049,0.151620611146,0.0,0.0,0.0,0.00602743627071,0.999981834841,0,user,1.0,0
1449617857115162102,0,1449617857076244684,/odom,3.19458467826,0.168007987294,0.0,0.0,0.0,0.0352027477779,0.999380191193,0,1449617857076244684,/odom,3.19458467826,0.168007987294,0.0,0.0,0.0,0.0352027477779,0.999380191193,0,user,1.0,0
1449617857179117808,0,1449617857171866322,/odom,3.15077265718,0.183819385164,0.0,0.0,0.0,0.0722347527096,0.997387658085,0,1449617857171866322,/odom,3.15077265718,0.183819385164,0.0,0.0,0.0,0.0722347527096,0.997387658085,0,user,1.0,0
1449617857282285473,0,1449617857273656907,/odom,3.15936289735,0.194309070146,0.0,0.0,0.0,0.0815769695642,0.996667044723,0,1449617857273656907,/odom,3.15936289735,0.194309070146,0.0,0.0,0.0,0.0815769695642,0.996667044723,0,user,1.0,0
1449617857375102916,0,1449617857368802500,/odom,3.18836627058,0.215008258115,0.0,0.0,0.0,0.0987404290577,0.995113223543,0,1449617857368802500,/odom,3.18836627058,0.215008258115,0.0,0.0,0.0,0.0987404290577,0.995113223543,0,user,1.0,0
1449617857471765204,0,1449617857467850590,/odom,3.21490485046,0.228203088668,0.0,0.0,0.0,0.113094597298,0.993584224946,0,1449617857467850590,/odom,3.21490485046,0.228203088668,0.0,0.0,0.0,0.113094597298,0.993584224946,0,user,1.0,0
1449617857726807107,0,1449617857715759075,/odom,3.24306084593,0.23723469204,0.0,0.0,0.0,0.117354061521,0.993090139033,0,1449617857715759075,/odom,3.24306084593,0.23723469204,0.0,0.0,0.0,0.117354061521,0.993090139033,0,user,1.0,0
1449617857734278595,0,1449617857729623009,/odom,3.30183543522,0.232933737288,0.0,0.0,0.0,0.105000349518,0.994472184931,0,1449617857729623009,/odom,3.30183543522,0.232933737288,0.0,0.0,0.0,0.105000349518,0.994472184931,0,user,1.0,0
1449617857774359855,0,1449617857768302355,/odom,3.30417105747,0.25963739662,0.0,0.0,0.0,0.135268580919,0.990808967973,0,1449617857768302355,/odom,3.30417105747,0.25963739662,0.0,0.0,0.0,0.135268580919,0.990808967973,0,user,1.0,0
1449617857872705915,0,1449617857869994827,/odom,3.31465346984,0.25422462136,0.0,0.0,0.0,0.130031258171,0.991509895008,0,1449617857869994827,/odom,3.31465346984,0.25422462136,0.0,0.0,0.0,0.130031258171,0.991509895008,0,user,1.0,0
1449617857974263081,0,1449617857970492877,/odom,3.3472846332,0.254834906955,0.0,0.0,0.0,0.12479030484,0.992183138245,0,1449617857970492877,/odom,3.3472846332,0.254834906955,0.0,0.0,0.0,0.12479030484,0.992183138245,0,user,1.0,0
1449617858072067676,0,1449617858068916995,/odom,3.33206274519,0.242867240186,0.0,0.0,0.0,0.119545867465,0.992828678863,0,1449617858068916995,/odom,3.33206274519,0.242867240186,0.0,0.0,0.0,0.119545867465,0.992828678863,0,user,1.0,0
1449617858171564199,0,1449617858169021065,/odom,3.37977083881,0.23856748487,0.0,0.0,0.0,0.109047125092,0.994036581072,0,1449617858169021065,/odom,3.37977083881,0.23856748487,0.0,0.0,0.0,0.109047125092,0.994036581072,0,user,1.0,0
1449617858274908079,0,1449617858272061589,/odom,3.41436847941,0.238367390233,0.0,0.0,0.0,0.10379311373,0.994598908878,0,1449617858272061589,/odom,3.41436847941,0.238367390233,0.0,0.0,0.0,0.10379311373,0.994598908878,0,user,1.0,0
1449617858383563608,0,1449617858375243230,/odom,3.45336612708,0.238716980862,0.0,0.0,0.0,0.098536204561,0.995133466622,0,1449617858375243230,/odom,3.45336612708,0.238716980862,0.0,0.0,0.0,0.098536204561,0.995133466622,0,user,1.0,0
1449617858478139707,0,1449617858468593291,/odom,3.43100046876,0.226490763242,0.0,0.0,0.0,0.093276543873,0.995640239425,0,1449617858468593291,/odom,3.43100046876,0.226490763242,0.0,0.0,0.0,0.093276543873,0.995640239425,0,user,1.0,0
1449617858581455545,0,1449617858571769128,/odom,3.4814044699,0.22054922773,0.0,0.0,0.0,0.0827495564976,0.996570374283,0,1449617858571769128,/odom,3.4814044699,0.22054922773,0.0,0.0,0.0,0.0827495564976,0.996570374283,0,user,1.0,0
1449617858691813252,0,1449617858677131494,/odom,3.50313319166,0.262197122114,0.0,0.0,0.0,0.129070802378,0.991635380558,0,1449617858677131494,/odom,3.50313319166,0.262197122114,0.0,0.0,0.0,0.129070802378,0.991635380558,0,user,1.0,0
1449617858774120224,0,1449617858769161853,/odom,3.49283614126,0.325106417534,0.0,0.0,0.0,0.217006442229,0.976170171656,0,1449617858769161853,/odom,3.49283614126,0.325106417534,0.0,0.0,0.0,0.217006442229,0.976170171656,0,user,1.0,0
1449617858870222550,0,1449617858868264577,/odom,3.46480262924,0.387123638022,0.0,0.0,0.0,0.312970068549,0.949762989483,0,1449617858868264577,/odom,3.46480262924,0.387123638022,0.0,0.0,0.0,0.312970068549,0.949762989483,0,user,1.0,0
1449617858981509252,0,1449617858969494728,/odom,3.47009046554,0.404860003608,0.0,0.0,0.0,0.344256994574,0.938875455897,0,1449617858969494728,/odom,3.47009046554,0.404860003608,0.0,0.0,0.0,0.344256994574,0.938875455897,0,user,1.0,0
1449617859073250155,0,1449617859069220822,/odom,3.47011511378,0.432438094506,0.0,0.0,0.0,0.390696925687,0.920519370931,0,1449617859069220822,/odom,3.47011511378,0.432438094506,0.0,0.0,0.0,0.390696925687,0.920519370931,0,user,1.0,0
1449617859177386280,0,1449617859169966817,/odom,3.484141229,0.439142510351,0.0,0.0,0.0,0.400272626867,0.916396106594,0,1449617859169966817,/odom,3.484141229,0.439142510351,0.0,0.0,0.0,0.400272626867,0.916396106594,0,user,1.0,0
1449617859278734820,0,1449617859270891011,/odom,3.50001852089,0.445048803182,0.0,0.0,0.0,0.410667601332,0.911785128863,0,1449617859270891011,/odom,3.50001852089,0.445048803182,0.0,0.0,0.0,0.410667601332,0.911785128863,0,user,1.0,0
1449617859375686165,0,1449617859369038258,/odom,3.53020891209,0.437420505744,0.0,0.0,0.0,0.405467623787,0.914109405958,0,1449617859369038258,/odom,3.53020891209,0.437420505744,0.0,0.0,0.0,0.405467623787,0.914109405958,0,user,1.0,0
1449617859481877824,0,1449617859474350637,/odom,3.54619264071,0.443238477082,0.0,0.0,0.0,0.410631145838,0.911801547524,0,1449617859474350637,/odom,3.54619264071,0.443238477082,0.0,0.0,0.0,0.410631145838,0.911801547524,0,user,1.0,0
1449617859574898236,0,1449617859570030862,/odom,3.54942365209,0.422692147144,0.0,0.0,0.0,0.396462570999,0.918050886278,0,1449617859570030862,/odom,3.54942365209,0.422692147144,0.0,0.0,0.0,0.396462570999,0.918050886278,0,user,1.0,0
1449617859676924082,0,1449617859672939138,/odom,3.57516226004,0.437179473199,0.0,0.0,0.0,0.405901680867,0.913916749748,0,1449617859672939138,/odom,3.57516226004,0.437179473199,0.0,0.0,0.0,0.405901680867,0.913916749748,0,user,1.0,0
1449617859780114231,0,1449617859773631909,/odom,3.60398565252,0.436278767222,0.0,0.0,0.0,0.404102156229,0.914713860905,0,1449617859773631909,/odom,3.60398565252,0.436278767222,0.0,0.0,0.0,0.404102156229,0.914713860905,0,user,1.0,0
1449617859873912198,0,1449617859870323652,/odom,3.5928176403,0.404272267814,0.0,0.0,0.0,0.381276904831,0.924460881726,0,1449617859870323652,/odom,3.5928176403,0.404272267814,0.0,0.0,0.0,0.381276904831,0.924460881726,0,user,1.0,0
1449617859978338396,0,1449617859975854983,/odom,3.63332945849,0.426738397644,0.0,0.0,0.0,0.395116080481,0.918631200725,0,1449617859975854983,/odom,3.63332945849,0.426738397644,0.0,0.0,0.0,0.395116080481,0.918631200725,0,user,1.0,0
1449617860078133189,0,1449617860073122516,/odom,3.65208170833,0.436538604328,0.0,0.0,0.0,0.400972724821,0.916089992277,0,1449617860073122516,/odom,3.65208170833,0.436538604328,0.0,0.0,0.0,0.400972724821,0.916089992277,0,user,1.0,0
1449617860172641245,0,1449617860168687142,/odom,3.67584903821,0.441613539784,0.0,0.0,0.0,0.403943962491,0.914783731364,0,1449617860168687142,/odom,3.67584903821,0.441613539784,0.0,0.0,0.0,0.403943962491,0.914783731364,0,user,1.0,0
1449617860274762325,0,1449617860269048678,/odom,3.6999534707,0.44404864452,0.0,0.0,0.0,0.403279703205,0.915076762345,0,1449617860269048678,/odom,3.6999534707,0.44404864452,0.0,0.0,0.0,0.403279703205,0.915076762345,0,user,1.0,0
1449617860381146489,0,1449617860371594002,/odom,3.72514455045,0.44842377002,0.0,0.0,0.0,0.404699161202,0.914449883221,0,1449617860371594002,/odom,3.72514455045,0.44842377002,0.0,0.0,0.0,0.404699161202,0.914449883221,0,user,1.0,0
1449617860471124732,0,1449617860468731019,/odom,3.73808074139,0.451023870341,0.0,0.0,0.0,0.405629256046,0.914037694321,0,1449617860468731019,/odom,3.73808074139,0.451023870341,0.0,0.0,0.0,0.405629256046,0.914037694321,0,user,1.0,0
1449617860591927979,0,1449617860570582046,/odom,3.75549479914,0.459569563552,0.0,0.0,0.0,0.410843832038,0.911705734147,0,1449617860570582046,/odom,3.75549479914,0.459569563552,0.0,0.0,0.0,0.410843832038,0.911705734147,0,user,1.0,0
1449617860670777633,0,1449617860668434048,/odom,3.77940069776,0.46268175021,0.0,0.0,0.0,0.41146103266,0.911427352345,0,1449617860668434048,/odom,3.77940069776,0.46268175021,0.0,0.0,0.0,0.41146103266,0.911427352345,0,user,1.0,0
1449617860775828473,0,1449617860772442754,/odom,3.82936552449,0.435612256341,0.0,0.0,0.0,0.356619341246,0.934249776799,0,1449617860772442754,/odom,3.82936552449,0.435612256341,0.0,0.0,0.0,0.356619341246,0.934249776799,0,user,1.0,0
1449617860870007043,0,1449617860867718993,/odom,3.87480044514,0.420129790153,0.0,0.0,0.0,0.318877891375,0.947795806275,0,1449617860867718993,/odom,3.87480044514,0.420129790153,0.0,0.0,0.0,0.318877891375,0.947795806275,0,user,1.0,0
1449617860974314979,0,1449617860969875066,/odom,3.90800382108,0.407921588117,0.0,0.0,0.0,0.296742450194,0.95495754788,0,1449617860969875066,/odom,3.90800382108,0.407921588117,0.0,0.0,0.0,0.296742450194,0.95495754788,0,user,1.0,0
1449617861080854450,0,1449617861076461054,/odom,3.92844758588,0.395489575423,0.0,0.0,0.0,0.276437218188,0.961031978865,0,1449617861076461054,/odom,3.92844758588,0.395489575423,0.0,0.0,0.0,0.276437218188,0.961031978865,0,user,1.0,0
1449617861183291130,0,1449617861171406463,/odom,3.95779117927,0.401890681322,0.0,0.0,0.0,0.274806038463,0.961499683424,0,1449617861171406463,/odom,3.95779117927,0.401890681322,0.0,0.0,0.0,0.274806038463,0.961499683424,0,user,1.0,0
1449617861271305384,0,1449617861268264961,/odom,3.98265775022,0.397984908919,0.0,0.0,0.0,0.264456322804,0.964397663482,0,1449617861268264961,/odom,3.98265775022,0.397984908919,0.0,0.0,0.0,0.264456322804,0.964397663482,0,user,1.0,0
1449617861396069869,0,1449617861370929754,/odom,4.00474713497,0.406122892018,0.0,0.0,0.0,0.26753074129,0.963549325393,0,1449617861370929754,/odom,4.00474713497,0.406122892018,0.0,0.0,0.0,0.26753074129,0.963549325393,0,user,1.0,0
1449617861485996455,0,1449617861481584098,/odom,4.03252156747,0.423724294619,0.0,0.0,0.0,0.275327221015,0.961350571523,0,1449617861481584098,/odom,4.03252156747,0.423724294619,0.0,0.0,0.0,0.275327221015,0.961350571523,0,user,1.0,0
1449617861582126650,0,1449617861573420476,/odom,4.05138613414,0.432437405295,0.0,0.0,0.0,0.278154123317,0.960536456196,0,1449617861573420476,/odom,4.05138613414,0.432437405295,0.0,0.0,0.0,0.278154123317,0.960536456196,0,user,1.0,0
1449617861678190854,0,1449617861670549891,/odom,4.0640390729,0.433375869538,0.0,0.0,0.0,0.278118707111,0.960546711386,0,1449617861670549891,/odom,4.0640390729,0.433375869538,0.0,0.0,0.0,0.278118707111,0.960546711386,0,user,1.0,0
1449617861781435425,0,1449617861768786203,/odom,4.09473492997,0.446482740838,0.0,0.0,0.0,0.283179794898,0.959066840091,0,1449617861768786203,/odom,4.09473492997,0.446482740838,0.0,0.0,0.0,0.283179794898,0.959066840091,0,user,1.0,0
1449617861875890239,0,1449617861871589182,/odom,4.10811064863,0.464282709103,0.0,0.0,0.0,0.293288929073,0.95602385121,0,1449617861871589182,/odom,4.10811064863,0.464282709103,0.0,0.0,0.0,0.293288929073,0.95602385121,0,user,1.0,0
1449617861987937794,0,1449617861980251770,/odom,4.13478476543,0.475179367362,0.0,0.0,0.0,0.296780364948,0.954945765466,0,1449617861980251770,/odom,4.13478476543,0.475179367362,0.0,0.0,0.0,0.296780364948,0.954945765466,0,user,1.0,0
1449617862091546808,0,1449617862068727194,/odom,4.16031452638,0.494008218662,0.0,0.0,0.0,0.304056177028,0.952654103655,0,1449617862068727194,/odom,4.16031452638,0.494008218662,0.0,0.0,0.0,0.304056177028,0.952654103655,0,user,1.0,0
1449617862180577454,0,1449617862176484254,/odom,4.18290590121,0.500309015745,0.0,0.0,0.0,0.305370335532,0.952233667845,0,1449617862176484254,/odom,4.18290590121,0.500309015745,0.0,0.0,0.0,0.305370335532,0.952233667845,0,user,1.0,0
1449617862275836977,0,1449617862273723205,/odom,4.15486576959,0.487433953554,0.0,0.0,0.0,0.301933001353,0.953329147091,0,1449617862273723205,/odom,4.15486576959,0.487433953554,0.0,0.0,0.0,0.301933001353,0.953329147091,0,user,1.0,0
1449617862371513748,0,1449617862368282847,/odom,4.19096274044,0.509973715983,0.0,0.0,0.0,0.311996628202,0.950083208983,0,1449617862368282847,/odom,4.19096274044,0.509973715983,0.0,0.0,0.0,0.311996628202,0.950083208983,0,user,1.0,0
1449617862477484169,0,1449617862471847960,/odom,4.21567412791,0.530313415893,0.0,0.0,0.0,0.322129649437,0.946695562973,0,1449617862471847960,/odom,4.21567412791,0.530313415893,0.0,0.0,0.0,0.322129649437,0.946695562973,0,user,1.0,0
1449617863121491899,0,1449617863115964564,/odom,4.24314992684,0.556448557208,0.0,0.0,0.0,0.334104303074,0.942536107885,0,1449617863115964564,/odom,4.24314992684,0.556448557208,0.0,0.0,0.0,0.334104303074,0.942536107885,0,user,1.0,0
1449617863135058542,0,1449617863130760797,/odom,4.35301123785,0.662835235546,0.0,0.0,0.0,0.378431623499,0.925629248855,0,1449617863130760797,/odom,4.35301123785,0.662835235546,0.0,0.0,0.0,0.378431623499,0.925629248855,0,user,1.0,0
1449617863237287037,0,1449617863234646550,/odom,4.37655249726,0.654249220364,0.0,0.0,0.0,0.353840205512,0.935305890585,0,1449617863234646550,/odom,4.37655249726,0.654249220364,0.0,0.0,0.0,0.353840205512,0.935305890585,0,user,1.0,0
1449617863349908435,0,1449617863339235037,/odom,4.4132928153,0.668906602637,0.0,0.0,0.0,0.342675462222,0.939453845375,0,1449617863339235037,/odom,4.4132928153,0.668906602637,0.0,0.0,0.0,0.342675462222,0.939453845375,0,user,1.0,0
1449617863435035399,0,1449617863424967653,/odom,4.42769378188,0.681534778803,0.0,0.0,0.0,0.345940149868,0.93825658149,0,1449617863424967653,/odom,4.42769378188,0.681534778803,0.0,0.0,0.0,0.345940149868,0.93825658149,0,user,1.0,0
1449617863543826364,0,1449617863523017602,/odom,4.4507958487,0.705915469539,0.0,0.0,0.0,0.352247198807,0.935906999083,0,1449617863523017602,/odom,4.4507958487,0.705915469539,0.0,0.0,0.0,0.352247198807,0.935906999083,0,user,1.0,0
1449617863633948456,0,1449617863628409865,/odom,4.49588152201,0.702054437061,0.0,0.0,0.0,0.318295392429,0.947991583907,0,1449617863628409865,/odom,4.49588152201,0.702054437061,0.0,0.0,0.0,0.318295392429,0.947991583907,0,user,1.0,0
