%time,field.header.seq,field.header.stamp,field.header.frame_id,field.ns,field.id,field.type,field.action,field.pose.position.x,field.pose.position.y,field.pose.position.z,field.pose.orientation.x,field.pose.orientation.y,field.pose.orientation.z,field.pose.orientation.w,field.scale.x,field.scale.y,field.scale.z,field.color.r,field.color.g,field.color.b,field.color.a,field.lifetime,field.frame_locked,field.text,field.mesh_resource,field.mesh_use_embedded_materials
1449617836460557121,0,0,/odom,bcmd_vector,0,0,0,0.0,0.0,0.0,0.0,0.0,0.0,1.0,0.00559730190992,0.05,0.05,0.0,1.0,0.0,1.0,0,0,,,0
1449617836482074206,1,0,/odom,bcmd_vector,0,0,0,0.0,0.0,0.0,0.0,0.0,0.0,1.0,0.00559730190992,0.05,0.05,0.0,1.0,0.0,1.0,0,0,,,0
1449617836543078985,2,0,/odom,bcmd_vector,0,0,0,0.0,0.0,0.0,0.0,0.0,0.0,1.0,0.0111846038198,0.05,0.05,0.0,1.0,0.0,1.0,0,0,,,0
1449617836568086195,3,0,/odom,bcmd_vector,0,0,0,0.0,0.0,0.0,0.0,0.0,0.0,1.0,0.0111846038198,0.05,0.05,0.0,1.0,0.0,1.0,0,0,,,0
1449617836631630603,4,0,/odom,bcmd_vector,0,0,0,0.0,0.0,0.0,0.0,0.0,0.0,1.0,0.0111846038198,0.05,0.05,0.0,1.0,0.0,1.0,0,0,,,0
1449617836658755335,5,0,/odom,bcmd_vector,0,0,0,0.0,0.0,0.0,0.0,0.0,-0.00317459802558,0.999994960951,0.346422698746,0.05,0.05,0.0,1.0,0.0,1.0,0,0,,,0
1449617836689242411,6,0,/odom,bcmd_vector,0,0,0,0.0,0.0,0.0,0.0,0.0,-0.00317459802558,0.999994960951,0.346422698746,0.05,0.05,0.0,1.0,0.0,1.0,0,0,,,0
1449617836723539308,7,0,/odom,bcmd_vector,0,0,0,0.0,0.0,0.0,0.0,0.0,-0.00317459802558,0.999994960951,0.35201,0.05,0.05,0.0,1.0,0.0,1.0,0,0,,,0
1449617836768910214,8,0,/odom,bcmd_vector,0,0,0,0.0,0.0,0.0,0.0,0.0,-0.00317459802558,0.999994960951,0.35201,0.05,0.05,0.0,1.0,0.0,1.0,0,0,,,0
1449617836805535721,9,0,/odom,bcmd_vector,0,0,0,0.0,0.0,0.0,0.0,0.0,-0.00317459802558,0.999994960951,0.35201,0.05,0.05,0.0,1.0,0.0,1.0,0,0,,,0
1449617836857462926,10,0,/odom,bcmd_vector,0,0,0,0.0,0.0,0.0,0.0,0.0,-0.00317459802558,0.999994960951,0.346422698746,0.05,0.05,0.0,1.0,0.0,1.0,0,0,,,0
1449617836890364012,11,0,/odom,bcmd_vector,0,0,0,0.0,0.0,0.0,0.0,0.0,-0.00317459802558,0.999994960951,0.346422698746,0.05,0.05,0.0,1.0,0.0,1.0,0,0,,,0
1449617836925278244,12,0,/odom,bcmd_vector,0,0,0,0.0,0.0,0.0,0.0,0.0,0.0,1.0,0.184390962372,0.05,0.05,0.0,1.0,0.0,1.0,0,0,,,0
1449617837019161750,13,0,/odom,bcmd_vector,0,0,0,0.0,0.0,0.0,0.0,0.0,0.0,1.0,0.184390962372,0.05,0.05,0.0,1.0,0.0,1.0,0,0,,,0
1449617837034785481,14,0,/odom,bcmd_vector,0,0,0,0.0,0.0,0.0,0.0,0.0,0.0,1.0,0.184390962372,0.05,0.05,0.0,1.0,0.0,1.0,0,0,,,0
1449617837054856579,15,0,/odom,bcmd_vector,0,0,0,0.0,0.0,0.0,0.0,0.0,0.0,1.0,0.167629048119,0.05,0.05,0.0,1.0,0.0,1.0,0,0,,,0
1449617837124914043,16,0,/odom,bcmd_vector,0,0,0,0.0,0.0,0.0,0.0,0.0,0.0,1.0,0.167629048119,0.05,0.05,0.0,1.0,0.0,1.0,0,0,,,0
1449617837133073048,17,0,/odom,bcmd_vector,0,0,0,0.0,0.0,0.0,0.0,0.0,0.0,1.0,0.167629048119,0.05,0.05,0.0,1.0,0.0,1.0,0,0,,,0
1449617837171035094,18,0,/odom,bcmd_vector,0,0,0,0.0,0.0,0.0,0.0,0.0,0.0,1.0,0.184390962372,0.05,0.05,0.0,1.0,0.0,1.0,0,0,,,0
1449617837205091816,19,0,/odom,bcmd_vector,0,0,0,0.0,0.0,0.0,0.0,0.0,0.0,1.0,0.184390962372,0.05,0.05,0.0,1.0,0.0,1.0,0,0,,,0
1449617837260136808,20,0,/odom,bcmd_vector,0,0,0,0.0,0.0,0.0,0.0,0.0,0.0,1.0,0.189978263626,0.05,0.05,0.0,1.0,0.0,1.0,0,0,,,0
1449617837289036191,21,0,/odom,bcmd_vector,0,0,0,0.0,0.0,0.0,0.0,0.0,0.0,1.0,0.189978263626,0.05,0.05,0.0,1.0,0.0,1.0,0,0,,,0
1449617837325534839,22,0,/odom,bcmd_vector,0,0,0,0.0,0.0,0.0,0.0,0.0,0.0,1.0,0.167629048119,0.05,0.05,0.0,1.0,0.0,1.0,0,0,,,0
1449617837410736581,23,0,/odom,bcmd_vector,0,0,0,0.0,0.0,0.0,0.0,0.0,0.0,1.0,0.167629048119,0.05,0.05,0.0,1.0,0.0,1.0,0,0,,,0
1449617837433990641,24,0,/odom,bcmd_vector,0,0,0,0.0,0.0,0.0,0.0,0.0,0.0,1.0,0.167629048119,0.05,0.05,0.0,1.0,0.0,1.0,0,0,,,0
1449617837445868944,25,0,/odom,bcmd_vector,0,0,0,0.00287963245437,3.04332289367e-05,0.0,0.0,0.0,0.0052839997518,0.999986039576,0.189978263626,0.05,0.05,0.0,1.0,0.0,1.0,0,0,,,0
1449617837543380750,26,0,/odom,bcmd_vector,0,0,0,0.00287963245437,3.04332289367e-05,0.0,0.0,0.0,0.0052839997518,0.999986039576,0.189978263626,0.05,0.05,0.0,1.0,0.0,1.0,0,0,,,0
1449617837552725926,27,0,/odom,bcmd_vector,0,0,0,0.00287963245437,3.04332289367e-05,0.0,0.0,0.0,0.0052839997518,0.999986039576,0.189978263626,0.05,0.05,0.0,1.0,0.0,1.0,0,0,,,0
1449617837568549449,28,0,/odom,bcmd_vector,0,0,0,0.00287963245437,3.04332289367e-05,0.0,0.0,0.0,0.0052839997518,0.999986039576,0.189978263626,0.05,0.05,0.0,1.0,0.0,1.0,0,0,,,0
1449617837658209400,29,0,/odom,bcmd_vector,0,0,0,0.00287963245437,3.04332289367e-05,0.0,0.0,0.0,0.0052839997518,0.999986039576,0.189978263626,0.05,0.05,0.0,1.0,0.0,1.0,0,0,,,0
1449617837669217854,30,0,/odom,bcmd_vector,0,0,0,0.00287963245437,3.04332289367e-05,0.0,0.0,0.0,0.0052839997518,0.999986039576,0.189978263626,0.05,0.05,0.0,1.0,0.0,1.0,0,0,,,0
1449617837685691719,31,0,/odom,bcmd_vector,0,0,0,0.00287963245437,3.04332289367e-05,0.0,0.0,0.0,0.0052839997518,0.999986039576,0.189978263626,0.05,0.05,0.0,1.0,0.0,1.0,0,0,,,0
1449617837750851920,32,0,/odom,bcmd_vector,0,0,0,0.00287963245437,3.04332289367e-05,0.0,0.0,0.0,0.0052839997518,0.999986039576,0.189978263626,0.05,0.05,0.0,1.0,0.0,1.0,0,0,,,0
1449617837770268421,33,0,/odom,bcmd_vector,0,0,0,0.00863889736311,9.129968681e-05,0.0,0.0,0.0,0.0052839997518,0.999986039576,0.189978263626,0.05,0.05,0.0,1.0,0.0,1.0,0,0,,,0
1449617837805896590,34,0,/odom,bcmd_vector,0,0,0,0.00863889736311,9.129968681e-05,0.0,0.0,0.0,0.0052839997518,0.999986039576,0.189978263626,0.05,0.05,0.0,1.0,0.0,1.0,0,0,,,0
1449617837842485373,35,0,/odom,bcmd_vector,0,0,0,0.00863889736311,9.129968681e-05,0.0,0.0,0.0,0.0052839997518,0.999986039576,0.189978263626,0.05,0.05,0.0,1.0,0.0,1.0,0,0,,,0
1449617837921464495,36,0,/odom,bcmd_vector,0,0,0,0.0115180474012,0.000152162745821,0.0,0.0,0.0,0.0105678519699,0.999944158693,0.189978263626,0.05,0.05,0.0,1.0,0.0,1.0,0,0,,,0
1449617837935525206,37,0,/odom,bcmd_vector,0,0,0,0.0143976798556,0.000182595974757,0.0,0.0,0.0,0.0052839997518,0.999986039576,0.189978263626,0.05,0.05,0.0,1.0,0.0,1.0,0,0,,,0
1449617837971223026,38,0,/odom,bcmd_vector,0,0,0,0.0143976798556,0.000182595974757,0.0,0.0,0.0,0.0052839997518,0.999986039576,0.173216349373,0.05,0.05,0.0,1.0,0.0,1.0,0,0,,,0
1449617838020385148,39,0,/odom,bcmd_vector,0,0,0,0.0172768298936,0.000243459033768,0.0,0.0,0.0,0.0105678519699,0.999944158693,0.173216349373,0.05,0.05,0.0,1.0,0.0,1.0,0,0,,,0
1449617838069872633,40,0,/odom,bcmd_vector,0,0,0,0.0172768298936,0.000243459033768,0.0,0.0,0.0,0.0105678519699,0.999944158693,0.189978263626,0.05,0.05,0.0,1.0,0.0,1.0,0,0,,,0
1449617838093358067,41,0,/odom,bcmd_vector,0,0,0,0.0230343260025,0.000395608184518,0.0,0.0,0.0,0.0105678519699,0.999944158693,0.189978263626,0.05,0.05,0.0,1.0,0.0,1.0,0,0,,,0
1449617838166167368,42,0,/odom,bcmd_vector,0,0,0,0.0230343260025,0.000395608184518,0.0,0.0,0.0,0.0105678519699,0.999944158693,0.189978263626,0.05,0.05,0.0,1.0,0.0,1.0,0,0,,,0
1449617838177782538,43,0,/odom,bcmd_vector,0,0,0,0.0259126720733,0.000486894276258,0.0,0.0,0.0,0.0158514091245,0.999874358521,0.189978263626,0.05,0.05,0.0,1.0,0.0,1.0,0,0,,,0
1449617838204940713,44,0,/odom,bcmd_vector,0,0,0,0.0259126720733,0.000486894276258,0.0,0.0,0.0,0.0126771300841,0.999919641958,0.189978263626,0.05,0.05,0.0,1.0,0.0,1.0,0,0,,,0
1449617838247407135,45,0,/odom,bcmd_vector,0,0,0,0.0316693642148,0.000669466459736,0.0,0.0,0.0,0.0126771300841,0.999919641958,0.189978263626,0.05,0.05,0.0,1.0,0.0,1.0,0,0,,,0
1449617838302882394,46,0,/odom,bcmd_vector,0,0,0,0.0316693642148,0.000669466459736,0.0,0.0,0.0,0.0126771300841,0.999919641958,0.189978263626,0.05,0.05,0.0,1.0,0.0,1.0,0,0,,,0
1449617838326440263,47,0,/odom,bcmd_vector,0,0,0,0.0374260563564,0.000852038643215,0.0,0.0,0.0,0.0126771300841,0.999919641958,0.189978263626,0.05,0.05,0.0,1.0,0.0,1.0,0,0,,,0
1449617838368585024,48,0,/odom,bcmd_vector,0,0,0,0.0374260563564,0.000852038643215,0.0,0.0,0.0,0.0158514091245,0.999874358521,0.346422698746,0.05,0.05,0.0,1.0,0.0,1.0,0,0,,,0
1449617838408859468,49,0,/odom,bcmd_vector,0,0,0,0.0403032769986,0.000973737572614,0.0,0.0,0.0,0.0211345236944,0.999776641009,0.346422698746,0.05,0.05,0.0,1.0,0.0,1.0,0,0,,,0
1449617838446998827,50,0,/odom,bcmd_vector,0,0,0,0.0460577182832,0.00121713543141,0.0,0.0,0.0,0.0179605282459,0.999838696703,0.307311589966,0.05,0.05,0.0,1.0,0.0,1.0,0,0,,,0
1449617838485958259,51,0,/odom,bcmd_vector,0,0,0,0.0460577182832,0.00121713543141,0.0,0.0,0.0,0.0179605282459,0.999838696703,0.307311589966,0.05,0.05,0.0,1.0,0.0,1.0,0,0,,,0
1449617838530733402,52,0,/odom,bcmd_vector,0,0,0,0.0489334921614,0.00136923360681,0.0,0.0,0.0,0.0232434249345,0.999729835104,0.307311589966,0.05,0.05,0.0,1.0,0.0,1.0,0,0,,,0
1449617838569777574,53,0,/odom,bcmd_vector,0,0,0,0.0518107128037,0.00149093253621,0.0,0.0,0.0,0.0179605282459,0.999838696703,0.346422698746,0.05,0.05,0.0,1.0,0.0,1.0,0,0,,,0
1449617838610620331,54,0,/odom,bcmd_vector,0,0,0,0.0546864866819,0.00164303071162,0.0,0.0,0.0,0.0232434249345,0.999729835104,0.346422698746,0.05,0.05,0.0,1.0,0.0,1.0,0,0,,,0
1449617838682932697,55,0,/odom,bcmd_vector,0,0,0,0.0604380344384,0.00194722706242,0.0,0.0,0.0,0.0232434249345,0.999729835104,0.340835397491,0.05,0.05,0.0,1.0,0.0,1.0,0,0,,,0
1449617838694973588,56,0,/odom,bcmd_vector,0,0,0,0.0661895821948,0.00225142341323,0.0,0.0,0.0,0.0232434249345,0.999729835104,0.340835397491,0.05,0.05,0.0,1.0,0.0,1.0,0,0,,,0
1449617838724517637,57,0,/odom,bcmd_vector,0,0,0,0.0661895821948,0.00225142341323,0.0,0.0,0.0,0.0200695674491,0.999798585947,0.346422698746,0.05,0.05,0.0,1.0,0.0,1.0,0,0,,,0
1449617838821381597,58,0,/odom,bcmd_vector,0,0,0,0.0719411299513,0.00255561976404,0.0,0.0,0.0,0.0200695674491,0.999798585947,0.346422698746,0.05,0.05,0.0,1.0,0.0,1.0,0,0,,,0
1449617838821407280,59,0,/odom,bcmd_vector,0,0,0,0.0805631477721,0.0031030610681,0.0,0.0,0.0,0.0253522227495,0.999678580746,0.346422698746,0.05,0.05,0.0,1.0,0.0,1.0,0,0,,,0
1449617838851489556,60,0,/odom,bcmd_vector,0,0,0,0.0805631477721,0.0031030610681,0.0,0.0,0.0,0.0221785177222,0.999754026424,0.346422698746,0.05,0.05,0.0,1.0,0.0,1.0,0,0,,,0
1449617838961045688,61,0,/odom,bcmd_vector,0,0,0,0.0863111596526,0.00346802193747,0.0,0.0,0.0,0.0221785177222,0.999754026424,0.346422698746,0.05,0.05,0.0,1.0,0.0,1.0,0,0,,,0
1449617838990671508,62,0,/odom,bcmd_vector,0,0,0,0.100670744782,0.00453223350786,0.0,0.0,0.0,0.0274609081281,0.999622878152,0.346422698746,0.05,0.05,0.0,1.0,0.0,1.0,0,0,,,0
1449617839014676488,63,0,/odom,bcmd_vector,0,0,0,0.106414578833,0.00495791813602,0.0,0.0,0.0,-0.00110706819238,0.9999993872,0.335248096237,0.05,0.05,0.0,1.0,0.0,1.0,0,0,,,0
1449617839058670899,64,0,/odom,bcmd_vector,0,0,0,0.106414578833,0.00495791813602,0.0,0.0,0.0,-0.00110706819238,0.9999993872,0.335248096237,0.05,0.05,0.0,1.0,0.0,1.0,0,0,,,0
1449617839097172495,65,0,/odom,bcmd_vector,0,0,0,0.115023100938,0.00568745940406,0.0,0.0,0.0,0.00417694377653,0.999991276532,0.335248096237,0.05,0.05,0.0,1.0,0.0,1.0,0,0,,,0
1449617839134741636,66,0,/odom,bcmd_vector,0,0,0,0.120762115674,0.00617382024943,0.0,0.0,0.0,0.00417694377653,0.999991276532,0.335248096237,0.05,0.05,0.0,1.0,0.0,1.0,0,0,,,0
1449617839167392335,67,0,/odom,bcmd_vector,0,0,0,0.12650113041,0.0066601810948,0.0,0.0,0.0,0.00417694377653,0.999991276532,0.335248096237,0.05,0.05,0.0,1.0,0.0,1.0,0,0,,,0
1449617839237545795,68,0,/odom,bcmd_vector,0,0,0,0.135101462119,0.00748065521159,0.0,0.0,0.0,0.00946083912163,0.99995524526,0.335248096237,0.05,0.05,0.0,1.0,0.0,1.0,0,0,,,0
1449617839250617336,69,0,/odom,bcmd_vector,0,0,0,0.152310315933,0.00903067059643,0.0,0.0,0.0,0.0126352470228,0.99992017208,0.329660794983,0.05,0.05,0.0,1.0,0.0,1.0,0,0,,,0
1449617839290571454,70,0,/odom,bcmd_vector,0,0,0,0.152310315933,0.00903067059643,0.0,0.0,0.0,0.0126352470228,0.99992017208,0.329660794983,0.05,0.05,0.0,1.0,0.0,1.0,0,0,,,0
1449617839330887674,71,0,/odom,bcmd_vector,0,0,0,0.158043870405,0.00957765334095,0.0,0.0,0.0,0.0126352470228,0.99992017208,0.329660794983,0.05,0.05,0.0,1.0,0.0,1.0,0,0,,,0
1449617839427417219,72,0,/odom,bcmd_vector,0,0,0,0.169510979351,0.01067161883,0.0,0.0,0.0,-0.151854023748,0.98840293174,1e-05,0.05,0.05,0.0,1.0,0.0,1.0,0,0,,,0
1449617839460579647,73,0,/odom,bcmd_vector,0,0,0,0.195302823575,0.0132238823964,0.0,0.0,0.0,-0.146629182955,0.989191529839,1e-05,0.05,0.05,0.0,1.0,0.0,1.0,0,0,,,0
1449617839471182837,74,0,/odom,bcmd_vector,0,0,0,0.195302823575,0.0132238823964,0.0,0.0,0.0,0.00204658825372,0.999997905736,0.279375083694,0.05,0.05,0.0,1.0,0.0,1.0,0,0,,,0
1449617839507437284,75,0,/odom,bcmd_vector,0,0,0,0.206757731317,0.0144389695069,0.0,0.0,0.0,-0.0106516208319,0.999943269878,0.329660794983,0.05,0.05,0.0,1.0,0.0,1.0,0,0,,,0
1449617839528722532,76,0,/odom,bcmd_vector,0,0,0,0.218212639059,0.0156540566173,0.0,0.0,0.0,-0.0106516208319,0.999943269878,0.329660794983,0.05,0.05,0.0,1.0,0.0,1.0,0,0,,,0
1449617839596839882,77,0,/odom,bcmd_vector,0,0,0,0.218212639059,0.0156540566173,0.0,0.0,0.0,-0.0106516208319,0.999943269878,0.329660794983,0.05,0.05,0.0,1.0,0.0,1.0,0,0,,,0
1449617839613603585,78,0,/odom,bcmd_vector,0,0,0,0.235395000672,0.017476687283,0.0,0.0,0.0,-0.0106516208319,0.999943269878,0.329660794983,0.05,0.05,0.0,1.0,0.0,1.0,0,0,,,0
1449617839650604315,79,0,/odom,bcmd_vector,0,0,0,0.235395000672,0.017476687283,0.0,0.0,0.0,-0.00747714960018,0.999972045726,0.329660794983,0.05,0.05,0.0,1.0,0.0,1.0,0,0,,,0
1449617839733184363,80,0,/odom,bcmd_vector,0,0,0,0.246849908414,0.0186917743934,0.0,0.0,0.0,-0.00747714960018,0.999972045726,0.329660794983,0.05,0.05,0.0,1.0,0.0,1.0,0,0,,,0
1449617839739615106,81,0,/odom,bcmd_vector,0,0,0,0.266872406056,0.021029902192,0.0,0.0,0.0,-0.00219319317457,0.999997594949,0.329660794983,0.05,0.05,0.0,1.0,0.0,1.0,0,0,,,0
1449617839789385381,82,0,/odom,bcmd_vector,0,0,0,0.266872406056,0.021029902192,0.0,0.0,0.0,-0.00536777214095,0.999985593407,0.329660794983,0.05,0.05,0.0,1.0,0.0,1.0,0,0,,,0
1449617839836322636,83,0,/odom,bcmd_vector,0,0,0,0.281191040733,0.02254876108,0.0,0.0,0.0,-0.0106516208319,0.999943269878,0.329660794983,0.05,0.05,0.0,1.0,0.0,1.0,0,0,,,0
1449617839849898028,84,0,/odom,bcmd_vector,0,0,0,0.301227018893,0.0247659029613,0.0,0.0,0.0,-0.00536777214095,0.999985593407,0.329660794983,0.05,0.05,0.0,1.0,0.0,1.0,0,0,,,0
1449617839895094035,85,0,/odom,bcmd_vector,0,0,0,0.301227018893,0.0247659029613,0.0,0.0,0.0,-0.00536777214095,0.999985593407,0.329660794983,0.05,0.05,0.0,1.0,0.0,1.0,0,0,,,0
1449617839936554648,86,0,/odom,bcmd_vector,0,0,0,0.312668446117,0.026101975989,0.0,0.0,0.0,-0.00536777214095,0.999985593407,0.329660794983,0.05,0.05,0.0,1.0,0.0,1.0,0,0,,,0
1449617839973459280,87,0,/odom,bcmd_vector,0,0,0,0.326987080794,0.0276208348771,0.0,0.0,0.0,-0.00747714960018,0.999972045726,0.329660794983,0.05,0.05,0.0,1.0,0.0,1.0,0,0,,,0
1449617840012480044,88,0,/odom,bcmd_vector,0,0,0,0.338441988536,0.0288359219875,0.0,0.0,0.0,-0.00747714960018,0.999972045726,0.329660794983,0.05,0.05,0.0,1.0,0.0,1.0,0,0,,,0
1449617840100232790,89,0,/odom,bcmd_vector,0,0,0,0.344169442407,0.0294434655428,0.0,0.0,0.0,-0.0106516208319,0.999943269878,0.329660794983,0.05,0.05,0.0,1.0,0.0,1.0,0,0,,,0
1449617840115172115,90,0,/odom,bcmd_vector,0,0,0,0.369970437534,0.0319048878931,0.0,0.0,0.0,-0.0159351721207,0.999873027084,0.329660794983,0.05,0.05,0.0,1.0,0.0,1.0,0,0,,,0
1449617840131370730,91,0,/odom,bcmd_vector,0,0,0,0.37856161834,0.032816203226,0.0,0.0,0.0,-0.00747714960018,0.999972045726,0.329660794983,0.05,0.05,0.0,1.0,0.0,1.0,0,0,,,0
1449617840204251386,92,0,/odom,bcmd_vector,0,0,0,0.37856161834,0.032816203226,0.0,0.0,0.0,-0.00747714960018,0.999972045726,0.329660794983,0.05,0.05,0.0,1.0,0.0,1.0,0,0,,,0
1449617840211290520,93,0,/odom,bcmd_vector,0,0,0,0.398629058995,0.0347306428318,0.0,0.0,0.0,-0.0127608972574,0.999918576436,0.329660794983,0.05,0.05,0.0,1.0,0.0,1.0,0,0,,,0
1449617840250330243,94,0,/odom,bcmd_vector,0,0,0,0.398629058995,0.0347306428318,0.0,0.0,0.0,-0.0159351721207,0.999873027084,0.329660794983,0.05,0.05,0.0,1.0,0.0,1.0,0,0,,,0
1449617840291818802,95,0,/odom,bcmd_vector,0,0,0,0.412976595836,0.0359465449452,0.0,0.0,0.0,-0.0212182784858,0.999774866987,0.329660794983,0.05,0.05,0.0,1.0,0.0,1.0,0,0,,,0
1449617840345945131,96,0,/odom,bcmd_vector,0,0,0,0.424454625308,0.036919266636,0.0,0.0,0.0,-0.0212182784858,0.999774866987,0.329660794983,0.05,0.05,0.0,1.0,0.0,1.0,0,0,,,0
1449617840377629819,97,0,/odom,bcmd_vector,0,0,0,0.430193640044,0.0374056274813,0.0,0.0,0.0,-0.0116957953205,0.999931601847,0.27378778244,0.05,0.05,0.0,1.0,0.0,1.0,0,0,,,0
1449617840439974567,98,0,/odom,bcmd_vector,0,0,0,0.444553225173,0.0384698390517,0.0,0.0,0.0,-0.0169792703782,0.999855841798,0.27378778244,0.05,0.05,0.0,1.0,0.0,1.0,0,0,,,0
1449617840450451948,99,0,/odom,bcmd_vector,0,0,0,0.46752856138,0.0401725775643,0.0,0.0,0.0,-0.0265007924187,0.999648792327,0.329660794983,0.05,0.05,0.0,1.0,0.0,1.0,0,0,,,0
1449617840489600550,100,0,/odom,bcmd_vector,0,0,0,0.46752856138,0.0401725775643,0.0,0.0,0.0,-0.0265007924187,0.999648792327,0.329660794983,0.05,0.05,0.0,1.0,0.0,1.0,0,0,,,0
1449617840583288250,101,0,/odom,bcmd_vector,0,0,0,0.479016229483,0.0410239468207,0.0,0.0,0.0,-0.0265007924187,0.999648792327,0.329660794983,0.05,0.05,0.0,1.0,0.0,1.0,0,0,,,0
1449617840595074068,102,0,/odom,bcmd_vector,0,0,0,0.504873927287,0.0427877182504,0.0,0.0,0.0,-0.0317825664269,0.999494806625,0.329660794983,0.05,0.05,0.0,1.0,0.0,1.0,0,0,,,0
1449617840678422100,103,0,/odom,bcmd_vector,0,0,0,0.510621939168,0.0431526791198,0.0,0.0,0.0,-0.0286094124057,0.999590666984,0.329660794983,0.05,0.05,0.0,1.0,0.0,1.0,0,0,,,0
1449617840724092580,104,0,/odom,bcmd_vector,0,0,0,0.530752356316,0.0442173663476,0.0,0.0,0.0,-0.0338908498424,0.999425540146,0.329660794983,0.05,0.05,0.0,1.0,0.0,1.0,0,0,,,0
1449617840734630099,105,0,/odom,bcmd_vector,0,0,0,0.542255451828,0.0448257590492,0.0,0.0,0.0,-0.037063453039,0.999312914181,0.329660794983,0.05,0.05,0.0,1.0,0.0,1.0,0,0,,,0
1449617840770409974,106,0,/odom,bcmd_vector,0,0,0,0.542255451828,0.0448257590492,0.0,0.0,0.0,-0.037063453039,0.999312914181,0.329660794983,0.05,0.05,0.0,1.0,0.0,1.0,0,0,,,0
1449617840813446391,107,0,/odom,bcmd_vector,0,0,0,0.55664155504,0.0454342536962,0.0,0.0,0.0,-0.0423433048079,0.999103120072,0.329660794983,0.05,0.05,0.0,1.0,0.0,1.0,0,0,,,0
1449617840872236720,108,0,/odom,bcmd_vector,0,0,0,0.565276593252,0.0457081119714,0.0,0.0,0.0,-0.0476219743159,0.998865430157,0.329660794983,0.05,0.05,0.0,1.0,0.0,1.0,0,0,,,0
1449617840893390600,109,0,/odom,bcmd_vector,0,0,0,0.582543293391,0.0463470670348,0.0,0.0,0.0,-0.0476219743159,0.998865430157,0.329660794983,0.05,0.05,0.0,1.0,0.0,1.0,0,0,,,0
1449617840957388042,110,0,/odom,bcmd_vector,0,0,0,0.582543293391,0.0463470670348,0.0,0.0,0.0,-0.0444507384962,0.999011577434,0.329660794983,0.05,0.05,0.0,1.0,0.0,1.0,0,0,,,0
1449617840972844559,111,0,/odom,bcmd_vector,0,0,0,0.605574081794,0.0469252406051,0.0,0.0,0.0,-0.0444507384962,0.999011577434,0.329660794983,0.05,0.05,0.0,1.0,0.0,1.0,0,0,,,0
1449617841009517113,112,0,/odom,bcmd_vector,0,0,0,0.605574081794,0.0469252406051,0.0,0.0,0.0,-0.0476219743159,0.998865430157,0.329660794983,0.05,0.05,0.0,1.0,0.0,1.0,0,0,,,0
1449617841074660726,113,0,/odom,bcmd_vector,0,0,0,0.614211531908,0.0471078297821,0.0,0.0,0.0,-0.052899314178,0.998599851071,0.329660794983,0.05,0.05,0.0,1.0,0.0,1.0,0,0,,,0
1449617841090471315,114,0,/odom,bcmd_vector,0,0,0,0.634367029424,0.047442581705,0.0,0.0,0.0,-0.0581751770464,0.998306390231,0.329660794983,0.05,0.05,0.0,1.0,0.0,1.0,0,0,,,0
1449617841129148603,115,0,/odom,bcmd_vector,0,0,0,0.634367029424,0.047442581705,0.0,0.0,0.0,-0.0328053274876,0.999461760393,0.335248096237,0.05,0.05,0.0,1.0,0.0,1.0,0,0,,,0
1449617841189514777,116,0,/odom,bcmd_vector,0,0,0,0.648765995753,0.047442581705,0.0,0.0,0.0,-0.0380860252052,0.999274464141,0.335248096237,0.05,0.05,0.0,1.0,0.0,1.0,0,0,,,0
1449617841209825857,117,0,/odom,bcmd_vector,0,0,0,0.668924066179,0.0473512820182,0.0,0.0,0.0,-0.0433656595286,0.999059267298,0.335248096237,0.05,0.05,0.0,1.0,0.0,1.0,0,0,,,0
1449617841248208434,118,0,/odom,bcmd_vector,0,0,0,0.668924066179,0.0473512820182,0.0,0.0,0.0,-0.0370215949976,0.999314465773,0.284962384949,0.05,0.05,0.0,1.0,0.0,1.0,0,0,,,0
1449617841302650025,119,0,/odom,bcmd_vector,0,0,0,0.680442595996,0.0472295491024,0.0,0.0,0.0,-0.0370215949976,0.999314465773,0.284962384949,0.05,0.05,0.0,1.0,0.0,1.0,0,0,,,0
1449617841334155276,120,0,/odom,bcmd_vector,0,0,0,0.691961125814,0.0471078161867,0.0,0.0,0.0,-0.0370215949976,0.999314465773,0.284962384949,0.05,0.05,0.0,1.0,0.0,1.0,0,0,,,0
1449617841382972323,121,0,/odom,bcmd_vector,0,0,0,0.700598575928,0.0469252270097,0.0,0.0,0.0,-0.0739924308543,0.997258803008,0.335248096237,0.05,0.05,0.0,1.0,0.0,1.0,0,0,,,0
1449617841410736773,122,0,/odom,bcmd_vector,0,0,0,0.71211517608,0.0466817747736,0.0,0.0,0.0,-0.0739924308543,0.997258803008,0.335248096237,0.05,0.05,0.0,1.0,0.0,1.0,0,0,,,0
1449617841466606320,123,0,/odom,bcmd_vector,0,0,0,0.720750214293,0.0464079164984,0.0,0.0,0.0,-0.0539211483794,0.998545196652,0.335248096237,0.05,0.05,0.0,1.0,0.0,1.0,0,0,,,0
1449617841500740537,124,0,/odom,bcmd_vector,0,0,0,0.746649701787,0.0454342774844,0.0,0.0,0.0,-0.0591967081886,0.998246337203,0.335248096237,0.05,0.05,0.0,1.0,0.0,1.0,0,0,,,0
1449617841532424270,125,0,/odom,bcmd_vector,0,0,0,0.746649701787,0.0454342774844,0.0,0.0,0.0,-0.0623654403728,0.998053381261,0.335248096237,0.05,0.05,0.0,1.0,0.0,1.0,0,0,,,0
1449617841580670441,126,0,/odom,bcmd_vector,0,0,0,0.752404143072,0.0451908796257,0.0,0.0,0.0,-0.0623654403728,0.998053381261,0.335248096237,0.05,0.05,0.0,1.0,0.0,1.0,0,0,,,0
1449617841626320678,127,0,/odom,bcmd_vector,0,0,0,0.763913025641,0.0447040839081,0.0,0.0,0.0,-0.0623654403728,0.998053381261,0.335248096237,0.05,0.05,0.0,1.0,0.0,1.0,0,0,,,0
1449617841652373156,128,0,/odom,bcmd_vector,0,0,0,0.784043442788,0.0436393966802,0.0,0.0,0.0,-0.0644706151755,0.99791960587,0.335248096237,0.05,0.05,0.0,1.0,0.0,1.0,0,0,,,0
1449617841690798202,129,0,/odom,bcmd_vector,0,0,0,0.784043442788,0.0436393966802,0.0,0.0,0.0,-0.0644706151755,0.99791960587,0.335248096237,0.05,0.05,0.0,1.0,0.0,1.0,0,0,,,0
1449617841764518006,130,0,/odom,bcmd_vector,0,0,0,0.795546538301,0.0430310039786,0.0,0.0,0.0,-0.0549638386094,0.998488345673,0.251438572178,0.05,0.05,0.0,1.0,0.0,1.0,0,0,,,0
1449617841777524724,131,0,/odom,bcmd_vector,0,0,0,0.81853231908,0.041480074863,0.0,0.0,0.0,-0.0655126463875,0.997851739069,0.251438572178,0.05,0.05,0.0,1.0,0.0,1.0,0,0,,,0
1449617841860763532,132,0,/odom,bcmd_vector,0,0,0,0.81853231908,0.041480074863,0.0,0.0,0.0,-0.0655126463875,0.997851739069,0.255629048119,0.05,0.05,0.0,1.0,0.0,1.0,0,0,,,0
1449617841884347593,133,0,/odom,bcmd_vector,0,0,0,0.838628509287,0.0398991643386,0.0,0.0,0.0,-0.0707843801448,0.997491639828,0.255629048119,0.05,0.05,0.0,1.0,0.0,1.0,0,0,,,0
1449617841897597000,134,0,/odom,bcmd_vector,0,0,0,0.85010653876,0.0389264426479,0.0,0.0,0.0,-0.0707843801448,0.997491639828,0.251438572178,0.05,0.05,0.0,1.0,0.0,1.0,0,0,,,0
1449617841992058381,135,0,/odom,bcmd_vector,0,0,0,0.85010653876,0.0389264426479,0.0,0.0,0.0,-0.0707843801448,0.997491639828,0.251438572178,0.05,0.05,0.0,1.0,0.0,1.0,0,0,,,0
1449617842008544476,136,0,/odom,bcmd_vector,0,0,0,0.88164108836,0.035918037553,0.0,0.0,0.0,-0.0760541375421,0.997103689775,0.251438572178,0.05,0.05,0.0,1.0,0.0,1.0,0,0,,,0
1449617842025773602,137,0,/odom,bcmd_vector,0,0,0,0.88164108836,0.035918037553,0.0,0.0,0.0,-0.0760541375421,0.997103689775,0.251438572178,0.05,0.05,0.0,1.0,0.0,1.0,0,0,,,0
1449617842085149760,138,0,/odom,bcmd_vector,0,0,0,0.890232269166,0.0350067222201,0.0,0.0,0.0,-0.0813217714434,0.996687899741,0.251438572178,0.05,0.05,0.0,1.0,0.0,1.0,0,0,,,0
1449617842102389525,139,0,/odom,bcmd_vector,0,0,0,0.901687176908,0.0337916351097,0.0,0.0,0.0,-0.0813217714434,0.996687899741,0.251438572178,0.05,0.05,0.0,1.0,0.0,1.0,0,0,,,0
1449617842145317907,140,0,/odom,bcmd_vector,0,0,0,0.901687176908,0.0337916351097,0.0,0.0,0.0,-0.0813217714434,0.996687899741,0.251438572178,0.05,0.05,0.0,1.0,0.0,1.0,0,0,,,0
1449617842184484040,141,0,/odom,bcmd_vector,0,0,0,0.921723155068,0.0315744932284,0.0,0.0,0.0,-0.0865871347718,0.996244281335,0.251438572178,0.05,0.05,0.0,1.0,0.0,1.0,0,0,,,0
1449617842218663109,142,0,/odom,bcmd_vector,0,0,0,0.921723155068,0.0315744932284,0.0,0.0,0.0,-0.0865871347718,0.996244281335,0.251438572178,0.05,0.05,0.0,1.0,0.0,1.0,0,0,,,0
1449617842282801248,143,0,/odom,bcmd_vector,0,0,0,0.930293156741,0.0304818109317,0.0,0.0,0.0,-0.091850080514,0.995772846943,0.255629048119,0.05,0.05,0.0,1.0,0.0,1.0,0,0,,,0
1449617842304549650,144,0,/odom,bcmd_vector,0,0,0,0.947433160088,0.0282964463384,0.0,0.0,0.0,-0.091850080514,0.995772846943,0.255629048119,0.05,0.05,0.0,1.0,0.0,1.0,0,0,,,0
1449617842335547800,145,0,/odom,bcmd_vector,0,0,0,0.947433160088,0.0282964463384,0.0,0.0,0.0,-0.06811740958,0.997677311816,0.259819524059,0.05,0.05,0.0,1.0,0.0,1.0,0,0,,,0
1449617842410389674,146,0,/odom,bcmd_vector,0,0,0,0.958859828986,0.0268395366095,0.0,0.0,0.0,-0.06811740958,0.997677311816,0.259819524059,0.05,0.05,0.0,1.0,0.0,1.0,0,0,,,0
1449617842438452625,147,0,/odom,bcmd_vector,0,0,0,0.973123122,0.0248675569613,0.0,0.0,0.0,-0.0733881853001,0.997303451442,0.259819524059,0.05,0.05,0.0,1.0,0.0,1.0,0,0,,,0
1449617842451584889,148,0,/odom,bcmd_vector,0,0,0,0.984533756412,0.0232899732427,0.0,0.0,0.0,-0.0718050720702,0.997418684217,0.189978263626,0.05,0.05,0.0,1.0,0.0,1.0,0,0,,,0
1449617842538699954,149,0,/odom,bcmd_vector,0,0,0,0.984533756412,0.0232899732427,0.0,0.0,0.0,-0.0718050720702,0.997418684217,0.189978263626,0.05,0.05,0.0,1.0,0.0,1.0,0,0,,,0
1449617842547170416,150,0,/odom,bcmd_vector,0,0,0,0.998775413356,0.0211673713432,0.0,0.0,0.0,-0.0770744297208,0.997025341846,0.189978263626,0.05,0.05,0.0,1.0,0.0,1.0,0,0,,,0
1449617842572040786,151,0,/odom,bcmd_vector,0,0,0,1.00730647155,0.0198035790874,0.0,0.0,0.0,-0.0791774028604,0.996860541338,0.259819524059,0.05,0.05,0.0,1.0,0.0,1.0,0,0,,,0
1449617842631879149,152,0,/odom,bcmd_vector,0,0,0,1.00730647155,0.0198035790874,0.0,0.0,0.0,-0.0791774028604,0.996860541338,0.259819524059,0.05,0.05,0.0,1.0,0.0,1.0,0,0,,,0
1449617842655860135,153,0,/odom,bcmd_vector,0,0,0,1.01869515179,0.0180754205291,0.0,0.0,0.0,-0.0791774028604,0.996860541338,0.26401,0.05,0.05,0.0,1.0,0.0,1.0,0,0,,,0
1449617842745749998,154,0,/odom,bcmd_vector,0,0,0,1.01869515179,0.0180754205291,0.0,0.0,0.0,-0.0791774028604,0.996860541338,0.26401,0.05,0.05,0.0,1.0,0.0,1.0,0,0,,,0
1449617842762430200,155,0,/odom,bcmd_vector,0,0,0,1.03858606551,0.0148031597946,0.0,0.0,0.0,-0.0844437083633,0.996428251365,0.259819524059,0.05,0.05,0.0,1.0,0.0,1.0,0,0,,,0
1449617842783419609,156,0,/odom,bcmd_vector,0,0,0,1.04426351181,0.0138339124213,0.0,0.0,0.0,-0.0844437083633,0.996428251365,0.259819524059,0.05,0.05,0.0,1.0,0.0,1.0,0,0,,,0
1449617842836333234,157,0,/odom,bcmd_vector,0,0,0,1.04426351181,0.0138339124213,0.0,0.0,0.0,-0.0844437083633,0.996428251365,0.26401,0.05,0.05,0.0,1.0,0.0,1.0,0,0,,,0
1449617842857721757,158,0,/odom,bcmd_vector,0,0,0,1.05844128772,0.0113208775558,0.0,0.0,0.0,-0.0897076561262,0.99596814027,0.26401,0.05,0.05,0.0,1.0,0.0,1.0,0,0,,,0
1449617842891528397,159,0,/odom,bcmd_vector,0,0,0,1.05844128772,0.0113208775558,0.0,0.0,0.0,-0.0897076561262,0.99596814027,0.26401,0.05,0.05,0.0,1.0,0.0,1.0,0,0,,,0
1449617842941841168,160,0,/odom,bcmd_vector,0,0,0,1.06410817413,0.0102916858943,0.0,0.0,0.0,-0.0897076561262,0.99596814027,0.26401,0.05,0.05,0.0,1.0,0.0,1.0,0,0,,,0
1449617842977480135,161,0,/odom,bcmd_vector,0,0,0,1.06977506054,0.00926249423289,0.0,0.0,0.0,-0.0897076561262,0.99596814027,0.26401,0.05,0.05,0.0,1.0,0.0,1.0,0,0,,,0
1449617843073510735,162,0,/odom,bcmd_vector,0,0,0,1.07825860096,0.00762896272284,0.0,0.0,0.0,-0.0949690991753,0.995480220899,0.26401,0.05,0.05,0.0,1.0,0.0,1.0,0,0,,,0
1449617843090737413,163,0,/odom,bcmd_vector,0,0,0,1.1008981646,0.00336262271394,0.0,0.0,0.0,-0.0949690991753,0.995480220899,0.238867144356,0.05,0.05,0.0,1.0,0.0,1.0,0,0,,,0
1449617843102872087,164,0,/odom,bcmd_vector,0,0,0,1.1008981646,0.00336262271394,0.0,0.0,0.0,-0.0949690991753,0.995480220899,0.255629048119,0.05,0.05,0.0,1.0,0.0,1.0,0,0,,,0
1449617843142614301,165,0,/odom,bcmd_vector,0,0,0,1.1008981646,0.00336262271394,0.0,0.0,0.0,-0.0949690991753,0.995480220899,0.255629048119,0.05,0.05,0.0,1.0,0.0,1.0,0,0,,,0
1449617843190798853,166,0,/odom,bcmd_vector,0,0,0,1.10655385822,0.00227360170724,0.0,0.0,0.0,-0.0949690991753,0.995480220899,0.255629048119,0.05,0.05,0.0,1.0,0.0,1.0,0,0,,,0
1449617843214837530,167,0,/odom,bcmd_vector,0,0,0,1.12066353117,-0.000598220110881,0.0,0.0,0.0,-0.100227890607,0.994964506877,0.255629048119,0.05,0.05,0.0,1.0,0.0,1.0,0,0,,,0
1449617843251903734,168,0,/odom,bcmd_vector,0,0,0,1.12066353117,-0.000598220110881,0.0,0.0,0.0,-0.100227890607,0.994964506877,0.189978263626,0.05,0.05,0.0,1.0,0.0,1.0,0,0,,,0
1449617843297157535,169,0,/odom,bcmd_vector,0,0,0,1.12630740035,-0.00174694883813,0.0,0.0,0.0,-0.100227890607,0.994964506877,0.189978263626,0.05,0.05,0.0,1.0,0.0,1.0,0,0,,,0
1449617843331780599,170,0,/odom,bcmd_vector,0,0,0,1.13475452199,-0.00355941107029,0.0,0.0,0.0,-0.10548388359,0.994421012601,0.189978263626,0.05,0.05,0.0,1.0,0.0,1.0,0,0,,,0
1449617843372636241,171,0,/odom,bcmd_vector,0,0,0,1.14038593641,-0.00476771922506,0.0,0.0,0.0,-0.10548388359,0.994421012601,0.184390962372,0.05,0.05,0.0,1.0,0.0,1.0,0,0,,,0
1449617843421688813,172,0,/odom,bcmd_vector,0,0,0,1.14881343252,-0.00666934817798,0.0,0.0,0.0,-0.110736931374,0.993849753247,0.184390962372,0.05,0.05,0.0,1.0,0.0,1.0,0,0,,,0
1449617843462736553,173,0,/odom,bcmd_vector,0,0,0,1.15443176325,-0.00793710081326,0.0,0.0,0.0,-0.110736931374,0.993849753247,0.189978263626,0.05,0.05,0.0,1.0,0.0,1.0,0,0,,,0
1449617843527163024,174,0,/odom,bcmd_vector,0,0,0,1.16005009399,-0.00920485344854,0.0,0.0,0.0,-0.110736931374,0.993849753247,0.189978263626,0.05,0.05,0.0,1.0,0.0,1.0,0,0,,,0
1449617843536682726,175,0,/odom,bcmd_vector,0,0,0,1.17406164294,-0.0125224922732,0.0,0.0,0.0,-0.115986887289,0.993250744765,0.212327468643,0.05,0.05,0.0,1.0,0.0,1.0,0,0,,,0
1449617843569086548,176,0,/odom,bcmd_vector,0,0,0,1.17406164294,-0.0125224922732,0.0,0.0,0.0,-0.115986887289,0.993250744765,0.212327468643,0.05,0.05,0.0,1.0,0.0,1.0,0,0,,,0
1449617843623864743,177,0,/odom,bcmd_vector,0,0,0,1.17966626252,-0.0138495478031,0.0,0.0,0.0,-0.115986887289,0.993250744765,0.212327468643,0.05,0.05,0.0,1.0,0.0,1.0,0,0,,,0
1449617843659114572,178,0,/odom,bcmd_vector,0,0,0,1.1852708821,-0.0151766033329,0.0,0.0,0.0,-0.115986887289,0.993250744765,0.189978263626,0.05,0.05,0.0,1.0,0.0,1.0,0,0,,,0
1449617843706323393,179,0,/odom,bcmd_vector,0,0,0,1.19365630583,-0.0172559186561,0.0,0.0,0.0,-0.121233604752,0.99262400388,0.189978263626,0.05,0.05,0.0,1.0,0.0,1.0,0,0,,,0
1449617843743099601,180,0,/odom,bcmd_vector,0,0,0,1.19924658831,-0.0186421288715,0.0,0.0,0.0,-0.121233604752,0.99262400388,0.189978263626,0.05,0.05,0.0,1.0,0.0,1.0,0,0,,,0
1449617843798771370,181,0,/odom,bcmd_vector,0,0,0,1.20483687079,-0.0200283390869,0.0,0.0,0.0,-0.121233604752,0.99262400388,0.189978263626,0.05,0.05,0.0,1.0,0.0,1.0,0,0,,,0
1449617843819276849,182,0,/odom,bcmd_vector,0,0,0,1.21879013486,-0.0235823644304,0.0,0.0,0.0,-0.126476937269,0.991969548091,0.189978263626,0.05,0.05,0.0,1.0,0.0,1.0,0,0,,,0
1449617843873255772,183,0,/odom,bcmd_vector,0,0,0,1.21879013486,-0.0235823644304,0.0,0.0,0.0,-0.126476937269,0.991969548091,0.173216349373,0.05,0.05,0.0,1.0,0.0,1.0,0,0,,,0
1449617843896066909,184,0,/odom,bcmd_vector,0,0,0,1.22994825767,-0.0264432846662,0.0,0.0,0.0,-0.126476937269,0.991969548091,0.173216349373,0.05,0.05,0.0,1.0,0.0,1.0,0,0,,,0
1449617843933361838,185,0,/odom,bcmd_vector,0,0,0,1.22994825767,-0.0264432846662,0.0,0.0,0.0,-0.126476937269,0.991969548091,0.173216349373,0.05,0.05,0.0,1.0,0.0,1.0,0,0,,,0
1449617844017644310,186,0,/odom,bcmd_vector,0,0,0,1.23552357873,-0.0278884947516,0.0,0.0,0.0,-0.126476937269,0.991969548091,0.173216349373,0.05,0.05,0.0,1.0,0.0,1.0,0,0,,,0
1449617844059795338,187,0,/odom,bcmd_vector,0,0,0,1.24386318415,-0.0301445675774,0.0,0.0,0.0,-0.131716738444,0.99128739567,0.173216349373,0.05,0.05,0.0,1.0,0.0,1.0,0,0,,,0
1449617844075440532,188,0,/odom,bcmd_vector,0,0,0,1.2494229211,-0.0316486161279,0.0,0.0,0.0,-0.131716738444,0.99128739567,0.173216349373,0.05,0.05,0.0,1.0,0.0,1.0,0,0,,,0
1449617844150551976,189,0,/odom,bcmd_vector,0,0,0,1.25498265806,-0.0331526646784,0.0,0.0,0.0,-0.131716738444,0.99128739567,0.173216349373,0.05,0.05,0.0,1.0,0.0,1.0,0,0,,,0
1449617844173971716,190,0,/odom,bcmd_vector,0,0,0,1.26331416097,-0.0354380727487,0.0,0.0,0.0,-0.136952861975,0.990577565664,0.173216349373,0.05,0.05,0.0,1.0,0.0,1.0,0,0,,,0
1449617844200686422,191,0,/odom,bcmd_vector,0,0,0,1.26331416097,-0.0354380727487,0.0,0.0,0.0,-0.136952861975,0.990577565664,0.173216349373,0.05,0.05,0.0,1.0,0.0,1.0,0,0,,,0
1449617844243205108,192,0,/odom,bcmd_vector,0,0,0,1.2688576929,-0.0370007917883,0.0,0.0,0.0,-0.136952861975,0.990577565664,0.189978263626,0.05,0.05,0.0,1.0,0.0,1.0,0,0,,,0
1449617844255795009,193,0,/odom,bcmd_vector,0,0,0,1.27440122482,-0.0385635108279,0.0,0.0,0.0,-0.136952861975,0.990577565664,0.189978263626,0.05,0.05,0.0,1.0,0.0,1.0,0,0,,,0
1449617844291855292,194,0,/odom,bcmd_vector,0,0,0,1.27440122482,-0.0385635108279,0.0,0.0,0.0,-0.136952861975,0.990577565664,0.189978263626,0.05,0.05,0.0,1.0,0.0,1.0,0,0,,,0
1449617844372555512,195,0,/odom,bcmd_vector,0,0,0,1.27994475675,-0.0401262298675,0.0,0.0,0.0,-0.136952861975,0.990577565664,0.189978263626,0.05,0.05,0.0,1.0,0.0,1.0,0,0,,,0
1449617844388852677,196,0,/odom,bcmd_vector,0,0,0,1.28548828868,-0.0416889489071,0.0,0.0,0.0,-0.136952861975,0.990577565664,0.189978263626,0.05,0.05,0.0,1.0,0.0,1.0,0,0,,,0
1449617844438962100,197,0,/odom,bcmd_vector,0,0,0,1.2910318206,-0.0432516679466,0.0,0.0,0.0,-0.136952861975,0.990577565664,0.189978263626,0.05,0.05,0.0,1.0,0.0,1.0,0,0,,,0
1449617844452521745,198,0,/odom,bcmd_vector,0,0,0,1.2937951745,-0.0440622754467,0.0,0.0,0.0,-0.142185161666,0.989840077892,0.189978263626,0.05,0.05,0.0,1.0,0.0,1.0,0,0,,,0
1449617844496364376,199,0,/odom,bcmd_vector,0,0,0,1.2937951745,-0.0440622754467,0.0,0.0,0.0,-0.142185161666,0.989840077892,0.189978263626,0.05,0.05,0.0,1.0,0.0,1.0,0,0,,,0
1449617844558744518,200,0,/odom,bcmd_vector,0,0,0,1.29932188228,-0.0456834904468,0.0,0.0,0.0,-0.142185161666,0.989840077892,0.189978263626,0.05,0.05,0.0,1.0,0.0,1.0,0,0,,,0
1449617844572977005,201,0,/odom,bcmd_vector,0,0,0,1.30758578189,-0.0482027852954,0.0,0.0,0.0,-0.147413491427,0.989074952946,0.14248619772,0.05,0.05,0.0,1.0,0.0,1.0,0,0,,,0
1449617844610725778,202,0,/odom,bcmd_vector,0,0,0,1.30758578189,-0.0482027852954,0.0,0.0,0.0,-0.147413491427,0.989074952946,0.14248619772,0.05,0.05,0.0,1.0,0.0,1.0,0,0,,,0
1449617844655270187,203,0,/odom,bcmd_vector,0,0,0,1.31034913578,-0.0490133927955,0.0,0.0,0.0,-0.142185161666,0.989840077892,0.189978263626,0.05,0.05,0.0,1.0,0.0,1.0,0,0,,,0
1449617844705579050,204,0,/odom,bcmd_vector,0,0,0,1.31310376898,-0.049853157745,0.0,0.0,0.0,-0.147413491427,0.989074952946,0.14248619772,0.05,0.05,0.0,1.0,0.0,1.0,0,0,,,0
1449617844732884438,205,0,/odom,bcmd_vector,0,0,0,1.31861303539,-0.0515326876441,0.0,0.0,0.0,-0.147413491427,0.989074952946,0.14248619772,0.05,0.05,0.0,1.0,0.0,1.0,0,0,,,0
1449617844790598725,206,0,/odom,bcmd_vector,0,0,0,1.3241223018,-0.0532122175432,0.0,0.0,0.0,-0.147413491427,0.989074952946,0.14248619772,0.05,0.05,0.0,1.0,0.0,1.0,0,0,,,0
1449617844811073028,207,0,/odom,bcmd_vector,0,0,0,1.32962253987,-0.0549208111046,0.0,0.0,0.0,-0.147413491427,0.989074952946,0.14248619772,0.05,0.05,0.0,1.0,0.0,1.0,0,0,,,0
1449617844890580120,208,0,/odom,bcmd_vector,0,0,0,1.32962253987,-0.0549208111046,0.0,0.0,0.0,-0.147413491427,0.989074952946,0.138295721779,0.05,0.05,0.0,1.0,0.0,1.0,0,0,,,0
1449617844913477212,209,0,/odom,bcmd_vector,0,0,0,1.33785935448,-0.0575272969403,0.0,0.0,0.0,-0.152637705278,0.988282212188,0.138295721779,0.05,0.05,0.0,1.0,0.0,1.0,0,0,,,0
1449617844985501973,210,0,/odom,bcmd_vector,0,0,0,1.34335056421,-0.0592649541641,0.0,0.0,0.0,-0.152637705278,0.988282212188,0.14248619772,0.05,0.05,0.0,1.0,0.0,1.0,0,0,,,0
1449617844997642115,211,0,/odom,bcmd_vector,0,0,0,1.34608683411,-0.0601627494053,0.0,0.0,0.0,-0.157857657354,0.987461877753,0.14248619772,0.05,0.05,0.0,1.0,0.0,1.0,0,0,,,0
1449617845012628684,212,0,/odom,bcmd_vector,0,0,0,1.34883243898,-0.0610315780171,0.0,0.0,0.0,-0.152637705278,0.988282212188,0.14248619772,0.05,0.05,0.0,1.0,0.0,1.0,0,0,,,0
1449617845052440227,213,0,/odom,bcmd_vector,0,0,0,1.34883243898,-0.0610315780171,0.0,0.0,0.0,-0.152637705278,0.988282212188,0.14248619772,0.05,0.05,0.0,1.0,0.0,1.0,0,0,,,0
1449617845134113193,214,0,/odom,bcmd_vector,0,0,0,1.35156870888,-0.0619293732583,0.0,0.0,0.0,-0.157857657354,0.987461877753,0.14248619772,0.05,0.05,0.0,1.0,0.0,1.0,0,0,,,0
1449617845150880512,215,0,/odom,bcmd_vector,0,0,0,1.35705058365,-0.0636959971114,0.0,0.0,0.0,-0.157857657354,0.987461877753,0.14248619772,0.05,0.05,0.0,1.0,0.0,1.0,0,0,,,0
1449617845218825951,216,0,/odom,bcmd_vector,0,0,0,1.36252312345,-0.0654915875938,0.0,0.0,0.0,-0.157857657354,0.987461877753,0.138295721779,0.05,0.05,0.0,1.0,0.0,1.0,0,0,,,0
1449617845250559627,217,0,/odom,bcmd_vector,0,0,0,1.36252312345,-0.0654915875938,0.0,0.0,0.0,-0.157857657354,0.987461877753,0.138295721779,0.05,0.05,0.0,1.0,0.0,1.0,0,0,,,0
1449617845279555542,218,0,/odom,bcmd_vector,0,0,0,1.36799566324,-0.0672871780762,0.0,0.0,0.0,-0.165648408679,0.986184873491,0.158947218429,0.05,0.05,0.0,1.0,0.0,1.0,0,0,,,0
1449617845360902726,219,0,/odom,bcmd_vector,0,0,0,1.36799566324,-0.0672871780762,0.0,0.0,0.0,-0.165648408679,0.986184873491,0.158947218429,0.05,0.05,0.0,1.0,0.0,1.0,0,0,,,0
1449617845378240616,220,0,/odom,bcmd_vector,0,0,0,1.37345856248,-0.0691116349197,0.0,0.0,0.0,-0.16824305546,0.985745542363,0.148603536696,0.05,0.05,0.0,1.0,0.0,1.0,0,0,,,0
1449617845396954162,221,0,/odom,bcmd_vector,0,0,0,1.37345856248,-0.0691116349197,0.0,0.0,0.0,-0.165648408679,0.986184873491,0.155822628967,0.05,0.05,0.0,1.0,0.0,1.0,0,0,,,0
1449617845433409346,222,0,/odom,bcmd_vector,0,0,0,1.37618519181,-0.0700382965221,0.0,0.0,0.0,-0.170857096784,0.985295819781,0.154670780758,0.05,0.05,0.0,1.0,0.0,1.0,0,0,,,0
1449617845503767389,223,0,/odom,bcmd_vector,0,0,0,1.37892146171,-0.0709360917633,0.0,0.0,0.0,-0.165648408679,0.986184873491,0.154670780758,0.05,0.05,0.0,1.0,0.0,1.0,0,0,,,0
1449617845548889235,224,0,/odom,bcmd_vector,0,0,0,1.37892146171,-0.0709360917633,0.0,0.0,0.0,-0.165648408679,0.986184873491,0.153519037394,0.05,0.05,0.0,1.0,0.0,1.0,0,0,,,0
1449617845576802350,225,0,/odom,bcmd_vector,0,0,0,1.38164809104,-0.0718627533657,0.0,0.0,0.0,-0.16826362443,0.985742031514,0.166219443627,0.05,0.05,0.0,1.0,0.0,1.0,0,0,,,0
1449617845597840982,226,0,/odom,bcmd_vector,0,0,0,1.38164809104,-0.0718627533657,0.0,0.0,0.0,-0.16826362443,0.985742031514,0.166219443627,0.05,0.05,0.0,1.0,0.0,1.0,0,0,,,0
1449617845693658669,227,0,/odom,bcmd_vector,0,0,0,1.38710134971,-0.0737160765704,0.0,0.0,0.0,-0.173449385917,0.984842784674,0.141692713604,0.05,0.05,0.0,1.0,0.0,1.0,0,0,,,0
1449617845774428887,228,0,/odom,bcmd_vector,0,0,0,1.38981803397,-0.074671501042,0.0,0.0,0.0,-0.17865087352,0.983912529339,0.141692713604,0.05,0.05,0.0,1.0,0.0,1.0,0,0,,,0
1449617845799172535,229,0,/odom,bcmd_vector,0,0,0,1.3925446633,-0.0755981626443,0.0,0.0,0.0,-0.170857096784,0.985295819781,0.15318829752,0.05,0.05,0.0,1.0,0.0,1.0,0,0,,,0
1449617845863444684,230,0,/odom,bcmd_vector,0,0,0,1.39526134756,-0.0765535871159,0.0,0.0,0.0,-0.168284193326,0.985738520236,0.150639847459,0.05,0.05,0.0,1.0,0.0,1.0,0,0,,,0
1449617845930235059,231,0,/odom,bcmd_vector,0,0,0,1.39798797689,-0.0774802487183,0.0,0.0,0.0,-0.163073201911,0.986613972544,0.150639847459,0.05,0.05,0.0,1.0,0.0,1.0,0,0,,,0
1449617845974440169,232,0,/odom,bcmd_vector,0,0,0,1.40070466114,-0.0784356731898,0.0,0.0,0.0,-0.168284193326,0.985738520236,0.149488391521,0.05,0.05,0.0,1.0,0.0,1.0,0,0,,,0
1449617846017694265,233,0,/odom,bcmd_vector,0,0,0,1.40613802965,-0.0803465221329,0.0,0.0,0.0,-0.168284193326,0.985738520236,0.148912738258,0.05,0.05,0.0,1.0,0.0,1.0,0,0,,,0
1449617846062582592,234,0,/odom,bcmd_vector,0,0,0,1.40613802965,-0.0803465221329,0.0,0.0,0.0,-0.168284193326,0.985738520236,0.155151506463,0.05,0.05,0.0,1.0,0.0,1.0,0,0,,,0
1449617846090867672,235,0,/odom,bcmd_vector,0,0,0,1.40884446542,-0.0813306027694,0.0,0.0,0.0,-0.173490486104,0.984835545272,0.152441217055,0.05,0.05,0.0,1.0,0.0,1.0,0,0,,,0
1449617846130506986,236,0,/odom,bcmd_vector,0,0,0,1.41156114967,-0.0822860272409,0.0,0.0,0.0,-0.168284193326,0.985738520236,0.144847304146,0.05,0.05,0.0,1.0,0.0,1.0,0,0,,,0
1449617846198536247,237,0,/odom,bcmd_vector,0,0,0,1.41426758544,-0.0832701078774,0.0,0.0,0.0,-0.173490486104,0.984835545272,0.131666084737,0.05,0.05,0.0,1.0,0.0,1.0,0,0,,,0
1449617846220924893,238,0,/odom,bcmd_vector,0,0,0,1.41969070545,-0.0852096129854,0.0,0.0,0.0,-0.173490486104,0.984835545272,0.130514829869,0.05,0.05,0.0,1.0,0.0,1.0,0,0,,,0
1449617846253664311,239,0,/odom,bcmd_vector,0,0,0,1.41969070545,-0.0852096129854,0.0,0.0,0.0,-0.173490486104,0.984835545272,0.130514829869,0.05,0.05,0.0,1.0,0.0,1.0,0,0,,,0
1449617846309277763,240,0,/odom,bcmd_vector,0,0,0,1.41969070545,-0.0852096129854,0.0,0.0,0.0,-0.173490486104,0.984835545272,0.130514829869,0.05,0.05,0.0,1.0,0.0,1.0,0,0,,,0
1449617846346024011,241,0,/odom,bcmd_vector,0,0,0,1.42510357699,-0.0871777742583,0.0,0.0,0.0,-0.173490486104,0.984835545272,0.130514829869,0.05,0.05,0.0,1.0,0.0,1.0,0,0,,,0
1449617846413422606,242,0,/odom,bcmd_vector,0,0,0,1.42510357699,-0.0871777742583,0.0,0.0,0.0,-0.173490486104,0.984835545272,0.141190209745,0.05,0.05,0.0,1.0,0.0,1.0,0,0,,,0
1449617846444813327,243,0,/odom,bcmd_vector,0,0,0,1.43051644852,-0.0891459355312,0.0,0.0,0.0,-0.173490486104,0.984835545272,0.141190209745,0.05,0.05,0.0,1.0,0.0,1.0,0,0,,,0
1449617846468641999,244,0,/odom,bcmd_vector,0,0,0,1.43051644852,-0.0891459355312,0.0,0.0,0.0,-0.173490486104,0.984835545272,0.143983862995,0.05,0.05,0.0,1.0,0.0,1.0,0,0,,,0
1449617846490606987,245,0,/odom,bcmd_vector,0,0,0,1.43592932005,-0.0911140968041,0.0,0.0,0.0,-0.173490486104,0.984835545272,0.143983862995,0.05,0.05,0.0,1.0,0.0,1.0,0,0,,,0
1449617846513282778,246,0,/odom,bcmd_vector,0,0,0,1.43592932005,-0.0911140968041,0.0,0.0,0.0,-0.173490486104,0.984835545272,0.143983862995,0.05,0.05,0.0,1.0,0.0,1.0,0,0,,,0
1449617846604618809,247,0,/odom,bcmd_vector,0,0,0,1.43592932005,-0.0911140968041,0.0,0.0,0.0,-0.173490486104,0.984835545272,0.145380688308,0.05,0.05,0.0,1.0,0.0,1.0,0,0,,,0
1449617846657705348,248,0,/odom,bcmd_vector,0,0,0,1.44133164083,-0.0931108043372,0.0,0.0,0.0,-0.173490486104,0.984835545272,0.130514829869,0.05,0.05,0.0,1.0,0.0,1.0,0,0,,,0
1449617846700321803,249,0,/odom,bcmd_vector,0,0,0,1.44133164083,-0.0931108043372,0.0,0.0,0.0,-0.173490486104,0.984835545272,0.141190209745,0.05,0.05,0.0,1.0,0.0,1.0,0,0,,,0
1449617846759787000,250,0,/odom,bcmd_vector,0,0,0,1.44402752585,-0.0941234312338,0.0,0.0,0.0,-0.17869193488,0.983905072865,0.138295721779,0.05,0.05,0.0,1.0,0.0,1.0,0,0,,,0
1449617846770278872,251,0,/odom,bcmd_vector,0,0,0,1.44942984663,-0.0961201387669,0.0,0.0,0.0,-0.17869193488,0.983905072865,0.138295721779,0.05,0.05,0.0,1.0,0.0,1.0,0,0,,,0
1449617846801442339,252,0,/odom,bcmd_vector,0,0,0,1.44942984663,-0.0961201387669,0.0,0.0,0.0,-0.17869193488,0.983905072865,0.094994131813,0.05,0.05,0.0,1.0,0.0,1.0,0,0,,,0
1449617846848058306,253,0,/odom,bcmd_vector,0,0,0,1.44942984663,-0.0961201387669,0.0,0.0,0.0,-0.17869193488,0.983905072865,0.094994131813,0.05,0.05,0.0,1.0,0.0,1.0,0,0,,,0
1449617846875453654,254,0,/odom,bcmd_vector,0,0,0,1.4521362824,-0.0971042194033,0.0,0.0,0.0,-0.173490486104,0.984835545272,0.094994131813,0.05,0.05,0.0,1.0,0.0,1.0,0,0,,,0
1449617846913710348,255,0,/odom,bcmd_vector,0,0,0,1.45483216741,-0.0981168463,0.0,0.0,0.0,-0.17869193488,0.983905072865,0.094994131813,0.05,0.05,0.0,1.0,0.0,1.0,0,0,,,0
1449617846954683135,256,0,/odom,bcmd_vector,0,0,0,1.45483216741,-0.0981168463,0.0,0.0,0.0,-0.17869193488,0.983905072865,0.0922004811859,0.05,0.05,0.0,1.0,0.0,1.0,0,0,,,0
1449617847020501178,257,0,/odom,bcmd_vector,0,0,0,1.4575172006,-0.099157906364,0.0,0.0,0.0,-0.183888394426,0.982947128993,0.0922004811859,0.05,0.05,0.0,1.0,0.0,1.0,0,0,,,0
1449617847045505065,258,0,/odom,bcmd_vector,0,0,0,1.46021308561,-0.100170533261,0.0,0.0,0.0,-0.17869193488,0.983905072865,0.0922004811859,0.05,0.05,0.0,1.0,0.0,1.0,0,0,,,0
1449617847134059410,259,0,/odom,bcmd_vector,0,0,0,1.46021308561,-0.100170533261,0.0,0.0,0.0,-0.17869193488,0.983905072865,0.0922004811859,0.05,0.05,0.0,1.0,0.0,1.0,0,0,,,0
1449617847156255922,260,0,/odom,bcmd_vector,0,0,0,1.4628981188,-0.101211593325,0.0,0.0,0.0,-0.183888394426,0.982947128993,0.0922004811859,0.05,0.05,0.0,1.0,0.0,1.0,0,0,,,0
1449617847239384377,261,0,/odom,bcmd_vector,0,0,0,1.46559400381,-0.102224220221,0.0,0.0,0.0,-0.17869193488,0.983905072865,0.094994131813,0.05,0.05,0.0,1.0,0.0,1.0,0,0,,,0
1449617847257048574,262,0,/odom,bcmd_vector,0,0,0,1.468279037,-0.103265280285,0.0,0.0,0.0,-0.183888394426,0.982947128993,0.12991476203,0.05,0.05,0.0,1.0,0.0,1.0,0,0,,,0
1449617847294526762,263,0,/odom,bcmd_vector,0,0,0,1.468279037,-0.103265280285,0.0,0.0,0.0,-0.183888394426,0.982947128993,0.12991476203,0.05,0.05,0.0,1.0,0.0,1.0,0,0,,,0
1449617847351893556,264,0,/odom,bcmd_vector,0,0,0,1.468279037,-0.103265280285,0.0,0.0,0.0,-0.183888394426,0.982947128993,0.094994131813,0.05,0.05,0.0,1.0,0.0,1.0,0,0,,,0
1449617847402213807,265,0,/odom,bcmd_vector,0,0,0,1.47097492201,-0.104277907182,0.0,0.0,0.0,-0.17869193488,0.983905072865,0.094994131813,0.05,0.05,0.0,1.0,0.0,1.0,0,0,,,0
1449617847422863384,266,0,/odom,bcmd_vector,0,0,0,1.47097492201,-0.104277907182,0.0,0.0,0.0,-0.17869193488,0.983905072865,0.094994131813,0.05,0.05,0.0,1.0,0.0,1.0,0,0,,,0
1449617847478717649,267,0,/odom,bcmd_vector,0,0,0,1.47097492201,-0.104277907182,0.0,0.0,0.0,-0.17869193488,0.983905072865,0.094994131813,0.05,0.05,0.0,1.0,0.0,1.0,0,0,,,0
1449617847501549135,268,0,/odom,bcmd_vector,0,0,0,1.4736599552,-0.105318967246,0.0,0.0,0.0,-0.183888394426,0.982947128993,0.094994131813,0.05,0.05,0.0,1.0,0.0,1.0,0,0,,,0
1449617847556729919,269,0,/odom,bcmd_vector,0,0,0,1.4736599552,-0.105318967246,0.0,0.0,0.0,-0.183888394426,0.982947128993,0.0866131746864,0.05,0.05,0.0,1.0,0.0,1.0,0,0,,,0
1449617847593622379,270,0,/odom,bcmd_vector,0,0,0,1.4736599552,-0.105318967246,0.0,0.0,0.0,-0.183888394426,0.982947128993,0.0866131746864,0.05,0.05,0.0,1.0,0.0,1.0,0,0,,,0
1449617847654864400,271,0,/odom,bcmd_vector,0,0,0,1.4736599552,-0.105318967246,0.0,0.0,0.0,-0.183888394426,0.982947128993,0.0922004811859,0.05,0.05,0.0,1.0,0.0,1.0,0,0,,,0
1449617847677094369,272,0,/odom,bcmd_vector,0,0,0,1.4736599552,-0.105318967246,0.0,0.0,0.0,-0.183888394426,0.982947128993,0.0922004811859,0.05,0.05,0.0,1.0,0.0,1.0,0,0,,,0
1449617847696254557,273,0,/odom,bcmd_vector,0,0,0,1.4736599552,-0.105318967246,0.0,0.0,0.0,-0.183888394426,0.982947128993,0.0922004811859,0.05,0.05,0.0,1.0,0.0,1.0,0,0,,,0
1449617847798909874,274,0,/odom,bcmd_vector,0,0,0,1.4736599552,-0.105318967246,0.0,0.0,0.0,-0.183888394426,0.982947128993,0.0922004811859,0.05,0.05,0.0,1.0,0.0,1.0,0,0,,,0
1449617847817477218,275,0,/odom,bcmd_vector,0,0,0,1.4736599552,-0.105318967246,0.0,0.0,0.0,-0.183888394426,0.982947128993,0.0922004811859,0.05,0.05,0.0,1.0,0.0,1.0,0,0,,,0
1449617847884185304,276,0,/odom,bcmd_vector,0,0,0,1.4736599552,-0.105318967246,0.0,0.0,0.0,-0.183888394426,0.982947128993,0.094994131813,0.05,0.05,0.0,1.0,0.0,1.0,0,0,,,0
1449617847906670127,277,0,/odom,bcmd_vector,0,0,0,1.4736599552,-0.105318967246,0.0,0.0,0.0,-0.183888394426,0.982947128993,0.094994131813,0.05,0.05,0.0,1.0,0.0,1.0,0,0,,,0
1449617847941097405,278,0,/odom,bcmd_vector,0,0,0,1.47633383668,-0.106388344209,0.0,0.0,0.0,-0.189079719651,0.981961740404,0.094994131813,0.05,0.05,0.0,1.0,0.0,1.0,0,0,,,0
1449617848007400700,279,0,/odom,bcmd_vector,0,0,0,1.47633383668,-0.106388344209,0.0,0.0,0.0,-0.189079719651,0.981961740404,0.094994131813,0.05,0.05,0.0,1.0,0.0,1.0,0,0,,,0
1449617848030397243,280,0,/odom,bcmd_vector,0,0,0,1.47901886986,-0.107429404273,0.0,0.0,0.0,-0.183888394426,0.982947128993,0.094994131813,0.05,0.05,0.0,1.0,0.0,1.0,0,0,,,0
1449617848083417122,281,0,/odom,bcmd_vector,0,0,0,1.47901886986,-0.107429404273,0.0,0.0,0.0,-0.183888394426,0.982947128993,0.094994131813,0.05,0.05,0.0,1.0,0.0,1.0,0,0,,,0
1449617848150695271,282,0,/odom,bcmd_vector,0,0,0,1.47901886986,-0.107429404273,0.0,0.0,0.0,-0.183888394426,0.982947128993,0.094994131813,0.05,0.05,0.0,1.0,0.0,1.0,0,0,,,0
1449617848212112290,283,0,/odom,bcmd_vector,0,0,0,1.47901886986,-0.107429404273,0.0,0.0,0.0,-0.183888394426,0.982947128993,0.0866131746864,0.05,0.05,0.0,1.0,0.0,1.0,0,0,,,0
1449617848245475967,284,0,/odom,bcmd_vector,0,0,0,1.47901886986,-0.107429404273,0.0,0.0,0.0,-0.183888394426,0.982947128993,0.0866131746864,0.05,0.05,0.0,1.0,0.0,1.0,0,0,,,0
1449617848313230667,285,0,/odom,bcmd_vector,0,0,0,1.47901886986,-0.107429404273,0.0,0.0,0.0,-0.183888394426,0.982947128993,0.094994131813,0.05,0.05,0.0,1.0,0.0,1.0,0,0,,,0
1449617848335099706,286,0,/odom,bcmd_vector,0,0,0,1.47901886986,-0.107429404273,0.0,0.0,0.0,-0.183888394426,0.982947128993,0.094994131813,0.05,0.05,0.0,1.0,0.0,1.0,0,0,,,0
1449617848377739237,287,0,/odom,bcmd_vector,0,0,0,1.47901886986,-0.107429404273,0.0,0.0,0.0,-0.183888394426,0.982947128993,0.094994131813,0.05,0.05,0.0,1.0,0.0,1.0,0,0,,,0
1449617848393194124,288,0,/odom,bcmd_vector,0,0,0,1.47901886986,-0.107429404273,0.0,0.0,0.0,-0.183888394426,0.982947128993,0.094994131813,0.05,0.05,0.0,1.0,0.0,1.0,0,0,,,0
1449617848447897318,289,0,/odom,bcmd_vector,0,0,0,1.47901886986,-0.107429404273,0.0,0.0,0.0,-0.183888394426,0.982947128993,0.094994131813,0.05,0.05,0.0,1.0,0.0,1.0,0,0,,,0
1449617848516139332,290,0,/odom,bcmd_vector,0,0,0,1.47901886986,-0.107429404273,0.0,0.0,0.0,-0.183888394426,0.982947128993,0.094994131813,0.05,0.05,0.0,1.0,0.0,1.0,0,0,,,0
1449617848594081459,291,0,/odom,bcmd_vector,0,0,0,1.47901886986,-0.107429404273,0.0,0.0,0.0,-0.183888394426,0.982947128993,0.094994131813,0.05,0.05,0.0,1.0,0.0,1.0,0,0,,,0
1449617848630050438,292,0,/odom,bcmd_vector,0,0,0,1.47901886986,-0.107429404273,0.0,0.0,0.0,-0.183888394426,0.982947128993,0.094994131813,0.05,0.05,0.0,1.0,0.0,1.0,0,0,,,0
1449617848662051271,293,0,/odom,bcmd_vector,0,0,0,1.47901886986,-0.107429404273,0.0,0.0,0.0,-0.183888394426,0.982947128993,0.0866131746864,0.05,0.05,0.0,1.0,0.0,1.0,0,0,,,0
1449617848695597231,294,0,/odom,bcmd_vector,0,0,0,1.47901886986,-0.107429404273,0.0,0.0,0.0,-0.183888394426,0.982947128993,0.0866131746864,0.05,0.05,0.0,1.0,0.0,1.0,0,0,,,0
1449617848784310569,295,0,/odom,bcmd_vector,0,0,0,1.47901886986,-0.107429404273,0.0,0.0,0.0,-0.183888394426,0.982947128993,0.0866131746864,0.05,0.05,0.0,1.0,0.0,1.0,0,0,,,0
1449617848817978013,296,0,/odom,bcmd_vector,0,0,0,1.47901886986,-0.107429404273,0.0,0.0,0.0,-0.183888394426,0.982947128993,0.0866131746864,0.05,0.05,0.0,1.0,0.0,1.0,0,0,,,0
1449617848847261117,297,0,/odom,bcmd_vector,0,0,0,1.47901886986,-0.107429404273,0.0,0.0,0.0,-0.183888394426,0.982947128993,0.078232222805,0.05,0.05,0.0,1.0,0.0,1.0,0,0,,,0
1449617848899542784,298,0,/odom,bcmd_vector,0,0,0,1.47901886986,-0.107429404273,0.0,0.0,0.0,-0.183888394426,0.982947128993,0.078232222805,0.05,0.05,0.0,1.0,0.0,1.0,0,0,,,0
1449617848938022151,299,0,/odom,bcmd_vector,0,0,0,1.47901886986,-0.107429404273,0.0,0.0,0.0,-0.183888394426,0.982947128993,0.078232222805,0.05,0.05,0.0,1.0,0.0,1.0,0,0,,,0
1449617848952309523,300,0,/odom,bcmd_vector,0,0,0,1.47901886986,-0.107429404273,0.0,0.0,0.0,-0.183888394426,0.982947128993,0.08801,0.05,0.05,0.0,1.0,0.0,1.0,0,0,,,0
1449617848977692233,301,0,/odom,bcmd_vector,0,0,0,1.47901886986,-0.107429404273,0.0,0.0,0.0,-0.183888394426,0.982947128993,0.08801,0.05,0.05,0.0,1.0,0.0,1.0,0,0,,,0
1449617849054992811,302,0,/odom,bcmd_vector,0,0,0,1.47901886986,-0.107429404273,0.0,0.0,0.0,-0.183888394426,0.982947128993,0.08801,0.05,0.05,0.0,1.0,0.0,1.0,0,0,,,0
1449617849084031462,303,0,/odom,bcmd_vector,0,0,0,1.47901886986,-0.107429404273,0.0,0.0,0.0,-0.183888394426,0.982947128993,0.094994131813,0.05,0.05,0.0,1.0,0.0,1.0,0,0,,,0
1449617849168158437,304,0,/odom,bcmd_vector,0,0,0,1.47901886986,-0.107429404273,0.0,0.0,0.0,-0.183888394426,0.982947128993,0.094994131813,0.05,0.05,0.0,1.0,0.0,1.0,0,0,,,0
1449617849206053563,305,0,/odom,bcmd_vector,0,0,0,1.47901886986,-0.107429404273,0.0,0.0,0.0,-0.183888394426,0.982947128993,0.0866131746864,0.05,0.05,0.0,1.0,0.0,1.0,0,0,,,0
1449617849245684874,306,0,/odom,bcmd_vector,0,0,0,1.47901886986,-0.107429404273,0.0,0.0,0.0,-0.183108219779,0.983092762586,0.0866131746864,0.05,0.05,0.0,1.0,0.0,1.0,0,0,,,0
1449617849273393491,307,0,/odom,bcmd_vector,0,0,0,1.47901886986,-0.107429404273,0.0,0.0,0.0,-0.183108219779,0.983092762586,0.0866131746864,0.05,0.05,0.0,1.0,0.0,1.0,0,0,,,0
1449617849334962739,308,0,/odom,bcmd_vector,0,0,0,1.47901886986,-0.107429404273,0.0,0.0,0.0,-0.183108219779,0.983092762586,0.0866131746864,0.05,0.05,0.0,1.0,0.0,1.0,0,0,,,0
1449617849416380697,309,0,/odom,bcmd_vector,0,0,0,1.48169275134,-0.108498781236,0.0,0.0,0.0,-0.188300325425,0.982111494406,0.0866131746864,0.05,0.05,0.0,1.0,0.0,1.0,0,0,,,0
1449617849449795151,310,0,/odom,bcmd_vector,0,0,0,1.48169275134,-0.108498781236,0.0,0.0,0.0,-0.188300325425,0.982111494406,0.0866131746864,0.05,0.05,0.0,1.0,0.0,1.0,0,0,,,0
1449617849473252364,311,0,/odom,bcmd_vector,0,0,0,1.48169275134,-0.108498781236,0.0,0.0,0.0,-0.186741181733,0.982409146458,0.0866131746864,0.05,0.05,0.0,1.0,0.0,1.0,0,0,,,0
1449617849544781778,312,0,/odom,bcmd_vector,0,0,0,1.48169275134,-0.108498781236,0.0,0.0,0.0,-0.186741181733,0.982409146458,0.0866131746864,0.05,0.05,0.0,1.0,0.0,1.0,0,0,,,0
1449617849575121911,313,0,/odom,bcmd_vector,0,0,0,1.48169275134,-0.108498781236,0.0,0.0,0.0,-0.16643092971,0.986053115017,0.0796290481186,0.05,0.05,0.0,1.0,0.0,1.0,0,0,,,0
1449617849635624959,314,0,/odom,bcmd_vector,0,0,0,1.48169275134,-0.108498781236,0.0,0.0,0.0,-0.16643092971,0.986053115017,0.0796290481186,0.05,0.05,0.0,1.0,0.0,1.0,0,0,,,0
1449617849676416101,315,0,/odom,bcmd_vector,0,0,0,1.48169275134,-0.108498781236,0.0,0.0,0.0,-0.0639906464808,0.997950498353,0.226295716534,0.05,0.05,0.0,1.0,0.0,1.0,0,0,,,0
1449617849695723414,316,0,/odom,bcmd_vector,0,0,0,1.48169275134,-0.108498781236,0.0,0.0,0.0,-0.0639906464808,0.997950498353,0.226295716534,0.05,0.05,0.0,1.0,0.0,1.0,0,0,,,0
1449617849734453193,317,0,/odom,bcmd_vector,0,0,0,1.48169275134,-0.108498781236,0.0,0.0,0.0,-0.147619910324,0.989044165887,0.0740417468643,0.05,0.05,0.0,1.0,0.0,1.0,0,0,,,0
1449617849760255606,318,0,/odom,bcmd_vector,0,0,0,1.48169275134,-0.108498781236,0.0,0.0,0.0,-0.147619910324,0.989044165887,0.0740417468643,0.05,0.05,0.0,1.0,0.0,1.0,0,0,,,0
1449617849800685152,319,0,/odom,bcmd_vector,0,0,0,1.48169275134,-0.108498781236,0.0,0.0,0.0,-0.147619910324,0.989044165887,0.0740417468643,0.05,0.05,0.0,1.0,0.0,1.0,0,0,,,0
1449617849860997841,320,0,/odom,bcmd_vector,0,0,0,1.48169275134,-0.108498781236,0.0,0.0,0.0,-0.0639906464808,0.997950498353,0.226295716534,0.05,0.05,0.0,1.0,0.0,1.0,0,0,,,0
1449617849875848541,321,0,/odom,bcmd_vector,0,0,0,1.48169275134,-0.108498781236,0.0,0.0,0.0,-0.0639906464808,0.997950498353,0.226295716534,0.05,0.05,0.0,1.0,0.0,1.0,0,0,,,0
1449617849919032616,322,0,/odom,bcmd_vector,0,0,0,1.48169275134,-0.108498781236,0.0,0.0,0.0,-0.146834908274,0.989161013037,0.0740417468643,0.05,0.05,0.0,1.0,0.0,1.0,0,0,,,0
1449617850017898329,323,0,/odom,bcmd_vector,0,0,0,1.48169275134,-0.108498781236,0.0,0.0,0.0,-0.146834908274,0.989161013037,0.0740417468643,0.05,0.05,0.0,1.0,0.0,1.0,0,0,,,0
1449617850075196989,324,0,/odom,bcmd_vector,0,0,0,1.48169275134,-0.108498781236,0.0,0.0,0.0,-0.146834908274,0.989161013037,0.0740417468643,0.05,0.05,0.0,1.0,0.0,1.0,0,0,,,0
1449617850093112755,325,0,/odom,bcmd_vector,0,0,0,1.48169275134,-0.108498781236,0.0,0.0,0.0,-0.0639906464808,0.997950498353,0.226295716534,0.05,0.05,0.0,1.0,0.0,1.0,0,0,,,0
1449617850119264431,326,0,/odom,bcmd_vector,0,0,0,1.48169275134,-0.108498781236,0.0,0.0,0.0,-0.146834908274,0.989161013037,0.0740417468643,0.05,0.05,0.0,1.0,0.0,1.0,0,0,,,0
1449617850194908648,327,0,/odom,bcmd_vector,0,0,0,1.48169275134,-0.108498781236,0.0,0.0,0.0,-0.146834908274,0.989161013037,0.0740417468643,0.05,0.05,0.0,1.0,0.0,1.0,0,0,,,0
1449617850234336600,328,0,/odom,bcmd_vector,0,0,0,1.48169275134,-0.108498781236,0.0,0.0,0.0,-0.146834908274,0.989161013037,0.0740417468643,0.05,0.05,0.0,1.0,0.0,1.0,0,0,,,0
1449617850295680144,329,0,/odom,bcmd_vector,0,0,0,1.48437778452,-0.1095398413,0.0,0.0,0.0,-0.111691439195,0.993742935779,0.131311589966,0.05,0.05,0.0,1.0,0.0,1.0,0,0,,,0
1449617850320198858,330,0,/odom,bcmd_vector,0,0,0,1.48437778452,-0.1095398413,0.0,0.0,0.0,-0.111691439195,0.993742935779,0.131311589966,0.05,0.05,0.0,1.0,0.0,1.0,0,0,,,0
1449617850338380522,331,0,/odom,bcmd_vector,0,0,0,1.48437778452,-0.1095398413,0.0,0.0,0.0,-0.0563395744085,0.998411664773,0.222105240593,0.05,0.05,0.0,1.0,0.0,1.0,0,0,,,0
1449617850384541849,332,0,/odom,bcmd_vector,0,0,0,1.48437778452,-0.1095398413,0.0,0.0,0.0,-0.0563395744085,0.998411664773,0.222105240593,0.05,0.05,0.0,1.0,0.0,1.0,0,0,,,0
1449617850405751620,333,0,/odom,bcmd_vector,0,0,0,1.48437778452,-0.1095398413,0.0,0.0,0.0,-0.0563395744085,0.998411664773,0.222105240593,0.05,0.05,0.0,1.0,0.0,1.0,0,0,,,0
1449617850435156499,334,0,/odom,bcmd_vector,0,0,0,1.48437778452,-0.1095398413,0.0,0.0,0.0,-0.0587165829586,0.998274693101,0.226295716534,0.05,0.05,0.0,1.0,0.0,1.0,0,0,,,0
1449617850491417253,335,0,/odom,bcmd_vector,0,0,0,1.48437778452,-0.1095398413,0.0,0.0,0.0,-0.0587165829586,0.998274693101,0.226295716534,0.05,0.05,0.0,1.0,0.0,1.0,0,0,,,0
1449617850520115293,336,0,/odom,bcmd_vector,0,0,0,1.48437778452,-0.1095398413,0.0,0.0,0.0,-0.0587165829586,0.998274693101,0.226295716534,0.05,0.05,0.0,1.0,0.0,1.0,0,0,,,0
1449617850556491725,337,0,/odom,bcmd_vector,0,0,0,1.48437778452,-0.1095398413,0.0,0.0,0.0,-0.108536142385,0.994092503642,0.134105240593,0.05,0.05,0.0,1.0,0.0,1.0,0,0,,,0
1449617850659021827,338,0,/odom,bcmd_vector,0,0,0,1.48437778452,-0.1095398413,0.0,0.0,0.0,-0.108536142385,0.994092503642,0.134105240593,0.05,0.05,0.0,1.0,0.0,1.0,0,0,,,0
1449617850684226995,339,0,/odom,bcmd_vector,0,0,0,1.48437778452,-0.1095398413,0.0,0.0,0.0,-0.0587165829586,0.998274693101,0.222105240593,0.05,0.05,0.0,1.0,0.0,1.0,0,0,,,0
1449617850789726657,340,0,/odom,bcmd_vector,0,0,0,1.48437778452,-0.1095398413,0.0,0.0,0.0,-0.00599344762769,0.999982039131,0.35201,0.05,0.05,0.0,1.0,0.0,1.0,0,0,,,0
1449617850824257108,341,0,/odom,bcmd_vector,0,0,0,1.48437778452,-0.1095398413,0.0,0.0,0.0,-0.00599344762769,0.999982039131,0.35201,0.05,0.05,0.0,1.0,0.0,1.0,0,0,,,0
1449617850916077475,342,0,/odom,bcmd_vector,0,0,0,1.48437778452,-0.1095398413,0.0,0.0,0.0,-0.00599344762769,0.999982039131,0.35201,0.05,0.05,0.0,1.0,0.0,1.0,0,0,,,0
1449617851017924829,343,0,/odom,bcmd_vector,0,0,0,1.48707366954,-0.110552468197,0.0,0.0,0.0,-0.000709459110038,0.999999748334,0.35201,0.05,0.05,0.0,1.0,0.0,1.0,0,0,,,0
1449617851051032367,344,0,/odom,bcmd_vector,0,0,0,1.49245458774,-0.112606155157,0.0,0.0,0.0,-0.0465572841,0.99891562171,0.249251248188,0.05,0.05,0.0,1.0,0.0,1.0,0,0,,,0
1449617851163691708,345,0,/odom,bcmd_vector,0,0,0,1.49245458774,-0.112606155157,0.0,0.0,0.0,-0.0465572841,0.99891562171,0.245996337546,0.05,0.05,0.0,1.0,0.0,1.0,0,0,,,0
1449617851179296627,346,0,/odom,bcmd_vector,0,0,0,1.50326978005,-0.116571023963,0.0,0.0,0.0,-0.0465572841,0.99891562171,0.245536695764,0.05,0.05,0.0,1.0,0.0,1.0,0,0,,,0
1449617851258703006,347,0,/odom,bcmd_vector,0,0,0,1.50326978005,-0.116571023963,0.0,0.0,0.0,-0.0465572841,0.99891562171,0.245536695764,0.05,0.05,0.0,1.0,0.0,1.0,0,0,,,0
1449617851286532843,348,0,/odom,bcmd_vector,0,0,0,1.50869290007,-0.118510529071,0.0,0.0,0.0,-0.0359982918598,0.999351851443,0.245075826231,0.05,0.05,0.0,1.0,0.0,1.0,0,0,,,0
1449617851314982538,349,0,/odom,bcmd_vector,0,0,0,1.51412626858,-0.120421378014,0.0,0.0,0.0,-0.0359982918598,0.999351851443,0.246023553934,0.05,0.05,0.0,1.0,0.0,1.0,0,0,,,0
1449617851337313387,350,0,/odom,bcmd_vector,0,0,0,1.51955963709,-0.122332226958,0.0,0.0,0.0,-0.0359982918598,0.999351851443,0.246023553934,0.05,0.05,0.0,1.0,0.0,1.0,0,0,,,0
