%time,field.robot_pose.position.x,field.robot_pose.position.y,field.robot_pose.position.z,field.robot_pose.orientation.x,field.robot_pose.orientation.y,field.robot_pose.orientation.z,field.robot_pose.orientation.w,field.ctime,field.hasac,field.acmd.linear.x,field.acmd.linear.y,field.acmd.linear.z,field.acmd.angular.x,field.acmd.angular.y,field.acmd.angular.z,field.hasuc,field.ucmd.linear.x,field.ucmd.linear.y,field.ucmd.linear.z,field.ucmd.angular.x,field.ucmd.angular.y,field.ucmd.angular.z,field.bcmd.linear.x,field.bcmd.linear.y,field.bcmd.linear.z,field.bcmd.angular.x,field.bcmd.angular.y,field.bcmd.angular.z,field.blending,field.blendingno,field.controlstate,field.alpha,field.source,field.sxb
1449617832558679974,0.0,0.0,0.0,0.0,0.0,0.0,1.0,1449617832558137708,1,0.0,0.0,0.0,0.0,0.0,0.0,1,-0.0,0.0,0.0,0.0,0.0,-0.0,-0.0,0.0,0.0,0.0,0.0,-0.0,,0,Sharing Zero Relinquish,10.0,,0
1449617832598779001,0.0,0.0,0.0,0.0,0.0,0.0,1.0,1449617832598195516,1,0.0,0.0,0.0,0.0,0.0,0.0,1,-0.0,0.0,0.0,0.0,0.0,-0.0,-0.0,0.0,0.0,0.0,0.0,-0.0,,0,Sharing Zero Relinquish,10.0,,0
1449617832638750230,0.0,0.0,0.0,0.0,0.0,0.0,1.0,1449617832638035537,1,0.0,0.0,0.0,0.0,0.0,0.0,1,-0.0,0.0,0.0,0.0,0.0,-0.0,-0.0,0.0,0.0,0.0,0.0,-0.0,,0,Sharing Zero Relinquish,10.0,user,0
1449617832679047949,0.0,0.0,0.0,0.0,0.0,0.0,1.0,1449617832677990169,1,0.0,0.0,0.0,0.0,0.0,0.0,1,-0.0,0.0,0.0,0.0,0.0,-0.0,-0.0,0.0,0.0,0.0,0.0,-0.0,,0,Sharing Zero Relinquish,10.0,user,0
1449617832719093988,0.0,0.0,0.0,0.0,0.0,0.0,1.0,1449617832717992876,1,0.0,0.0,0.0,0.0,0.0,0.0,1,-0.0,0.0,0.0,0.0,0.0,-0.0,-0.0,0.0,0.0,0.0,0.0,-0.0,,0,Sharing Zero Relinquish,10.0,user,0
1449617832759771431,0.0,0.0,0.0,0.0,0.0,0.0,1.0,1449617832758020577,1,0.0,0.0,0.0,0.0,0.0,0.0,1,-0.0,0.0,0.0,0.0,0.0,-0.0,-0.0,0.0,0.0,0.0,0.0,-0.0,,0,Sharing Zero Relinquish,10.0,user,0
1449617832799085711,0.0,0.0,0.0,0.0,0.0,0.0,1.0,1449617832798688971,1,0.0,0.0,0.0,0.0,0.0,0.0,1,-0.0,0.0,0.0,0.0,0.0,-0.0,-0.0,0.0,0.0,0.0,0.0,-0.0,,0,Sharing Zero Relinquish,10.0,user,0
1449617832839919935,0.0,0.0,0.0,0.0,0.0,0.0,1.0,1449617832838008692,1,0.0,0.0,0.0,0.0,0.0,0.0,1,-0.0,0.0,0.0,0.0,0.0,-0.0,-0.0,0.0,0.0,0.0,0.0,-0.0,,0,Sharing Zero Relinquish,10.0,user,0
1449617832878439312,0.0,0.0,0.0,0.0,0.0,0.0,1.0,1449617832877987839,1,0.0,0.0,0.0,0.0,0.0,0.0,1,-0.0,0.0,0.0,0.0,0.0,-0.0,-0.0,0.0,0.0,0.0,0.0,-0.0,,0,Sharing Zero Relinquish,10.0,user,0
1449617832918778794,0.0,0.0,0.0,0.0,0.0,0.0,1.0,1449617832917987579,1,0.0,0.0,0.0,0.0,0.0,0.0,1,-0.0,0.0,0.0,0.0,0.0,-0.0,-0.0,0.0,0.0,0.0,0.0,-0.0,,0,Sharing Zero Relinquish,10.0,user,0
1449617832958982372,0.0,0.0,0.0,0.0,0.0,0.0,1.0,1449617832957990347,1,0.0,0.0,0.0,0.0,0.0,0.0,1,-0.0,0.0,0.0,0.0,0.0,-0.0,-0.0,0.0,0.0,0.0,0.0,-0.0,,0,Sharing Zero Relinquish,10.0,user,0
1449617832998516191,0.0,0.0,0.0,0.0,0.0,0.0,1.0,1449617832998006298,1,0.0,0.0,0.0,0.0,0.0,0.0,1,-0.0,0.0,0.0,0.0,0.0,-0.0,-0.0,0.0,0.0,0.0,0.0,-0.0,,0,Sharing Zero Relinquish,10.0,user,0
1449617833039313976,0.0,0.0,0.0,0.0,0.0,0.0,1.0,1449617833038013580,1,0.0,0.0,0.0,0.0,0.0,0.0,1,-0.0,0.0,0.0,0.0,0.0,-0.0,-0.0,0.0,0.0,0.0,0.0,-0.0,,0,Sharing Zero Relinquish,10.0,user,0
1449617833078658207,0.0,0.0,0.0,0.0,0.0,0.0,1.0,1449617833077993024,1,0.0,0.0,0.0,0.0,0.0,0.0,1,-0.0,0.0,0.0,0.0,0.0,-0.0,-0.0,0.0,0.0,0.0,0.0,-0.0,,0,Sharing Zero Relinquish,10.0,user,0
1449617833119522753,0.0,0.0,0.0,0.0,0.0,0.0,1.0,1449617833118138833,1,0.0,0.0,0.0,0.0,0.0,0.0,1,-0.0,0.0,0.0,0.0,0.0,-0.0,-0.0,0.0,0.0,0.0,0.0,-0.0,,0,Sharing Zero Relinquish,10.0,user,0
1449617833159012355,0.0,0.0,0.0,0.0,0.0,0.0,1.0,1449617833158006571,1,0.0,0.0,0.0,0.0,0.0,0.0,1,-0.0,0.0,0.0,0.0,0.0,-0.0,-0.0,0.0,0.0,0.0,0.0,-0.0,,0,Sharing Zero Relinquish,10.0,user,0
1449617833199598157,0.0,0.0,0.0,0.0,0.0,0.0,1.0,1449617833198022405,1,0.0,0.0,0.0,0.0,0.0,0.0,1,-0.0,0.0,0.0,0.0,0.0,-0.0,-0.0,0.0,0.0,0.0,0.0,-0.0,,0,Sharing Zero Relinquish,10.0,user,0
1449617833238651137,0.0,0.0,0.0,0.0,0.0,0.0,1.0,1449617833238017352,1,0.0,0.0,0.0,0.0,0.0,0.0,1,-0.0,0.0,0.0,0.0,0.0,-0.0,-0.0,0.0,0.0,0.0,0.0,-0.0,,0,Sharing Zero Relinquish,10.0,user,0
1449617833278978275,0.0,0.0,0.0,0.0,0.0,0.0,1.0,1449617833277998783,1,0.0,0.0,0.0,0.0,0.0,0.0,1,-0.0,0.0,0.0,0.0,0.0,-0.0,-0.0,0.0,0.0,0.0,0.0,-0.0,,0,Sharing Zero Relinquish,10.0,user,0
1449617833318876503,0.0,0.0,0.0,0.0,0.0,0.0,1.0,1449617833318004663,1,0.0,0.0,0.0,0.0,0.0,0.0,1,-0.0,0.0,0.0,0.0,0.0,-0.0,-0.0,0.0,0.0,0.0,0.0,-0.0,,0,Sharing Zero Relinquish,10.0,user,0
1449617833358389645,0.0,0.0,0.0,0.0,0.0,0.0,1.0,1449617833358000975,1,0.0,0.0,0.0,0.0,0.0,0.0,1,-0.0,0.0,0.0,0.0,0.0,-0.0,-0.0,0.0,0.0,0.0,0.0,-0.0,,0,Sharing Zero Relinquish,10.0,user,0
1449617833398634898,0.0,0.0,0.0,0.0,0.0,0.0,1.0,1449617833398032874,1,0.0,0.0,0.0,0.0,0.0,0.0,1,-0.0,0.0,0.0,0.0,0.0,-0.0,-0.0,0.0,0.0,0.0,0.0,-0.0,,0,Sharing Zero Relinquish,10.0,user,0
1449617833438555191,0.0,0.0,0.0,0.0,0.0,0.0,1.0,1449617833438016154,1,0.0,0.0,0.0,0.0,0.0,0.0,1,-0.0,0.0,0.0,0.0,0.0,-0.0,-0.0,0.0,0.0,0.0,0.0,-0.0,,0,Sharing Zero Relinquish,10.0,user,0
1449617833478756453,0.0,0.0,0.0,0.0,0.0,0.0,1.0,1449617833477991714,1,0.0,0.0,0.0,0.0,0.0,0.0,1,-0.0,0.0,0.0,0.0,0.0,-0.0,-0.0,0.0,0.0,0.0,0.0,-0.0,,0,Sharing Zero Relinquish,10.0,user,0
1449617833518828376,0.0,0.0,0.0,0.0,0.0,0.0,1.0,1449617833517997029,1,0.0,0.0,0.0,0.0,0.0,0.0,1,-0.0,0.0,0.0,0.0,0.0,-0.0,-0.0,0.0,0.0,0.0,0.0,-0.0,,0,Sharing Zero Relinquish,10.0,user,0
1449617833559897618,0.0,0.0,0.0,0.0,0.0,0.0,1.0,1449617833558075620,1,0.0,0.0,0.0,0.0,0.0,0.0,1,-0.0,0.0,0.0,0.0,0.0,-0.0,-0.0,0.0,0.0,0.0,0.0,-0.0,,0,Sharing Zero Relinquish,10.0,user,0
1449617833600408771,0.0,0.0,0.0,0.0,0.0,0.0,1.0,1449617833598556653,1,0.0,0.0,0.0,0.0,0.0,0.0,1,-0.0,0.0,0.0,0.0,0.0,-0.0,-0.0,0.0,0.0,0.0,0.0,-0.0,,0,Sharing Zero Relinquish,10.0,user,0
1449617833640489116,0.0,0.0,0.0,0.0,0.0,0.0,1.0,1449617833638027456,1,0.0,0.0,0.0,0.0,0.0,0.0,1,-0.0,0.0,0.0,0.0,0.0,-0.0,-0.0,0.0,0.0,0.0,0.0,-0.0,,0,Sharing Zero Relinquish,10.0,user,0
1449617833678635573,0.0,0.0,0.0,0.0,0.0,0.0,1.0,1449617833677987652,1,0.0,0.0,0.0,0.0,0.0,0.0,1,-0.0,0.0,0.0,0.0,0.0,-0.0,-0.0,0.0,0.0,0.0,0.0,-0.0,,0,Sharing Zero Relinquish,10.0,user,0
1449617833718496470,0.0,0.0,0.0,0.0,0.0,0.0,1.0,1449617833717956130,1,0.0,0.0,0.0,0.0,0.0,0.0,1,-0.0,0.0,0.0,0.0,0.0,-0.0,-0.0,0.0,0.0,0.0,0.0,-0.0,,0,Sharing Zero Relinquish,10.0,user,0
1449617833758554428,0.0,0.0,0.0,0.0,0.0,0.0,1.0,1449617833757982755,1,0.0,0.0,0.0,0.0,0.0,0.0,1,-0.0,0.0,0.0,0.0,0.0,-0.0,-0.0,0.0,0.0,0.0,0.0,-0.0,,0,Sharing Zero Relinquish,10.0,user,0
1449617833800539451,0.0,0.0,0.0,0.0,0.0,0.0,1.0,1449617833799059416,1,0.0,0.0,0.0,0.0,0.0,0.0,1,-0.0,0.0,0.0,0.0,0.0,-0.0,-0.0,0.0,0.0,0.0,0.0,-0.0,,0,Sharing Zero Relinquish,10.0,user,0
1449617833840750109,0.0,0.0,0.0,0.0,0.0,0.0,1.0,1449617833838033521,1,0.0,0.0,0.0,0.0,0.0,0.0,1,-0.0,0.0,0.0,0.0,0.0,-0.0,-0.0,0.0,0.0,0.0,0.0,-0.0,,0,Sharing Zero Relinquish,10.0,user,0
1449617833878288738,0.0,0.0,0.0,0.0,0.0,0.0,1.0,1449617833877993876,1,0.0,0.0,0.0,0.0,0.0,0.0,1,-0.0,0.0,0.0,0.0,0.0,-0.0,-0.0,0.0,0.0,0.0,0.0,-0.0,,0,Sharing Zero Relinquish,10.0,user,0
1449617833919716212,0.0,0.0,0.0,0.0,0.0,0.0,1.0,1449617833918227217,1,0.0,0.0,0.0,0.0,0.0,0.0,1,-0.0,0.0,0.0,0.0,0.0,-0.0,-0.0,0.0,0.0,0.0,0.0,-0.0,,0,Sharing Zero Relinquish,10.0,user,0
1449617833958689010,0.0,0.0,0.0,0.0,0.0,0.0,1.0,1449617833958001557,1,0.0,0.0,0.0,0.0,0.0,0.0,1,-0.0,0.0,0.0,0.0,0.0,-0.0,-0.0,0.0,0.0,0.0,0.0,-0.0,,0,Sharing Zero Relinquish,10.0,user,0
1449617833998354752,0.0,0.0,0.0,0.0,0.0,0.0,1.0,1449617833998002336,1,0.0,0.0,0.0,0.0,0.0,0.0,1,-0.0,0.0,0.0,0.0,0.0,-0.0,-0.0,0.0,0.0,0.0,0.0,-0.0,,0,Sharing Zero Relinquish,10.0,user,0
1449617834040066778,0.0,0.0,0.0,0.0,0.0,0.0,1.0,1449617834038018321,1,0.0,0.0,0.0,0.0,0.0,0.0,1,-0.0,0.0,0.0,0.0,0.0,-0.0,-0.0,0.0,0.0,0.0,0.0,-0.0,,0,Sharing Zero Relinquish,10.0,user,0
1449617834078971535,0.0,0.0,0.0,0.0,0.0,0.0,1.0,1449617834077994898,1,0.0,0.0,0.0,0.0,0.0,0.0,1,-0.0,0.0,0.0,0.0,0.0,-0.0,-0.0,0.0,0.0,0.0,0.0,-0.0,,0,Sharing Zero Relinquish,10.0,user,0
1449617834119015022,0.0,0.0,0.0,0.0,0.0,0.0,1.0,1449617834118067238,1,0.0,0.0,0.0,0.0,0.0,0.0,1,-0.0,0.0,0.0,0.0,0.0,-0.0,-0.0,0.0,0.0,0.0,0.0,-0.0,,0,Sharing Zero Relinquish,10.0,user,0
1449617834160437169,0.0,0.0,0.0,0.0,0.0,0.0,1.0,1449617834158014810,1,0.0,0.0,0.0,0.0,0.0,0.0,1,-0.0,0.0,0.0,0.0,0.0,-0.0,-0.0,0.0,0.0,0.0,0.0,-0.0,,0,Sharing Zero Relinquish,10.0,user,0
1449617834198909920,0.0,0.0,0.0,0.0,0.0,0.0,1.0,1449617834198008135,1,0.0,0.0,0.0,0.0,0.0,0.0,1,-0.0,0.0,0.0,0.0,0.0,-0.0,-0.0,0.0,0.0,0.0,0.0,-0.0,,0,Sharing Zero Relinquish,10.0,user,0
1449617834239446105,0.0,0.0,0.0,0.0,0.0,0.0,1.0,1449617834238021578,1,0.0,0.0,0.0,0.0,0.0,0.0,1,-0.0,0.0,0.0,0.0,0.0,-0.0,-0.0,0.0,0.0,0.0,0.0,-0.0,,0,Sharing Zero Relinquish,10.0,user,0
1449617834278702687,0.0,0.0,0.0,0.0,0.0,0.0,1.0,1449617834277992468,1,0.0,0.0,0.0,0.0,0.0,0.0,1,-0.0,0.0,0.0,0.0,0.0,-0.0,-0.0,0.0,0.0,0.0,0.0,-0.0,,0,Sharing Zero Relinquish,10.0,user,0
1449617834318658975,0.0,0.0,0.0,0.0,0.0,0.0,1.0,1449617834317989473,1,0.0,0.0,0.0,0.0,0.0,0.0,1,-0.0,0.0,0.0,0.0,0.0,-0.0,-0.0,0.0,0.0,0.0,0.0,-0.0,,0,Sharing Zero Relinquish,10.0,user,0
1449617834359954044,0.0,0.0,0.0,0.0,0.0,0.0,1.0,1449617834357999255,1,0.0,0.0,0.0,0.0,0.0,0.0,1,-0.0,0.0,0.0,0.0,0.0,-0.0,-0.0,0.0,0.0,0.0,0.0,-0.0,,0,Sharing Zero Relinquish,10.0,user,0
1449617834398725632,0.0,0.0,0.0,0.0,0.0,0.0,1.0,1449617834397999305,1,0.0,0.0,0.0,0.0,0.0,0.0,1,-0.0,0.0,0.0,0.0,0.0,-0.0,-0.0,0.0,0.0,0.0,0.0,-0.0,,0,Sharing Zero Relinquish,10.0,user,0
1449617834440107194,0.0,0.0,0.0,0.0,0.0,0.0,1.0,1449617834438003381,1,0.0,0.0,0.0,0.0,0.0,0.0,1,-0.0,0.0,0.0,0.0,0.0,-0.0,-0.0,0.0,0.0,0.0,0.0,-0.0,,0,Sharing Zero Relinquish,10.0,user,0
1449617834480401403,0.0,0.0,0.0,0.0,0.0,0.0,1.0,1449617834478005063,1,0.0,0.0,0.0,0.0,0.0,0.0,1,-0.0,0.0,0.0,0.0,0.0,-0.0,-0.0,0.0,0.0,0.0,0.0,-0.0,,0,Sharing Zero Relinquish,10.0,user,0
1449617834518653607,0.0,0.0,0.0,0.0,0.0,0.0,1.0,1449617834517997498,1,0.0,0.0,0.0,0.0,0.0,0.0,1,-0.0,0.0,0.0,0.0,0.0,-0.0,-0.0,0.0,0.0,0.0,0.0,-0.0,,0,Sharing Zero Relinquish,10.0,user,0
1449617834559252968,0.0,0.0,0.0,0.0,0.0,0.0,1.0,1449617834557995382,1,0.0,0.0,0.0,0.0,0.0,0.0,1,-0.0,0.0,0.0,0.0,0.0,-0.0,-0.0,0.0,0.0,0.0,0.0,-0.0,,0,Sharing Zero Relinquish,10.0,user,0
1449617834598869682,0.0,0.0,0.0,0.0,0.0,0.0,1.0,1449617834598047028,1,0.0,0.0,0.0,0.0,0.0,0.0,1,-0.0,0.0,0.0,0.0,0.0,-0.0,-0.0,0.0,0.0,0.0,0.0,-0.0,,0,Sharing Zero Relinquish,10.0,user,0
1449617834639364488,-0.00287963245437,-3.04332289367e-05,0.0,0.0,0.0,0.0052839997518,0.999986039576,1449617834638006794,1,0.0,0.0,0.0,0.0,0.0,0.0,1,-0.0,0.0,0.0,0.0,0.0,-0.0,-0.0,0.0,0.0,0.0,0.0,-0.0,,0,Sharing Zero Relinquish,10.0,user,0
1449617834679073752,-0.00287963245437,-3.04332289367e-05,0.0,0.0,0.0,0.0052839997518,0.999986039576,1449617834678015458,1,0.0,0.0,0.0,0.0,0.0,0.0,1,-0.0,0.0,0.0,0.0,0.0,-0.0,-0.0,0.0,0.0,0.0,0.0,-0.0,,0,Sharing Zero Relinquish,10.0,user,0
1449617834718603223,-0.00287963245437,-3.04332289367e-05,0.0,0.0,0.0,0.0052839997518,0.999986039576,1449617834717988353,1,0.0,0.0,0.0,0.0,0.0,0.0,1,-0.0,0.0,0.0,0.0,0.0,-0.0,-0.0,0.0,0.0,0.0,0.0,-0.0,,0,Sharing Zero Relinquish,10.0,user,0
1449617834758871829,1.60811419144e-07,-3.04332289367e-05,0.0,0.0,0.0,0.0,1.0,1449617834757990173,1,0.0,0.0,0.0,0.0,0.0,0.0,1,-0.0,0.0,0.0,0.0,0.0,-0.0,-0.0,0.0,0.0,0.0,0.0,-0.0,,0,Sharing Zero Relinquish,10.0,user,0
1449617834798582021,1.60811419144e-07,-3.04332289367e-05,0.0,0.0,0.0,0.0,1.0,1449617834798005035,1,0.0,0.0,0.0,0.0,0.0,0.0,1,-0.0,0.0,0.0,0.0,0.0,-0.0,-0.0,0.0,0.0,0.0,0.0,-0.0,,0,Sharing Zero Relinquish,10.0,user,0
1449617834839203400,1.60811419144e-07,-3.04332289367e-05,0.0,0.0,0.0,0.0,1.0,1449617834838026073,1,0.0,0.0,0.0,0.0,0.0,0.0,1,-0.0,0.0,0.0,0.0,0.0,-0.0,-0.0,0.0,0.0,0.0,0.0,-0.0,,0,Sharing Zero Relinquish,10.0,user,0
1449617834878586205,1.60811419144e-07,-3.04332289367e-05,0.0,0.0,0.0,0.0,1.0,1449617834878016409,1,0.0,0.0,0.0,0.0,0.0,0.0,1,-0.0,0.0,0.0,0.0,0.0,-0.0,-0.0,0.0,0.0,0.0,0.0,-0.0,,0,Sharing Zero Relinquish,10.0,user,0
1449617834919081811,1.60811419144e-07,-3.04332289367e-05,0.0,0.0,0.0,0.0,1.0,1449617834918008000,1,0.0,0.0,0.0,0.0,0.0,0.0,1,-0.0,0.0,0.0,0.0,0.0,-0.0,-0.0,0.0,0.0,0.0,0.0,-0.0,,0,Sharing Zero Relinquish,10.0,user,0
1449617834958913895,1.60811419144e-07,-3.04332289367e-05,0.0,0.0,0.0,0.0,1.0,1449617834957998637,1,0.0,0.0,0.0,0.0,0.0,0.0,1,-0.0,0.0,0.0,0.0,0.0,-0.0,-0.0,0.0,0.0,0.0,0.0,-0.0,,0,Sharing Zero Relinquish,10.0,user,0
1449617834998583132,1.60811419144e-07,-3.04332289367e-05,0.0,0.0,0.0,0.0,1.0,1449617834997990220,1,0.0,0.0,0.0,0.0,0.0,0.0,1,-0.0,0.0,0.0,0.0,0.0,-0.0,-0.0,0.0,0.0,0.0,0.0,-0.0,,0,Sharing Zero Relinquish,10.0,user,0
1449617835038864291,1.60811419144e-07,-3.04332289367e-05,0.0,0.0,0.0,0.0,1.0,1449617835038140986,1,0.0,0.0,0.0,0.0,0.0,0.0,1,-0.0,0.0,0.0,0.0,0.0,-0.0,-0.0,0.0,0.0,0.0,0.0,-0.0,,0,Sharing Zero Relinquish,10.0,user,0
1449617835079576303,1.60811419144e-07,-3.04332289367e-05,0.0,0.0,0.0,0.0,1.0,1449617835078012532,1,0.0,0.0,0.0,0.0,0.0,0.0,1,-0.0,0.0,0.0,0.0,0.0,-0.0,-0.0,0.0,0.0,0.0,0.0,-0.0,,0,Sharing Zero Relinquish,10.0,user,0
1449617835118388399,1.60811419144e-07,-3.04332289367e-05,0.0,0.0,0.0,0.0,1.0,1449617835117990027,1,0.0,0.0,0.0,0.0,0.0,0.0,1,-0.0,0.0,0.0,0.0,0.0,-0.0,-0.0,0.0,0.0,0.0,0.0,-0.0,,0,Sharing Zero Relinquish,10.0,user,0
1449617835158723049,1.60811419144e-07,-3.04332289367e-05,0.0,0.0,0.0,0.0,1.0,1449617835157989017,1,0.0,0.0,0.0,0.0,0.0,0.0,1,-0.0,0.0,0.0,0.0,0.0,-0.0,-0.0,0.0,0.0,0.0,0.0,-0.0,,0,Sharing Zero Relinquish,10.0,user,0
1449617835199182814,1.60811419144e-07,-3.04332289367e-05,0.0,0.0,0.0,0.0,1.0,1449617835198001820,1,0.0,0.0,0.0,0.0,0.0,0.0,1,-0.0,0.0,0.0,0.0,0.0,-0.0,-0.0,0.0,0.0,0.0,0.0,-0.0,,0,Sharing Zero Relinquish,10.0,user,0
1449617835238978921,1.60811419144e-07,-3.04332289367e-05,0.0,0.0,0.0,0.0,1.0,1449617835238018888,1,0.0,0.0,0.0,0.0,0.0,0.0,1,-0.0,0.0,0.0,0.0,0.0,-0.0,-0.0,0.0,0.0,0.0,0.0,-0.0,,0,Sharing Zero Relinquish,10.0,user,0
1449617835280026462,1.60811419144e-07,-3.04332289367e-05,0.0,0.0,0.0,0.0,1.0,1449617835278007295,1,0.0,0.0,0.0,0.0,0.0,0.0,1,-0.0,0.0,0.0,0.0,0.0,-0.0,-0.0,0.0,0.0,0.0,0.0,-0.0,,0,Sharing Zero Relinquish,10.0,user,0
1449617835318897389,1.60811419144e-07,-3.04332289367e-05,0.0,0.0,0.0,0.0,1.0,1449617835318395991,1,0.0,0.0,0.0,0.0,0.0,0.0,1,-0.0,0.0,0.0,0.0,0.0,-0.0,-0.0,0.0,0.0,0.0,0.0,-0.0,,0,Sharing Zero Relinquish,10.0,user,0
1449617835359108823,1.60811419144e-07,-3.04332289367e-05,0.0,0.0,0.0,0.0,1.0,1449617835357981145,1,0.0,0.0,0.0,0.0,0.0,0.0,1,-0.0,0.0,0.0,0.0,0.0,-0.0,-0.0,0.0,0.0,0.0,0.0,-0.0,,0,Sharing Zero Relinquish,10.0,user,0
1449617835398262830,1.60811419144e-07,-3.04332289367e-05,0.0,0.0,0.0,0.0,1.0,1449617835397989684,1,0.0,0.0,0.0,0.0,0.0,0.0,1,-0.0,0.0,0.0,0.0,0.0,-0.0,-0.0,0.0,0.0,0.0,0.0,-0.0,,0,Sharing Zero Relinquish,10.0,user,0
1449617835441634550,1.60811419144e-07,-3.04332289367e-05,0.0,0.0,0.0,0.0,1.0,1449617835438003600,1,0.0,0.0,0.0,0.0,0.0,0.0,1,-0.0,0.0,0.0,0.0,0.0,-0.0,-0.0,0.0,0.0,0.0,0.0,-0.0,,0,Sharing Zero Relinquish,10.0,user,0
1449617835479642440,1.60811419144e-07,-3.04332289367e-05,0.0,0.0,0.0,0.0,1.0,1449617835477997364,1,0.0,0.0,0.0,0.0,0.0,0.0,1,-0.0,0.0,0.0,0.0,0.0,-0.0,-0.0,0.0,0.0,0.0,0.0,-0.0,,0,Sharing Zero Relinquish,10.0,user,0
1449617835518877722,1.60811419144e-07,-3.04332289367e-05,0.0,0.0,0.0,0.0,1.0,1449617835517989927,1,0.0,0.0,0.0,0.0,0.0,0.0,1,-0.0,0.0,0.0,0.0,0.0,-0.0,-0.0,0.0,0.0,0.0,0.0,-0.0,,0,Sharing Zero Relinquish,10.0,user,0
1449617835561582698,1.60811419144e-07,-3.04332289367e-05,0.0,0.0,0.0,0.0,1.0,1449617835558000442,1,0.0,0.0,0.0,0.0,0.0,0.0,1,-0.0,0.0,0.0,0.0,0.0,-0.0,-0.0,0.0,0.0,0.0,0.0,-0.0,,0,Sharing Zero Relinquish,10.0,user,0
1449617835599096588,1.60811419144e-07,-3.04332289367e-05,0.0,0.0,0.0,0.0,1.0,1449617835597999099,1,0.0,0.0,0.0,0.0,0.0,0.0,1,-0.0,0.0,0.0,0.0,0.0,-0.0,-0.0,0.0,0.0,0.0,0.0,-0.0,,0,Sharing Zero Relinquish,10.0,user,0
1449617835640760378,1.60811419144e-07,-3.04332289367e-05,0.0,0.0,0.0,0.0,1.0,1449617835638026418,1,0.0,0.0,0.0,0.0,0.0,0.0,1,-0.0,0.0,0.0,0.0,0.0,-0.0,-0.0,0.0,0.0,0.0,0.0,-0.0,,0,Sharing Zero Relinquish,10.0,user,0
1449617835680069796,1.60811419144e-07,-3.04332289367e-05,0.0,0.0,0.0,0.0,1.0,1449617835678012645,1,0.0,0.0,0.0,0.0,0.0,0.0,1,-0.0,0.0,0.0,0.0,0.0,-0.0,-0.0,0.0,0.0,0.0,0.0,-0.0,,0,Sharing Zero Relinquish,10.0,user,0
1449617835720407352,1.60811419144e-07,-3.04332289367e-05,0.0,0.0,0.0,0.0,1.0,1449617835718943836,1,0.0,0.0,0.0,0.0,0.0,0.0,1,-0.0,0.0,0.0,0.0,0.0,-0.0,-0.0,0.0,0.0,0.0,0.0,-0.0,,0,Sharing Zero Relinquish,10.0,user,0
1449617835758862946,1.60811419144e-07,-3.04332289367e-05,0.0,0.0,0.0,0.0,1.0,1449617835757998761,1,0.0,0.0,0.0,0.0,0.0,0.0,1,-0.0,0.0,0.0,0.0,0.0,-0.0,-0.0,0.0,0.0,0.0,0.0,-0.0,,0,Sharing Zero Relinquish,10.0,user,0
1449617835798201506,1.60811419144e-07,-3.04332289367e-05,0.0,0.0,0.0,0.0,1.0,1449617835797982315,1,0.0,0.0,0.0,0.0,0.0,0.0,1,-0.0,0.0,0.0,0.0,0.0,-0.0,-0.0,0.0,0.0,0.0,0.0,-0.0,,0,Sharing Zero Relinquish,10.0,user,0
1449617835843472249,1.60811419144e-07,-3.04332289367e-05,0.0,0.0,0.0,0.0,1.0,1449617835841627835,1,0.0,0.0,0.0,0.0,0.0,0.0,1,-0.0,0.0,0.0,0.0,0.0,-0.0,-0.0,0.0,0.0,0.0,0.0,-0.0,,0,Sharing Zero Relinquish,10.0,user,0
1449617835879473606,1.60811419144e-07,-3.04332289367e-05,0.0,0.0,0.0,0.0,1.0,1449617835878039531,1,0.0,0.0,0.0,0.0,0.0,0.0,1,-0.0,0.0,0.0,0.0,0.0,-0.0,-0.0,0.0,0.0,0.0,0.0,-0.0,,0,Sharing Zero Relinquish,10.0,user,0
1449617835921428018,1.60811419144e-07,-3.04332289367e-05,0.0,0.0,0.0,0.0,1.0,1449617835918011975,1,0.0,0.0,0.0,0.0,0.0,0.0,1,-0.0,0.0,0.0,0.0,0.0,-0.0,-0.0,0.0,0.0,0.0,0.0,-0.0,,0,Sharing Zero Relinquish,10.0,user,0
1449617835958896565,1.60811419144e-07,-3.04332289367e-05,0.0,0.0,0.0,0.0,1.0,1449617835957992555,1,0.0,0.0,0.0,0.0,0.0,0.0,1,-0.0,0.0,0.0,0.0,0.0,-0.0,-0.0,0.0,0.0,0.0,0.0,-0.0,,0,Sharing Zero Relinquish,10.0,user,0
1449617835999064032,-0.00287947164295,-6.08664578733e-05,0.0,0.0,0.0,0.0052839997518,0.999986039576,1449617835998013695,1,0.0,0.0,0.0,0.0,0.0,0.0,1,-0.0,0.0,0.0,0.0,0.0,-0.0,-0.0,0.0,0.0,0.0,0.0,-0.0,,0,Sharing Zero Relinquish,10.0,user,0
1449617836039738685,-0.00287947164295,-6.08664578733e-05,0.0,0.0,0.0,0.0052839997518,0.999986039576,1449617836038010053,1,0.0,0.0,0.0,0.0,0.0,0.0,1,-0.0,0.0,0.0,0.0,0.0,-0.0,-0.0,0.0,0.0,0.0,0.0,-0.0,,0,Sharing Zero Relinquish,10.0,user,0
1449617836079219187,-0.00287947164295,-6.08664578733e-05,0.0,0.0,0.0,0.0052839997518,0.999986039576,1449617836077979531,1,0.0,0.0,0.0,0.0,0.0,0.0,1,-0.0,0.0,0.0,0.0,0.0,-0.0,-0.0,0.0,0.0,0.0,0.0,-0.0,,0,Sharing Zero Relinquish,10.0,user,0
1449617836121206673,0.00287979326579,0.0,0.0,0.0,0.0,0.0052839997518,0.999986039576,1449617836119877297,1,0.0,0.0,0.0,0.0,0.0,0.0,1,-0.0,0.0,0.0,0.0,0.0,-0.0,-0.0,0.0,0.0,0.0,0.0,-0.0,,0,Sharing Zero Relinquish,10.0,user,0
1449617836159269226,0.0,0.0,0.0,0.0,0.0,0.0,1.0,1449617836158632968,1,0.0,0.0,0.0,0.0,0.0,0.0,1,-0.0,0.0,0.0,0.0,0.0,-0.0,-0.0,0.0,0.0,0.0,0.0,-0.0,,0,Sharing Zero Relinquish,10.0,user,0
1449617836198786921,0.0,0.0,0.0,0.0,0.0,0.0,1.0,1449617836198000658,1,0.0,0.0,0.0,0.0,0.0,0.0,1,-0.0,0.0,0.0,0.0,0.0,-0.0,-0.0,0.0,0.0,0.0,0.0,-0.0,,0,Sharing Zero Relinquish,10.0,user,0
1449617836240269519,0.0,0.0,0.0,0.0,0.0,0.0,1.0,1449617836238012385,1,0.0,0.0,0.0,0.0,0.0,0.0,1,-0.0,0.0,0.0,0.0,0.0,-0.0,-0.0,0.0,0.0,0.0,0.0,-0.0,,0,Sharing Zero Relinquish,10.0,user,0
1449617836281966525,0.0,0.0,0.0,0.0,0.0,0.0,1.0,1449617836278036116,1,0.0,0.0,0.0,0.0,0.0,0.0,1,-0.0,0.0,0.0,0.0,0.0,-0.0,-0.0,0.0,0.0,0.0,0.0,-0.0,,0,Sharing Zero Relinquish,10.0,user,0
1449617836318645760,0.0,0.0,0.0,0.0,0.0,0.0,1.0,1449617836317990530,1,0.0,0.0,0.0,0.0,0.0,0.0,1,-0.0,0.0,0.0,0.0,0.0,-0.0,-0.0,0.0,0.0,0.0,0.0,-0.0,,0,Sharing Zero Relinquish,10.0,user,0
1449617836361148626,0.0,0.0,0.0,0.0,0.0,0.0,1.0,1449617836358004935,1,0.0,0.0,0.0,0.0,0.0,0.0,1,-0.0,0.0,0.0,0.0,0.0,-0.0,-0.0,0.0,0.0,0.0,0.0,-0.0,,0,Sharing Zero Relinquish,10.0,user,0
1449617836399810678,0.0,0.0,0.0,0.0,0.0,0.0,1.0,1449617836398031093,1,0.0,0.0,0.0,0.0,0.0,0.0,1,-0.0,0.0,0.0,0.0,0.0,-0.0,-0.0,0.0,0.0,0.0,0.0,-0.0,,0,Sharing Zero Relinquish,10.0,user,0
1449617836460706145,0.0,0.0,0.0,0.0,0.0,0.0,1.0,1449617836456863276,1,0.0,0.0,0.0,0.0,0.0,0.0,1,0.00558730190992,0.0,0.0,0.0,0.0,0.0,0.00558730190992,0.0,0.0,0.0,0.0,0.0,Linear,1,Sharing Zero Relinquish,1.0,user,0
1449617836482116896,0.0,0.0,0.0,0.0,0.0,0.0,1.0,1449617836481687545,1,0.0,0.0,0.0,0.0,0.0,0.0,1,0.00558730190992,0.0,0.0,0.0,0.0,0.0,0.00558730190992,0.0,0.0,0.0,0.0,0.0,Linear,1,Sharing Zero Relinquish,1.0,user,0
1449617836543126787,0.0,0.0,0.0,0.0,0.0,0.0,1.0,1449617836536821846,1,0.0,0.0,0.0,0.0,0.0,0.0,1,0.0111746038198,0.0,0.0,0.0,0.0,0.0,0.0111746038198,0.0,0.0,0.0,0.0,0.0,Linear,1,Sharing Zero Relinquish,1.0,user,0
1449617836568239266,0.0,0.0,0.0,0.0,0.0,0.0,1.0,1449617836567523353,1,0.0,0.0,0.0,0.0,0.0,0.0,1,0.0111746038198,0.0,0.0,0.0,0.0,0.0,0.0111746038198,0.0,0.0,0.0,0.0,0.0,Linear,1,Sharing Zero Relinquish,1.0,user,0
1449617836631799061,0.0,0.0,0.0,0.0,0.0,0.0,1.0,1449617836626005003,1,0.0,0.0,0.0,0.0,0.0,0.0,1,0.0111746038198,0.0,0.0,0.0,0.0,0.0,0.0111746038198,0.0,0.0,0.0,0.0,0.0,Linear,1,Sharing Zero Relinquish,1.0,user,0
1449617836658975994,0.0,0.0,0.0,0.0,0.0,0.0,1.0,1449617836657578377,1,0.0,0.0,0.0,0.0,0.0,0.0,1,0.346412698746,0.0,0.0,0.0,0.0,-0.00634920671582,0.346412698746,0.0,0.0,0.0,0.0,-0.00634920671582,Linear,1,Sharing Zero Relinquish,1.0,user,0
1449617836689285833,0.0,0.0,0.0,0.0,0.0,0.0,1.0,1449617836688570951,1,0.0,0.0,0.0,0.0,0.0,0.0,1,0.346412698746,0.0,0.0,0.0,0.0,-0.00634920671582,0.346412698746,0.0,0.0,0.0,0.0,-0.00634920671582,Linear,1,Sharing Zero Relinquish,1.0,user,0
1449617836723567770,0.0,0.0,0.0,0.0,0.0,0.0,1.0,1449617836722305462,1,0.0,0.0,0.0,0.0,0.0,0.0,1,0.352,0.0,0.0,0.0,0.0,-0.00634920671582,0.352,0.0,0.0,0.0,0.0,-0.00634920671582,Linear,1,Sharing Zero Relinquish,1.0,user,0
1449617836768916356,0.0,0.0,0.0,0.0,0.0,0.0,1.0,1449617836768317595,1,0.0,0.0,0.0,0.0,0.0,0.0,1,0.352,0.0,0.0,0.0,0.0,-0.00634920671582,0.352,0.0,0.0,0.0,0.0,-0.00634920671582,Linear,1,Sharing Zero Relinquish,1.0,user,0
1449617836805548954,0.0,0.0,0.0,0.0,0.0,0.0,1.0,1449617836804068812,1,0.0,0.0,0.0,0.0,0.0,0.0,1,0.352,0.0,0.0,0.0,0.0,-0.00634920671582,0.352,0.0,0.0,0.0,0.0,-0.00634920671582,Linear,1,Sharing Zero Relinquish,1.0,user,0
1449617836857488897,0.0,0.0,0.0,0.0,0.0,0.0,1.0,1449617836856233054,1,0.0,0.0,0.0,0.0,0.0,0.0,1,0.346412698746,0.0,0.0,0.0,0.0,-0.00634920671582,0.346412698746,0.0,0.0,0.0,0.0,-0.00634920671582,Linear,1,Sharing Zero Relinquish,1.0,user,0
1449617836893344608,0.0,0.0,0.0,0.0,0.0,0.0,1.0,1449617836888783661,1,0.0,0.0,0.0,0.0,0.0,0.0,1,0.346412698746,0.0,0.0,0.0,0.0,-0.00634920671582,0.346412698746,0.0,0.0,0.0,0.0,-0.00634920671582,Linear,1,Sharing Zero Relinquish,1.0,user,0
1449617836925301385,0.0,0.0,0.0,0.0,0.0,0.0,1.0,1449617836923921966,1,0.0,0.0,0.0,0.0,0.0,0.0,1,0.184380962372,0.0,0.0,0.0,0.0,0.0,0.184380962372,0.0,0.0,0.0,0.0,0.0,Linear,1,Sharing Zero Relinquish,1.0,user,0
1449617837019206551,0.0,0.0,0.0,0.0,0.0,0.0,1.0,1449617837017679549,1,0.0,0.0,0.0,0.0,0.0,0.0,1,0.184380962372,0.0,0.0,0.0,0.0,0.0,0.184380962372,0.0,0.0,0.0,0.0,0.0,Linear,1,Sharing Zero Relinquish,1.0,user,0
1449617837034993771,0.0,0.0,0.0,0.0,0.0,0.0,1.0,1449617837029851204,1,0.0,0.0,0.0,0.0,0.0,0.0,1,0.184380962372,0.0,0.0,0.0,0.0,0.0,0.184380962372,0.0,0.0,0.0,0.0,0.0,Linear,1,Sharing Zero Relinquish,1.0,user,0
1449617837054866902,0.0,0.0,0.0,0.0,0.0,0.0,1.0,1449617837053933982,1,0.0,0.0,0.0,0.0,0.0,0.0,1,0.167619048119,0.0,0.0,0.0,0.0,0.0,0.167619048119,0.0,0.0,0.0,0.0,0.0,Linear,1,Sharing Zero Relinquish,1.0,user,0
1449617837124935556,0.0,0.0,0.0,0.0,0.0,0.0,1.0,1449617837123984441,1,0.12,0.0,0.0,0.0,0.0,-0.0210526315789,1,0.167619048119,0.0,0.0,0.0,0.0,0.0,0.167619048119,0.0,0.0,0.0,0.0,0.0,Linear,1,Sharing Zero Relinquish,1.0,user,0
1449617837133156572,0.0,0.0,0.0,0.0,0.0,0.0,1.0,1449617837132752041,1,0.12,0.0,0.0,0.0,0.0,-0.0210526315789,1,0.167619048119,0.0,0.0,0.0,0.0,0.0,0.167619048119,0.0,0.0,0.0,0.0,0.0,Linear,1,Sharing Zero Relinquish,1.0,user,0
1449617837171132768,0.0,0.0,0.0,0.0,0.0,0.0,1.0,1449617837170678275,1,0.12,0.0,0.0,0.0,0.0,-0.0210526315789,1,0.184380962372,0.0,0.0,0.0,0.0,0.0,0.184380962372,0.0,0.0,0.0,0.0,0.0,Linear,1,Sharing Zero Relinquish,1.0,user,0
1449617837205152372,0.0,0.0,0.0,0.0,0.0,0.0,1.0,1449617837202650137,1,0.12,0.0,0.0,0.0,0.0,-0.0210526315789,1,0.184380962372,0.0,0.0,0.0,0.0,0.0,0.184380962372,0.0,0.0,0.0,0.0,0.0,Linear,1,Sharing Zero Relinquish,1.0,user,0
1449617837260253805,0.0,0.0,0.0,0.0,0.0,0.0,1.0,1449617837258218572,1,0.12,0.0,0.0,0.0,0.0,-0.0210526315789,1,0.189968263626,0.0,0.0,0.0,0.0,0.0,0.189968263626,0.0,0.0,0.0,0.0,0.0,Linear,1,Sharing Zero Relinquish,1.0,user,0
1449617837289171784,0.0,0.0,0.0,0.0,0.0,0.0,1.0,1449617837288027228,1,0.12,0.0,0.0,0.0,0.0,-0.0210526315789,1,0.189968263626,0.0,0.0,0.0,0.0,0.0,0.189968263626,0.0,0.0,0.0,0.0,0.0,Linear,1,Sharing Zero Relinquish,1.0,user,0
1449617837325557462,0.0,0.0,0.0,0.0,0.0,0.0,1.0,1449617837324490683,1,0.12,0.0,0.0,0.0,0.0,-0.0210526315789,1,0.167619048119,0.0,0.0,0.0,0.0,0.0,0.167619048119,0.0,0.0,0.0,0.0,0.0,Linear,1,Sharing Zero Relinquish,1.0,user,0
1449617837410773646,0.0,0.0,0.0,0.0,0.0,0.0,1.0,1449617837405928839,1,0.12,0.0,0.0,0.0,0.0,-0.0210526315789,1,0.167619048119,0.0,0.0,0.0,0.0,0.0,0.167619048119,0.0,0.0,0.0,0.0,0.0,Linear,1,Sharing Zero Relinquish,1.0,user,0
1449617837434013570,0.0,0.0,0.0,0.0,0.0,0.0,1.0,1449617837432470125,1,0.12,0.0,0.0,0.0,0.0,-0.0210526315789,1,0.167619048119,0.0,0.0,0.0,0.0,0.0,0.167619048119,0.0,0.0,0.0,0.0,0.0,Linear,1,Sharing Zero Relinquish,1.0,user,0
1449617837445901868,0.00287963245437,3.04332289367e-05,0.0,0.0,0.0,0.0052839997518,0.999986039576,1449617837445057114,1,0.12,0.0,0.0,0.0,0.0,-0.0210526315789,1,0.189968263626,0.0,0.0,0.0,0.0,0.0,0.189968263626,0.0,0.0,0.0,0.0,0.0,Linear,1,Sharing Zero Relinquish,1.0,user,0
1449617837543408369,0.00287963245437,3.04332289367e-05,0.0,0.0,0.0,0.0052839997518,0.999986039576,1449617837542705135,1,0.12,0.0,0.0,0.0,0.0,-0.0210526315789,1,0.189968263626,0.0,0.0,0.0,0.0,0.0,0.189968263626,0.0,0.0,0.0,0.0,0.0,Linear,1,Sharing Zero Relinquish,1.0,user,0
1449617837552774780,0.00287963245437,3.04332289367e-05,0.0,0.0,0.0,0.0052839997518,0.999986039576,1449617837552277219,1,0.12,0.0,0.0,0.0,0.0,-0.0210526315789,1,0.189968263626,0.0,0.0,0.0,0.0,0.0,0.189968263626,0.0,0.0,0.0,0.0,0.0,Linear,1,Sharing Zero Relinquish,1.0,user,0
1449617837568871230,0.00287963245437,3.04332289367e-05,0.0,0.0,0.0,0.0052839997518,0.999986039576,1449617837567966360,1,0.12,0.0,0.0,0.0,0.0,-0.0210526315789,1,0.189968263626,0.0,0.0,0.0,0.0,0.0,0.189968263626,0.0,0.0,0.0,0.0,0.0,Linear,1,Sharing Zero Relinquish,1.0,user,0
1449617837658241541,0.00287963245437,3.04332289367e-05,0.0,0.0,0.0,0.0052839997518,0.999986039576,1449617837656743643,1,0.12,0.0,0.0,0.0,0.0,-0.0210526315789,1,0.189968263626,0.0,0.0,0.0,0.0,0.0,0.189968263626,0.0,0.0,0.0,0.0,0.0,Linear,1,Sharing Zero Relinquish,1.0,user,0
1449617837669298001,0.00287963245437,3.04332289367e-05,0.0,0.0,0.0,0.0052839997518,0.999986039576,1449617837667770926,1,0.12,0.0,0.0,0.0,0.0,-0.0210526315789,1,0.189968263626,0.0,0.0,0.0,0.0,0.0,0.189968263626,0.0,0.0,0.0,0.0,0.0,Linear,1,Sharing Zero Relinquish,1.0,user,0
1449617837685728428,0.00287963245437,3.04332289367e-05,0.0,0.0,0.0,0.0052839997518,0.999986039576,1449617837685370587,1,0.12,0.0,0.0,0.0,0.0,-0.0631578947368,1,0.189968263626,0.0,0.0,0.0,0.0,0.0,0.189968263626,0.0,0.0,0.0,0.0,0.0,Linear,1,Sharing Zero Relinquish,1.0,user,0
1449617837750910882,0.00287963245437,3.04332289367e-05,0.0,0.0,0.0,0.0052839997518,0.999986039576,1449617837750352029,1,0.12,0.0,0.0,0.0,0.0,-0.0631578947368,1,0.189968263626,0.0,0.0,0.0,0.0,0.0,0.189968263626,0.0,0.0,0.0,0.0,0.0,Linear,1,Sharing Zero Relinquish,1.0,user,0
1449617837770360994,0.00863889736311,9.129968681e-05,0.0,0.0,0.0,0.0052839997518,0.999986039576,1449617837768630042,1,0.12,0.0,0.0,0.0,0.0,-0.0631578947368,1,0.189968263626,0.0,0.0,0.0,0.0,0.0,0.189968263626,0.0,0.0,0.0,0.0,0.0,Linear,1,Sharing Zero Relinquish,1.0,user,0
1449617837805937880,0.00863889736311,9.129968681e-05,0.0,0.0,0.0,0.0052839997518,0.999986039576,1449617837805354549,1,0.12,0.0,0.0,0.0,0.0,-0.0631578947368,1,0.189968263626,0.0,0.0,0.0,0.0,0.0,0.189968263626,0.0,0.0,0.0,0.0,0.0,Linear,1,Sharing Zero Relinquish,1.0,user,0
1449617837842524615,0.00863889736311,9.129968681e-05,0.0,0.0,0.0,0.0052839997518,0.999986039576,1449617837842109270,1,0.12,0.0,0.0,0.0,0.0,-0.0631578947368,1,0.189968263626,0.0,0.0,0.0,0.0,0.0,0.189968263626,0.0,0.0,0.0,0.0,0.0,Linear,1,Sharing Zero Relinquish,1.0,user,0
1449617837921493184,0.0115180474012,0.000152162745821,0.0,0.0,0.0,0.0105678519699,0.999944158693,1449617837920401887,1,0.12,0.0,0.0,0.0,0.0,-0.0631578947368,1,0.189968263626,0.0,0.0,0.0,0.0,0.0,0.189968263626,0.0,0.0,0.0,0.0,0.0,Linear,1,Sharing Zero Relinquish,1.0,user,0
1449617837936434942,0.0143976798556,0.000182595974757,0.0,0.0,0.0,0.0052839997518,0.999986039576,1449617837934840221,1,0.12,0.0,0.0,0.0,0.0,-0.0631578947368,1,0.189968263626,0.0,0.0,0.0,0.0,0.0,0.189968263626,0.0,0.0,0.0,0.0,0.0,Linear,1,Sharing Zero Relinquish,1.0,user,0
1449617837971237475,0.0143976798556,0.000182595974757,0.0,0.0,0.0,0.0052839997518,0.999986039576,1449617837970332772,1,0.12,0.0,0.0,0.0,0.0,-0.0631578947368,1,0.173206349373,0.0,0.0,0.0,0.0,0.0,0.173206349373,0.0,0.0,0.0,0.0,0.0,Linear,1,Sharing Zero Relinquish,1.0,user,0
1449617838020495677,0.0172768298936,0.000243459033768,0.0,0.0,0.0,0.0105678519699,0.999944158693,1449617838018520010,1,0.12,0.0,0.0,0.0,0.0,-0.0631578947368,1,0.173206349373,0.0,0.0,0.0,0.0,0.0,0.173206349373,0.0,0.0,0.0,0.0,0.0,Linear,1,Sharing Zero Relinquish,1.0,user,0
1449617838069892958,0.0172768298936,0.000243459033768,0.0,0.0,0.0,0.0105678519699,0.999944158693,1449617838066124918,1,0.12,0.0,0.0,0.0,0.0,-0.0631578947368,1,0.189968263626,0.0,0.0,0.0,0.0,0.0,0.189968263626,0.0,0.0,0.0,0.0,0.0,Linear,1,Sharing Zero Relinquish,1.0,user,0
1449617838093421000,0.0230343260025,0.000395608184518,0.0,0.0,0.0,0.0105678519699,0.999944158693,1449617838091584182,1,0.12,0.0,0.0,0.0,0.0,-0.0631578947368,1,0.189968263626,0.0,0.0,0.0,0.0,0.0,0.189968263626,0.0,0.0,0.0,0.0,0.0,Linear,1,Sharing Zero Relinquish,1.0,user,0
1449617838166461215,0.0230343260025,0.000395608184518,0.0,0.0,0.0,0.0105678519699,0.999944158693,1449617838164839483,1,0.12,0.0,0.0,0.0,0.0,-0.0631578947368,1,0.189968263626,0.0,0.0,0.0,0.0,0.0,0.189968263626,0.0,0.0,0.0,0.0,0.0,Linear,1,Sharing Zero Relinquish,1.0,user,0
1449617838179399326,0.0259126720733,0.000486894276258,0.0,0.0,0.0,0.0158514091245,0.999874358521,1449617838177585976,1,0.12,0.0,0.0,0.0,0.0,-0.105263157895,1,0.189968263626,0.0,0.0,0.0,0.0,0.0,0.189968263626,0.0,0.0,0.0,0.0,0.0,Linear,1,Sharing Zero Relinquish,1.0,user,0
1449617838204963265,0.0259126720733,0.000486894276258,0.0,0.0,0.0,0.0158514091245,0.999874358521,1449617838204598157,1,0.12,0.0,0.0,0.0,0.0,-0.105263157895,1,0.189968263626,0.0,0.0,0.0,0.0,-0.00634920671582,0.189968263626,0.0,0.0,0.0,0.0,-0.00634920671582,Linear,1,Sharing Zero Relinquish,1.0,user,0
1449617838247396512,0.0316693642148,0.000669466459736,0.0,0.0,0.0,0.0158514091245,0.999874358521,1449617838246637077,1,0.12,0.0,0.0,0.0,0.0,-0.0631578947368,1,0.189968263626,0.0,0.0,0.0,0.0,-0.00634920671582,0.189968263626,0.0,0.0,0.0,0.0,-0.00634920671582,Linear,1,Sharing Zero Relinquish,1.0,user,0
1449617838303392274,0.0316693642148,0.000669466459736,0.0,0.0,0.0,0.0158514091245,0.999874358521,1449617838301946533,1,0.12,0.0,0.0,0.0,0.0,-0.0631578947368,1,0.189968263626,0.0,0.0,0.0,0.0,-0.00634920671582,0.189968263626,0.0,0.0,0.0,0.0,-0.00634920671582,Linear,1,Sharing Zero Relinquish,1.0,user,0
1449617838326454483,0.0374260563564,0.000852038643215,0.0,0.0,0.0,0.0158514091245,0.999874358521,1449617838325742946,1,0.12,0.0,0.0,0.0,0.0,-0.0631578947368,1,0.189968263626,0.0,0.0,0.0,0.0,-0.00634920671582,0.189968263626,0.0,0.0,0.0,0.0,-0.00634920671582,Linear,1,Sharing Zero Relinquish,1.0,user,0
1449617838368859376,0.0374260563564,0.000852038643215,0.0,0.0,0.0,0.0158514091245,0.999874358521,1449617838367411790,1,0.12,0.0,0.0,0.0,0.0,-0.0631578947368,1,0.346412698746,0.0,0.0,0.0,0.0,0.0,0.346412698746,0.0,0.0,0.0,0.0,0.0,Linear,1,Sharing Zero Relinquish,1.0,user,0
1449617838408889034,0.0403032769986,0.000973737572614,0.0,0.0,0.0,0.0211345236944,0.999776641009,1449617838407952602,1,0.12,0.0,0.0,0.0,0.0,-0.0631578947368,1,0.346412698746,0.0,0.0,0.0,0.0,0.0,0.346412698746,0.0,0.0,0.0,0.0,0.0,Linear,1,Sharing Zero Relinquish,1.0,user,0
1449617838447026753,0.0460577182832,0.00121713543141,0.0,0.0,0.0,0.0211345236944,0.999776641009,1449617838446240528,1,0.12,0.0,0.0,0.0,0.0,-0.0631578947368,1,0.307301589966,0.0,0.0,0.0,0.0,-0.00634920671582,0.307301589966,0.0,0.0,0.0,0.0,-0.00634920671582,Linear,1,Sharing Zero Relinquish,1.0,user,0
1449617838485970942,0.0460577182832,0.00121713543141,0.0,0.0,0.0,0.0211345236944,0.999776641009,1449617838485148012,1,0.12,0.0,0.0,0.0,0.0,-0.0631578947368,1,0.307301589966,0.0,0.0,0.0,0.0,-0.00634920671582,0.307301589966,0.0,0.0,0.0,0.0,-0.00634920671582,Linear,1,Sharing Zero Relinquish,1.0,user,0
1449617838530748777,0.0489334921614,0.00136923360681,0.0,0.0,0.0,0.0264170481704,0.999651008886,1449617838529307838,1,0.12,0.0,0.0,0.0,0.0,-0.0631578947368,1,0.307301589966,0.0,0.0,0.0,0.0,-0.00634920671582,0.307301589966,0.0,0.0,0.0,0.0,-0.00634920671582,Linear,1,Sharing Zero Relinquish,1.0,user,0
1449617838569801291,0.0518107128037,0.00149093253621,0.0,0.0,0.0,0.0211345236944,0.999776641009,1449617838567962427,1,0.12,0.0,0.0,0.0,0.0,-0.0631578947368,1,0.346412698746,0.0,0.0,0.0,0.0,-0.00634920671582,0.346412698746,0.0,0.0,0.0,0.0,-0.00634920671582,Linear,1,Sharing Zero Relinquish,1.0,user,0
1449617838610705245,0.0546864866819,0.00164303071162,0.0,0.0,0.0,0.0264170481704,0.999651008886,1449617838610092902,1,0.12,0.0,0.0,0.0,0.0,-0.0631578947368,1,0.346412698746,0.0,0.0,0.0,0.0,-0.00634920671582,0.346412698746,0.0,0.0,0.0,0.0,-0.00634920671582,Linear,1,Sharing Zero Relinquish,1.0,user,0
1449617838682984103,0.0604380344384,0.00194722706242,0.0,0.0,0.0,0.0264170481704,0.999651008886,1449617838681689763,1,0.12,0.0,0.0,0.0,0.0,-0.0631578947368,1,0.340825397491,0.0,0.0,0.0,0.0,-0.00634920671582,0.340825397491,0.0,0.0,0.0,0.0,-0.00634920671582,Linear,1,Sharing Zero Relinquish,1.0,user,0
1449617838695053342,0.0661895821948,0.00225142341323,0.0,0.0,0.0,0.0264170481704,0.999651008886,1449617838694470776,1,0.12,0.0,0.0,0.0,0.0,-0.0631578947368,1,0.340825397491,0.0,0.0,0.0,0.0,-0.00634920671582,0.340825397491,0.0,0.0,0.0,0.0,-0.00634920671582,Linear,1,Sharing Zero Relinquish,1.0,user,0
1449617838724534077,0.0661895821948,0.00225142341323,0.0,0.0,0.0,0.0264170481704,0.999651008886,1449617838723943360,1,0.12,0.0,0.0,0.0,0.0,-0.0631578947368,1,0.346412698746,0.0,0.0,0.0,0.0,-0.0126984134316,0.346412698746,0.0,0.0,0.0,0.0,-0.0126984134316,Linear,1,Sharing Zero Relinquish,1.0,user,0
1449617838821559418,0.0719411299513,0.00255561976404,0.0,0.0,0.0,0.0264170481704,0.999651008886,1449617838809923694,1,0.12,0.0,0.0,0.0,0.0,-0.0631578947368,1,0.346412698746,0.0,0.0,0.0,0.0,-0.0126984134316,0.346412698746,0.0,0.0,0.0,0.0,-0.0126984134316,Linear,1,Sharing Zero Relinquish,1.0,user,0
1449617838821564273,0.0805631477721,0.0031030610681,0.0,0.0,0.0,0.0316988350601,0.999497465658,1449617838819257981,1,0.12,0.0,0.0,0.0,0.0,-0.0631578947368,1,0.346412698746,0.0,0.0,0.0,0.0,-0.0126984134316,0.346412698746,0.0,0.0,0.0,0.0,-0.0126984134316,Linear,1,Sharing Zero Relinquish,1.0,user,0
1449617838851613146,0.0805631477721,0.0031030610681,0.0,0.0,0.0,0.0316988350601,0.999497465658,1449617838849337569,1,0.12,0.0,0.0,0.0,0.0,-0.0631578947368,1,0.346412698746,0.0,0.0,0.0,0.0,-0.0190476194024,0.346412698746,0.0,0.0,0.0,0.0,-0.0190476194024,Linear,1,Sharing Zero Relinquish,1.0,user,0
1449617838961787715,0.0863111596526,0.00346802193747,0.0,0.0,0.0,0.0316988350601,0.999497465658,1449617838960566164,1,0.12,0.0,0.0,0.0,0.0,-0.0631578947368,1,0.346412698746,0.0,0.0,0.0,0.0,-0.0190476194024,0.346412698746,0.0,0.0,0.0,0.0,-0.0190476194024,Linear,1,Sharing Zero Relinquish,1.0,user,0
1449617838990720976,0.100670744782,0.00453223350786,0.0,0.0,0.0,0.0369797368913,0.999316015612,1449617838989881075,1,0.12,0.0,0.0,0.0,0.0,-0.105263157895,1,0.346412698746,0.0,0.0,0.0,0.0,-0.0190476194024,0.346412698746,0.0,0.0,0.0,0.0,-0.0190476194024,Linear,1,Sharing Zero Relinquish,1.0,user,0
1449617839014686520,0.106414578833,0.00495791813602,0.0,0.0,0.0,0.0369797368913,0.999316015612,1449617839013897175,1,0.12,0.0,0.0,0.0,0.0,-0.105263157895,1,0.335238096237,0.0,0.0,0.0,0.0,-0.0761904776096,0.335238096237,0.0,0.0,0.0,0.0,-0.0761904776096,Linear,1,Sharing Zero Relinquish,1.0,user,0
1449617839058782952,0.106414578833,0.00495791813602,0.0,0.0,0.0,0.0369797368913,0.999316015612,1449617839057109408,1,0.12,0.0,0.0,0.0,0.0,-0.105263157895,1,0.335238096237,0.0,0.0,0.0,0.0,-0.0761904776096,0.335238096237,0.0,0.0,0.0,0.0,-0.0761904776096,Linear,1,Sharing Zero Relinquish,1.0,user,0
1449617839097230759,0.115023100938,0.00568745940406,0.0,0.0,0.0,0.042259606217,0.999106663816,1449617839095014438,1,0.0,0.0,0.0,0.0,0.0,-0.31,1,0.335238096237,0.0,0.0,0.0,0.0,-0.0761904776096,0.335238096237,0.0,0.0,0.0,0.0,-0.0761904776096,Linear,1,Sharing Zero Relinquish,1.0,user,0
1449617839134983115,0.120762115674,0.00617382024943,0.0,0.0,0.0,0.042259606217,0.999106663816,1449617839131768783,1,0.0,0.0,0.0,0.0,0.0,-0.31,1,0.335238096237,0.0,0.0,0.0,0.0,-0.0761904776096,0.335238096237,0.0,0.0,0.0,0.0,-0.0761904776096,Linear,1,Sharing Zero Relinquish,1.0,user,0
1449617839167405377,0.12650113041,0.0066601810948,0.0,0.0,0.0,0.042259606217,0.999106663816,1449617839166529118,1,0.0,0.0,0.0,0.0,0.0,-0.31,1,0.335238096237,0.0,0.0,0.0,0.0,-0.0761904776096,0.335238096237,0.0,0.0,0.0,0.0,-0.0761904776096,Linear,1,Sharing Zero Relinquish,1.0,user,0
1449617839237609208,0.135101462119,0.00748065521159,0.0,0.0,0.0,0.0475382956186,0.998869416115,1449617839231382956,1,0.0,0.0,0.0,0.0,0.0,-0.31,1,0.335238096237,0.0,0.0,0.0,0.0,-0.0761904776096,0.335238096237,0.0,0.0,0.0,0.0,-0.0761904776096,Linear,1,Sharing Zero Relinquish,1.0,user,0
1449617839250640034,0.152310315933,0.00903067059643,0.0,0.0,0.0,0.0475382956186,0.998869416115,1449617839249384277,1,0.0,0.0,0.0,0.0,0.0,-0.315789473684,1,0.329650794983,0.0,0.0,0.0,0.0,-0.0698412716389,0.329650794983,0.0,0.0,0.0,0.0,-0.0698412716389,Linear,1,Sharing Zero Relinquish,1.0,user,0
1449617839290583211,0.152310315933,0.00903067059643,0.0,0.0,0.0,0.0475382956186,0.998869416115,1449617839290186732,1,0.0,0.0,0.0,0.0,0.0,-0.4,1,0.329650794983,0.0,0.0,0.0,0.0,-0.0698412716389,0.329650794983,0.0,0.0,0.0,0.0,-0.0698412716389,Linear,1,Sharing Zero Relinquish,1.0,user,0
1449617839330947009,0.158043870405,0.00957765334095,0.0,0.0,0.0,0.0475382956186,0.998869416115,1449617839328394319,1,0.0,0.0,0.0,0.0,0.0,-0.4,1,0.329650794983,0.0,0.0,0.0,0.0,-0.0698412716389,0.329650794983,0.0,0.0,0.0,0.0,-0.0698412716389,Linear,1,Sharing Zero Relinquish,1.0,user,0
1449617839427454072,0.169510979351,0.01067161883,0.0,0.0,0.0,0.0475382956186,0.998869416115,1449617839427133869,1,0.0,0.0,0.0,0.0,0.0,-0.4,1,0.324063493729,0.0,0.0,0.0,0.0,-0.126984131336,0.0,0.0,0.0,0.0,0.0,-0.4,Linear,1,Sharing Zero Relinquish,0.0,user,0
1449617839460598500,0.195302823575,0.0132238823964,0.0,0.0,0.0,0.0528156577107,0.998604279132,1449617839458894905,1,0.0,0.0,0.0,0.0,0.0,-0.4,1,0.324063493729,0.0,0.0,0.0,0.0,-0.126984131336,0.0,0.0,0.0,0.0,0.0,-0.4,Linear,1,Sharing Zero Relinquish,0.0,user,0
1449617839471410026,0.195302823575,0.0132238823964,0.0,0.0,0.0,0.0528156577107,0.998604279132,1449617839470927454,1,0.0,0.0,0.0,0.0,0.0,0.0,1,0.279365083694,0.0,0.0,0.0,0.0,-0.101587307453,0.279365083694,0.0,0.0,0.0,0.0,-0.101587307453,Linear,1,Sharing Zero Relinquish,1.0,user,0
1449617839507491650,0.206757731317,0.0144389695069,0.0,0.0,0.0,0.0528156577107,0.998604279132,1449617839506844053,1,0.0,0.0,0.0,0.0,0.0,0.0,1,0.329650794983,0.0,0.0,0.0,0.0,-0.126984131336,0.329650794983,0.0,0.0,0.0,0.0,-0.126984131336,Linear,1,Sharing Zero Relinquish,1.0,user,0
1449617839528737491,0.218212639059,0.0156540566173,0.0,0.0,0.0,0.0528156577107,0.998604279132,1449617839528356414,1,0.0,0.0,0.0,0.0,0.0,0.0,1,0.329650794983,0.0,0.0,0.0,0.0,-0.126984131336,0.329650794983,0.0,0.0,0.0,0.0,-0.126984131336,Linear,1,Sharing Zero Relinquish,1.0,user,0
1449617839596997362,0.218212639059,0.0156540566173,0.0,0.0,0.0,0.0528156577107,0.998604279132,1449617839596031060,1,0.0,0.0,0.0,0.0,0.0,0.0,1,0.329650794983,0.0,0.0,0.0,0.0,-0.126984131336,0.329650794983,0.0,0.0,0.0,0.0,-0.126984131336,Linear,1,Sharing Zero Relinquish,1.0,user,0
1449617839613963230,0.235395000672,0.017476687283,0.0,0.0,0.0,0.0528156577107,0.998604279132,1449617839613065904,1,0.0,0.0,0.0,0.0,0.0,0.0,1,0.329650794983,0.0,0.0,0.0,0.0,-0.126984131336,0.329650794983,0.0,0.0,0.0,0.0,-0.126984131336,Linear,1,Sharing Zero Relinquish,1.0,user,0
1449617839650663167,0.235395000672,0.017476687283,0.0,0.0,0.0,0.0528156577107,0.998604279132,1449617839649156605,1,0.0,0.0,0.0,0.0,0.0,0.0,1,0.329650794983,0.0,0.0,0.0,0.0,-0.120634925365,0.329650794983,0.0,0.0,0.0,0.0,-0.120634925365,Linear,1,Sharing Zero Relinquish,1.0,user,0
1449617839733236150,0.246849908414,0.0186917743934,0.0,0.0,0.0,0.0528156577107,0.998604279132,1449617839730100809,1,0.0,0.0,0.0,0.0,0.0,0.0,1,0.329650794983,0.0,0.0,0.0,0.0,-0.120634925365,0.329650794983,0.0,0.0,0.0,0.0,-0.120634925365,Linear,1,Sharing Zero Relinquish,1.0,user,0
1449617839739708188,0.266872406056,0.021029902192,0.0,0.0,0.0,0.0580915451448,0.99831126027,1449617839739233512,1,0.0,0.0,0.0,0.0,0.0,0.0,1,0.329650794983,0.0,0.0,0.0,0.0,-0.120634925365,0.329650794983,0.0,0.0,0.0,0.0,-0.120634925365,Linear,1,Sharing Zero Relinquish,1.0,user,0
1449617839789447017,0.266872406056,0.021029902192,0.0,0.0,0.0,0.0580915451448,0.99831126027,1449617839779170245,1,0.0,0.0,0.0,0.0,0.0,0.0,1,0.329650794983,0.0,0.0,0.0,0.0,-0.126984131336,0.329650794983,0.0,0.0,0.0,0.0,-0.126984131336,Linear,1,Sharing Zero Relinquish,1.0,user,0
1449617839836450527,0.281191040733,0.02254876108,0.0,0.0,0.0,0.0528156577107,0.998604279132,1449617839835061380,1,0.0,0.0,0.0,0.0,0.0,0.0,1,0.329650794983,0.0,0.0,0.0,0.0,-0.126984131336,0.329650794983,0.0,0.0,0.0,0.0,-0.126984131336,Linear,1,Sharing Zero Relinquish,1.0,user,0
1449617839849927479,0.301227018893,0.0247659029613,0.0,0.0,0.0,0.0580915451448,0.99831126027,1449617839849477509,1,0.0,0.0,0.0,0.0,0.0,0.0,1,0.329650794983,0.0,0.0,0.0,0.0,-0.126984131336,0.329650794983,0.0,0.0,0.0,0.0,-0.126984131336,Linear,1,Sharing Zero Relinquish,1.0,user,0
1449617839895107740,0.301227018893,0.0247659029613,0.0,0.0,0.0,0.0580915451448,0.99831126027,1449617839894262779,1,0.0,0.0,0.0,0.0,0.0,0.0,1,0.329650794983,0.0,0.0,0.0,0.0,-0.126984131336,0.329650794983,0.0,0.0,0.0,0.0,-0.126984131336,Linear,1,Sharing Zero Relinquish,1.0,user,0
1449617839936586913,0.312668446117,0.026101975989,0.0,0.0,0.0,0.0580915451448,0.99831126027,1449617839935126506,1,0.0,0.0,0.0,0.0,0.0,0.0,1,0.329650794983,0.0,0.0,0.0,0.0,-0.126984131336,0.329650794983,0.0,0.0,0.0,0.0,-0.126984131336,Linear,1,Sharing Zero Relinquish,1.0,user,0
1449617839973488401,0.326987080794,0.0276208348771,0.0,0.0,0.0,0.0528156577107,0.998604279132,1449617839972287690,1,0.0,0.0,0.0,0.0,0.0,0.0,1,0.329650794983,0.0,0.0,0.0,0.0,-0.120634925365,0.329650794983,0.0,0.0,0.0,0.0,-0.120634925365,Linear,1,Sharing Zero Relinquish,1.0,user,0
1449617840012485998,0.338441988536,0.0288359219875,0.0,0.0,0.0,0.0528156577107,0.998604279132,1449617840011205775,1,0.0,0.0,0.0,0.0,0.0,0.0,1,0.329650794983,0.0,0.0,0.0,0.0,-0.120634925365,0.329650794983,0.0,0.0,0.0,0.0,-0.120634925365,Linear,1,Sharing Zero Relinquish,1.0,user,0
1449617840100391394,0.344169442407,0.0294434655428,0.0,0.0,0.0,0.0528156577107,0.998604279132,1449617840099239702,1,0.0,0.0,0.0,0.0,0.0,0.0,1,0.329650794983,0.0,0.0,0.0,0.0,-0.126984131336,0.329650794983,0.0,0.0,0.0,0.0,-0.126984131336,Linear,1,Sharing Zero Relinquish,1.0,user,0
1449617840115324145,0.369970437534,0.0319048878931,0.0,0.0,0.0,0.0475382956186,0.998869416115,1449617840114946403,1,0.0,0.0,0.0,0.0,0.0,0.0,1,0.329650794983,0.0,0.0,0.0,0.0,-0.126984131336,0.329650794983,0.0,0.0,0.0,0.0,-0.126984131336,Linear,1,Sharing Zero Relinquish,1.0,user,0
1449617840131432023,0.37856161834,0.032816203226,0.0,0.0,0.0,0.0528156577107,0.998604279132,1449617840130737297,1,0.0,0.0,0.0,0.0,0.0,0.0,1,0.329650794983,0.0,0.0,0.0,0.0,-0.120634925365,0.329650794983,0.0,0.0,0.0,0.0,-0.120634925365,Linear,1,Sharing Zero Relinquish,1.0,user,0
1449617840204449430,0.37856161834,0.032816203226,0.0,0.0,0.0,0.0528156577107,0.998604279132,1449617840201801862,1,0.0,0.0,0.0,0.0,0.0,0.0,1,0.329650794983,0.0,0.0,0.0,0.0,-0.120634925365,0.329650794983,0.0,0.0,0.0,0.0,-0.120634925365,Linear,1,Sharing Zero Relinquish,1.0,user,0
1449617840211321667,0.398629058995,0.0347306428318,0.0,0.0,0.0,0.0475382956186,0.998869416115,1449617840210893862,1,0.0,0.0,0.0,0.0,0.0,0.0,1,0.329650794983,0.0,0.0,0.0,0.0,-0.120634925365,0.329650794983,0.0,0.0,0.0,0.0,-0.120634925365,Linear,1,Sharing Zero Relinquish,1.0,user,0
1449617840250352307,0.398629058995,0.0347306428318,0.0,0.0,0.0,0.0475382956186,0.998869416115,1449617840249974803,1,0.0,0.0,0.0,0.0,0.0,0.0,1,0.329650794983,0.0,0.0,0.0,0.0,-0.126984131336,0.329650794983,0.0,0.0,0.0,0.0,-0.126984131336,Linear,1,Sharing Zero Relinquish,1.0,user,0
1449617840291851317,0.412976595836,0.0359465449452,0.0,0.0,0.0,0.042259606217,0.999106663816,1449617840291471785,1,0.0,0.0,0.0,0.0,0.0,0.0,1,0.329650794983,0.0,0.0,0.0,0.0,-0.126984131336,0.329650794983,0.0,0.0,0.0,0.0,-0.126984131336,Linear,1,Sharing Zero Relinquish,1.0,user,0
1449617840346053959,0.424454625308,0.036919266636,0.0,0.0,0.0,0.042259606217,0.999106663816,1449617840343541896,1,0.0,0.0,0.0,0.0,0.0,0.0,1,0.329650794983,0.0,0.0,0.0,0.0,-0.126984131336,0.329650794983,0.0,0.0,0.0,0.0,-0.126984131336,Linear,1,Sharing Zero Relinquish,1.0,user,0
1449617840377916597,0.430193640044,0.0374056274813,0.0,0.0,0.0,0.042259606217,0.999106663816,1449617840376477744,1,0.0,0.0,0.0,0.0,0.0,0.0,1,0.27377778244,0.0,0.0,0.0,0.0,-0.107936513424,0.27377778244,0.0,0.0,0.0,0.0,-0.107936513424,Linear,1,Sharing Zero Relinquish,1.0,user,0
1449617840440001884,0.444553225173,0.0384698390517,0.0,0.0,0.0,0.0369797368913,0.999316015612,1449617840438808373,1,0.0,0.0,0.0,0.0,0.0,0.0,1,0.27377778244,0.0,0.0,0.0,0.0,-0.107936513424,0.27377778244,0.0,0.0,0.0,0.0,-0.107936513424,Linear,1,Sharing Zero Relinquish,1.0,user,0
1449617840450485129,0.46752856138,0.0401725775643,0.0,0.0,0.0,0.0369797368913,0.999316015612,1449617840449898873,1,0.0,0.0,0.0,0.0,0.0,0.0,1,0.329650794983,0.0,0.0,0.0,0.0,-0.126984131336,0.329650794983,0.0,0.0,0.0,0.0,-0.126984131336,Linear,1,Sharing Zero Relinquish,1.0,user,0
1449617840489658487,0.46752856138,0.0401725775643,0.0,0.0,0.0,0.0369797368913,0.999316015612,1449617840488717167,1,0.0,0.0,0.0,0.0,0.0,0.0,1,0.329650794983,0.0,0.0,0.0,0.0,-0.126984131336,0.329650794983,0.0,0.0,0.0,0.0,-0.126984131336,Linear,1,Sharing Zero Relinquish,1.0,user,0
1449617840583328102,0.479016229483,0.0410239468207,0.0,0.0,0.0,0.0369797368913,0.999316015612,1449617840581695544,1,0.0,0.0,0.0,0.0,0.0,0.0,1,0.329650794983,0.0,0.0,0.0,0.0,-0.126984131336,0.329650794983,0.0,0.0,0.0,0.0,-0.126984131336,Linear,1,Sharing Zero Relinquish,1.0,user,0
1449617840595458379,0.504873927287,0.0427877182504,0.0,0.0,0.0,0.0316988350601,0.999497465658,1449617840594346422,1,0.0,0.0,0.0,0.0,0.0,0.0,1,0.329650794983,0.0,0.0,0.0,0.0,-0.126984131336,0.329650794983,0.0,0.0,0.0,0.0,-0.126984131336,Linear,1,Sharing Zero Relinquish,1.0,user,0
1449617840678476375,0.510621939168,0.0431526791198,0.0,0.0,0.0,0.0316988350601,0.999497465658,1449617840676499253,1,0.0,0.0,0.0,0.0,0.0,0.0,1,0.329650794983,0.0,0.0,0.0,0.0,-0.120634925365,0.329650794983,0.0,0.0,0.0,0.0,-0.120634925365,Linear,1,Sharing Zero Relinquish,1.0,user,0
1449617840724124858,0.530752356316,0.0442173663476,0.0,0.0,0.0,0.0264170481704,0.999651008886,1449617840722985651,1,0.0,0.0,0.0,0.0,0.0,0.0,1,0.329650794983,0.0,0.0,0.0,0.0,-0.120634925365,0.329650794983,0.0,0.0,0.0,0.0,-0.120634925365,Linear,1,Sharing Zero Relinquish,1.0,user,0
1449617840734671432,0.542255451828,0.0448257590492,0.0,0.0,0.0,0.0264170481704,0.999651008886,1449617840733015937,1,0.0,0.0,0.0,0.0,0.0,0.0,1,0.329650794983,0.0,0.0,0.0,0.0,-0.126984131336,0.329650794983,0.0,0.0,0.0,0.0,-0.126984131336,Linear,1,Sharing Zero Relinquish,1.0,user,0
1449617840770454515,0.542255451828,0.0448257590492,0.0,0.0,0.0,0.0264170481704,0.999651008886,1449617840769793616,1,0.0,0.0,0.0,0.0,0.0,0.0,1,0.329650794983,0.0,0.0,0.0,0.0,-0.126984131336,0.329650794983,0.0,0.0,0.0,0.0,-0.126984131336,Linear,1,Sharing Zero Relinquish,1.0,user,0
1449617840813477904,0.55664155504,0.0454342536962,0.0,0.0,0.0,0.0211345236944,0.999776641009,1449617840812801585,1,0.0,0.0,0.0,0.0,0.0,0.0,1,0.329650794983,0.0,0.0,0.0,0.0,-0.126984131336,0.329650794983,0.0,0.0,0.0,0.0,-0.126984131336,Linear,1,Sharing Zero Relinquish,1.0,user,0
1449617840872318920,0.565276593252,0.0457081119714,0.0,0.0,0.0,0.0158514091245,0.999874358521,1449617840871666851,1,0.0,0.0,0.0,0.0,0.0,0.0,1,0.329650794983,0.0,0.0,0.0,0.0,-0.126984131336,0.329650794983,0.0,0.0,0.0,0.0,-0.126984131336,Linear,1,Sharing Zero Relinquish,1.0,user,0
1449617840893408018,0.582543293391,0.0463470670348,0.0,0.0,0.0,0.0158514091245,0.999874358521,1449617840891568199,1,0.0,0.0,0.0,0.0,0.0,0.0,1,0.329650794983,0.0,0.0,0.0,0.0,-0.126984131336,0.329650794983,0.0,0.0,0.0,0.0,-0.126984131336,Linear,1,Sharing Zero Relinquish,1.0,user,0
1449617840957440042,0.582543293391,0.0463470670348,0.0,0.0,0.0,0.0158514091245,0.999874358521,1449617840956406769,1,0.0,0.0,0.0,0.0,0.0,0.0,1,0.329650794983,0.0,0.0,0.0,0.0,-0.120634925365,0.329650794983,0.0,0.0,0.0,0.0,-0.120634925365,Linear,1,Sharing Zero Relinquish,1.0,user,0
1449617840972862095,0.605574081794,0.0469252406051,0.0,0.0,0.0,0.0158514091245,0.999874358521,1449617840970698864,1,0.0,0.0,0.0,0.0,0.0,0.0,1,0.329650794983,0.0,0.0,0.0,0.0,-0.120634925365,0.329650794983,0.0,0.0,0.0,0.0,-0.120634925365,Linear,1,Sharing Zero Relinquish,1.0,user,0
1449617841009869139,0.605574081794,0.0469252406051,0.0,0.0,0.0,0.0158514091245,0.999874358521,1449617841008850752,1,0.0,0.0,0.0,0.0,0.0,0.0,1,0.329650794983,0.0,0.0,0.0,0.0,-0.126984131336,0.329650794983,0.0,0.0,0.0,0.0,-0.126984131336,Linear,1,Sharing Zero Relinquish,1.0,user,0
1449617841074838183,0.614211531908,0.0471078297821,0.0,0.0,0.0,0.0105678519699,0.999944158693,1449617841073892317,1,0.0,0.0,0.0,0.0,0.0,0.0,1,0.329650794983,0.0,0.0,0.0,0.0,-0.126984131336,0.329650794983,0.0,0.0,0.0,0.0,-0.126984131336,Linear,1,Sharing Zero Relinquish,1.0,user,0
1449617841090535208,0.634367029424,0.047442581705,0.0,0.0,0.0,0.0052839997518,0.999986039576,1449617841090021917,1,0.0,0.0,0.0,0.0,0.0,0.0,1,0.329650794983,0.0,0.0,0.0,0.0,-0.126984131336,0.329650794983,0.0,0.0,0.0,0.0,-0.126984131336,Linear,1,Sharing Zero Relinquish,1.0,user,0
1449617841129302646,0.634367029424,0.047442581705,0.0,0.0,0.0,0.0052839997518,0.999986039576,1449617841128415697,1,0.0,0.0,0.0,0.0,0.0,0.0,1,0.335238096237,0.0,0.0,0.0,0.0,-0.0761904776096,0.335238096237,0.0,0.0,0.0,0.0,-0.0761904776096,Linear,1,Sharing Zero Relinquish,1.0,user,0
1449617841189541839,0.648765995753,0.047442581705,0.0,0.0,0.0,0.0,1.0,1449617841187811760,1,0.0,0.0,0.0,0.0,0.0,0.0,1,0.335238096237,0.0,0.0,0.0,0.0,-0.0761904776096,0.335238096237,0.0,0.0,0.0,0.0,-0.0761904776096,Linear,1,Sharing Zero Relinquish,1.0,user,0
1449617841209847543,0.668924066179,0.0473512820182,0.0,0.0,0.0,-0.0052839997518,0.999986039576,1449617841209349259,1,0.0,0.0,0.0,0.0,0.0,0.0,1,0.335238096237,0.0,0.0,0.0,0.0,-0.0761904776096,0.335238096237,0.0,0.0,0.0,0.0,-0.0761904776096,Linear,1,Sharing Zero Relinquish,1.0,user,0
1449617841248233668,0.668924066179,0.0473512820182,0.0,0.0,0.0,-0.0052839997518,0.999986039576,1449617841247644028,1,0.0,0.0,0.0,0.0,0.0,0.0,1,0.284952384949,0.0,0.0,0.0,0.0,-0.0634920656681,0.284952384949,0.0,0.0,0.0,0.0,-0.0634920656681,Linear,1,Sharing Zero Relinquish,1.0,user,0
1449617841302665879,0.680442595996,0.0472295491024,0.0,0.0,0.0,-0.0052839997518,0.999986039576,1449617841302009303,1,0.0,0.0,0.0,0.0,0.0,0.0,1,0.284952384949,0.0,0.0,0.0,0.0,-0.0634920656681,0.284952384949,0.0,0.0,0.0,0.0,-0.0634920656681,Linear,1,Sharing Zero Relinquish,1.0,user,0
1449617841334258456,0.691961125814,0.0471078161867,0.0,0.0,0.0,-0.0052839997518,0.999986039576,1449617841332645774,1,0.0,0.0,0.0,0.0,0.0,0.0,1,0.284952384949,0.0,0.0,0.0,0.0,-0.0634920656681,0.284952384949,0.0,0.0,0.0,0.0,-0.0634920656681,Linear,1,Sharing Zero Relinquish,1.0,user,0
1449617841383677842,0.700598575928,0.0469252270097,0.0,0.0,0.0,-0.0105678519699,0.999944158693,1449617841379642419,1,0.0,0.0,0.0,0.0,0.0,0.0,1,0.335238096237,0.0,0.0,0.0,0.0,-0.126984131336,0.335238096237,0.0,0.0,0.0,0.0,-0.126984131336,Linear,1,Sharing Zero Relinquish,1.0,user,0
1449617841410755838,0.71211517608,0.0466817747736,0.0,0.0,0.0,-0.0105678519699,0.999944158693,1449617841410367671,1,0.0,0.0,0.0,0.0,0.0,0.0,1,0.335238096237,0.0,0.0,0.0,0.0,-0.126984131336,0.335238096237,0.0,0.0,0.0,0.0,-0.126984131336,Linear,1,Sharing Zero Relinquish,1.0,user,0
1449617841466694280,0.720750214293,0.0464079164984,0.0,0.0,0.0,-0.0158514091245,0.999874358521,1449617841466147227,1,0.0,0.0,0.0,0.0,0.0,0.0,1,0.335238096237,0.0,0.0,0.0,0.0,-0.0761904776096,0.335238096237,0.0,0.0,0.0,0.0,-0.0761904776096,Linear,1,Sharing Zero Relinquish,1.0,user,0
1449617841500840460,0.746649701787,0.0454342774844,0.0,0.0,0.0,-0.0211345236944,0.999776641009,1449617841500444569,1,0.0,0.0,0.0,0.0,0.0,0.0,1,0.335238096237,0.0,0.0,0.0,0.0,-0.0761904776096,0.335238096237,0.0,0.0,0.0,0.0,-0.0761904776096,Linear,1,Sharing Zero Relinquish,1.0,user,0
1449617841532479035,0.746649701787,0.0454342774844,0.0,0.0,0.0,-0.0211345236944,0.999776641009,1449617841530273735,1,0.0,0.0,0.0,0.0,0.0,0.0,1,0.335238096237,0.0,0.0,0.0,0.0,-0.0825396835804,0.335238096237,0.0,0.0,0.0,0.0,-0.0825396835804,Linear,1,Sharing Zero Relinquish,1.0,user,0
1449617841580821403,0.752404143072,0.0451908796257,0.0,0.0,0.0,-0.0211345236944,0.999776641009,1449617841579514696,1,0.0,0.0,0.0,0.0,0.0,0.0,1,0.335238096237,0.0,0.0,0.0,0.0,-0.0825396835804,0.335238096237,0.0,0.0,0.0,0.0,-0.0825396835804,Linear,1,Sharing Zero Relinquish,1.0,user,0
1449617841626375177,0.763913025641,0.0447040839081,0.0,0.0,0.0,-0.0211345236944,0.999776641009,1449617841624954175,1,0.0,0.0,0.0,0.0,0.0,0.0,1,0.335238096237,0.0,0.0,0.0,0.0,-0.0825396835804,0.335238096237,0.0,0.0,0.0,0.0,-0.0825396835804,Linear,1,Sharing Zero Relinquish,1.0,user,0
1449617841652408633,0.784043442788,0.0436393966802,0.0,0.0,0.0,-0.0264170481704,0.999651008886,1449617841651077301,1,0.0,0.0,0.0,0.0,0.0,0.0,1,0.335238096237,0.0,0.0,0.0,0.0,-0.0761904776096,0.335238096237,0.0,0.0,0.0,0.0,-0.0761904776096,Linear,1,Sharing Zero Relinquish,1.0,user,0
1449617841690899982,0.784043442788,0.0436393966802,0.0,0.0,0.0,-0.0264170481704,0.999651008886,1449617841689344963,1,0.0,0.0,0.0,0.0,0.0,0.0,1,0.335238096237,0.0,0.0,0.0,0.0,-0.0761904776096,0.335238096237,0.0,0.0,0.0,0.0,-0.0761904776096,Linear,1,Sharing Zero Relinquish,1.0,user,0
1449617841764555620,0.795546538301,0.0430310039786,0.0,0.0,0.0,-0.0264170481704,0.999651008886,1449617841761195307,1,0.0,0.0,0.0,0.0,0.0,0.0,1,0.335238096237,0.0,0.0,0.0,0.0,-0.0761904776096,0.251428572178,0.0,0.0,0.0,0.0,-0.0571428582072,Linear,1,Sharing Zero Relinquish,0.75,user,0
1449617841777670224,0.81853231908,0.041480074863,0.0,0.0,0.0,-0.0369797368913,0.999316015612,1449617841776995690,1,0.0,0.0,0.0,0.0,0.0,0.0,1,0.335238096237,0.0,0.0,0.0,0.0,-0.0761904776096,0.251428572178,0.0,0.0,0.0,0.0,-0.0571428582072,Linear,1,Sharing Zero Relinquish,0.75,user,0
1449617841860863085,0.81853231908,0.041480074863,0.0,0.0,0.0,-0.0369797368913,0.999316015612,1449617841859113585,1,0.0,0.0,0.0,0.0,0.0,0.0,1,0.340825397491,0.0,0.0,0.0,0.0,-0.0761904776096,0.255619048119,0.0,0.0,0.0,0.0,-0.0571428582072,Linear,1,Sharing Zero Relinquish,0.75,user,0
1449617841884387814,0.838628509287,0.0398991643386,0.0,0.0,0.0,-0.042259606217,0.999106663816,1449617841883304101,1,0.0,0.0,0.0,0.0,0.0,0.0,1,0.340825397491,0.0,0.0,0.0,0.0,-0.0761904776096,0.255619048119,0.0,0.0,0.0,0.0,-0.0571428582072,Linear,1,Sharing Zero Relinquish,0.75,user,0
1449617841897647493,0.85010653876,0.0389264426479,0.0,0.0,0.0,-0.042259606217,0.999106663816,1449617841896229922,1,0.0,0.0,0.0,0.0,0.0,0.0,1,0.335238096237,0.0,0.0,0.0,0.0,-0.0761904776096,0.251428572178,0.0,0.0,0.0,0.0,-0.0571428582072,Linear,1,Sharing Zero Relinquish,0.75,user,0
1449617841992076866,0.85010653876,0.0389264426479,0.0,0.0,0.0,-0.042259606217,0.999106663816,1449617841990904585,1,0.0,0.0,0.0,0.0,0.0,0.0,1,0.335238096237,0.0,0.0,0.0,0.0,-0.0761904776096,0.251428572178,0.0,0.0,0.0,0.0,-0.0571428582072,Linear,1,Sharing Zero Relinquish,0.75,user,0
1449617842008562115,0.88164108836,0.035918037553,0.0,0.0,0.0,-0.0475382956186,0.998869416115,1449617842007971157,1,0.0,0.0,0.0,0.0,0.0,0.0,1,0.335238096237,0.0,0.0,0.0,0.0,-0.0761904776096,0.251428572178,0.0,0.0,0.0,0.0,-0.0571428582072,Linear,1,Sharing Zero Relinquish,0.75,user,0
1449617842025814003,0.88164108836,0.035918037553,0.0,0.0,0.0,-0.0475382956186,0.998869416115,1449617842024811678,1,0.0,0.0,0.0,0.0,0.0,0.0,1,0.335238096237,0.0,0.0,0.0,0.0,-0.0761904776096,0.251428572178,0.0,0.0,0.0,0.0,-0.0571428582072,Linear,1,Sharing Zero Relinquish,0.75,user,0
1449617842085190305,0.890232269166,0.0350067222201,0.0,0.0,0.0,-0.0528156577107,0.998604279132,1449617842081866946,1,0.0,0.0,0.0,0.0,0.0,0.0,1,0.335238096237,0.0,0.0,0.0,0.0,-0.0761904776096,0.251428572178,0.0,0.0,0.0,0.0,-0.0571428582072,Linear,1,Sharing Zero Relinquish,0.75,user,0
1449617842102605742,0.901687176908,0.0337916351097,0.0,0.0,0.0,-0.0528156577107,0.998604279132,1449617842101690134,1,0.0,0.0,0.0,0.0,0.0,0.0,1,0.335238096237,0.0,0.0,0.0,0.0,-0.0761904776096,0.251428572178,0.0,0.0,0.0,0.0,-0.0571428582072,Linear,1,Sharing Zero Relinquish,0.75,user,0
1449617842145367803,0.901687176908,0.0337916351097,0.0,0.0,0.0,-0.0528156577107,0.998604279132,1449617842144139394,1,0.0,0.0,0.0,0.0,0.0,0.0,1,0.335238096237,0.0,0.0,0.0,0.0,-0.0761904776096,0.251428572178,0.0,0.0,0.0,0.0,-0.0571428582072,Linear,1,Sharing Zero Relinquish,0.75,user,0
1449617842184650927,0.921723155068,0.0315744932284,0.0,0.0,0.0,-0.0580915451448,0.99831126027,1449617842183252148,1,0.0,0.0,0.0,0.0,0.0,0.0,1,0.335238096237,0.0,0.0,0.0,0.0,-0.0761904776096,0.251428572178,0.0,0.0,0.0,0.0,-0.0571428582072,Linear,1,Sharing Zero Relinquish,0.75,user,0
1449617842218677177,0.921723155068,0.0315744932284,0.0,0.0,0.0,-0.0580915451448,0.99831126027,1449617842217711226,1,0.0,0.0,0.0,0.0,0.0,0.0,1,0.335238096237,0.0,0.0,0.0,0.0,-0.0761904776096,0.251428572178,0.0,0.0,0.0,0.0,-0.0571428582072,Linear,1,Sharing Zero Relinquish,0.75,user,0
1449617842282834816,0.930293156741,0.0304818109317,0.0,0.0,0.0,-0.0633658106137,0.997990367712,1449617842280999171,1,0.0,0.0,0.0,0.0,0.0,0.0,1,0.340825397491,0.0,0.0,0.0,0.0,-0.0761904776096,0.255619048119,0.0,0.0,0.0,0.0,-0.0571428582072,Linear,1,Sharing Zero Relinquish,0.75,user,0
1449617842304684836,0.947433160088,0.0282964463384,0.0,0.0,0.0,-0.0633658106137,0.997990367712,1449617842302060152,1,0.0,0.0,0.0,0.0,0.0,0.0,1,0.340825397491,0.0,0.0,0.0,0.0,-0.0761904776096,0.255619048119,0.0,0.0,0.0,0.0,-0.0571428582072,Linear,1,Sharing Zero Relinquish,0.75,user,0
1449617842335690985,0.947433160088,0.0282964463384,0.0,0.0,0.0,-0.0633658106137,0.997990367712,1449617842335129516,1,0.0,0.0,0.0,0.0,0.0,0.0,1,0.346412698746,0.0,0.0,0.0,0.0,-0.0126984134316,0.259809524059,0.0,0.0,0.0,0.0,-0.00952381007373,Linear,1,Sharing Zero Relinquish,0.75,user,0
