%time,field.linear.x,field.linear.y,field.linear.z,field.angular.x,field.angular.y,field.angular.z
1449617829503288708,0.0,0.0,0.0,0.0,0.0,0.0
1449617829543230064,0.0,0.0,0.0,0.0,0.0,0.0
1449617829583132461,0.0,0.0,0.0,0.0,0.0,0.0
1449617829623243166,0.0,0.0,0.0,0.0,0.0,0.0
1449617829663214856,0.0,0.0,0.0,0.0,0.0,0.0
1449617829703631430,0.0,0.0,0.0,0.0,0.0,0.0
1449617829743141661,0.0,0.0,0.0,0.0,0.0,0.0
1449617829783147493,0.0,0.0,0.0,0.0,0.0,0.0
1449617829823149489,0.0,0.0,0.0,0.0,0.0,0.0
1449617829863159056,0.0,0.0,0.0,0.0,0.0,0.0
1449617829903201873,0.0,0.0,0.0,0.0,0.0,0.0
1449617829943211801,0.0,0.0,0.0,0.0,0.0,0.0
1449617829983811292,0.0,0.0,0.0,0.0,0.0,0.0
1449617830023172483,0.0,0.0,0.0,0.0,0.0,0.0
1449617830063209669,0.0,0.0,0.0,0.0,0.0,0.0
1449617830103372562,0.0,0.0,0.0,0.0,0.0,0.0
1449617830143313091,0.0,0.0,0.0,0.0,0.0,0.0
1449617830184528701,0.0,0.0,0.0,0.0,0.0,0.0
1449617830223235578,0.0,0.0,0.0,0.0,0.0,0.0
1449617830263474807,0.0,0.0,0.0,0.0,0.0,0.0
1449617830303247543,0.0,0.0,0.0,0.0,0.0,0.0
1449617830343407130,0.0,0.0,0.0,0.0,0.0,0.0
1449617830383751299,0.0,0.0,0.0,0.0,0.0,0.0
1449617830423455302,0.0,0.0,0.0,0.0,0.0,0.0
1449617830463467331,0.0,0.0,0.0,0.0,0.0,0.0
1449617830503521108,0.0,0.0,0.0,0.0,0.0,0.0
1449617830543644706,0.0,0.0,0.0,0.0,0.0,0.0
1449617830583213058,0.0,0.0,0.0,0.0,0.0,0.0
1449617830623305948,0.0,0.0,0.0,0.0,0.0,0.0
1449617830663682697,0.0,0.0,0.0,0.0,0.0,0.0
1449617830703891474,0.0,0.0,0.0,0.0,0.0,0.0
1449617830743622129,0.0,0.0,0.0,0.0,0.0,0.0
1449617830783756958,0.0,0.0,0.0,0.0,0.0,0.0
1449617830823558015,0.0,0.0,0.0,0.0,0.0,0.0
1449617830864040011,0.0,0.0,0.0,0.0,0.0,0.0
1449617830903682062,0.0,0.0,0.0,0.0,0.0,0.0
1449617830943812160,0.0,0.0,0.0,0.0,0.0,0.0
1449617830984127029,0.0,0.0,0.0,0.0,0.0,0.0
1449617831024923567,0.0,0.0,0.0,0.0,0.0,0.0
1449617831063519769,0.0,0.0,0.0,0.0,0.0,0.0
1449617831104299310,0.0,0.0,0.0,0.0,0.0,0.0
1449617831145135676,0.0,0.0,0.0,0.0,0.0,0.0
1449617831183558888,0.0,0.0,0.0,0.0,0.0,0.0
1449617831223905753,0.0,0.0,0.0,0.0,0.0,0.0
1449617831264830992,0.0,0.0,0.0,0.0,0.0,0.0
1449617831303544963,0.0,0.0,0.0,0.0,0.0,0.0
1449617831343712219,0.0,0.0,0.0,0.0,0.0,0.0
1449617831384054680,0.0,0.0,0.0,0.0,0.0,0.0
1449617831424757917,0.0,0.0,0.0,0.0,0.0,0.0
1449617831463531377,0.0,0.0,0.0,0.0,0.0,0.0
1449617831503625285,0.0,0.0,0.0,0.0,0.0,0.0
1449617831543744741,0.0,0.0,0.0,0.0,0.0,0.0
1449617831584168160,0.0,0.0,0.0,0.0,0.0,0.0
1449617831623534655,0.0,0.0,0.0,0.0,0.0,0.0
1449617831663800485,0.0,0.0,0.0,0.0,0.0,0.0
1449617831703617128,0.0,0.0,0.0,0.0,0.0,0.0
1449617831743800874,0.0,0.0,0.0,0.0,0.0,0.0
1449617831783787253,0.0,0.0,0.0,0.0,0.0,0.0
1449617831823592608,0.0,0.0,0.0,0.0,0.0,0.0
1449617831863382578,0.0,0.0,0.0,0.0,0.0,0.0
1449617831903574392,0.0,0.0,0.0,0.0,0.0,0.0
1449617831943573103,0.0,0.0,0.0,0.0,0.0,0.0
1449617831983910193,0.0,0.0,0.0,0.0,0.0,0.0
1449617832024891405,0.0,0.0,0.0,0.0,0.0,0.0
1449617832063801634,0.0,0.0,0.0,0.0,0.0,0.0
1449617832103534592,0.0,0.0,0.0,0.0,0.0,0.0
1449617832143556356,0.0,0.0,0.0,0.0,0.0,0.0
1449617832185254278,0.0,0.0,0.0,0.0,0.0,0.0
1449617832223457990,0.0,0.0,0.0,0.0,0.0,0.0
1449617832263474801,0.0,0.0,0.0,0.0,0.0,0.0
1449617832303280141,0.0,0.0,0.0,0.0,0.0,0.0
1449617832343577857,0.0,0.0,0.0,0.0,0.0,0.0
1449617832383608509,0.0,0.0,0.0,0.0,0.0,0.0
1449617832423471969,0.0,0.0,0.0,0.0,0.0,0.0
1449617832463305981,0.0,0.0,0.0,0.0,0.0,0.0
1449617832503581822,0.0,0.0,0.0,0.0,0.0,0.0
1449617832544176567,0.0,0.0,0.0,0.0,0.0,0.0
1449617832585329115,0.0,0.0,0.0,0.0,0.0,0.0
1449617832623674261,-0.0,0.0,0.0,0.0,0.0,-0.0
1449617832663310647,-0.0,0.0,0.0,0.0,0.0,-0.0
1449617832703480416,-0.0,0.0,0.0,0.0,0.0,-0.0
1449617832743809722,-0.0,0.0,0.0,0.0,0.0,-0.0
1449617832783615583,-0.0,0.0,0.0,0.0,0.0,-0.0
1449617832823513189,-0.0,0.0,0.0,0.0,0.0,-0.0
1449617832866175405,-0.0,0.0,0.0,0.0,0.0,-0.0
1449617832903402876,-0.0,0.0,0.0,0.0,0.0,-0.0
1449617832944449355,-0.0,0.0,0.0,0.0,0.0,-0.0
1449617832986257128,-0.0,0.0,0.0,0.0,0.0,-0.0
1449617833023905814,-0.0,0.0,0.0,0.0,0.0,-0.0
1449617833063645937,-0.0,0.0,0.0,0.0,0.0,-0.0
1449617833103565878,-0.0,0.0,0.0,0.0,0.0,-0.0
1449617833143542790,-0.0,0.0,0.0,0.0,0.0,-0.0
1449617833183757472,-0.0,0.0,0.0,0.0,0.0,-0.0
1449617833223313704,-0.0,0.0,0.0,0.0,0.0,-0.0
1449617833263630346,-0.0,0.0,0.0,0.0,0.0,-0.0
1449617833303549196,-0.0,0.0,0.0,0.0,0.0,-0.0
1449617833343651100,-0.0,0.0,0.0,0.0,0.0,-0.0
1449617833389631149,-0.0,0.0,0.0,0.0,0.0,-0.0
1449617833423624467,-0.0,0.0,0.0,0.0,0.0,-0.0
1449617833463540583,-0.0,0.0,0.0,0.0,0.0,-0.0
1449617833503598776,-0.0,0.0,0.0,0.0,0.0,-0.0
1449617833543981609,-0.0,0.0,0.0,0.0,0.0,-0.0
1449617833583747966,-0.0,0.0,0.0,0.0,0.0,-0.0
1449617833623507134,-0.0,0.0,0.0,0.0,0.0,-0.0
1449617833663549422,-0.0,0.0,0.0,0.0,0.0,-0.0
1449617833703367099,-0.0,0.0,0.0,0.0,0.0,-0.0
1449617833743353199,-0.0,0.0,0.0,0.0,0.0,-0.0
1449617833783289618,-0.0,0.0,0.0,0.0,0.0,-0.0
1449617833823680775,-0.0,0.0,0.0,0.0,0.0,-0.0
1449617833863948472,-0.0,0.0,0.0,0.0,0.0,-0.0
1449617833903507570,-0.0,0.0,0.0,0.0,0.0,-0.0
1449617833943719473,-0.0,0.0,0.0,0.0,0.0,-0.0
1449617833983598158,-0.0,0.0,0.0,0.0,0.0,-0.0
1449617834023523245,-0.0,0.0,0.0,0.0,0.0,-0.0
1449617834063722615,-0.0,0.0,0.0,0.0,0.0,-0.0
1449617834103720315,-0.0,0.0,0.0,0.0,0.0,-0.0
1449617834144192613,-0.0,0.0,0.0,0.0,0.0,-0.0
1449617834185329749,-0.0,0.0,0.0,0.0,0.0,-0.0
1449617834234088956,-0.0,0.0,0.0,0.0,0.0,-0.0
1449617834263955637,-0.0,0.0,0.0,0.0,0.0,-0.0
1449617834303419896,-0.0,0.0,0.0,0.0,0.0,-0.0
1449617834343864746,-0.0,0.0,0.0,0.0,0.0,-0.0
1449617834383696688,-0.0,0.0,0.0,0.0,0.0,-0.0
1449617834423441631,-0.0,0.0,0.0,0.0,0.0,-0.0
1449617834463459878,-0.0,0.0,0.0,0.0,0.0,-0.0
1449617834506305850,-0.0,0.0,0.0,0.0,0.0,-0.0
1449617834544426542,-0.0,0.0,0.0,0.0,0.0,-0.0
1449617834583477838,-0.0,0.0,0.0,0.0,0.0,-0.0
1449617834625835242,0.0,0.0,0.0,0.0,0.0,-0.0
1449617834664217403,0.0,0.0,0.0,0.0,0.0,-0.0
1449617834703653868,0.0,0.0,0.0,0.0,0.0,-0.0
1449617834743683903,-0.0,0.0,0.0,0.0,0.0,0.0
1449617834783610853,-0.0,0.0,0.0,0.0,0.0,0.0
1449617834823367059,-0.0,0.0,0.0,0.0,0.0,0.0
1449617834864073153,-0.0,0.0,0.0,0.0,0.0,0.0
1449617834903508493,-0.0,0.0,0.0,0.0,0.0,0.0
1449617834943688893,-0.0,0.0,0.0,0.0,0.0,0.0
1449617834984382405,-0.0,0.0,0.0,0.0,0.0,0.0
1449617835023720423,-0.0,0.0,0.0,0.0,0.0,0.0
1449617835063665440,-0.0,0.0,0.0,0.0,0.0,0.0
1449617835104205475,-0.0,0.0,0.0,0.0,0.0,0.0
1449617835143955589,-0.0,0.0,0.0,0.0,0.0,-0.0
1449617835185020942,-0.0,0.0,0.0,0.0,0.0,-0.0
1449617835223706729,-0.0,0.0,0.0,0.0,0.0,-0.0
1449617835263564154,-0.0,0.0,0.0,0.0,0.0,-0.0
1449617835305929091,-0.0,0.0,0.0,0.0,0.0,-0.0
1449617835343349635,-0.0,0.0,0.0,0.0,0.0,-0.0
1449617835386070461,-0.0,0.0,0.0,0.0,0.0,-0.0
1449617835423714533,-0.0,0.0,0.0,0.0,0.0,-0.0
1449617835464160880,-0.0,0.0,0.0,0.0,0.0,-0.0
1449617835503355921,-0.0,0.0,0.0,0.0,0.0,-0.0
1449617835544200261,-0.0,0.0,0.0,0.0,0.0,-0.0
1449617835583846589,-0.0,0.0,0.0,0.0,0.0,-0.0
1449617835625830443,-0.0,0.0,0.0,0.0,0.0,-0.0
1449617835663424339,-0.0,0.0,0.0,0.0,0.0,-0.0
1449617835704272309,-0.0,0.0,0.0,0.0,0.0,-0.0
1449617835745991535,-0.0,0.0,0.0,0.0,0.0,-0.0
1449617835783871627,-0.0,0.0,0.0,0.0,0.0,-0.0
1449617835824198218,-0.0,0.0,0.0,0.0,0.0,-0.0
1449617835863828960,-0.0,0.0,0.0,0.0,0.0,-0.0
1449617835903642928,-0.0,0.0,0.0,0.0,0.0,-0.0
1449617835943580955,-0.0,0.0,0.0,0.0,0.0,-0.0
1449617835983436197,0.0,0.0,0.0,0.0,0.0,-0.0
1449617836023382972,0.0,0.0,0.0,0.0,0.0,-0.0
1449617836063700231,0.0,0.0,0.0,0.0,0.0,-0.0
1449617836104144236,-0.0,0.0,0.0,0.0,0.0,-0.0
1449617836143924481,-0.0,0.0,0.0,0.0,0.0,-0.0
1449617836183543210,-0.0,0.0,0.0,0.0,0.0,-0.0
1449617836223693522,-0.0,0.0,0.0,0.0,0.0,-0.0
1449617836263345792,-0.0,0.0,0.0,0.0,0.0,-0.0
1449617836303745373,-0.0,0.0,0.0,0.0,0.0,-0.0
1449617836343409860,-0.0,0.0,0.0,0.0,0.0,-0.0
1449617836383693505,-0.0,0.0,0.0,0.0,0.0,0.0
1449617836423432088,-0.0,0.0,0.0,0.0,0.0,0.0
1449617836464207104,-0.0,0.0,0.0,0.0,0.0,0.0
1449617836503480256,0.00558730190992,0.0,0.0,0.0,0.0,0.0
1449617836543618429,0.00558730190992,0.0,0.0,0.0,0.0,0.0
1449617836583977261,0.0111746038198,0.0,0.0,0.0,0.0,0.0
1449617836625239834,0.0111746038198,0.0,0.0,0.0,0.0,0.0
1449617836663433358,0.0111746038198,0.0,0.0,0.0,0.0,0.0
1449617836703480110,0.346412698746,0.0,0.0,0.0,0.0,-0.00634920671582
1449617836743304012,0.346412698746,0.0,0.0,0.0,0.0,-0.00634920671582
1449617836783704790,0.352,0.0,0.0,0.0,0.0,-0.00634920671582
1449617836826571712,0.352,0.0,0.0,0.0,0.0,-0.00634920671582
1449617836864666652,0.352,0.0,0.0,0.0,0.0,-0.00634920671582
1449617836903582244,0.346412698746,0.0,0.0,0.0,0.0,-0.00634920671582
1449617836943597735,0.346412698746,0.0,0.0,0.0,0.0,-0.00634920671582
1449617836983928167,0.184380962372,0.0,0.0,0.0,0.0,0.0
1449617837025477312,0.184380962372,0.0,0.0,0.0,0.0,0.0
1449617837063877915,0.184380962372,0.0,0.0,0.0,0.0,0.0
1449617837104575427,0.167619048119,0.0,0.0,0.0,0.0,0.0
1449617837144281994,0.167619048119,0.0,0.0,0.0,0.0,0.0
1449617837183958431,0.167619048119,0.0,0.0,0.0,0.0,0.0
1449617837224613833,0.184380962372,0.0,0.0,0.0,0.0,0.0
1449617837264511183,0.184380962372,0.0,0.0,0.0,0.0,0.0
1449617837304428682,0.189968263626,0.0,0.0,0.0,0.0,0.0
1449617837343781335,0.189968263626,0.0,0.0,0.0,0.0,0.0
1449617837383607499,0.167619048119,0.0,0.0,0.0,0.0,0.0
1449617837423721641,0.167619048119,0.0,0.0,0.0,0.0,0.0
1449617837463853243,0.167619048119,0.0,0.0,0.0,0.0,0.0
1449617837504083560,0.189968263626,0.0,0.0,0.0,0.0,0.0
1449617837543323326,0.189968263626,0.0,0.0,0.0,0.0,0.0
1449617837584046096,0.189968263626,0.0,0.0,0.0,0.0,0.0
1449617837623790939,0.189968263626,0.0,0.0,0.0,0.0,0.0
1449617837663710295,0.189968263626,0.0,0.0,0.0,0.0,0.0
1449617837704268783,0.189968263626,0.0,0.0,0.0,0.0,0.0
1449617837743787198,0.189968263626,0.0,0.0,0.0,0.0,0.0
1449617837784217801,0.189968263626,0.0,0.0,0.0,0.0,0.0
1449617837823881474,0.189968263626,0.0,0.0,0.0,0.0,0.0
1449617837864311114,0.189968263626,0.0,0.0,0.0,0.0,0.0
1449617837903487923,0.189968263626,0.0,0.0,0.0,0.0,0.0
1449617837945194306,0.189968263626,0.0,0.0,0.0,0.0,0.0
1449617837984124774,0.189968263626,0.0,0.0,0.0,0.0,0.0
1449617838024553862,0.173206349373,0.0,0.0,0.0,0.0,0.0
1449617838069773237,0.173206349373,0.0,0.0,0.0,0.0,0.0
1449617838103997379,0.173206349373,0.0,0.0,0.0,0.0,0.0
1449617838143698735,0.189968263626,0.0,0.0,0.0,0.0,0.0
1449617838184604519,0.189968263626,0.0,0.0,0.0,0.0,0.0
1449617838226374936,0.189968263626,0.0,0.0,0.0,0.0,0.0
1449617838263710279,0.189968263626,0.0,0.0,0.0,0.0,-0.00634920671582
1449617838303575218,0.189968263626,0.0,0.0,0.0,0.0,-0.00634920671582
1449617838343437025,0.189968263626,0.0,0.0,0.0,0.0,-0.00634920671582
1449617838386696728,0.189968263626,0.0,0.0,0.0,0.0,-0.00634920671582
1449617838424216176,0.346412698746,0.0,0.0,0.0,0.0,0.0
1449617838464612976,0.346412698746,0.0,0.0,0.0,0.0,0.0
1449617838503548054,0.307301589966,0.0,0.0,0.0,0.0,-0.00634920671582
1449617838543388467,0.307301589966,0.0,0.0,0.0,0.0,-0.00634920671582
1449617838583712404,0.307301589966,0.0,0.0,0.0,0.0,-0.00634920671582
1449617838627075155,0.346412698746,0.0,0.0,0.0,0.0,-0.00634920671582
1449617838663754952,0.346412698746,0.0,0.0,0.0,0.0,-0.00634920671582
1449617838703513684,0.346412698746,0.0,0.0,0.0,0.0,-0.00634920671582
1449617838743486971,0.340825397491,0.0,0.0,0.0,0.0,-0.00634920671582
1449617838783900478,0.346412698746,0.0,0.0,0.0,0.0,-0.0126984134316
1449617838831187683,0.346412698746,0.0,0.0,0.0,0.0,-0.0126984134316
1449617838865166364,0.346412698746,0.0,0.0,0.0,0.0,-0.0126984134316
1449617838904306319,0.346412698746,0.0,0.0,0.0,0.0,-0.0190476194024
1449617838953616108,0.346412698746,0.0,0.0,0.0,0.0,-0.0190476194024
1449617838983379152,0.346412698746,0.0,0.0,0.0,0.0,-0.0190476194024
1449617839032026895,0.346412698746,0.0,0.0,0.0,0.0,-0.0190476194024
1449617839063870995,0.335238096237,0.0,0.0,0.0,0.0,-0.0761904776096
1449617839103609454,0.335238096237,0.0,0.0,0.0,0.0,-0.0761904776096
1449617839143584680,0.335238096237,0.0,0.0,0.0,0.0,-0.0761904776096
1449617839184461807,0.335238096237,0.0,0.0,0.0,0.0,-0.0761904776096
1449617839224200552,0.335238096237,0.0,0.0,0.0,0.0,-0.0761904776096
1449617839265222612,0.335238096237,0.0,0.0,0.0,0.0,-0.0761904776096
1449617839303832786,0.329650794983,0.0,0.0,0.0,0.0,-0.0698412716389
1449617839345245043,0.329650794983,0.0,0.0,0.0,0.0,-0.0698412716389
1449617839383575323,0.329650794983,0.0,0.0,0.0,0.0,-0.0698412716389
1449617839425621185,0.329650794983,0.0,0.0,0.0,0.0,-0.0698412716389
1449617839463500724,0.329650794983,0.0,0.0,0.0,0.0,-0.0698412716389
1449617839503936570,0.0,0.0,0.0,0.0,0.0,-0.4
1449617839543597472,0.279365083694,0.0,0.0,0.0,0.0,-0.101587307453
1449617839583893613,0.329650794983,0.0,0.0,0.0,0.0,-0.126984131336
1449617839624510469,0.329650794983,0.0,0.0,0.0,0.0,-0.126984131336
1449617839664057933,0.329650794983,0.0,0.0,0.0,0.0,-0.126984131336
1449617839703620918,0.329650794983,0.0,0.0,0.0,0.0,-0.120634925365
1449617839744196572,0.329650794983,0.0,0.0,0.0,0.0,-0.120634925365
1449617839787355205,0.329650794983,0.0,0.0,0.0,0.0,-0.120634925365
1449617839825856648,0.329650794983,0.0,0.0,0.0,0.0,-0.126984131336
1449617839863239169,0.329650794983,0.0,0.0,0.0,0.0,-0.126984131336
1449617839903886423,0.329650794983,0.0,0.0,0.0,0.0,-0.126984131336
1449617839948872041,0.329650794983,0.0,0.0,0.0,0.0,-0.126984131336
1449617839986148268,0.329650794983,0.0,0.0,0.0,0.0,-0.126984131336
1449617840023753609,0.329650794983,0.0,0.0,0.0,0.0,-0.120634925365
1449617840063656656,0.329650794983,0.0,0.0,0.0,0.0,-0.120634925365
1449617840103716733,0.329650794983,0.0,0.0,0.0,0.0,-0.120634925365
1449617840143704389,0.329650794983,0.0,0.0,0.0,0.0,-0.126984131336
1449617840183751824,0.329650794983,0.0,0.0,0.0,0.0,-0.120634925365
1449617840223481226,0.329650794983,0.0,0.0,0.0,0.0,-0.120634925365
1449617840263369248,0.329650794983,0.0,0.0,0.0,0.0,-0.120634925365
1449617840303891691,0.329650794983,0.0,0.0,0.0,0.0,-0.126984131336
1449617840343888312,0.329650794983,0.0,0.0,0.0,0.0,-0.126984131336
1449617840383578687,0.329650794983,0.0,0.0,0.0,0.0,-0.126984131336
1449617840424961735,0.27377778244,0.0,0.0,0.0,0.0,-0.107936513424
1449617840463400678,0.27377778244,0.0,0.0,0.0,0.0,-0.107936513424
1449617840503804477,0.329650794983,0.0,0.0,0.0,0.0,-0.126984131336
1449617840543571004,0.329650794983,0.0,0.0,0.0,0.0,-0.126984131336
1449617840584305894,0.329650794983,0.0,0.0,0.0,0.0,-0.126984131336
1449617840623848685,0.329650794983,0.0,0.0,0.0,0.0,-0.126984131336
1449617840663932670,0.329650794983,0.0,0.0,0.0,0.0,-0.126984131336
1449617840703886623,0.329650794983,0.0,0.0,0.0,0.0,-0.126984131336
1449617840744509981,0.329650794983,0.0,0.0,0.0,0.0,-0.120634925365
1449617840783521275,0.329650794983,0.0,0.0,0.0,0.0,-0.126984131336
1449617840824070199,0.329650794983,0.0,0.0,0.0,0.0,-0.126984131336
1449617840863988687,0.329650794983,0.0,0.0,0.0,0.0,-0.126984131336
1449617840903287181,0.329650794983,0.0,0.0,0.0,0.0,-0.126984131336
1449617840943537510,0.329650794983,0.0,0.0,0.0,0.0,-0.126984131336
1449617840984270098,0.329650794983,0.0,0.0,0.0,0.0,-0.126984131336
1449617841025923704,0.329650794983,0.0,0.0,0.0,0.0,-0.120634925365
1449617841063540560,0.329650794983,0.0,0.0,0.0,0.0,-0.126984131336
1449617841105389925,0.329650794983,0.0,0.0,0.0,0.0,-0.126984131336
1449617841143660025,0.329650794983,0.0,0.0,0.0,0.0,-0.126984131336
1449617841183544806,0.335238096237,0.0,0.0,0.0,0.0,-0.0761904776096
1449617841223268375,0.335238096237,0.0,0.0,0.0,0.0,-0.0761904776096
1449617841263443758,0.335238096237,0.0,0.0,0.0,0.0,-0.0761904776096
1449617841303237461,0.284952384949,0.0,0.0,0.0,0.0,-0.0634920656681
1449617841343687121,0.284952384949,0.0,0.0,0.0,0.0,-0.0634920656681
1449617841384026089,0.284952384949,0.0,0.0,0.0,0.0,-0.0634920656681
1449617841424317856,0.335238096237,0.0,0.0,0.0,0.0,-0.126984131336
1449617841464343369,0.335238096237,0.0,0.0,0.0,0.0,-0.126984131336
1449617841503467378,0.335238096237,0.0,0.0,0.0,0.0,-0.126984131336
1449617841543797103,0.335238096237,0.0,0.0,0.0,0.0,-0.0761904776096
1449617841585022844,0.335238096237,0.0,0.0,0.0,0.0,-0.0825396835804
1449617841623729433,0.335238096237,0.0,0.0,0.0,0.0,-0.0825396835804
1449617841663500136,0.335238096237,0.0,0.0,0.0,0.0,-0.0825396835804
1449617841703496966,0.335238096237,0.0,0.0,0.0,0.0,-0.0761904776096
1449617841744159128,0.335238096237,0.0,0.0,0.0,0.0,-0.0761904776096
1449617841784204142,0.335238096237,0.0,0.0,0.0,0.0,-0.0761904776096
1449617841825777018,0.251428572178,0.0,0.0,0.0,0.0,-0.0571428582072
1449617841864988729,0.251428572178,0.0,0.0,0.0,0.0,-0.0571428582072
1449617841903698508,0.255619048119,0.0,0.0,0.0,0.0,-0.0571428582072
1449617841943370502,0.251428572178,0.0,0.0,0.0,0.0,-0.0571428582072
1449617841983956892,0.251428572178,0.0,0.0,0.0,0.0,-0.0571428582072
1449617842023375068,0.251428572178,0.0,0.0,0.0,0.0,-0.0571428582072
1449617842063473270,0.251428572178,0.0,0.0,0.0,0.0,-0.0571428582072
1449617842104418374,0.251428572178,0.0,0.0,0.0,0.0,-0.0571428582072
1449617842143737871,0.251428572178,0.0,0.0,0.0,0.0,-0.0571428582072
1449617842184179115,0.251428572178,0.0,0.0,0.0,0.0,-0.0571428582072
1449617842223711032,0.251428572178,0.0,0.0,0.0,0.0,-0.0571428582072
1449617842263235906,0.251428572178,0.0,0.0,0.0,0.0,-0.0571428582072
1449617842304406228,0.251428572178,0.0,0.0,0.0,0.0,-0.0571428582072
1449617842344811036,0.255619048119,0.0,0.0,0.0,0.0,-0.0571428582072
1449617842383344591,0.259809524059,0.0,0.0,0.0,0.0,-0.00952381007373
1449617842423581360,0.259809524059,0.0,0.0,0.0,0.0,-0.00952381007373
1449617842463854878,0.259809524059,0.0,0.0,0.0,0.0,-0.00952381007373
1449617842504347783,0.189968263626,0.0,0.0,0.0,0.0,-0.00634920671582
1449617842543440995,0.189968263626,0.0,0.0,0.0,0.0,-0.00634920671582
1449617842583346530,0.189968263626,0.0,0.0,0.0,0.0,-0.00634920671582
1449617842623346418,0.259809524059,0.0,0.0,0.0,0.0,0.0
1449617842663238051,0.259809524059,0.0,0.0,0.0,0.0,0.0
1449617842703713080,0.264,0.0,0.0,0.0,0.0,0.0
1449617842745637423,0.264,0.0,0.0,0.0,0.0,0.0
1449617842783914743,0.264,0.0,0.0,0.0,0.0,0.0
1449617842823820760,0.259809524059,0.0,0.0,0.0,0.0,0.0
1449617842863543948,0.259809524059,0.0,0.0,0.0,0.0,0.0
1449617842903356663,0.264,0.0,0.0,0.0,0.0,0.0
1449617842943645320,0.264,0.0,0.0,0.0,0.0,0.0
1449617842987136497,0.264,0.0,0.0,0.0,0.0,0.0
1449617843023856978,0.264,0.0,0.0,0.0,0.0,0.0
1449617843068779341,0.264,0.0,0.0,0.0,0.0,0.0
1449617843105562737,0.264,0.0,0.0,0.0,0.0,0.0
1449617843144493344,0.255619048119,0.0,0.0,0.0,0.0,0.0
1449617843183816310,0.255619048119,0.0,0.0,0.0,0.0,0.0
1449617843224500622,0.255619048119,0.0,0.0,0.0,0.0,0.0
1449617843266440204,0.255619048119,0.0,0.0,0.0,0.0,0.0
1449617843304272232,0.189968263626,0.0,0.0,0.0,0.0,0.0
1449617843343595541,0.189968263626,0.0,0.0,0.0,0.0,0.0
1449617843384560569,0.189968263626,0.0,0.0,0.0,0.0,0.0
1449617843423584581,0.184380962372,0.0,0.0,0.0,0.0,0.0
1449617843463534166,0.184380962372,0.0,0.0,0.0,0.0,0.0
1449617843504306254,0.189968263626,0.0,0.0,0.0,0.0,0.0
1449617843543713980,0.189968263626,0.0,0.0,0.0,0.0,0.0
1449617843583573873,0.212317468643,0.0,0.0,0.0,0.0,0.0
1449617843623409582,0.212317468643,0.0,0.0,0.0,0.0,0.0
1449617843663835146,0.212317468643,0.0,0.0,0.0,0.0,0.0
1449617843703948595,0.189968263626,0.0,0.0,0.0,0.0,0.0
1449617843743627276,0.189968263626,0.0,0.0,0.0,0.0,0.0
1449617843784124740,0.189968263626,0.0,0.0,0.0,0.0,0.0
1449617843824148040,0.189968263626,0.0,0.0,0.0,0.0,0.0
1449617843865077936,0.189968263626,0.0,0.0,0.0,0.0,0.0
1449617843903437586,0.189968263626,0.0,0.0,0.0,0.0,0.0
1449617843943252383,0.173206349373,0.0,0.0,0.0,0.0,0.0
1449617843983892880,0.173206349373,0.0,0.0,0.0,0.0,0.0
1449617844023388325,0.173206349373,0.0,0.0,0.0,0.0,0.0
1449617844064133061,0.173206349373,0.0,0.0,0.0,0.0,0.0
1449617844103765057,0.173206349373,0.0,0.0,0.0,0.0,0.0
1449617844144012709,0.173206349373,0.0,0.0,0.0,0.0,0.0
1449617844183296005,0.173206349373,0.0,0.0,0.0,0.0,0.0
1449617844225304981,0.173206349373,0.0,0.0,0.0,0.0,0.0
1449617844264483586,0.173206349373,0.0,0.0,0.0,0.0,0.0
1449617844303936249,0.189968263626,0.0,0.0,0.0,0.0,0.0
1449617844343788458,0.189968263626,0.0,0.0,0.0,0.0,0.0
1449617844383686991,0.189968263626,0.0,0.0,0.0,0.0,0.0
1449617844423796895,0.189968263626,0.0,0.0,0.0,0.0,0.0
1449617844464002690,0.189968263626,0.0,0.0,0.0,0.0,0.0
1449617844503481676,0.189968263626,0.0,0.0,0.0,0.0,0.0
1449617844543583626,0.189968263626,0.0,0.0,0.0,0.0,0.0
1449617844583332058,0.189968263626,0.0,0.0,0.0,0.0,0.0
1449617844624818708,0.14247619772,0.0,0.0,0.0,0.0,0.0
1449617844663725768,0.14247619772,0.0,0.0,0.0,0.0,0.0
1449617844703682536,0.189968263626,0.0,0.0,0.0,0.0,0.0
1449617844743683539,0.189968263626,0.0,0.0,0.0,0.0,0.0
1449617844784448104,0.14247619772,0.0,0.0,0.0,0.0,0.0
1449617844823491035,0.14247619772,0.0,0.0,0.0,0.0,0.0
1449617844863452554,0.14247619772,0.0,0.0,0.0,0.0,0.0
1449617844903696621,0.14247619772,0.0,0.0,0.0,0.0,0.0
1449617844943351532,0.138285721779,0.0,0.0,0.0,0.0,0.0
1449617844983878775,0.138285721779,0.0,0.0,0.0,0.0,0.0
1449617845023569439,0.138285721779,0.0,0.0,0.0,0.0,0.0
1449617845063269507,0.14247619772,0.0,0.0,0.0,0.0,0.0
1449617845103661412,0.14247619772,0.0,0.0,0.0,0.0,0.0
1449617845143238417,0.14247619772,0.0,0.0,0.0,0.0,0.0
1449617845184312475,0.14247619772,0.0,0.0,0.0,0.0,0.0
1449617845223621893,0.14247619772,0.0,0.0,0.0,0.0,0.0
1449617845263961243,0.138285721779,0.0,0.0,0.0,0.0,0.0
1449617845303733654,0.138285721779,0.0,0.0,0.0,0.0,0.0
1449617845343694715,0.158937218429,0.0,0.0,0.0,0.0,-0.0157894736842
1449617845388261971,0.158937218429,0.0,0.0,0.0,0.0,-0.0157894736842
1449617845423977576,0.148593536696,0.0,0.0,0.0,0.0,-0.0210526315789
1449617845463725710,0.155812628967,0.0,0.0,0.0,0.0,-0.0157894736842
1449617845503916753,0.154660780758,0.0,0.0,0.0,0.0,-0.0157894736842
1449617845544072939,0.154660780758,0.0,0.0,0.0,0.0,-0.0157894736842
1449617845583962944,0.154660780758,0.0,0.0,0.0,0.0,-0.0157894736842
1449617845625287598,0.166209443627,0.0,0.0,0.0,0.0,-0.0105263157895
1449617845663909407,0.166209443627,0.0,0.0,0.0,0.0,-0.0105263157895
1449617845703600676,0.166209443627,0.0,0.0,0.0,0.0,-0.0105263157895
1449617845744371655,0.141682713604,0.0,0.0,0.0,0.0,-0.0210526315789
1449617845783331685,0.141682713604,0.0,0.0,0.0,0.0,-0.0210526315789
1449617845823574676,0.141682713604,0.0,0.0,0.0,0.0,-0.0210526315789
1449617845863541169,0.15317829752,0.0,0.0,0.0,0.0,-0.0157894736842
1449617845904740737,0.15317829752,0.0,0.0,0.0,0.0,-0.0157894736842
1449617845945853487,0.150629847459,0.0,0.0,0.0,0.0,0.0
1449617845983354775,0.150629847459,0.0,0.0,0.0,0.0,0.0
1449617846023358549,0.149478391521,0.0,0.0,0.0,0.0,0.0
1449617846064301201,0.148902738258,0.0,0.0,0.0,0.0,0.0
1449617846103737074,0.155141506463,0.0,0.0,0.0,0.0,0.0
1449617846143546948,0.152431217055,0.0,0.0,0.0,0.0,0.0
1449617846183481172,0.144837304146,0.0,0.0,0.0,0.0,0.0
1449617846223441777,0.144837304146,0.0,0.0,0.0,0.0,0.0
1449617846265950252,0.130504829869,0.0,0.0,0.0,0.0,0.0
1449617846308843142,0.130504829869,0.0,0.0,0.0,0.0,0.0
1449617846344292240,0.130504829869,0.0,0.0,0.0,0.0,0.0
1449617846386546448,0.130504829869,0.0,0.0,0.0,0.0,0.0
1449617846423917495,0.130504829869,0.0,0.0,0.0,0.0,0.0
1449617846463908407,0.141180209745,0.0,0.0,0.0,0.0,0.0
1449617846503407154,0.141180209745,0.0,0.0,0.0,0.0,0.0
1449617846544909019,0.143973862995,0.0,0.0,0.0,0.0,0.0
1449617846586439442,0.143973862995,0.0,0.0,0.0,0.0,0.0
1449617846623624419,0.143973862995,0.0,0.0,0.0,0.0,0.0
1449617846663707103,0.145370688308,0.0,0.0,0.0,0.0,0.0
1449617846703374968,0.130504829869,0.0,0.0,0.0,0.0,0.0
1449617846743603631,0.141180209745,0.0,0.0,0.0,0.0,0.0
1449617846784728457,0.141180209745,0.0,0.0,0.0,0.0,0.0
1449617846823522354,0.138285721779,0.0,0.0,0.0,0.0,0.0
1449617846863354148,0.094984131813,0.0,0.0,0.0,0.0,0.0
1449617846903588722,0.094984131813,0.0,0.0,0.0,0.0,0.0
1449617846943285718,0.094984131813,0.0,0.0,0.0,0.0,0.0
1449617846983942349,0.094984131813,0.0,0.0,0.0,0.0,0.0
1449617847023893607,0.0921904811859,0.0,0.0,0.0,0.0,0.0
1449617847063720258,0.0921904811859,0.0,0.0,0.0,0.0,0.0
1449617847103692997,0.0921904811859,0.0,0.0,0.0,0.0,0.0
1449617847143866716,0.0921904811859,0.0,0.0,0.0,0.0,0.0
1449617847183762756,0.0921904811859,0.0,0.0,0.0,0.0,0.0
1449617847223953620,0.0921904811859,0.0,0.0,0.0,0.0,0.0
1449617847263927705,0.0921904811859,0.0,0.0,0.0,0.0,0.0
1449617847303260804,0.12990476203,0.0,0.0,0.0,0.0,0.0
1449617847343331424,0.12990476203,0.0,0.0,0.0,0.0,0.0
1449617847384616954,0.12990476203,0.0,0.0,0.0,0.0,0.0
1449617847424341628,0.094984131813,0.0,0.0,0.0,0.0,0.0
1449617847463519632,0.094984131813,0.0,0.0,0.0,0.0,0.0
1449617847504273814,0.094984131813,0.0,0.0,0.0,0.0,0.0
1449617847543518336,0.094984131813,0.0,0.0,0.0,0.0,0.0
1449617847584987677,0.094984131813,0.0,0.0,0.0,0.0,0.0
1449617847623676321,0.0866031746864,0.0,0.0,0.0,0.0,0.0
1449617847663564989,0.0866031746864,0.0,0.0,0.0,0.0,0.0
1449617847703956934,0.0921904811859,0.0,0.0,0.0,0.0,0.0
1449617847743651560,0.0921904811859,0.0,0.0,0.0,0.0,0.0
1449617847783774095,0.0921904811859,0.0,0.0,0.0,0.0,0.0
1449617847823780017,0.0921904811859,0.0,0.0,0.0,0.0,0.0
1449617847863635858,0.0921904811859,0.0,0.0,0.0,0.0,0.0
1449617847903396496,0.0921904811859,0.0,0.0,0.0,0.0,0.0
1449617847943481740,0.094984131813,0.0,0.0,0.0,0.0,0.0
1449617847986878288,0.094984131813,0.0,0.0,0.0,0.0,0.0
1449617848030241588,0.094984131813,0.0,0.0,0.0,0.0,0.0
1449617848063383138,0.094984131813,0.0,0.0,0.0,0.0,0.0
1449617848103406446,0.094984131813,0.0,0.0,0.0,0.0,0.0
1449617848143681528,0.094984131813,0.0,0.0,0.0,0.0,0.0
1449617848184102473,0.094984131813,0.0,0.0,0.0,0.0,0.0
1449617848223952247,0.094984131813,0.0,0.0,0.0,0.0,0.0
1449617848263351937,0.0866031746864,0.0,0.0,0.0,0.0,0.0
1449617848303493532,0.0866031746864,0.0,0.0,0.0,0.0,0.0
1449617848344479870,0.0866031746864,0.0,0.0,0.0,0.0,0.0
1449617848383398916,0.094984131813,0.0,0.0,0.0,0.0,0.0
1449617848423537730,0.094984131813,0.0,0.0,0.0,0.0,0.0
1449617848463626375,0.094984131813,0.0,0.0,0.0,0.0,0.0
1449617848503581229,0.094984131813,0.0,0.0,0.0,0.0,0.0
1449617848544403266,0.094984131813,0.0,0.0,0.0,0.0,0.0
1449617848583708080,0.094984131813,0.0,0.0,0.0,0.0,0.0
1449617848624777714,0.094984131813,0.0,0.0,0.0,0.0,0.0
1449617848663486017,0.094984131813,0.0,0.0,0.0,0.0,0.0
1449617848703404423,0.0866031746864,0.0,0.0,0.0,0.0,0.0
1449617848744539273,0.0866031746864,0.0,0.0,0.0,0.0,0.0
1449617848784466210,0.0866031746864,0.0,0.0,0.0,0.0,0.0
1449617848823576411,0.0866031746864,0.0,0.0,0.0,0.0,0.0
1449617848863631964,0.0866031746864,0.0,0.0,0.0,0.0,0.0
1449617848903359716,0.078222222805,0.0,0.0,0.0,0.0,0.0
1449617848943393753,0.078222222805,0.0,0.0,0.0,0.0,0.0
1449617848983265954,0.078222222805,0.0,0.0,0.0,0.0,0.0
1449617849023567475,0.088,0.0,0.0,0.0,0.0,0.0
1449617849063553848,0.088,0.0,0.0,0.0,0.0,0.0
1449617849103333211,0.088,0.0,0.0,0.0,0.0,0.0
1449617849143807368,0.094984131813,0.0,0.0,0.0,0.0,0.0
1449617849185262105,0.094984131813,0.0,0.0,0.0,0.0,0.0
1449617849223920066,0.094984131813,0.0,0.0,0.0,0.0,0.0
1449617849263385309,0.0866031746864,0.0,0.0,0.0,0.0,0.0
1449617849304234965,0.0866031746864,0.0,0.0,0.0,0.0,0.00158730167896
1449617849343787231,0.0866031746864,0.0,0.0,0.0,0.0,0.00158730167896
1449617849383857244,0.0866031746864,0.0,0.0,0.0,0.0,0.00158730167896
1449617849426754826,0.0866031746864,0.0,0.0,0.0,0.0,0.00158730167896
1449617849463272087,0.0866031746864,0.0,0.0,0.0,0.0,0.00158730167896
1449617849504968475,0.0866031746864,0.0,0.0,0.0,0.0,0.00158730167896
1449617849544481855,0.0866031746864,0.0,0.0,0.0,0.0,0.0047619048506
1449617849584106294,0.0866031746864,0.0,0.0,0.0,0.0,0.0047619048506
1449617849623789929,0.0796190481186,0.0,0.0,0.0,0.0,0.0460317462683
1449617849663605294,0.0796190481186,0.0,0.0,0.0,0.0,0.0460317462683
1449617849703362831,0.0796190481186,0.0,0.0,0.0,0.0,0.0460317462683
1449617849744031169,0.226285716534,0.0,0.0,0.0,0.0,0.252380955219
1449617849783488390,0.0740317468643,0.0,0.0,0.0,0.0,0.0841269850731
1449617849826228597,0.0740317468643,0.0,0.0,0.0,0.0,0.0841269850731
1449617849863801728,0.0740317468643,0.0,0.0,0.0,0.0,0.0841269850731
1449617849903236670,0.226285716534,0.0,0.0,0.0,0.0,0.252380955219
1449617849949896734,0.226285716534,0.0,0.0,0.0,0.0,0.252380955219
1449617849983499244,0.0740317468643,0.0,0.0,0.0,0.0,0.0857142865658
1449617850023735754,0.0740317468643,0.0,0.0,0.0,0.0,0.0857142865658
1449617850063547222,0.0740317468643,0.0,0.0,0.0,0.0,0.0857142865658
1449617850103300966,0.0740317468643,0.0,0.0,0.0,0.0,0.0857142865658
1449617850144506667,0.226285716534,0.0,0.0,0.0,0.0,0.252380955219
1449617850183654930,0.0740317468643,0.0,0.0,0.0,0.0,0.0857142865658
1449617850224674995,0.0740317468643,0.0,0.0,0.0,0.0,0.0857142865658
1449617850268084658,0.0740317468643,0.0,0.0,0.0,0.0,0.0857142865658
1449617850304489648,0.0740317468643,0.0,0.0,0.0,0.0,0.0857142865658
1449617850343482705,0.131301589966,0.0,0.0,0.0,0.0,0.146031749249
1449617850383864314,0.222095240593,0.0,0.0,0.0,0.0,0.257142859697
1449617850423941902,0.222095240593,0.0,0.0,0.0,0.0,0.257142859697
1449617850464213083,0.222095240593,0.0,0.0,0.0,0.0,0.257142859697
1449617850503771738,0.226285716534,0.0,0.0,0.0,0.0,0.252380955219
1449617850543985050,0.226285716534,0.0,0.0,0.0,0.0,0.252380955219
1449617850583703980,0.226285716534,0.0,0.0,0.0,0.0,0.252380955219
1449617850623566324,0.134095240593,0.0,0.0,0.0,0.0,0.152380955219
1449617850664078049,0.134095240593,0.0,0.0,0.0,0.0,0.152380955219
1449617850704180208,0.134095240593,0.0,0.0,0.0,0.0,0.152380955219
1449617850743751060,0.222095240593,0.0,0.0,0.0,0.0,0.252380955219
1449617850786494661,0.222095240593,0.0,0.0,0.0,0.0,0.252380955219
1449617850824121164,0.222095240593,0.0,0.0,0.0,0.0,0.252380955219
1449617850864190214,0.352,0.0,0.0,0.0,0.0,0.357894736842
1449617850906699772,0.352,0.0,0.0,0.0,0.0,0.357894736842
1449617850944118303,0.352,0.0,0.0,0.0,0.0,0.357894736842
1449617850983795008,0.352,0.0,0.0,0.0,0.0,0.357894736842
1449617851024390127,0.352,0.0,0.0,0.0,0.0,0.357894736842
1449617851066007410,0.352,0.0,0.0,0.0,0.0,0.357894736842
1449617851103721835,0.249241248188,0.0,0.0,0.0,0.0,0.266165415237
1449617851143950451,0.249241248188,0.0,0.0,0.0,0.0,0.266165415237
1449617851183545626,0.249241248188,0.0,0.0,0.0,0.0,0.266165415237
1449617851223695875,0.245526695764,0.0,0.0,0.0,0.0,0.266165415237
1449617851263339784,0.245526695764,0.0,0.0,0.0,0.0,0.266165415237
1449617851303660863,0.245526695764,0.0,0.0,0.0,0.0,0.266165415237
1449617851343376205,0.245065826231,0.0,0.0,0.0,0.0,0.266165415237
1449617851386152690,0.246013553934,0.0,0.0,0.0,0.0,0.266165415237
1449617851424387006,0.246013553934,0.0,0.0,0.0,0.0,0.266165415237
1449617851463513438,0.246013553934,0.0,0.0,0.0,0.0,0.266165415237
1449617851504678977,0.273863921323,0.0,0.0,0.0,0.0,0.30451128075
1449617851544055798,0.268287217585,0.0,0.0,0.0,0.0,0.299749376272
1449617851583821628,0.212607677841,0.0,0.0,0.0,0.0,0.226232248231
1449617851623664352,0.184767907969,0.0,0.0,0.0,0.0,0.189473684211
1449617851663789986,0.184767907969,0.0,0.0,0.0,0.0,0.189473684211
1449617851703834789,0.180146674615,0.0,0.0,0.0,0.0,0.189473684211
1449617851745995635,0.180146674615,0.0,0.0,0.0,0.0,0.189473684211
1449617851787753993,0.180146674615,0.0,0.0,0.0,0.0,0.189473684211
1449617851825150278,0.180146674615,0.0,0.0,0.0,0.0,0.189473684211
1449617851864495287,0.172733177546,0.0,0.0,0.0,0.0,0.189473684211
1449617851903748361,0.172733177546,0.0,0.0,0.0,0.0,0.189473684211
1449617851943634664,0.172733177546,0.0,0.0,0.0,0.0,0.189473684211
1449617851983503419,0.16809522774,0.0,0.0,0.0,0.0,0.189473684211
1449617852026527373,0.16809522774,0.0,0.0,0.0,0.0,0.189473684211
1449617852065755473,0.16809522774,0.0,0.0,0.0,0.0,0.189473684211
1449617852105932653,0.160661728461,0.0,0.0,0.0,0.0,0.189473684211
1449617852143223368,0.160661728461,0.0,0.0,0.0,0.0,0.189473684211
1449617852185947050,0.151357006026,0.0,0.0,0.0,0.0,0.189473684211
1449617852223794930,0.151357006026,0.0,0.0,0.0,0.0,0.189473684211
1449617852264248998,0.151357006026,0.0,0.0,0.0,0.0,0.189473684211
1449617852304268837,0.352,0.0,0.0,0.0,0.0,0.315789473684
1449617852343402008,0.352,0.0,0.0,0.0,0.0,0.315789473684
1449617852384055085,0.352,0.0,0.0,0.0,0.0,0.315789473684
1449617852426765273,0.352,0.0,0.0,0.0,0.0,0.315789473684
1449617852464413214,0.352,0.0,0.0,0.0,0.0,0.357894736842
1449617852503629337,0.352,0.0,0.0,0.0,0.0,0.315789473684
1449617852543491135,0.352,0.0,0.0,0.0,0.0,0.315789473684
1449617852584644154,0.352,0.0,0.0,0.0,0.0,0.315789473684
1449617852623571323,0.352,0.0,0.0,0.0,0.0,0.315789473684
1449617852663863802,0.352,0.0,0.0,0.0,0.0,0.315789473684
1449617852706900201,0.352,0.0,0.0,0.0,0.0,0.315789473684
1449617852743433738,0.352,0.0,0.0,0.0,0.0,0.315789473684
1449617852783423890,0.352,0.0,0.0,0.0,0.0,0.357894736842
1449617852823429320,0.352,0.0,0.0,0.0,0.0,0.357894736842
1449617852863495074,0.352,0.0,0.0,0.0,0.0,0.357894736842
1449617852903926578,0.352,0.0,0.0,0.0,0.0,0.315789473684
1449617852943408630,0.352,0.0,0.0,0.0,0.0,0.315789473684
1449617852984844575,0.352,0.0,0.0,0.0,0.0,0.315789473684
1449617853025201601,0.352,0.0,0.0,0.0,0.0,0.357894736842
1449617853063543905,0.352,0.0,0.0,0.0,0.0,0.315789473684
1449617853103890927,0.352,0.0,0.0,0.0,0.0,0.315789473684
1449617853146482404,0.352,0.0,0.0,0.0,0.0,0.315789473684
1449617853183866723,0.352,0.0,0.0,0.0,0.0,0.315789473684
1449617853224107177,0.352,0.0,0.0,0.0,0.0,0.315789473684
1449617853263605643,0.352,0.0,0.0,0.0,0.0,0.315789473684
1449617853304652900,0.352,0.0,0.0,0.0,0.0,0.315789473684
1449617853346575718,0.352,0.0,0.0,0.0,0.0,0.315789473684
1449617853383445241,0.352,0.0,0.0,0.0,0.0,0.315789473684
1449617853423484525,0.352,0.0,0.0,0.0,0.0,0.315789473684
1449617853464161070,0.340825397491,0.0,0.0,0.0,0.0,0.270008354311
1449617853504628728,0.340825397491,0.0,0.0,0.0,0.0,0.270008354311
1449617853543596424,0.352,0.0,0.0,0.0,0.0,0.273684210526
1449617853585735124,0.352,0.0,0.0,0.0,0.0,0.273684210526
1449617853623735936,0.352,0.0,0.0,0.0,0.0,0.273684210526
1449617853664187108,0.352,0.0,0.0,0.0,0.0,0.315789473684
1449617853703732371,0.349206349373,0.0,0.0,0.0,0.0,0.182121971779
1449617853744311527,0.349206349373,0.0,0.0,0.0,0.0,0.182121971779
1449617853784033184,0.349206349373,0.0,0.0,0.0,0.0,0.182121971779
1449617853824906584,0.352,0.0,0.0,0.0,0.0,0.174803030867
1449617853864205672,0.352,0.0,0.0,0.0,0.0,0.174803030867
1449617853903836907,0.0335238101482,0.0,0.0,0.0,0.0,0.0
1449617853945069732,0.0335238101482,0.0,0.0,0.0,0.0,0.0
1449617853985111675,0.0335238101482,0.0,0.0,0.0,0.0,0.0
1449617854023756263,0.0335238101482,0.0,0.0,0.0,0.0,0.0
1449617854066850921,0.0335238101482,0.0,0.0,0.0,0.0,0.0
1449617854104297367,0.0335238101482,0.0,0.0,0.0,0.0,0.0
1449617854143572454,0.0558730177879,0.0,0.0,0.0,0.0,0.0
1449617854183355120,0.189968263626,0.0,0.0,0.0,0.0,0.0
1449617854224261073,0.189968263626,0.0,0.0,0.0,0.0,0.0
1449617854264364406,0.189968263626,0.0,0.0,0.0,0.0,0.0
1449617854303703732,0.189968263626,0.0,0.0,0.0,0.0,0.0
1449617854343678283,0.184380962372,0.0,0.0,0.0,0.0,0.0
1449617854383547605,0.184380962372,0.0,0.0,0.0,0.0,0.0
1449617854423891398,0.346412698746,0.0,0.0,0.0,0.0,0.0
1449617854465222830,0.346412698746,0.0,0.0,0.0,0.0,0.0
1449617854505250723,0.346412698746,0.0,0.0,0.0,0.0,0.0
1449617854543917257,0.346412698746,0.0,0.0,0.0,0.0,0.0
1449617854584419336,0.346412698746,0.0,0.0,0.0,0.0,0.0
1449617854625231540,0.346412698746,0.0,0.0,0.0,0.0,0.0
1449617854665772038,0.346412698746,0.0,0.0,0.0,0.0,0.0
1449617854703420652,0.346412698746,0.0,0.0,0.0,0.0,0.0
1449617854743747802,0.346412698746,0.0,0.0,0.0,0.0,0.0
1449617854784297456,0.346412698746,0.0,0.0,0.0,0.0,0.0
1449617854823649865,0.31288889122,0.0,0.0,0.0,0.0,0.0
1449617854864777265,0.31288889122,0.0,0.0,0.0,0.0,0.0
1449617854904336250,0.31288889122,0.0,0.0,0.0,0.0,0.0
1449617854944016162,0.284952384949,0.0,0.0,0.0,0.0,-0.0380952388048
1449617854984054503,0.284952384949,0.0,0.0,0.0,0.0,-0.0380952388048
1449617855024185053,0.284952384949,0.0,0.0,0.0,0.0,-0.0380952388048
1449617855063830530,0.284952384949,0.0,0.0,0.0,0.0,-0.0380952388048
1449617855103438729,0.139490298308,0.0,0.0,0.0,0.0,-0.0631578947368
1449617855143495321,0.134711870893,0.0,0.0,0.0,0.0,-0.0631578947368
1449617855183720954,0.134711870893,0.0,0.0,0.0,0.0,-0.0631578947368
1449617855225179471,0.134711870893,0.0,0.0,0.0,0.0,-0.0631578947368
1449617855263732942,0.131846595133,0.0,0.0,0.0,0.0,-0.105263157895
1449617855303320992,0.131846595133,0.0,0.0,0.0,0.0,-0.105263157895
1449617855343326991,0.127082139162,0.0,0.0,0.0,0.0,-0.105263157895
1449617855384071791,0.121396295385,0.0,0.0,0.0,0.0,-0.105263157895
1449617855423533699,0.121396295385,0.0,0.0,0.0,0.0,-0.105263157895
1449617855463425172,0.121396295385,0.0,0.0,0.0,0.0,-0.105263157895
1449617855503422116,0.12,0.0,0.0,0.0,0.0,-0.147368421053
1449617855543273704,0.12,0.0,0.0,0.0,0.0,-0.147368421053
1449617855584269252,0.12,0.0,0.0,0.0,0.0,-0.147368421053
1449617855626572551,0.12,0.0,0.0,0.0,0.0,-0.147368421053
1449617855671920528,0.12,0.0,0.0,0.0,0.0,-0.147368421053
1449617855704561814,0.12,0.0,0.0,0.0,0.0,-0.147368421053
1449617855743273021,0.12,0.0,0.0,0.0,0.0,-0.147368421053
1449617855783746727,0.12,0.0,0.0,0.0,0.0,-0.147368421053
1449617855823691676,0.12,0.0,0.0,0.0,0.0,-0.147368421053
1449617855865637025,0.12,0.0,0.0,0.0,0.0,-0.147368421053
1449617855905161325,0.12,0.0,0.0,0.0,0.0,-0.147368421053
1449617855949766769,0.352,0.0,0.0,0.0,0.0,-0.273684210526
1449617855983472595,0.352,0.0,0.0,0.0,0.0,-0.273684210526
1449617856023826912,0.352,0.0,0.0,0.0,0.0,-0.315789473684
1449617856064504640,0.352,0.0,0.0,0.0,0.0,-0.315789473684
1449617856106898998,0.352,0.0,0.0,0.0,0.0,-0.315789473684
1449617856143445720,0.352,0.0,0.0,0.0,0.0,-0.315789473684
1449617856184025703,0.352,0.0,0.0,0.0,0.0,-0.315789473684
1449617856226498051,0.352,0.0,0.0,0.0,0.0,-0.315789473684
1449617856263374105,0.352,0.0,0.0,0.0,0.0,-0.357894736842
1449617856305881713,0.352,0.0,0.0,0.0,0.0,-0.357894736842
1449617856344172797,0.352,0.0,0.0,0.0,0.0,-0.315789473684
1449617856383513846,0.352,0.0,0.0,0.0,0.0,-0.315789473684
1449617856424652194,0.352,0.0,0.0,0.0,0.0,-0.315789473684
1449617856463771898,0.352,0.0,0.0,0.0,0.0,-0.315789473684
1449617856504161220,0.352,0.0,0.0,0.0,0.0,-0.315789473684
1449617856552599067,0.352,0.0,0.0,0.0,0.0,-0.273684210526
1449617856583655787,0.352,0.0,0.0,0.0,0.0,-0.273684210526
1449617856623658376,0.352,0.0,0.0,0.0,0.0,-0.273684210526
1449617856663759968,0.352,0.0,0.0,0.0,0.0,-0.315789473684
1449617856704839619,0.329650794983,0.0,0.0,0.0,0.0,-0.126984131336
1449617856743964245,0.329650794983,0.0,0.0,0.0,0.0,-0.126984131336
1449617856783239261,0.329650794983,0.0,0.0,0.0,0.0,-0.126984131336
1449617856824169508,0.27377778244,0.0,0.0,0.0,0.0,-0.101587307453
1449617856869482925,0.27377778244,0.0,0.0,0.0,0.0,-0.101587307453
1449617856903616096,0.27377778244,0.0,0.0,0.0,0.0,-0.101587307453
1449617856944003131,0.329650794983,0.0,0.0,0.0,0.0,-0.126984131336
1449617856988539816,0.329650794983,0.0,0.0,0.0,0.0,-0.126984131336
1449617857023672944,0.329650794983,0.0,0.0,0.0,0.0,-0.126984131336
1449617857063966664,0.335238096237,0.0,0.0,0.0,0.0,-0.0761904776096
1449617857107370719,0.335238096237,0.0,0.0,0.0,0.0,-0.0761904776096
1449617857145967072,0.335238096237,0.0,0.0,0.0,0.0,-0.0761904776096
1449617857183562673,0.335238096237,0.0,0.0,0.0,0.0,-0.0761904776096
1449617857223617859,0.335238096237,0.0,0.0,0.0,0.0,-0.0761904776096
1449617857264144244,0.335238096237,0.0,0.0,0.0,0.0,-0.0761904776096
1449617857303415745,0.335238096237,0.0,0.0,0.0,0.0,-0.0761904776096
1449617857353888954,0.340825397491,0.0,0.0,0.0,0.0,-0.0317460328341
1449617857383994689,0.346412698746,0.0,0.0,0.0,0.0,-0.0190476194024
1449617857425550291,0.346412698746,0.0,0.0,0.0,0.0,-0.0190476194024
1449617857464781265,0.346412698746,0.0,0.0,0.0,0.0,-0.0190476194024
1449617857503514839,0.346412698746,0.0,0.0,0.0,0.0,-0.0126984134316
1449617857544070300,0.346412698746,0.0,0.0,0.0,0.0,-0.0126984134316
1449617857583547504,0.346412698746,0.0,0.0,0.0,0.0,-0.0126984134316
1449617857623660587,0.346412698746,0.0,0.0,0.0,0.0,-0.0126984134316
1449617857663592586,0.346412698746,0.0,0.0,0.0,0.0,-0.0126984134316
1449617857703852916,0.346412698746,0.0,0.0,0.0,0.0,-0.00634920671582
1449617857743334426,0.346412698746,0.0,0.0,0.0,0.0,-0.00634920671582
1449617857784794278,0.346412698746,0.0,0.0,0.0,0.0,-0.00634920671582
1449617857825742036,0.346412698746,0.0,0.0,0.0,0.0,-0.00634920671582
1449617857864226220,0.346412698746,0.0,0.0,0.0,0.0,-0.00634920671582
1449617857903357854,0.346412698746,0.0,0.0,0.0,0.0,-0.00634920671582
1449617857943558812,0.346412698746,0.0,0.0,0.0,0.0,-0.00634920671582
1449617857983858600,0.307301589966,0.0,0.0,0.0,0.0,-0.00634920671582
1449617858023887750,0.307301589966,0.0,0.0,0.0,0.0,-0.00634920671582
1449617858064201015,0.307301589966,0.0,0.0,0.0,0.0,-0.00634920671582
1449617858103818421,0.346412698746,0.0,0.0,0.0,0.0,-0.00634920671582
1449617858143853886,0.346412698746,0.0,0.0,0.0,0.0,-0.00634920671582
1449617858183785181,0.346412698746,0.0,0.0,0.0,0.0,-0.00634920671582
1449617858223929973,0.346412698746,0.0,0.0,0.0,0.0,-0.00634920671582
1449617858263834581,0.346412698746,0.0,0.0,0.0,0.0,-0.00634920671582
1449617858303902683,0.346412698746,0.0,0.0,0.0,0.0,-0.00634920671582
1449617858349799957,0.352,0.0,0.0,0.0,0.0,-0.00634920671582
1449617858385332902,0.301714288712,0.0,0.0,0.0,0.0,-0.00634920671582
1449617858424138227,0.301714288712,0.0,0.0,0.0,0.0,-0.00634920671582
1449617858463495573,0.301714288712,0.0,0.0,0.0,0.0,-0.00634920671582
1449617858503355064,0.346412698746,0.0,0.0,0.0,0.0,-0.00634920671582
1449617858554640986,0.346412698746,0.0,0.0,0.0,0.0,-0.00634920671582
1449617858584340333,0.346412698746,0.0,0.0,0.0,0.0,-0.00634920671582
1449617858623814380,0.335238096237,0.0,0.0,0.0,0.0,0.0761904776096
1449617858664152206,0.335238096237,0.0,0.0,0.0,0.0,0.0761904776096
1449617858709117533,0.335238096237,0.0,0.0,0.0,0.0,0.0761904776096
1449617858744380933,0.277663493729,0.0,0.0,0.0,0.0,0.0103592333041
1449617858783332892,0.277663493729,0.0,0.0,0.0,0.0,-0.0106933982749
1449617858823815536,0.291085716534,0.0,0.0,0.0,0.0,0.157142859697
1449617858863643597,0.291085716534,0.0,0.0,0.0,0.0,0.157142859697
1449617858903337044,0.286895240593,0.0,0.0,0.0,0.0,0.157142859697
1449617858945288591,0.275295240593,0.0,0.0,0.0,0.0,0.157142859697
1449617858983920058,0.275295240593,0.0,0.0,0.0,0.0,0.157142859697
1449617859023634613,0.279485716534,0.0,0.0,0.0,0.0,0.157142859697
1449617859067044166,0.257257144356,0.0,0.0,0.0,0.0,-0.00751879528949
1449617859103731393,0.275295240593,0.0,0.0,0.0,0.0,0.152380955219
1449617859143268639,0.275295240593,0.0,0.0,0.0,0.0,0.152380955219
1449617859183665458,0.275295240593,0.0,0.0,0.0,0.0,0.152380955219
1449617859223555350,0.279485716534,0.0,0.0,0.0,0.0,0.157142859697
1449617859263975394,0.279485716534,0.0,0.0,0.0,0.0,0.157142859697
1449617859304218840,0.279415544011,0.0,0.0,0.0,0.0,0.157142859697
1449617859343495386,0.275010638403,0.0,0.0,0.0,0.0,0.157142859697
1449617859390039857,0.275010638403,0.0,0.0,0.0,0.0,0.157142859697
1449617859423632074,0.279201114344,0.0,0.0,0.0,0.0,0.157142859697
1449617859463838456,0.279201114344,0.0,0.0,0.0,0.0,0.157142859697
1449617859506118699,0.24124090852,0.0,0.0,0.0,0.0,0.114285719395
1449617859543555020,0.229736232737,0.0,0.0,0.0,0.0,0.114285719395
1449617859583388789,0.229736232737,0.0,0.0,0.0,0.0,0.114285719395
1449617859623774876,0.267400827243,0.0,0.0,0.0,0.0,0.157142859697
1449617859664685629,0.267400827243,0.0,0.0,0.0,0.0,0.157142859697
1449617859703672401,0.263083103362,0.0,0.0,0.0,0.0,0.157142859697
1449617859743502933,0.263083103362,0.0,0.0,0.0,0.0,0.157142859697
1449617859784368169,0.22949858047,0.0,0.0,0.0,0.0,0.114285719395
1449617859823785026,0.22949858047,0.0,0.0,0.0,0.0,0.114285719395
1449617859865035725,0.229337441736,0.0,0.0,0.0,0.0,0.114285719395
1449617859907240131,0.229337441736,0.0,0.0,0.0,0.0,0.114285719395
1449617859956592103,0.267023873205,0.0,0.0,0.0,0.0,0.157142859697
1449617859983458688,0.267023873205,0.0,0.0,0.0,0.0,0.157142859697
1449617860023649615,0.266943355875,0.0,0.0,0.0,0.0,0.157142859697
1449617860064047917,0.262676973709,0.0,0.0,0.0,0.0,0.157142859697
1449617860105429572,0.262676973709,0.0,0.0,0.0,0.0,0.157142859697
1449617860148453135,0.262676973709,0.0,0.0,0.0,0.0,0.157142859697
1449617860183215984,0.262639297258,0.0,0.0,0.0,0.0,0.157142859697
1449617860225822948,0.26678185187,0.0,0.0,0.0,0.0,0.157142859697
1449617860265088211,0.256285716534,0.0,0.0,0.0,0.0,0.157142859697
1449617860303896752,0.256285716534,0.0,0.0,0.0,0.0,0.157142859697
1449617860343489829,0.256285716534,0.0,0.0,0.0,0.0,0.157142859697
1449617860383453342,0.256285716534,0.0,0.0,0.0,0.0,0.157142859697
1449617860428428705,0.256285716534,0.0,0.0,0.0,0.0,0.157142859697
1449617860463437357,0.256285716534,0.0,0.0,0.0,0.0,0.157142859697
1449617860503425704,0.256285716534,0.0,0.0,0.0,0.0,0.157142859697
1449617860544091402,0.256285716534,0.0,0.0,0.0,0.0,0.157142859697
1449617860583869117,0.256285716534,0.0,0.0,0.0,0.0,0.157142859697
1449617860624218202,0.256285716534,0.0,0.0,0.0,0.0,0.157142859697
1449617860663327963,0.256285716534,0.0,0.0,0.0,0.0,0.157142859697
1449617860704648298,0.324063493729,0.0,0.0,0.0,0.0,0.184126985073
1449617860744422101,0.324063493729,0.0,0.0,0.0,0.0,0.184126985073
1449617860783359503,0.324063493729,0.0,0.0,0.0,0.0,0.184126985073
1449617860823367332,0.324063493729,0.0,0.0,0.0,0.0,0.184126985073
1449617860863297431,0.324063493729,0.0,0.0,0.0,0.0,0.184126985073
1449617860909054094,0.318476192474,0.0,0.0,0.0,0.0,0.184126985073
1449617860943265694,0.318476192474,0.0,0.0,0.0,0.0,0.184126985073
1449617860983318268,0.318476192474,0.0,0.0,0.0,0.0,0.184126985073
1449617861023919073,0.318476192474,0.0,0.0,0.0,0.0,0.184126985073
1449617861063862041,0.318476192474,0.0,0.0,0.0,0.0,0.184126985073
1449617861105059167,0.324063493729,0.0,0.0,0.0,0.0,0.184126985073
1449617861144015361,0.324063493729,0.0,0.0,0.0,0.0,0.184126985073
1449617861185757904,0.324063493729,0.0,0.0,0.0,0.0,0.177777779102
1449617861225427581,0.324063493729,0.0,0.0,0.0,0.0,0.177777779102
1449617861265122960,0.324063493729,0.0,0.0,0.0,0.0,0.177777779102
1449617861303397099,0.324063493729,0.0,0.0,0.0,0.0,0.177777779102
1449617861343884733,0.318476192474,0.0,0.0,0.0,0.0,0.184126985073
1449617861388091577,0.324063493729,0.0,0.0,0.0,0.0,0.184126985073
1449617861424422591,0.324063493729,0.0,0.0,0.0,0.0,0.184126985073
1449617861471257326,0.324063493729,0.0,0.0,0.0,0.0,0.184126985073
1449617861503631745,0.324063493729,0.0,0.0,0.0,0.0,0.177777779102
1449617861544201027,0.324063493729,0.0,0.0,0.0,0.0,0.177777779102
1449617861584196571,0.318476192474,0.0,0.0,0.0,0.0,0.184126985073
1449617861623689327,0.318476192474,0.0,0.0,0.0,0.0,0.184126985073
1449617861677686340,0.318476192474,0.0,0.0,0.0,0.0,0.184126985073
1449617861704528771,0.318476192474,0.0,0.0,0.0,0.0,0.184126985073
1449617861744269335,0.324063493729,0.0,0.0,0.0,0.0,0.184126985073
1449617861784011585,0.324063493729,0.0,0.0,0.0,0.0,0.184126985073
1449617861824403394,0.324063493729,0.0,0.0,0.0,0.0,0.184126985073
1449617861863887172,0.324063493729,0.0,0.0,0.0,0.0,0.184126985073
1449617861903628748,0.318476192474,0.0,0.0,0.0,0.0,0.177777779102
1449617861944239684,0.318476192474,0.0,0.0,0.0,0.0,0.177777779102
1449617861985291326,0.324063493729,0.0,0.0,0.0,0.0,0.177777779102
1449617862023697014,0.324063493729,0.0,0.0,0.0,0.0,0.177777779102
1449617862067186171,0.324063493729,0.0,0.0,0.0,0.0,0.177777779102
1449617862103426419,0.324063493729,0.0,0.0,0.0,0.0,0.184126985073
1449617862143303230,0.324063493729,0.0,0.0,0.0,0.0,0.184126985073
1449617862183236855,0.27377778244,0.0,0.0,0.0,0.0,0.152380955219
1449617862223519159,0.27377778244,0.0,0.0,0.0,0.0,0.152380955219
1449617862264093161,0.27377778244,0.0,0.0,0.0,0.0,0.152380955219
1449617862303573058,0.318476192474,0.0,0.0,0.0,0.0,0.184126985073
1449617862343304164,0.318476192474,0.0,0.0,0.0,0.0,0.184126985073
1449617862384454803,0.318476192474,0.0,0.0,0.0,0.0,0.184126985073
1449617862423487152,0.318476192474,0.0,0.0,0.0,0.0,0.184126985073
1449617862464163067,0.318476192474,0.0,0.0,0.0,0.0,0.184126985073
1449617862504120968,0.318476192474,0.0,0.0,0.0,0.0,0.184126985073
1449617862543476323,0.324063493729,0.0,0.0,0.0,0.0,0.184126985073
1449617862583499604,0.324063493729,0.0,0.0,0.0,0.0,0.184126985073
1449617862623353735,0.329650794983,0.0,0.0,0.0,0.0,0.126984131336
1449617862664306864,0.329650794983,0.0,0.0,0.0,0.0,0.126984131336
1449617862705770188,0.329650794983,0.0,0.0,0.0,0.0,0.126984131336
1449617862743564864,0.329650794983,0.0,0.0,0.0,0.0,0.120634925365
1449617862784659968,0.329650794983,0.0,0.0,0.0,0.0,0.120634925365
1449617862827218481,0.329650794983,0.0,0.0,0.0,0.0,0.120634925365
1449617862864017196,0.329650794983,0.0,0.0,0.0,0.0,0.120634925365
1449617862904614424,0.329650794983,0.0,0.0,0.0,0.0,0.120634925365
1449617862943679504,0.279365083694,0.0,0.0,0.0,0.0,0.101587307453
1449617862983791049,0.329650794983,0.0,0.0,0.0,0.0,0.126984131336
1449617863023768672,0.329650794983,0.0,0.0,0.0,0.0,0.126984131336
1449617863063745532,0.329650794983,0.0,0.0,0.0,0.0,0.126984131336
1449617863118331051,0.329650794983,0.0,0.0,0.0,0.0,0.126984131336
1449617863144303283,0.329650794983,0.0,0.0,0.0,0.0,0.126984131336
1449617863183802850,0.329650794983,0.0,0.0,0.0,0.0,0.126984131336
1449617863230103371,0.329650794983,0.0,0.0,0.0,0.0,0.126984131336
1449617863264255448,0.329650794983,0.0,0.0,0.0,0.0,0.126984131336
1449617863306880028,0.329650794983,0.0,0.0,0.0,0.0,0.120634925365
1449617863343613574,0.329650794983,0.0,0.0,0.0,0.0,0.120634925365
1449617863383438066,0.329650794983,0.0,0.0,0.0,0.0,0.120634925365
1449617863425919438,0.324063493729,0.0,0.0,0.0,0.0,0.126984131336
1449617863465295012,0.324063493729,0.0,0.0,0.0,0.0,0.126984131336
1449617863503364225,0.329650794983,0.0,0.0,0.0,0.0,0.126984131336
1449617863545118611,0.329650794983,0.0,0.0,0.0,0.0,0.126984131336
1449617863583471205,0.329650794983,0.0,0.0,0.0,0.0,0.126984131336
1449617863630264718,0.340825397491,0.0,0.0,0.0,0.0,0.0571428596973
1449617863663875366,0.340825397491,0.0,0.0,0.0,0.0,0.0571428596973
1449617863703744777,0.340825397491,0.0,0.0,0.0,0.0,0.0126984134316
1449617863744318674,0.340825397491,0.0,0.0,0.0,0.0,0.0126984134316
1449617863783445290,0.340825397491,0.0,0.0,0.0,0.0,0.0126984134316
1449617863825655797,0.346412698746,0.0,0.0,0.0,0.0,0.00634920671582
1449617863863573907,0.346412698746,0.0,0.0,0.0,0.0,0.00634920671582
1449617863903954196,0.346412698746,0.0,0.0,0.0,0.0,0.00634920671582
1449617863943354600,0.346412698746,0.0,0.0,0.0,0.0,0.00634920671582
1449617863989807464,0.346412698746,0.0,0.0,0.0,0.0,0.00634920671582
1449617864023486359,0.346412698746,0.0,0.0,0.0,0.0,0.00634920671582
1449617864063346906,0.346412698746,0.0,0.0,0.0,0.0,0.00634920671582
1449617864105518412,0.346412698746,0.0,0.0,0.0,0.0,0.00634920671582
1449617864155870269,0.346412698746,0.0,0.0,0.0,0.0,0.00634920671582
1449617864183684873,0.346412698746,0.0,0.0,0.0,0.0,0.00634920671582
1449617864225436036,0.346412698746,0.0,0.0,0.0,0.0,0.00634920671582
1449617864263703046,0.346412698746,0.0,0.0,0.0,0.0,0.00634920671582
1449617864303958144,0.346412698746,0.0,0.0,0.0,0.0,0.00634920671582
1449617864343774490,0.346412698746,0.0,0.0,0.0,0.0,0.00634920671582
1449617864384270148,0.352,0.0,0.0,0.0,0.0,0.00634920671582
1449617864423472299,0.352,0.0,0.0,0.0,0.0,0.00634920671582
1449617864463313330,0.352,0.0,0.0,0.0,0.0,0.00634920671582
1449617864509722161,0.346412698746,0.0,0.0,0.0,0.0,0.0126984134316
1449617864544450710,0.346412698746,0.0,0.0,0.0,0.0,0.0126984134316
1449617864583700689,0.346412698746,0.0,0.0,0.0,0.0,0.0126984134316
1449617864624349025,0.346412698746,0.0,0.0,0.0,0.0,0.00634920671582
1449617864663375551,0.346412698746,0.0,0.0,0.0,0.0,0.00634920671582
1449617864703390729,0.346412698746,0.0,0.0,0.0,0.0,0.00634920671582
1449617864743299078,0.346412698746,0.0,0.0,0.0,0.0,0.00634920671582
1449617864787359163,0.296126987457,0.0,0.0,0.0,0.0,0.342857146263
1449617864823930736,0.296126987457,0.0,0.0,0.0,0.0,0.342857146263
1449617864867035769,0.296126987457,0.0,0.0,0.0,0.0,0.342857146263
1449617864903308674,0.301714288712,0.0,0.0,0.0,0.0,0.342857146263
1449617864943489499,0.301714288712,0.0,0.0,0.0,0.0,0.342857146263
1449617864988761824,0.251428577423,0.0,0.0,0.0,0.0,0.285714292526
1449617865023538065,0.251428577423,0.0,0.0,0.0,0.0,0.285714292526
1449617865063581263,0.251428577423,0.0,0.0,0.0,0.0,0.285714292526
1449617865103647507,0.301714288712,0.0,0.0,0.0,0.0,0.342857146263
1449617865144214492,0.301714288712,0.0,0.0,0.0,0.0,0.342857146263
1449617865184139282,0.301714288712,0.0,0.0,0.0,0.0,0.336507940292
1449617865232408913,0.301714288712,0.0,0.0,0.0,0.0,0.336507940292
1449617865263627002,0.301714288712,0.0,0.0,0.0,0.0,0.336507940292
1449617865303519287,0.301714288712,0.0,0.0,0.0,0.0,0.336507940292
1449617865343630197,0.301714288712,0.0,0.0,0.0,0.0,0.342857146263
1449617865385441475,0.301714288712,0.0,0.0,0.0,0.0,0.342857146263
1449617865424115109,0.296126987457,0.0,0.0,0.0,0.0,0.336507940292
1449617865463820572,0.301714288712,0.0,0.0,0.0,0.0,0.342857146263
1449617865504552006,0.301714288712,0.0,0.0,0.0,0.0,0.342857146263
1449617865544320510,0.301714288712,0.0,0.0,0.0,0.0,0.342857146263
1449617865583964979,0.301714288712,0.0,0.0,0.0,0.0,0.336507940292
1449617865623945583,0.301714288712,0.0,0.0,0.0,0.0,0.336507940292
1449617865671293212,0.301714288712,0.0,0.0,0.0,0.0,0.336507940292
1449617865703551246,0.301714288712,0.0,0.0,0.0,0.0,0.336507940292
1449617865744203600,0.301714288712,0.0,0.0,0.0,0.0,0.342857146263
1449617865783598240,0.296126987457,0.0,0.0,0.0,0.0,0.336507940292
1449617865843998995,0.296126987457,0.0,0.0,0.0,0.0,0.336507940292
1449617865863496942,0.296126987457,0.0,0.0,0.0,0.0,0.336507940292
1449617865903560745,0.296126987457,0.0,0.0,0.0,0.0,0.336507940292
1449617865944430415,0.301714288712,0.0,0.0,0.0,0.0,0.342857146263
1449617865983743331,0.251428577423,0.0,0.0,0.0,0.0,0.285714292526
1449617866023957829,0.251428577423,0.0,0.0,0.0,0.0,0.285714292526
1449617866065559894,0.251428577423,0.0,0.0,0.0,0.0,0.285714292526
1449617866103438148,0.301714288712,0.0,0.0,0.0,0.0,0.336507940292
1449617866143781603,0.301714288712,0.0,0.0,0.0,0.0,0.336507940292
1449617866183578899,0.296126987457,0.0,0.0,0.0,0.0,0.336507940292
1449617866223591515,0.296126987457,0.0,0.0,0.0,0.0,0.336507940292
1449617866266230530,0.296126987457,0.0,0.0,0.0,0.0,0.336507940292
1449617866308288674,0.296126987457,0.0,0.0,0.0,0.0,0.336507940292
1449617866343458518,0.251428577423,0.0,0.0,0.0,0.0,0.285714292526
1449617866387765360,0.301714288712,0.0,0.0,0.0,0.0,0.342857146263
1449617866424115557,0.301714288712,0.0,0.0,0.0,0.0,0.342857146263
1449617866463928345,0.301714288712,0.0,0.0,0.0,0.0,0.342857146263
1449617866504334549,0.301714288712,0.0,0.0,0.0,0.0,0.336507940292
1449617866543735374,0.301714288712,0.0,0.0,0.0,0.0,0.336507940292
1449617866583694351,0.301714288712,0.0,0.0,0.0,0.0,0.336507940292
1449617866623597027,0.245841276169,0.0,0.0,0.0,0.0,0.285714292526
1449617866663880243,0.245841276169,0.0,0.0,0.0,0.0,0.285714292526
1449617866703366374,0.301714288712,0.0,0.0,0.0,0.0,0.336507940292
1449617866744078864,0.301714288712,0.0,0.0,0.0,0.0,0.336507940292
1449617866783702366,0.296126987457,0.0,0.0,0.0,0.0,0.342857146263
1449617866824011532,0.296126987457,0.0,0.0,0.0,0.0,0.342857146263
1449617866863859871,0.296126987457,0.0,0.0,0.0,0.0,0.342857146263
1449617866903538505,0.301714288712,0.0,0.0,0.0,0.0,0.336507940292
1449617866943382715,0.301714288712,0.0,0.0,0.0,0.0,0.336507940292
1449617866984366825,0.346412698746,0.0,0.0,0.0,0.0,0.00634920671582
1449617867023622896,0.346412698746,0.0,0.0,0.0,0.0,0.00634920671582
1449617867065530019,0.346412698746,0.0,0.0,0.0,0.0,0.00634920671582
1449617867104244107,0.346412698746,0.0,0.0,0.0,0.0,0.00634920671582
1449617867146903971,0.346412698746,0.0,0.0,0.0,0.0,0.00634920671582
1449617867184008159,0.352,0.0,0.0,0.0,0.0,0.00634920671582
1449617867226853397,0.352,0.0,0.0,0.0,0.0,0.00634920671582
1449617867263510081,0.352,0.0,0.0,0.0,0.0,0.00634920671582
1449617867306076912,0.346412698746,0.0,0.0,0.0,0.0,0.00634920671582
1449617867343807447,0.346412698746,0.0,0.0,0.0,0.0,0.00634920671582
1449617867383436750,0.346412698746,0.0,0.0,0.0,0.0,0.00634920671582
1449617867423810483,0.346412698746,0.0,0.0,0.0,0.0,0.00634920671582
1449617867464559768,0.346412698746,0.0,0.0,0.0,0.0,0.00634920671582
1449617867507143267,0.31288889122,0.0,0.0,0.0,0.0,0.0
1449617867543537101,0.31288889122,0.0,0.0,0.0,0.0,0.0
1449617867583238775,0.346412698746,0.0,0.0,0.0,0.0,-0.00634920671582
1449617867623705105,0.346412698746,0.0,0.0,0.0,0.0,-0.00634920671582
1449617867664847756,0.346412698746,0.0,0.0,0.0,0.0,-0.00634920671582
1449617867703518478,0.301714288712,0.0,0.0,0.0,0.0,-0.00634920671582
1449617867744046513,0.301714288712,0.0,0.0,0.0,0.0,-0.00634920671582
1449617867783545087,0.346412698746,0.0,0.0,0.0,0.0,-0.00634920671582
1449617867823640041,0.346412698746,0.0,0.0,0.0,0.0,-0.00634920671582
1449617867863553680,0.346412698746,0.0,0.0,0.0,0.0,-0.00634920671582
1449617867903814607,0.346412698746,0.0,0.0,0.0,0.0,-0.00634920671582
1449617867944938464,0.346412698746,0.0,0.0,0.0,0.0,-0.00634920671582
1449617867983760676,0.346412698746,0.0,0.0,0.0,0.0,-0.0126984134316
1449617868023810621,0.346412698746,0.0,0.0,0.0,0.0,-0.0126984134316
1449617868063413323,0.346412698746,0.0,0.0,0.0,0.0,-0.0126984134316
1449617868104131755,0.346412698746,0.0,0.0,0.0,0.0,-0.0126984134316
1449617868143507177,0.346412698746,0.0,0.0,0.0,0.0,-0.0126984134316
1449617868185332556,0.346412698746,0.0,0.0,0.0,0.0,-0.0126984134316
1449617868223391532,0.346412698746,0.0,0.0,0.0,0.0,-0.0126984134316
1449617868263880331,0.346412698746,0.0,0.0,0.0,0.0,-0.0126984134316
1449617868303596438,0.346412698746,0.0,0.0,0.0,0.0,-0.0126984134316
1449617868352553800,0.346412698746,0.0,0.0,0.0,0.0,-0.0190476194024
1449617868384539627,0.340825397491,0.0,0.0,0.0,0.0,-0.0190476194024
1449617868424547829,0.340825397491,0.0,0.0,0.0,0.0,-0.0190476194024
1449617868467512814,0.340825397491,0.0,0.0,0.0,0.0,-0.0190476194024
1449617868504467560,0.340825397491,0.0,0.0,0.0,0.0,-0.0190476194024
1449617868548391053,0.340825397491,0.0,0.0,0.0,0.0,-0.0190476194024
1449617868583599434,0.346412698746,0.0,0.0,0.0,0.0,-0.0190476194024
1449617868623614819,0.346412698746,0.0,0.0,0.0,0.0,-0.0190476194024
1449617868668046996,0.346412698746,0.0,0.0,0.0,0.0,-0.0190476194024
1449617868705145379,0.346412698746,0.0,0.0,0.0,0.0,-0.0190476194024
1449617868750586475,0.346412698746,0.0,0.0,0.0,0.0,-0.0190476194024
1449617868783724265,0.340825397491,0.0,0.0,0.0,0.0,-0.0190476194024
1449617868824030000,0.340825397491,0.0,0.0,0.0,0.0,-0.0190476194024
1449617868864380850,0.340825397491,0.0,0.0,0.0,0.0,-0.0190476194024
1449617868903360964,0.346412698746,0.0,0.0,0.0,0.0,-0.0126984134316
1449617868943650121,0.346412698746,0.0,0.0,0.0,0.0,-0.0126984134316
1449617868983195761,0.346412698746,0.0,0.0,0.0,0.0,-0.0126984134316
1449617869025981349,0.346412698746,0.0,0.0,0.0,0.0,-0.0126984134316
1449617869063789680,0.346412698746,0.0,0.0,0.0,0.0,-0.0126984134316
1449617869104213766,0.346412698746,0.0,0.0,0.0,0.0,-0.0190476194024
1449617869143432964,0.346412698746,0.0,0.0,0.0,0.0,-0.0190476194024
1449617869190943538,0.346412698746,0.0,0.0,0.0,0.0,-0.0126984134316
1449617869223647263,0.346412698746,0.0,0.0,0.0,0.0,-0.0126984134316
1449617869263685530,0.346412698746,0.0,0.0,0.0,0.0,-0.0126984134316
1449617869304629101,0.346412698746,0.0,0.0,0.0,0.0,-0.0126984134316
1449617869343837282,0.346412698746,0.0,0.0,0.0,0.0,-0.0126984134316
1449617869383271637,0.340825397491,0.0,0.0,0.0,0.0,-0.0126984134316
1449617869424031083,0.340825397491,0.0,0.0,0.0,0.0,-0.0126984134316
1449617869463270932,0.340825397491,0.0,0.0,0.0,0.0,-0.0126984134316
1449617869503501795,0.340825397491,0.0,0.0,0.0,0.0,-0.0126984134316
1449617869553493780,0.346412698746,0.0,0.0,0.0,0.0,-0.00634920671582
1449617869583505236,0.346412698746,0.0,0.0,0.0,0.0,-0.0126984134316
