%time,field.x,field.y,field.z
1449617828796422604,0.0,0.0,273.0
1449617828812845455,0.0,0.0,271.0
1449617828829182955,0.0,0.0,268.0
1449617828841501581,0.0,0.0,272.0
1449617828857873536,0.0,0.0,275.0
1449617828874229689,0.0,0.0,277.0
1449617828886567770,0.0,0.0,270.0
1449617828902898591,0.0,0.0,273.0
1449617828915207350,0.0,0.0,272.0
1449617828931685677,0.0,0.0,276.0
1449617828948034136,0.0,0.0,272.0
1449617828960496893,0.0,0.0,266.0
1449617828976724485,0.0,0.0,267.0
1449617828992990704,0.0,0.0,265.0
1449617829005522736,0.0,0.0,269.0
1449617829021888009,0.0,0.0,267.0
1449617829038259914,0.0,0.0,266.0
1449617829050483250,0.0,0.0,264.0
1449617829066831610,0.0,0.0,273.0
1449617829083220046,0.0,0.0,267.0
1449617829095468277,0.0,0.0,260.0
1449617829111929409,0.0,0.0,270.0
1449617829128213631,0.0,0.0,265.0
1449617829140539744,0.0,0.0,267.0
1449617829156974335,0.0,0.0,260.0
1449617829173488135,0.0,0.0,261.0
1449617829185585548,0.0,0.0,265.0
1449617829201955667,0.0,0.0,259.0
1449617829218450891,0.0,0.0,262.0
1449617829230621971,0.0,0.0,257.0
1449617829247097196,0.0,0.0,261.0
1449617829263410901,0.0,0.0,256.0
1449617829282617946,0.0,0.0,264.0
1449617829303881213,0.0,0.0,253.0
1449617829308494992,0.0,0.0,258.0
1449617829325120660,0.0,0.0,258.0
1449617829341338251,0.0,0.0,268.0
1449617829353549200,0.0,0.0,266.0
1449617829370112574,0.0,0.0,266.0
1449617829386303544,0.0,0.0,265.0
1449617829398548049,0.0,0.0,265.0
1449617829415074784,0.0,0.0,260.0
1449617829427301039,0.0,0.0,262.0
1449617829443754774,0.0,0.0,266.0
1449617829460033415,0.0,0.0,260.0
1449617829472444416,0.0,0.0,269.0
1449617829488817413,0.0,0.0,260.0
1449617829505232484,0.0,0.0,265.0
1449617829517482734,0.0,0.0,261.0
1449617829533891083,0.0,0.0,266.0
1449617829550144010,0.0,0.0,262.0
1449617829562418720,0.0,0.0,264.0
1449617829578832579,0.0,0.0,270.0
1449617829595294329,0.0,0.0,256.0
1449617829607608183,0.0,0.0,266.0
1449617829624027272,0.0,0.0,260.0
1449617829640455220,0.0,0.0,264.0
1449617829652629429,0.0,0.0,259.0
1449617829669082000,0.0,0.0,253.0
1449617829685366908,0.0,0.0,259.0
1449617829697645087,0.0,0.0,257.0
1449617829714029488,0.0,0.0,262.0
1449617829730400801,0.0,0.0,253.0
1449617829742775999,0.0,0.0,264.0
1449617829759057986,0.0,0.0,256.0
1449617829775459431,0.0,0.0,256.0
1449617829787764305,0.0,0.0,257.0
1449617829804299329,0.0,0.0,258.0
1449617829816457225,0.0,0.0,256.0
1449617829832843843,0.0,0.0,250.0
1449617829849207456,0.0,0.0,259.0
1449617829861506399,0.0,0.0,251.0
1449617829877914748,0.0,0.0,260.0
1449617829894326152,0.0,0.0,251.0
1449617829906748132,0.0,0.0,253.0
1449617829922988818,0.0,0.0,254.0
1449617829939584731,0.0,0.0,250.0
1449617829951671058,0.0,0.0,247.0
1449617829968123182,0.0,0.0,253.0
1449617829984560198,0.0,0.0,247.0
1449617829997644607,0.0,0.0,241.0
1449617830013086782,0.0,0.0,250.0
1449617830029462579,0.0,0.0,249.0
1449617830041996436,0.0,0.0,253.0
1449617830058276451,0.0,0.0,256.0
1449617830075170962,0.0,0.0,253.0
1449617830087056006,0.0,0.0,258.0
1449617830103307425,0.0,0.0,250.0
1449617830119955093,0.0,0.0,257.0
1449617830131873746,0.0,0.0,256.0
1449617830148260849,0.0,0.0,254.0
1449617830164688440,0.0,0.0,256.0
1449617830177267576,0.0,0.0,256.0
1449617830193416361,0.0,0.0,255.0
1449617830205623852,0.0,0.0,252.0
1449617830222145205,0.0,0.0,258.0
1449617830238489921,0.0,0.0,254.0
1449617830250932330,0.0,0.0,255.0
1449617830267176392,0.0,0.0,256.0
1449617830283568989,0.0,0.0,253.0
1449617830295797346,0.0,0.0,258.0
1449617830312880175,0.0,0.0,257.0
1449617830328813160,0.0,0.0,254.0
1449617830341024524,0.0,0.0,257.0
1449617830357211672,0.0,0.0,262.0
1449617830373845248,0.0,0.0,256.0
1449617830386350295,0.0,0.0,258.0
1449617830402393968,0.0,0.0,253.0
1449617830418885340,0.0,0.0,255.0
1449617830431374082,0.0,0.0,257.0
1449617830447592450,0.0,0.0,253.0
1449617830463727723,0.0,0.0,254.0
1449617830476055190,0.0,0.0,251.0
1449617830492529558,0.0,0.0,254.0
1449617830509617679,0.0,0.0,252.0
1449617830521087473,0.0,0.0,249.0
1449617830537505193,0.0,0.0,247.0
1449617830554207191,0.0,0.0,248.0
1449617830566442739,0.0,0.0,252.0
1449617830582861588,0.0,0.0,245.0
1449617830594781232,0.0,0.0,248.0
1449617830611372367,0.0,0.0,245.0
1449617830628174197,0.0,0.0,248.0
1449617830640050458,0.0,0.0,257.0
1449617830656441117,0.0,0.0,248.0
1449617830673882130,0.0,0.0,245.0
1449617830685046281,0.0,0.0,246.0
1449617830701489223,0.0,0.0,244.0
1449617830718273810,0.0,0.0,245.0
1449617830730531198,0.0,0.0,246.0
1449617830746737051,0.0,0.0,252.0
1449617830763059126,0.0,0.0,250.0
1449617830775953003,0.0,0.0,254.0
1449617830792381948,0.0,0.0,248.0
1449617830809663423,0.0,0.0,250.0
1449617830820405089,0.0,0.0,250.0
1449617830836780706,0.0,0.0,248.0
1449617830853106735,0.0,0.0,251.0
1449617830865336599,0.0,0.0,249.0
1449617830881741971,0.0,0.0,257.0
1449617830898084343,0.0,0.0,249.0
1449617830911188182,0.0,0.0,251.0
1449617830926609397,0.0,0.0,251.0
1449617830943750006,0.0,0.0,250.0
1449617830959580547,0.0,0.0,248.0
1449617830972027675,0.0,0.0,247.0
1449617830988437031,0.0,0.0,249.0
1449617831004728271,0.0,0.0,253.0
1449617831017408599,0.0,0.0,252.0
1449617831033442622,0.0,0.0,259.0
1449617831049828541,0.0,0.0,249.0
1449617831061926293,0.0,0.0,249.0
1449617831079124556,0.0,0.0,248.0
1449617831094895473,0.0,0.0,250.0
1449617831107044532,0.0,0.0,249.0
1449617831123707266,0.0,0.0,251.0
1449617831140519629,0.0,0.0,254.0
1449617831152687806,0.0,0.0,255.0
1449617831168826907,0.0,0.0,248.0
1449617831185118875,0.0,0.0,247.0
1449617831197071100,0.0,0.0,254.0
1449617831213634273,0.0,0.0,251.0
1449617831231608349,0.0,0.0,250.0
1449617831242507307,0.0,0.0,249.0
1449617831259289725,0.0,0.0,251.0
1449617831274923287,0.0,0.0,246.0
1449617831288007154,0.0,0.0,244.0
1449617831303632386,0.0,0.0,246.0
1449617831320444831,0.0,0.0,244.0
1449617831336084012,0.0,0.0,245.0
1449617831348983352,0.0,0.0,242.0
1449617831361840927,0.0,0.0,245.0
1449617831378015075,0.0,0.0,245.0
1449617831394058905,0.0,0.0,247.0
1449617831406227601,0.0,0.0,241.0
1449617831422555765,0.0,0.0,243.0
1449617831439188550,0.0,0.0,253.0
1449617831451094943,0.0,0.0,244.0
1449617831467683934,0.0,0.0,244.0
1449617831484325813,0.0,0.0,256.0
1449617831496948148,0.0,0.0,249.0
1449617831513991597,0.0,0.0,247.0
1449617831529001299,0.0,0.0,251.0
1449617831541489610,0.0,0.0,247.0
1449617831557660239,0.0,0.0,249.0
1449617831574557722,0.0,0.0,249.0
1449617831586705293,0.0,0.0,247.0
1449617831602820711,0.0,0.0,249.0
1449617831619144086,0.0,0.0,249.0
1449617831631783735,0.0,0.0,257.0
1449617831647760345,0.0,0.0,250.0
1449617831664630663,0.0,0.0,249.0
1449617831676749321,0.0,0.0,248.0
1449617831692974585,0.0,0.0,248.0
1449617831709138501,0.0,0.0,248.0
1449617831721499459,0.0,0.0,249.0
1449617831738266476,0.0,0.0,247.0
1449617831750081914,0.0,0.0,251.0
1449617831766555363,0.0,0.0,251.0
1449617831783507907,0.0,0.0,250.0
1449617831795993824,0.0,0.0,248.0
1449617831811779658,0.0,0.0,245.0
1449617831827999988,0.0,0.0,246.0
1449617831840799595,0.0,0.0,247.0
1449617831856942940,0.0,0.0,250.0
1449617831873515531,0.0,0.0,244.0
1449617831885311113,0.0,0.0,248.0
1449617831903565109,0.0,0.0,248.0
1449617831918647747,0.0,0.0,253.0
1449617831930328608,0.0,0.0,249.0
1449617831947018002,0.0,0.0,249.0
1449617831963490835,0.0,0.0,246.0
1449617831975652546,0.0,0.0,250.0
1449617831992657094,0.0,0.0,244.0
1449617832009759449,0.0,0.0,247.0
1449617832021075466,0.0,0.0,241.0
1449617832037236531,0.0,0.0,240.0
1449617832055492024,0.0,0.0,251.0
1449617832066390305,0.0,0.0,245.0
1449617832082208443,0.0,0.0,243.0
1449617832098387099,0.0,0.0,241.0
1449617832110522218,0.0,0.0,241.0
1449617832126997911,0.0,0.0,240.0
1449617832139391980,0.0,0.0,244.0
1449617832155796368,0.0,0.0,241.0
1449617832172318316,0.0,0.0,244.0
1449617832186762684,0.0,0.0,248.0
1449617832200953376,0.0,0.0,246.0
1449617832217178808,0.0,0.0,241.0
1449617832229496359,0.0,0.0,248.0
1449617832246246160,0.0,0.0,249.0
1449617832262187355,0.0,0.0,243.0
1449617832274704815,0.0,0.0,248.0
1449617832290908693,0.0,0.0,246.0
1449617832307239013,0.0,0.0,251.0
1449617832319623179,0.0,0.0,247.0
1449617832336070988,0.0,0.0,250.0
1449617832352704653,0.0,0.0,247.0
1449617832364727922,0.0,0.0,245.0
1449617832380918240,0.0,0.0,247.0
1449617832397997358,0.0,0.0,248.0
1449617832410021142,0.0,0.0,245.0
1449617832427195533,0.0,0.0,247.0
1449617832442394169,0.0,0.0,250.0
1449617832454803928,0.0,0.0,246.0
1449617832473342497,0.0,0.0,246.0
1449617832487722927,0.0,0.0,246.0
1449617832500029749,0.0,0.0,248.0
1449617832516977432,0.0,0.0,244.0
1449617832528421340,0.0,0.0,246.0
1449617832546844990,0.0,0.0,248.0
1449617832561490360,0.0,0.0,247.0
1449617832574062951,0.0,0.0,249.0
1449617832591446692,0.0,0.0,250.0
1449617832606314667,0.0,0.0,249.0
1449617832618531440,0.0,0.0,244.0
1449617832635745512,0.0,0.0,245.0
1449617832651660998,0.0,0.0,245.0
1449617832663602592,0.0,0.0,243.0
1449617832681504424,0.0,0.0,245.0
1449617832696641445,0.0,0.0,252.0
1449617832708820359,0.0,0.0,244.0
1449617832725143546,0.0,0.0,246.0
1449617832741585215,0.0,0.0,244.0
1449617832755711995,0.0,0.0,241.0
1449617832771975099,0.0,0.0,244.0
1449617832786856784,0.0,0.0,240.0
1449617832798879409,0.0,0.0,238.0
1449617832815339405,0.0,0.0,235.0
1449617832831707230,0.0,0.0,244.0
1449617832844011940,0.0,0.0,247.0
1449617832860488562,0.0,0.0,242.0
1449617832876685763,0.0,0.0,240.0
1449617832888815241,0.0,0.0,241.0
1449617832905472036,0.0,0.0,229.0
1449617832918069076,0.0,0.0,243.0
1449617832937739139,0.0,0.0,247.0
1449617832951770436,0.0,0.0,250.0
1449617832962890541,0.0,0.0,249.0
1449617832979342717,0.0,0.0,247.0
1449617832995555894,0.0,0.0,247.0
1449617833008578164,0.0,0.0,247.0
1449617833024049222,0.0,0.0,249.0
1449617833040594443,0.0,0.0,244.0
1449617833054680430,0.0,0.0,247.0
1449617833070255617,0.0,0.0,245.0
1449617833085489601,0.0,0.0,249.0
1449617833098246857,0.0,0.0,246.0
1449617833114545967,0.0,0.0,248.0
1449617833132342160,0.0,0.0,243.0
1449617833143152336,0.0,0.0,244.0
1449617833159432388,0.0,0.0,242.0
1449617833175858380,0.0,0.0,244.0
1449617833188165538,0.0,0.0,241.0
1449617833204944006,0.0,0.0,245.0
1449617833221014802,0.0,0.0,247.0
1449617833233077750,0.0,0.0,241.0
1449617833250102998,0.0,0.0,246.0
1449617833266270643,0.0,0.0,246.0
1449617833278115769,0.0,0.0,246.0
1449617833294485237,0.0,0.0,245.0
1449617833306775665,0.0,0.0,247.0
1449617833323093293,0.0,0.0,243.0
1449617833339563851,0.0,0.0,246.0
1449617833352413241,0.0,0.0,242.0
1449617833371601515,0.0,0.0,248.0
1449617833389568565,0.0,0.0,249.0
1449617833397544039,0.0,0.0,243.0
1449617833414193754,0.0,0.0,246.0
1449617833430125339,0.0,0.0,245.0
1449617833446514811,0.0,0.0,241.0
1449617833462512823,0.0,0.0,244.0
1449617833474771647,0.0,0.0,248.0
1449617833491047170,0.0,0.0,249.0
1449617833507437839,0.0,0.0,243.0
1449617833521074641,0.0,0.0,244.0
1449617833538243058,0.0,0.0,246.0
1449617833552981798,0.0,0.0,247.0
1449617833564989681,0.0,0.0,249.0
1449617833581806637,0.0,0.0,245.0
1449617833598155688,0.0,0.0,253.0
1449617833610201859,0.0,0.0,250.0
1449617833626412078,0.0,0.0,247.0
1449617833642851236,0.0,0.0,245.0
1449617833655093977,0.0,0.0,247.0
1449617833671828371,0.0,0.0,244.0
1449617833683638133,0.0,0.0,246.0
1449617833700004770,0.0,0.0,244.0
1449617833716302410,0.0,0.0,246.0
1449617833728848403,0.0,0.0,242.0
1449617833744981394,0.0,0.0,243.0
1449617833761502844,0.0,0.0,245.0
1449617833774057788,0.0,0.0,244.0
1449617833790076135,0.0,0.0,245.0
1449617833807205645,0.0,0.0,244.0
1449617833819347818,0.0,0.0,245.0
1449617833835539627,0.0,0.0,241.0
1449617833851668588,0.0,0.0,243.0
1449617833864062196,0.0,0.0,245.0
1449617833880362212,0.0,0.0,243.0
1449617833896636240,0.0,0.0,245.0
1449617833908849308,0.0,0.0,245.0
1449617833925505593,0.0,0.0,240.0
1449617833942356405,0.0,0.0,240.0
1449617833954912611,0.0,0.0,245.0
1449617833970466635,0.0,0.0,244.0
1449617833987012301,0.0,0.0,243.0
1449617833999578477,0.0,0.0,247.0
1449617834015554748,0.0,0.0,247.0
1449617834032552277,0.0,0.0,247.0
1449617834045124011,0.0,0.0,245.0
1449617834061115750,0.0,0.0,244.0
1449617834073023531,0.0,0.0,244.0
1449617834089312542,0.0,0.0,245.0
1449617834105548068,0.0,0.0,251.0
1449617834117895306,0.0,0.0,242.0
1449617834134638230,0.0,0.0,240.0
1449617834153641400,0.0,0.0,242.0
1449617834162927626,0.0,0.0,246.0
1449617834179471943,0.0,0.0,243.0
1449617834195788037,0.0,0.0,244.0
1449617834210380690,0.0,0.0,243.0
1449617834234032505,0.0,0.0,244.0
1449617834241202037,0.0,0.0,244.0
1449617834256913824,0.0,0.0,248.0
1449617834269502276,0.0,0.0,242.0
1449617834285921372,0.0,0.0,241.0
1449617834298239106,0.0,0.0,243.0
1449617834314433265,0.0,0.0,245.0
1449617834331661758,0.0,0.0,247.0
1449617834343750488,0.0,0.0,244.0
1449617834360247609,0.0,0.0,247.0
1449617834376242234,0.0,0.0,245.0
1449617834388422137,0.0,0.0,248.0
1449617834404876206,0.0,0.0,245.0
1449617834421219013,0.0,0.0,245.0
1449617834433724763,0.0,0.0,243.0
1449617834449773935,0.0,0.0,245.0
1449617834461928860,0.0,0.0,244.0
1449617834479862089,0.0,0.0,245.0
1449617834494721951,0.0,0.0,242.0
1449617834507686261,0.0,0.0,245.0
1449617834523669517,0.0,0.0,244.0
1449617834540272589,0.0,2.0,245.0
1449617834552568598,0.0,2.0,245.0
1449617834568760090,0.0,2.0,246.0
1449617834586621546,0.0,2.0,250.0
1449617834597396737,0.0,2.0,252.0
1449617834613696295,0.0,2.0,246.0
1449617834631865754,0.0,2.0,248.0
1449617834642763765,0.0,0.0,252.0
1449617834659150461,0.0,0.0,248.0
1449617834675255225,0.0,0.0,247.0
1449617834687712856,0.0,0.0,252.0
1449617834704447273,0.0,0.0,251.0
1449617834721619755,0.0,0.0,252.0
1449617834732311097,0.0,0.0,251.0
1449617834750722167,0.0,0.0,253.0
1449617834765051806,0.0,0.0,253.0
1449617834778021346,0.0,0.0,259.0
1449617834794006479,0.0,0.0,259.0
1449617834810402889,0.0,0.0,260.0
1449617834822497985,0.0,0.0,263.0
1449617834840303765,0.0,0.0,265.0
1449617834851641538,0.0,0.0,271.0
1449617834867738029,0.0,0.0,272.0
1449617834885249962,0.0,0.0,274.0
1449617834896477375,0.0,0.0,275.0
1449617834912827080,0.0,0.0,276.0
1449617834929603032,0.0,0.0,282.0
1449617834941944799,0.0,0.0,286.0
1449617834957879754,0.0,0.0,295.0
1449617834974033230,0.0,0.0,288.0
1449617834986768807,0.0,0.0,296.0
1449617835003939022,0.0,0.0,294.0
1449617835019375546,0.0,0.0,296.0
1449617835031606091,0.0,0.0,298.0
1449617835047905439,0.0,0.0,293.0
1449617835064591442,0.0,0.0,301.0
1449617835077243703,0.0,0.0,293.0
1449617835093137148,0.0,0.0,291.0
1449617835109193352,0.0,0.0,291.0
1449617835122360968,0.0,0.0,290.0
1449617835138311971,0.0,0.0,289.0
1449617835154806629,0.0,0.0,287.0
1449617835166759382,0.0,0.0,296.0
1449617835184954741,0.0,0.0,290.0
1449617835200575391,0.0,0.0,288.0
1449617835211697961,0.0,0.0,290.0
1449617835228233821,0.0,0.0,290.0
1449617835240475627,0.0,0.0,294.0
1449617835259170827,0.0,0.0,295.0
1449617835273057610,0.0,0.0,294.0
1449617835285389190,0.0,0.0,291.0
1449617835301910040,0.0,0.0,296.0
1449617835318327003,0.0,0.0,295.0
1449617835330845094,0.0,0.0,298.0
1449617835346938944,0.0,0.0,296.0
1449617835363218727,0.0,0.0,294.0
1449617835375573226,0.0,0.0,298.0
1449617835392012150,0.0,0.0,291.0
1449617835408367336,0.0,0.0,289.0
1449617835421019172,0.0,0.0,293.0
1449617835437254160,0.0,0.0,286.0
1449617835453741537,0.0,0.0,295.0
1449617835466583726,0.0,0.0,295.0
1449617835482236618,0.0,0.0,293.0
1449617835498528430,0.0,0.0,296.0
1449617835510826090,0.0,0.0,295.0
1449617835529625854,0.0,0.0,296.0
1449617835544291795,0.0,0.0,296.0
1449617835556242645,0.0,0.0,303.0
1449617835572093229,0.0,0.0,303.0
1449617835589246712,0.0,0.0,300.0
1449617835600868975,0.0,0.0,304.0
1449617835617827858,0.0,0.0,291.0
1449617835629987303,0.0,0.0,295.0
1449617835647646378,0.0,0.0,291.0
1449617835663233905,0.0,0.0,296.0
1449617835675745003,0.0,0.0,286.0
1449617835691087085,0.0,0.0,281.0
1449617835707616798,0.0,0.0,276.0
1449617835722431963,0.0,0.0,273.0
1449617835736882600,0.0,0.0,274.0
1449617835752586487,0.0,0.0,269.0
1449617835764767563,0.0,0.0,264.0
1449617835782694976,0.0,0.0,263.0
1449617835797346337,0.0,0.0,260.0
1449617835809855312,0.0,0.0,258.0
1449617835826620319,0.0,0.0,264.0
1449617835844732615,0.0,0.0,267.0
1449617835855415861,0.0,0.0,273.0
1449617835871152930,0.0,2.0,270.0
1449617835887745174,0.0,2.0,275.0
1449617835899827161,0.0,2.0,278.0
1449617835916416041,0.0,2.0,282.0
1449617835932607590,0.0,2.0,283.0
1449617835950361473,0.0,2.0,293.0
1449617835965367456,0.0,2.0,293.0
1449617835979191722,0.0,2.0,296.0
1449617835994318554,0.0,2.0,298.0
1449617836006611467,0.0,2.0,307.0
1449617836023033770,-2.0,0.0,312.0
1449617836039640089,-2.0,0.0,316.0
1449617836051420873,0.0,0.0,317.0
1449617836070172229,0.0,0.0,312.0
1449617836084220861,0.0,0.0,311.0
1449617836096422146,0.0,0.0,305.0
1449617836112955279,0.0,0.0,311.0
1449617836129439952,0.0,0.0,311.0
1449617836141582854,0.0,0.0,309.0
1449617836158041526,0.0,0.0,313.0
1449617836174280065,0.0,0.0,311.0
1449617836186845751,0.0,0.0,318.0
1449617836204374820,0.0,0.0,320.0
1449617836219709357,0.0,0.0,316.0
1449617836232561906,0.0,0.0,320.0
1449617836248252980,0.0,0.0,320.0
1449617836264283774,0.0,0.0,317.0
1449617836277837619,0.0,0.0,322.0
1449617836295537820,0.0,0.0,320.0
1449617836309428085,0.0,0.0,320.0
1449617836321791965,0.0,0.0,320.0
1449617836338342420,0.0,0.0,319.0
1449617836354664249,0.0,0.0,317.0
1449617836366923120,0.0,0.0,318.0
1449617836383362857,0.0,0.0,320.0
1449617836395793865,0.0,0.0,319.0
1449617836412147664,0.0,0.0,319.0
1449617836429781719,0.0,0.0,324.0
1449617836441857872,0.0,0.0,322.0
1449617836457067381,0.0,0.0,320.0
1449617836473236453,0.0,0.0,314.0
1449617836485899748,0.0,0.0,317.0
1449617836503438019,0.0,0.0,316.0
1449617836518428236,0.0,0.0,314.0
1449617836530847801,0.0,0.0,316.0
1449617836548506178,0.0,0.0,320.0
1449617836565094059,0.0,0.0,316.0
1449617836576022997,0.0,0.0,319.0
1449617836592266456,0.0,0.0,320.0
1449617836611738384,0.0,0.0,320.0
1449617836621116674,0.0,0.0,315.0
1449617836641614134,0.0,0.0,313.0
1449617836654146587,0.0,0.0,314.0
1449617836665901848,0.0,0.0,314.0
1449617836684241247,0.0,0.0,309.0
1449617836698708291,0.0,0.0,307.0
1449617836710929503,0.0,0.0,304.0
1449617836728836297,0.0,0.0,309.0
1449617836743739256,0.0,0.0,304.0
1449617836756079758,0.0,0.0,307.0
1449617836772369788,0.0,0.0,301.0
1449617836785275709,0.0,0.0,298.0
1449617836801876286,0.0,0.0,298.0
1449617836817933317,0.0,0.0,298.0
1449617836832374579,0.0,0.0,295.0
1449617836846166450,0.0,0.0,294.0
1449617836863756167,0.0,0.0,300.0
1449617836875583272,0.0,0.0,293.0
1449617836893382584,0.0,0.0,298.0
1449617836907658676,0.0,0.0,295.0
1449617836919886514,0.0,0.0,296.0
1449617836936332241,0.0,0.0,293.0
1449617836952955984,0.0,0.0,289.0
1449617836966405579,0.0,0.0,288.0
1449617836981669446,0.0,0.0,293.0
1449617836997916082,0.0,0.0,293.0
1449617837010151587,0.0,0.0,293.0
1449617837027286242,0.0,0.0,290.0
1449617837044958476,0.0,0.0,296.0
1449617837055154679,0.0,0.0,289.0
1449617837071985901,0.0,0.0,291.0
1449617837088449206,0.0,0.0,292.0
1449617837100504974,0.0,0.0,293.0
1449617837116931565,0.0,0.0,294.0
1449617837132985379,0.0,0.0,292.0
1449617837145622742,0.0,0.0,294.0
1449617837162118438,0.0,0.0,295.0
1449617837174022825,0.0,0.0,292.0
1449617837190600522,0.0,0.0,294.0
1449617837212462545,0.0,0.0,294.0
1449617837221632964,0.0,0.0,296.0
1449617837235796785,0.0,0.0,288.0
1449617837254217999,0.0,0.0,295.0
1449617837266283163,0.0,0.0,283.0
1449617837280893362,0.0,0.0,287.0
1449617837298876707,0.0,0.0,289.0
1449617837319681943,0.0,0.0,285.0
1449617837325713308,0.0,0.0,289.0
1449617837342686621,0.0,0.0,294.0
1449617837355121903,-2.0,0.0,290.0
1449617837372502434,-2.0,0.0,297.0
1449617837389375200,-2.0,0.0,299.0
1449617837399172070,-2.0,0.0,298.0
1449617837416256258,-2.0,0.0,304.0
1449617837432161695,-2.0,0.0,284.0
1449617837444580866,-2.0,0.0,297.0
1449617837460957468,-2.0,0.0,296.0
1449617837477599370,-2.0,0.0,297.0
1449617837489302309,-2.0,0.0,299.0
1449617837506958126,-2.0,0.0,304.0
1449617837522311554,-2.0,0.0,303.0
1449617837535126994,-2.0,0.0,305.0
1449617837551722605,-2.0,0.0,301.0
1449617837563475863,-2.0,0.0,300.0
1449617837579500611,-2.0,0.0,301.0
1449617837595834427,-2.0,0.0,302.0
1449617837608356999,-2.0,0.0,295.0
1449617837625162691,-4.0,0.0,292.0
1449617837640940108,-4.0,-2.0,288.0
1449617837653541852,-4.0,-2.0,289.0
1449617837669947225,-4.0,-2.0,290.0
1449617837685772450,-4.0,-2.0,286.0
1449617837698257526,-4.0,-2.0,282.0
1449617837716175374,-4.0,-2.0,279.0
1449617837732003184,-4.0,-2.0,326.0
1449617837743763659,-4.0,-2.0,280.0
1449617837761216855,-6.0,-2.0,285.0
1449617837776476461,-6.0,-2.0,297.0
1449617837788468694,-6.0,-2.0,294.0
1449617837804837634,-6.0,-2.0,295.0
1449617837821083624,-6.0,-2.0,300.0
1449617837833472942,-6.0,-4.0,303.0
1449617837849942811,-6.0,-4.0,297.0
1449617837866392517,-6.0,-4.0,294.0
1449617837878533039,-6.0,-4.0,290.0
1449617837895897013,-8.0,-4.0,290.0
1449617837911363912,-8.0,-4.0,288.0
1449617837924643935,-8.0,-4.0,281.0
1449617837941625148,-8.0,-4.0,276.0
1449617837952756544,-8.0,-4.0,273.0
1449617837969075657,-10.0,-4.0,285.0
1449617837986168859,-10.0,-6.0,291.0
1449617837997401323,-10.0,-6.0,291.0
1449617838014118087,-10.0,-6.0,297.0
1449617838031129486,-10.0,-6.0,291.0
1449617838042697137,-10.0,-6.0,293.0
1449617838060765080,-12.0,-6.0,278.0
1449617838077891368,-12.0,-6.0,276.0
1449617838087819024,-12.0,-6.0,277.0
1449617838103976984,-12.0,-8.0,271.0
1449617838120512375,-12.0,-8.0,270.0
1449617838133570348,-14.0,-8.0,284.0
1449617838149342774,-14.0,-8.0,279.0
1449617838165767366,-14.0,-8.0,287.0
1449617838178523575,-14.0,-8.0,289.0
1449617838194149118,-14.0,-8.0,290.0
1449617838211621080,-16.0,-8.0,274.0
1449617838226271987,-16.0,-10.0,273.0
1449617838239439887,-16.0,-10.0,274.0
1449617838255465473,-16.0,-10.0,267.0
1449617838267886430,-16.0,-10.0,272.0
1449617838284749440,-18.0,-10.0,279.0
1449617838300550019,-18.0,-10.0,281.0
1449617838314046123,-18.0,-10.0,288.0
1449617838329464012,-18.0,-12.0,293.0
1449617838343415772,-20.0,-12.0,278.0
1449617838358811164,-20.0,-12.0,274.0
1449617838374507498,-20.0,-12.0,266.0
1449617838386717938,-20.0,-12.0,268.0
1449617838403995514,-22.0,-12.0,279.0
1449617838420672331,-22.0,-12.0,283.0
1449617838435786606,-22.0,-14.0,284.0
1449617838452010386,-22.0,-14.0,333.0
1449617838464592081,-24.0,-14.0,277.0
1449617838481118523,-24.0,-14.0,272.0
1449617838497607725,-24.0,-14.0,268.0
1449617838509998125,-24.0,-14.0,264.0
1449617838529235756,-26.0,-16.0,279.0
1449617838542345707,-26.0,-16.0,278.0
1449617838554762104,-26.0,-16.0,288.0
1449617838570877893,-26.0,-16.0,278.0
1449617838587281841,-28.0,-16.0,275.0
1449617838600933645,-28.0,-18.0,267.0
1449617838616699793,-28.0,-18.0,268.0
1449617838633054679,-30.0,-18.0,280.0
1449617838645308776,-30.0,-18.0,286.0
1449617838661850432,-30.0,-20.0,284.0
1449617838679148941,-32.0,-20.0,277.0
1449617838689607466,-32.0,-20.0,271.0
1449617838706016436,-32.0,-20.0,266.0
1449617838718301281,-34.0,-20.0,278.0
1449617838734695420,-34.0,-22.0,281.0
1449617838751199648,-34.0,-22.0,283.0
1449617838763897406,-36.0,-22.0,273.0
1449617838781142451,-36.0,-24.0,266.0
1449617838796105537,-36.0,-24.0,271.0
1449617838819818997,-38.0,-24.0,272.0
1449617838830375714,-38.0,-24.0,281.0
1449617838847185497,-40.0,-26.0,269.0
1449617838856992496,-40.0,-26.0,261.0
1449617838871105630,-42.0,-26.0,262.0
1449617838887778714,-42.0,-28.0,270.0
1449617838901696528,-42.0,-28.0,275.0
1449617838916024678,-44.0,-28.0,262.0
1449617838931319387,-44.0,-30.0,255.0
1449617838953496207,-46.0,-30.0,270.0
1449617838961019181,-46.0,-30.0,281.0
1449617838976678743,-48.0,-32.0,275.0
1449617838988622497,-48.0,-32.0,268.0
1449617839005143092,-50.0,-34.0,283.0
1449617839022848766,-50.0,-34.0,287.0
1449617839034063296,-52.0,-34.0,275.0
1449617839050545935,-52.0,-36.0,272.0
1449617839068303157,-54.0,-36.0,283.0
1449617839080252460,-54.0,-38.0,291.0
1449617839096960838,-56.0,-38.0,274.0
1449617839109712630,-56.0,-40.0,271.0
1449617839126340097,-58.0,-40.0,286.0
1449617839140174007,-58.0,-42.0,286.0
1449617839154355211,-60.0,-42.0,274.0
1449617839170736867,-62.0,-44.0,285.0
1449617839186656943,-62.0,-44.0,292.0
1449617839198198901,-64.0,-46.0,279.0
1449617839214545525,-64.0,-46.0,277.0
1449617839231359782,-66.0,-48.0,293.0
1449617839243359731,-68.0,-48.0,280.0
1449617839261687805,-68.0,-50.0,278.0
1449617839275359212,-70.0,-50.0,294.0
1449617839287824309,-70.0,-52.0,294.0
1449617839304414027,-72.0,-52.0,280.0
1449617839320753459,-74.0,-54.0,290.0
1449617839333179749,-74.0,-56.0,301.0
1449617839349709815,-76.0,-56.0,280.0
1449617839365659902,-78.0,-58.0,294.0
1449617839382524192,-78.0,-58.0,302.0
1449617839394234980,-80.0,-60.0,283.0
1449617839411154043,-82.0,-62.0,293.0
1449617839423341146,-82.0,-62.0,295.0
1449617839440423648,-84.0,-64.0,277.0
1449617839457823503,-86.0,-66.0,299.0
1449617839469634262,-86.0,-66.0,299.0
1449617839485485017,-88.0,-68.0,289.0
1449617839497611061,-90.0,-70.0,303.0
1449617839520938356,-92.0,-70.0,303.0
1449617839529280197,-92.0,-72.0,290.0
1449617839545641751,-94.0,-74.0,310.0
1449617839558176896,-96.0,-74.0,297.0
1449617839575316846,-96.0,-76.0,295.0
1449617839595287177,-98.0,-78.0,316.0
1449617839603190681,-100.0,-78.0,299.0
1449617839619500808,-102.0,-80.0,306.0
1449617839635520550,-102.0,-82.0,304.0
1449617839648566426,-104.0,-82.0,302.0
1449617839664673778,-106.0,-84.0,308.0
1449617839684124398,-106.0,-86.0,315.0
1449617839693526624,-108.0,-88.0,299.0
1449617839709948972,-110.0,-88.0,313.0
1449617839722590766,-110.0,-90.0,320.0
1449617839738545875,-112.0,-92.0,296.0
1449617839755124651,-114.0,-92.0,312.0
1449617839769871547,-116.0,-94.0,306.0
1449617839787247634,-116.0,-96.0,303.0
1449617839799843180,-118.0,-98.0,318.0
1449617839812053681,-120.0,-98.0,306.0
1449617839828341169,-120.0,-100.0,305.0
1449617839844992308,-122.0,-102.0,320.0
1449617839856965816,-124.0,-104.0,308.0
1449617839873454155,-124.0,-104.0,314.0
1449617839885859083,-126.0,-106.0,326.0
1449617839902977641,-128.0,-108.0,308.0
1449617839918620199,-130.0,-110.0,317.0
1449617839936393665,-130.0,-110.0,327.0
1449617839951094035,-132.0,-112.0,358.0
1449617839965583341,-134.0,-114.0,325.0
1449617839976860105,-134.0,-116.0,331.0
1449617839992399137,-136.0,-116.0,316.0
1449617840012964044,-138.0,-118.0,323.0
1449617840021826562,-138.0,-120.0,333.0
1449617840037711763,-140.0,-122.0,319.0
1449617840054212742,-142.0,-122.0,327.0
1449617840066283197,-142.0,-124.0,336.0
1449617840082534055,-144.0,-126.0,317.0
1449617840098940001,-146.0,-128.0,375.0
1449617840111490978,-146.0,-128.0,336.0
1449617840127715523,-148.0,-130.0,365.0
1449617840146268560,-150.0,-132.0,331.0
1449617840156333414,-150.0,-134.0,386.0
1449617840177788667,-152.0,-136.0,321.0
1449617840189333073,-154.0,-136.0,377.0
1449617840201360090,-154.0,-138.0,339.0
1449617840218934745,-156.0,-140.0,362.0
1449617840237197682,-158.0,-142.0,331.0
1449617840247227320,-158.0,-142.0,340.0
1449617840263467239,-160.0,-144.0,321.0
1449617840275159001,-162.0,-146.0,378.0
1449617840291291268,-162.0,-148.0,338.0
1449617840307846382,-164.0,-150.0,361.0
1449617840320574537,-166.0,-150.0,331.0
1449617840336636981,-166.0,-152.0,382.0
1449617840352990391,-168.0,-154.0,319.0
1449617840365390040,-170.0,-156.0,378.0
1449617840381501545,-170.0,-156.0,339.0
1449617840398721188,-172.0,-158.0,319.0
1449617840410817640,-174.0,-160.0,332.0
1449617840426593429,-174.0,-162.0,379.0
1449617840443606545,-176.0,-164.0,316.0
1449617840457657499,-178.0,-164.0,367.0
1449617840471712197,-178.0,-166.0,334.0
1449617840488485020,-180.0,-168.0,360.0
1449617840503560694,-182.0,-170.0,321.0
1449617840519370523,-182.0,-170.0,328.0
1449617840533249008,-184.0,-172.0,318.0
1449617840549943099,-184.0,-174.0,359.0
1449617840562265307,-186.0,-176.0,326.0
1449617840578612143,-188.0,-178.0,359.0
1449617840591608934,-188.0,-178.0,308.0
1449617840608502283,-190.0,-180.0,317.0
1449617840623828972,-192.0,-182.0,311.0
1449617840635529250,-192.0,-184.0,345.0
1449617840652276358,-194.0,-184.0,313.0
1449617840665564316,-194.0,-186.0,321.0
1449617840688070767,-196.0,-188.0,298.0
1449617840697154272,-198.0,-190.0,309.0
1449617840710454575,-198.0,-190.0,314.0
1449617840725557545,-200.0,-192.0,342.0
1449617840742215836,-200.0,-194.0,293.0
1449617840755786884,-202.0,-196.0,351.0
1449617840774299013,-204.0,-196.0,294.0
1449617840787488332,-204.0,-198.0,329.0
1449617840799273368,-206.0,-200.0,295.0
1449617840817109382,-206.0,-200.0,341.0
1449617840833616981,-208.0,-202.0,275.0
1449617840845111690,-210.0,-204.0,333.0
1449617840860913355,-210.0,-206.0,291.0
1449617840878168283,-212.0,-208.0,322.0
1449617840889884503,-214.0,-208.0,275.0
1449617840905900514,-214.0,-210.0,322.0
1449617840922287365,-216.0,-212.0,268.0
1449617840934514583,-216.0,-212.0,254.0
1449617840955192579,-218.0,-216.0,272.0
1449617840967569749,-220.0,-216.0,255.0
1449617840984200259,-220.0,-218.0,250.0
1449617840999983687,-222.0,-220.0,260.0
1449617841022249943,-222.0,-220.0,307.0
1449617841029657981,-224.0,-222.0,241.0
1449617841043498986,-226.0,-224.0,291.0
1449617841059293042,-226.0,-226.0,254.0
1449617841074250198,-228.0,-228.0,283.0
1449617841085936966,-228.0,-228.0,236.0
1449617841103009045,-230.0,-230.0,250.0
1449617841118802726,-232.0,-232.0,240.0
1449617841131486088,-232.0,-234.0,278.0
1449617841147428784,-234.0,-236.0,245.0
1449617841164459097,-234.0,-236.0,292.0
1449617841180858480,-236.0,-238.0,230.0
1449617841196250310,-238.0,-240.0,250.0
1449617841209078812,-238.0,-240.0,255.0
1449617841221502888,-240.0,-242.0,295.0
1449617841237736436,-242.0,-244.0,256.0
1449617841254084662,-242.0,-246.0,265.0
1449617841266171549,-244.0,-248.0,256.0
1449617841283614562,-244.0,-248.0,292.0
1449617841299430189,-246.0,-250.0,272.0
1449617841311291937,-248.0,-252.0,312.0
1449617841327677035,-248.0,-254.0,263.0
1449617841344114823,-250.0,-256.0,278.0
1449617841356859420,-250.0,-256.0,286.0
1449617841372935848,-252.0,-258.0,270.0
1449617841390662897,-254.0,-260.0,272.0
1449617841404162338,-254.0,-262.0,293.0
1449617841420015354,-256.0,-264.0,274.0
1449617841430484345,-258.0,-264.0,284.0
1449617841447764998,-258.0,-266.0,295.0
1449617841463150014,-260.0,-268.0,283.0
1449617841475377777,-260.0,-268.0,276.0
1449617841492396563,-262.0,-270.0,291.0
1449617841508225103,-264.0,-272.0,286.0
1449617841520657203,-264.0,-274.0,280.0
1449617841536878735,-266.0,-276.0,284.0
1449617841553229617,-266.0,-276.0,300.0
1449617841565687688,-268.0,-278.0,276.0
1449617841586775126,-270.0,-280.0,291.0
1449617841598653912,-270.0,-282.0,302.0
1449617841613613264,-272.0,-282.0,287.0
1449617841632344386,-272.0,-284.0,281.0
1449617841643516531,-274.0,-286.0,302.0
1449617841655614337,-276.0,-288.0,286.0
1449617841671947854,-276.0,-288.0,279.0
1449617841688198318,-278.0,-290.0,294.0
1449617841701155715,-278.0,-292.0,298.0
1449617841718321330,-280.0,-294.0,282.0
1449617841737275168,-282.0,-296.0,294.0
1449617841745960825,-282.0,-296.0,302.0
1449617841764047895,-284.0,-298.0,288.0
1449617841778556003,-284.0,-300.0,278.0
1449617841790598445,-286.0,-302.0,294.0
1449617841809151376,-288.0,-302.0,288.0
1449617841819922591,-288.0,-304.0,278.0
1449617841835760858,-290.0,-306.0,291.0
1449617841852198829,-290.0,-308.0,299.0
1449617841864904269,-292.0,-308.0,273.0
1449617841880642012,-294.0,-310.0,284.0
1449617841897572880,-294.0,-312.0,294.0
1449617841909861591,-296.0,-314.0,281.0
1449617841925755466,-296.0,-314.0,275.0
1449617841942697619,-298.0,-316.0,293.0
1449617841955725704,-300.0,-318.0,281.0
1449617841971501226,-300.0,-320.0,273.0
1449617841989375709,-302.0,-320.0,287.0
1449617842000003204,-302.0,-322.0,289.0
1449617842016341716,-304.0,-324.0,274.0
1449617842032880869,-306.0,-326.0,273.0
1449617842046599030,-306.0,-326.0,287.0
1449617842061312252,-308.0,-328.0,274.0
1449617842077917662,-308.0,-330.0,267.0
1449617842090896270,-310.0,-332.0,279.0
1449617842106295555,-310.0,-332.0,282.0
1449617842122460460,-312.0,-334.0,265.0
1449617842138358801,-312.0,-336.0,271.0
1449617842151544436,-314.0,-336.0,285.0
1449617842167750524,-316.0,-338.0,269.0
1449617842182644387,-316.0,-340.0,260.0
1449617842198120453,-318.0,-340.0,269.0
1449617842208443418,-318.0,-342.0,276.0
1449617842225033666,-320.0,-344.0,260.0
1449617842241702418,-320.0,-344.0,257.0
1449617842253600849,-322.0,-346.0,262.0
1449617842270095502,-322.0,-348.0,271.0
1449617842286607943,-324.0,-348.0,259.0
1449617842298691710,-324.0,-350.0,249.0
1449617842315433892,-326.0,-352.0,260.0
1449617842331249770,-326.0,-352.0,267.0
1449617842344781962,-328.0,-354.0,250.0
1449617842362428902,-328.0,-354.0,245.0
1449617842377792633,-330.0,-356.0,255.0
1449617842389448964,-330.0,-358.0,263.0
1449617842406598396,-330.0,-358.0,259.0
1449617842423511410,-332.0,-360.0,251.0
1449617842438409771,-332.0,-360.0,246.0
1449617842450573836,-334.0,-362.0,246.0
1449617842466736085,-334.0,-362.0,260.0
1449617842479704834,-336.0,-364.0,247.0
1449617842495657789,-336.0,-366.0,240.0
1449617842515338141,-338.0,-366.0,254.0
1449617842523916318,-338.0,-368.0,263.0
1449617842543049193,-340.0,-368.0,250.0
1449617842559596706,-340.0,-370.0,244.0
1449617842568904062,-340.0,-370.0,246.0
1449617842585371126,-342.0,-372.0,255.0
1449617842598314010,-342.0,-372.0,265.0
1449617842617931006,-344.0,-374.0,247.0
1449617842632270292,-344.0,-376.0,244.0
1449617842642780482,-346.0,-376.0,255.0
1449617842660900045,-346.0,-378.0,263.0
1449617842675533849,-346.0,-378.0,261.0
1449617842688837223,-348.0,-380.0,248.0
1449617842704733959,-348.0,-380.0,243.0
1449617842720620890,-350.0,-382.0,259.0
1449617842733130497,-350.0,-382.0,265.0
1449617842750025231,-350.0,-384.0,265.0
1449617842765761838,-352.0,-384.0,245.0
1449617842778478740,-352.0,-386.0,241.0
1449617842794352078,-354.0,-386.0,256.0
1449617842811301289,-354.0,-388.0,261.0
1449617842823379965,-354.0,-388.0,259.0
1449617842839377525,-356.0,-390.0,250.0
1449617842857704523,-356.0,-390.0,244.0
1449617842868062016,-358.0,-392.0,255.0
1449617842884658275,-358.0,-392.0,268.0
1449617842900757595,-358.0,-394.0,261.0
1449617842918033843,-360.0,-394.0,246.0
1449617842929452929,-360.0,-396.0,246.0
1449617842941818404,-362.0,-396.0,254.0
1449617842958540127,-362.0,-398.0,261.0
1449617842974437192,-362.0,-398.0,262.0
1449617842987935517,-364.0,-400.0,246.0
1449617843004236265,-364.0,-400.0,244.0
1449617843019936701,-366.0,-402.0,251.0
1449617843032036904,-366.0,-402.0,264.0
1449617843048335485,-366.0,-404.0,263.0
1449617843065042098,-368.0,-404.0,253.0
1449617843077467480,-368.0,-406.0,245.0
1449617843093578844,-370.0,-408.0,256.0
1449617843114022061,-370.0,-408.0,265.0
1449617843123533182,-370.0,-410.0,255.0
1449617843139595294,-372.0,-410.0,256.0
1449617843154843804,-372.0,-412.0,245.0
1449617843167321055,-374.0,-412.0,259.0
1449617843184212748,-374.0,-414.0,268.0
1449617843199953128,-374.0,-414.0,256.0
1449617843213348275,-376.0,-416.0,257.0
1449617843228678776,-376.0,-416.0,248.0
1449617843245137061,-378.0,-418.0,265.0
1449617843257120453,-378.0,-418.0,272.0
1449617843273594879,-378.0,-420.0,262.0
1449617843290088729,-380.0,-420.0,257.0
1449617843302471124,-380.0,-422.0,251.0
1449617843323592151,-382.0,-422.0,264.0
1449617843333756889,-382.0,-424.0,275.0
1449617843349922059,-382.0,-424.0,268.0
1449617843363647317,-384.0,-426.0,261.0
1449617843376066890,-384.0,-426.0,258.0
1449617843392508784,-386.0,-428.0,266.0
1449617843408964598,-386.0,-428.0,275.0
1449617843421416240,-386.0,-430.0,267.0
1449617843439470079,-388.0,-430.0,266.0
1449617843456340452,-388.0,-432.0,296.0
1449617843470720235,-390.0,-432.0,312.0
1449617843486854184,-390.0,-434.0,278.0
1449617843499175490,-390.0,-434.0,271.0
1449617843515634788,-392.0,-436.0,264.0
1449617843532498308,-392.0,-436.0,254.0
1449617843545501943,-394.0,-438.0,266.0
1449617843560512668,-394.0,-438.0,275.0
1449617843576751036,-394.0,-440.0,273.0
1449617843590946587,-396.0,-440.0,261.0
1449617843605515489,-396.0,-442.0,255.0
1449617843621798921,-396.0,-442.0,258.0
1449617843635392841,-398.0,-444.0,267.0
1449617843653357636,-398.0,-444.0,273.0
1449617843668651077,-398.0,-444.0,273.0
1449617843679428151,-400.0,-446.0,261.0
1449617843696532387,-400.0,-446.0,254.0
1449617843712557944,-402.0,-448.0,264.0
1449617843724715766,-402.0,-448.0,271.0
1449617843741457410,-402.0,-450.0,277.0
1449617843754123836,-402.0,-450.0,272.0
1449617843772349755,-404.0,-450.0,265.0
1449617843785687480,-404.0,-452.0,260.0
1449617843798014471,-404.0,-452.0,264.0
1449617843814925273,-406.0,-454.0,269.0
1449617843831555276,-406.0,-454.0,280.0
1449617843843022699,-406.0,-454.0,281.0
1449617843861523851,-408.0,-456.0,267.0
1449617843875677726,-408.0,-456.0,260.0
1449617843888053768,-408.0,-458.0,260.0
1449617843904359393,-410.0,-458.0,272.0
1449617843921010520,-410.0,-458.0,271.0
1449617843933581395,-410.0,-460.0,279.0
1449617843949889582,-412.0,-460.0,272.0
1449617843965986556,-412.0,-462.0,266.0
1449617843980083961,-412.0,-462.0,260.0
1449617843995100963,-412.0,-462.0,257.0
1449617844011302393,-414.0,-464.0,275.0
1449617844023457098,-414.0,-464.0,273.0
1449617844040321617,-414.0,-464.0,277.0
1449617844055936102,-416.0,-466.0,273.0
1449617844068508746,-416.0,-466.0,266.0
1449617844085633752,-416.0,-468.0,258.0
1449617844101424252,-416.0,-468.0,261.0
1449617844113435090,-418.0,-468.0,271.0
1449617844131966265,-418.0,-470.0,266.0
1449617844142714216,-418.0,-470.0,279.0
1449617844158490541,-418.0,-470.0,275.0
1449617844174767480,-420.0,-472.0,263.0
1449617844191227262,-420.0,-472.0,260.0
1449617844205659250,-420.0,-472.0,257.0
1449617844219949903,-422.0,-474.0,264.0
1449617844232223440,-422.0,-474.0,273.0
1449617844248874778,-422.0,-474.0,276.0
1449617844265249391,-422.0,-476.0,274.0
1449617844279342311,-422.0,-476.0,271.0
1449617844295746810,-424.0,-476.0,263.0
1449617844310104809,-424.0,-478.0,259.0
1449617844322526834,-424.0,-478.0,256.0
1449617844342320512,-426.0,-478.0,263.0
1449617844355289206,-426.0,-480.0,268.0
1449617844367566645,-426.0,-480.0,272.0
1449617844383670602,-426.0,-480.0,274.0
1449617844400301932,-426.0,-480.0,267.0
1449617844413658645,-428.0,-482.0,259.0
1449617844428714027,-428.0,-482.0,257.0
1449617844445170099,-428.0,-482.0,253.0
1449617844457613995,-428.0,-484.0,254.0
1449617844474497237,-430.0,-484.0,260.0
1449617844485990303,-430.0,-484.0,265.0
1449617844502405071,-430.0,-486.0,270.0
1449617844518956033,-430.0,-486.0,271.0
1449617844532697014,-432.0,-486.0,257.0
1449617844548722676,-432.0,-488.0,260.0
1449617844563939587,-432.0,-488.0,248.0
1449617844576237432,-432.0,-488.0,253.0
1449617844592578913,-434.0,-490.0,262.0
1449617844609798320,-434.0,-490.0,261.0
1449617844621307662,-434.0,-490.0,269.0
1449617844637666992,-434.0,-492.0,273.0
1449617844655462980,-436.0,-492.0,255.0
1449617844667139537,-436.0,-492.0,256.0
1449617844683405007,-436.0,-492.0,253.0
1449617844701215961,-436.0,-494.0,250.0
1449617844711787019,-438.0,-494.0,264.0
1449617844728400411,-438.0,-494.0,264.0
1449617844745883785,-438.0,-496.0,268.0
1449617844759542878,-438.0,-496.0,265.0
1449617844774070513,-438.0,-496.0,263.0
1449617844790055814,-440.0,-498.0,252.0
1449617844804321011,-440.0,-498.0,254.0
1449617844818592552,-440.0,-498.0,249.0
1449617844834358259,-440.0,-498.0,243.0
1449617844848424266,-442.0,-500.0,256.0
1449617844863330340,-442.0,-500.0,259.0
1449617844875705067,-442.0,-500.0,265.0
1449617844891590965,-442.0,-502.0,268.0
1449617844908264544,-442.0,-502.0,265.0
1449617844921705882,-444.0,-502.0,254.0
1449617844936997045,-444.0,-502.0,252.0
1449617844953219506,-444.0,-504.0,248.0
1449617844966770691,-444.0,-504.0,246.0
1449617844983863716,-444.0,-504.0,249.0
1449617844998859838,-446.0,-504.0,259.0
1449617845010438635,-446.0,-504.0,256.0
1449617845027387883,-446.0,-506.0,257.0
1449617845043308571,-446.0,-506.0,262.0
1449617845055454845,-446.0,-506.0,265.0
1449617845071985939,-446.0,-506.0,252.0
1449617845088445669,-448.0,-508.0,250.0
1449617845100755874,-448.0,-508.0,254.0
1449617845117348661,-448.0,-508.0,252.0
1449617845133952881,-448.0,-508.0,247.0
1449617845145655864,-448.0,-508.0,242.0
1449617845166142090,-448.0,-510.0,246.0
1449617845178756180,-450.0,-510.0,260.0
1449617845190717865,-450.0,-510.0,260.0
1449617845209291297,-450.0,-510.0,262.0
1449617845223615113,-450.0,-510.0,264.0
1449617845236127071,-450.0,-510.0,264.0
1449617845252108719,-450.0,-512.0,263.0
1449617845265346299,-450.0,-512.0,264.0
1449617845286125534,-452.0,-512.0,253.0
1449617845298205117,-452.0,-512.0,247.0
1449617845314096660,-452.0,-512.0,249.0
1449617845327042869,-452.0,-512.0,245.0
1449617845342665865,-452.0,-514.0,245.0
1449617845355208859,-452.0,-514.0,239.0
1449617845370990524,-452.0,-514.0,237.0
1449617845389307679,-454.0,-514.0,247.0
1449617845400695793,-454.0,-514.0,254.0
1449617845416666245,-454.0,-514.0,251.0
1449617845434403520,-454.0,-516.0,254.0
1449617845447204664,-454.0,-516.0,253.0
1449617845461228687,-454.0,-516.0,260.0
1449617845486281807,-454.0,-516.0,261.0
1449617845489671386,-454.0,-516.0,265.0
1449617845506730491,-454.0,-516.0,260.0
1449617845523364647,-454.0,-518.0,257.0
1449617845536269317,-456.0,-518.0,249.0
1449617845554249967,-456.0,-518.0,246.0
1449617845567627520,-456.0,-518.0,246.0
1449617845581412663,-456.0,-518.0,241.0
1449617845597750467,-456.0,-518.0,243.0
1449617845613367974,-456.0,-520.0,244.0
1449617845625528724,-456.0,-520.0,241.0
1449617845643074783,-458.0,-520.0,255.0
1449617845653826283,-458.0,-520.0,262.0
1449617845671640810,-458.0,-520.0,253.0
1449617845686934905,-458.0,-520.0,253.0
1449617845698736277,-458.0,-520.0,260.0
1449617845717600515,-458.0,-522.0,262.0
1449617845731770711,-458.0,-522.0,261.0
1449617845744246170,-458.0,-522.0,314.0
1449617845763865941,-458.0,-522.0,250.0
1449617845776716631,-460.0,-522.0,247.0
1449617845795594861,-460.0,-524.0,247.0
1449617845807120172,-460.0,-524.0,243.0
1449617845821671431,-460.0,-524.0,239.0
1449617845834297090,-460.0,-524.0,240.0
1449617845851826922,-460.0,-524.0,242.0
1449617845867436865,-462.0,-524.0,254.0
1449617845879869417,-462.0,-526.0,253.0
1449617845895846132,-462.0,-526.0,301.0
1449617845912167537,-462.0,-526.0,256.0
1449617845925628456,-462.0,-526.0,262.0
1449617845941685103,-462.0,-526.0,261.0
1449617845958565348,-462.0,-528.0,260.0
1449617845974410741,-462.0,-528.0,251.0
1449617845991100778,-464.0,-528.0,248.0
1449617846003861294,-464.0,-528.0,241.0
1449617846018914179,-464.0,-528.0,241.0
1449617846037250552,-464.0,-528.0,240.0
1449617846047382459,-464.0,-530.0,240.0
1449617846063444459,-464.0,-530.0,238.0
1449617846075969422,-466.0,-530.0,247.0
1449617846092519891,-466.0,-530.0,250.0
1449617846108787616,-466.0,-530.0,247.0
1449617846122239980,-466.0,-530.0,254.0
1449617846137399831,-466.0,-532.0,258.0
1449617846153754613,-466.0,-532.0,256.0
1449617846165728469,-466.0,-532.0,263.0
1449617846182151593,-466.0,-532.0,252.0
1449617846198374979,-468.0,-532.0,241.0
1449617846210638116,-468.0,-534.0,240.0
1449617846227303863,-468.0,-534.0,240.0
1449617846243552409,-468.0,-534.0,233.0
1449617846258443220,-468.0,-534.0,235.0
1449617846272259251,-468.0,-534.0,235.0
1449617846288568490,-470.0,-534.0,245.0
1449617846301355541,-470.0,-536.0,247.0
1449617846317567224,-470.0,-536.0,252.0
1449617846333700189,-470.0,-536.0,250.0
1449617846346621130,-470.0,-536.0,254.0
1449617846364493975,-470.0,-536.0,254.0
1449617846379258556,-470.0,-536.0,255.0
1449617846392012168,-470.0,-538.0,256.0
1449617846407703469,-472.0,-538.0,251.0
1449617846423893120,-472.0,-538.0,244.0
1449617846436412490,-472.0,-538.0,244.0
1449617846453894988,-472.0,-538.0,243.0
1449617846464690765,-472.0,-538.0,234.0
1449617846481471200,-472.0,-540.0,232.0
1449617846497444006,-472.0,-540.0,234.0
1449617846509987282,-472.0,-540.0,238.0
1449617846526736366,-474.0,-540.0,246.0
1449617846543263112,-474.0,-540.0,246.0
1449617846557712550,-474.0,-540.0,252.0
1449617846571511299,-474.0,-540.0,251.0
1449617846587907652,-474.0,-542.0,258.0
1449617846601113706,-474.0,-542.0,256.0
1449617846616599539,-474.0,-542.0,259.0
1449617846633734024,-474.0,-542.0,253.0
1449617846645035523,-474.0,-542.0,255.0
1449617846662139508,-476.0,-542.0,242.0
1449617846677759947,-476.0,-542.0,245.0
1449617846690179358,-476.0,-544.0,239.0
1449617846708202534,-476.0,-544.0,240.0
1449617846723445165,-476.0,-544.0,237.0
1449617846735436043,-476.0,-544.0,234.0
1449617846751521233,-476.0,-544.0,235.0
1449617846768298159,-476.0,-544.0,238.0
1449617846780319354,-478.0,-544.0,247.0
1449617846797493193,-478.0,-546.0,250.0
1449617846808711327,-478.0,-546.0,248.0
1449617846825232478,-478.0,-546.0,249.0
1449617846841519867,-478.0,-546.0,255.0
1449617846853811256,-478.0,-546.0,256.0
1449617846870458192,-478.0,-546.0,252.0
1449617846887557810,-478.0,-548.0,252.0
1449617846899080172,-478.0,-548.0,255.0
1449617846915348169,-480.0,-548.0,241.0
1449617846931553212,-480.0,-548.0,241.0
1449617846944122735,-480.0,-548.0,241.0
1449617846961474582,-480.0,-548.0,242.0
1449617846976940587,-480.0,-548.0,236.0
1449617846989599691,-480.0,-548.0,232.0
1449617847005457260,-480.0,-550.0,233.0
1449617847021962802,-480.0,-550.0,233.0
1449617847034108471,-480.0,-550.0,236.0
1449617847058371672,-480.0,-550.0,240.0
1449617847066905696,-482.0,-550.0,250.0
1449617847079793382,-482.0,-550.0,250.0
1449617847095566630,-482.0,-550.0,246.0
1449617847112475585,-482.0,-550.0,249.0
1449617847126013497,-482.0,-552.0,247.0
1449617847141199181,-482.0,-552.0,257.0
1449617847157668665,-482.0,-552.0,258.0
1449617847171460468,-482.0,-552.0,255.0
1449617847185717561,-482.0,-552.0,256.0
1449617847198098720,-482.0,-552.0,255.0
1449617847215502050,-482.0,-552.0,257.0
1449617847230933579,-482.0,-552.0,256.0
1449617847245760807,-482.0,-552.0,253.0
1449617847259302387,-482.0,-552.0,252.0
1449617847277764775,-484.0,-552.0,241.0
1449617847288239985,-484.0,-552.0,243.0
1449617847304508577,-484.0,-552.0,241.0
1449617847321129808,-484.0,-552.0,242.0
1449617847333832654,-484.0,-552.0,240.0
1449617847351803844,-484.0,-554.0,237.0
1449617847367887071,-484.0,-554.0,236.0
1449617847379232661,-484.0,-554.0,243.0
1449617847394845687,-484.0,-554.0,242.0
1449617847410980257,-484.0,-554.0,239.0
1449617847426049385,-484.0,-554.0,234.0
1449617847440487952,-484.0,-554.0,236.0
1449617847457240611,-484.0,-554.0,235.0
1449617847469034382,-484.0,-554.0,232.0
1449617847485099192,-484.0,-554.0,229.0
1449617847501977460,-484.0,-554.0,232.0
1449617847514489953,-484.0,-554.0,230.0
1449617847530927240,-484.0,-554.0,230.0
1449617847546255104,-484.0,-554.0,229.0
1449617847558531471,-484.0,-554.0,231.0
1449617847575153574,-484.0,-554.0,230.0
1449617847589763729,-484.0,-554.0,232.0
1449617847603794300,-484.0,-554.0,228.0
1449617847620146911,-484.0,-554.0,228.0
1449617847633918309,-484.0,-554.0,229.0
1449617847649566919,-484.0,-554.0,229.0
1449617847665635689,-484.0,-554.0,229.0
1449617847677286061,-484.0,-554.0,230.0
1449617847694054268,-484.0,-554.0,229.0
1449617847710236012,-484.0,-554.0,229.0
1449617847723147898,-484.0,-554.0,230.0
1449617847739306438,-484.0,-554.0,232.0
1449617847755054715,-484.0,-554.0,232.0
1449617847767782715,-484.0,-554.0,232.0
1449617847785979979,-484.0,-554.0,230.0
1449617847800383377,-484.0,-554.0,231.0
1449617847813029942,-484.0,-554.0,225.0
1449617847830402336,-484.0,-554.0,229.0
1449617847845935453,-484.0,-556.0,231.0
1449617847857583441,-484.0,-556.0,233.0
1449617847874516208,-484.0,-556.0,234.0
1449617847890158179,-484.0,-556.0,236.0
1449617847902615403,-486.0,-556.0,232.0
1449617847919009680,-486.0,-556.0,235.0
1449617847936239422,-486.0,-556.0,235.0
1449617847948451141,-486.0,-556.0,225.0
1449617847964338378,-486.0,-556.0,240.0
1449617847979223424,-486.0,-556.0,239.0
1449617847992735275,-486.0,-556.0,237.0
1449617848008988331,-486.0,-556.0,238.0
1449617848030194305,-486.0,-556.0,239.0
1449617848038239090,-486.0,-556.0,242.0
1449617848054476202,-486.0,-556.0,243.0
1449617848066863127,-486.0,-556.0,239.0
1449617848083156392,-486.0,-556.0,244.0
1449617848099707717,-486.0,-556.0,243.0
1449617848113295499,-486.0,-556.0,241.0
1449617848128367834,-486.0,-556.0,245.0
1449617848145056324,-486.0,-556.0,244.0
1449617848156511467,-486.0,-556.0,245.0
1449617848173415561,-486.0,-556.0,242.0
1449617848193952118,-486.0,-556.0,241.0
1449617848202365511,-486.0,-556.0,244.0
1449617848219062073,-486.0,-556.0,243.0
1449617848234637882,-486.0,-556.0,245.0
1449617848247326721,-486.0,-556.0,244.0
1449617848263256090,-486.0,-556.0,247.0
1449617848281919462,-486.0,-556.0,247.0
1449617848292880886,-486.0,-556.0,245.0
1449617848308812616,-486.0,-556.0,244.0
1449617848324676760,-486.0,-556.0,247.0
1449617848337415480,-486.0,-556.0,245.0
1449617848353109750,-486.0,-556.0,245.0
1449617848366140413,-486.0,-556.0,244.0
1449617848381803495,-486.0,-556.0,248.0
1449617848398209533,-486.0,-556.0,246.0
1449617848410688098,-486.0,-556.0,244.0
1449617848427631428,-486.0,-556.0,244.0
1449617848444552772,-486.0,-556.0,242.0
1449617848462710720,-486.0,-556.0,243.0
1449617848476607093,-486.0,-556.0,241.0
1449617848490414823,-486.0,-556.0,290.0
1449617848505782528,-486.0,-556.0,240.0
1449617848523412161,-486.0,-556.0,243.0
1449617848533819341,-486.0,-556.0,240.0
1449617848551894811,-486.0,-556.0,237.0
1449617848567154431,-486.0,-556.0,246.0
1449617848579373330,-486.0,-556.0,246.0
1449617848595036404,-486.0,-556.0,244.0
1449617848611609862,-486.0,-556.0,243.0
1449617848626769309,-486.0,-556.0,246.0
1449617848640205488,-486.0,-556.0,250.0
1449617848657614161,-486.0,-556.0,250.0
1449617848668561196,-486.0,-556.0,251.0
1449617848689621089,-486.0,-556.0,250.0
1449617848701770017,-486.0,-556.0,254.0
1449617848713784796,-486.0,-556.0,249.0
1449617848730750058,-486.0,-556.0,250.0
1449617848744387385,-486.0,-556.0,249.0
1449617848760504297,-486.0,-556.0,249.0
1449617848776031682,-486.0,-556.0,254.0
1449617848790127434,-486.0,-556.0,253.0
1449617848804380237,-486.0,-556.0,254.0
1449617848823998887,-486.0,-556.0,249.0
1449617848832521204,-486.0,-556.0,248.0
1449617848849542291,-486.0,-556.0,253.0
1449617848865243508,-486.0,-556.0,247.0
1449617848877702687,-486.0,-556.0,250.0
1449617848894058239,-486.0,-556.0,252.0
1449617848910206220,-486.0,-556.0,250.0
1449617848924015234,-486.0,-556.0,250.0
1449617848939567433,-486.0,-556.0,251.0
1449617848955573091,-486.0,-556.0,249.0
1449617848967582080,-486.0,-556.0,251.0
1449617848984002368,-486.0,-556.0,254.0
1449617849000606552,-486.0,-556.0,254.0
1449617849012811308,-486.0,-556.0,252.0
1449617849029437371,-486.0,-556.0,247.0
1449617849045688545,-486.0,-556.0,253.0
1449617849058070239,-486.0,-556.0,257.0
1449617849082144976,-486.0,-556.0,256.0
1449617849090580154,-486.0,-556.0,251.0
1449617849103260479,-486.0,-556.0,251.0
1449617849119504595,-486.0,-556.0,251.0
1449617849131422577,-486.0,-556.0,248.0
1449617849147997855,-486.0,-556.0,248.0
1449617849164630392,-486.0,-556.0,245.0
1449617849176653925,-486.0,-556.0,249.0
1449617849192976056,-486.0,-556.0,250.0
1449617849209330497,-486.0,-556.0,249.0
1449617849221576878,-486.0,-556.0,251.0
1449617849238208704,-486.0,-556.0,248.0
1449617849254577222,-486.0,-558.0,245.0
1449617849266812062,-486.0,-558.0,249.0
1449617849283154072,-486.0,-558.0,252.0
1449617849299350327,-486.0,-558.0,250.0
1449617849311660807,-486.0,-558.0,249.0
1449617849328378013,-486.0,-558.0,250.0
1449617849344681490,-486.0,-558.0,248.0
1449617849357718664,-486.0,-558.0,247.0
1449617849373398375,-486.0,-558.0,246.0
1449617849389899988,-486.0,-558.0,250.0
1449617849402258457,-486.0,-558.0,252.0
1449617849418334565,-486.0,-558.0,247.0
1449617849434917780,-486.0,-558.0,246.0
1449617849447648664,-486.0,-558.0,244.0
1449617849463248802,-486.0,-558.0,244.0
1449617849479586523,-486.0,-558.0,246.0
1449617849492041583,-486.0,-558.0,248.0
1449617849508324998,-486.0,-558.0,248.0
1449617849521056419,-486.0,-558.0,247.0
1449617849537296372,-486.0,-558.0,250.0
1449617849553725757,-486.0,-558.0,247.0
1449617849565811768,-486.0,-558.0,250.0
1449617849582635759,-486.0,-558.0,245.0
1449617849598950343,-486.0,-558.0,248.0
1449617849611909327,-486.0,-558.0,247.0
1449617849628296926,-486.0,-558.0,249.0
1449617849644190308,-486.0,-558.0,247.0
1449617849657667306,-486.0,-558.0,248.0
1449617849672665343,-486.0,-558.0,247.0
1449617849689110001,-486.0,-558.0,246.0
1449617849702990047,-486.0,-558.0,247.0
1449617849717663108,-486.0,-558.0,249.0
1449617849735942598,-486.0,-558.0,247.0
1449617849746448866,-486.0,-558.0,245.0
1449617849762279992,-486.0,-558.0,246.0
1449617849780096541,-486.0,-558.0,249.0
1449617849792216347,-486.0,-558.0,247.0
1449617849807226229,-486.0,-558.0,248.0
1449617849825587030,-486.0,-558.0,246.0
1449617849836580647,-486.0,-558.0,246.0
1449617849852654389,-486.0,-558.0,247.0
1449617849869326107,-486.0,-558.0,240.0
1449617849881259008,-486.0,-558.0,241.0
1449617849897732861,-486.0,-558.0,243.0
1449617849912195220,-486.0,-558.0,245.0
1449617849926364358,-486.0,-558.0,245.0
1449617849943611799,-486.0,-558.0,243.0
1449617849955597201,-486.0,-558.0,243.0
1449617849972582212,-486.0,-558.0,247.0
1449617849990007775,-486.0,-558.0,244.0
1449617850001735553,-486.0,-558.0,245.0
1449617850017835884,-486.0,-558.0,245.0
1449617850033254290,-486.0,-558.0,245.0
1449617850045901637,-486.0,-558.0,242.0
1449617850061351195,-486.0,-558.0,243.0
1449617850077986945,-486.0,-558.0,237.0
1449617850090478359,-486.0,-558.0,236.0
1449617850107104129,-486.0,-558.0,237.0
1449617850123443948,-486.0,-558.0,237.0
1449617850135196163,-486.0,-558.0,239.0
1449617850152156125,-486.0,-558.0,231.0
1449617850168102481,-486.0,-558.0,235.0
1449617850181917832,-488.0,-558.0,236.0
1449617850196963026,-488.0,-558.0,230.0
1449617850213053397,-488.0,-558.0,231.0
1449617850226682315,-488.0,-558.0,233.0
1449617850242645599,-488.0,-558.0,231.0
1449617850258113972,-488.0,-558.0,232.0
1449617850273809482,-488.0,-558.0,233.0
1449617850288498107,-488.0,-558.0,231.0
1449617850304246806,-488.0,-558.0,232.0
1449617850316473483,-488.0,-558.0,236.0
1449617850331833294,-488.0,-558.0,230.0
1449617850347778696,-488.0,-558.0,227.0
1449617850360967915,-488.0,-558.0,228.0
1449617850377862726,-488.0,-558.0,231.0
1449617850393227615,-488.0,-558.0,226.0
1449617850405446811,-488.0,-558.0,229.0
1449617850425857451,-488.0,-558.0,226.0
1449617850434380260,-488.0,-558.0,231.0
1449617850451034242,-488.0,-558.0,232.0
1449617850466922414,-488.0,-558.0,228.0
1449617850479496184,-488.0,-558.0,228.0
1449617850495837946,-488.0,-558.0,229.0
1449617850512568681,-488.0,-558.0,228.0
1449617850524300674,-488.0,-558.0,232.0
1449617850541091413,-488.0,-558.0,230.0
1449617850557265745,-488.0,-558.0,226.0
1449617850570165854,-488.0,-558.0,229.0
1449617850587518635,-488.0,-558.0,228.0
1449617850607335567,-488.0,-558.0,226.0
1449617850614620640,-488.0,-558.0,224.0
1449617850631278580,-488.0,-558.0,218.0
1449617850648094239,-488.0,-558.0,223.0
1449617850659795201,-488.0,-558.0,224.0
1449617850678265533,-488.0,-558.0,221.0
1449617850691230674,-488.0,-558.0,227.0
1449617850704915213,-488.0,-558.0,227.0
1449617850721127749,-488.0,-558.0,224.0
1449617850733855530,-488.0,-558.0,222.0
1449617850749771646,-490.0,-558.0,232.0
1449617850769303365,-490.0,-558.0,235.0
1449617850785801968,-490.0,-558.0,239.0
1449617850797997040,-490.0,-558.0,237.0
1449617850812210247,-490.0,-558.0,239.0
1449617850824080212,-490.0,-558.0,241.0
1449617850840065104,-490.0,-558.0,243.0
1449617850856812358,-490.0,-558.0,239.0
1449617850869577107,-490.0,-558.0,244.0
1449617850887669946,-490.0,-560.0,245.0
1449617850906670883,-492.0,-560.0,234.0
1449617850913610343,-492.0,-560.0,232.0
1449617850932388324,-492.0,-560.0,223.0
1449617850946280039,-492.0,-560.0,224.0
1449617850963551853,-492.0,-560.0,246.0
1449617850979769005,-492.0,-560.0,224.0
1449617850993636208,-494.0,-560.0,236.0
1449617851009515809,-494.0,-560.0,236.0
1449617851024541525,-494.0,-562.0,242.0
1449617851043701956,-494.0,-562.0,244.0
1449617851053283964,-496.0,-562.0,229.0
1449617851065953156,-496.0,-562.0,231.0
1449617851083869693,-496.0,-562.0,226.0
1449617851099863514,-496.0,-564.0,228.0
1449617851111932862,-498.0,-564.0,242.0
1449617851133645268,-498.0,-564.0,244.0
1449617851143615110,-498.0,-564.0,248.0
1449617851155426187,-500.0,-564.0,233.0
1449617851174452830,-500.0,-564.0,225.0
1449617851189347076,-500.0,-566.0,228.0
1449617851201693170,-502.0,-566.0,240.0
1449617851216880382,-502.0,-566.0,246.0
1449617851233173781,-502.0,-568.0,243.0
1449617851246915809,-504.0,-568.0,235.0
1449617851262161556,-504.0,-568.0,223.0
1449617851279619147,-506.0,-568.0,243.0
1449617851291814586,-506.0,-570.0,243.0
1449617851307555703,-508.0,-570.0,233.0
1449617851324490765,-508.0,-570.0,225.0
1449617851336848630,-510.0,-572.0,232.0
1449617851351748029,-510.0,-572.0,240.0
1449617851369460765,-510.0,-572.0,243.0
1449617851386028559,-512.0,-572.0,227.0
1449617851399484817,-512.0,-574.0,224.0
1449617851414210248,-514.0,-574.0,239.0
1449617851425614255,-514.0,-576.0,246.0
1449617851443109525,-516.0,-576.0,224.0
1449617851456072099,-516.0,-576.0,225.0
1449617851473695809,-518.0,-576.0,240.0
1449617851487921558,-518.0,-578.0,232.0
1449617851501668202,-520.0,-578.0,226.0
1449617851517158202,-522.0,-580.0,236.0
1449617851532106323,-522.0,-580.0,240.0
1449617851544944578,-524.0,-580.0,228.0
1449617851562002255,-524.0,-582.0,219.0
1449617851577522267,-526.0,-582.0,235.0
1449617851594955513,-526.0,-584.0,235.0
1449617851607497251,-528.0,-584.0,223.0
1449617851623415128,-530.0,-584.0,234.0
1449617851634442661,-530.0,-586.0,237.0
1449617851651405541,-532.0,-586.0,227.0
1449617851667989714,-532.0,-588.0,219.0
1449617851679640126,-534.0,-588.0,237.0
1449617851697362490,-536.0,-588.0,231.0
1449617851713439450,-536.0,-590.0,220.0
1449617851728103702,-538.0,-590.0,225.0
1449617851744093715,-538.0,-590.0,238.0
1449617851757473417,-540.0,-592.0,226.0
1449617851769651100,-540.0,-592.0,219.0
1449617851786392316,-542.0,-592.0,233.0
1449617851803331021,-542.0,-594.0,229.0
1449617851817002359,-544.0,-594.0,216.0
1449617851834457812,-546.0,-596.0,227.0
1449617851844092177,-546.0,-596.0,238.0
1449617851861034473,-548.0,-596.0,224.0
1449617851876982404,-548.0,-598.0,215.0
1449617851891198920,-550.0,-598.0,230.0
1449617851904751182,-550.0,-600.0,235.0
1449617851921272317,-552.0,-600.0,221.0
1449617851933914829,-552.0,-600.0,211.0
1449617851952219228,-554.0,-600.0,226.0
1449617851966609293,-554.0,-602.0,233.0
1449617851979874413,-556.0,-602.0,220.0
1449617851997052222,-556.0,-604.0,211.0
1449617852015338580,-556.0,-604.0,216.0
1449617852026540252,-558.0,-604.0,227.0
1449617852040216386,-558.0,-604.0,236.0
1449617852056722069,-560.0,-604.0,222.0
1449617852068851235,-560.0,-606.0,214.0
1449617852085349308,-562.0,-606.0,224.0
1449617852102813519,-562.0,-608.0,232.0
1449617852115228617,-564.0,-608.0,225.0
1449617852131253999,-564.0,-608.0,217.0
1449617852146625418,-564.0,-608.0,214.0
1449617852158877418,-566.0,-608.0,232.0
1449617852177798138,-566.0,-610.0,234.0
1449617852191553946,-568.0,-610.0,220.0
1449617852204606073,-568.0,-610.0,217.0
1449617852223596392,-568.0,-612.0,213.0
1449617852233611033,-570.0,-612.0,227.0
1449617852251416243,-570.0,-612.0,232.0
1449617852270080975,-570.0,-612.0,230.0
1449617852277641082,-572.0,-612.0,222.0
1449617852296994851,-572.0,-614.0,214.0
1449617852312937322,-574.0,-614.0,223.0
1449617852322900064,-574.0,-614.0,225.0
1449617852339919188,-574.0,-616.0,229.0
1449617852356524505,-576.0,-616.0,216.0
1449617852374276266,-576.0,-616.0,214.0
1449617852387445730,-576.0,-616.0,212.0
1449617852400739677,-578.0,-616.0,226.0
1449617852413446668,-578.0,-616.0,228.0
1449617852429459592,-578.0,-618.0,230.0
1449617852445624766,-580.0,-618.0,213.0
1449617852458340213,-580.0,-618.0,206.0
1449617852474306644,-580.0,-620.0,215.0
1449617852490679125,-582.0,-620.0,224.0
1449617852502870137,-582.0,-620.0,231.0
1449617852520429783,-584.0,-620.0,221.0
1449617852540009181,-584.0,-620.0,217.0
1449617852549966758,-584.0,-620.0,207.0
1449617852564920500,-586.0,-622.0,222.0
1449617852580810386,-586.0,-622.0,227.0
1449617852594814198,-586.0,-622.0,227.0
1449617852614776073,-588.0,-622.0,215.0
1449617852621911000,-588.0,-624.0,212.0
1449617852638777769,-590.0,-624.0,221.0
1449617852654697045,-590.0,-624.0,230.0
1449617852668070921,-590.0,-624.0,223.0
1449617852683652021,-592.0,-624.0,214.0
