%time,field.linear.x,field.linear.y,field.linear.z,field.angular.x,field.angular.y,field.angular.z
1449617832720430990,0.0,0.0,0.0,0.0,0.0,0.0
1449617832820120575,0.0,0.0,0.0,0.0,0.0,0.0
1449617832922187467,0.0,0.0,0.0,0.0,0.0,0.0
1449617832970211293,0.0,0.0,0.0,0.0,0.0,0.0
1449617833096125144,0.0,0.0,0.0,0.0,0.0,0.0
1449617833197877789,0.0,0.0,0.0,0.0,0.0,0.0
1449617833297760788,0.0,0.0,0.0,0.0,0.0,0.0
1449617833397883490,0.0,0.0,0.0,0.0,0.0,0.0
1449617833497895083,0.0,0.0,0.0,0.0,0.0,0.0
1449617833546618211,0.0,0.0,0.0,0.0,0.0,0.0
1449617833689984212,0.0,0.0,0.0,0.0,0.0,0.0
1449617833794056195,0.0,0.0,0.0,0.0,0.0,0.0
1449617833889978930,0.0,0.0,0.0,0.0,0.0,0.0
1449617833939974962,0.0,0.0,0.0,0.0,0.0,0.0
1449617834092864002,0.0,0.0,0.0,0.0,0.0,0.0
1449617834193058977,0.0,0.0,0.0,0.0,0.0,0.0
1449617834242751102,0.0,0.0,0.0,0.0,0.0,0.0
1449617834324658087,0.0,0.0,0.0,0.0,0.0,0.0
1449617834376016350,0.0,0.0,0.0,0.0,0.0,0.0
1449617834484568422,0.0,0.0,0.0,0.0,0.0,0.0
1449617834585668513,0.0,0.0,0.0,0.0,0.0,0.0
1449617834684950396,0.0,0.0,0.0,0.0,0.0,0.0
1449617834734608170,0.0,0.0,0.0,0.0,0.0,0.0
1449617834864521165,0.0,0.0,0.0,0.0,0.0,0.0
1449617834914849397,0.0,0.0,0.0,0.0,0.0,0.0
1449617835065841635,0.0,0.0,0.0,0.0,0.0,0.0
1449617835116258235,0.0,0.0,0.0,0.0,0.0,0.0
1449617835179305004,0.0,0.0,0.0,0.0,0.0,0.0
1449617835279916172,0.0,0.0,0.0,0.0,0.0,0.0
1449617835379829955,0.0,0.0,0.0,0.0,0.0,0.0
1449617835479540878,0.0,0.0,0.0,0.0,0.0,0.0
1449617835528752974,0.0,0.0,0.0,0.0,0.0,0.0
1449617835700777222,0.0,0.0,0.0,0.0,0.0,0.0
1449617835750715375,0.0,0.0,0.0,0.0,0.0,0.0
1449617835864958214,0.0,0.0,0.0,0.0,0.0,0.0
1449617835916010098,0.0,0.0,0.0,0.0,0.0,0.0
1449617836009061776,0.0,0.0,0.0,0.0,0.0,0.0
1449617836109133251,0.0,0.0,0.0,0.0,0.0,0.0
1449617836209811719,0.0,0.0,0.0,0.0,0.0,0.0
1449617836312189981,0.0,0.0,0.0,0.0,0.0,0.0
1449617836362160643,0.0,0.0,0.0,0.0,0.0,0.0
1449617836419134490,0.0,0.0,0.0,0.0,0.0,0.0
1449617836569031269,0.0,0.0,0.0,0.0,0.0,0.0
1449617836619566945,0.0,0.0,0.0,0.0,0.0,0.0
1449617836786147779,0.0,0.0,0.0,0.0,0.0,0.0
1449617836836342268,0.0,0.0,0.0,0.0,0.0,0.0
1449617837023434915,0.12,0.0,0.0,0.0,0.0,-0.0210526315789
1449617837099877548,0.12,0.0,0.0,0.0,0.0,-0.0210526315789
1449617837201038506,0.12,0.0,0.0,0.0,0.0,-0.0210526315789
1449617837299373101,0.12,0.0,0.0,0.0,0.0,-0.0210526315789
1449617837384072666,0.12,0.0,0.0,0.0,0.0,-0.0210526315789
1449617837497924707,0.12,0.0,0.0,0.0,0.0,-0.0210526315789
1449617837621771399,0.12,0.0,0.0,0.0,0.0,-0.0631578947368
1449617837719122457,0.12,0.0,0.0,0.0,0.0,-0.0631578947368
1449617837809425746,0.12,0.0,0.0,0.0,0.0,-0.0631578947368
1449617837895867102,0.12,0.0,0.0,0.0,0.0,-0.0631578947368
1449617837977164844,0.12,0.0,0.0,0.0,0.0,-0.0631578947368
1449617838069900928,0.12,0.0,0.0,0.0,0.0,-0.105263157895
1449617838172003666,0.12,0.0,0.0,0.0,0.0,-0.0631578947368
1449617838218617068,0.12,0.0,0.0,0.0,0.0,-0.0631578947368
1449617838318743281,0.12,0.0,0.0,0.0,0.0,-0.0631578947368
1449617838370428970,0.12,0.0,0.0,0.0,0.0,-0.0631578947368
1449617838515343047,0.12,0.0,0.0,0.0,0.0,-0.0631578947368
1449617838592136743,0.12,0.0,0.0,0.0,0.0,-0.0631578947368
1449617838727223271,0.12,0.0,0.0,0.0,0.0,-0.0631578947368
1449617838831481228,0.12,0.0,0.0,0.0,0.0,-0.105263157895
1449617838901371313,0.12,0.0,0.0,0.0,0.0,-0.105263157895
1449617838964256890,0.12,0.0,0.0,0.0,0.0,-0.105263157895
1449617839008481601,0.0,0.0,0.0,0.0,0.0,-0.31
1449617839069184366,0.0,0.0,0.0,0.0,0.0,-0.31
1449617839151821392,0.0,0.0,0.0,0.0,0.0,-0.315789473684
1449617839231351842,0.0,0.0,0.0,0.0,0.0,-0.4
1449617839319742937,0.0,0.0,0.0,0.0,0.0,-0.4
1449617839371711945,0.0,0.0,0.0,0.0,0.0,-0.4
1449617839378441529,0.0,0.0,0.0,0.0,0.0,0.0
1449617839416456041,0.0,0.0,0.0,0.0,0.0,0.0
1449617845207747169,0.148593536696,0.0,0.0,0.0,0.0,-0.0210526315789
1449617845303661533,0.146289851165,0.0,0.0,0.0,0.0,-0.0210526315789
1449617845365567345,0.144754053554,0.0,0.0,0.0,0.0,-0.0210526315789
1449617845416676343,0.143218395734,0.0,0.0,0.0,0.0,-0.0210526315789
1449617845461277636,0.142450623628,0.0,0.0,0.0,0.0,-0.0210526315789
1449617845549794826,0.141682713604,0.0,0.0,0.0,0.0,-0.0210526315789
1449617845609262736,0.140914975484,0.0,0.0,0.0,0.0,-0.0210526315789
1449617845723304189,0.139379475821,0.0,0.0,0.0,0.0,0.0
1449617845821262464,0.137844201237,0.0,0.0,0.0,0.0,0.0
1449617845873894008,0.137076663554,0.0,0.0,0.0,0.0,0.0
1449617845943775436,0.131656084737,0.0,0.0,0.0,0.0,0.0
1449617845996377097,0.131656084737,0.0,0.0,0.0,0.0,0.0
1449617846107235588,0.130504829869,0.0,0.0,0.0,0.0,0.0
1449617850594470577,0.352,0.0,0.0,0.0,0.0,0.357894736842
1449617850696778591,0.352,0.0,0.0,0.0,0.0,0.357894736842
1449617850766269036,0.352,0.0,0.0,0.0,0.0,0.357894736842
1449617850874984264,0.196768207664,0.0,0.0,0.0,0.0,0.189473684211
1449617850945715045,0.195845687635,0.0,0.0,0.0,0.0,0.189473684211
1449617851033749918,0.194926404072,0.0,0.0,0.0,0.0,0.189473684211
1449617851168245795,0.194004665004,0.0,0.0,0.0,0.0,0.189473684211
1449617851249557602,0.190312819157,0.0,0.0,0.0,0.0,0.189473684211
1449617851340811891,0.188464941935,0.0,0.0,0.0,0.0,0.189473684211
1449617851390178516,0.184767907969,0.0,0.0,0.0,0.0,0.189473684211
1449617851556135591,0.180146674615,0.0,0.0,0.0,0.0,0.189473684211
1449617851660188841,0.172733177546,0.0,0.0,0.0,0.0,0.189473684211
1449617851793099209,0.16809522774,0.0,0.0,0.0,0.0,0.189473684211
1449617851912231288,0.160661728461,0.0,0.0,0.0,0.0,0.189473684211
1449617851985289129,0.151357006026,0.0,0.0,0.0,0.0,0.189473684211
1449617852105531141,0.352,0.0,0.0,0.0,0.0,0.315789473684
1449617852180240619,0.352,0.0,0.0,0.0,0.0,0.315789473684
1449617852291156625,0.352,0.0,0.0,0.0,0.0,0.357894736842
1449617852384610756,0.352,0.0,0.0,0.0,0.0,0.315789473684
1449617852458333128,0.352,0.0,0.0,0.0,0.0,0.315789473684
1449617852539881586,0.352,0.0,0.0,0.0,0.0,0.315789473684
1449617852605861788,0.352,0.0,0.0,0.0,0.0,0.357894736842
1449617852679856661,0.352,0.0,0.0,0.0,0.0,0.315789473684
1449617852783253710,0.352,0.0,0.0,0.0,0.0,0.357894736842
1449617852861006312,0.352,0.0,0.0,0.0,0.0,0.315789473684
1449617852965896144,0.352,0.0,0.0,0.0,0.0,0.315789473684
1449617853056278900,0.352,0.0,0.0,0.0,0.0,0.315789473684
1449617853140802009,0.352,0.0,0.0,0.0,0.0,0.357894736842
1449617853236899445,0.352,0.0,0.0,0.0,0.0,0.273684210526
1449617853344340916,0.352,0.0,0.0,0.0,0.0,0.273684210526
1449617853479863472,0.352,0.0,0.0,0.0,0.0,0.315789473684
1449617853574042284,0.352,0.0,0.0,0.0,0.0,0.357894736842
1449617853651456526,0.352,0.0,0.0,0.0,0.0,0.233070707823
1449617853721921904,0.3056,0.0,0.0,0.0,0.0,0.191286128759
1449617853834590468,0.352,0.0,0.0,0.0,0.0,0.149605120609
1449617853889084863,0.352,0.0,0.0,0.0,0.0,0.157931939677
1449617853950362100,0.352,0.0,0.0,0.0,0.0,0.157931939677
1449617854046607990,0.212314612029,0.0,0.0,0.0,0.0,0.0772537793611
1449617854066745366,0.0,0.0,0.0,0.0,0.0,0.0
1449617854114983696,0.0,0.0,0.0,0.0,0.0,0.0
1449617854183862838,0.0,0.0,0.0,0.0,0.0,0.0
1449617854230976107,0.0,0.0,0.0,0.0,0.0,0.0
1449617854288205555,0.0,0.0,0.0,0.0,0.0,0.0
1449617854451961580,0.0,0.0,0.0,0.0,0.0,-0.4
1449617854517303862,0.12,0.0,0.0,0.0,0.0,-0.0631578947368
1449617854608422057,0.12,0.0,0.0,0.0,0.0,0.0
1449617854708880742,0.150024117159,0.0,0.0,0.0,0.0,-0.0210526315789
1449617854801693255,0.144274410035,0.0,0.0,0.0,0.0,-0.0631578947368
1449617854904264642,0.139490298308,0.0,0.0,0.0,0.0,-0.0631578947368
1449617854960719900,0.134711870893,0.0,0.0,0.0,0.0,-0.0631578947368
1449617855049787009,0.131846595133,0.0,0.0,0.0,0.0,-0.105263157895
1449617855141940490,0.127082139162,0.0,0.0,0.0,0.0,-0.105263157895
1449617855217863432,0.121396295385,0.0,0.0,0.0,0.0,-0.105263157895
1449617855341044569,0.12,0.0,0.0,0.0,0.0,-0.147368421053
1449617855410164357,0.12,0.0,0.0,0.0,0.0,-0.147368421053
1449617855452310338,0.12,0.0,0.0,0.0,0.0,-0.147368421053
1449617855567299259,0.12,0.0,0.0,0.0,0.0,-0.147368421053
1449617855621622070,0.12,0.0,0.0,0.0,0.0,-0.147368421053
1449617855757782447,0.352,0.0,0.0,0.0,0.0,-0.273684210526
1449617855850787750,0.352,0.0,0.0,0.0,0.0,-0.315789473684
1449617855922000957,0.352,0.0,0.0,0.0,0.0,-0.315789473684
1449617856012023847,0.352,0.0,0.0,0.0,0.0,-0.357894736842
1449617856106367414,0.352,0.0,0.0,0.0,0.0,-0.357894736842
1449617856183984553,0.352,0.0,0.0,0.0,0.0,-0.315789473684
1449617856256674795,0.352,0.0,0.0,0.0,0.0,-0.315789473684
1449617856313986758,0.352,0.0,0.0,0.0,0.0,-0.315789473684
1449617856378137352,0.352,0.0,0.0,0.0,0.0,-0.273684210526
1449617856433145840,0.352,0.0,0.0,0.0,0.0,-0.273684210526
1449617856494982608,0.352,0.0,0.0,0.0,0.0,-0.315789473684
1449617856555964833,0.352,0.0,0.0,0.0,0.0,-0.357894736842
1449617856619849395,0.352,0.0,0.0,0.0,0.0,-0.4
1449617856742942272,0.352,0.0,0.0,0.0,0.0,-0.357894736842
1449617856800778546,0.352,0.0,0.0,0.0,0.0,-0.4
1449617856870576095,0.352,0.0,0.0,0.0,0.0,-0.357894736842
1449617856951325381,0.352,0.0,0.0,0.0,0.0,-0.357894736842
1449617857039765936,0.352,0.0,0.0,0.0,0.0,-0.315789473684
1449617857114958080,0.352,0.0,0.0,0.0,0.0,-0.315789473684
1449617857192357748,0.352,0.0,0.0,0.0,0.0,-0.315789473684
1449617857277323173,0.352,0.0,0.0,0.0,0.0,-0.357894736842
1449617857356179178,0.352,0.0,0.0,0.0,0.0,-0.315789473684
1449617857410085400,0.352,0.0,0.0,0.0,0.0,-0.357894736842
1449617857507316120,0.352,0.0,0.0,0.0,0.0,-0.315789473684
1449617857638914284,0.352,0.0,0.0,0.0,0.0,-0.357894736842
1449617857712933436,0.3056,0.0,0.0,0.0,0.0,-0.273684210526
1449617857825914272,0.3056,0.0,0.0,0.0,0.0,-0.315789473684
1449617857897159128,0.3056,0.0,0.0,0.0,0.0,-0.315789473684
1449617857998839521,0.3056,0.0,0.0,0.0,0.0,-0.315789473684
1449617858057312649,0.352,0.0,0.0,0.0,0.0,-0.4
1449617858166919223,0.2592,0.0,0.0,0.0,0.0,-0.273684210526
1449617858255859006,0.2592,0.0,0.0,0.0,0.0,-0.273684210526
1449617858338436314,0.3056,0.0,0.0,0.0,0.0,-0.357894736842
1449617858417765719,0.3056,0.0,0.0,0.0,0.0,-0.4
1449617858483709764,0.2592,0.0,0.0,0.0,0.0,-0.273684210526
1449617858537234684,0.2592,0.0,0.0,0.0,0.0,-0.315789473684
1449617858618569875,0.2592,0.0,0.0,0.0,0.0,-0.357894736842
1449617858671810073,0.2592,0.0,0.0,0.0,0.0,-0.4
1449617858739447190,0.2592,0.0,0.0,0.0,0.0,-0.4
1449617858818063630,0.2128,0.0,0.0,0.0,0.0,-0.4
1449617858880178780,0.2128,0.0,0.0,0.0,0.0,-0.357894736842
1449617858960135140,0.2128,0.0,0.0,0.0,0.0,-0.4
1449617859045748633,0.2128,0.0,0.0,0.0,0.0,-0.4
1449617859127552939,0.21251930991,0.0,0.0,0.0,0.0,-0.4
1449617859215244316,0.211661591241,0.0,0.0,0.0,0.0,-0.4
1449617859306047193,0.210677901811,0.0,0.0,0.0,0.0,-0.4
1449617859379909391,0.16465919868,0.0,0.0,0.0,0.0,-0.4
1449617859481525818,0.164460442839,0.0,0.0,0.0,0.0,-0.4
1449617859529075666,0.163951451078,0.0,0.0,0.0,0.0,-0.4
1449617859592949976,0.163708589611,0.0,0.0,0.0,0.0,-0.4
1449617859669169216,0.163410282852,0.0,0.0,0.0,0.0,-0.4
1449617859727087105,0.163064034675,0.0,0.0,0.0,0.0,-0.4
1449617859814608284,0.162952626685,0.0,0.0,0.0,0.0,-0.4
1449617859869718152,0.162630557364,0.0,0.0,0.0,0.0,-0.4
1449617859956138283,0.162326932463,0.0,0.0,0.0,0.0,-0.4
1449617860011303215,0.162176226659,0.0,0.0,0.0,0.0,-0.4
1449617860071960817,0.161984541345,0.0,0.0,0.0,0.0,-0.4
1449617860148808814,0.12,0.0,0.0,0.0,0.0,-0.4
1449617860254041396,0.12,0.0,0.0,0.0,0.0,-0.4
1449617860322097620,0.12,0.0,0.0,0.0,0.0,-0.4
1449617860378038014,0.12,0.0,0.0,0.0,0.0,-0.4
1449617860486133332,0.12,0.0,0.0,0.0,0.0,-0.4
1449617860552275665,0.12,0.0,0.0,0.0,0.0,-0.4
1449617860600944197,0.12,0.0,0.0,0.0,0.0,-0.4
1449617860735198222,0.12,0.0,0.0,0.0,0.0,-0.4
1449617860835753742,0.12,0.0,0.0,0.0,0.0,-0.4
1449617860909602741,0.12,0.0,0.0,0.0,0.0,-0.4
1449617861029558600,0.12,0.0,0.0,0.0,0.0,-0.4
1449617861121085454,0.0,0.0,0.0,0.0,0.0,-0.4
1449617861229793138,0.0,0.0,0.0,0.0,0.0,-0.4
1449617861309853517,0.0,0.0,0.0,0.0,0.0,-0.4
1449617861393812360,0.0,0.0,0.0,0.0,0.0,-0.4
1449617861451512223,0.0,0.0,0.0,0.0,0.0,-0.4
1449617861513841217,0.0,0.0,0.0,0.0,0.0,-0.4
1449617861595210966,0.0,0.0,0.0,0.0,0.0,-0.4
1449617861664380186,0.0,0.0,0.0,0.0,0.0,-0.4
1449617861725215591,0.0,0.0,0.0,0.0,0.0,-0.4
1449617861782871371,0.0,0.0,0.0,0.0,0.0,-0.4
1449617861902177472,0.0,0.0,0.0,0.0,0.0,-0.4
1449617861987625131,0.0,0.0,0.0,0.0,0.0,-0.4
1449617862059138129,0.0,0.0,0.0,0.0,0.0,-0.4
1449617862123657928,0.0,0.0,0.0,0.0,0.0,-0.4
1449617862197511157,0.0,0.0,0.0,0.0,0.0,-0.4
1449617862260077954,0.0,0.0,0.0,0.0,0.0,-0.4
1449617862376252402,0.0,0.0,0.0,0.0,0.0,-0.4
1449617862441910936,0.0,0.0,0.0,0.0,0.0,-0.4
1449617862558107977,0.0,0.0,0.0,0.0,0.0,-0.4
1449617862624922132,0.0,0.0,0.0,0.0,0.0,-0.4
1449617862683976720,0.0,0.0,0.0,0.0,0.0,-0.4
1449617862770830847,0.0,0.0,0.0,0.0,0.0,-0.4
1449617862874287552,0.0,0.0,0.0,0.0,0.0,-0.4
1449617862972823780,0.0,0.0,0.0,0.0,0.0,-0.4
1449617863056257973,0.0,0.0,0.0,0.0,0.0,-0.4
1449617863152639396,0.0,0.0,0.0,0.0,0.0,-0.4
1449617863230039638,0.0,0.0,0.0,0.0,0.0,-0.4
1449617863293785837,0.0,0.0,0.0,0.0,0.0,-0.4
1449617863377453194,0.0,0.0,0.0,0.0,0.0,-0.4
1449617863460405861,0.0,0.0,0.0,0.0,0.0,-0.4
1449617863537112150,0.0,0.0,0.0,0.0,0.0,-0.4
1449617863623194712,0.0,0.0,0.0,0.0,0.0,-0.4
1449617863675055701,0.0,0.0,0.0,0.0,0.0,-0.4
1449617863759669094,0.0,0.0,0.0,0.0,0.0,-0.4
1449617863851184633,0.0,0.0,0.0,0.0,0.0,-0.4
1449617863921550048,0.0,0.0,0.0,0.0,0.0,-0.4
1449617863983781416,0.0,0.0,0.0,0.0,0.0,-0.4
1449617864073716427,0.0,0.0,0.0,0.0,0.0,-0.4
1449617864155216761,0.0,0.0,0.0,0.0,0.0,-0.4
1449617864227940363,0.0,0.0,0.0,0.0,0.0,-0.4
1449617864319276288,0.0,0.0,0.0,0.0,0.0,-0.4
1449617864358161743,0.0,0.0,0.0,0.0,0.0,-0.4
1449617864428723418,0.0,0.0,0.0,0.0,0.0,-0.4
1449617864507548378,0.0,0.0,0.0,0.0,0.0,-0.4
1449617864603593519,0.0,0.0,0.0,0.0,0.0,-0.4
1449617864645971498,0.0,0.0,0.0,0.0,0.0,-0.4
1449617864688154421,0.0,0.0,0.0,0.0,0.0,-0.4
1449617864779358351,0.0,0.0,0.0,0.0,0.0,-0.4
1449617864779363106,0.0,0.0,0.0,0.0,0.0,0.0
1449617864866320540,0.0,0.0,0.0,0.0,0.0,-0.4
1449617864966605653,0.0,0.0,0.0,0.0,0.0,-0.4
1449617865083903182,0.0,0.0,0.0,0.0,0.0,-0.4
1449617865151586919,0.0,0.0,0.0,0.0,0.0,-0.4
1449617865221629566,0.0,0.0,0.0,0.0,0.0,-0.4
1449617865291518984,0.0,0.0,0.0,0.0,0.0,-0.4
1449617865360271898,0.0,0.0,0.0,0.0,0.0,-0.4
1449617865427175061,0.0,0.0,0.0,0.0,0.0,-0.4
1449617865493057164,0.0,0.0,0.0,0.0,0.0,-0.4
1449617865541483531,0.0,0.0,0.0,0.0,0.0,-0.4
1449617865598613343,0.0,0.0,0.0,0.0,0.0,-0.4
1449617865675289900,0.0,0.0,0.0,0.0,0.0,-0.4
1449617865755203695,0.0,0.0,0.0,0.0,0.0,-0.4
1449617865823308772,0.0,0.0,0.0,0.0,0.0,-0.4
1449617865923320643,0.0,0.0,0.0,0.0,0.0,-0.4
1449617866024920244,0.0,0.0,0.0,0.0,0.0,-0.4
1449617866092160598,0.0,0.0,0.0,0.0,0.0,-0.4
1449617866174521121,0.0,0.0,0.0,0.0,0.0,-0.4
1449617866282639311,0.0,0.0,0.0,0.0,0.0,-0.4
1449617866388538101,0.0,0.0,0.0,0.0,0.0,-0.4
1449617866490317790,0.0,0.0,0.0,0.0,0.0,-0.4
1449617866548032730,0.0,0.0,0.0,0.0,0.0,-0.4
1449617866600687129,0.0,0.0,0.0,0.0,0.0,-0.4
1449617866647415689,0.0,0.0,0.0,0.0,0.0,-0.4
1449617866708907872,0.0,0.0,0.0,0.0,0.0,-0.4
1449617866764847597,0.0,0.0,0.0,0.0,0.0,-0.4
1449617866815090885,0.0,0.0,0.0,0.0,0.0,-0.4
1449617866882760223,0.0,0.0,0.0,0.0,0.0,-0.4
1449617866983005391,0.0,0.0,0.0,0.0,0.0,-0.4
1449617867064229851,0.0,0.0,0.0,0.0,0.0,-0.4
1449617867122137999,0.0,0.0,0.0,0.0,0.0,-0.4
1449617867197315430,0.0,0.0,0.0,0.0,0.0,-0.4
1449617867282312897,0.0,0.0,0.0,0.0,0.0,-0.4
1449617867365959702,0.0,0.0,0.0,0.0,0.0,-0.4
1449617867436078010,0.0,0.0,0.0,0.0,0.0,-0.4
1449617867507161804,0.0,0.0,0.0,0.0,0.0,-0.4
1449617867659681866,0.0,0.0,0.0,0.0,0.0,-0.4
1449617867762757227,0.0,0.0,0.0,0.0,0.0,-0.4
1449617867813737307,0.0,0.0,0.0,0.0,0.0,-0.4
1449617867899027292,0.0,0.0,0.0,0.0,0.0,-0.4
1449617868053180736,0.0,0.0,0.0,0.0,0.0,-0.4
1449617868130592585,0.0,0.0,0.0,0.0,0.0,-0.4
1449617868206135272,0.0,0.0,0.0,0.0,0.0,-0.4
1449617868295337487,0.0,0.0,0.0,0.0,0.0,-0.4
1449617868366533034,0.0,0.0,0.0,0.0,0.0,-0.4
1449617868462871396,0.230991660573,0.0,0.0,0.0,0.0,-0.0210526315789
1449617868548356030,0.220436120589,0.0,0.0,0.0,0.0,0.0
1449617868657426641,0.215640525191,0.0,0.0,0.0,0.0,0.0
1449617868728485027,0.204130859974,0.0,0.0,0.0,0.0,0.0
1449617868797397846,0.196460682525,0.0,0.0,0.0,0.0,0.0
1449617868915319082,0.189752250206,0.0,0.0,0.0,0.0,-0.0210526315789
1449617868976471258,0.179219691475,0.0,0.0,0.0,0.0,-0.0631578947368
1449617869049884211,0.174437247266,0.0,0.0,0.0,0.0,-0.0631578947368
1449617869109486541,0.167737579664,0.0,0.0,0.0,0.0,-0.0631578947368
1449617869191248034,0.159134212459,0.0,0.0,0.0,0.0,-0.0631578947368
1449617869286260529,0.152450813468,0.0,0.0,0.0,0.0,-0.0631578947368
1449617869333990148,0.145765227649,0.0,0.0,0.0,0.0,-0.0631578947368
1449617869421297228,0.13374779051,0.0,0.0,0.0,0.0,-0.0631578947368
1449617869459664549,0.135279066227,0.0,0.0,0.0,0.0,-0.105263157895
1449617869539774901,0.12841852527,0.0,0.0,0.0,0.0,-0.0631578947368
1449617869582742594,0.12,0.0,0.0,0.0,0.0,-0.0631578947368
1449617869635939776,0.12,0.0,0.0,0.0,0.0,0.0
1449617869699584922,0.12,0.0,0.0,0.0,0.0,-0.0631578947368
1449617869786289415,0.12,0.0,0.0,0.0,0.0,-0.147368421053
1449617869846473647,0.12,0.0,0.0,0.0,0.0,-0.147368421053
1449617869979513364,0.12,0.0,0.0,0.0,0.0,-0.273684210526
1449617870061463853,0.12,0.0,0.0,0.0,0.0,-0.105263157895
1449617870106392445,0.12,0.0,0.0,0.0,0.0,-0.4
1449617870194105204,0.12,0.0,0.0,0.0,0.0,-0.4
1449617870263349910,0.12,0.0,0.0,0.0,0.0,-0.0631578947368
1449617870369549692,0.0,0.0,0.0,0.0,0.0,-0.315789473684
1449617870444285681,0.0,0.0,0.0,0.0,0.0,-0.315789473684
1449617870444290876,0.0,0.0,0.0,0.0,0.0,0.0
1449617870471907381,0.0,0.0,0.0,0.0,0.0,0.0
1449617872402046503,0.12,0.0,0.0,0.0,0.0,-0.0631578947368
1449617872459094082,0.12,0.0,0.0,0.0,0.0,0.0
1449617872508244022,0.12,0.0,0.0,0.0,0.0,-0.0210526315789
1449617872599467723,0.12,0.0,0.0,0.0,0.0,0.0
1449617872676277014,0.12,0.0,0.0,0.0,0.0,0.0
1449617872753726593,0.12,0.0,0.0,0.0,0.0,0.0
1449617872841454198,0.12,0.0,0.0,0.0,0.0,0.0
1449617872916861267,0.12,0.0,0.0,0.0,0.0,0.0210526315789
1449617873021540131,0.0,0.0,0.0,0.0,0.0,-0.315789473684
1449617873116915405,0.0,0.0,0.0,0.0,0.0,-0.315789473684
1449617873117283805,0.0,0.0,0.0,0.0,0.0,0.0
1449617873167871958,0.0,0.0,0.0,0.0,0.0,0.0
1449617889219959886,0.0,0.0,0.0,0.0,0.0,0.0
1449617889319614120,0.0,0.0,0.0,0.0,0.0,0.0
1449617889372265887,0.0,0.0,0.0,0.0,0.0,0.0
1449617889420060171,0.0,0.0,0.0,0.0,0.0,0.0
1449617889609896832,0.0,0.0,0.0,0.0,0.0,0.0
1449617889660122240,0.0,0.0,0.0,0.0,0.0,0.0
1449617889746330597,0.0,0.0,0.0,0.0,0.0,0.0
1449617889846665218,0.0,0.0,0.0,0.0,0.0,0.0
1449617889945035112,0.0,0.0,0.0,0.0,0.0,0.0
1449617890043358354,0.0,0.0,0.0,0.0,0.0,0.0
1449617890144202575,0.0,0.0,0.0,0.0,0.0,0.0
1449617890244618376,0.0,0.0,0.0,0.0,0.0,0.0
1449617890293657164,0.0,0.0,0.0,0.0,0.0,0.0
1449617890372350776,0.0,0.0,0.0,0.0,0.0,0.0
1449617890523450600,0.0,0.0,0.0,0.0,0.0,0.0
1449617890572617651,0.0,0.0,0.0,0.0,0.0,0.0
1449617890629298994,0.0,0.0,0.0,0.0,0.0,0.0
1449617890728882214,0.0,0.0,0.0,0.0,0.0,0.0
1449617890828950069,0.0,0.0,0.0,0.0,0.0,0.0
1449617890929084354,0.0,0.0,0.0,0.0,0.0,0.0
1449617890980507848,0.0,0.0,0.0,0.0,0.0,0.0
1449617891049089030,0.0,0.0,0.0,0.0,0.0,0.0
1449617891199804374,0.0,0.0,0.0,0.0,0.0,0.0
1449617891251517536,0.0,0.0,0.0,0.0,0.0,0.0
1449617891353584849,0.0,0.0,0.0,0.0,0.0,0.0
1449617891453569256,0.0,0.0,0.0,0.0,0.0,0.0
1449617891556891281,0.0,0.0,0.0,0.0,0.0,0.0
1449617891603524125,0.0,0.0,0.0,0.0,0.0,0.0
1449617891764294502,0.0,0.0,0.0,0.0,0.0,-0.4
1449617891828029620,0.0,0.0,0.0,0.0,0.0,-0.4
1449617891895748050,0.0,0.0,0.0,0.0,0.0,-0.4
1449617891999459207,0.0,0.0,0.0,0.0,0.0,-0.4
1449617892064287958,0.0,0.0,0.0,0.0,0.0,-0.357894736842
1449617892142311418,0.0,0.0,0.0,0.0,0.0,-0.357894736842
1449617892227982834,0.0,0.0,0.0,0.0,0.0,-0.357894736842
1449617892329951980,0.0,0.0,0.0,0.0,0.0,-0.357894736842
1449617892477752676,0.0,0.0,0.0,0.0,0.0,-0.4
1449617892552955827,0.0,0.0,0.0,0.0,0.0,-0.4
1449617892606460119,0.0,0.0,0.0,0.0,0.0,-0.4
1449617892673988628,0.0,0.0,0.0,0.0,0.0,-0.4
1449617892764891800,0.0,0.0,0.0,0.0,0.0,-0.4
1449617892817173822,0.0,0.0,0.0,0.0,0.0,-0.4
1449617892875281677,0.0,0.0,0.0,0.0,0.0,-0.4
1449617892937970532,0.0,0.0,0.0,0.0,0.0,-0.4
1449617892981903765,0.0,0.0,0.0,0.0,0.0,-0.4
1449617893047319950,0.0,0.0,0.0,0.0,0.0,-0.4
1449617893105564166,0.0,0.0,0.0,0.0,0.0,-0.4
1449617893221371477,0.0,0.0,0.0,0.0,0.0,-0.4
1449617893354002307,0.0,0.0,0.0,0.0,0.0,-0.4
1449617893509300186,0.0,0.0,0.0,0.0,0.0,-0.315789473684
1449617893589344444,0.0,0.0,0.0,0.0,0.0,-0.4
1449617893652458552,0.0,0.0,0.0,0.0,0.0,-0.4
1449617893705976152,0.0,0.0,0.0,0.0,0.0,-0.4
1449617893754087798,0.0,0.0,0.0,0.0,0.0,-0.315789473684
1449617893818305855,0.0,0.0,0.0,0.0,0.0,-0.315789473684
1449617893921724154,0.0,0.0,0.0,0.0,0.0,-0.315789473684
1449617893965879842,0.12,0.0,0.0,0.0,0.0,-0.4
1449617894034486133,0.12,0.0,0.0,0.0,0.0,-0.4
1449617894074985815,0.12,0.0,0.0,0.0,0.0,-0.4
1449617894154121823,0.12,0.0,0.0,0.0,0.0,-0.4
1449617894212889491,0.12,0.0,0.0,0.0,0.0,-0.4
1449617894295601641,0.12,0.0,0.0,0.0,0.0,-0.4
1449617894363756286,0.12,0.0,0.0,0.0,0.0,-0.357894736842
1449617894414078568,0.12,0.0,0.0,0.0,0.0,-0.315789473684
1449617894504189156,0.12,0.0,0.0,0.0,0.0,-0.315789473684
1449617894600065814,0.12,0.0,0.0,0.0,0.0,-0.105263157895
1449617894664141382,0.12,0.0,0.0,0.0,0.0,0.0
1449617894713897748,0.12,0.0,0.0,0.0,0.0,-0.189473684211
1449617894808501339,0.12,0.0,0.0,0.0,0.0,-0.0631578947368
1449617894879373299,0.12,0.0,0.0,0.0,0.0,0.105263157895
1449617894936394154,0.12,0.0,0.0,0.0,0.0,0.105263157895
1449617895025502902,0.12,0.0,0.0,0.0,0.0,0.105263157895
1449617895032097100,0.0,0.0,0.0,0.0,0.0,0.0
1449617895068516895,0.0,0.0,0.0,0.0,0.0,0.0
1449617895329805138,0.0,0.0,0.0,0.0,0.0,0.0
1449617895429756928,0.0,0.0,0.0,0.0,0.0,0.0
1449617895478397794,0.0,0.0,0.0,0.0,0.0,0.0
1449617895597976460,0.0,0.0,0.0,0.0,0.0,0.0
1449617895647041161,0.0,0.0,0.0,0.0,0.0,0.0
1449617895707160574,0.0,0.0,0.0,0.0,0.0,0.0
1449617895806611785,0.0,0.0,0.0,0.0,0.0,0.0
1449617895856457542,0.0,0.0,0.0,0.0,0.0,0.0
1449617895934804425,0.0,0.0,0.0,0.0,0.0,0.0
1449617896035512061,0.0,0.0,0.0,0.0,0.0,0.0
1449617896134810486,0.0,0.0,0.0,0.0,0.0,0.0
1449617896234988398,0.0,0.0,0.0,0.0,0.0,0.0
1449617896334776914,0.0,0.0,0.0,0.0,0.0,0.0
1449617896501373176,0.12,0.0,0.0,0.0,0.0,-0.105263157895
1449617896635355261,0.12,0.0,0.0,0.0,0.0,-0.105263157895
1449617896705961109,0.12,0.0,0.0,0.0,0.0,-0.105263157895
1449617896764627198,0.12,0.0,0.0,0.0,0.0,-0.105263157895
1449617896835157125,0.12,0.0,0.0,0.0,0.0,-0.105263157895
1449617896909486398,0.12,0.0,0.0,0.0,0.0,-0.105263157895
1449617896982803085,0.12,0.0,0.0,0.0,0.0,-0.105263157895
1449617897052135718,0.12,0.0,0.0,0.0,0.0,-0.0631578947368
1449617897099031086,0.12,0.0,0.0,0.0,0.0,-0.0631578947368
1449617897159910340,0.12,0.0,0.0,0.0,0.0,-0.0631578947368
1449617897237219435,0.12,0.0,0.0,0.0,0.0,-0.0631578947368
1449617897359792790,0.12,0.0,0.0,0.0,0.0,0.0
1449617897395184984,0.12,0.0,0.0,0.0,0.0,-0.0631578947368
1449617897434304597,0.0,0.0,0.0,0.0,0.0,0.0
1449617897483725259,0.0,0.0,0.0,0.0,0.0,0.0
1449617897544788854,0.0,0.0,0.0,0.0,0.0,0.0
1449617897644963596,0.0,0.0,0.0,0.0,0.0,0.0
1449617897744847630,0.0,0.0,0.0,0.0,0.0,0.0
1449617897845114248,0.0,0.0,0.0,0.0,0.0,0.0
1449617897947265695,0.0,0.0,0.0,0.0,0.0,0.0
1449617897997535307,0.0,0.0,0.0,0.0,0.0,0.0
1449617898149913172,0.0,0.0,0.0,0.0,0.0,0.0
1449617898246709332,0.0,0.0,0.0,0.0,0.0,0.0
1449617898346243961,0.0,0.0,0.0,0.0,0.0,0.0
1449617898449255911,0.0,0.0,0.0,0.0,0.0,0.0
1449617898546880815,0.0,0.0,0.0,0.0,0.0,0.0
1449617898648495764,0.0,0.0,0.0,0.0,0.0,0.0
1449617898747469954,0.0,0.0,0.0,0.0,0.0,0.0
1449617898846256889,0.0,0.0,0.0,0.0,0.0,0.0
1449617898946202935,0.0,0.0,0.0,0.0,0.0,0.0
1449617898997516591,0.0,0.0,0.0,0.0,0.0,0.0
1449617899129053316,0.12,0.0,0.0,0.0,0.0,-0.105263157895
1449617899225203155,0.12,0.0,0.0,0.0,0.0,-0.105263157895
1449617899287511176,0.12,0.0,0.0,0.0,0.0,-0.105263157895
1449617899337156078,0.12,0.0,0.0,0.0,0.0,-0.105263157895
1449617899374931056,0.12,0.0,0.0,0.0,0.0,-0.105263157895
1449617899441700876,0.12,0.0,0.0,0.0,0.0,-0.105263157895
1449617899496431865,0.12,0.0,0.0,0.0,0.0,-0.105263157895
1449617899573349062,0.12,0.0,0.0,0.0,0.0,-0.105263157895
1449617899614584851,0.12,0.0,0.0,0.0,0.0,-0.0631578947368
1449617899674941410,0.12,0.0,0.0,0.0,0.0,-0.105263157895
1449617899747349605,0.12,0.0,0.0,0.0,0.0,-0.0631578947368
1449617899806016414,0.12,0.0,0.0,0.0,0.0,-0.105263157895
1449617899888553608,0.12,0.0,0.0,0.0,0.0,-0.105263157895
1449617899939992620,0.12,0.0,0.0,0.0,0.0,-0.0631578947368
1449617899985898401,0.12,0.0,0.0,0.0,0.0,-0.0631578947368
1449617900039831892,0.12,0.0,0.0,0.0,0.0,-0.0631578947368
1449617900141127901,0.12,0.0,0.0,0.0,0.0,-0.0210526315789
1449617900213137265,0.12,0.0,0.0,0.0,0.0,-0.0631578947368
1449617900297701328,0.12,0.0,0.0,0.0,0.0,-0.105263157895
1449617900407473172,0.12,0.0,0.0,0.0,0.0,-0.105263157895
1449617900470583813,0.12,0.0,0.0,0.0,0.0,-0.0631578947368
1449617900514109775,0.12,0.0,0.0,0.0,0.0,-0.105263157895
1449617900601102671,0.12,0.0,0.0,0.0,0.0,-0.105263157895
1449617900678918869,0.12,0.0,0.0,0.0,0.0,-0.105263157895
1449617900738955166,0.12,0.0,0.0,0.0,0.0,-0.0631578947368
1449617900827782521,0.12,0.0,0.0,0.0,0.0,0.0210526315789
1449617900940404216,0.12,0.0,0.0,0.0,0.0,-0.0631578947368
1449617900941985890,0.0,0.0,0.0,0.0,0.0,0.0
1449617900984161543,0.0,0.0,0.0,0.0,0.0,0.0
1449617905319150027,0.0,0.0,0.0,0.0,0.0,-0.4
1449617905414063462,0.0,0.0,0.0,0.0,0.0,-0.4
1449617905591584907,0.0,0.0,0.0,0.0,0.0,-0.4
1449617905710141761,0.0,0.0,0.0,0.0,0.0,-0.4
1449617905795827970,0.0,0.0,0.0,0.0,0.0,-0.4
1449617905914753228,0.0,0.0,0.0,0.0,0.0,-0.4
1449617906006957621,0.0,0.0,0.0,0.0,0.0,-0.4
1449617906098592784,0.0,0.0,0.0,0.0,0.0,-0.4
1449617906140445895,0.0,0.0,0.0,0.0,0.0,-0.4
1449617906256871292,0.0,0.0,0.0,0.0,0.0,-0.4
1449617906357928862,0.0,0.0,0.0,0.0,0.0,-0.4
1449617906453680664,0.0,0.0,0.0,0.0,0.0,-0.4
1449617906566704015,0.0,0.0,0.0,0.0,0.0,-0.4
1449617906653850596,0.0,0.0,0.0,0.0,0.0,-0.4
1449617906789722198,0.0,0.0,0.0,0.0,0.0,-0.4
1449617906889370938,0.0,0.0,0.0,0.0,0.0,-0.4
1449617906989948970,0.0,0.0,0.0,0.0,0.0,-0.4
1449617907153533044,0.0,0.0,0.0,0.0,0.0,-0.4
1449617907267455131,0.0,0.0,0.0,0.0,0.0,-0.4
1449617907342597167,0.0,0.0,0.0,0.0,0.0,-0.4
1449617907438775565,0.0,0.0,0.0,0.0,0.0,-0.4
1449617907500684212,0.0,0.0,0.0,0.0,0.0,-0.4
1449617907563265440,0.0,0.0,0.0,0.0,0.0,-0.4
1449617907640408927,0.0,0.0,0.0,0.0,0.0,-0.4
1449617907735298251,0.0,0.0,0.0,0.0,0.0,-0.4
1449617907784082601,0.0,0.0,0.0,0.0,0.0,-0.4
1449617907853883653,0.0,0.0,0.0,0.0,0.0,-0.4
1449617907904709418,0.0,0.0,0.0,0.0,0.0,-0.4
1449617907942657160,0.0,0.0,0.0,0.0,0.0,-0.4
1449617908012310775,0.0,0.0,0.0,0.0,0.0,-0.4
1449617908077725134,0.0,0.0,0.0,0.0,0.0,-0.4
1449617908138458427,0.0,0.0,0.0,0.0,0.0,-0.4
1449617908177064552,0.0,0.0,0.0,0.0,0.0,-0.4
1449617908257180792,0.0,0.0,0.0,0.0,0.0,-0.4
1449617908318980920,0.0,0.0,0.0,0.0,0.0,-0.4
1449617908385873585,0.0,0.0,0.0,0.0,0.0,-0.4
1449617908517700349,0.0,0.0,0.0,0.0,0.0,-0.4
1449617908587247504,0.0,0.0,0.0,0.0,0.0,-0.4
1449617908645422256,0.0,0.0,0.0,0.0,0.0,-0.4
1449617908730555731,0.0,0.0,0.0,0.0,0.0,-0.4
1449617908808498311,0.0,0.0,0.0,0.0,0.0,-0.4
1449617908872607001,0.0,0.0,0.0,0.0,0.0,-0.4
1449617908948935524,0.0,0.0,0.0,0.0,0.0,-0.4
1449617909012848892,0.0,0.0,0.0,0.0,0.0,-0.4
1449617909120278339,0.0,0.0,0.0,0.0,0.0,-0.4
1449617909120285786,0.0,0.0,0.0,0.0,0.0,0.0
1449617909167409289,0.0,0.0,0.0,0.0,0.0,0.0
1449617910886880261,0.0,0.0,0.0,0.0,0.0,-0.313713721037
1449617910947513236,0.0,0.0,0.0,0.0,0.0,-0.366405568123
1449617911012597314,0.0,0.0,0.0,0.0,0.0,-0.33772372365
1449617911015876053,0.0,0.0,0.0,0.0,0.0,0.0
1449617911060873300,0.0,0.0,0.0,0.0,0.0,0.0
1449617911105019490,0.0,0.0,0.0,0.0,0.0,0.0
1449617911224973768,0.127934495259,0.0,0.0,0.0,0.0,0.10767982439
1449617911325198689,0.134056666236,0.0,0.0,0.0,0.0,0.0659197993028
1449617911385588046,0.14236015689,0.0,0.0,0.0,0.0,0.0658509465268
1449617911538075144,0.148113223238,0.0,0.0,0.0,0.0,0.0240823148426
1449617911629007542,0.154829054665,0.0,0.0,0.0,0.0,0.0210526315789
1449617911737958336,0.16058814682,0.0,0.0,0.0,0.0,0.0
1449617911833229545,0.163467892396,0.0,0.0,0.0,0.0,0.0
1449617911894559323,0.166347621107,0.0,0.0,0.0,0.0,0.0
1449617911958322156,0.166347621107,0.0,0.0,0.0,0.0,0.0
1449617912044982078,0.167307169214,0.0,0.0,0.0,0.0,0.0
1449617912113806643,0.167307169214,0.0,0.0,0.0,0.0,0.0
1449617912184337725,0.167307169214,0.0,0.0,0.0,0.0,0.0
1449617912250291636,0.167307169214,0.0,0.0,0.0,0.0,0.0
1449617912283795969,0.167307169214,0.0,0.0,0.0,0.0,0.0
1449617912368469960,0.166347840529,0.0,0.0,0.0,0.0,0.0
1449617912522526912,0.164428829451,0.0,0.0,0.0,0.0,0.0
1449617912612757632,0.15963388964,0.0,0.0,0.0,0.0,-0.0210526315789
1449617912689679381,0.156758991605,0.0,0.0,0.0,0.0,-0.0210526315789
1449617912817748627,0.152929362145,0.0,0.0,0.0,0.0,-0.0631578947368
1449617912899108111,0.147206012726,0.0,0.0,0.0,0.0,-0.105263157895
1449617912962604506,0.14625530344,0.0,0.0,0.0,0.0,-0.105263157895
1449617913017230231,0.141524692457,0.0,0.0,0.0,0.0,-0.105263157895
1449617913073454120,0.136465377696,0.0,0.0,0.0,0.0,-0.147368421053
1449617913160853762,0.135911706484,0.0,0.0,0.0,0.0,-0.16474391611
1449617913234876769,0.13223020972,0.0,0.0,0.0,0.0,-0.238499592229
1449617913305112942,0.126155996148,0.0,0.0,0.0,0.0,-0.260803154707
1449617913387535583,0.123257749417,0.0,0.0,0.0,0.0,-0.260804048777
1449617913470518052,0.12,0.0,0.0,0.0,0.0,-0.207980237007
1449617913528835720,0.12,0.0,0.0,0.0,0.0,-0.155163667202
1449617913585992510,0.12,0.0,0.0,0.0,0.0,-0.155163667202
1449617913641321545,0.12,0.0,0.0,0.0,0.0,-0.181583843231
1449617913718022434,0.12,0.0,0.0,0.0,0.0,-0.181583843231
1449617913781431424,0.12,0.0,0.0,0.0,0.0,-0.181596062183
1449617913848680184,0.0,0.0,0.0,0.0,0.0,-0.31
1449617913922271209,0.0,0.0,0.0,0.0,0.0,-0.31
1449617913968413423,0.0,0.0,0.0,0.0,0.0,-0.31
1449617914056386469,0.12,0.0,0.0,0.0,0.0,-0.260745218992
1449617914160818502,0.0,0.0,0.0,0.0,0.0,-0.31
1449617914251024472,0.0,0.0,0.0,0.0,0.0,-0.339991978407
1449617914331863383,0.0,0.0,0.0,0.0,0.0,-0.340192756653
1449617914434028774,0.0,0.0,0.0,0.0,0.0,-0.393081775904
1449617914531587253,0.0,0.0,0.0,0.0,0.0,-0.366663388014
1449617914591077254,0.0,0.0,0.0,0.0,0.0,-0.4
1449617914653098060,0.0,0.0,0.0,0.0,0.0,-0.4
1449617914732225599,0.0,0.0,0.0,0.0,0.0,-0.4
1449617914799669332,0.0,0.0,0.0,0.0,0.0,-0.392953506708
1449617914923807919,0.0,0.0,0.0,0.0,0.0,-0.4
1449617915009828897,0.0,0.0,0.0,0.0,0.0,-0.4
1449617915052491754,0.0,0.0,0.0,0.0,0.0,-0.4
1449617915088335091,0.0,0.0,0.0,0.0,0.0,-0.4
1449617915122894225,0.0,0.0,0.0,0.0,0.0,-0.4
1449617915185194778,0.0,0.0,0.0,0.0,0.0,-0.4
1449617915263464418,0.0,0.0,0.0,0.0,0.0,-0.4
1449617915330024638,0.0,0.0,0.0,0.0,0.0,-0.4
1449617915380079146,0.0,0.0,0.0,0.0,0.0,-0.4
1449617915450695795,0.0,0.0,0.0,0.0,0.0,-0.4
1449617915575441661,0.0,0.0,0.0,0.0,0.0,-0.4
1449617915627663803,0.0,0.0,0.0,0.0,0.0,-0.4
1449617915694617693,0.0,0.0,0.0,0.0,0.0,-0.4
1449617915748232732,0.0,0.0,0.0,0.0,0.0,-0.4
1449617915797250511,0.0,0.0,0.0,0.0,0.0,-0.4
1449617915849298175,0.0,0.0,0.0,0.0,0.0,-0.4
1449617915928568031,0.0,0.0,0.0,0.0,0.0,-0.4
1449617915990805704,0.0,0.0,0.0,0.0,0.0,-0.4
1449617916047858718,0.0,0.0,0.0,0.0,0.0,-0.4
1449617916103520350,0.0,0.0,0.0,0.0,0.0,-0.4
1449617916184732316,0.0,0.0,0.0,0.0,0.0,-0.4
1449617916240939123,0.0,0.0,0.0,0.0,0.0,-0.4
1449617916305333120,0.0,0.0,0.0,0.0,0.0,-0.4
1449617916406864212,0.0,0.0,0.0,0.0,0.0,-0.4
1449617916485582374,0.0,0.0,0.0,0.0,0.0,-0.4
1449617916550169543,0.0,0.0,0.0,0.0,0.0,-0.4
1449617916618853021,0.0,0.0,0.0,0.0,0.0,-0.4
1449617916679572345,0.0,0.0,0.0,0.0,0.0,-0.4
1449617916784907666,0.0,0.0,0.0,0.0,0.0,-0.4
1449617916841430542,0.0,0.0,0.0,0.0,0.0,-0.4
1449617916909627647,0.0,0.0,0.0,0.0,0.0,-0.4
1449617916968814170,0.0,0.0,0.0,0.0,0.0,-0.4
1449617917059613621,0.0,0.0,0.0,0.0,0.0,-0.4
1449617917149430948,0.352,0.0,0.0,0.0,0.0,-0.231578947368
1449617917256817792,0.352,0.0,0.0,0.0,0.0,-0.189473684211
1449617917360007742,0.352,0.0,0.0,0.0,0.0,-0.231578947368
1449617917458087130,0.352,0.0,0.0,0.0,0.0,-0.231578947368
1449617917532019049,0.352,0.0,0.0,0.0,0.0,-0.231578947368
1449617917588169842,0.352,0.0,0.0,0.0,0.0,-0.273684210526
1449617917685644930,0.352,0.0,0.0,0.0,0.0,-0.273684210526
1449617917759909454,0.352,0.0,0.0,0.0,0.0,-0.273684210526
1449617917851069920,0.352,0.0,0.0,0.0,0.0,-0.273684210526
1449617917914722564,0.352,0.0,0.0,0.0,0.0,-0.273684210526
1449617917976476929,0.352,0.0,0.0,0.0,0.0,-0.315789473684
1449617918039874713,0.352,0.0,0.0,0.0,0.0,-0.315789473684
1449617918425725602,0.345511373171,0.0,0.0,0.0,0.0,-0.315789473684
1449617918480913282,0.337076182969,0.0,0.0,0.0,0.0,-0.315789473684
1449617918536972664,0.329491701321,0.0,0.0,0.0,0.0,-0.315789473684
1449617918704480264,0.233185114005,0.0,0.0,0.0,0.0,0.0210526315789
1449617918784194871,0.215936361757,0.0,0.0,0.0,0.0,0.0631578947368
1449617918859419187,0.211152907774,0.0,0.0,0.0,0.0,0.0631578947368
1449617918965199558,0.202552908209,0.0,0.0,0.0,0.0,0.0631578947368
1449617919052486787,0.19110670248,0.0,0.0,0.0,0.0,0.0631578947368
1449617919137420359,0.182545066377,0.0,0.0,0.0,0.0,0.105263157895
1449617919227764759,0.171167389659,0.0,0.0,0.0,0.0,0.105263157895
1449617919292167047,0.166450989675,0.0,0.0,0.0,0.0,0.147368421053
1449617919371920050,0.158915059932,0.0,0.0,0.0,0.0,0.147368421053
1449617919454756690,0.150465361636,0.0,0.0,0.0,0.0,0.147368421053
1449617919543639133,0.138410563552,0.0,0.0,0.0,0.0,0.189473684211
1449617919663348380,0.133222639274,0.0,0.0,0.0,0.0,0.189473684211
1449617919714782267,0.12,0.0,0.0,0.0,0.0,0.231578947368
1449617919771828025,0.12,0.0,0.0,0.0,0.0,0.231578947368
1449617919821629513,0.12,0.0,0.0,0.0,0.0,0.273684210526
1449617919885805711,0.12,0.0,0.0,0.0,0.0,0.273684210526
1449617919938589979,0.12,0.0,0.0,0.0,0.0,0.315789473684
1449617919978773036,0.12,0.0,0.0,0.0,0.0,0.357894736842
1449617920032844968,0.12,0.0,0.0,0.0,0.0,0.357894736842
1449617920105748992,0.12,0.0,0.0,0.0,0.0,0.357894736842
1449617920185971918,0.12,0.0,0.0,0.0,0.0,0.357894736842
1449617920254374250,0.12,0.0,0.0,0.0,0.0,0.315789473684
1449617920321584699,0.0,0.0,0.0,0.0,0.0,0.31
1449617920376301287,0.0,0.0,0.0,0.0,0.0,0.31
1449617920431579141,0.0,0.0,0.0,0.0,0.0,0.31
1449617920493098169,0.0,0.0,0.0,0.0,0.0,0.31
1449617920538278974,0.0,0.0,0.0,0.0,0.0,0.31
1449617920620623746,0.0,0.0,0.0,0.0,0.0,0.31
1449617920620940081,0.0,0.0,0.0,0.0,0.0,0.0
1449617920642639691,0.0,0.0,0.0,0.0,0.0,0.0
1449617922208772156,0.352,0.0,0.0,0.0,0.0,-0.147368421053
1449617922268351715,0.352,0.0,0.0,0.0,0.0,-0.147368421053
1449617922403104051,0.237967514726,0.0,0.0,0.0,0.0,-0.0210526315789
1449617922481872075,0.230291416193,0.0,0.0,0.0,0.0,-0.0210526315789
1449617922562627654,0.222615548467,0.0,0.0,0.0,0.0,-0.0210526315789
1449617922624712783,0.214939936277,0.0,0.0,0.0,0.0,0.0
1449617922742271432,0.210144752401,0.0,0.0,0.0,0.0,0.0
1449617922866690098,0.197674196731,0.0,0.0,0.0,0.0,0.0
1449617922954288216,0.186163972041,0.0,0.0,0.0,0.0,0.0
1449617923030610925,0.174653541624,0.0,0.0,0.0,0.0,0.0
1449617923072623305,0.169856046041,0.0,0.0,0.0,0.0,-0.0210526315789
1449617923145637062,0.16218033678,0.0,0.0,0.0,0.0,0.0
1449617923226288684,0.157381815565,0.0,0.0,0.0,0.0,-0.0210526315789
1449617923341766570,0.14490429955,0.0,0.0,0.0,0.0,-0.0210526315789
1449617923436957361,0.129172544955,0.0,0.0,0.0,0.0,0.0
1449617923508873699,0.122273471502,0.0,0.0,0.0,0.0,0.0
1449617923589149984,0.12,0.0,0.0,0.0,0.0,0.0
1449617923658691686,0.12,0.0,0.0,0.0,0.0,0.0631578947368
1449617923716883536,0.12,0.0,0.0,0.0,0.0,0.0
1449617923759354425,0.12,0.0,0.0,0.0,0.0,0.0631578947368
1449617923841028125,0.12,0.0,0.0,0.0,0.0,0.147368421053
1449617923919690019,0.12,0.0,0.0,0.0,0.0,0.105263157895
1449617924008423961,0.12,0.0,0.0,0.0,0.0,0.231578947368
1449617924075405614,0.12,0.0,0.0,0.0,0.0,0.273684210526
1449617924125912619,0.0,0.0,0.0,0.0,0.0,0.31
1449617924228645760,0.0,0.0,0.0,0.0,0.0,0.31
1449617924228654673,0.0,0.0,0.0,0.0,0.0,0.0
1449617924277781761,0.0,0.0,0.0,0.0,0.0,0.0
1449617925420185911,0.352,0.0,0.0,0.0,0.0,-0.189473684211
1449617925505253890,0.352,0.0,0.0,0.0,0.0,-0.189473684211
1449617925575641545,0.232396816404,0.0,0.0,0.0,0.0,-0.147368421053
1449617925702010510,0.3056,0.0,0.0,0.0,0.0,-0.189473684211
1449617925773386961,0.352,0.0,0.0,0.0,0.0,-0.189473684211
1449617925852875035,0.352,0.0,0.0,0.0,0.0,-0.147368421053
1449617925985087932,0.352,0.0,0.0,0.0,0.0,-0.147368421053
1449617926033997446,0.352,0.0,0.0,0.0,0.0,-0.147368421053
1449617926109072308,0.352,0.0,0.0,0.0,0.0,-0.147368421053
1449617926189261696,0.352,0.0,0.0,0.0,0.0,-0.147368421053
1449617926253458324,0.352,0.0,0.0,0.0,0.0,-0.105263157895
1449617926310249341,0.352,0.0,0.0,0.0,0.0,-0.105263157895
1449617926407471070,0.352,0.0,0.0,0.0,0.0,-0.105263157895
1449617926504486123,0.352,0.0,0.0,0.0,0.0,-0.105263157895
1449617926623778571,0.352,0.0,0.0,0.0,0.0,-0.105263157895
1449617926691184700,0.352,0.0,0.0,0.0,0.0,-0.105263157895
1449617926746819108,0.352,0.0,0.0,0.0,0.0,-0.105263157895
1449617926786708447,0.352,0.0,0.0,0.0,0.0,-0.105263157895
1449617926845267288,0.352,0.0,0.0,0.0,0.0,-0.105263157895
1449617926917088400,0.352,0.0,0.0,0.0,0.0,-0.105263157895
1449617926990348247,0.352,0.0,0.0,0.0,0.0,-0.105263157895
1449617927060035089,0.352,0.0,0.0,0.0,0.0,-0.105263157895
1449617927114122492,0.352,0.0,0.0,0.0,0.0,-0.105263157895
1449617927194107931,0.352,0.0,0.0,0.0,0.0,-0.105263157895
1449617927305223444,0.352,0.0,0.0,0.0,0.0,-0.147368421053
1449617927353456176,0.352,0.0,0.0,0.0,0.0,-0.147368421053
1449617927442745434,0.352,0.0,0.0,0.0,0.0,-0.147368421053
1449617927517025908,0.352,0.0,0.0,0.0,0.0,-0.147368421053
1449617927599740482,0.352,0.0,0.0,0.0,0.0,-0.147368421053
1449617927653910696,0.352,0.0,0.0,0.0,0.0,-0.189473684211
1449617927716144149,0.352,0.0,0.0,0.0,0.0,-0.189473684211
1449617927785741338,0.352,0.0,0.0,0.0,0.0,-0.147368421053
1449617927848834247,0.352,0.0,0.0,0.0,0.0,-0.147368421053
1449617927897245187,0.352,0.0,0.0,0.0,0.0,-0.147368421053
1449617927941157857,0.352,0.0,0.0,0.0,0.0,-0.147368421053
1449617928002365766,0.352,0.0,0.0,0.0,0.0,-0.147368421053
1449617928050075313,0.352,0.0,0.0,0.0,0.0,-0.147368421053
1449617928135118504,0.352,0.0,0.0,0.0,0.0,-0.147368421053
1449617928211732377,0.352,0.0,0.0,0.0,0.0,-0.147368421053
1449617928274690534,0.352,0.0,0.0,0.0,0.0,-0.147368421053
1449617928379907767,0.352,0.0,0.0,0.0,0.0,-0.147368421053
1449617928473717771,0.352,0.0,0.0,0.0,0.0,-0.147368421053
1449617928536411967,0.352,0.0,0.0,0.0,0.0,-0.105263157895
1449617928618672591,0.352,0.0,0.0,0.0,0.0,-0.105263157895
1449617928766831404,0.352,0.0,0.0,0.0,0.0,-0.0631578947368
1449617928848622033,0.352,0.0,0.0,0.0,0.0,-0.0631578947368
1449617928920244004,0.352,0.0,0.0,0.0,0.0,-0.0210526315789
1449617928968781115,0.352,0.0,0.0,0.0,0.0,-0.0210526315789
1449617929048039363,0.352,0.0,0.0,0.0,0.0,-0.0210526315789
1449617929128928334,0.352,0.0,0.0,0.0,0.0,0.0210526315789
1449617929193275316,0.352,0.0,0.0,0.0,0.0,0.0210526315789
1449617929253996175,0.3056,0.0,0.0,0.0,0.0,0.0631578947368
1449617929315127175,0.3056,0.0,0.0,0.0,0.0,0.0631578947368
1449617929364373001,0.3056,0.0,0.0,0.0,0.0,0.0631578947368
1449617929461033385,0.3056,0.0,0.0,0.0,0.0,0.0631578947368
1449617929512527269,0.352,0.0,0.0,0.0,0.0,0.0631578947368
1449617929563448600,0.130706379448,0.0,0.0,0.0,0.0,0.105263157895
1449617929620969176,0.130133305018,0.0,0.0,0.0,0.0,0.105263157895
1449617929704075494,0.135932905133,0.0,0.0,0.0,0.0,0.0631578947368
1449617929766054494,0.135932905133,0.0,0.0,0.0,0.0,0.0631578947368
1449617930831879043,0.308926783484,0.0,0.0,0.0,0.0,-0.0631578947368
1449617930898352125,0.30701639162,0.0,0.0,0.0,0.0,-0.0631578947368
1449617930941781244,0.306061744992,0.0,0.0,0.0,0.0,-0.0631578947368
1449617930994350785,0.304152552275,0.0,0.0,0.0,0.0,-0.0631578947368
1449617931054274610,0.302243494037,0.0,0.0,0.0,0.0,-0.0210526315789
1449617931128918529,0.302243494037,0.0,0.0,0.0,0.0,-0.0210526315789
1449617931182441415,0.299383594781,0.0,0.0,0.0,0.0,-0.0210526315789
1449617931252115944,0.299383594781,0.0,0.0,0.0,0.0,-0.0210526315789
1449617931308898577,0.297477235011,0.0,0.0,0.0,0.0,-0.0631578947368
1449617931371162485,0.293664963613,0.0,0.0,0.0,0.0,-0.0210526315789
1449617931446498568,0.291759136852,0.0,0.0,0.0,0.0,-0.0210526315789
1449617931524542885,0.288904594802,0.0,0.0,0.0,0.0,-0.0210526315789
1449617931611243529,0.285099328352,0.0,0.0,0.0,0.0,-0.0631578947368
1449617931660743153,0.281294997495,0.0,0.0,0.0,0.0,-0.0210526315789
1449617931748785181,0.279393195788,0.0,0.0,0.0,0.0,-0.0631578947368
1449617931807203641,0.2717815702,0.0,0.0,0.0,0.0,-0.0210526315789
1449617931891906355,0.268926656247,0.0,0.0,0.0,0.0,-0.0210526315789
1449617931958525206,0.263218453316,0.0,0.0,0.0,0.0,-0.0631578947368
1449617932015537009,0.256557792123,0.0,0.0,0.0,0.0,-0.0631578947368
1449617932092877731,0.253705902354,0.0,0.0,0.0,0.0,-0.0631578947368
1449617932165510113,0.247044203593,0.0,0.0,0.0,0.0,-0.0631578947368
1449617932236691541,0.240376435438,0.0,0.0,0.0,0.0,-0.0631578947368
1449617932291634488,0.232753430994,0.0,0.0,0.0,0.0,-0.0210526315789
1449617932340434702,0.227988629381,0.0,0.0,0.0,0.0,-0.0210526315789
1449617932407815141,0.221316739706,0.0,0.0,0.0,0.0,0.0
1449617932470219819,0.217502667959,0.0,0.0,0.0,0.0,0.0
1449617932517846187,0.209864947516,0.0,0.0,0.0,0.0,0.0
1449617932570874604,0.206044500846,0.0,0.0,0.0,0.0,-0.0210526315789
1449617932631719151,0.200315214537,0.0,0.0,0.0,0.0,0.0
1449617932672900680,0.193626075924,0.0,0.0,0.0,0.0,0.0
1449617932718802695,0.188844744278,0.0,0.0,0.0,0.0,0.0210526315789
1449617932780075945,-0.1,0.0,0.0,0.0,0.0,0.0
1449617932819237548,-0.1,0.0,0.0,0.0,0.0,0.0
1449617932864540958,-0.1,0.0,0.0,0.0,0.0,0.0
1449617932934819805,-0.1,0.0,0.0,0.0,0.0,0.0
1449617932971551351,-0.1,0.0,0.0,0.0,0.0,0.0
1449617933034534872,-0.1,0.0,0.0,0.0,0.0,0.0
1449617933103080266,-0.1,0.0,0.0,0.0,0.0,0.0
1449617933165808160,0.144761926219,0.0,0.0,0.0,0.0,0.0
1449617933220785895,0.139962356782,0.0,0.0,0.0,0.0,0.0
1449617933273566833,0.137082548286,0.0,0.0,0.0,0.0,0.0
1449617933351464823,0.128443723004,0.0,0.0,0.0,0.0,0.0210526315789
1449617933434422878,0.12,0.0,0.0,0.0,0.0,0.0
1449617933507141020,-0.1,0.0,0.0,0.0,0.0,0.0
1449617933562044077,0.0,0.0,0.0,0.0,0.0,-0.315789473684
1449617933627012467,0.0,0.0,0.0,0.0,0.0,-0.315789473684
1449617933707337994,0.0,0.0,0.0,0.0,0.0,-0.31
1449617933786772574,0.0,0.0,0.0,0.0,0.0,-0.315789473684
1449617933864021972,0.0,0.0,0.0,0.0,0.0,-0.315789473684
1449617933929186612,0.12,0.0,0.0,0.0,0.0,0.147368421053
1449617934000442106,0.12,0.0,0.0,0.0,0.0,0.147368421053
1449617934048083629,0.12,0.0,0.0,0.0,0.0,0.105263157895
1449617934105871321,0.12,0.0,0.0,0.0,0.0,0.105263157895
1449617934139269785,0.0,0.0,0.0,0.0,0.0,-0.315789473684
1449617934139274923,0.0,0.0,0.0,0.0,0.0,0.0
1449617934163197035,0.0,0.0,0.0,0.0,0.0,0.0
1449617934353338256,0.0,0.0,0.0,0.0,0.0,-0.4
1449617934413219682,0.0,0.0,0.0,0.0,0.0,-0.4
1449617934485195524,0.0,0.0,0.0,0.0,0.0,-0.4
1449617934533782048,0.0,0.0,0.0,0.0,0.0,-0.4
1449617934590777501,0.0,0.0,0.0,0.0,0.0,-0.4
1449617934631624273,0.0,0.0,0.0,0.0,0.0,-0.4
1449617934700700211,0.0,0.0,0.0,0.0,0.0,-0.4
1449617934752853185,0.0,0.0,0.0,0.0,0.0,-0.4
1449617934822257279,0.0,0.0,0.0,0.0,0.0,-0.4
1449617934895592844,0.0,0.0,0.0,0.0,0.0,-0.4
1449617934978184037,0.0,0.0,0.0,0.0,0.0,-0.4
1449617935064737342,0.0,0.0,0.0,0.0,0.0,-0.4
1449617936293674367,0.245986295746,0.0,0.0,0.0,0.0,0.0
1449617936350770754,0.237353711661,0.0,0.0,0.0,0.0,-0.0210526315789
1449617936402637243,0.229680981286,0.0,0.0,0.0,0.0,-0.0210526315789
1449617936452115307,0.22584545203,0.0,0.0,0.0,0.0,-0.0210526315789
1449617936499092858,0.22201002686,0.0,0.0,0.0,0.0,-0.0210526315789
1449617936540694813,0.218174753094,0.0,0.0,0.0,0.0,-0.0210526315789
1449617936608250733,0.214339638885,0.0,0.0,0.0,0.0,-0.0210526315789
1449617936663666720,0.207632620227,0.0,0.0,0.0,0.0,-0.0210526315789
1449617936725637771,0.203800396457,0.0,0.0,0.0,0.0,-0.0210526315789
1449617936771123007,0.196136870106,0.0,0.0,0.0,0.0,-0.0210526315789
1449617936820330739,0.191351476031,0.0,0.0,0.0,0.0,-0.0631578947368
1449617936869969068,0.186563046512,0.0,0.0,0.0,0.0,-0.0210526315789
1449617936931566185,0.179865713471,0.0,0.0,0.0,0.0,-0.0631578947368
1449617936986640362,0.175087536158,0.0,0.0,0.0,0.0,-0.0631578947368
1449617937054996022,0.172218398643,0.0,0.0,0.0,0.0,-0.0631578947368
1449617937107622343,0.163622088723,0.0,0.0,0.0,0.0,-0.0631578947368
1449617937184017941,0.155984928309,0.0,0.0,0.0,0.0,-0.0631578947368
1449617937256445694,0.152167943929,0.0,0.0,0.0,0.0,-0.0631578947368
1449617937313222553,0.139630070603,0.0,0.0,0.0,0.0,-0.0631578947368
1449617937366500982,0.133530145171,0.0,0.0,0.0,0.0,-0.0631578947368
1449617937417871544,0.127861560571,0.0,0.0,0.0,0.0,-0.0631578947368
1449617937473939389,0.123334451252,0.0,0.0,0.0,0.0,-0.0631578947368
1449617937546754591,0.12,0.0,0.0,0.0,0.0,-0.0631578947368
1449617937583920949,0.12,0.0,0.0,0.0,0.0,-0.0631578947368
1449617937665895546,0.12,0.0,0.0,0.0,0.0,-0.0631578947368
1449617937732888671,0.12,0.0,0.0,0.0,0.0,-0.0631578947368
1449617937794965924,0.12,0.0,0.0,0.0,0.0,-0.0631578947368
1449617937869835465,0.12,0.0,0.0,0.0,0.0,-0.0631578947368
1449617937945865376,0.12,0.0,0.0,0.0,0.0,-0.0631578947368
1449617937988656763,0.12,0.0,0.0,0.0,0.0,0.0
1449617938156157929,0.12,0.0,0.0,0.0,0.0,0.0
1449617938207605233,0.0,0.0,0.0,0.0,0.0,-0.357894736842
1449617938254734706,0.0,0.0,0.0,0.0,0.0,-0.357894736842
1449617938281728840,0.0,0.0,0.0,0.0,0.0,0.0
1449617938305112237,0.0,0.0,0.0,0.0,0.0,0.0
1449617938691178068,0.204163300826,0.0,0.0,0.0,0.0,-0.273684210526
1449617938770564108,0.196083505832,0.0,0.0,0.0,0.0,-0.233110071985
1449617938852527784,0.195183490377,0.0,0.0,0.0,0.0,-0.233110071985
1449617938942264669,0.187049517879,0.0,0.0,0.0,0.0,-0.23310886107
1449617939294662974,0.233548598763,0.0,0.0,0.0,0.0,0.105263157895
1449617939372867036,0.228803812618,0.0,0.0,0.0,0.0,0.105263157895
1449617939497624510,0.198870818757,0.0,0.0,0.0,0.0,0.357894736842
1449617939573081354,0.193394012183,0.0,0.0,0.0,0.0,0.357894736842
1449617939655942687,0.188763518271,0.0,0.0,0.0,0.0,0.357894736842
1449617939741722070,0.184196734419,0.0,0.0,0.0,0.0,0.357894736842
1449617939824406015,0.179698499831,0.0,0.0,0.0,0.0,0.357894736842
1449617939912062615,0.175254498937,0.0,0.0,0.0,0.0,0.357894736842
1449617939972577756,0.168707187536,0.0,0.0,0.0,0.0,0.357894736842
1449617940055164375,0.166546768543,0.0,0.0,0.0,0.0,0.357894736842
1449617940128681392,0.162974930321,0.0,0.0,0.0,0.0,0.357894736842
1449617940175075704,0.151005848194,0.0,0.0,0.0,0.0,0.357894736842
1449617941215500894,0.12,0.0,0.0,0.0,0.0,0.357894736842
1449617941273141844,0.12,0.0,0.0,0.0,0.0,0.315789473684
1449617941349961392,0.12,0.0,0.0,0.0,0.0,0.273684210526
1449617941449742612,0.12,0.0,0.0,0.0,0.0,0.273684210526
1449617941518303389,0.0,0.0,0.0,0.0,0.0,0.0
1449617941566796130,0.0,0.0,0.0,0.0,0.0,0.0
1449617941655708542,0.0,0.0,0.0,0.0,0.0,0.0
1449617941758565998,0.0,0.0,0.0,0.0,0.0,0.0
1449617941844054393,0.0,0.0,0.0,0.0,0.0,0.0
1449617941909427372,0.0,0.0,0.0,0.0,0.0,0.0
1449617941984611044,0.0,0.0,0.0,0.0,0.0,0.0
1449617942073761357,0.0,0.0,0.0,0.0,0.0,0.0
1449617942163136760,0.0,0.0,0.0,0.0,0.0,0.0
1449617942221468265,0.12,0.0,0.0,0.0,0.0,0.357894736842
1449617942281991666,0.12,0.0,0.0,0.0,0.0,0.357894736842
1449617942360971483,0.12,0.0,0.0,0.0,0.0,0.357894736842
1449617942480210748,0.12,0.0,0.0,0.0,0.0,0.357894736842
1449617943732218193,0.1664,0.0,0.0,0.0,0.0,0.369385289017
1449617943815242350,0.1664,0.0,0.0,0.0,0.0,0.341561217308
1449617943921693138,0.1664,0.0,0.0,0.0,0.0,0.369387538308
1449617944142123894,0.0,0.0,0.0,0.0,0.0,0.0
1449617944224027899,0.0,0.0,0.0,0.0,0.0,0.0
1449617944270748605,0.0,0.0,0.0,0.0,0.0,0.0
1449617944358692196,0.0,0.0,0.0,0.0,0.0,0.0
1449617944419657274,0.0,0.0,0.0,0.0,0.0,0.0
1449617944498618746,0.0,0.0,0.0,0.0,0.0,0.0
1449617944544268895,0.0,0.0,0.0,0.0,0.0,0.0
1449617944645217596,0.0,0.0,0.0,0.0,0.0,0.0
1449617944714037711,0.0,0.0,0.0,0.0,0.0,0.0
1449617944809265147,0.0,0.0,0.0,0.0,0.0,0.0
1449617944858764722,0.0,0.0,0.0,0.0,0.0,0.0
1449617944923603002,0.0,0.0,0.0,0.0,0.0,0.0
1449617944971718613,0.0,0.0,0.0,0.0,0.0,0.0
1449617945037013455,0.0,0.0,0.0,0.0,0.0,0.0
1449617945077637493,0.0,0.0,0.0,0.0,0.0,0.0
1449617946447800226,0.0,0.0,0.0,0.0,0.0,-0.315789473684
1449617946577152509,0.0,0.0,0.0,0.0,0.0,-0.4
1449617947957222707,0.0,0.0,0.0,0.0,0.0,-0.4
1449617948041824486,0.0,0.0,0.0,0.0,0.0,-0.4
1449617948825957980,-0.0,0.0,0.0,0.0,0.0,0.0
1449617948894007272,-0.0,0.0,0.0,0.0,0.0,0.0
1449617948951511092,-0.0,0.0,0.0,0.0,0.0,0.0
1449617949014705861,-0.0,0.0,0.0,0.0,0.0,0.0
1449617949085808617,-0.0,0.0,0.0,0.0,0.0,0.0
1449617949169932191,-0.0,0.0,0.0,0.0,0.0,0.0
1449617949253444932,0.0,0.0,0.0,0.0,0.0,0.0
1449617949368814112,0.0,0.0,0.0,0.0,0.0,0.0
1449617949486813335,0.0,0.0,0.0,0.0,0.0,-0.315789473684
1449617949522974289,0.12,0.0,0.0,0.0,0.0,0.361080569154
1449617949568134420,0.12,0.0,0.0,0.0,0.0,0.324886880674
1449617949644802074,0.12,0.0,0.0,0.0,0.0,0.327667111096
1449617949686286504,0.12,0.0,0.0,0.0,0.0,0.363833555548
1449617949737633652,0.12,0.0,0.0,0.0,0.0,0.363833555548
1449617949783430533,0.1664,0.0,0.0,0.0,0.0,0.369409701824
1449617949847291321,0.1664,0.0,0.0,0.0,0.0,0.369409701824
1449617949884897205,0.1664,0.0,0.0,0.0,0.0,0.368063377205
1449617949924250353,0.1664,0.0,0.0,0.0,0.0,0.368066304106
1449617949987174963,0.1664,0.0,0.0,0.0,0.0,0.368064804579
1449617950035955019,0.1664,0.0,0.0,0.0,0.0,0.368064804579
1449617950077008160,0.1664,0.0,0.0,0.0,0.0,0.333349864985
1449617950121995415,0.194409192691,0.0,0.0,0.0,0.0,0.366676692398
1449617950162299319,0.192402909342,0.0,0.0,0.0,0.0,0.366676692398
1449617950228568901,0.173798892171,0.0,0.0,0.0,0.0,0.366676692398
1449617950280678453,0.190380492617,0.0,0.0,0.0,0.0,0.366676692398
1449617950322675806,0.190380492617,0.0,0.0,0.0,0.0,0.358262550956
1449617950415600098,0.189013295566,0.0,0.0,0.0,0.0,0.358265186109
1449617950519231547,0.203705516702,0.0,0.0,0.0,0.0,0.358265186109
1449617950597031179,0.185586351947,0.0,0.0,0.0,0.0,0.358265186109
1449617950646781026,0.201116313827,0.0,0.0,0.0,0.0,0.357894736842
1449617950707738887,0.184203980363,0.0,0.0,0.0,0.0,0.357894736842
1449617950791842225,0.182817341845,0.0,0.0,0.0,0.0,0.315789473684
1449617950876309542,0.196774556108,0.0,0.0,0.0,0.0,0.357894736842
1449617950947134293,0.194141020976,0.0,0.0,0.0,0.0,0.357894736842
1449617951073431428,0.177188879052,0.0,0.0,0.0,0.0,0.357894736842
1449617951167877742,0.187012559619,0.0,0.0,0.0,0.0,0.315789473684
1449617951256871618,0.18248739913,0.0,0.0,0.0,0.0,0.274841795846
1449617951353587498,0.177913186585,0.0,0.0,0.0,0.0,0.205373953204
1449617951699139960,0.142460788031,0.0,0.0,0.0,0.0,0.260872052092
1449617951800583810,0.0,0.0,0.0,0.0,0.0,0.3679990136
1449617951902374077,0.0,0.0,0.0,0.0,0.0,0.4
1449617951910550147,0.0,0.0,0.0,0.0,0.0,0.0
1449617951910562924,0.0,0.0,0.0,0.0,0.0,0.0
1449617952134458642,0.0,0.0,0.0,0.0,0.0,0.357894736842
1449617952211720308,0.0,0.0,0.0,0.0,0.0,0.4
1449617952254969725,0.0,0.0,0.0,0.0,0.0,0.4
1449617952304252183,0.0,0.0,0.0,0.0,0.0,0.4
1449617952354764046,0.0,0.0,0.0,0.0,0.0,0.4
1449617954302615646,0.12,0.0,0.0,0.0,0.0,0.0631578947368
1449617954887022369,0.2592,0.0,0.0,0.0,0.0,0.273684210526
1449617954993016096,0.173761065522,0.0,0.0,0.0,0.0,0.105263157895
1449617955035736913,0.0,0.0,0.0,0.0,0.0,0.0
1449617955086187729,0.0,0.0,0.0,0.0,0.0,0.0
1449617955391695231,0.0,0.0,0.0,0.0,0.0,0.0
1449617955441441254,0.0,0.0,0.0,0.0,0.0,0.0
1449617956271833931,0.0,0.0,0.0,0.0,0.0,0.357894736842
1449617956343718744,0.0,0.0,0.0,0.0,0.0,0.357894736842
1449617956343757250,0.0,0.0,0.0,0.0,0.0,0.0
1449617956525907161,0.0,0.0,0.0,0.0,0.0,0.0
1449617956571823936,0.0,0.0,0.0,0.0,0.0,0.0
1449617956729829427,0.0,0.0,0.0,0.0,0.0,0.0
1449617956769781997,0.0,0.0,0.0,0.0,0.0,0.0
1449617956824751452,0.0,0.0,0.0,0.0,0.0,0.0
1449617956925059553,0.0,0.0,0.0,0.0,0.0,0.0
1449617956975402695,0.0,0.0,0.0,0.0,0.0,0.0
1449617957225961976,0.0,0.0,0.0,0.0,0.0,0.0
1449617957325845080,0.0,0.0,0.0,0.0,0.0,0.0
1449617957428291990,0.0,0.0,0.0,0.0,0.0,0.0
1449617957526454398,0.0,0.0,0.0,0.0,0.0,0.0
1449617957578012826,0.0,0.0,0.0,0.0,0.0,0.0
1449617957829814500,0.0,0.0,0.0,0.0,0.0,0.0
1449617957876638078,0.0,0.0,0.0,0.0,0.0,0.0
1449617958610576807,0.0,0.0,0.0,0.0,0.0,0.0
1449617958659823479,0.0,0.0,0.0,0.0,0.0,0.0
1449617958713933073,0.0,0.0,0.0,0.0,0.0,0.0
1449617958765470494,0.0,0.0,0.0,0.0,0.0,0.0
1449617958814375347,0.0,0.0,0.0,0.0,0.0,0.0
1449617958919557625,0.0,0.0,0.0,0.0,0.0,0.0
1449617958967079738,0.0,0.0,0.0,0.0,0.0,0.0
1449617959216141203,0.0,0.0,0.0,0.0,0.0,0.0
1449617959315072535,0.0,0.0,0.0,0.0,0.0,0.0
1449617959370084874,0.0,0.0,0.0,0.0,0.0,0.0
1449617959434015323,0.0,0.0,0.0,0.0,0.0,0.0
1449617959484280544,0.0,0.0,0.0,0.0,0.0,0.0
1449617959628942507,0.0,0.0,0.0,0.0,0.0,0.0
1449617959679155658,0.0,0.0,0.0,0.0,0.0,0.0
1449617959811506464,0.0,0.0,0.0,0.0,0.0,0.0
1449617959861518247,0.0,0.0,0.0,0.0,0.0,0.0
1449617959964658549,0.0,0.0,0.0,0.0,0.0,0.0
1449617960065972619,0.0,0.0,0.0,0.0,0.0,0.0
1449617960114467532,0.0,0.0,0.0,0.0,0.0,0.0
1449617960141909082,0.0,0.0,0.0,0.0,0.0,0.0
1449617960184735462,0.0,0.0,0.0,0.0,0.0,0.0
1449617960329871924,0.0,0.0,0.0,0.0,0.0,0.0
1449617960418355136,0.0,0.0,0.0,0.0,0.0,0.0
1449617960468805250,0.0,0.0,0.0,0.0,0.0,0.0
1449617960698693549,0.0,0.0,0.0,0.0,0.0,0.0
1449617960744970584,0.0,0.0,0.0,0.0,0.0,0.0
1449617960874660094,0.0,0.0,0.0,0.0,0.0,0.0
1449617960974584103,0.0,0.0,0.0,0.0,0.0,0.0
1449617961074788290,0.0,0.0,0.0,0.0,0.0,0.0
1449617961226268609,0.0,0.0,0.0,0.0,0.0,0.0
1449617961278072609,0.0,0.0,0.0,0.0,0.0,0.0
1449617961424059077,0.0,0.0,0.0,0.0,0.0,0.0
1449617961474463843,0.0,0.0,0.0,0.0,0.0,0.0
1449617961575151422,0.0,0.0,0.0,0.0,0.0,0.0
1449617961676820509,0.0,0.0,0.0,0.0,0.0,0.0
1449617961724937517,0.0,0.0,0.0,0.0,0.0,0.0
1449617961879025510,0.0,0.0,0.0,0.0,0.0,0.0
1449617961929328442,0.0,0.0,0.0,0.0,0.0,0.0
1449617961995438456,0.0,0.0,0.0,0.0,0.0,0.0
1449617962050832994,0.0,0.0,0.0,0.0,0.0,0.0
1449617962211281457,0.0,0.0,0.0,0.0,0.0,0.0
1449617962262898438,0.0,0.0,0.0,0.0,0.0,0.0
1449617962451051961,0.0,0.0,0.0,0.0,0.0,0.0
1449617962499157211,0.0,0.0,0.0,0.0,0.0,0.0
1449617962606119371,0.0,0.0,0.0,0.0,0.0,0.0
1449617962655785971,0.0,0.0,0.0,0.0,0.0,0.0
1449617962818955036,0.0,0.0,0.0,0.0,0.0,0.0
1449617962867892921,0.0,0.0,0.0,0.0,0.0,0.0
