%time,field.header.seq,field.header.stamp,field.header.frame_id,field.polygon.points0.x,field.polygon.points0.y,field.polygon.points0.z,field.polygon.points1.x,field.polygon.points1.y,field.polygon.points1.z,field.polygon.points2.x,field.polygon.points2.y,field.polygon.points2.z,field.polygon.points3.x,field.polygon.points3.y,field.polygon.points3.z,field.polygon.points4.x,field.polygon.points4.y,field.polygon.points4.z
1449617830227047051,1,1449617830226872718,odom,0.479999989271,0.0,0.0,0.329999983311,-0.264999985695,0.0,-0.539999961853,-0.264999985695,0.0,-0.539999961853,0.264999985695,0.0,0.329999983311,0.264999985695,0.0
1449617830426828658,2,1449617830426686949,odom,0.479999989271,0.0,0.0,0.329999983311,-0.264999985695,0.0,-0.539999961853,-0.264999985695,0.0,-0.539999961853,0.264999985695,0.0,0.329999983311,0.264999985695,0.0
1449617830706072408,3,1449617830704313425,odom,0.479999989271,0.0,0.0,0.329999983311,-0.264999985695,0.0,-0.539999961853,-0.264999985695,0.0,-0.539999961853,0.264999985695,0.0,0.329999983311,0.264999985695,0.0
1449617830947650901,4,1449617830941601963,odom,0.479999989271,0.0,0.0,0.329999983311,-0.264999985695,0.0,-0.539999961853,-0.264999985695,0.0,-0.539999961853,0.264999985695,0.0,0.329999983311,0.264999985695,0.0
1449617831126294222,5,1449617831124917412,odom,0.479999989271,0.0,0.0,0.329999983311,-0.264999985695,0.0,-0.539999961853,-0.264999985695,0.0,-0.539999961853,0.264999985695,0.0,0.329999983311,0.264999985695,0.0
1449617831353678903,6,1449617831351131124,odom,0.479999989271,0.0,0.0,0.329999983311,-0.264999985695,0.0,-0.539999961853,-0.264999985695,0.0,-0.539999961853,0.264999985695,0.0,0.329999983311,0.264999985695,0.0
1449617831537564713,7,1449617831532650097,odom,0.479999989271,0.0,0.0,0.329999983311,-0.264999985695,0.0,-0.539999961853,-0.264999985695,0.0,-0.539999961853,0.264999985695,0.0,0.329999983311,0.264999985695,0.0
1449617831726579552,8,1449617831726169965,odom,0.479999989271,0.0,0.0,0.329999983311,-0.264999985695,0.0,-0.539999961853,-0.264999985695,0.0,-0.539999961853,0.264999985695,0.0,0.329999983311,0.264999985695,0.0
1449617831947539521,9,1449617831947156152,odom,0.479999989271,0.0,0.0,0.329999983311,-0.264999985695,0.0,-0.539999961853,-0.264999985695,0.0,-0.539999961853,0.264999985695,0.0,0.329999983311,0.264999985695,0.0
1449617832143568911,10,1449617832143057737,odom,0.479999989271,0.0,0.0,0.329999983311,-0.264999985695,0.0,-0.539999961853,-0.264999985695,0.0,-0.539999961853,0.264999985695,0.0,0.329999983311,0.264999985695,0.0
1449617832318831891,11,1449617832318558948,odom,0.479999989271,0.0,0.0,0.329999983311,-0.264999985695,0.0,-0.539999961853,-0.264999985695,0.0,-0.539999961853,0.264999985695,0.0,0.329999983311,0.264999985695,0.0
1449617832546203021,12,1449617832545940373,odom,0.479999989271,0.0,0.0,0.329999983311,-0.264999985695,0.0,-0.539999961853,-0.264999985695,0.0,-0.539999961853,0.264999985695,0.0,0.329999983311,0.264999985695,0.0
1449617832730286693,13,1449617832730123181,odom,0.479999989271,0.0,0.0,0.329999983311,-0.264999985695,0.0,-0.539999961853,-0.264999985695,0.0,-0.539999961853,0.264999985695,0.0,0.329999983311,0.264999985695,0.0
1449617832940070752,14,1449617832939580164,odom,0.479999989271,0.0,0.0,0.329999983311,-0.264999985695,0.0,-0.539999961853,-0.264999985695,0.0,-0.539999961853,0.264999985695,0.0,0.329999983311,0.264999985695,0.0
1449617833165691282,15,1449617833164170367,odom,0.479999989271,0.0,0.0,0.329999983311,-0.264999985695,0.0,-0.539999961853,-0.264999985695,0.0,-0.539999961853,0.264999985695,0.0,0.329999983311,0.264999985695,0.0
1449617833320187298,16,1449617833317863465,odom,0.479999989271,0.0,0.0,0.329999983311,-0.264999985695,0.0,-0.539999961853,-0.264999985695,0.0,-0.539999961853,0.264999985695,0.0,0.329999983311,0.264999985695,0.0
1449617833517721482,17,1449617833516529177,odom,0.479999989271,0.0,0.0,0.329999983311,-0.264999985695,0.0,-0.539999961853,-0.264999985695,0.0,-0.539999961853,0.264999985695,0.0,0.329999983311,0.264999985695,0.0
1449617833726068960,18,1449617833725945302,odom,0.479999989271,0.0,0.0,0.329999983311,-0.264999985695,0.0,-0.539999961853,-0.264999985695,0.0,-0.539999961853,0.264999985695,0.0,0.329999983311,0.264999985695,0.0
1449617833923977091,19,1449617833923200194,odom,0.479999989271,0.0,0.0,0.329999983311,-0.264999985695,0.0,-0.539999961853,-0.264999985695,0.0,-0.539999961853,0.264999985695,0.0,0.329999983311,0.264999985695,0.0
1449617834156960355,20,1449617834156336963,odom,0.479999989271,0.0,0.0,0.329999983311,-0.264999985695,0.0,-0.539999961853,-0.264999985695,0.0,-0.539999961853,0.264999985695,0.0,0.329999983311,0.264999985695,0.0
1449617834343614329,21,1449617834342321496,odom,0.479999989271,0.0,0.0,0.329999983311,-0.264999985695,0.0,-0.539999961853,-0.264999985695,0.0,-0.539999961853,0.264999985695,0.0,0.329999983311,0.264999985695,0.0
1449617834526060996,22,1449617834525043192,odom,0.479999989271,0.0,0.0,0.329999983311,-0.264999985695,0.0,-0.539999961853,-0.264999985695,0.0,-0.539999961853,0.264999985695,0.0,0.329999983311,0.264999985695,0.0
1449617834763469562,23,1449617834763200813,odom,0.477093547583,0.00504213571548,0.0,0.329902410507,-0.261528253555,0.0,-0.540048956871,-0.270722270012,0.0,-0.545649945736,0.259248137474,0.0,0.324301451445,0.268442153931,0.0
1449617834986158879,24,1449617834985716012,odom,0.480000168085,-3.04332297674e-05,0.0,0.330000162125,-0.265030413866,0.0,-0.539999783039,-0.265030413866,0.0,-0.539999783039,0.264969557524,0.0,0.330000162125,0.264969557524,0.0
1449617835119604997,25,1449617835119198041,odom,0.480000168085,-3.04332297674e-05,0.0,0.330000162125,-0.265030413866,0.0,-0.539999783039,-0.265030413866,0.0,-0.539999783039,0.264969557524,0.0,0.330000162125,0.264969557524,0.0
1449617835348350785,26,1449617835348205502,odom,0.480000168085,-3.04332297674e-05,0.0,0.330000162125,-0.265030413866,0.0,-0.539999783039,-0.265030413866,0.0,-0.539999783039,0.264969557524,0.0,0.330000162125,0.264969557524,0.0
1449617835561513595,27,1449617835560421296,odom,0.480000168085,-3.04332297674e-05,0.0,0.330000162125,-0.265030413866,0.0,-0.539999783039,-0.265030413866,0.0,-0.539999783039,0.264969557524,0.0,0.330000162125,0.264969557524,0.0
1449617835790949256,28,1449617835790716668,odom,0.480000168085,-3.04332297674e-05,0.0,0.330000162125,-0.265030413866,0.0,-0.539999783039,-0.265030413866,0.0,-0.539999783039,0.264969557524,0.0,0.330000162125,0.264969557524,0.0
1449617835963831290,29,1449617835963591332,odom,0.480000168085,-3.04332297674e-05,0.0,0.330000162125,-0.265030413866,0.0,-0.539999783039,-0.265030413866,0.0,-0.539999783039,0.264969557524,0.0,0.330000162125,0.264969557524,0.0
1449617836121601337,30,1449617836116176729,odom,0.477093726397,0.00501170242205,0.0,0.329902559519,-0.261558681726,0.0,-0.540048778057,-0.270752698183,0.0,-0.545649766922,0.259217679501,0.0,0.324301600456,0.26841172576,0.0
1449617836332903777,31,1449617836332652474,odom,0.479999989271,0.0,0.0,0.329999983311,-0.264999985695,0.0,-0.539999961853,-0.264999985695,0.0,-0.539999961853,0.264999985695,0.0,0.329999983311,0.264999985695,0.0
1449617836520563100,32,1449617836520119130,odom,0.479999989271,0.0,0.0,0.329999983311,-0.264999985695,0.0,-0.539999961853,-0.264999985695,0.0,-0.539999961853,0.264999985695,0.0,0.329999983311,0.264999985695,0.0
1449617836730882366,33,1449617836730372379,odom,0.479999989271,0.0,0.0,0.329999983311,-0.264999985695,0.0,-0.539999961853,-0.264999985695,0.0,-0.539999961853,0.264999985695,0.0,0.329999983311,0.264999985695,0.0
1449617836966521874,34,1449617836966093775,odom,0.479999989271,0.0,0.0,0.329999983311,-0.264999985695,0.0,-0.539999961853,-0.264999985695,0.0,-0.539999961853,0.264999985695,0.0,0.329999983311,0.264999985695,0.0
1449617837174949680,35,1449617837173801570,odom,0.479999989271,0.0,0.0,0.329999983311,-0.264999985695,0.0,-0.539999961853,-0.264999985695,0.0,-0.539999961853,0.264999985695,0.0,0.329999983311,0.264999985695,0.0
1449617837389695674,36,1449617837386939478,odom,0.479999989271,0.0,0.0,0.329999983311,-0.264999985695,0.0,-0.539999961853,-0.264999985695,0.0,-0.539999961853,0.264999985695,0.0,0.329999983311,0.264999985695,0.0
1449617837568294849,37,1449617837567603276,odom,0.482852816582,0.00510300230235,0.0,0.335661679506,-0.261467367411,0.0,-0.534289717674,-0.27066141367,0.0,-0.539890646935,0.259308993816,0.0,0.330060720444,0.268503010273,0.0
1449617837752451321,38,1449617837752283529,odom,0.482852816582,0.00510300230235,0.0,0.335661679506,-0.261467367411,0.0,-0.534289717674,-0.27066141367,0.0,-0.539890646935,0.259308993816,0.0,0.330060720444,0.268503010273,0.0
1449617837971206755,39,1449617837970722134,odom,0.491410821676,0.0102967340499,0.0,0.347044974566,-0.257814258337,0.0,-0.522760689259,-0.276201277971,0.0,-0.533961951733,0.253680318594,0.0,0.335843682289,0.272067368031,0.0
1449617838218628630,40,1449617838217900525,odom,0.499913960695,0.0155501859263,0.0,0.358389526606,-0.254071474075,0.0,-0.511173248291,-0.281649440527,0.0,-0.527973592281,0.248084202409,0.0,0.341589152813,0.275662183762,0.0
1449617838382933090,41,1449617838368968294,odom,0.511428117752,0.0158849079162,0.0,0.369903713465,-0.25373673439,0.0,-0.499659061432,-0.281314730644,0.0,-0.516459405422,0.248418927193,0.0,0.353103339672,0.275996893644,0.0
1449617838577532844,42,1449617838576410788,odom,0.52562892437,0.0215017460287,0.0,0.386961698532,-0.249600455165,0.0,-0.482261061668,-0.286366313696,0.0,-0.504658639431,0.243160203099,0.0,0.36456412077,0.27992606163,0.0
1449617838786498275,43,1449617838784330188,odom,0.539768099785,0.0272987429053,0.0,0.403973579407,-0.245253741741,0.0,-0.464812099934,-0.291203349829,0.0,-0.492804408073,0.238056898117,0.0,0.375981301069,0.284006536007,0.0
1449617838995162236,44,1449617838994879751,odom,0.559598505497,0.0335186496377,0.0,0.426691889763,-0.240453660488,0.0,-0.441559672356,-0.295581907034,0.0,-0.475143551826,0.233352974057,0.0,0.393108010292,0.288481205702,0.0
1449617839161611878,45,1449617839160682779,odom,0.59330868721,0.0462204404175,0.0,0.466221988201,-0.230499595404,0.0,-0.400670558214,-0.303965628147,0.0,-0.445425719023,0.224141344428,0.0,0.421466827393,0.29760736227,0.0
1449617839351913772,46,1449617839350867757,odom,0.630140841007,0.0546158365905,0.0,0.505985617638,-0.223431780934,0.0,-0.360082149506,-0.306054890156,0.0,-0.410415798426,0.221549615264,0.0,0.455651968718,0.304172724485,0.0
1449617839564608852,47,1449617839560785330,odom,0.672624886036,0.0638561472297,0.0,0.551414966583,-0.215488001704,0.0,-0.313731253147,-0.307258963585,0.0,-0.369637727737,0.219784155488,0.0,0.495508521795,0.311555117369,0.0
1449617839743655977,48,1449617839743143601,odom,0.712717056274,0.0681089535356,0.0,0.591507136822,-0.211235195398,0.0,-0.273639082909,-0.30300617218,0.0,-0.329545557499,0.224036961794,0.0,0.535600721836,0.315807938576,0.0
1449617839937310982,49,1449617839936987891,odom,0.777987360954,0.0804396122694,0.0,0.659736275673,-0.200169861317,0.0,-0.20439183712,-0.301078468561,0.0,-0.265864878893,0.225344434381,0.0,0.598263204098,0.326253026724,0.0
1449617840138138735,50,1449617840137682785,odom,0.836333811283,0.0763960927725,0.0,0.712178587914,-0.201651528478,0.0,-0.153889149427,-0.284274637699,0.0,-0.204222768545,0.243329867721,0.0,0.661844968796,0.325952976942,0.0
1449617840345526787,51,1449617840343462232,odom,0.891262173653,0.076479524374,0.0,0.764175474644,-0.200240507722,0.0,-0.10271704942,-0.273706525564,0.0,-0.147472217679,0.25440043211,0.0,0.719420313835,0.327866435051,0.0
1449617840564486348,52,1449617840562388118,odom,0.946215748787,0.0756488442421,0.0,0.816211879253,-0.199712708592,0.0,-0.0514086559415,-0.264013439417,0.0,-0.0905803665519,0.264537006617,0.0,0.77704012394,0.32883772254,0.0
1449617840789867829,53,1449617840789324149,odom,1.00433087349,0.0692646875978,0.0,0.868536353111,-0.203287795186,0.0,-0.000249324337346,-0.249237418175,0.0,-0.028241623193,0.280022859573,0.0,0.840544044971,0.325972467661,0.0
1449617841026110870,54,1449617841018358021,odom,1.05347943306,0.0663578212261,0.0,0.914812266827,-0.204744383693,0.0,0.0455894805491,-0.241510242224,0.0,0.023191889748,0.288016289473,0.0,0.892414629459,0.324782133102,0.0
1449617841150554389,55,1449617841149952031,odom,1.10562086105,0.057495854795,0.0,0.961255073547,-0.210615128279,0.0,0.0914494246244,-0.229002162814,0.0,0.0802481248975,0.300879448652,0.0,0.950053751469,0.319266468287,0.0
1449617841319794691,56,1449617841319436801,odom,1.16041576862,0.0421569794416,0.0,1.00762367249,-0.221243038774,0.0,0.137672305107,-0.212049007416,0.0,0.14327326417,0.31792140007,0.0,1.01322460175,0.308727353811,0.0
1449617841553024340,57,1449617841551797673,odom,1.21202242374,0.0308273304254,0.0,1.05369758606,-0.229284673929,0.0,0.184134811163,-0.201706677675,0.0,0.200935184956,0.328026980162,0.0,1.07049798965,0.300448983908,0.0
1449617841741067616,58,1449617841740023696,odom,1.26337349415,0.0182878803462,0.0,1.09958672523,-0.238419905305,0.0,0.230801016092,-0.192470282316,0.0,0.258793324232,0.33678996563,0.0,1.12757897377,0.290840357542,0.0
1449617841945336999,59,1449617841945025702,odom,1.31691408157,-0.000633815536276,0.0,1.14507222176,-0.252020746469,0.0,0.278179705143,-0.178554713726,0.0,0.322934865952,0.349552243948,0.0,1.18982744217,0.276086211205,0.0
1449617842190559254,60,1449617842190319449,odom,1.36755430698,-0.0156255420297,0.0,1.19043791294,-0.263324528933,0.0,0.325291723013,-0.171553552151,0.0,0.381198167801,0.355489581823,0.0,1.24634444714,0.263718605042,0.0
1449617842330944852,61,1449617842330796990,odom,1.41786515713,-0.0316840298474,0.0,1.23555338383,-0.2755843997,0.0,0.372539907694,-0.165549486876,0.0,0.439572691917,0.360194355249,0.0,1.30258619785,0.250159442425,0.0
1449617842521632571,62,1449617842521278435,odom,1.4600110054,-0.042447399348,0.0,1.27513182163,-0.284407526255,0.0,0.413329392672,-0.165258541703,0.0,0.485914409161,0.359747558832,0.0,1.34771680832,0.240598574281,0.0
1449617842711409311,63,1449617842711174142,odom,1.49267685413,-0.0576962530613,0.0,1.30272531509,-0.295695006847,0.0,0.443633496761,-0.158358842134,0.0,0.527298033237,0.364995956421,0.0,1.38638985157,0.227659791708,0.0
1449617842930699078,64,1449617842930289471,odom,1.53071570396,-0.0744512528181,0.0,1.33577656746,-0.308382302523,0.0,0.479779213667,-0.15292032063,0.0,0.574485957623,0.368549346924,0.0,1.43048334122,0.213087379932,0.0
1449617843150187923,65,1449617843148250732,odom,1.56092846394,-0.085217602551,0.0,1.36352801323,-0.317075490952,0.0,0.509221315384,-0.15257614851,0.0,0.609433591366,0.367863565683,0.0,1.46374022961,0.203364208341,0.0
1449617843325915613,66,1449617843325403455,odom,1.59666359425,-0.09748121351,0.0,1.39682400227,-0.327240079641,0.0,0.544303417206,-0.15372171998,0.0,0.650009989738,0.365629911423,0.0,1.5025305748,0.192111551762,0.0
1449617843526747933,67,1449617843521811504,odom,1.62827789783,-0.114858493209,0.0,1.42362713814,-0.340342521667,0.0,0.574964165688,-0.148845300078,0.0,0.691623389721,0.368156254292,0.0,1.54028630257,0.176659047604,0.0
1449617843754315938,68,1449617843753281089,odom,1.65954661369,-0.132781729102,0.0,1.4501760006,-0.353890180588,0.0,0.605749845505,-0.144499659538,0.0,0.733309626579,0.369920879602,0.0,1.57773578167,0.160530358553,0.0
1449617843911449363,69,1449617843911297500,odom,1.6874755621,-0.13980127871,0.0,1.478104949,-0.360909730196,0.0,0.633678853512,-0.151519209146,0.0,0.761238574982,0.362901329994,0.0,1.60566473007,0.153510808945,0.0
1449617844121833794,70,1449617844117250010,odom,1.71276760101,-0.156994998455,0.0,1.49877071381,-0.373629122972,0.0,0.658958554268,-0.14643882215,0.0,0.797361850739,0.365170925856,0.0,1.63717401028,0.137980625033,0.0
1449617844356498922,71,1449617844355858350,odom,1.73639535904,-0.168799445033,0.0,1.52012109756,-0.383159995079,0.0,0.682756721973,-0.147107362747,0.0,0.826558887959,0.363011181355,0.0,1.66392326355,0.126958549023,0.0
1449617844530384936,72,1449617844529997130,odom,1.75438725948,-0.179173231125,0.0,1.53585970402,-0.391236245632,0.0,0.701036632061,-0.146347656846,0.0,0.850221633911,0.362222731113,0.0,1.68504464626,0.117334134877,0.0
1449617844721002955,73,1449617844720766059,odom,1.77224230766,-0.189824029803,0.0,1.55148589611,-0.399565845728,0.0,0.719297409058,-0.145868644118,0.0,0.873848557472,0.361096769571,0.0,1.70603704453,0.107399575412,0.0
1449617845107088304,74,1449617845106508760,odom,1.79000174999,-0.20060479641,0.0,1.56704127789,-0.408001989126,0.0,0.737580239773,-0.145524501801,0.0,0.897480368614,0.359779328108,0.0,1.72694134712,0.0973018482327,0.0
1449617845196307895,75,1449617845195650369,odom,1.81312835217,-0.213339284062,0.0,1.58798849583,-0.418368667364,0.0,0.761347591877,-0.147140219808,0.0,0.926578760147,0.356445580721,0.0,1.75321960449,0.0852171555161,0.0
1449617845342618981,76,1449617845341477706,odom,1.82407343388,-0.21693046391,0.0,1.59893357754,-0.421959847212,0.0,0.772292673588,-0.150731399655,0.0,0.937523841858,0.352854400873,0.0,1.7641646862,0.0816259682178,0.0
1449617845520941039,77,1449617845520672161,odom,1.83499920368,-0.220579370856,0.0,1.60985934734,-0.425608754158,0.0,0.783218502998,-0.154380306602,0.0,0.948449611664,0.349205493927,0.0,1.77509045601,0.0779770612717,0.0
1449617845831796332,78,1449617845830912906,odom,1.84157216549,-0.228170767426,0.0,1.61427819729,-0.430809438229,0.0,0.790549814701,-0.150860339403,0.0,0.96109354496,0.350951224566,0.0,1.78482186794,0.0710021033883,0.0
1449617845974400965,79,1449617845972394767,odom,1.85245883465,-0.231934934855,0.0,1.62516486645,-0.434573620558,0.0,0.801436424255,-0.154624506831,0.0,0.971980154514,0.347187042236,0.0,1.7957085371,0.0672379285097,0.0
1449617846125392834,80,1449617846124925568,odom,1.85994946957,-0.245355814695,0.0,1.62842357159,-0.443145483732,0.0,0.810795783997,-0.145849794149,0.0,0.991906940937,0.352245301008,0.0,1.80953478813,0.054949618876,0.0
1449617846409540134,81,1449617846409296162,odom,1.87079572678,-0.249234825373,0.0,1.6392698288,-0.44702449441,0.0,0.821642041206,-0.149728804827,0.0,1.00275313854,0.348366290331,0.0,1.82038092613,0.0510706081986,0.0
1449617846536777097,82,1449617846535535387,odom,1.88162147999,-0.253171145916,0.0,1.65009558201,-0.450960814953,0.0,0.832467734814,-0.15366512537,0.0,1.01357889175,0.344429969788,0.0,1.83120667934,0.0471342839301,0.0
1449617846954640224,83,1449617846954293772,odom,1.89243662357,-0.257136017084,0.0,1.66091072559,-0.454925686121,0.0,0.843282938004,-0.157629996538,0.0,1.02439415455,0.340465098619,0.0,1.84202194214,0.0431694164872,0.0
1449617847111195354,84,1449617847108180945,odom,1.9095594883,-0.268953800201,0.0,1.67595636845,-0.464285701513,0.0,0.861515939236,-0.158366039395,0.0,1.04788076878,0.337787300348,0.0,1.86232113838,0.0318676419556,0.0
1449617847348242290,85,1449617847347355636,odom,1.9158166647,-0.276787757874,0.0,1.6801623106,-0.469640046358,0.0,0.869000315666,-0.155130594969,0.0,1.06059801579,0.339025557041,0.0,1.87176001072,0.0245161037892,0.0
1449617847633944804,86,1449617847632939653,odom,1.92119765282,-0.278841435909,0.0,1.68554317951,-0.471693724394,0.0,0.874381244183,-0.157184273005,0.0,1.06597900391,0.336971879005,0.0,1.87714099884,0.0224624164402,0.0
1449617847901214582,87,1449617847901005668,odom,1.92119765282,-0.278841435909,0.0,1.68554317951,-0.471693724394,0.0,0.874381244183,-0.157184273005,0.0,1.06597900391,0.336971879005,0.0,1.87714099884,0.0224624164402,0.0
1449617848090224866,88,1449617848089677095,odom,1.92655646801,-0.280951857567,0.0,1.69090211391,-0.473804175854,0.0,0.879740178585,-0.159294709563,0.0,1.07133793831,0.334861427546,0.0,1.88249981403,0.0203519780189,0.0
1449617848381563469,89,1449617848378744590,odom,1.92655646801,-0.280951857567,0.0,1.69090211391,-0.473804175854,0.0,0.879740178585,-0.159294709563,0.0,1.07133793831,0.334861427546,0.0,1.88249981403,0.0203519780189,0.0
1449617848531134164,90,1449617848530868428,odom,1.92655646801,-0.280951857567,0.0,1.69090211391,-0.473804175854,0.0,0.879740178585,-0.159294709563,0.0,1.07133793831,0.334861427546,0.0,1.88249981403,0.0203519780189,0.0
1449617848724149520,91,1449617848721823695,odom,1.92655646801,-0.280951857567,0.0,1.69090211391,-0.473804175854,0.0,0.879740178585,-0.159294709563,0.0,1.07133793831,0.334861427546,0.0,1.88249981403,0.0203519780189,0.0
1449617848858964015,92,1449617848858835100,odom,1.92655646801,-0.280951857567,0.0,1.69090211391,-0.473804175854,0.0,0.879740178585,-0.159294709563,0.0,1.07133793831,0.334861427546,0.0,1.88249981403,0.0203519780189,0.0
1449617848967956557,93,1449617848967815684,odom,1.92655646801,-0.280951857567,0.0,1.69090211391,-0.473804175854,0.0,0.879740178585,-0.159294709563,0.0,1.07133793831,0.334861427546,0.0,1.88249981403,0.0203519780189,0.0
1449617849130774339,94,1449617849130338428,odom,1.92655646801,-0.280951857567,0.0,1.69090211391,-0.473804175854,0.0,0.879740178585,-0.159294709563,0.0,1.07133793831,0.334861427546,0.0,1.88249981403,0.0203519780189,0.0
1449617849407495988,95,1449617849407091855,odom,1.92655646801,-0.280951857567,0.0,1.69090211391,-0.473804175854,0.0,0.879740178585,-0.159294709563,0.0,1.07133793831,0.334861427546,0.0,1.88249981403,0.0203519780189,0.0
1449617849926221780,96,1449617849920841072,odom,1.92737162113,-0.2867410779,0.0,1.68969237804,-0.47709223628,0.0,0.881899416447,-0.154028102756,0.0,1.07870864868,0.33807566762,0.0,1.88650155067,0.0150115387514,0.0
1449617850413285541,97,1449617850412146626,odom,1.92737162113,-0.2867410779,0.0,1.68969237804,-0.47709223628,0.0,0.881899416447,-0.154028102756,0.0,1.07870864868,0.33807566762,0.0,1.88650155067,0.0150115387514,0.0
1449617850558871153,98,1449617850558654025,odom,1.93191540241,-0.283062309027,0.0,1.69626104832,-0.475914597511,0.0,0.885099112988,-0.161405146122,0.0,1.0766967535,0.332751005888,0.0,1.88785874844,0.0182415414602,0.0
1449617850815757084,99,1449617850814152883,odom,1.93191540241,-0.283062309027,0.0,1.69626104832,-0.475914597511,0.0,0.885099112988,-0.161405146122,0.0,1.0766967535,0.332751005888,0.0,1.88785874844,0.0182415414602,0.0
1449617850992050230,100,1449617850988276826,odom,1.93642008305,-0.279335737228,0.0,1.7028169632,-0.47466763854,0.0,0.888376533985,-0.168747976422,0.0,1.07474136353,0.327405363321,0.0,1.88918173313,0.0214857067913,0.0
1449617851263328126,101,1449617851263006921,odom,1.94180095196,-0.281389415264,0.0,1.70819783211,-0.476721316576,0.0,0.893757462502,-0.170801654458,0.0,1.08012235165,0.325351685286,0.0,1.89456272125,0.0194320194423,0.0
1449617851425853656,102,1449617851425246987,odom,1.96693944931,-0.279670208693,0.0,1.73751676083,-0.479895591736,0.0,0.916792809963,-0.191257059574,0.0,1.09263002872,0.308724194765,0.0,1.91335391998,0.0200856681913,0.0
1449617851623831112,103,1449617851623462997,odom,1.99745941162,-0.279359728098,0.0,1.77231955528,-0.484389096498,0.0,0.945678710938,-0.213160663843,0.0,1.1109098196,0.290425151587,0.0,1.93755066395,0.01919670403,0.0
1449617851800283052,104,1449617851799593734,odom,2.02798461914,-0.27834635973,0.0,1.8072283268,-0.488088160753,0.0,0.97503978014,-0.234390959144,0.0,1.12959098816,0.272574454546,0.0,1.96177947521,0.0188772566617,0.0
1449617851983513152,105,1449617851978981309,odom,2.06404209137,-0.278192281723,0.0,1.84776771069,-0.492552816868,0.0,1.0104033947,-0.256500184536,0.0,1.15420556068,0.253618359566,0.0,1.99156987667,0.017565721646,0.0
1449617852197653733,106,1449617852195669948,odom,2.10417675972,-0.272875785828,0.0,1.89480626583,-0.493984222412,0.0,1.05038011074,-0.284593701363,0.0,1.17793977261,0.229826837778,0.0,2.02236604691,0.0204363130033,0.0
1449617852381697090,107,1449617852377181726,odom,2.13055634499,-0.274065434933,0.0,1.92353403568,-0.497374147177,0.0,1.07694220543,-0.296919077635,0.0,1.19905853271,0.218820780516,0.0,2.04565024376,0.0183657221496,0.0
1449617852637016558,108,1449617852636372882,odom,2.15525555611,-0.269269704819,0.0,1.95299899578,-0.496903836727,0.0,1.10235977173,-0.314385861158,0.0,1.2135488987,0.203819662333,0.0,2.06418824196,0.0213016904891,0.0
1449617852786631866,109,1449617852785840441,odom,2.18552780151,-0.264922767878,0.0,1.98812747002,-0.496780663729,0.0,1.13382077217,-0.332281291485,0.0,1.23403298855,0.188158407807,0.0,2.0883398056,0.0236590579152,0.0
1449617853074979697,110,1449617853073308088,odom,2.21166062355,-0.248739689589,0.0,2.02423477173,-0.488732516766,0.0,1.16373968124,-0.360482782125,0.0,1.24186873436,0.16372692585,0.0,2.10236406326,0.0354771912098,0.0
1449617853185730639,111,1449617853185326837,odom,2.2484960556,-0.233044221997,0.0,2.07137989998,-0.480743199587,0.0,1.20623350143,-0.388972222805,0.0,1.26214003563,0.138070911169,0.0,2.12728619576,0.0462999306619,0.0
1449617853400848633,112,1449617853398772073,odom,2.28465604782,-0.215563520789,0.0,2.11816549301,-0.470526099205,0.0,1.2499140501,-0.415397852659,0.0,1.28349792957,0.113537043333,0.0,2.15174937248,0.0584087893367,0.0
1449617853597029908,113,1449617853596697405,odom,2.32591629028,-0.186243250966,0.0,2.17591619492,-0.451243251562,0.0,1.30591630936,-0.451243251562,0.0,1.30591630936,0.0787567421794,0.0,2.17591619492,0.0787567421794,0.0
1449617853834884519,114,1449617853819712819,odom,2.37099075317,-0.154184862971,0.0,2.23808407784,-0.428157180548,0.0,1.36983251572,-0.483285427094,0.0,1.33624863625,0.045649446547,0.0,2.20450019836,0.100777700543,0.0
1449617853981327602,115,1449617853979949796,odom,2.4218351841,-0.113153494895,0.0,2.30954098701,-0.396199464798,0.0,1.44773852825,-0.515348434448,0.0,1.37515354156,0.00965764001012,0.0,2.23695588112,0.128806620836,0.0
1449617854212907142,116,1449617854212563370,odom,2.4695289135,-0.0685963705182,0.0,2.37846159935,-0.35916775465,0.0,1.52782225609,-0.541685700417,0.0,1.41663312912,-0.0234801936895,0.0,2.26727247238,0.159037783742,0.0
1449617854369719354,117,1449617854369441226,odom,2.51666522026,-0.0308427065611,0.0,2.44107174873,-0.32581833005,0.0,1.60125946999,-0.553008615971,0.0,1.46285617352,-0.0413988828659,0.0,2.30266833305,0.185791417956,0.0
1449617854561633369,118,1449617854556931851,odom,2.55071306229,0.00604926608503,0.0,2.49080443382,-0.292507171631,0.0,1.66416358948,-0.563735604286,0.0,1.49893248081,-0.0601497963071,0.0,2.32557320595,0.211078643799,0.0
1449617854764231237,119,1449617854763881619,odom,2.5810956955,0.0327361375093,0.0,2.53068089485,-0.267569303513,0.0,1.71305310726,-0.564864993095,0.0,1.53194189072,-0.066769875586,0.0,2.34956979752,0.230525806546,0.0
1449617854944064241,120,1449617854942549939,odom,2.61057281494,0.0604861862957,0.0,2.56970286369,-0.241266429424,0.0,1.76190972328,-0.56433057785,0.0,1.56510055065,-0.0722267776728,0.0,2.37289357185,0.250837355852,0.0
1449617855125054721,121,1449617855121712590,odom,2.62796974182,0.0787301585078,0.0,2.59348630905,-0.223818823695,0.0,1.79270148277,-0.563883125782,0.0,1.5855358839,-0.0760487169027,0.0,2.38632059097,0.264015585184,0.0
1449617855342742126,122,1449617855342521312,odom,2.66026473045,0.0983854681253,0.0,2.62898039818,-0.204511031508,0.0,1.83183407784,-0.553018927574,0.0,1.61952471733,-0.0674010515213,0.0,2.41667103767,0.281106829643,0.0
1449617855558078605,123,1449617855557668943,odom,2.69312691689,0.130421459675,0.0,2.67145991325,-0.173314511776,0.0,1.8857613802,-0.546915888786,0.0,1.65816521645,-0.0682720020413,0.0,2.44386363029,0.305329352617,0.0
1449617855785006873,124,1449617855781956813,odom,2.71423864365,0.146312847733,0.0,2.69578266144,-0.157635137439,0.0,1.91407620907,-0.539518773556,0.0,1.68143451214,-0.063306838274,0.0,2.46314072609,0.318576782942,0.0
1449617855934439037,125,1449617855930128485,odom,2.73522186279,0.162344619632,0.0,2.71997880936,-0.141781419516,0.0,1.94235181808,-0.531904697418,0.0,1.70469045639,-0.0581778734922,0.0,2.48231744766,0.331945389509,0.0
1449617856198699932,126,1449617856196624707,odom,2.74553132057,0.167482748628,0.0,2.73028850555,-0.13664329052,0.0,1.95266139507,-0.52676653862,0.0,1.71500003338,-0.0530397482216,0.0,2.49262714386,0.337083518505,0.0
1449617856318530325,127,1449617856318074167,odom,2.75582742691,0.172648146749,0.0,2.74058461189,-0.131477892399,0.0,1.96295750141,-0.521601140499,0.0,1.72529625893,-0.0478743463755,0.0,2.5029232502,0.342248916626,0.0
1449617856555984683,128,1449617856550316236,odom,2.77616381645,0.177005216479,0.0,2.75770783424,-0.126942753792,0.0,1.97600150108,-0.508826375008,0.0,1.74335968494,-0.0326144583523,0.0,2.52506613731,0.34926918149,0.0
1449617856713946595,129,1449617856710322946,odom,2.80133891106,0.17770858109,0.0,2.77646303177,-0.125781431794,0.0,1.98686039448,-0.491058796644,0.0,1.76433503628,-0.0100364470854,0.0,2.55393767357,0.355240911245,0.0
1449617856950573123,130,1449617856943881320,odom,2.83653235435,0.176487132907,0.0,2.80204892159,-0.126061841846,0.0,2.00126409531,-0.466126143932,0.0,1.79409849644,0.021708259359,0.0,2.59488320351,0.361772567034,0.0
1449617857153770771,131,1449617857151075811,odom,2.87773036957,0.182332798839,0.0,2.8368601799,-0.119419813156,0.0,2.02906727791,-0.442483961582,0.0,1.83225798607,0.0496198311448,0.0,2.64005112648,0.37268397212,0.0
1449617857356365656,132,1449617857349349128,odom,2.92363595963,0.183190599084,0.0,2.87322115898,-0.117114834487,0.0,2.0555934906,-0.414410531521,0.0,1.87448227406,0.0836845785379,0.0,2.69211006165,0.38098025322,0.0
1449617857523278028,133,1449617857519255615,odom,2.96401357651,0.180969789624,0.0,2.90410470963,-0.117586642504,0.0,2.07746386528,-0.388815075159,0.0,1.91223287582,0.11477073282,0.0,2.73887372017,0.385999172926,0.0
1449617857721999415,134,1449617857721211712,odom,3.01528215408,0.180945307016,0.0,2.94593977928,-0.115562058985,0.0,2.11111664772,-0.360450655222,0.0,1.96193170547,0.148119732738,0.0,2.79675483704,0.393008321524,0.0
1449617857925695080,135,1449617857925356788,odom,3.06235694885,0.183769971132,0.0,2.98676347733,-0.111205644906,0.0,2.14695119858,-0.338395953178,0.0,2.00854802132,0.173213794827,0.0,2.84836006165,0.40040409565,0.0
1449617858170829238,136,1449617858159731561,odom,3.11510181427,0.186867460608,0.0,3.03329086304,-0.106444627047,0.0,2.18886470795,-0.315835148096,0.0,2.06130504608,0.198585405946,0.0,2.90573120117,0.407975912094,0.0
1449617858349850812,137,1449617858345911837,odom,3.17750668526,0.185411587358,0.0,3.08643937111,-0.105159796774,0.0,2.23580026627,-0.287677764893,0.0,2.1246111393,0.230527758598,0.0,2.97525024414,0.413045734167,0.0
1449617858527193271,138,1449617858523236827,odom,3.23034095764,0.185718879104,0.0,3.13315272331,-0.102862931788,0.0,2.27884602547,-0.267362266779,0.0,2.1786339283,0.253077447414,0.0,3.03294038773,0.417576789856,0.0
1449617858753270736,139,1449617858751499301,odom,3.29454755783,0.186728447676,0.0,3.19128203392,-0.0997348874807,0.0,2.33368968964,-0.246142119169,0.0,2.24449896812,0.276299268007,0.0,3.10209155083,0.422706514597,0.0
1449617858919164465,140,1449617858918919585,odom,3.34167981148,0.183773428202,0.0,3.23238325119,-0.100443452597,0.0,2.37188816071,-0.228693187237,0.0,2.29375886917,0.295516520739,0.0,3.15425419807,0.423766255379,0.0
1449617859143177634,141,1449617859141827148,odom,3.38300132751,0.179275423288,0.0,3.26772212982,-0.102568045259,0.0,2.40470862389,-0.212602972984,0.0,2.33767604828,0.313140869141,0.0,3.2006893158,0.423175811768,0.0
1449617859340599124,142,1449617859340291534,odom,3.44134616852,0.176180973649,0.0,3.32013630867,-0.103163167834,0.0,2.45499014854,-0.194934144616,0.0,2.39908361435,0.332108974457,0.0,3.26423001289,0.423879951239,0.0
1449617859571208455,143,1449617859570936441,odom,3.47570085526,0.179916977882,0.0,3.35449099541,-0.0994271710515,0.0,2.48934483528,-0.191198140383,0.0,2.43343830109,0.335844993591,0.0,3.29858446121,0.427615970373,0.0
1449617859727825858,144,1449617859720525662,odom,3.51918649673,0.17921449244,0.0,3.39503145218,-0.0988331213593,0.0,2.52896356583,-0.181456238031,0.0,2.47863006592,0.34614828229,0.0,3.34469771385,0.42877137661,0.0
1449617859966652379,145,1449617859963584930,odom,3.55358791351,0.182496383786,0.0,3.42943263054,-0.0955512300134,0.0,2.5633649826,-0.178174346685,0.0,2.51303124428,0.349430173635,0.0,3.37909913063,0.432053267956,0.0
1449617860171562483,146,1449617860170572141,odom,3.59373927116,0.186143398285,0.0,3.46958398819,-0.0919042155147,0.0,2.60351610184,-0.174527332187,0.0,2.55318260193,0.353077173233,0.0,3.41925024986,0.435700297356,0.0
1449617860396407252,147,1449617860395967647,odom,3.62575340271,0.183826819062,0.0,3.49866676331,-0.0928932130337,0.0,2.63177418709,-0.166359245777,0.0,2.58701896667,0.361747711897,0.0,3.45391154289,0.43521374464,0.0
1449617860583163994,148,1449617860580648178,odom,3.66832184792,0.192738890648,0.0,3.54416656494,-0.0853087231517,0.0,2.67809867859,-0.167931839824,0.0,2.62776517868,0.359672665596,0.0,3.49383282661,0.442295789719,0.0
1449617860783194946,149,1449617860781608741,odom,3.70273685455,0.195869237185,0.0,3.57858157158,-0.0821783840656,0.0,2.71251368523,-0.164801493287,0.0,2.66218018532,0.362803012133,0.0,3.52824783325,0.445426136255,0.0
1449617860915597378,150,1449617860914596184,odom,3.73374462128,0.204106420279,0.0,3.61253476143,-0.0752377286553,0.0,2.74738836288,-0.167008697987,0.0,2.69148206711,0.360034435987,0.0,3.55662822723,0.451805412769,0.0
1449617861222003416,151,1449617861220246316,odom,3.77612876892,0.213795170188,0.0,3.65787744522,-0.0668142959476,0.0,2.79374933243,-0.16772288084,0.0,2.73227643967,0.3587000072,0.0,3.59640455246,0.459608584642,0.0
1449617861338939365,152,1449617861337660433,odom,3.82410645485,0.224780589342,0.0,3.70882749557,-0.0570628717542,0.0,2.84581398964,-0.167097806931,0.0,2.77878117561,0.358646035194,0.0,3.64179468155,0.468680977821,0.0
1449617861560578481,153,1449617861559809319,odom,3.8626241684,0.240562558174,0.0,3.75332736969,-0.0436543263495,0.0,2.89283227921,-0.171904057264,0.0,2.81470298767,0.352305650711,0.0,3.67519831657,0.480555385351,0.0
1449617861784022127,154,1449617861783533699,odom,3.9178416729,0.260002732277,0.0,3.81457614899,-0.0264606047422,0.0,2.9569838047,-0.172867849469,0.0,2.86779308319,0.349573552608,0.0,3.72538566589,0.495980799198,0.0
1449617861924550239,155,1449617861924186283,odom,3.95563554764,0.277517974377,0.0,3.85844731331,-0.011063830927,0.0,3.00414061546,-0.175563186407,0.0,2.9039285183,0.344876527786,0.0,3.75823521614,0.509375870228,0.0
1449617862139124973,156,1449617862138512684,odom,4.00036144257,0.302802652121,0.0,3.91236996651,0.0112851178274,0.0,3.06370711327,-0.18021209538,0.0,2.94704794884,0.33678945899,0.0,3.79571080208,0.52828669548,0.0
1449617862422149673,157,1449617862416685827,odom,4.04434967041,0.329137474298,0.0,3.9656431675,0.0349772050977,0.0,3.12347698212,-0.183325394988,0.0,2.99048805237,0.329718381166,0.0,3.83265423775,0.548021018505,0.0
1449617862568842435,158,1449617862568507611,odom,4.08752918243,0.356677263975,0.0,4.01818656921,0.0601699054241,0.0,3.18336343765,-0.184718683362,0.0,3.03417849541,0.323851704597,0.0,3.86900162697,0.568740308285,0.0
1449617862772485443,159,1449617862772328774,odom,4.12862539291,0.379875481129,0.0,4.06556510925,0.0819688215852,0.0,3.23610401154,-0.18050865829,0.0,3.07620406151,0.324795156717,0.0,3.90566492081,0.587272644043,0.0
1449617862979130262,160,1449617862978386704,odom,4.17657566071,0.417761206627,0.0,4.12616109848,0.117455773056,0.0,3.30853319168,-0.179839923978,0.0,3.12742209435,0.318255186081,0.0,3.94504976273,0.615550875664,0.0
1449617863178170549,161,1449617863177965740,odom,4.22150039673,0.445570588112,0.0,4.17744398117,0.144266739488,0.0,3.36628198624,-0.170242711902,0.0,3.17468428612,0.323913425207,0.0,3.98584628105,0.638422906399,0.0
1449617863319914682,162,1449617863319117517,odom,4.25038576126,0.473937898874,0.0,4.21590232849,0.171388924122,0.0,3.41511774063,-0.168675363064,0.0,3.20795202255,0.319159030914,0.0,4.00873661041,0.6592233181,0.0
1449617863553782953,163,1449617863552717415,odom,4.28896045685,0.507709205151,0.0,4.26408433914,0.204219177365,0.0,3.47448182106,-0.161058172584,0.0,3.25195646286,0.319964170456,0.0,4.04155921936,0.685241520405,0.0
1449617863729431010,164,1449617863729090706,odom,4.32644605637,0.54268682003,0.0,4.31120300293,0.238560795784,0.0,3.53357601166,-0.151562467217,0.0,3.29591464996,0.322164356709,0.0,4.07354164124,0.712287604809,0.0
1449617863945562374,165,1449617863945100700,odom,4.37304353714,0.58410847187,0.0,4.36744880676,0.279652088881,0.0,3.60257911682,-0.134924992919,0.0,3.35002064705,0.331030160189,0.0,4.11489057541,0.745607256889,0.0
1449617864149827018,166,1449617864140572833,odom,4.40841913223,0.609433174133,0.0,4.40604162216,0.304934680462,0.0,3.64559602737,-0.117702282965,0.0,3.38812732697,0.345557868481,0.0,4.14857339859,0.768194854259,0.0
1449617864334711682,167,1449617864334497318,odom,4.44830036163,0.64414447546,0.0,4.45235919952,0.33966371417,0.0,3.70101547241,-0.0989505201578,0.0,3.43381381035,0.35876467824,0.0,4.18515729904,0.797378897667,0.0
1449617864554176976,168,1449617864553738830,odom,4.50262737274,0.682402312756,0.0,4.50990390778,0.377981454134,0.0,3.76323723793,-0.0685483813286,0.0,3.49121308327,0.386317491531,0.0,4.23787975311,0.832847356796,0.0
1449617864726151525,169,1449617864725696516,odom,4.53675746918,0.709432840347,0.0,4.54725074768,0.405105859041,0.0,3.8053445816,-0.0492896921933,0.0,3.52852892876,0.402676075697,0.0,4.27043485641,0.857071638107,0.0
1449617864933561460,170,1449617864933079811,odom,4.5898065567,0.754926145077,0.0,4.60672903061,0.450888931751,0.0,3.87459206581,-0.0190849490464,0.0,3.58828616142,0.426929503679,0.0,4.32042312622,0.896903395653,0.0
1449617865157722461,171,1449617865145579390,odom,4.6233458519,0.782591938972,0.0,4.6434803009,0.478750556707,0.0,3.91635107994,0.00106579682324,0.0,3.62534761429,0.444029718637,0.0,4.35247707367,0.921714484692,0.0
1449617865332119047,172,1449617865331683697,odom,4.66608381271,0.817138195038,0.0,4.68942832947,0.513526558876,0.0,3.96738743782,0.0281842481345,0.0,3.67171907425,0.468048155308,0.0,4.39375972748,0.953390419483,0.0
1449617865541531080,173,1449617865535596753,odom,4.70309877396,0.854792296886,0.0,4.7328543663,0.551741838455,0.0,4.02123260498,0.051247946918,0.0,3.71633386612,0.484764784575,0.0,4.42795562744,0.985258638859,0.0
1449617865736947375,174,1449617865736587368,odom,4.73470401764,0.889758110046,0.0,4.77085828781,0.587404191494,0.0,4.06997299194,0.0719823092222,0.0,3.75598025322,0.498958438635,0.0,4.45686531067,1.01438033581,0.0
1449617865977798236,175,1449617865974656738,odom,4.76536178589,0.925651311874,0.0,4.80789804459,0.624129056931,0.0,4.11806249619,0.0940094292164,0.0,3.79511594772,0.51425409317,0.0,4.48495149612,1.04437375069,0.0
1449617866155421921,176,1449617866154579950,odom,4.79168701172,0.980041027069,0.0,4.85008859634,0.681186199188,0.0,4.18921422958,0.11537232995,0.0,3.84452319145,0.517973840237,0.0,4.50539731979,1.08378767967,0.0
1449617866348935235,177,1449617866348245791,odom,4.81811380386,1.02405893803,0.0,4.88595962524,0.727205514908,0.0,4.24335336685,0.140727072954,0.0,3.88607311249,0.532199919224,0.0,4.52867937088,1.11867833138,0.0
1449617866533095265,178,1449617866532362999,odom,4.83321428299,1.06666231155,0.0,4.91354417801,0.772941231728,0.0,4.29629611969,0.15983043611,0.0,3.92279195786,0.535855054855,0.0,4.54004001617,1.14896583557,0.0
1449617866745028029,179,1449617866738595945,odom,4.85268878937,1.12371146679,0.0,4.94841957092,0.834643006325,0.0,4.36441516876,0.189787581563,0.0,3.9715719223,0.545560538769,0.0,4.5555768013,1.19041597843,0.0
1449617866933385937,180,1449617866932778679,odom,4.86210250854,1.15758895874,0.0,4.96694850922,0.87170034647,0.0,4.40367841721,0.208656713367,0.0,3.99975538254,0.551798224449,0.0,4.56302547455,1.21484184265,0.0
1449617867179613402,181,1449617867174175696,odom,4.87523365021,1.20630347729,0.0,4.99206733704,0.925101041794,0.0,4.45732069016,0.23884613812,0.0,4.0392575264,0.564611434937,0.0,4.57400417328,1.25086629391,0.0
1449617867375275377,182,1449617867372190687,odom,4.88277769089,1.25096714497,0.0,5.01139068604,0.974953234196,0.0,4.50612258911,0.266713231802,0.0,4.07466602325,0.574520349503,0.0,4.57993412018,1.2827603817,0.0
1449617867562097837,183,1449617867561712554,odom,4.88265609741,1.30641543865,0.0,5.02850055695,1.03910589218,0.0,4.56912565231,0.300272464752,0.0,4.11903190613,0.580121397972,0.0,4.57840633392,1.3189548254,0.0
1449617867720863848,184,1449617867720483224,odom,4.88552522659,1.3614628315,0.0,5.04528427124,1.10222923756,0.0,4.62557268143,0.340164840221,0.0,4.16132640839,0.595851182938,0.0,4.5810379982,1.35791563988,0.0
1449617867935467585,185,1449617867935179972,odom,4.89483976364,1.41193318367,0.0,5.06273603439,1.15789401531,0.0,4.66739177704,0.382908195257,0.0,4.19527387619,0.62374997139,0.0,4.59061813354,1.39873576164,0.0
1449617868131032982,186,1449617868121463603,odom,4.89892911911,1.46753406525,0.0,5.07741069794,1.22081708908,0.0,4.71517038345,0.429816544056,0.0,4.23329639435,0.650491654873,0.0,4.59553670883,1.4414921999,0.0
1449617868334048485,187,1449617868333359876,odom,4.91294765472,1.52433693409,0.0,5.09660339355,1.28144717216,0.0,4.75116157532,0.482967525721,0.0,4.26473140717,0.693409144878,0.0,4.6101732254,1.49188888073,0.0
1449617868555611171,188,1449617868554738180,odom,4.91965866089,1.58077549934,0.0,5.11092185974,1.3438295126,0.0,4.79096412659,0.534800946712,0.0,4.29810762405,0.729717612267,0.0,4.61806535721,1.53874611855,0.0
1449617868769683418,189,1449617868768912957,odom,4.93677568436,1.6390080452,0.0,5.13053226471,1.40409660339,0.0,4.81914234161,0.591731965542,0.0,4.32425355911,0.781429231167,0.0,4.63564300537,1.59379386902,0.0
1449617868931505534,190,1449617868926473734,odom,4.94730949402,1.69653248787,0.0,5.14598703384,1.46576845646,0.0,4.85183572769,0.647004187107,0.0,4.35304832458,0.826199889183,0.0,4.64719963074,1.64496409893,0.0
1449617869137625577,191,1449617869135100285,odom,4.96469211578,1.74536681175,0.0,5.16336965561,1.51460266113,0.0,4.86921834946,0.695838451385,0.0,4.37043094635,0.875034153461,0.0,4.6645822525,1.69379842281,0.0
1449617869332242053,192,1449617869329427823,odom,4.97771978378,1.79879212379,0.0,5.17882490158,1.5701406002,0.0,4.89334249496,0.748313486576,0.0,4.39268922806,0.922228038311,0.0,4.67817163467,1.74405515194,0.0
1449617869539901343,193,1449617869528266934,odom,4.99396181107,1.86323356628,0.0,5.19747257233,1.6367200613,0.0,4.92069101334,0.81192189455,0.0,4.41822767258,0.980535924435,0.0,4.69500923157,1.80533409119,0.0
1449617869732310239,194,1449617869727634668,odom,5.00611829758,1.9168381691,0.0,5.21201133728,1.69248783588,0.0,4.94396162033,0.864810824394,0.0,4.4397444725,1.02810549736,0.0,4.70779418945,1.85578250885,0.0
1449617869949987022,195,1449617869937225681,odom,5.0141582489,1.95960938931,0.0,5.22241067886,1.73744750023,0.0,4.96312236786,0.906983971596,0.0,4.45720815659,1.06494104862,0.0,4.71649599075,1.89540457726,0.0
1449617870138022776,196,1449617870134550629,odom,5.02872800827,2.02441883087,0.0,5.23931694031,1.80447018147,0.0,4.98881959915,0.971312940121,0.0,4.48126411438,1.12391471863,0.0,4.73176145554,1.95707201958,0.0
1449617870328219602,197,1449617870323453538,odom,5.03455448151,2.06173157692,0.0,5.24745559692,1.84402060509,0.0,5.00577688217,1.00826263428,0.0,4.49663734436,1.15549206734,0.0,4.73831558228,1.99125003815,0.0
1449617870511638018,198,1449617870511382632,odom,5.05055427551,2.1170604229,0.0,5.26345539093,1.89934957027,0.0,5.02177667618,1.06359159946,0.0,4.51263666153,1.21082103252,0.0,4.75431537628,2.04657912254,0.0
1449617870730346663,199,1449617870725709012,odom,5.06495380402,2.16685652733,0.0,5.27785491943,1.9491455555,0.0,5.03617620468,1.11338758469,0.0,4.52703666687,1.26061713696,0.0,4.76871490479,2.09637498856,0.0
1449617870911598392,200,1449617870911363202,odom,5.07018041611,2.20428681374,0.0,5.28537034988,1.98883783817,0.0,5.05253744125,1.15057253838,0.0,4.54187011719,1.29241335392,0.0,4.77470302582,2.13067865372,0.0
1449617871110298865,201,1449617871110056632,odom,5.08597517014,2.25967383385,0.0,5.30116510391,2.04422497749,0.0,5.06833219528,1.20595955849,0.0,4.55766487122,1.34780037403,0.0,4.79049777985,2.18606567383,0.0
1449617871313814690,202,1449617871312377738,odom,5.10138893127,2.31516885757,0.0,5.31657934189,2.09972000122,0.0,5.08374595642,1.26145458221,0.0,4.57307863235,1.40329539776,0.0,4.80591154099,2.24156069756,0.0
1449617871503717054,203,1449617871503051705,odom,5.11209058762,2.3540391922,0.0,5.32728099823,2.13859033585,0.0,5.0944480896,1.30032503605,0.0,4.58378076553,1.44216573238,0.0,4.81661367416,2.28043103218,0.0
1449617871712867662,204,1449617871711265099,odom,5.12296962738,2.41375255585,0.0,5.34042453766,2.20058965683,0.0,5.11646318436,1.35991072655,0.0,4.60432529449,1.49634683132,0.0,4.8282866478,2.33702588081,0.0
1449617871910453478,205,1449617871910316683,odom,5.13631391525,2.46384191513,0.0,5.35376882553,2.25067901611,0.0,5.12980747223,1.40999996662,0.0,4.61766958237,1.54643619061,0.0,4.84163093567,2.3871152401,0.0
1449617872124919124,206,1449617872124709680,odom,5.14516687393,2.51807808876,0.0,5.36486196518,2.30722546577,0.0,5.14979743958,1.4642264843,0.0,4.63624620438,1.59524285793,0.0,4.85131120682,2.4382417202,0.0
1449617872328914770,207,1449617872328636189,odom,5.15798044205,2.56830573082,0.0,5.37767601013,2.35745286942,0.0,5.16261148453,1.51445400715,0.0,4.64906024933,1.64547038078,0.0,4.86412477493,2.48846936226,0.0
1449617872543202200,208,1449617872542668746,odom,5.16747713089,2.62826514244,0.0,5.38938856125,2.41974568367,0.0,5.1832447052,1.57452106476,0.0,4.66833734512,1.70010304451,0.0,4.87448167801,2.54532766342,0.0
1449617872740890499,209,1449617872738765852,odom,5.17132425308,2.66583323479,0.0,5.39542722702,2.45967078209,0.0,5.19822692871,1.61231482029,0.0,4.68202161789,1.73244822025,0.0,4.8792219162,2.57980418205,0.0
1449617872949096172,210,1449617872948137683,odom,5.18476438522,2.72183847427,0.0,5.40886688232,2.51567578316,0.0,5.21166658401,1.66831982136,0.0,4.69546127319,1.78845334053,0.0,4.8926615715,2.63580918312,0.0
1449617873188447281,211,1449617873187898631,odom,5.19268608093,2.75547528267,0.0,5.41678857803,2.54931259155,0.0,5.21958875656,1.70195674896,0.0,4.70338344574,1.82209026814,0.0,4.90058326721,2.66944622993,0.0
1449617873331209068,212,1449617873330970127,odom,5.20574140549,2.81157207489,0.0,5.42984390259,2.60540938377,0.0,5.23264360428,1.75805354118,0.0,4.71643829346,1.87818706036,0.0,4.91363859177,2.72554302216,0.0
1449617873523385796,213,1449617873522071758,odom,5.21487998962,2.85083985329,0.0,5.43898248672,2.64467716217,0.0,5.24178218842,1.79732131958,0.0,4.72557687759,1.91745471954,0.0,4.9227771759,2.76481056213,0.0
1449617873752543108,214,1449617873752278147,odom,5.2242641449,2.91662979126,0.0,5.45053291321,2.7128469944,0.0,5.26229810715,1.8634544611,0.0,4.74485206604,1.97812604904,0.0,4.9330868721,2.82751870155,0.0
1449617873953576838,215,1449617873952702351,odom,5.23283815384,2.95602416992,0.0,5.45910692215,2.75224137306,0.0,5.27087259293,1.90284872055,0.0,4.75342655182,2.01752018929,0.0,4.94166088104,2.8669128418,0.0
1449617874144431556,216,1449617874144150108,odom,5.23951005936,3.01056051254,0.0,5.46791982651,2.8091802597,0.0,5.2886724472,1.95784580708,0.0,4.77004337311,2.06704282761,0.0,4.94929122925,2.91837716103,0.0
1449617874341660785,217,1449617874341380215,odom,5.25019025803,3.06128454208,0.0,5.47860002518,2.85990428925,0.0,5.29935216904,2.00856995583,0.0,4.78072309494,2.11776685715,0.0,4.95997095108,2.96910119057,0.0
1449617874550232799,218,1449617874549723750,odom,5.25616645813,3.11591291428,0.0,5.48669147491,2.91695761681,0.0,5.31645059586,2.06377649307,0.0,4.7966966629,2.16748666763,0.0,4.96693754196,3.02066755295,0.0
1449617874751891262,219,1449617874751313949,odom,5.26518249512,3.16109871864,0.0,5.4957075119,2.96214365959,0.0,5.32546663284,2.10896253586,0.0,4.80571269989,2.212672472,0.0,4.97595357895,3.06585359573,0.0
1449617874949534900,220,1449617874949256845,odom,5.26960325241,3.21010994911,0.0,5.50221824646,3.01360201836,0.0,5.34100294113,2.15866947174,0.0,4.82018184662,2.25688099861,0.0,4.98139715195,3.11181354523,0.0
1449617875143340311,221,1449617875142259417,odom,5.27591705322,3.24408531189,0.0,5.50853204727,3.04757761955,0.0,5.34731674194,2.19264507294,0.0,4.82649564743,2.29085636139,0.0,4.98771095276,3.145788908,0.0
1449617875357959492,222,1449617875357038807,odom,5.27271032333,3.28560209274,0.0,5.50942611694,3.09405422211,0.0,5.36631584167,2.23590540886,0.0,4.84353542328,2.32308769226,0.0,4.98664569855,3.18123650551,0.0
1449617875559403156,223,1449617875558958225,odom,5.25995492935,3.33982896805,0.0,5.50455379486,3.15845584869,0.0,5.39783620834,2.2950258255,0.0,4.87183904648,2.36003780365,0.0,4.978556633,3.22346758842,0.0
1449617875749432288,224,1449617875748990483,odom,5.24853944778,3.37870645523,0.0,5.49876499176,3.20517802238,0.0,5.41947078705,2.3387992382,0.0,4.89167690277,2.38710474968,0.0,4.97097110748,3.25348377228,0.0
1449617875950713694,225,1449617875950126353,odom,5.22116518021,3.43802404404,0.0,5.48188400269,3.28069996834,0.0,5.45764780045,2.41103768349,0.0,4.92785358429,2.42580223083,0.0,4.95208930969,3.29546451569,0.0
1449617876179791823,226,1449617876179596736,odom,5.1955780983,3.48125314713,0.0,5.46424198151,3.33791851997,0.0,5.48597145081,2.46818995476,0.0,4.95613670349,2.45495247841,0.0,4.93440723419,3.32468104362,0.0
1449617876384172359,227,1449617876382128354,odom,5.16216087341,3.52550029755,0.0,5.43936729431,3.39947795868,0.0,5.51616430283,2.53287410736,0.0,4.98823308945,2.48608970642,0.0,4.91143608093,3.35269355774,0.0
1449617876548104921,228,1449617876547875517,odom,5.13743543625,3.56333827972,0.0,5.41971969604,3.44914340973,0.0,5.53307056427,2.58655905724,0.0,5.00758838654,2.51750636101,0.0,4.89423751831,3.3800907135,0.0
1449617876766279918,229,1449617876765782814,odom,5.10924100876,3.61146044731,0.0,5.39609909058,3.50929665565,0.0,5.54580116272,2.6522731781,0.0,5.02370643616,2.56107544899,0.0,4.87400436401,3.41809892654,0.0
1449617876969226732,230,1449617876968846189,odom,5.08491325378,3.65665149689,0.0,5.37486553192,3.56363201141,0.0,5.55165863037,2.71178460121,0.0,5.03271722794,2.6040828228,0.0,4.85592365265,3.455930233,0.0
1449617877181364810,231,1449617877180947101,odom,5.06513261795,3.69949150085,0.0,5.35698652267,3.61262083054,0.0,5.55174350739,2.76470017433,0.0,5.03519392014,2.64605498314,0.0,4.84043693542,3.49397563934,0.0
1449617877379214862,232,1449617877378972026,odom,5.04456996918,3.74193239212,0.0,5.33819437027,3.66124939919,0.0,5.55082845688,2.81763410568,0.0,5.03690195084,2.68809843063,0.0,4.82426786423,3.53171372414,0.0
1449617877562186500,233,1449617877561770010,odom,5.02443552017,3.79919338226,0.0,5.3188958168,3.72161793709,0.0,5.54043340683,2.88029670715,0.0,5.0279045105,2.74533724785,0.0,4.80636692047,3.58665823936,0.0
1449617877752035251,234,1449617877751733462,odom,5.00662946701,3.84509992599,0.0,5.30189371109,3.77064061165,0.0,5.53230953217,2.93170762062,0.0,5.021235466,2.79133915901,0.0,4.79081964493,3.63027215004,0.0
1449617877997241878,235,1449617877996965098,odom,4.98716592789,3.89646816254,0.0,5.28320026398,3.82513332367,0.0,5.52246904373,2.98868227005,0.0,5.0129070282,2.84292078018,0.0,4.77363824844,3.6793718338,0.0
1449617878158390535,236,1449617878157906592,odom,4.96528434753,3.95308017731,0.0,5.26205635071,3.88487768173,0.0,5.51015090942,3.05100178719,0.0,5.00215768814,2.89986348152,0.0,4.75406312943,3.73373937607,0.0
1449617878378441921,237,1449617878378153650,odom,4.94779157639,3.99291396141,0.0,5.2452673912,3.92785143852,0.0,5.50216054916,3.09664416313,0.0,4.99579286575,2.94014596939,0.0,4.73889970779,3.77135324478,0.0
1449617878557750497,238,1449617878557342328,odom,4.92829418182,4.03810024261,0.0,5.22644090652,3.97618508339,0.0,5.4921040535,3.14773893356,0.0,4.98741817474,2.98589801788,0.0,4.72175502777,3.81434416771,0.0
1449617878788492005,239,1449617878783649855,odom,4.90393209457,4.07855701447,0.0,5.20332098007,4.02295684814,0.0,5.48643350601,3.20031023026,0.0,4.9852809906,3.02783942223,0.0,4.70216846466,3.8504858017,0.0
1449617878971281954,240,1449617878970485308,odom,4.87271785736,4.11931991577,0.0,5.17371892929,4.0732383728,0.0,5.48276615143,3.25997948647,0.0,4.98733234406,3.07170939445,0.0,4.67828512192,3.88496804237,0.0
1449617879160898319,241,1449617879160584118,odom,4.83004617691,4.17039680481,0.0,5.1327252388,4.13707590103,0.0,5.4758644104,3.33760404587,0.0,4.98882961273,3.12856507301,0.0,4.64569044113,3.9280371666,0.0
1449617879389631447,242,1449617879389346638,odom,4.78634595871,4.20415639877,0.0,5.09036254883,4.18686819077,0.0,5.47524738312,3.40663528442,0.0,4.99993276596,3.17216515541,0.0,4.61504793167,3.95239806175,0.0
1449617879565161309,243,1449617879564653221,odom,4.75301885605,4.23560333252,0.0,5.05743074417,4.22796106339,0.0,5.4668545723,3.46032047272,0.0,4.99921131134,3.21090149879,0.0,4.58978748322,3.97854185104,0.0
1449617879777366278,244,1449617879776468330,odom,4.7095451355,4.27064752579,0.0,5.0140080452,4.27587652206,0.0,5.45550632477,3.52622365952,0.0,4.99882173538,3.25726485252,0.0,4.55732297897,4.00691747665,0.0
1449617879988951906,245,1449617879988459771,odom,4.66190052032,4.29859256744,0.0,4.96566200256,4.31989479065,0.0,5.44613790512,3.59460639954,0.0,5.00429534912,3.30190300941,0.0,4.5238199234,4.02719116211,0.0
1449617880194206370,246,1449617880193843456,odom,4.62173318863,4.33040809631,0.0,4.92466688156,4.361328125,0.0,5.42789173126,3.65163493156,0.0,4.99555015564,3.34507250786,0.0,4.49232530594,4.05476617813,0.0
1449617880403389439,247,1449617880403165434,odom,4.58052825928,4.36089849472,0.0,4.8823299408,4.40140581131,0.0,5.40779829025,3.7080206871,0.0,4.98539113998,3.38790750504,0.0,4.45992279053,4.08129262924,0.0
1449617880578110548,248,1449617880577579967,odom,4.54328489304,4.40129184723,0.0,4.84464168549,4.44498634338,0.0,5.37740802765,3.75719308853,0.0,4.95840787888,3.43263411522,0.0,4.42564105988,4.12042760849,0.0
1449617880766877367,249,1449617880766282487,odom,4.49372529984,4.43908405304,0.0,4.79354572296,4.49230957031,0.0,5.34784650803,3.82174968719,0.0,4.93934488297,3.48407196999,0.0,4.38504362106,4.15463161469,0.0
1449617880954927242,250,1449617880954508129,odom,4.46810913086,4.4702167511,0.0,4.76792907715,4.52344179153,0.0,5.32223033905,3.85288238525,0.0,4.91372823715,3.51520466805,0.0,4.35942745209,4.18576431274,0.0
1449617881191279357,251,1449617881190235213,odom,4.43262767792,4.50436592102,0.0,4.7318687439,4.56075668335,0.0,5.29322528839,3.89609241486,0.0,4.88831472397,3.5541164875,0.0,4.32695817947,4.21878099442,0.0
1449617881352207688,252,1449617881351911775,odom,4.40282773972,4.53950834274,0.0,4.70206880569,4.59589910507,0.0,5.26342535019,3.93123483658,0.0,4.85851478577,3.58925890923,0.0,4.29715824127,4.25392341614,0.0
1449617881562990352,253,1449617881561427197,odom,4.37458229065,4.56461906433,0.0,4.67321062088,4.62416887283,0.0,5.2415599823,3.9654738903,0.0,4.84028625488,3.61923789978,0.0,4.27193689346,4.27793312073,0.0
1449617881794492213,254,1449617881793072689,odom,4.36167097092,4.58767366409,0.0,4.66091156006,4.64406442642,0.0,5.22226810455,3.97940015793,0.0,4.81735801697,3.63742423058,0.0,4.25600099564,4.30208873749,0.0
1449617881967789561,255,1449617881966776212,odom,4.33565664291,4.61847543716,0.0,4.63489770889,4.67486619949,0.0,5.19625425339,4.010201931,0.0,4.79134368896,3.66822576523,0.0,4.22998714447,4.33289003372,0.0
1449617882159274540,256,1449617882157163596,odom,4.30835771561,4.65946149826,0.0,4.60817813873,4.7126865387,0.0,5.1624789238,4.04212713242,0.0,4.75397729874,3.70444941521,0.0,4.19967603683,4.37500905991,0.0
1449617882364884678,257,1449617882364194655,odom,4.27777767181,4.70513391495,0.0,4.57814311981,4.75518751144,0.0,5.12532711029,4.07880783081,0.0,4.71327972412,3.74546575546,0.0,4.16609573364,4.42184591293,0.0
1449617882572661162,258,1449617882570719707,odom,4.25142383575,4.74674320221,0.0,4.55230140686,4.79361963272,0.0,5.09230709076,4.11149501801,0.0,4.67675971985,3.78252625465,0.0,4.13675451279,4.46465110779,0.0
1449617882759326682,259,1449617882758904375,odom,4.23137283325,4.78949356079,0.0,4.53317403793,4.83000087738,0.0,5.05864286423,4.13661575317,0.0,4.63623571396,3.81650280952,0.0,4.1107673645,4.50988769531,0.0
1449617882975741865,260,1449617882975326965,odom,4.21313667297,4.82261037827,0.0,4.51534938812,4.85992622375,0.0,5.0334610939,4.16102695465,0.0,4.60769462585,3.84539556503,0.0,4.08958292007,4.54429483414,0.0
1449617883180940179,261,1449617883180482474,odom,4.18839168549,4.86517190933,0.0,4.49098157883,4.89929199219,0.0,5.0016784668,4.19495630264,0.0,4.57260036469,3.88384222984,0.0,4.06190347672,4.58817768097,0.0
1449617883360169237,262,1449617883359882960,odom,4.15701389313,4.9276471138,0.0,4.46025753021,4.95536422729,0.0,4.9559545517,4.24039268494,0.0,4.52039670944,3.93841648102,0.0,4.02470016479,4.65338802338,0.0
1449617883546640431,263,1449617883546353939,odom,4.13676118851,4.96613550186,0.0,4.44028091431,4.9906463623,0.0,4.92839431763,4.27047586441,0.0,4.48967027664,3.9731194973,0.0,4.00155639648,4.69328975677,0.0
1449617883744127909,264,1449617883743341613,odom,4.11045408249,5.01437091827,0.0,4.41421556473,5.03567266464,0.0,4.89469099045,4.31038427353,0.0,4.45284891129,4.01768112183,0.0,3.97237324715,4.7429690361,0.0
1449617883987477568,265,1449617883985962328,odom,4.08191013336,5.06796550751,0.0,4.38587999344,5.08605623245,0.0,4.8586640358,4.35573101044,0.0,4.41375303268,4.06771326065,0.0,3.94096922874,4.79803848267,0.0
1449617884145082258,266,1449617884144513591,odom,4.06295681,5.11731100082,0.0,4.3672413826,5.12897348404,0.0,4.82448482513,4.38881874084,0.0,4.37358617783,4.11026859283,0.0,3.91634273529,4.85042285919,0.0
1449617884329394582,267,1449617884329027366,odom,4.03604793549,5.17173671722,0.0,4.34043884277,5.18018293381,0.0,4.78983449936,4.43523788452,0.0,4.33601760864,4.16146802902,0.0,3.88662147522,4.90641307831,0.0
1449617884561423609,268,1449617884561204646,odom,4.01866865158,5.22165822983,0.0,4.32316970825,5.22366905212,0.0,4.75672101974,4.46939277649,0.0,4.29721927643,4.20527505875,0.0,3.86366796494,4.95955181122,0.0
1449617884740437082,269,1449617884739850522,odom,3.99892115593,5.26674222946,0.0,4.30342674255,5.26553535461,0.0,4.72898292542,4.50671958923,0.0,4.26671552658,4.24747228622,0.0,3.84115934372,5.00628852844,0.0
1449617884935050439,270,1449617884934602125,odom,3.97965145111,5.31203317642,0.0,4.28412723541,5.30760812759,0.0,4.70164060593,4.54433727264,0.0,4.23665952682,4.28998994827,0.0,3.81914591789,5.05326080322,0.0
1449617885128774313,271,1449617885128573580,odom,3.95533323288,5.36763048172,0.0,4.259745121,5.35998821259,0.0,4.66916894913,4.59234762192,0.0,4.20152616501,4.34292888641,0.0,3.79210209846,5.11056900024,0.0
1449617885325140752,272,1449617885324880580,odom,3.93779635429,5.42342567444,0.0,4.24197864532,5.40935182571,0.0,4.63508749008,4.63322973251,0.0,4.16227722168,4.3937497139,0.0,3.76916861534,5.1698718071,0.0
1449617885526249774,273,1449617885523718240,odom,3.91761064529,5.47450494766,0.0,4.22162723541,5.45721721649,0.0,4.6065120697,4.67698431015,0.0,4.13119792938,4.44251394272,0.0,3.74631285667,5.22274684906,0.0
1449617885763525239,274,1449617885760394841,odom,3.89555430412,5.53102731705,0.0,4.19937133789,5.51052761078,0.0,4.57598924637,4.72627067566,0.0,4.09822368622,4.49683666229,0.0,3.72160553932,5.28109359741,0.0
1449617885921442591,275,1449617885920847124,odom,3.87834882736,5.56748819351,0.0,4.18216562271,5.54698848724,0.0,4.55878353119,4.76273155212,0.0,4.08101797104,4.53329801559,0.0,3.70440006256,5.31755447388,0.0
1449617886153369882,276,1449617886149914945,odom,3.86340594292,5.62407779694,0.0,4.16672182083,5.59716176987,0.0,4.52668046951,4.80512046814,0.0,4.04417276382,4.58583498001,0.0,3.68421387672,5.37787628174,0.0
1449617886365728791,277,1449617886364564612,odom,3.84176540375,5.67118024826,0.0,4.14508104324,5.64426374435,0.0,4.50504016876,4.85222244263,0.0,4.02253198624,4.63293743134,0.0,3.66257333755,5.42497873306,0.0
1449617886561014791,278,1449617886560815379,odom,3.83489251137,5.71221923828,0.0,4.13757181168,5.6788983345,0.0,4.48071098328,4.87942647934,0.0,3.99367618561,4.6703877449,0.0,3.65053701401,5.46985960007,0.0
