%time,field.header.seq,field.header.stamp,field.header.frame_id,field.polygon.points0.x,field.polygon.points0.y,field.polygon.points0.z,field.polygon.points1.x,field.polygon.points1.y,field.polygon.points1.z,field.polygon.points2.x,field.polygon.points2.y,field.polygon.points2.z,field.polygon.points3.x,field.polygon.points3.y,field.polygon.points3.z,field.polygon.points4.x,field.polygon.points4.y,field.polygon.points4.z
1449617830429126029,1,1449617830428846096,odom,0.479999989271,0.0,0.0,0.329999983311,-0.264999985695,0.0,-0.539999961853,-0.264999985695,0.0,-0.539999961853,0.264999985695,0.0,0.329999983311,0.264999985695,0.0
1449617830629011539,2,1449617830628849649,odom,0.479999989271,0.0,0.0,0.329999983311,-0.264999985695,0.0,-0.539999961853,-0.264999985695,0.0,-0.539999961853,0.264999985695,0.0,0.329999983311,0.264999985695,0.0
1449617830926867199,3,1449617830926747369,odom,0.479999989271,0.0,0.0,0.329999983311,-0.264999985695,0.0,-0.539999961853,-0.264999985695,0.0,-0.539999961853,0.264999985695,0.0,0.329999983311,0.264999985695,0.0
1449617831121855114,4,1449617831121229524,odom,0.479999989271,0.0,0.0,0.329999983311,-0.264999985695,0.0,-0.539999961853,-0.264999985695,0.0,-0.539999961853,0.264999985695,0.0,0.329999983311,0.264999985695,0.0
1449617831338281281,5,1449617831337973764,odom,0.479999989271,0.0,0.0,0.329999983311,-0.264999985695,0.0,-0.539999961853,-0.264999985695,0.0,-0.539999961853,0.264999985695,0.0,0.329999983311,0.264999985695,0.0
1449617831527392831,6,1449617831527072107,odom,0.479999989271,0.0,0.0,0.329999983311,-0.264999985695,0.0,-0.539999961853,-0.264999985695,0.0,-0.539999961853,0.264999985695,0.0,0.329999983311,0.264999985695,0.0
1449617831716180913,7,1449617831715803410,odom,0.479999989271,0.0,0.0,0.329999983311,-0.264999985695,0.0,-0.539999961853,-0.264999985695,0.0,-0.539999961853,0.264999985695,0.0,0.329999983311,0.264999985695,0.0
1449617831943754348,8,1449617831943094739,odom,0.479999989271,0.0,0.0,0.329999983311,-0.264999985695,0.0,-0.539999961853,-0.264999985695,0.0,-0.539999961853,0.264999985695,0.0,0.329999983311,0.264999985695,0.0
1449617832142741860,9,1449617832142292873,odom,0.479999989271,0.0,0.0,0.329999983311,-0.264999985695,0.0,-0.539999961853,-0.264999985695,0.0,-0.539999961853,0.264999985695,0.0,0.329999983311,0.264999985695,0.0
1449617832321184229,10,1449617832320996292,odom,0.479999989271,0.0,0.0,0.329999983311,-0.264999985695,0.0,-0.539999961853,-0.264999985695,0.0,-0.539999961853,0.264999985695,0.0,0.329999983311,0.264999985695,0.0
1449617832530044719,11,1449617832529527675,odom,0.479999989271,0.0,0.0,0.329999983311,-0.264999985695,0.0,-0.539999961853,-0.264999985695,0.0,-0.539999961853,0.264999985695,0.0,0.329999983311,0.264999985695,0.0
1449617832753456706,12,1449617832748866462,odom,0.479999989271,0.0,0.0,0.329999983311,-0.264999985695,0.0,-0.539999961853,-0.264999985695,0.0,-0.539999961853,0.264999985695,0.0,0.329999983311,0.264999985695,0.0
1449617832922390950,13,1449617832920897764,odom,0.479999989271,0.0,0.0,0.329999983311,-0.264999985695,0.0,-0.539999961853,-0.264999985695,0.0,-0.539999961853,0.264999985695,0.0,0.329999983311,0.264999985695,0.0
1449617833122530327,14,1449617833116608384,odom,0.479999989271,0.0,0.0,0.329999983311,-0.264999985695,0.0,-0.539999961853,-0.264999985695,0.0,-0.539999961853,0.264999985695,0.0,0.329999983311,0.264999985695,0.0
1449617833354503766,15,1449617833353673944,odom,0.479999989271,0.0,0.0,0.329999983311,-0.264999985695,0.0,-0.539999961853,-0.264999985695,0.0,-0.539999961853,0.264999985695,0.0,0.329999983311,0.264999985695,0.0
1449617833548861059,16,1449617833548611764,odom,0.479999989271,0.0,0.0,0.329999983311,-0.264999985695,0.0,-0.539999961853,-0.264999985695,0.0,-0.539999961853,0.264999985695,0.0,0.329999983311,0.264999985695,0.0
1449617833737615768,17,1449617833737463189,odom,0.479999989271,0.0,0.0,0.329999983311,-0.264999985695,0.0,-0.539999961853,-0.264999985695,0.0,-0.539999961853,0.264999985695,0.0,0.329999983311,0.264999985695,0.0
1449617833932566276,18,1449617833932149592,odom,0.479999989271,0.0,0.0,0.329999983311,-0.264999985695,0.0,-0.539999961853,-0.264999985695,0.0,-0.539999961853,0.264999985695,0.0,0.329999983311,0.264999985695,0.0
1449617834119479886,19,1449617834119362490,odom,0.479999989271,0.0,0.0,0.329999983311,-0.264999985695,0.0,-0.539999961853,-0.264999985695,0.0,-0.539999961853,0.264999985695,0.0,0.329999983311,0.264999985695,0.0
1449617834336182525,20,1449617834335475595,odom,0.479999989271,0.0,0.0,0.329999983311,-0.264999985695,0.0,-0.539999961853,-0.264999985695,0.0,-0.539999961853,0.264999985695,0.0,0.329999983311,0.264999985695,0.0
1449617834529014572,21,1449617834528559608,odom,0.479999989271,0.0,0.0,0.329999983311,-0.264999985695,0.0,-0.539999961853,-0.264999985695,0.0,-0.539999961853,0.264999985695,0.0,0.329999983311,0.264999985695,0.0
1449617834744739961,22,1449617834744532124,odom,0.477093547583,0.00504213571548,0.0,0.329902410507,-0.261528253555,0.0,-0.540048956871,-0.270722270012,0.0,-0.545649945736,0.259248137474,0.0,0.324301451445,0.268442153931,0.0
1449617834953255150,23,1449617834952381368,odom,0.480000168085,-3.04332297674e-05,0.0,0.330000162125,-0.265030413866,0.0,-0.539999783039,-0.265030413866,0.0,-0.539999783039,0.264969557524,0.0,0.330000162125,0.264969557524,0.0
1449617835152613140,24,1449617835151238405,odom,0.480000168085,-3.04332297674e-05,0.0,0.330000162125,-0.265030413866,0.0,-0.539999783039,-0.265030413866,0.0,-0.539999783039,0.264969557524,0.0,0.330000162125,0.264969557524,0.0
1449617835327633041,25,1449617835327351712,odom,0.480000168085,-3.04332297674e-05,0.0,0.330000162125,-0.265030413866,0.0,-0.539999783039,-0.265030413866,0.0,-0.539999783039,0.264969557524,0.0,0.330000162125,0.264969557524,0.0
1449617835545140170,26,1449617835544729168,odom,0.480000168085,-3.04332297674e-05,0.0,0.330000162125,-0.265030413866,0.0,-0.539999783039,-0.265030413866,0.0,-0.539999783039,0.264969557524,0.0,0.330000162125,0.264969557524,0.0
1449617835790994090,27,1449617835790857317,odom,0.480000168085,-3.04332297674e-05,0.0,0.330000162125,-0.265030413866,0.0,-0.539999783039,-0.265030413866,0.0,-0.539999783039,0.264969557524,0.0,0.330000162125,0.264969557524,0.0
1449617835921397309,28,1449617835918950932,odom,0.480000168085,-3.04332297674e-05,0.0,0.330000162125,-0.265030413866,0.0,-0.539999783039,-0.265030413866,0.0,-0.539999783039,0.264969557524,0.0,0.330000162125,0.264969557524,0.0
1449617836145180252,29,1449617836144903305,odom,0.477093726397,0.00501170242205,0.0,0.329902559519,-0.261558681726,0.0,-0.540048778057,-0.270752698183,0.0,-0.545649766922,0.259217679501,0.0,0.324301600456,0.26841172576,0.0
1449617836341571545,30,1449617836341270283,odom,0.479999989271,0.0,0.0,0.329999983311,-0.264999985695,0.0,-0.539999961853,-0.264999985695,0.0,-0.539999961853,0.264999985695,0.0,0.329999983311,0.264999985695,0.0
1449617836534901670,31,1449617836534275624,odom,0.479999989271,0.0,0.0,0.329999983311,-0.264999985695,0.0,-0.539999961853,-0.264999985695,0.0,-0.539999961853,0.264999985695,0.0,0.329999983311,0.264999985695,0.0
1449617836727039808,32,1449617836726764600,odom,0.479999989271,0.0,0.0,0.329999983311,-0.264999985695,0.0,-0.539999961853,-0.264999985695,0.0,-0.539999961853,0.264999985695,0.0,0.329999983311,0.264999985695,0.0
1449617836969000171,33,1449617836968530882,odom,0.479999989271,0.0,0.0,0.329999983311,-0.264999985695,0.0,-0.539999961853,-0.264999985695,0.0,-0.539999961853,0.264999985695,0.0,0.329999983311,0.264999985695,0.0
1449617837319797481,34,1449617837311030027,odom,0.479999989271,0.0,0.0,0.329999983311,-0.264999985695,0.0,-0.539999961853,-0.264999985695,0.0,-0.539999961853,0.264999985695,0.0,0.329999983311,0.264999985695,0.0
1449617837647881930,35,1449617837647528671,odom,0.479999989271,0.0,0.0,0.329999983311,-0.264999985695,0.0,-0.539999961853,-0.264999985695,0.0,-0.539999961853,0.264999985695,0.0,0.329999983311,0.264999985695,0.0
1449617837908132536,36,1449617837906257006,odom,0.488612085581,0.00516386842355,0.0,0.341420948505,-0.261406511068,0.0,-0.528530418873,-0.270600527525,0.0,-0.534131407738,0.259369850159,0.0,0.335819989443,0.268563896418,0.0
1449617838323444360,37,1449617838308302627,odom,0.505671441555,0.015702335164,0.0,0.364147007465,-0.253919303417,0.0,-0.505415737629,-0.281497299671,0.0,-0.522216141224,0.248236343265,0.0,0.347346633673,0.275814324617,0.0
1449617838521572677,38,1449617838520775447,odom,0.519874453545,0.0212583485991,0.0,0.381207257509,-0.249843850732,0.0,-0.488015502691,-0.286609709263,0.0,-0.510413110256,0.242916807532,0.0,0.358809679747,0.279682666063,0.0
1449617839113836517,39,1449617839112077240,odom,0.567870259285,0.0391571298242,0.0,0.437866359949,-0.236204430461,0.0,-0.429754137993,-0.300505161285,0.0,-0.468925833702,0.228045284748,0.0,0.39869466424,0.292346030474,0.0
1449617839457961407,40,1449617839457020506,odom,0.653075039387,0.0568037703633,0.0,0.528919816017,-0.221243843436,0.0,-0.337147951126,-0.303866952658,0.0,-0.387481570244,0.223737537861,0.0,0.478586196899,0.306360661983,0.0
1449617839708646797,41,1449617839708300817,odom,0.706989645958,0.0675014108419,0.0,0.585779726505,-0.211842745543,0.0,-0.27936655283,-0.303613722324,0.0,-0.335272997618,0.22342941165,0.0,0.529873251915,0.315200388432,0.0
1449617839872297160,42,1449617839872076265,odom,0.758513152599,0.0731810256839,0.0,0.637303173542,-0.20616312325,0.0,-0.227843046188,-0.297934085131,0.0,-0.283749520779,0.229109033942,0.0,0.581396758556,0.320879995823,0.0
1449617840078255637,43,1449617840077685418,odom,0.815764069557,0.0794681832194,0.0,0.694554150105,-0.199875965714,0.0,-0.170592099428,-0.291646927595,0.0,-0.226498559117,0.235396191478,0.0,0.638647675514,0.327167153358,0.0
1449617840297861168,44,1449617840294483820,odom,0.870725989342,0.0797688290477,0.0,0.746570765972,-0.198278784752,0.0,-0.119496978819,-0.280901908875,0.0,-0.169830590487,0.246702596545,0.0,0.696237146854,0.329325705767,0.0
1449617840458329161,45,1449617840457822436,odom,0.923240423203,0.0739461034536,0.0,0.793236494064,-0.201415449381,0.0,-0.0743839889765,-0.265716165304,0.0,-0.113555699587,0.262834250927,0.0,0.754064798355,0.327134996653,0.0
1449617840738138054,46,1449617840737313224,odom,0.98390930891,0.0732033103704,0.0,0.851002693176,-0.200769007206,0.0,-0.0172489024699,-0.255897253752,0.0,-0.0508327819407,0.273037612438,0.0,0.817418813705,0.328165888786,0.0
1449617840923050283,47,1449617840919073606,odom,1.03621280193,0.0657188668847,0.0,0.897545516491,-0.205383330584,0.0,0.0283227805048,-0.242149189115,0.0,0.00592519016936,0.287377327681,0.0,0.875147938728,0.32414317131,0.0
1449617841092991209,48,1449617841092790385,odom,1.08533287048,0.0621406808496,0.0,0.943808436394,-0.207480967045,0.0,0.0742456689477,-0.235058948398,0.0,0.0574452877045,0.294674694538,0.0,0.927008032799,0.322252690792,0.0
1449617841237832705,49,1449617841237424316,odom,1.14028513432,0.0474425815046,0.0,0.990285158157,-0.217557415366,0.0,0.120285198092,-0.217557415366,0.0,0.120285198092,0.312442570925,0.0,0.990285158157,0.312442570925,0.0
1449617841528131017,50,1449617841525975627,odom,1.19200801849,0.0365372039378,0.0,1.0364408493,-0.22523342073,0.0,0.166635170579,-0.206846386194,0.0,0.177836462855,0.323035210371,0.0,1.04764211178,0.304648190737,0.0
1449617841688414413,51,1449617841688233445,odom,1.24348425865,0.0244194734842,0.0,1.08241939545,-0.234004840255,0.0,0.213196665049,-0.197238996625,0.0,0.235594257712,0.33228752017,0.0,1.10481703281,0.29552167654,0.0
1449617841875826733,52,1449617841875650276,odom,1.29721951485,0.00600380916148,0.0,1.12804389,-0.247185081244,0.0,0.260423392057,-0.182884350419,0.0,0.299595117569,0.345666080713,0.0,1.16721558571,0.28136536479,0.0
1449617842117259183,53,1449617842115447251,odom,1.34800446033,-0.00857316423208,0.0,1.17351567745,-0.258130043745,0.0,0.307447880507,-0.175506934524,0.0,0.357781499624,0.352097570896,0.0,1.22384929657,0.269474446774,0.0
1449617842246699671,54,1449617842246177445,odom,1.39848351479,-0.0240992121398,0.0,1.21875941753,-0.26991263032,0.0,0.354631245136,-0.169004037976,0.0,0.416104316711,0.357418864965,0.0,1.2802324295,0.256510257721,0.0
1449617842463738459,55,1449617842463150309,odom,1.44289505482,-0.0400810241699,0.0,1.25801587105,-0.28204113245,0.0,0.396213442087,-0.1628921628,0.0,0.468798458576,0.362113952637,0.0,1.33060085773,0.242964953184,0.0
1449617842659346850,56,1449617842656686029,odom,1.48128819466,-0.0559680946171,0.0,1.29133665562,-0.293966829777,0.0,0.432244807482,-0.156630679965,0.0,0.51590937376,0.366724103689,0.0,1.37500119209,0.229387938976,0.0
1449617842847678437,57,1449617842847434569,odom,1.51741802692,-0.0669424980879,0.0,1.32496190071,-0.30292057991,0.0,0.467369437218,-0.156513333321,0.0,0.55656003952,0.365928083658,0.0,1.41415250301,0.219520837069,0.0
1449617843060933977,58,1449617843060182493,odom,1.54960024357,-0.0831293016672,0.0,1.35219979286,-0.31498721242,0.0,0.497893154621,-0.150487855077,0.0,0.598105430603,0.369951874018,0.0,1.45241212845,0.205452516675,0.0
1449617843269658253,59,1449617843266862608,odom,1.58537590504,-0.0951837599277,0.0,1.38553619385,-0.324942618608,0.0,0.533015668392,-0.151424258947,0.0,0.638722240925,0.367927372456,0.0,1.49124288559,0.194409012794,0.0
1449617843444932544,60,1449617843444218071,odom,1.6170412302,-0.112322986126,0.0,1.4123904705,-0.337806999683,0.0,0.563727557659,-0.146309792995,0.0,0.680386781693,0.370691776276,0.0,1.52904963493,0.179194554687,0.0
1449617843663886772,61,1449617843662918608,odom,1.64675140381,-0.124445445836,0.0,1.43972909451,-0.347754150629,0.0,0.593137323856,-0.147299095988,0.0,0.715253651142,0.368440747261,0.0,1.56184542179,0.167985707521,0.0
1449617843855911192,62,1449617843855655841,odom,1.67631745338,-0.136940360069,0.0,1.46694684029,-0.358048826456,0.0,0.622520685196,-0.148658290505,0.0,0.75008046627,0.365762263536,0.0,1.59450662136,0.156371727586,0.0
1449617844067516578,63,1449617844066013693,odom,1.70164811611,-0.153986901045,0.0,1.4876512289,-0.370621025562,0.0,0.647839069366,-0.14343072474,0.0,0.786242365837,0.368179023266,0.0,1.62605452538,0.140988722444,0.0
1449617844243666425,64,1449617844243278460,odom,1.72530829906,-0.165674000978,0.0,1.50903403759,-0.380034536123,0.0,0.671669661999,-0.143981918693,0.0,0.815471827984,0.366136610508,0.0,1.65283620358,0.130083993077,0.0
1449617844475602031,65,1449617844474491317,odom,1.74748241901,-0.171924889088,0.0,1.53120815754,-0.386285424232,0.0,0.693843781948,-0.150232791901,0.0,0.837645947933,0.359885752201,0.0,1.67501032352,0.123833119869,0.0
1449617844662661351,66,1449617844662386295,odom,1.76672422886,-0.188173651695,0.0,1.54596793652,-0.397915452719,0.0,0.713779449463,-0.14421826601,0.0,0.868330597878,0.362747132778,0.0,1.70051908493,0.10904994607,0.0
1449617844866175090,67,1449617844864341271,odom,1.78450155258,-0.198896214366,0.0,1.56154096127,-0.406293392181,0.0,0.732080042362,-0.143815904856,0.0,0.891980111599,0.361487925053,0.0,1.7214410305,0.0990104451776,0.0
1449617845062817053,68,1449617845062595285,odom,1.8021645546,-0.209806025028,0.0,1.57702469826,-0.414835393429,0.0,0.750383853912,-0.143606975675,0.0,0.915614962578,0.359978824854,0.0,1.74225580692,0.0887503996491,0.0
1449617845430507944,69,1449617845429814916,odom,1.81860089302,-0.215134873986,0.0,1.59346103668,-0.420164257288,0.0,0.766820132732,-0.148935809731,0.0,0.932051301003,0.354649990797,0.0,1.75869214535,0.0834215655923,0.0
1449617845582499439,70,1449617845580811427,odom,1.83499920368,-0.220579370856,0.0,1.60985934734,-0.425608754158,0.0,0.783218502998,-0.154380306602,0.0,0.948449611664,0.349205493927,0.0,1.77509045601,0.0779770612717,0.0
1449617845835036773,71,1449617845832879222,odom,1.84701550007,-0.23005284369,0.0,1.61972153187,-0.432691544294,0.0,0.795993149281,-0.152742415667,0.0,0.966536819935,0.3490691185,0.0,1.79026520252,0.0691200196743,0.0
1449617846075874757,72,1449617846074140407,odom,1.85351788998,-0.237684518099,0.0,1.62409508228,-0.43790987134,0.0,0.803371191025,-0.149271354079,0.0,0.979208469391,0.350709885359,0.0,1.79993236065,0.0620713718235,0.0
1449617846207597112,73,1449617846207412117,odom,1.86537253857,-0.247295320034,0.0,1.63384664059,-0.445084989071,0.0,0.816218912601,-0.147789299488,0.0,0.997330069542,0.35030579567,0.0,1.81495785713,0.0530101135373,0.0
1449617846344400188,74,1449617846343225278,odom,1.87079572678,-0.249234825373,0.0,1.6392698288,-0.44702449441,0.0,0.821642041206,-0.149728804827,0.0,1.00275313854,0.348366290331,0.0,1.82038092613,0.0510706081986,0.0
1449617846468631396,75,1449617846468129998,odom,1.88162147999,-0.253171145916,0.0,1.65009558201,-0.450960814953,0.0,0.832467734814,-0.15366512537,0.0,1.01357889175,0.344429969788,0.0,1.83120667934,0.0471342839301,0.0
1449617846655106366,76,1449617846654510000,odom,1.88797163963,-0.260909974575,0.0,1.65436840057,-0.456241875887,0.0,0.839928090572,-0.15032222867,0.0,1.02629292011,0.345831096172,0.0,1.84073328972,0.0399114526808,0.0
1449617846831842446,77,1449617846831531528,odom,1.8987762928,-0.264903396368,0.0,1.66517305374,-0.46023529768,0.0,0.85073274374,-0.154315635562,0.0,1.03709757328,0.341837704182,0.0,1.85153794289,0.0359180346131,0.0
1449617847069709686,78,1449617847066834449,odom,1.90505480766,-0.272680372,0.0,1.66940045357,-0.465532690287,0.0,0.858238518238,-0.151023223996,0.0,1.04983627796,0.343132942915,0.0,1.86099815369,0.0286234766245,0.0
1449617847251421051,79,1449617847249207047,odom,1.91494047642,-0.271007478237,0.0,1.68133723736,-0.466339379549,0.0,0.866896867752,-0.160419717431,0.0,1.0532617569,0.335733622313,0.0,1.8677021265,0.0298139546067,0.0
1449617847477879385,80,1449617847477561068,odom,1.92032134533,-0.273061186075,0.0,1.68671810627,-0.468393057585,0.0,0.872277796268,-0.162473410368,0.0,1.05864262581,0.333679914474,0.0,1.87308299541,0.0277602672577,0.0
1449617847712998361,81,1449617847712832557,odom,1.92119765282,-0.278841435909,0.0,1.68554317951,-0.471693724394,0.0,0.874381244183,-0.157184273005,0.0,1.06597900391,0.336971879005,0.0,1.87714099884,0.0224624164402,0.0
1449617847876888193,82,1449617847876489891,odom,1.92119765282,-0.278841435909,0.0,1.68554317951,-0.471693724394,0.0,0.874381244183,-0.157184273005,0.0,1.06597900391,0.336971879005,0.0,1.87714099884,0.0224624164402,0.0
1449617848086328429,83,1449617848084119320,odom,1.92655646801,-0.280951857567,0.0,1.69090211391,-0.473804175854,0.0,0.879740178585,-0.159294709563,0.0,1.07133793831,0.334861427546,0.0,1.88249981403,0.0203519780189,0.0
1449617848323281962,84,1449617848322875736,odom,1.92655646801,-0.280951857567,0.0,1.69090211391,-0.473804175854,0.0,0.879740178585,-0.159294709563,0.0,1.07133793831,0.334861427546,0.0,1.88249981403,0.0203519780189,0.0
1449617848510935435,85,1449617848510648030,odom,1.92655646801,-0.280951857567,0.0,1.69090211391,-0.473804175854,0.0,0.879740178585,-0.159294709563,0.0,1.07133793831,0.334861427546,0.0,1.88249981403,0.0203519780189,0.0
1449617848660473728,86,1449617848659177407,odom,1.92655646801,-0.280951857567,0.0,1.69090211391,-0.473804175854,0.0,0.879740178585,-0.159294709563,0.0,1.07133793831,0.334861427546,0.0,1.88249981403,0.0203519780189,0.0
1449617848917071495,87,1449617848916866568,odom,1.92655646801,-0.280951857567,0.0,1.69090211391,-0.473804175854,0.0,0.879740178585,-0.159294709563,0.0,1.07133793831,0.334861427546,0.0,1.88249981403,0.0203519780189,0.0
1449617849028363040,88,1449617849027936448,odom,1.92655646801,-0.280951857567,0.0,1.69090211391,-0.473804175854,0.0,0.879740178585,-0.159294709563,0.0,1.07133793831,0.334861427546,0.0,1.88249981403,0.0203519780189,0.0
1449617849247847740,89,1449617849247639929,odom,1.92655646801,-0.280951857567,0.0,1.69090211391,-0.473804175854,0.0,0.879740178585,-0.159294709563,0.0,1.07133793831,0.334861427546,0.0,1.88249981403,0.0203519780189,0.0
1449617849475494341,90,1449617849474644263,odom,1.92737162113,-0.2867410779,0.0,1.68969237804,-0.47709223628,0.0,0.881899416447,-0.154028102756,0.0,1.07870864868,0.33807566762,0.0,1.88650155067,0.0150115387514,0.0
1449617849670955895,91,1449617849670237344,odom,1.92737162113,-0.2867410779,0.0,1.68969237804,-0.47709223628,0.0,0.881899416447,-0.154028102756,0.0,1.07870864868,0.33807566762,0.0,1.88650155067,0.0150115387514,0.0
1449617849877631679,92,1449617849877456951,odom,1.92737162113,-0.2867410779,0.0,1.68969237804,-0.47709223628,0.0,0.881899416447,-0.154028102756,0.0,1.07870864868,0.33807566762,0.0,1.88650155067,0.0150115387514,0.0
1449617850076756662,93,1449617850075601167,odom,1.92737162113,-0.2867410779,0.0,1.68969237804,-0.47709223628,0.0,0.881899416447,-0.154028102756,0.0,1.07870864868,0.33807566762,0.0,1.88650155067,0.0150115387514,0.0
1449617850273814410,94,1449617850269147197,odom,1.92737162113,-0.2867410779,0.0,1.68969237804,-0.47709223628,0.0,0.881899416447,-0.154028102756,0.0,1.07870864868,0.33807566762,0.0,1.88650155067,0.0150115387514,0.0
1449617850464646604,95,1449617850464304746,odom,1.93191540241,-0.283062309027,0.0,1.69626104832,-0.475914597511,0.0,0.885099112988,-0.161405146122,0.0,1.0766967535,0.332751005888,0.0,1.88785874844,0.0182415414602,0.0
1449617850721117326,96,1449617850719892621,odom,1.93191540241,-0.283062309027,0.0,1.69626104832,-0.475914597511,0.0,0.885099112988,-0.161405146122,0.0,1.0766967535,0.332751005888,0.0,1.88785874844,0.0182415414602,0.0
1449617850891531374,97,1449617850884638194,odom,1.93191540241,-0.283062309027,0.0,1.69626104832,-0.475914597511,0.0,0.885099112988,-0.161405146122,0.0,1.0766967535,0.332751005888,0.0,1.88785874844,0.0182415414602,0.0
1449617851206666005,98,1449617851205632428,odom,1.93729639053,-0.285115987062,0.0,1.70164191723,-0.477968305349,0.0,0.890479981899,-0.163458839059,0.0,1.08207774162,0.33069729805,0.0,1.89323973656,0.0161878541112,0.0
1449617851386305948,99,1449617851372836412,odom,1.96150612831,-0.277759373188,0.0,1.73208332062,-0.477984726429,0.0,0.911359429359,-0.189346209168,0.0,1.08719670773,0.31063503027,0.0,1.90792059898,0.0219965167344,0.0
1449617851513403383,100,1449617851513104028,odom,1.98764371872,-0.281477749348,0.0,1.76034975052,-0.484116435051,0.0,0.936621367931,-0.204167321324,0.0,1.10716509819,0.297644227743,0.0,1.93089342117,0.0176951177418,0.0
1449617851834482234,101,1449617851831624139,odom,2.01272463799,-0.278933674097,0.0,1.78976416588,-0.486330866814,0.0,0.96030318737,-0.223853379488,0.0,1.12020325661,0.28145045042,0.0,1.94966423512,0.01897296682,0.0
1449617852164498360,102,1449617852162964533,odom,2.08339381218,-0.272823065519,0.0,1.87169837952,-0.491706550121,0.0,1.02953207493,-0.273403972387,0.0,1.16252112389,0.23963983357,0.0,2.00468730927,0.0213372260332,0.0
1449617852429475411,103,1449617852428265536,odom,2.13616085052,-0.275392472744,0.0,1.92913866043,-0.498701184988,0.0,1.08254683018,-0.298246115446,0.0,1.20466315746,0.217493727803,0.0,2.05125498772,0.0170386657119,0.0
1449617852690261411,104,1449617852689974865,odom,2.15911531448,-0.264878749847,0.0,1.95927584171,-0.494637608528,0.0,1.10675525665,-0.321119248867,0.0,1.21246182919,0.198232367635,0.0,2.06498241425,0.0247140228748,0.0
1449617853140740423,105,1449617853129676719,odom,2.19867968559,-0.256969302893,0.0,2.00622367859,-0.492947399616,0.0,1.1486312151,-0.346540153027,0.0,1.2378218174,0.175901263952,0.0,2.09541416168,0.0294940173626,0.0
1449617853400843465,106,1449617853398011711,odom,2.25760483742,-0.228817597032,0.0,2.08311605453,-0.478374481201,0.0,1.21704828739,-0.395751357079,0.0,1.26738190651,0.13185313344,0.0,2.13344979286,0.0492300242186,0.0
1449617853614163435,107,1449617853614023473,odom,2.34028768539,-0.181018516421,0.0,2.19309639931,-0.447588890791,0.0,1.32314515114,-0.45678293705,0.0,1.31754410267,0.0731874704361,0.0,2.18749547005,0.0823815017939,0.0
1449617853835084710,108,1449617853832923059,odom,2.39561247826,-0.136857107282,0.0,2.27145719528,-0.414904743433,0.0,1.40538954735,-0.497527837753,0.0,1.35505592823,0.0300766620785,0.0,2.22112369537,0.112699776888,0.0
1449617854100394721,109,1449617854093882132,odom,2.4527387619,-0.0875739604235,0.0,2.35250639915,-0.375112593174,0.0,1.49650895596,-0.530574560165,0.0,1.40180230141,-0.00910489074886,0.0,2.2577996254,0.146357089281,0.0
1449617854237730337,110,1449617854237113484,odom,2.49697184563,-0.0466794669628,0.0,2.41516113281,-0.339991569519,0.0,1.57073485851,-0.549382090569,0.0,1.44317519665,-0.0349615328014,0.0,2.28760123253,0.174428984523,0.0
1449617854488025276,111,1449617854486515338,odom,2.53732824326,-0.00892301555723,0.0,2.47112321854,-0.306146621704,0.0,1.63893461227,-0.559843838215,0.0,1.48438346386,-0.0528784058988,0.0,2.31657195091,0.200818791986,0.0
1449617854741455323,112,1449617854739316383,odom,2.56925106049,0.0230966750532,0.0,2.51566553116,-0.276659220457,0.0,1.69494175911,-0.565297722816,0.0,1.51910448074,-0.0653164833784,0.0,2.33982825279,0.223322033882,0.0
1449617855316456569,113,1449617855312117769,odom,2.6391556263,0.0891566798091,0.0,2.60787129402,-0.213739812374,0.0,1.81072497368,-0.562247693539,0.0,1.59841561317,-0.0766298398376,0.0,2.39556193352,0.271878033876,0.0
1449617855537214507,114,1449617855534660030,odom,2.68792557716,0.127948135138,0.0,2.66625833511,-0.175787821412,0.0,1.88055992126,-0.549389183521,0.0,1.65296375751,-0.070745319128,0.0,2.43866205215,0.30285602808,0.0
1449617855741325362,115,1449617855739131885,odom,2.70906352997,0.143784686923,0.0,2.69060754776,-0.160163283348,0.0,1.9089012146,-0.542046904564,0.0,1.67625939846,-0.0658349916339,0.0,2.45796585083,0.316048651934,0.0
1449617855962719040,116,1449617855961004710,odom,2.73489832878,0.156507268548,0.0,2.71644234657,-0.147440701723,0.0,1.93473601341,-0.529324352741,0.0,1.70209419727,-0.0531124100089,0.0,2.48380064964,0.328771233559,0.0
1449617856211377297,117,1449617856211066004,odom,2.74520802498,0.161645397544,0.0,2.72675204277,-0.142302587628,0.0,1.9450455904,-0.524186193943,0.0,1.71240377426,-0.0479742847383,0.0,2.49411010742,0.333909362555,0.0
1449617856816027915,118,1449617856815543734,odom,2.79134368896,0.178673818707,0.0,2.76967644691,-0.125062137842,0.0,1.98397815228,-0.49866348505,0.0,1.75638198853,-0.0200196299702,0.0,2.54208040237,0.353581726551,0.0
1449617857113763655,119,1449617857106838668,odom,2.8624522686,0.181685820222,0.0,2.82477331161,-0.120481841266,0.0,2.02043962479,-0.452064573765,0.0,1.81844091415,0.0379318743944,0.0,2.6227748394,0.369514614344,0.0
1449617857391264986,120,1449617857388598244,odom,2.92904877663,0.185158759356,0.0,2.87863397598,-0.115146674216,0.0,2.0610063076,-0.412442356348,0.0,1.87989509106,0.0856527388096,0.0,2.69752287865,0.382948428392,0.0
1449617857896956007,121,1449617857892475681,odom,3.06235694885,0.183769971132,0.0,2.98676347733,-0.111205644906,0.0,2.14695119858,-0.338395953178,0.0,2.00854802132,0.173213794827,0.0,2.84836006165,0.40040409565,0.0
1449617858317844542,122,1449617858316350848,odom,3.11510181427,0.186867460608,0.0,3.03329086304,-0.106444627047,0.0,2.18886470795,-0.315835148096,0.0,2.06130504608,0.198585405946,0.0,2.90573120117,0.407975912094,0.0
1449617858510755704,123,1449617858509666747,odom,3.19440102577,0.189036503434,0.0,3.10333371162,-0.101534873247,0.0,2.25269436836,-0.284052848816,0.0,2.14150524139,0.234152689576,0.0,2.99214458466,0.416670650244,0.0
1449617858619951249,124,1449617858619607626,odom,3.25110769272,0.184334918857,0.0,3.15087532997,-0.103203706443,0.0,2.29487800598,-0.258665680885,0.0,2.20017123222,0.26280400157,0.0,3.05616855621,0.418265968561,0.0
1449617858744502622,125,1449617858732088974,odom,3.29454755783,0.186728447676,0.0,3.19128203392,-0.0997348874807,0.0,2.33368968964,-0.246142119169,0.0,2.24449896812,0.276299268007,0.0,3.10209155083,0.422706514597,0.0
1449617859013121221,126,1449617859010724078,odom,3.33598327637,0.182924389839,0.0,3.22668647766,-0.101292490959,0.0,2.36619138718,-0.229542225599,0.0,2.28806233406,0.294667482376,0.0,3.14855742455,0.422917217016,0.0
1449617859194518460,127,1449617859190306062,odom,3.38300132751,0.179275423288,0.0,3.26772212982,-0.102568045259,0.0,2.40470862389,-0.212602972984,0.0,2.33767604828,0.313140869141,0.0,3.2006893158,0.423175811768,0.0
1449617859380069963,128,1449617859378268613,odom,3.44936561584,0.182224467397,0.0,3.33111453056,-0.0983850061893,0.0,2.46698641777,-0.199293598533,0.0,2.40551328659,0.327129304409,0.0,3.26964139938,0.428037881851,0.0
1449617859651154225,129,1449617859650794322,odom,3.50771951675,0.178120523691,0.0,3.38356423378,-0.0999270901084,0.0,2.51749658585,-0.18255020678,0.0,2.46716284752,0.345054298639,0.0,3.33323049545,0.427677422762,0.0
1449617860034517971,130,1449617860032198011,odom,3.52492022514,0.179761484265,0.0,3.40076494217,-0.0982861444354,0.0,2.53469705582,-0.180909261107,0.0,2.48436355591,0.346695244312,0.0,3.35043120384,0.429318368435,0.0
1449617860254080398,131,1449617860236105823,odom,3.59947276115,0.18669039011,0.0,3.47531747818,-0.0913572311401,0.0,2.60924983025,-0.173980340362,0.0,2.55891609192,0.353624165058,0.0,3.42498397827,0.436247289181,0.0
1449617860465944453,132,1449617860465564539,odom,3.63964319229,0.190125226974,0.0,3.51548790932,-0.0879223942757,0.0,2.64942002296,-0.170545503497,0.0,2.59908652306,0.357059001923,0.0,3.46515417099,0.439682126045,0.0
1449617860716839367,133,1449617860716499114,odom,3.69126963615,0.194775268435,0.0,3.56711435318,-0.0832723453641,0.0,2.70104670525,-0.165895462036,0.0,2.65071296692,0.361709058285,0.0,3.51678085327,0.444332152605,0.0
1449617860809391392,134,1449617860808939035,odom,3.71420383453,0.196963205934,0.0,3.59004855156,-0.0810844153166,0.0,2.72398090363,-0.163707524538,0.0,2.6736471653,0.363896965981,0.0,3.53971505165,0.446520090103,0.0
1449617860992455915,135,1449617860992097006,odom,3.74519944191,0.205321505666,0.0,3.62398958206,-0.0740226432681,0.0,2.75884342194,-0.165793612599,0.0,2.70293688774,0.361249506474,0.0,3.56808304787,0.453020483255,0.0
1449617861239100232,136,1449617861226873637,odom,3.77612876892,0.213795170188,0.0,3.65787744522,-0.0668142959476,0.0,2.79374933243,-0.16772288084,0.0,2.73227643967,0.3587000072,0.0,3.59640455246,0.459608584642,0.0
1449617861397815804,137,1449617861395210725,odom,3.83199644089,0.230992227793,0.0,3.7197022438,-0.0520537532866,0.0,2.85789966583,-0.171202734113,0.0,2.78531479836,0.353803366423,0.0,3.64711713791,0.472952336073,0.0
1449617861678183041,138,1449617861673103240,odom,3.87606811523,0.24784873426,0.0,3.76978111267,-0.0375072993338,0.0,2.91068935394,-0.174843460321,0.0,2.82702493668,0.348511338234,0.0,3.6861166954,0.485847473145,0.0
1449617861896873502,139,1449617861894464087,odom,3.93301272392,0.273161888123,0.0,3.83582448959,-0.0154199153185,0.0,2.98151779175,-0.17991925776,0.0,2.88130569458,0.340520441532,0.0,3.73561239243,0.505019783974,0.0
1449617862171225057,140,1449617862169343785,odom,3.97052502632,0.290994852781,0.0,3.87945771217,0.0004234657099,0.0,3.02881836891,-0.182094499469,0.0,2.91762924194,0.336111009121,0.0,3.76826858521,0.518629014492,0.0
1449617862380596533,141,1449617862366862975,odom,4.04434967041,0.329137474298,0.0,3.9656431675,0.0349772050977,0.0,3.12347698212,-0.183325394988,0.0,2.99048805237,0.329718381166,0.0,3.83265423775,0.548021018505,0.0
1449617862534567895,142,1449617862533886623,odom,4.08752918243,0.356677263975,0.0,4.01818656921,0.0601699054241,0.0,3.18336343765,-0.184718683362,0.0,3.03417849541,0.323851704597,0.0,3.86900162697,0.568740308285,0.0
1449617862708445502,143,1449617862708156795,odom,4.11212491989,0.374749690294,0.0,4.04906415939,0.0768430382013,0.0,3.21960330009,-0.185634434223,0.0,3.05970335007,0.319669395685,0.0,3.88916420937,0.582146883011,0.0
1449617862973006438,144,1449617862965206492,odom,4.15279626846,0.398579537868,0.0,4.09604597092,0.0994066819549,0.0,3.27231788635,-0.180542424321,0.0,3.10177397728,0.321269124746,0.0,3.92550253868,0.601218223572,0.0
1449617863167426666,145,1449617863167196344,odom,4.21076059341,0.441406339407,0.0,4.16670370102,0.140102490783,0.0,3.35554170609,-0.174406960607,0.0,3.16394400597,0.319749206305,0.0,3.9751060009,0.634258627892,0.0
1449617863387792871,146,1449617863386921116,odom,4.24439191818,0.465881466866,0.0,4.20671319962,0.163713812828,0.0,3.40237927437,-0.167868927121,0.0,3.20038056374,0.322127521038,0.0,4.00471448898,0.653710246086,0.0
1449617863521827384,147,1449617863521527087,odom,4.28896045685,0.507709205151,0.0,4.26408433914,0.204219177365,0.0,3.47448182106,-0.161058172584,0.0,3.25195646286,0.319964170456,0.0,4.04155921936,0.685241520405,0.0
1449617863992056810,148,1449617863990703142,odom,4.30501127243,0.52095836401,0.0,4.2833442688,0.217222422361,0.0,3.49764585495,-0.156378924847,0.0,3.27004957199,0.322264939547,0.0,4.05574798584,0.695866286755,0.0
1449617864319924749,149,1449617864316220021,odom,4.42845153809,0.626683473587,0.0,4.429292202,0.322176814079,0.0,3.67335534096,-0.108472824097,0.0,3.41100549698,0.352040559053,0.0,4.16694259644,0.782690227032,0.0
1449617864509795213,150,1449617864505954364,odom,4.47296905518,0.664665579796,0.0,4.48024511337,0.360244691372,0.0,3.73357844353,-0.0862851217389,0.0,3.46155452728,0.368580758572,0.0,4.20822143555,0.815110564232,0.0
1449617864731435339,151,1449617864731015816,odom,4.53675746918,0.709432840347,0.0,4.54725074768,0.405105859041,0.0,3.8053445816,-0.0492896921933,0.0,3.52852892876,0.402676075697,0.0,4.27043485641,0.857071638107,0.0
1449617864840042074,152,1449617864839824094,odom,4.57041883469,0.742480874062,0.0,4.58734130859,0.438443630934,0.0,3.85520458221,-0.0315302610397,0.0,3.56889867783,0.414484202862,0.0,4.30103540421,0.884458065033,0.0
1449617865041923853,153,1449617865040371651,odom,4.60919427872,0.767371475697,0.0,4.62611675262,0.463334262371,0.0,3.89397978783,-0.00663963751867,0.0,3.60767388344,0.439374834299,0.0,4.33981084824,0.909348726273,0.0
1449617865277637017,154,1449617865273885195,odom,4.64696359634,0.804285883904,0.0,4.67030763626,0.500674247742,0.0,3.94826722145,0.0153319686651,0.0,3.65259885788,0.455195873976,0.0,4.37463951111,0.940538167953,0.0
1449617865427371832,155,1449617865423010934,odom,4.68469047546,0.835867464542,0.0,4.71124219894,0.532519459724,0.0,3.99437093735,0.0395738370717,0.0,3.69407057762,0.476288586855,0.0,4.41094207764,0.96923416853,0.0
1449617865741564629,156,1449617865739238538,odom,4.72665405273,0.871359169483,0.0,4.75640964508,0.568308711052,0.0,4.04478788376,0.0678148344159,0.0,3.73988938332,0.501331686974,0.0,4.45151138306,1.00182557106,0.0
1449617866079705069,157,1449617866076354244,odom,4.78054618835,0.957468628883,0.0,4.83261871338,0.657446205616,0.0,4.15993404388,0.105725996196,0.0,3.82382845879,0.515522480011,0.0,4.4965133667,1.06724262238,0.0
1449617866345921754,158,1449617866343226631,odom,4.80960559845,1.01629364491,0.0,4.87745094299,0.719440281391,0.0,4.2348446846,0.132961854339,0.0,3.87756490707,0.524434745312,0.0,4.52017116547,1.11091315746,0.0
1449617866563712564,159,1449617866563462806,odom,4.8321146965,1.05127155781,0.0,4.90621900558,0.755918323994,0.0,4.27615118027,0.155989706516,0.0,3.91067743301,0.539824187756,0.0,4.54074525833,1.13975286484,0.0
1449617866725698756,160,1449617866723789882,odom,4.85013866425,1.09850120544,0.0,4.93665838242,0.806543469429,0.0,4.33250617981,0.180524379015,0.0,3.95113825798,0.548571169376,0.0,4.55529069901,1.1745903492,0.0
1449617866955643686,161,1449617866955187736,odom,4.86035776138,1.14770019054,0.0,4.96217679977,0.860719501972,0.0,4.39193105698,0.203665420413,0.0,3.99165678024,0.551056325436,0.0,4.5619020462,1.2081104517,0.0
1449617867204924745,162,1449617867200904770,odom,4.87752008438,1.22628688812,0.0,5.00027084351,0.947616457939,0.0,4.48014736176,0.250213205814,0.0,4.05529212952,0.567070186138,0.0,4.5754160881,1.26447343826,0.0
1449617867434607338,163,1449617867431150220,odom,4.88201379776,1.28634285927,0.0,5.02217626572,1.01601064205,0.0,4.54728937149,0.287050873041,0.0,4.10321044922,0.576349794865,0.0,4.57809734344,1.30530953407,0.0
1449617867613350240,164,1449617867613014100,odom,4.88281822205,1.31645572186,0.0,5.03147935867,1.05070245266,0.0,4.57993793488,0.307055592537,0.0,4.12691164017,0.582132399082,0.0,4.57845306396,1.3257791996,0.0
1449617867745450184,165,1449617867745114593,odom,4.88552522659,1.3614628315,0.0,5.04528427124,1.10222923756,0.0,4.62557268143,0.340164840221,0.0,4.16132640839,0.595851182938,0.0,4.5810379982,1.35791563988,0.0
1449617867964133570,166,1449617867960041964,odom,4.89483976364,1.41193318367,0.0,5.06273603439,1.15789401531,0.0,4.66739177704,0.382908195257,0.0,4.19527387619,0.62374997139,0.0,4.59061813354,1.39873576164,0.0
1449617868192657328,167,1449617868190633847,odom,4.90495872498,1.49324905872,0.0,5.0860376358,1.24843204021,0.0,4.7321767807,0.453647553921,0.0,4.24799776077,0.669217944145,0.0,4.60185861588,1.46400249004,0.0
1449617868353560952,168,1449617868348755862,odom,4.91294765472,1.52433693409,0.0,5.09660339355,1.28144717216,0.0,4.75116157532,0.482967525721,0.0,4.26473140717,0.693409144878,0.0,4.6101732254,1.49188888073,0.0
1449617868510264139,169,1449617868509923009,odom,4.92118835449,1.57085108757,0.0,5.10993671417,1.33189713955,0.0,4.78144741058,0.52629506588,0.0,4.29067850113,0.726409196854,0.0,4.61916780472,1.53201127052,0.0
1449617868801509441,170,1449617868793609908,odom,4.94493579865,1.66055238247,0.0,5.138692379,1.42564094067,0.0,4.8273024559,0.613276302814,0.0,4.3324136734,0.802973568439,0.0,4.6438035965,1.61533820629,0.0
1449617868956160136,171,1449617868950890739,odom,4.94720554352,1.68124127388,0.0,5.1434340477,1.44839048386,0.0,4.84064626694,0.632780492306,0.0,4.34378051758,0.817237257957,0.0,4.6465678215,1.63284730911,0.0
1449617869169167406,172,1449617869168049260,odom,4.96469211578,1.74536681175,0.0,5.16336965561,1.51460266113,0.0,4.86921834946,0.695838451385,0.0,4.37043094635,0.875034153461,0.0,4.6645822525,1.69379842281,0.0
1449617869403211808,173,1449617869402597280,odom,4.97771978378,1.79879212379,0.0,5.17882490158,1.5701406002,0.0,4.89334249496,0.748313486576,0.0,4.39268922806,0.922228038311,0.0,4.67817163467,1.74405515194,0.0
1449617869590321325,174,1449617869587452896,odom,4.98639583588,1.85663151741,0.0,5.19228887558,1.6322811842,0.0,4.92423915863,0.804604172707,0.0,4.4200220108,0.967898786068,0.0,4.68807172775,1.79557585716,0.0
1449617869786773605,175,1449617869777529471,odom,5.00256919861,1.90587937832,0.0,5.20846223831,1.6815290451,0.0,4.94041252136,0.853852033615,0.0,4.43619537354,1.01714670658,0.0,4.70424509048,1.84482371807,0.0
1449617870121711513,176,1449617870107582993,odom,5.02445745468,1.99259650707,0.0,5.23270988464,1.770434618,0.0,4.97342205048,0.939971029758,0.0,4.46750736237,1.09792804718,0.0,4.72679519653,1.92839157581,0.0
1449617870427161410,177,1449617870426981448,odom,5.04255437851,2.08939599991,0.0,5.25545549393,1.87168502808,0.0,5.01377677917,1.03592705727,0.0,4.50463676453,1.18315660954,0.0,4.74631547928,2.01891446114,0.0
1449617870625660599,178,1449617870624136095,odom,5.05695390701,2.13919210434,0.0,5.26985502243,1.92148113251,0.0,5.02817630768,1.0857231617,0.0,4.51903676987,1.23295259476,0.0,4.76071500778,2.06871056557,0.0
1449617870818235297,179,1449617870817561876,odom,5.06966590881,2.18348026276,0.0,5.28256702423,1.96576917171,0.0,5.04088830948,1.1300112009,0.0,4.53174829483,1.27724075317,0.0,4.77342700958,2.11299872398,0.0
1449617871027986261,180,1449617871027047880,odom,5.08226060867,2.22780132294,0.0,5.29516172409,2.0100903511,0.0,5.05348300934,1.1743324995,0.0,4.54434347153,1.32156205177,0.0,4.78602170944,2.15732002258,0.0
1449617871224922878,181,1449617871224443315,odom,5.09214067459,2.28187179565,0.0,5.30733060837,2.0664229393,0.0,5.07449769974,1.2281576395,0.0,4.56383037567,1.36999833584,0.0,4.7966632843,2.20826363564,0.0
1449617871420338022,182,1449617871418988487,odom,5.10746669769,2.33739066124,0.0,5.32265663147,2.12194180489,0.0,5.08982372284,1.28367650509,0.0,4.57915639877,1.42551732063,0.0,4.8119893074,2.26378250122,0.0
1449617871629034055,183,1449617871628724447,odom,5.12107515335,2.38740801811,0.0,5.33626508713,2.17195916176,0.0,5.1034321785,1.33369386196,0.0,4.59276485443,1.47553467751,0.0,4.82559776306,2.31380009651,0.0
1449617871831219135,184,1449617871830862269,odom,5.13038301468,2.44157981873,0.0,5.34783792496,2.22841715813,0.0,5.12387657166,1.38773810863,0.0,4.61173868179,1.52417421341,0.0,4.8357000351,2.36485338211,0.0
1449617872025630907,185,1449617872025326757,odom,5.13947153091,2.4957549572,0.0,5.359167099,2.28490209579,0.0,5.14410257339,1.44190311432,0.0,4.6305513382,1.57291948795,0.0,4.8456158638,2.41591835022,0.0
1449617872232470524,186,1449617872231909156,odom,5.15228557587,2.54598236084,0.0,5.37198114395,2.33512949944,0.0,5.15691614151,1.49213063717,0.0,4.64336538315,1.6231470108,0.0,4.85842990875,2.46614599228,0.0
1449617872517494157,187,1449617872509970702,odom,5.16056489944,2.60030937195,0.0,5.3824763298,2.39178991318,0.0,5.17633247375,1.54656529427,0.0,4.66142559052,1.67214727402,0.0,4.86756944656,2.51737189293,0.0
1449617872760891821,188,1449617872760612730,odom,5.17132425308,2.66583323479,0.0,5.39542722702,2.45967078209,0.0,5.19822692871,1.61231482029,0.0,4.68202161789,1.73244822025,0.0,4.8792219162,2.57980418205,0.0
1449617873137323133,189,1449617873136226342,odom,5.19138050079,2.74986553192,0.0,5.41548347473,2.54370307922,0.0,5.21828317642,1.69634711742,0.0,4.7020778656,1.81648051739,0.0,4.89927816391,2.66383647919,0.0
1449617873278040243,190,1449617873276669810,odom,5.20182466507,2.79474306107,0.0,5.42592716217,2.58858036995,0.0,5.2287273407,1.74122452736,0.0,4.71252202988,1.86135792732,0.0,4.90972185135,2.70871376991,0.0
1449617873488906074,191,1449617873488652988,odom,5.21226882935,2.83962035179,0.0,5.43637132645,2.63345789909,0.0,5.23917102814,1.78610193729,0.0,4.72296571732,1.90623545647,0.0,4.92016601562,2.75359129906,0.0
1449617873685927370,192,1449617873685400759,odom,5.21927928925,2.89413714409,0.0,5.44554805756,2.69035434723,0.0,5.25731372833,1.84096181393,0.0,4.73986768723,1.95563340187,0.0,4.92810201645,2.80502605438,0.0
1449617873896824239,193,1449617873896601849,odom,5.22601079941,2.94866061211,0.0,5.45442056656,2.74728035927,0.0,5.27517271042,1.89594602585,0.0,4.75654363632,2.00514292717,0.0,4.93579149246,2.85647726059,0.0
1449617874082454272,194,1449617874082325817,odom,5.23713684082,2.99928832054,0.0,5.46554660797,2.7979080677,0.0,5.28629922867,1.94657385349,0.0,4.76767015457,2.0557706356,0.0,4.94691753387,2.90710496902,0.0
1449617874291066953,195,1449617874290594635,odom,5.24900341034,3.05564856529,0.0,5.47741317749,2.85426831245,0.0,5.29816579819,2.00293397903,0.0,4.77953672409,2.11213088036,0.0,4.95878410339,2.96346521378,0.0
1449617874487076364,196,1449617874486689129,odom,5.25391197205,3.10461640358,0.0,5.48443746567,2.90566110611,0.0,5.31419658661,2.05248022079,0.0,4.79444217682,2.15619015694,0.0,4.96468353271,3.00937128067,0.0
1449617874694401856,197,1449617874693952879,odom,5.26292848587,3.14980220795,0.0,5.49345350266,2.9508471489,0.0,5.3232126236,2.09766602516,0.0,4.80345869064,2.2013759613,0.0,4.9736995697,3.05455708504,0.0
1449617874921478720,198,1449617874920234654,odom,5.27185487747,3.19500565529,0.0,5.50238037109,2.99605035782,0.0,5.33213949203,2.1428694725,0.0,4.81238508224,2.24657940865,0.0,4.9826259613,3.09976053238,0.0
1449617875102220158,199,1449617875102002206,odom,5.26932668686,3.23650932312,0.0,5.50400495529,3.04247069359,0.0,5.35183382034,2.18588209152,0.0,4.8300037384,2.27858424187,0.0,4.98217535019,3.13517260551,0.0
1449617875300943623,200,1449617875300617904,odom,5.27081537247,3.27423977852,0.0,5.50753116608,3.08269190788,0.0,5.36442089081,2.22454309464,0.0,4.84164047241,2.31172537804,0.0,4.98475122452,3.16987419128,0.0
1449617875505997887,201,1449617875505745241,odom,5.26779937744,3.32134151459,0.0,5.50851106644,3.13483953476,0.0,5.38356876373,2.27385783195,0.0,4.85906267166,2.34997177124,0.0,4.98400497437,3.21095347404,0.0
1449617875706146165,202,1449617875705022799,odom,5.2474899292,3.36723542213,0.0,5.49771547318,3.19370675087,0.0,5.41842079163,2.32732796669,0.0,4.89062690735,2.37563371658,0.0,4.96992111206,3.24201250076,0.0
1449617875902855195,203,1449617875902414993,odom,5.23056983948,3.41460776329,0.0,5.48790502548,3.25180888176,0.0,5.44529485703,2.38285303116,0.0,4.91593074799,2.40881109238,0.0,4.95854139328,3.27776694298,0.0
1449617876098480020,204,1449617876096253969,odom,5.20606231689,3.46412396431,0.0,5.47163677216,3.31514358521,0.0,5.47498035431,2.44514989853,0.0,4.94498443604,2.44311332703,0.0,4.94164085388,3.31310677528,0.0
1449617876323892108,205,1449617876323629928,odom,5.17370939255,3.50906991959,0.0,5.44819068909,3.37721729279,0.0,5.50665521622,2.50918388367,0.0,4.97785329819,2.47356772423,0.0,4.91938877106,3.34160089493,0.0
1449617876502089506,206,1449617876501746746,odom,5.14900827408,3.55313277245,0.0,5.42881631851,3.43299722672,0.0,5.52391147614,2.56821012497,0.0,4.9970870018,2.51027870178,0.0,4.90199184418,3.37506580353,0.0
1449617876746234070,207,1449617876745769831,odom,5.11672019958,3.59812259674,0.0,5.40248250961,3.4929330349,0.0,5.54311943054,2.63437533379,0.0,5.02009010315,2.54870033264,0.0,4.87945318222,3.40725803375,0.0
1449617876906904015,208,1449617876906562354,odom,5.09281110764,3.6435573101,0.0,5.38176441193,3.54747891426,0.0,5.54954576492,2.69381070137,0.0,5.02949476242,2.591599226,0.0,4.86171340942,3.44526743889,0.0
1449617877120242627,209,1449617877119880110,odom,5.072016716,3.69218087196,0.0,5.3629360199,3.60223078728,0.0,5.54872131348,2.75229907036,0.0,5.0309472084,2.63911938667,0.0,4.84516143799,3.48905110359,0.0
1449617877327844661,210,1449617877327630283,odom,5.05019903183,3.74035382271,0.0,5.34295415878,3.65657234192,0.0,5.54666137695,2.81075692177,0.0,5.03139448166,2.68665957451,0.0,4.82768774033,3.53247499466,0.0
1449617877537064720,211,1449617877536512473,odom,5.02736854553,3.78805398941,0.0,5.321829319,3.71047830582,0.0,5.54336643219,2.8691573143,0.0,5.03083753586,2.734197855,0.0,4.80930042267,3.57551884651,0.0
1449617877718638998,212,1449617877717071737,odom,5.00968027115,3.83399200439,0.0,5.30494451523,3.75953269005,0.0,5.5353603363,2.92059969902,0.0,5.02428627014,2.78023147583,0.0,4.79387044907,3.61916422844,0.0
1449617877915221919,213,1449617877914119914,odom,4.99442625046,3.88953137398,0.0,5.28969049454,3.81507182121,0.0,5.52010631561,2.97613883018,0.0,5.00903224945,2.83577060699,0.0,4.77861642838,3.67470359802,0.0
1449617878121428907,214,1449617878121240276,odom,4.97021198273,3.93651890755,0.0,5.26698350906,3.86831641197,0.0,5.51507854462,3.03444051743,0.0,5.00708532333,2.88330221176,0.0,4.75899028778,3.71717810631,0.0
1449617878327511258,215,1449617878327167074,odom,4.95119285583,3.9819085598,0.0,5.24866867065,3.91684603691,0.0,5.50556230545,3.0856385231,0.0,4.99919462204,2.92914032936,0.0,4.74230098724,3.76034784317,0.0
1449617878507913981,216,1449617878507669536,odom,4.9318113327,4.02713108063,0.0,5.22995853424,3.9652159214,0.0,5.49562120438,3.13676977158,0.0,4.99093580246,2.97492909431,0.0,4.72527265549,3.80337524414,0.0
1449617878777782117,217,1449617878776501490,odom,4.90768051147,4.06766462326,0.0,5.20706939697,4.01206445694,0.0,5.49018192291,3.18941807747,0.0,4.9890294075,3.01694726944,0.0,4.70591688156,3.83959364891,0.0
1449617878898440462,218,1449617878897435199,odom,4.87681007385,4.1085524559,0.0,5.17781066895,4.0624704361,0.0,5.48685789108,3.24921154976,0.0,4.99142456055,3.06094145775,0.0,4.68237733841,3.87420010567,0.0
1449617879107256617,219,1449617879107104174,odom,4.84255647659,4.15380096436,0.0,5.14486694336,4.11728334427,0.0,5.47953796387,3.31422972679,0.0,4.9903216362,3.11034965515,0.0,4.65565013885,3.91340327263,0.0
1449617879318019304,220,1449617879317708929,odom,4.80305290222,4.19301223755,0.0,5.1066365242,4.16930294037,0.0,5.4749455452,3.38110971451,0.0,4.99478197098,3.15673756599,0.0,4.62647294998,3.94493055344,0.0
1449617879522955485,221,1449617879522033943,odom,4.76157283783,4.23034381866,0.0,5.06588697433,4.2194852829,0.0,5.46717596054,3.4475607872,0.0,4.99692296982,3.20309758186,0.0,4.59563446045,3.97502183914,0.0
1449617879699716508,222,1449617879699448809,odom,4.71539068222,4.2607216835,0.0,5.01985359192,4.26595067978,0.0,5.46135234833,3.51629805565,0.0,5.0046672821,3.24733924866,0.0,4.56316900253,3.99699187279,0.0
1449617879902621789,223,1449617879902355247,odom,4.6767783165,4.29450273514,0.0,4.98092269897,4.30938005447,0.0,5.44596242905,3.57409930229,0.0,4.99803256989,3.29079937935,0.0,4.53299283981,4.02608013153,0.0
1449617880161674911,224,1449617880161298766,odom,4.63673353195,4.32679176331,0.0,4.94025325775,4.35130262375,0.0,5.42836666107,3.63113236427,0.0,4.98964214325,3.33377599716,0.0,4.50152873993,4.05394601822,0.0
1449617880299671962,225,1449617880299419967,odom,4.58980560303,4.35705518723,0.0,4.89201831818,4.39437103271,0.0,5.41012954712,3.69547152519,0.0,4.98436355591,3.37984037399,0.0,4.46625185013,4.0787396431,0.0
1449617880492824404,226,1449617880492303967,odom,4.55033874512,4.39218521118,0.0,4.85169553757,4.43587970734,0.0,5.38446235657,3.74808645248,0.0,4.96546173096,3.42352747917,0.0,4.43269491196,4.11132097244,0.0
1449617880709148223,227,1449617880708928539,odom,4.51610183716,4.42755460739,0.0,4.8169798851,4.47443151474,0.0,5.35698509216,3.79230690002,0.0,4.94143819809,3.46333813667,0.0,4.40143251419,4.14546251297,0.0
1449617880898272991,228,1449617880897968349,odom,4.47544813156,4.46133804321,0.0,4.77526807785,4.51456356049,0.0,5.32956933975,3.84400391579,0.0,4.92106771469,3.50632596016,0.0,4.36676645279,4.17688560486,0.0
1449617881162452980,229,1449617881160899695,odom,4.4400601387,4.49556541443,0.0,4.73930120468,4.55195617676,0.0,5.30065774918,3.88729190826,0.0,4.89574718475,3.54531598091,0.0,4.33439064026,4.20998048782,0.0
1449617881313278088,230,1449617881311984640,odom,4.41397666931,4.52630805969,0.0,4.71321773529,4.58269834518,0.0,5.27457427979,3.91803407669,0.0,4.86966371536,3.57605838776,0.0,4.30830717087,4.24072265625,0.0
1449617881516358590,231,1449617881511094552,odom,4.38784694672,4.55701065063,0.0,4.6870880127,4.61340141296,0.0,5.24844455719,3.94873690605,0.0,4.84353399277,3.6067609787,0.0,4.28217744827,4.27142524719,0.0
1449617881678397461,232,1449617881676321690,odom,4.36538696289,4.58327388763,0.0,4.66462802887,4.63966417313,0.0,5.22598457336,3.97499990463,0.0,4.82107400894,3.63302397728,0.0,4.25971746445,4.29768848419,0.0
1449617881913693902,233,1449617881911638336,odom,4.33937311172,4.61407518387,0.0,4.63861370087,4.6704659462,0.0,5.1999707222,4.0058016777,0.0,4.79506015778,3.66382551193,0.0,4.23370361328,4.32848978043,0.0
1449617882124520036,234,1449617882124394402,odom,4.31569719315,4.65058326721,0.0,4.61551713943,4.70380830765,0.0,5.16981840134,4.03324842453,0.0,4.76131629944,3.69557094574,0.0,4.20701551437,4.36613035202,0.0
1449617882353852598,235,1449617882353683005,odom,4.28857374191,4.6916437149,0.0,4.58893966675,4.7416973114,0.0,5.13612318039,4.06531715393,0.0,4.72407579422,3.731975317,0.0,4.17689180374,4.40835523605,0.0
1449617882525574871,236,1449617882525171777,odom,4.26783370972,4.73399019241,0.0,4.56919050217,4.77768468857,0.0,5.10195732117,4.08989143372,0.0,4.68295669556,3.7653324604,0.0,4.15018987656,4.45312547684,0.0
1449617882707442983,237,1449617882707073042,odom,4.23961830139,4.77041625977,0.0,4.540974617,4.81411075592,0.0,5.073741436,4.12631750107,0.0,4.65474081039,3.80175828934,0.0,4.12197446823,4.48955154419,0.0
1449617882933331449,238,1449617882932268385,odom,4.21999645233,4.81335687637,0.0,4.52220964432,4.85067224503,0.0,5.04032087326,4.15177297592,0.0,4.61455440521,3.83614182472,0.0,4.09644317627,4.53504133224,0.0
1449617883108489408,239,1449617883108332173,odom,4.19177246094,4.8605093956,0.0,4.49436283112,4.89462900162,0.0,5.00505924225,4.19029331207,0.0,4.57598114014,3.87917923927,0.0,4.065284729,4.58351516724,0.0
1449617883315301167,240,1449617883314292331,odom,4.17014026642,4.90871429443,0.0,4.4733839035,4.93643140793,0.0,4.96908092499,4.22145938873,0.0,4.53352355957,3.91948342323,0.0,4.03782653809,4.63445520401,0.0
1449617883503782524,241,1449617883500504824,odom,4.14322423935,4.95660018921,0.0,4.44674396515,4.98111104965,0.0,4.93485736847,4.26094055176,0.0,4.49613285065,3.96358418465,0.0,4.00801944733,4.68375444412,0.0
1449617883691153165,242,1449617883690295388,odom,4.11363458633,5.00956916809,0.0,4.41739654541,5.0308713913,0.0,4.89787197113,4.30558300018,0.0,4.45602989197,4.01287937164,0.0,3.97555422783,4.73816776276,0.0
1449617883885489591,243,1449617883885112071,odom,4.09400749207,5.05861234665,0.0,4.39815187454,5.07348966599,0.0,4.86319160461,4.33820867538,0.0,4.41526174545,4.05490875244,0.0,3.95022201538,4.79018974304,0.0
1449617884090163806,244,1449617884089849018,odom,4.0690112114,5.10751104355,0.0,4.37329530716,5.11917352676,0.0,4.83053874969,4.37901878357,0.0,4.37964010239,4.10046815872,0.0,3.92239689827,4.84062290192,0.0
1449617884301415605,245,1449617884300840119,odom,4.04199838638,5.16187334061,0.0,4.34638881683,5.17031955719,0.0,4.79578495026,4.4253745079,0.0,4.3419675827,4.1516046524,0.0,3.8925716877,4.89654970169,0.0
1449617884489146092,246,1449617884488413049,odom,4.02440881729,5.21167135239,0.0,4.3289103508,5.21368217468,0.0,4.76246166229,4.45940589905,0.0,4.30295991898,4.1952881813,0.0,3.86940836906,4.94956445694,0.0
1449617884687330506,247,1449617884686893101,odom,4.00173854828,5.26171875,0.0,4.30624389648,5.26051187515,0.0,4.73180007935,4.50169563293,0.0,4.26953268051,4.24244880676,0.0,3.84397673607,5.00126504898,0.0
1449617884884670982,248,1449617884884505037,odom,3.9824154377,5.30698013306,0.0,4.28689098358,5.30255508423,0.0,4.7044043541,4.53928422928,0.0,4.23942327499,4.28493690491,0.0,3.82190990448,5.04820775986,0.0
1449617885089564643,249,1449617885089339740,odom,3.96346473694,5.35238456726,0.0,4.26787662506,5.34474229813,0.0,4.67730045319,4.5771021843,0.0,4.20965719223,4.32768297195,0.0,3.80023360252,5.09532356262,0.0
1449617885277310349,250,1449617885274640961,odom,3.94510269165,5.39804410934,0.0,4.24941682816,5.38718509674,0.0,4.65070533752,4.61526107788,0.0,4.18045282364,4.37079763412,0.0,3.77916383743,5.14272212982,0.0
1449617885480693817,251,1449617885480482120,odom,3.92210030556,5.45421266556,0.0,4.22628259659,5.44013881683,0.0,4.61939144135,4.66401672363,0.0,4.14658117294,4.42453670502,0.0,3.7534725666,5.20065879822,0.0
1449617885694504511,252,1449617885694348133,odom,3.90232253075,5.50549697876,0.0,4.20633935928,5.48820877075,0.0,4.59122419357,4.70797586441,0.0,4.11590957642,4.47350597382,0.0,3.73102474213,5.25373888016,0.0
1449617885872548329,253,1449617885871987971,odom,3.88667297363,5.56187200546,0.0,4.19025611877,5.53816270828,0.0,4.55856513977,4.74996995926,0.0,4.07840156555,4.52559757233,0.0,3.71009278297,5.31379079819,0.0
1449617886100769719,254,1449617886099380931,odom,3.86817193031,5.61359119415,0.0,4.17148780823,5.58667469025,0.0,4.53144645691,4.79463338852,0.0,4.04893875122,4.57534790039,0.0,3.68897986412,5.36738967896,0.0
1449617886315191361,255,1449617886314230077,odom,3.84653139114,5.66069316864,0.0,4.14984703064,5.63377714157,0.0,4.50980615616,4.84173583984,0.0,4.02729797363,4.62245035172,0.0,3.66733932495,5.41449165344,0.0
1449617886488235116,256,1449617886487904061,odom,3.83716416359,5.70692634583,0.0,4.1398434639,5.67360591888,0.0,4.4829826355,4.87413406372,0.0,3.99594783783,4.66509532928,0.0,3.65280866623,5.46456718445,0.0
1449617886717734764,257,1449617886717248518,odom,3.82272315025,5.75397348404,0.0,4.1250333786,5.71745586395,0.0,4.45970487595,4.91440248489,0.0,3.97048807144,4.71052217484,0.0,3.63581681252,5.51357555389,0.0
1449617886881330540,258,1449617886881058971,odom,3.80866765976,5.80112361908,0.0,4.11057519913,5.76141357422,0.0,4.43674135208,4.95486831665,0.0,3.94539737701,4.75616931915,0.0,3.61923122406,5.56271505356,0.0
1449617887123612760,259,1449617887123194327,odom,3.79312157631,5.8538274765,0.0,4.09459257126,5.81092882156,0.0,4.41221666336,5.00098133087,0.0,3.91880059242,4.80748605728,0.0,3.6011762619,5.61743354797,0.0
1449617887280391355,260,1449617887280175799,odom,3.77827525139,5.90674686432,0.0,4.0792760849,5.86066484451,0.0,4.38832330704,5.04740619659,0.0,3.89288973808,4.85913610458,0.0,3.58384251595,5.6723947525,0.0
1449617887487200646,261,1449617887486574378,odom,3.7698674202,5.95888614655,0.0,4.06982707977,5.90645313263,0.0,4.36161756516,5.08684444427,0.0,3.86231565475,4.90908718109,0.0,3.57052516937,5.72869586945,0.0
1449617887698577563,262,1449617887698164754,odom,3.75465941429,6.0176358223,0.0,4.05404806137,5.96203565598,0.0,4.33716058731,5.13938903809,0.0,3.83600831032,4.96691799164,0.0,3.55289578438,5.78956460953,0.0
1449617887896746207,263,1449617887896319968,odom,3.74214935303,6.071164608,0.0,4.04093360901,6.012403965,0.0,4.31533670425,5.18681144714,0.0,3.81238985062,5.01964616776,0.0,3.53798651695,5.84523868561,0.0
1449617888089638819,264,1449617888088583326,odom,3.73606848717,6.12364912033,0.0,4.03354454041,6.05858659744,0.0,4.29043769836,5.22737932205,0.0,3.78407001495,5.07088088989,0.0,3.52717661858,5.90208864212,0.0
1449617888289685514,265,1449617888287005863,odom,3.72347331047,6.18302440643,0.0,4.02024507523,6.11482191086,0.0,4.26834011078,5.28094577789,0.0,3.76034665108,5.12980747223,0.0,3.51225161552,5.96368360519,0.0
1449617888479898275,266,1449617888479634716,odom,3.7190592289,6.2356762886,0.0,4.01432323456,6.16121673584,0.0,4.24473905563,5.32228422165,0.0,3.73366498947,5.18191576004,0.0,3.50324892998,6.02084875107,0.0
1449617888697297362,267,1449617888696169419,odom,3.70541858673,6.28568553925,0.0,4.00068283081,6.21122598648,0.0,4.23109865189,5.37229299545,0.0,3.72002458572,5.23192453384,0.0,3.48960852623,6.07085752487,0.0
1449617888892937865,268,1449617888891130034,odom,3.70358490944,6.33284950256,0.0,3.99720907211,6.25216627121,0.0,4.20984315872,5.40855121613,0.0,3.69591665268,5.27901554108,0.0,3.48328256607,6.12263059616,0.0
1449617889085848168,269,1449617889085288993,odom,3.69381976128,6.37196540833,0.0,3.98744392395,6.29128265381,0.0,4.20007801056,5.44766712189,0.0,3.68615150452,5.31813144684,0.0,3.47351741791,6.16174697876,0.0
1449617889291742158,270,1449617889291572059,odom,3.69132781029,6.40397644043,0.0,3.98408293724,6.32019472122,0.0,4.18778991699,5.47437953949,0.0,3.67252326012,5.35028219223,0.0,3.46881628036,6.19609737396,0.0
1449617889502410723,271,1449617889501954209,odom,3.68740057945,6.42080259323,0.0,3.98015570641,6.33702135086,0.0,4.18386268616,5.49120616913,0.0,3.66859602928,5.36710882187,0.0,3.46488904953,6.2129240036,0.0
1449617889684673097,272,1449617889684370856,odom,3.6847922802,6.43202257156,0.0,3.97754740715,6.34824132919,0.0,4.1812543869,5.50242567062,0.0,3.66598773003,5.37832832336,0.0,3.46228075027,6.22414398193,0.0
1449617889889973480,273,1449617889888822707,odom,3.68908524513,6.43599081039,0.0,3.98093891144,6.34912014008,0.0,4.17569589615,5.50119972229,0.0,3.65914654732,5.3825545311,0.0,3.46438956261,6.23047542572,0.0
1449617890081990033,274,1449617890081638534,odom,3.6848218441,6.43202972412,0.0,3.97757720947,6.34824800491,0.0,4.18128395081,5.50243282318,0.0,3.66601729393,5.37833547592,0.0,3.46231031418,6.22415065765,0.0
1449617890307054298,275,1449617890306618904,odom,3.6848218441,6.43202972412,0.0,3.97757720947,6.34824800491,0.0,4.18128395081,5.50243282318,0.0,3.66601729393,5.37833547592,0.0,3.46231031418,6.22415065765,0.0
1449617890486700008,276,1449617890486516575,odom,3.6848218441,6.43202972412,0.0,3.97757720947,6.34824800491,0.0,4.18128395081,5.50243282318,0.0,3.66601729393,5.37833547592,0.0,3.46231031418,6.22415065765,0.0
1449617890683019963,277,1449617890682788197,odom,3.6848218441,6.43202972412,0.0,3.97757720947,6.34824800491,0.0,4.18128395081,5.50243282318,0.0,3.66601729393,5.37833547592,0.0,3.46231031418,6.22415065765,0.0
1449617890896195322,278,1449617890895870960,odom,3.6848218441,6.43202972412,0.0,3.97757720947,6.34824800491,0.0,4.18128395081,5.50243282318,0.0,3.66601729393,5.37833547592,0.0,3.46231031418,6.22415065765,0.0
1449617891122313486,279,1449617891121896517,odom,3.6848218441,6.43202972412,0.0,3.97757720947,6.34824800491,0.0,4.18128395081,5.50243282318,0.0,3.66601729393,5.37833547592,0.0,3.46231031418,6.22415065765,0.0
