%time,field.header.seq,field.header.stamp,field.header.frame_id,field.status.goal_id.stamp,field.status.goal_id.id,field.status.status,field.status.text,field.feedback.base_position.header.seq,field.feedback.base_position.header.stamp,field.feedback.base_position.header.frame_id,field.feedback.base_position.pose.position.x,field.feedback.base_position.pose.position.y,field.feedback.base_position.pose.position.z,field.feedback.base_position.pose.orientation.x,field.feedback.base_position.pose.orientation.y,field.feedback.base_position.pose.orientation.z,field.feedback.base_position.pose.orientation.w
1449617832673063727,0,1449617832669885370,,1449617832669681326,/move_base-2-1449617832.669681326,1,This goal has been accepted by the simple action server,0,1449617832662994834,odom,0.0,0.0,0.0,0.0,0.0,0.0,1.0
1449617832720643445,1,1449617832719908644,,1449617832669681326,/move_base-2-1449617832.669681326,1,This goal has been accepted by the simple action server,0,1449617832703005672,odom,0.0,0.0,0.0,0.0,0.0,0.0,1.0
1449617832771999847,2,1449617832770221417,,1449617832728760318,/move_base-3-1449617832.728760318,1,This goal has been accepted by the simple action server,0,1449617832742999080,odom,0.0,0.0,0.0,0.0,0.0,0.0,1.0
1449617832820166568,3,1449617832819887159,,1449617832728760318,/move_base-3-1449617832.728760318,1,This goal has been accepted by the simple action server,0,1449617832783017341,odom,0.0,0.0,0.0,0.0,0.0,0.0,1.0
1449617832873158150,4,1449617832872801608,,1449617832824329936,/move_base-4-1449617832.824329936,1,This goal has been accepted by the simple action server,0,1449617832863001514,odom,0.0,0.0,0.0,0.0,0.0,0.0,1.0
1449617832922315068,5,1449617832919887374,,1449617832824329936,/move_base-4-1449617832.824329936,1,This goal has been accepted by the simple action server,0,1449617832902994453,odom,0.0,0.0,0.0,0.0,0.0,0.0,1.0
1449617832970315057,6,1449617832969907136,,1449617832824329936,/move_base-4-1449617832.824329936,1,This goal has been accepted by the simple action server,0,1449617832943295172,odom,0.0,0.0,0.0,0.0,0.0,0.0,1.0
1449617832995916413,7,1449617832995607168,,1449617832995490088,/move_base-5-1449617832.995490088,1,This goal has been accepted by the simple action server,0,1449617832982997051,odom,0.0,0.0,0.0,0.0,0.0,0.0,1.0
1449617833046603849,8,1449617833045760226,,1449617833009992879,/move_base-6-1449617833.9992879,1,This goal has been accepted by the simple action server,0,1449617833023015906,odom,0.0,0.0,0.0,0.0,0.0,0.0,1.0
1449617833096280882,9,1449617833095786260,,1449617833009992879,/move_base-6-1449617833.9992879,1,This goal has been accepted by the simple action server,0,1449617833063000174,odom,0.0,0.0,0.0,0.0,0.0,0.0,1.0
1449617833148536662,10,1449617833148283711,,1449617833125600516,/move_base-7-1449617833.125600516,1,This goal has been accepted by the simple action server,0,1449617833143018728,odom,0.0,0.0,0.0,0.0,0.0,0.0,1.0
1449617833197900875,11,1449617833196845279,,1449617833125600516,/move_base-7-1449617833.125600516,1,This goal has been accepted by the simple action server,0,1449617833183006228,odom,0.0,0.0,0.0,0.0,0.0,0.0,1.0
1449617833246063244,12,1449617833245763937,,1449617833216904653,/move_base-8-1449617833.216904653,1,This goal has been accepted by the simple action server,0,1449617833222997333,odom,0.0,0.0,0.0,0.0,0.0,0.0,1.0
1449617833297815035,13,1449617833297127202,,1449617833216904653,/move_base-8-1449617833.216904653,1,This goal has been accepted by the simple action server,0,1449617833263001291,odom,0.0,0.0,0.0,0.0,0.0,0.0,1.0
1449617833347009038,14,1449617833346362744,,1449617833332532030,/move_base-9-1449617833.332532030,1,This goal has been accepted by the simple action server,0,1449617833342994720,odom,0.0,0.0,0.0,0.0,0.0,0.0,1.0
1449617833396256499,15,1449617833395779922,,1449617833332532030,/move_base-9-1449617833.332532030,1,This goal has been accepted by the simple action server,0,1449617833383007006,odom,0.0,0.0,0.0,0.0,0.0,0.0,1.0
1449617833446168740,16,1449617833445776951,,1449617833423062543,/move_base-10-1449617833.423062543,1,This goal has been accepted by the simple action server,0,1449617833423003818,odom,0.0,0.0,0.0,0.0,0.0,0.0,1.0
1449617833497916415,17,1449617833497312082,,1449617833423062543,/move_base-10-1449617833.423062543,1,This goal has been accepted by the simple action server,0,1449617833463002657,odom,0.0,0.0,0.0,0.0,0.0,0.0,1.0
1449617833546732274,18,1449617833546408735,,1449617833423062543,/move_base-10-1449617833.423062543,1,This goal has been accepted by the simple action server,0,1449617833543000611,odom,0.0,0.0,0.0,0.0,0.0,0.0,1.0
1449617833589946448,19,1449617833589673423,,1449617833585036213,/move_base-11-1449617833.585036213,1,This goal has been accepted by the simple action server,0,1449617833582999890,odom,0.0,0.0,0.0,0.0,0.0,0.0,1.0
1449617833640624338,20,1449617833639996932,,1449617833615359611,/move_base-12-1449617833.615359611,1,This goal has been accepted by the simple action server,0,1449617833622996700,odom,0.0,0.0,0.0,0.0,0.0,0.0,1.0
1449617833689913451,21,1449617833689731731,,1449617833615359611,/move_base-12-1449617833.615359611,1,This goal has been accepted by the simple action server,0,1449617833663003029,odom,0.0,0.0,0.0,0.0,0.0,0.0,1.0
1449617833741298689,22,1449617833739769432,,1449617833723622582,/move_base-13-1449617833.723622582,1,This goal has been accepted by the simple action server,0,1449617833702992299,odom,0.0,0.0,0.0,0.0,0.0,0.0,1.0
1449617833794076376,23,1449617833793622421,,1449617833723622582,/move_base-13-1449617833.723622582,1,This goal has been accepted by the simple action server,0,1449617833782995833,odom,0.0,0.0,0.0,0.0,0.0,0.0,1.0
1449617833841437365,24,1449617833840987388,,1449617833834178764,/move_base-14-1449617833.834178764,1,This goal has been accepted by the simple action server,0,1449617833823000418,odom,0.0,0.0,0.0,0.0,0.0,0.0,1.0
1449617833889992505,25,1449617833889738135,,1449617833834178764,/move_base-14-1449617833.834178764,1,This goal has been accepted by the simple action server,0,1449617833862998733,odom,0.0,0.0,0.0,0.0,0.0,0.0,1.0
1449617833939990213,26,1449617833939749365,,1449617833834178764,/move_base-14-1449617833.834178764,1,This goal has been accepted by the simple action server,0,1449617833902997377,odom,0.0,0.0,0.0,0.0,0.0,0.0,1.0
1449617833992489325,27,1449617833992410728,,1449617833992172047,/move_base-15-1449617833.992172047,1,This goal has been accepted by the simple action server,0,1449617833982999649,odom,0.0,0.0,0.0,0.0,0.0,0.0,1.0
1449617834043023066,28,1449617834042478661,,1449617834007233313,/move_base-16-1449617834.7233313,1,This goal has been accepted by the simple action server,0,1449617834023002090,odom,0.0,0.0,0.0,0.0,0.0,0.0,1.0
1449617834092881074,29,1449617834092351250,,1449617834007233313,/move_base-16-1449617834.7233313,1,This goal has been accepted by the simple action server,0,1449617834063002192,odom,0.0,0.0,0.0,0.0,0.0,0.0,1.0
1449617834146096589,30,1449617834145696025,,1449617834123499072,/move_base-17-1449617834.123499072,1,This goal has been accepted by the simple action server,0,1449617834142996994,odom,0.0,0.0,0.0,0.0,0.0,0.0,1.0
1449617834193134681,31,1449617834192448762,,1449617834123499072,/move_base-17-1449617834.123499072,1,This goal has been accepted by the simple action server,0,1449617834182999591,odom,0.0,0.0,0.0,0.0,0.0,0.0,1.0
1449617834242811717,32,1449617834242359773,,1449617834123499072,/move_base-17-1449617834.123499072,1,This goal has been accepted by the simple action server,0,1449617834223003684,odom,0.0,0.0,0.0,0.0,0.0,0.0,1.0
1449617834275589211,33,1449617834274198954,,1449617834274126692,/move_base-18-1449617834.274126692,1,This goal has been accepted by the simple action server,0,1449617834262997832,odom,0.0,0.0,0.0,0.0,0.0,0.0,1.0
1449617834324940928,34,1449617834324293030,,1449617834274126692,/move_base-18-1449617834.274126692,1,This goal has been accepted by the simple action server,0,1449617834302994561,odom,0.0,0.0,0.0,0.0,0.0,0.0,1.0
1449617834376070706,35,1449617834374273744,,1449617834274126692,/move_base-18-1449617834.274126692,1,This goal has been accepted by the simple action server,0,1449617834343000606,odom,0.0,0.0,0.0,0.0,0.0,0.0,1.0
1449617834384307485,36,1449617834384181733,,1449617834384084058,/move_base-19-1449617834.384084058,1,This goal has been accepted by the simple action server,0,1449617834382999347,odom,0.0,0.0,0.0,0.0,0.0,0.0,1.0
1449617834435194309,37,1449617834434555272,,1449617834404701191,/move_base-20-1449617834.404701191,1,This goal has been accepted by the simple action server,0,1449617834423001621,odom,0.0,0.0,0.0,0.0,0.0,0.0,1.0
1449617834484576719,38,1449617834484275267,,1449617834404701191,/move_base-20-1449617834.404701191,1,This goal has been accepted by the simple action server,0,1449617834462994742,odom,0.0,0.0,0.0,0.0,0.0,0.0,1.0
1449617834542381552,39,1449617834535703414,,1449617834525773972,/move_base-21-1449617834.525773972,1,This goal has been accepted by the simple action server,0,1449617834505644192,odom,0.0,0.0,0.0,0.0,0.0,0.0,1.0
1449617834585140859,40,1449617834584274274,,1449617834525773972,/move_base-21-1449617834.525773972,1,This goal has been accepted by the simple action server,0,1449617834583010754,odom,-0.00287963245437,-3.04332289367e-05,0.0,0.0,0.0,0.0052839997518,0.999986039576
1449617834635274507,41,1449617834634456000,,1449617834613987069,/move_base-22-1449617834.613987069,1,This goal has been accepted by the simple action server,0,1449617834623209652,odom,-0.00287963245437,-3.04332289367e-05,0.0,0.0,0.0,0.0052839997518,0.999986039576
1449617834685042285,42,1449617834684343106,,1449617834613987069,/move_base-22-1449617834.613987069,1,This goal has been accepted by the simple action server,0,1449617834663017693,odom,-0.00287963245437,-3.04332289367e-05,0.0,0.0,0.0,0.0052839997518,0.999986039576
1449617834734838448,43,1449617834734267501,,1449617834613987069,/move_base-22-1449617834.613987069,1,This goal has been accepted by the simple action server,0,1449617834702999779,odom,1.60811419144e-07,-3.04332289367e-05,0.0,0.0,0.0,0.0,1.0
1449617834812864277,44,1449617834812558992,,1449617834812447129,/move_base-23-1449617834.812447129,1,This goal has been accepted by the simple action server,0,1449617834783002476,odom,1.60811419144e-07,-3.04332289367e-05,0.0,0.0,0.0,0.0,1.0
1449617834865459887,45,1449617834862743193,,1449617834812447129,/move_base-23-1449617834.812447129,1,This goal has been accepted by the simple action server,0,1449617834823016008,odom,1.60811419144e-07,-3.04332289367e-05,0.0,0.0,0.0,0.0,1.0
1449617834914879820,46,1449617834912616005,,1449617834812447129,/move_base-23-1449617834.812447129,1,This goal has been accepted by the simple action server,0,1449617834902993653,odom,1.60811419144e-07,-3.04332289367e-05,0.0,0.0,0.0,0.0,1.0
1449617835015642927,47,1449617835015371507,,1449617835015190069,/move_base-24-1449617835.15190069,1,This goal has been accepted by the simple action server,0,1449617834983015157,odom,1.60811419144e-07,-3.04332289367e-05,0.0,0.0,0.0,0.0,1.0
1449617835065785808,48,1449617835065500837,,1449617835015190069,/move_base-24-1449617835.15190069,1,This goal has been accepted by the simple action server,0,1449617835063000899,odom,1.60811419144e-07,-3.04332289367e-05,0.0,0.0,0.0,0.0,1.0
1449617835116267455,49,1449617835115438073,,1449617835015190069,/move_base-24-1449617835.15190069,1,This goal has been accepted by the simple action server,0,1449617835103004291,odom,1.60811419144e-07,-3.04332289367e-05,0.0,0.0,0.0,0.0,1.0
1449617835128467895,50,1449617835128214986,,1449617835128128852,/move_base-25-1449617835.128128852,1,This goal has been accepted by the simple action server,0,1449617835103004291,odom,1.60811419144e-07,-3.04332289367e-05,0.0,0.0,0.0,0.0,1.0
1449617835179336184,51,1449617835178307953,,1449617835128128852,/move_base-25-1449617835.128128852,1,This goal has been accepted by the simple action server,0,1449617835142999972,odom,1.60811419144e-07,-3.04332289367e-05,0.0,0.0,0.0,0.0,1.0
1449617835228997010,52,1449617835228551161,,1449617835208266266,/move_base-26-1449617835.208266266,1,This goal has been accepted by the simple action server,0,1449617835223016754,odom,1.60811419144e-07,-3.04332289367e-05,0.0,0.0,0.0,0.0,1.0
1449617835279988717,53,1449617835278300940,,1449617835208266266,/move_base-26-1449617835.208266266,1,This goal has been accepted by the simple action server,0,1449617835262995511,odom,1.60811419144e-07,-3.04332289367e-05,0.0,0.0,0.0,0.0,1.0
1449617835330867172,54,1449617835328318188,,1449617835325267364,/move_base-27-1449617835.325267364,1,This goal has been accepted by the simple action server,0,1449617835305623151,odom,1.60811419144e-07,-3.04332289367e-05,0.0,0.0,0.0,0.0,1.0
1449617835379929972,55,1449617835379023411,,1449617835325267364,/move_base-27-1449617835.325267364,1,This goal has been accepted by the simple action server,0,1449617835342990936,odom,1.60811419144e-07,-3.04332289367e-05,0.0,0.0,0.0,0.0,1.0
1449617835431493472,56,1449617835428457352,,1449617835404269941,/move_base-28-1449617835.404269941,1,This goal has been accepted by the simple action server,0,1449617835423031078,odom,1.60811419144e-07,-3.04332289367e-05,0.0,0.0,0.0,0.0,1.0
1449617835479583229,57,1449617835478313658,,1449617835404269941,/move_base-28-1449617835.404269941,1,This goal has been accepted by the simple action server,0,1449617835463001776,odom,1.60811419144e-07,-3.04332289367e-05,0.0,0.0,0.0,0.0,1.0
1449617835528799437,58,1449617835528302856,,1449617835404269941,/move_base-28-1449617835.404269941,1,This goal has been accepted by the simple action server,0,1449617835502994614,odom,1.60811419144e-07,-3.04332289367e-05,0.0,0.0,0.0,0.0,1.0
1449617835600467584,59,1449617835599672208,,1449617835599591680,/move_base-29-1449617835.599591680,1,This goal has been accepted by the simple action server,0,1449617835583021327,odom,1.60811419144e-07,-3.04332289367e-05,0.0,0.0,0.0,0.0,1.0
1449617835652533357,60,1449617835650002618,,1449617835605430771,/move_base-30-1449617835.605430771,1,This goal has been accepted by the simple action server,0,1449617835623280477,odom,1.60811419144e-07,-3.04332289367e-05,0.0,0.0,0.0,0.0,1.0
1449617835700884983,61,1449617835699743851,,1449617835605430771,/move_base-30-1449617835.605430771,1,This goal has been accepted by the simple action server,0,1449617835663017651,odom,1.60811419144e-07,-3.04332289367e-05,0.0,0.0,0.0,0.0,1.0
1449617835750724261,62,1449617835749778246,,1449617835605430771,/move_base-30-1449617835.605430771,1,This goal has been accepted by the simple action server,0,1449617835744210930,odom,1.60811419144e-07,-3.04332289367e-05,0.0,0.0,0.0,0.0,1.0
1449617835764912231,63,1449617835764469047,,1449617835764382020,/move_base-31-1449617835.764382020,1,This goal has been accepted by the simple action server,0,1449617835744210930,odom,1.60811419144e-07,-3.04332289367e-05,0.0,0.0,0.0,0.0,1.0
1449617835815040498,64,1449617835814605280,,1449617835804018959,/move_base-32-1449617835.804018959,1,This goal has been accepted by the simple action server,0,1449617835783002446,odom,1.60811419144e-07,-3.04332289367e-05,0.0,0.0,0.0,0.0,1.0
1449617835864975725,65,1449617835864544650,,1449617835804018959,/move_base-32-1449617835.804018959,1,This goal has been accepted by the simple action server,0,1449617835863000250,odom,1.60811419144e-07,-3.04332289367e-05,0.0,0.0,0.0,0.0,1.0
1449617835916021986,66,1449617835914543146,,1449617835804018959,/move_base-32-1449617835.804018959,1,This goal has been accepted by the simple action server,0,1449617835903000228,odom,1.60811419144e-07,-3.04332289367e-05,0.0,0.0,0.0,0.0,1.0
1449617835960753240,67,1449617835958644964,,1449617835958564605,/move_base-33-1449617835.958564605,1,This goal has been accepted by the simple action server,0,1449617835943000232,odom,-0.00287947164295,-6.08664578733e-05,0.0,0.0,0.0,0.0052839997518,0.999986039576
1449617836008992229,68,1449617836008724539,,1449617835958564605,/move_base-33-1449617835.958564605,1,This goal has been accepted by the simple action server,0,1449617835983002564,odom,-0.00287947164295,-6.08664578733e-05,0.0,0.0,0.0,0.0052839997518,0.999986039576
1449617836061598998,69,1449617836058771736,,1449617836043934875,/move_base-34-1449617836.43934875,1,This goal has been accepted by the simple action server,0,1449617836023005801,odom,-0.00287947164295,-6.08664578733e-05,0.0,0.0,0.0,0.0052839997518,0.999986039576
1449617836109312082,70,1449617836108718457,,1449617836043934875,/move_base-34-1449617836.43934875,1,This goal has been accepted by the simple action server,0,1449617836103002443,odom,0.0,0.0,0.0,0.0,0.0,0.0,1.0
1449617836159232191,71,1449617836158895773,,1449617836126867610,/move_base-35-1449617836.126867610,1,This goal has been accepted by the simple action server,0,1449617836143002431,odom,0.0,0.0,0.0,0.0,0.0,0.0,1.0
1449617836209864208,72,1449617836208764373,,1449617836126867610,/move_base-35-1449617836.126867610,1,This goal has been accepted by the simple action server,0,1449617836183001572,odom,0.0,0.0,0.0,0.0,0.0,0.0,1.0
1449617836259267754,73,1449617836258839418,,1449617836215909258,/move_base-36-1449617836.215909258,1,This goal has been accepted by the simple action server,0,1449617836222998356,odom,0.0,0.0,0.0,0.0,0.0,0.0,1.0
1449617836312210185,74,1449617836311932531,,1449617836215909258,/move_base-36-1449617836.215909258,1,This goal has been accepted by the simple action server,0,1449617836302993212,odom,0.0,0.0,0.0,0.0,0.0,0.0,1.0
1449617836362178488,75,1449617836359492247,,1449617836215909258,/move_base-36-1449617836.215909258,1,This goal has been accepted by the simple action server,0,1449617836342996629,odom,0.0,0.0,0.0,0.0,0.0,0.0,1.0
1449617836369841803,76,1449617836368603906,,1449617836367287620,/move_base-37-1449617836.367287620,1,This goal has been accepted by the simple action server,0,1449617836342996629,odom,0.0,0.0,0.0,0.0,0.0,0.0,1.0
1449617836419315185,77,1449617836418732708,,1449617836367287620,/move_base-37-1449617836.367287620,1,This goal has been accepted by the simple action server,0,1449617836383001299,odom,0.0,0.0,0.0,0.0,0.0,0.0,1.0
1449617836471334335,78,1449617836469484735,,1449617836442562471,/move_base-38-1449617836.442562471,1,This goal has been accepted by the simple action server,0,1449617836463349809,odom,0.0,0.0,0.0,0.0,0.0,0.0,1.0
1449617836520558654,79,1449617836520018611,,1449617836487536987,/move_base-39-1449617836.487536987,1,This goal has been accepted by the simple action server,0,1449617836503008203,odom,0.0,0.0,0.0,0.0,0.0,0.0,1.0
1449617836568965235,80,1449617836568799535,,1449617836487536987,/move_base-39-1449617836.487536987,1,This goal has been accepted by the simple action server,0,1449617836543006723,odom,0.0,0.0,0.0,0.0,0.0,0.0,1.0
1449617836619621922,81,1449617836618707200,,1449617836487536987,/move_base-39-1449617836.487536987,1,This goal has been accepted by the simple action server,0,1449617836583586066,odom,0.0,0.0,0.0,0.0,0.0,0.0,1.0
1449617836685914586,82,1449617836685674401,,1449617836684617092,/move_base-40-1449617836.684617092,1,This goal has been accepted by the simple action server,0,1449617836663008876,odom,0.0,0.0,0.0,0.0,0.0,0.0,1.0
1449617836740048447,83,1449617836737181028,,1449617836695354250,/move_base-41-1449617836.695354250,1,This goal has been accepted by the simple action server,0,1449617836702993981,odom,0.0,0.0,0.0,0.0,0.0,0.0,1.0
1449617836786001857,84,1449617836785750094,,1449617836695354250,/move_base-41-1449617836.695354250,1,This goal has been accepted by the simple action server,0,1449617836782994030,odom,0.0,0.0,0.0,0.0,0.0,0.0,1.0
1449617836842343055,85,1449617836835773211,,1449617836695354250,/move_base-41-1449617836.695354250,1,This goal has been accepted by the simple action server,0,1449617836823180078,odom,0.0,0.0,0.0,0.0,0.0,0.0,1.0
1449617836899198016,86,1449617836898987969,,1449617836898896324,/move_base-42-1449617836.898896324,1,This goal has been accepted by the simple action server,0,1449617836863463901,odom,0.0,0.0,0.0,0.0,0.0,0.0,1.0
1449617836950626116,87,1449617836949083980,,1449617836898896324,/move_base-42-1449617836.898896324,1,This goal has been accepted by the simple action server,0,1449617836942992912,odom,0.0,0.0,0.0,0.0,0.0,0.0,1.0
1449617837023780546,88,1449617837022545971,,1449617836898896324,/move_base-42-1449617836.898896324,1,This goal has been accepted by the simple action server,0,1449617836983017136,odom,0.0,0.0,0.0,0.0,0.0,0.0,1.0
1449617837101288517,89,1449617837099983780,,1449617836898896324,/move_base-42-1449617836.898896324,1,This goal has been accepted by the simple action server,0,1449617837063115246,odom,0.0,0.0,0.0,0.0,0.0,0.0,1.0
1449617837206030850,90,1449617837205788570,,1449617836898896324,/move_base-42-1449617836.898896324,1,This goal has been accepted by the simple action server,0,1449617837182999519,odom,0.0,0.0,0.0,0.0,0.0,0.0,1.0
1449617837299699635,91,1449617837299579498,,1449617836898896324,/move_base-42-1449617836.898896324,1,This goal has been accepted by the simple action server,0,1449617837263011137,odom,0.0,0.0,0.0,0.0,0.0,0.0,1.0
1449617837384086919,92,1449617837383708419,,1449617836898896324,/move_base-42-1449617836.898896324,1,This goal has been accepted by the simple action server,0,1449617837343004095,odom,0.0,0.0,0.0,0.0,0.0,0.0,1.0
1449617837501807610,93,1449617837497584062,,1449617836898896324,/move_base-42-1449617836.898896324,1,This goal has been accepted by the simple action server,0,1449617837462997611,odom,0.00287963245437,3.04332289367e-05,0.0,0.0,0.0,0.0052839997518,0.999986039576
1449617837623134909,94,1449617837621922686,,1449617836898896324,/move_base-42-1449617836.898896324,1,This goal has been accepted by the simple action server,0,1449617837583360919,odom,0.00287963245437,3.04332289367e-05,0.0,0.0,0.0,0.0052839997518,0.999986039576
1449617837721481798,95,1449617837719367591,,1449617836898896324,/move_base-42-1449617836.898896324,1,This goal has been accepted by the simple action server,0,1449617837703113233,odom,0.00863889736311,9.129968681e-05,0.0,0.0,0.0,0.0052839997518,0.999986039576
1449617837814539617,96,1449617837814324656,,1449617836898896324,/move_base-42-1449617836.898896324,1,This goal has been accepted by the simple action server,0,1449617837783011016,odom,0.00863889736311,9.129968681e-05,0.0,0.0,0.0,0.0052839997518,0.999986039576
1449617837896062655,97,1449617837887408241,,1449617836898896324,/move_base-42-1449617836.898896324,1,This goal has been accepted by the simple action server,0,1449617837863003026,odom,0.0115180474012,0.000152162745821,0.0,0.0,0.0,0.0105678519699,0.999944158693
1449617837981867379,98,1449617837975480785,,1449617836898896324,/move_base-42-1449617836.898896324,1,This goal has been accepted by the simple action server,0,1449617837943723491,odom,0.0172768298936,0.000243459033768,0.0,0.0,0.0,0.0105678519699,0.999944158693
1449617838069919040,99,1449617838068024838,,1449617836898896324,/move_base-42-1449617836.898896324,1,This goal has been accepted by the simple action server,0,1449617838023088361,odom,0.0201551759644,0.000334745125508,0.0,0.0,0.0,0.0158514091245,0.999874358521
1449617838176667832,100,1449617838169942314,,1449617836898896324,/move_base-42-1449617836.898896324,1,This goal has been accepted by the simple action server,0,1449617838143005505,odom,0.0259126720733,0.000486894276258,0.0,0.0,0.0,0.0158514091245,0.999874358521
1449617838227022867,101,1449617838223426567,,1449617836898896324,/move_base-42-1449617836.898896324,1,This goal has been accepted by the simple action server,0,1449617838182997666,odom,0.0316693642148,0.000669466459736,0.0,0.0,0.0,0.0158514091245,0.999874358521
1449617838323439369,102,1449617838316547687,,1449617836898896324,/move_base-42-1449617836.898896324,1,This goal has been accepted by the simple action server,0,1449617838303003689,odom,0.0374260563564,0.000852038643215,0.0,0.0,0.0,0.0158514091245,0.999874358521
1449617838374523553,103,1449617838369614011,,1449617836898896324,/move_base-42-1449617836.898896324,1,This goal has been accepted by the simple action server,0,1449617838343002937,odom,0.0403032769986,0.000973737572614,0.0,0.0,0.0,0.0211345236944,0.999776641009
1449617838516638053,104,1449617838516375324,,1449617836898896324,/move_base-42-1449617836.898896324,1,This goal has been accepted by the simple action server,0,1449617838503015725,odom,0.0518107128037,0.00149093253621,0.0,0.0,0.0,0.0211345236944,0.999776641009
1449617838596658659,105,1449617838589939717,,1449617836898896324,/move_base-42-1449617836.898896324,1,This goal has been accepted by the simple action server,0,1449617838583003314,odom,0.0604380344384,0.00194722706242,0.0,0.0,0.0,0.0264170481704,0.999651008886
1449617838729178599,106,1449617838725560396,,1449617836898896324,/move_base-42-1449617836.898896324,1,This goal has been accepted by the simple action server,0,1449617838702998550,odom,0.0719411299513,0.00255561976404,0.0,0.0,0.0,0.0264170481704,0.999651008886
1449617838831510404,107,1449617838802137677,,1449617836898896324,/move_base-42-1449617836.898896324,1,This goal has been accepted by the simple action server,0,1449617838783006033,odom,0.0805631477721,0.0031030610681,0.0,0.0,0.0,0.0316988350601,0.999497465658
1449617838903091259,108,1449617838897512726,,1449617836898896324,/move_base-42-1449617836.898896324,1,This goal has been accepted by the simple action server,0,1449617838863005323,odom,0.0891830766784,0.00368086425155,0.0,0.0,0.0,0.0369797368913,0.999316015612
1449617838967705626,109,1449617838967538989,,1449617836898896324,/move_base-42-1449617836.898896324,1,This goal has been accepted by the simple action server,0,1449617838943002691,odom,0.100670744782,0.00453223350786,0.0,0.0,0.0,0.0369797368913,0.999316015612
1449617839011636968,110,1449617839005414917,,1449617836898896324,/move_base-42-1449617836.898896324,1,This goal has been accepted by the simple action server,0,1449617838982996399,odom,0.106414578833,0.00495791813602,0.0,0.0,0.0,0.0369797368913,0.999316015612
1449617839070607749,111,1449617839069506516,,1449617836898896324,/move_base-42-1449617836.898896324,1,This goal has been accepted by the simple action server,0,1449617839063005765,odom,0.120762115674,0.00617382024943,0.0,0.0,0.0,0.042259606217,0.999106663816
1449617839157775118,112,1449617839148462068,,1449617836898896324,/move_base-42-1449617836.898896324,1,This goal has been accepted by the simple action server,0,1449617839143001962,odom,0.135101462119,0.00748065521159,0.0,0.0,0.0,0.0475382956186,0.998869416115
1449617839236399320,113,1449617839227571236,,1449617836898896324,/move_base-42-1449617836.898896324,1,This goal has been accepted by the simple action server,0,1449617839223329039,odom,0.152310315933,0.00903067059643,0.0,0.0,0.0,0.0475382956186,0.998869416115
1449617839320089844,114,1449617839314248018,,1449617836898896324,/move_base-42-1449617836.898896324,1,This goal has been accepted by the simple action server,0,1449617839302990595,odom,0.169510979351,0.01067161883,0.0,0.0,0.0,0.0475382956186,0.998869416115
1449617839379348334,115,1449617839372261492,,1449617836898896324,/move_base-42-1449617836.898896324,1,This goal has been accepted by the simple action server,0,1449617839344915323,odom,0.175244533824,0.0112186015745,0.0,0.0,0.0,0.0475382956186,0.998869416115
1449617839416461757,116,1449617839416072671,,1449617836898896324,/move_base-42-1449617836.898896324,1,This goal has been accepted by the simple action server,0,1449617839383015957,odom,0.186711642769,0.0123125670636,0.0,0.0,0.0,0.0475382956186,0.998869416115
1449617844583652020,117,1449617844583461544,,1449617844583354010,/move_base-43-1449617844.583354010,1,This goal has been accepted by the simple action server,0,1449617844543011420,odom,1.30758578189,-0.0482027852954,0.0,0.0,0.0,-0.147413491427,0.989074952946
1449617844636021188,118,1449617844633521248,,1449617844583354010,/move_base-43-1449617844.583354010,1,This goal has been accepted by the simple action server,0,1449617844622998647,odom,1.31310376898,-0.049853157745,0.0,0.0,0.0,-0.147413491427,0.989074952946
1449617844684159752,119,1449617844683637852,,1449617844583354010,/move_base-43-1449617844.583354010,1,This goal has been accepted by the simple action server,0,1449617844663004000,odom,1.31861303539,-0.0515326876441,0.0,0.0,0.0,-0.147413491427,0.989074952946
1449617844735391569,120,1449617844733545996,,1449617844583354010,/move_base-43-1449617844.583354010,1,This goal has been accepted by the simple action server,0,1449617844703003888,odom,1.3241223018,-0.0532122175432,0.0,0.0,0.0,-0.147413491427,0.989074952946
1449617844785696992,121,1449617844783622308,,1449617844583354010,/move_base-43-1449617844.583354010,1,This goal has been accepted by the simple action server,0,1449617844743001037,odom,1.32686790667,-0.0540810461551,0.0,0.0,0.0,-0.152637705278,0.988282212188
1449617844834540861,122,1449617844833671400,,1449617844797901240,/move_base-44-1449617844.797901240,1,This goal has been accepted by the simple action server,0,1449617844823091290,odom,1.33236814474,-0.0557896397165,0.0,0.0,0.0,-0.152637705278,0.988282212188
1449617844885287271,123,1449617844884698781,,1449617844797901240,/move_base-44-1449617844.797901240,1,This goal has been accepted by the simple action server,0,1449617844863000733,odom,1.33785935448,-0.0575272969403,0.0,0.0,0.0,-0.152637705278,0.988282212188
1449617844934432471,124,1449617844933969303,,1449617844797901240,/move_base-44-1449617844.797901240,1,This goal has been accepted by the simple action server,0,1449617844902999600,odom,1.34335056421,-0.0592649541641,0.0,0.0,0.0,-0.152637705278,0.988282212188
1449617844984470513,125,1449617844984020270,,1449617844797901240,/move_base-44-1449617844.797901240,1,This goal has been accepted by the simple action server,0,1449617844943001629,odom,1.34608683411,-0.0601627494053,0.0,0.0,0.0,-0.157857657354,0.987461877753
1449617845033972828,126,1449617845033661834,,1449617845000849659,/move_base-45-1449617845.849659,1,This goal has been accepted by the simple action server,0,1449617845023147210,odom,1.35156870888,-0.0619293732583,0.0,0.0,0.0,-0.157857657354,0.987461877753
1449617845088218168,127,1449617845083729626,,1449617845000849659,/move_base-45-1449617845.849659,1,This goal has been accepted by the simple action server,0,1449617845062972601,odom,1.35431431375,-0.0627982018702,0.0,0.0,0.0,-0.152637705278,0.988282212188
1449617845213421421,128,1449617845205083638,,1449617845000849659,/move_base-45-1449617845.849659,1,This goal has been accepted by the simple action server,0,1449617845183003461,odom,1.36252312345,-0.0654915875938,0.0,0.0,0.0,-0.157857657354,0.987461877753
1449617845314514958,129,1449617845302939800,,1449617845000849659,/move_base-45-1449617845.849659,1,This goal has been accepted by the simple action server,0,1449617845263008712,odom,1.36799566324,-0.0672871780762,0.0,0.0,0.0,-0.157857657354,0.987461877753
1449617845366144652,130,1449617845365902605,,1449617845000849659,/move_base-45-1449617845.849659,1,This goal has been accepted by the simple action server,0,1449617845342999825,odom,1.37345856248,-0.0691116349197,0.0,0.0,0.0,-0.157857657354,0.987461877753
1449617845422017357,131,1449617845416313460,,1449617845000849659,/move_base-45-1449617845.849659,1,This goal has been accepted by the simple action server,0,1449617845387775791,odom,1.37618519181,-0.0700382965221,0.0,0.0,0.0,-0.163073201911,0.986613972544
1449617845470566799,132,1449617845469910075,,1449617845000849659,/move_base-45-1449617845.849659,1,This goal has been accepted by the simple action server,0,1449617845423432782,odom,1.37892146171,-0.0709360917633,0.0,0.0,0.0,-0.157857657354,0.987461877753
1449617845553298856,133,1449617845549632931,,1449617845000849659,/move_base-45-1449617845.849659,1,This goal has been accepted by the simple action server,0,1449617845543008957,odom,1.38164809104,-0.0718627533657,0.0,0.0,0.0,-0.163073201911,0.986613972544
1449617845625352328,134,1449617845601538269,,1449617845000849659,/move_base-45-1449617845.849659,1,This goal has been accepted by the simple action server,0,1449617845583010755,odom,1.38710134971,-0.0737160765704,0.0,0.0,0.0,-0.163073201911,0.986613972544
1449617845738836283,135,1449617845738268789,,1449617845000849659,/move_base-45-1449617845.849659,1,This goal has been accepted by the simple action server,0,1449617845703014584,odom,1.3925446633,-0.0755981626443,0.0,0.0,0.0,-0.163073201911,0.986613972544
1449617845821451621,136,1449617845804161018,,1449617845000849659,/move_base-45-1449617845.849659,1,This goal has been accepted by the simple action server,0,1449617845783001474,odom,1.39526134756,-0.0765535871159,0.0,0.0,0.0,-0.168284193326,0.985738520236
1449617845876463594,137,1449617845873639538,,1449617845000849659,/move_base-45-1449617845.849659,1,This goal has been accepted by the simple action server,0,1449617845863214735,odom,1.40070466114,-0.0784356731898,0.0,0.0,0.0,-0.168284193326,0.985738520236
1449617845946841430,138,1449617845943867629,,1449617845000849659,/move_base-45-1449617845.849659,1,This goal has been accepted by the simple action server,0,1449617845902998502,odom,1.40070466114,-0.0784356731898,0.0,0.0,0.0,-0.168284193326,0.985738520236
1449617846002093049,139,1449617845994612400,,1449617845000849659,/move_base-45-1449617845.849659,1,This goal has been accepted by the simple action server,0,1449617845983001230,odom,1.40613802965,-0.0803465221329,0.0,0.0,0.0,-0.168284193326,0.985738520236
1449617846139673152,140,1449617846139153163,,1449617846072475406,/move_base-46-1449617846.72475406,1,This goal has been accepted by the simple action server,0,1449617846103013598,odom,1.41426758544,-0.0832701078774,0.0,0.0,0.0,-0.173490486104,0.984835545272
1449617846176973554,141,1449617846176188659,,1449617846072475406,/move_base-46-1449617846.72475406,1,This goal has been accepted by the simple action server,0,1449617846143005423,odom,1.41698426969,-0.0842255323489,0.0,0.0,0.0,-0.168284193326,0.985738520236
1449617846229465000,142,1449617846227330214,,1449617846072475406,/move_base-46-1449617846.72475406,1,This goal has been accepted by the simple action server,0,1449617846222995931,odom,1.41969070545,-0.0852096129854,0.0,0.0,0.0,-0.173490486104,0.984835545272
1449617846277245357,143,1449617846275710257,,1449617846072475406,/move_base-46-1449617846.72475406,1,This goal has been accepted by the simple action server,0,1449617846263000860,odom,1.42510357699,-0.0871777742583,0.0,0.0,0.0,-0.173490486104,0.984835545272
1449617846325837409,144,1449617846325693765,,1449617846072475406,/move_base-46-1449617846.72475406,1,This goal has been accepted by the simple action server,0,1449617846303053882,odom,1.42510357699,-0.0871777742583,0.0,0.0,0.0,-0.173490486104,0.984835545272
1449617846377556964,145,1449617846375729794,,1449617846072475406,/move_base-46-1449617846.72475406,1,This goal has been accepted by the simple action server,0,1449617846343004853,odom,1.43051644852,-0.0891459355312,0.0,0.0,0.0,-0.173490486104,0.984835545272
1449617846426526809,146,1449617846425831602,,1449617846072475406,/move_base-46-1449617846.72475406,1,This goal has been accepted by the simple action server,0,1449617846423004520,odom,1.43051644852,-0.0891459355312,0.0,0.0,0.0,-0.173490486104,0.984835545272
1449617846475987410,147,1449617846475694231,,1449617846072475406,/move_base-46-1449617846.72475406,1,This goal has been accepted by the simple action server,0,1449617846463011872,odom,1.43592932005,-0.0911140968041,0.0,0.0,0.0,-0.173490486104,0.984835545272
1449617846526720833,148,1449617846525722108,,1449617846072475406,/move_base-46-1449617846.72475406,1,This goal has been accepted by the simple action server,0,1449617846503107657,odom,1.43592932005,-0.0911140968041,0.0,0.0,0.0,-0.173490486104,0.984835545272
1449617846579235385,149,1449617846576724485,,1449617846072475406,/move_base-46-1449617846.72475406,1,This goal has been accepted by the simple action server,0,1449617846543454913,odom,1.43862520507,-0.0921267237007,0.0,0.0,0.0,-0.17869193488,0.983905072865
1449617846626931341,150,1449617846626507948,,1449617846072475406,/move_base-46-1449617846.72475406,1,This goal has been accepted by the simple action server,0,1449617846623135892,odom,1.44133164083,-0.0931108043372,0.0,0.0,0.0,-0.173490486104,0.984835545272
1449617846679036663,151,1449617846676143856,,1449617846072475406,/move_base-46-1449617846.72475406,1,This goal has been accepted by the simple action server,0,1449617846663000150,odom,1.44402752585,-0.0941234312338,0.0,0.0,0.0,-0.17869193488,0.983905072865
1449617846726113354,152,1449617846725724107,,1449617846072475406,/move_base-46-1449617846.72475406,1,This goal has been accepted by the simple action server,0,1449617846702996328,odom,1.44673396161,-0.0951075118702,0.0,0.0,0.0,-0.173490486104,0.984835545272
1449617846776495793,153,1449617846775793724,,1449617846072475406,/move_base-46-1449617846.72475406,1,This goal has been accepted by the simple action server,0,1449617846743008976,odom,1.44942984663,-0.0961201387669,0.0,0.0,0.0,-0.17869193488,0.983905072865
1449617846826456930,154,1449617846826238598,,1449617846072475406,/move_base-46-1449617846.72475406,1,This goal has been accepted by the simple action server,0,1449617846822999062,odom,1.4521362824,-0.0971042194033,0.0,0.0,0.0,-0.173490486104,0.984835545272
1449617846876030502,155,1449617846875866884,,1449617846072475406,/move_base-46-1449617846.72475406,1,This goal has been accepted by the simple action server,0,1449617846862996545,odom,1.45483216741,-0.0981168463,0.0,0.0,0.0,-0.17869193488,0.983905072865
1449617846926314426,156,1449617846926005652,,1449617846072475406,/move_base-46-1449617846.72475406,1,This goal has been accepted by the simple action server,0,1449617846902995581,odom,1.45483216741,-0.0981168463,0.0,0.0,0.0,-0.17869193488,0.983905072865
1449617846976875571,157,1449617846976471335,,1449617846072475406,/move_base-46-1449617846.72475406,1,This goal has been accepted by the simple action server,0,1449617846942997796,odom,1.4575172006,-0.099157906364,0.0,0.0,0.0,-0.183888394426,0.982947128993
1449617847027839556,158,1449617847026527889,,1449617846072475406,/move_base-46-1449617846.72475406,1,This goal has been accepted by the simple action server,0,1449617847022997288,odom,1.46021308561,-0.100170533261,0.0,0.0,0.0,-0.17869193488,0.983905072865
1449617847075945304,159,1449617847075713849,,1449617846072475406,/move_base-46-1449617846.72475406,1,This goal has been accepted by the simple action server,0,1449617847063030680,odom,1.4628981188,-0.101211593325,0.0,0.0,0.0,-0.183888394426,0.982947128993
1449617847127679982,160,1449617847127230647,,1449617846072475406,/move_base-46-1449617846.72475406,1,This goal has been accepted by the simple action server,0,1449617847103006061,odom,1.4628981188,-0.101211593325,0.0,0.0,0.0,-0.183888394426,0.982947128993
1449617847176029071,161,1449617847175854718,,1449617846072475406,/move_base-46-1449617846.72475406,1,This goal has been accepted by the simple action server,0,1449617847143028966,odom,1.46559400381,-0.102224220221,0.0,0.0,0.0,-0.17869193488,0.983905072865
1449617847229887371,162,1449617847226264828,,1449617846072475406,/move_base-46-1449617846.72475406,1,This goal has been accepted by the simple action server,0,1449617847223004410,odom,1.468279037,-0.103265280285,0.0,0.0,0.0,-0.183888394426,0.982947128993
1449617847277776981,163,1449617847275885423,,1449617846072475406,/move_base-46-1449617846.72475406,1,This goal has been accepted by the simple action server,0,1449617847262998654,odom,1.468279037,-0.103265280285,0.0,0.0,0.0,-0.183888394426,0.982947128993
1449617847327225761,164,1449617847326959777,,1449617846072475406,/move_base-46-1449617846.72475406,1,This goal has been accepted by the simple action server,0,1449617847302993891,odom,1.468279037,-0.103265280285,0.0,0.0,0.0,-0.183888394426,0.982947128993
1449617847381508402,165,1449617847376901643,,1449617846072475406,/move_base-46-1449617846.72475406,1,This goal has been accepted by the simple action server,0,1449617847342999564,odom,1.47097492201,-0.104277907182,0.0,0.0,0.0,-0.17869193488,0.983905072865
1449617847426070889,166,1449617847425773241,,1449617846072475406,/move_base-46-1449617846.72475406,1,This goal has been accepted by the simple action server,0,1449617847423153781,odom,1.4736599552,-0.105318967246,0.0,0.0,0.0,-0.183888394426,0.982947128993
1449617847476548943,167,1449617847475743917,,1449617846072475406,/move_base-46-1449617846.72475406,1,This goal has been accepted by the simple action server,0,1449617847463005111,odom,1.4736599552,-0.105318967246,0.0,0.0,0.0,-0.183888394426,0.982947128993
1449617847527068440,168,1449617847526006939,,1449617846072475406,/move_base-46-1449617846.72475406,1,This goal has been accepted by the simple action server,0,1449617847503312058,odom,1.4736599552,-0.105318967246,0.0,0.0,0.0,-0.183888394426,0.982947128993
1449617847577037823,169,1449617847575732986,,1449617846072475406,/move_base-46-1449617846.72475406,1,This goal has been accepted by the simple action server,0,1449617847543004238,odom,1.4736599552,-0.105318967246,0.0,0.0,0.0,-0.183888394426,0.982947128993
1449617847627656186,170,1449617847625713066,,1449617846072475406,/move_base-46-1449617846.72475406,1,This goal has been accepted by the simple action server,0,1449617847623012512,odom,1.4736599552,-0.105318967246,0.0,0.0,0.0,-0.183888394426,0.982947128993
1449617847677061240,171,1449617847675707647,,1449617846072475406,/move_base-46-1449617846.72475406,1,This goal has been accepted by the simple action server,0,1449617847663007403,odom,1.4736599552,-0.105318967246,0.0,0.0,0.0,-0.183888394426,0.982947128993
1449617847728629742,172,1449617847725709914,,1449617846072475406,/move_base-46-1449617846.72475406,1,This goal has been accepted by the simple action server,0,1449617847703006157,odom,1.4736599552,-0.105318967246,0.0,0.0,0.0,-0.183888394426,0.982947128993
1449617847776318125,173,1449617847775768437,,1449617846072475406,/move_base-46-1449617846.72475406,1,This goal has been accepted by the simple action server,0,1449617847743006218,odom,1.4736599552,-0.105318967246,0.0,0.0,0.0,-0.183888394426,0.982947128993
1449617847826760892,174,1449617847825703221,,1449617846072475406,/move_base-46-1449617846.72475406,1,This goal has been accepted by the simple action server,0,1449617847783014303,odom,1.4736599552,-0.105318967246,0.0,0.0,0.0,-0.183888394426,0.982947128993
1449617847877494281,175,1449617847877166007,,1449617846072475406,/move_base-46-1449617846.72475406,1,This goal has been accepted by the simple action server,0,1449617847863000880,odom,1.4736599552,-0.105318967246,0.0,0.0,0.0,-0.183888394426,0.982947128993
1449617847925970842,176,1449617847925707130,,1449617846072475406,/move_base-46-1449617846.72475406,1,This goal has been accepted by the simple action server,0,1449617847902995469,odom,1.47633383668,-0.106388344209,0.0,0.0,0.0,-0.189079719651,0.981961740404
1449617847976162597,177,1449617847975730421,,1449617846072475406,/move_base-46-1449617846.72475406,1,This goal has been accepted by the simple action server,0,1449617847943000431,odom,1.47901886986,-0.107429404273,0.0,0.0,0.0,-0.183888394426,0.982947128993
1449617848030356691,178,1449617848025716207,,1449617846072475406,/move_base-46-1449617846.72475406,1,This goal has been accepted by the simple action server,0,1449617848023022095,odom,1.47901886986,-0.107429404273,0.0,0.0,0.0,-0.183888394426,0.982947128993
1449617848078996293,179,1449617848075735992,,1449617846072475406,/move_base-46-1449617846.72475406,1,This goal has been accepted by the simple action server,0,1449617848062993452,odom,1.47901886986,-0.107429404273,0.0,0.0,0.0,-0.183888394426,0.982947128993
1449617848129681316,180,1449617848128604888,,1449617846072475406,/move_base-46-1449617846.72475406,1,This goal has been accepted by the simple action server,0,1449617848103001862,odom,1.47901886986,-0.107429404273,0.0,0.0,0.0,-0.183888394426,0.982947128993
1449617848176152587,181,1449617848175788849,,1449617846072475406,/move_base-46-1449617846.72475406,1,This goal has been accepted by the simple action server,0,1449617848143002937,odom,1.47901886986,-0.107429404273,0.0,0.0,0.0,-0.183888394426,0.982947128993
1449617848226062522,182,1449617848225696356,,1449617846072475406,/move_base-46-1449617846.72475406,1,This goal has been accepted by the simple action server,0,1449617848223010758,odom,1.47901886986,-0.107429404273,0.0,0.0,0.0,-0.183888394426,0.982947128993
1449617848278247460,183,1449617848277691124,,1449617846072475406,/move_base-46-1449617846.72475406,1,This goal has been accepted by the simple action server,0,1449617848263013140,odom,1.47901886986,-0.107429404273,0.0,0.0,0.0,-0.183888394426,0.982947128993
1449617848328274013,184,1449617848325711418,,1449617846072475406,/move_base-46-1449617846.72475406,1,This goal has been accepted by the simple action server,0,1449617848303004309,odom,1.47901886986,-0.107429404273,0.0,0.0,0.0,-0.183888394426,0.982947128993
1449617848376345602,185,1449617848375719056,,1449617846072475406,/move_base-46-1449617846.72475406,1,This goal has been accepted by the simple action server,0,1449617848343993832,odom,1.47901886986,-0.107429404273,0.0,0.0,0.0,-0.183888394426,0.982947128993
1449617848425972178,186,1449617848425817490,,1449617846072475406,/move_base-46-1449617846.72475406,1,This goal has been accepted by the simple action server,0,1449617848423142339,odom,1.47901886986,-0.107429404273,0.0,0.0,0.0,-0.183888394426,0.982947128993
1449617848476851428,187,1449617848476432436,,1449617846072475406,/move_base-46-1449617846.72475406,1,This goal has been accepted by the simple action server,0,1449617848463011153,odom,1.47901886986,-0.107429404273,0.0,0.0,0.0,-0.183888394426,0.982947128993
1449617848531124504,188,1449617848529251674,,1449617846072475406,/move_base-46-1449617846.72475406,1,This goal has been accepted by the simple action server,0,1449617848503003777,odom,1.47901886986,-0.107429404273,0.0,0.0,0.0,-0.183888394426,0.982947128993
1449617848577816750,189,1449617848576322206,,1449617846072475406,/move_base-46-1449617846.72475406,1,This goal has been accepted by the simple action server,0,1449617848543566795,odom,1.47901886986,-0.107429404273,0.0,0.0,0.0,-0.183888394426,0.982947128993
1449617848626787951,190,1449617848626324867,,1449617846072475406,/move_base-46-1449617846.72475406,1,This goal has been accepted by the simple action server,0,1449617848623014871,odom,1.47901886986,-0.107429404273,0.0,0.0,0.0,-0.183888394426,0.982947128993
1449617848676531763,191,1449617848675725816,,1449617846072475406,/move_base-46-1449617846.72475406,1,This goal has been accepted by the simple action server,0,1449617848662999831,odom,1.47901886986,-0.107429404273,0.0,0.0,0.0,-0.183888394426,0.982947128993
1449617848727884139,192,1449617848727671844,,1449617846072475406,/move_base-46-1449617846.72475406,1,This goal has been accepted by the simple action server,0,1449617848702993096,odom,1.47901886986,-0.107429404273,0.0,0.0,0.0,-0.183888394426,0.982947128993
1449617848777306657,193,1449617848777027682,,1449617846072475406,/move_base-46-1449617846.72475406,1,This goal has been accepted by the simple action server,0,1449617848743342149,odom,1.47901886986,-0.107429404273,0.0,0.0,0.0,-0.183888394426,0.982947128993
1449617848826354996,194,1449617848826153578,,1449617846072475406,/move_base-46-1449617846.72475406,1,This goal has been accepted by the simple action server,0,1449617848822997247,odom,1.47901886986,-0.107429404273,0.0,0.0,0.0,-0.183888394426,0.982947128993
1449617848875950903,195,1449617848875730325,,1449617846072475406,/move_base-46-1449617846.72475406,1,This goal has been accepted by the simple action server,0,1449617848863003731,odom,1.47901886986,-0.107429404273,0.0,0.0,0.0,-0.183888394426,0.982947128993
1449617848928998000,196,1449617848927655339,,1449617846072475406,/move_base-46-1449617846.72475406,1,This goal has been accepted by the simple action server,0,1449617848903083660,odom,1.47901886986,-0.107429404273,0.0,0.0,0.0,-0.183888394426,0.982947128993
1449617848975874516,197,1449617848975720865,,1449617846072475406,/move_base-46-1449617846.72475406,1,This goal has been accepted by the simple action server,0,1449617848943046097,odom,1.47901886986,-0.107429404273,0.0,0.0,0.0,-0.183888394426,0.982947128993
1449617849025958740,198,1449617849025781232,,1449617846072475406,/move_base-46-1449617846.72475406,1,This goal has been accepted by the simple action server,0,1449617849023005622,odom,1.47901886986,-0.107429404273,0.0,0.0,0.0,-0.183888394426,0.982947128993
1449617849077392089,199,1449617849076752077,,1449617846072475406,/move_base-46-1449617846.72475406,1,This goal has been accepted by the simple action server,0,1449617849063016306,odom,1.47901886986,-0.107429404273,0.0,0.0,0.0,-0.183888394426,0.982947128993
1449617849127803293,200,1449617849125832704,,1449617846072475406,/move_base-46-1449617846.72475406,1,This goal has been accepted by the simple action server,0,1449617849102996372,odom,1.47901886986,-0.107429404273,0.0,0.0,0.0,-0.183888394426,0.982947128993
1449617849176217154,201,1449617849175900708,,1449617846072475406,/move_base-46-1449617846.72475406,1,This goal has been accepted by the simple action server,0,1449617849143585438,odom,1.47901886986,-0.107429404273,0.0,0.0,0.0,-0.183888394426,0.982947128993
1449617849226347616,202,1449617849225960847,,1449617846072475406,/move_base-46-1449617846.72475406,1,This goal has been accepted by the simple action server,0,1449617849223001342,odom,1.47901886986,-0.107429404273,0.0,0.0,0.0,-0.183888394426,0.982947128993
1449617849276056212,203,1449617849275878738,,1449617846072475406,/move_base-46-1449617846.72475406,1,This goal has been accepted by the simple action server,0,1449617849262997736,odom,1.47901886986,-0.107429404273,0.0,0.0,0.0,-0.183888394426,0.982947128993
1449617849328745573,204,1449617849328357329,,1449617846072475406,/move_base-46-1449617846.72475406,1,This goal has been accepted by the simple action server,0,1449617849303012106,odom,1.48169275134,-0.108498781236,0.0,0.0,0.0,-0.189079719651,0.981961740404
1449617849378018417,205,1449617849376091664,,1449617846072475406,/move_base-46-1449617846.72475406,1,This goal has been accepted by the simple action server,0,1449617849342999425,odom,1.48169275134,-0.108498781236,0.0,0.0,0.0,-0.189079719651,0.981961740404
1449617849428017961,206,1449617849426695648,,1449617846072475406,/move_base-46-1449617846.72475406,1,This goal has been accepted by the simple action server,0,1449617849383009273,odom,1.48169275134,-0.108498781236,0.0,0.0,0.0,-0.189079719651,0.981961740404
1449617849476061445,207,1449617849475887590,,1449617846072475406,/move_base-46-1449617846.72475406,1,This goal has been accepted by the simple action server,0,1449617849462993032,odom,1.48169275134,-0.108498781236,0.0,0.0,0.0,-0.189079719651,0.981961740404
1449617849526170808,208,1449617849525874465,,1449617846072475406,/move_base-46-1449617846.72475406,1,This goal has been accepted by the simple action server,0,1449617849504316590,odom,1.48169275134,-0.108498781236,0.0,0.0,0.0,-0.189079719651,0.981961740404
1449617849577059898,209,1449617849576807030,,1449617846072475406,/move_base-46-1449617846.72475406,1,This goal has been accepted by the simple action server,0,1449617849543023535,odom,1.48169275134,-0.108498781236,0.0,0.0,0.0,-0.189079719651,0.981961740404
1449617849626464902,210,1449617849625715291,,1449617846072475406,/move_base-46-1449617846.72475406,1,This goal has been accepted by the simple action server,0,1449617849583004503,odom,1.48169275134,-0.108498781236,0.0,0.0,0.0,-0.189079719651,0.981961740404
1449617849676049213,211,1449617849675730810,,1449617846072475406,/move_base-46-1449617846.72475406,1,This goal has been accepted by the simple action server,0,1449617849663000382,odom,1.48169275134,-0.108498781236,0.0,0.0,0.0,-0.189079719651,0.981961740404
1449617849725934393,212,1449617849725703835,,1449617846072475406,/move_base-46-1449617846.72475406,1,This goal has been accepted by the simple action server,0,1449617849702994258,odom,1.48169275134,-0.108498781236,0.0,0.0,0.0,-0.189079719651,0.981961740404
1449617849776498221,213,1449617849775721454,,1449617846072475406,/move_base-46-1449617846.72475406,1,This goal has been accepted by the simple action server,0,1449617849743006451,odom,1.48169275134,-0.108498781236,0.0,0.0,0.0,-0.189079719651,0.981961740404
1449617849826271535,214,1449617849825705729,,1449617846072475406,/move_base-46-1449617846.72475406,1,This goal has been accepted by the simple action server,0,1449617849783004885,odom,1.48169275134,-0.108498781236,0.0,0.0,0.0,-0.189079719651,0.981961740404
1449617849877138452,215,1449617849875696549,,1449617846072475406,/move_base-46-1449617846.72475406,1,This goal has been accepted by the simple action server,0,1449617849862968432,odom,1.48169275134,-0.108498781236,0.0,0.0,0.0,-0.189079719651,0.981961740404
1449617849926178790,216,1449617849925821014,,1449617849915418992,/move_base-47-1449617849.915418992,1,This goal has been accepted by the simple action server,0,1449617849902992566,odom,1.48169275134,-0.108498781236,0.0,0.0,0.0,-0.189079719651,0.981961740404
1449617849976690416,217,1449617849976259938,,1449617849915418992,/move_base-47-1449617849.915418992,1,This goal has been accepted by the simple action server,0,1449617849943094707,odom,1.48169275134,-0.108498781236,0.0,0.0,0.0,-0.189079719651,0.981961740404
1449617850026899680,218,1449617850026476641,,1449617849915418992,/move_base-47-1449617849.915418992,1,This goal has been accepted by the simple action server,0,1449617850023022057,odom,1.48169275134,-0.108498781236,0.0,0.0,0.0,-0.189079719651,0.981961740404
1449617850076750771,219,1449617850075733730,,1449617849915418992,/move_base-47-1449617849.915418992,1,This goal has been accepted by the simple action server,0,1449617850063004502,odom,1.48169275134,-0.108498781236,0.0,0.0,0.0,-0.189079719651,0.981961740404
1449617850126387398,220,1449617850126178261,,1449617850113677238,/move_base-48-1449617850.113677238,1,This goal has been accepted by the simple action server,0,1449617850102996400,odom,1.48169275134,-0.108498781236,0.0,0.0,0.0,-0.189079719651,0.981961740404
1449617850181772540,221,1449617850180220529,,1449617850113677238,/move_base-48-1449617850.113677238,1,This goal has been accepted by the simple action server,0,1449617850143641866,odom,1.48169275134,-0.108498781236,0.0,0.0,0.0,-0.189079719651,0.981961740404
1449617850226687579,222,1449617850225758767,,1449617850113677238,/move_base-48-1449617850.113677238,1,This goal has been accepted by the simple action server,0,1449617850223004746,odom,1.48437778452,-0.1095398413,0.0,0.0,0.0,-0.183888394426,0.982947128993
1449617850277732140,223,1449617850275733041,,1449617850113677238,/move_base-48-1449617850.113677238,1,This goal has been accepted by the simple action server,0,1449617850266057734,odom,1.48437778452,-0.1095398413,0.0,0.0,0.0,-0.183888394426,0.982947128993
1449617850326747752,224,1449617850325731364,,1449617850113677238,/move_base-48-1449617850.113677238,1,This goal has been accepted by the simple action server,0,1449617850303007347,odom,1.48437778452,-0.1095398413,0.0,0.0,0.0,-0.183888394426,0.982947128993
1449617850377698121,225,1449617850375738284,,1449617850113677238,/move_base-48-1449617850.113677238,1,This goal has been accepted by the simple action server,0,1449617850342994458,odom,1.48437778452,-0.1095398413,0.0,0.0,0.0,-0.183888394426,0.982947128993
1449617850426998761,226,1449617850426770189,,1449617850113677238,/move_base-48-1449617850.113677238,1,This goal has been accepted by the simple action server,0,1449617850423009179,odom,1.48437778452,-0.1095398413,0.0,0.0,0.0,-0.183888394426,0.982947128993
1449617850486589202,227,1449617850476089940,,1449617850427180876,/move_base-49-1449617850.427180876,1,This goal has been accepted by the simple action server,0,1449617850463405235,odom,1.48437778452,-0.1095398413,0.0,0.0,0.0,-0.183888394426,0.982947128993
1449617850531734955,228,1449617850528647066,,1449617850427180876,/move_base-49-1449617850.427180876,1,This goal has been accepted by the simple action server,0,1449617850503011287,odom,1.48437778452,-0.1095398413,0.0,0.0,0.0,-0.183888394426,0.982947128993
1449617850598264865,229,1449617850594419949,,1449617850427180876,/move_base-49-1449617850.427180876,1,This goal has been accepted by the simple action server,0,1449617850583001849,odom,1.48437778452,-0.1095398413,0.0,0.0,0.0,-0.183888394426,0.982947128993
1449617850696889237,230,1449617850696758772,,1449617850427180876,/move_base-49-1449617850.427180876,1,This goal has been accepted by the simple action server,0,1449617850663013375,odom,1.48437778452,-0.1095398413,0.0,0.0,0.0,-0.183888394426,0.982947128993
1449617850792012002,231,1449617850761698665,,1449617850716835816,/move_base-50-1449617850.716835816,1,This goal has been accepted by the simple action server,0,1449617850743004407,odom,1.48437778452,-0.1095398413,0.0,0.0,0.0,-0.183888394426,0.982947128993
1449617850798003473,232,1449617850797615888,,1449617850716835816,/move_base-50-1449617850.716835816,1,This goal has been accepted by the simple action server,0,1449617850783025397,odom,1.48437778452,-0.1095398413,0.0,0.0,0.0,-0.183888394426,0.982947128993
1449617850880628104,233,1449617850874060917,,1449617850716835816,/move_base-50-1449617850.716835816,1,This goal has been accepted by the simple action server,0,1449617850863017318,odom,1.48707366954,-0.110552468197,0.0,0.0,0.0,-0.17869193488,0.983905072865
1449617850946111381,234,1449617850946000708,,1449617850716835816,/move_base-50-1449617850.716835816,1,This goal has been accepted by the simple action server,0,1449617850943003014,odom,1.48975870272,-0.111593528261,0.0,0.0,0.0,-0.183888394426,0.982947128993
1449617851043990736,235,1449617851031823739,,1449617850716835816,/move_base-50-1449617850.716835816,1,This goal has been accepted by the simple action server,0,1449617851023007937,odom,1.49245458774,-0.112606155157,0.0,0.0,0.0,-0.17869193488,0.983905072865
1449617851168300795,236,1449617851167516151,,1449617850716835816,/move_base-50-1449617850.716835816,1,This goal has been accepted by the simple action server,0,1449617851143018055,odom,1.50326978005,-0.116571023963,0.0,0.0,0.0,-0.17869193488,0.983905072865
1449617851249624857,237,1449617851249228032,,1449617850716835816,/move_base-50-1449617850.716835816,1,This goal has been accepted by the simple action server,0,1449617851223004563,odom,1.50869290007,-0.118510529071,0.0,0.0,0.0,-0.168284193326,0.985738520236
1449617851340826006,238,1449617851330558164,,1449617850716835816,/move_base-50-1449617850.716835816,1,This goal has been accepted by the simple action server,0,1449617851303006231,odom,1.51955963709,-0.122332226958,0.0,0.0,0.0,-0.168284193326,0.985738520236
1449617851390216757,239,1449617851389449099,,1449617850716835816,/move_base-50-1449617850.716835816,1,This goal has been accepted by the simple action server,0,1449617851383017075,odom,1.5331728936,-0.127023060708,0.0,0.0,0.0,-0.163073201911,0.986613972544
1449617851575409042,240,1449617851554567100,,1449617850716835816,/move_base-50-1449617850.716835816,1,This goal has been accepted by the simple action server,0,1449617851543216883,odom,1.5550910577,-0.134118522749,0.0,0.0,0.0,-0.152637705278,0.988282212188
1449617851667255719,241,1449617851659892687,,1449617850716835816,/move_base-50-1449617850.716835816,1,This goal has been accepted by the simple action server,0,1449617851623043257,odom,1.56884616704,-0.138375474822,0.0,0.0,0.0,-0.147413491427,0.989074952946
1449617851793140790,242,1449617851782989926,,1449617850716835816,/move_base-50-1449617850.716835816,1,This goal has been accepted by the simple action server,0,1449617851743020818,odom,1.59096079302,-0.14483090578,0.0,0.0,0.0,-0.136952861975,0.990577565664
