%time,field.header.seq,field.header.stamp,field.header.frame_id,field.pose.position.x,field.pose.position.y,field.pose.position.z,field.pose.orientation.x,field.pose.orientation.y,field.pose.orientation.z,field.pose.orientation.w
1449617832567828842,0,1449617832505127022,/odom,nan,nan,0.0,nan,nan,nan,nan
1449617832619480747,1,1449617832586604398,/odom,0.0,0.0,0.0,0.0,0.0,0.0,1.0
1449617832728601363,2,1449617832689628351,/odom,0.0,0.0,0.0,0.0,0.0,0.0,1.0
1449617832807720706,3,1449617832789384189,/odom,0.0,0.0,0.0,0.0,0.0,0.0,1.0
1449617832938311533,4,1449617832884114777,/odom,0.0,0.0,0.0,0.0,0.0,0.0,1.0
1449617833009553127,5,1449617832981477465,/odom,0.0,0.0,0.0,0.0,0.0,0.0,1.0
1449617833125227352,6,1449617833083438466,/odom,0.0,0.0,0.0,0.0,0.0,0.0,1.0
1449617833217148659,7,1449617833184232210,/odom,0.0,0.0,0.0,0.0,0.0,0.0,1.0
1449617833332824422,8,1449617833283517516,/odom,0.0,0.0,0.0,0.0,0.0,0.0,1.0
1449617833405724181,9,1449617833388483161,/odom,0.0,0.0,0.0,0.0,0.0,0.0,1.0
1449617833527981310,10,1449617833482314139,/odom,0.0,0.0,0.0,0.0,0.0,0.0,1.0
1449617833615092571,11,1449617833582739940,/odom,0.0,0.0,0.0,0.0,0.0,0.0,1.0
1449617833722766966,12,1449617833683643138,/odom,0.0,0.0,0.0,0.0,0.0,0.0,1.0
1449617833814425596,13,1449617833782850683,/odom,0.0,0.0,0.0,0.0,0.0,0.0,1.0
1449617833929525409,14,1449617833880650944,/odom,0.0,0.0,0.0,0.0,0.0,0.0,1.0
1449617834006171539,15,1449617833981542927,/odom,0.0,0.0,0.0,0.0,0.0,0.0,1.0
1449617834123131926,16,1449617834084750117,/odom,0.0,0.0,0.0,0.0,0.0,0.0,1.0
1449617834233714001,17,1449617834180203230,/odom,0.0,0.0,0.0,0.0,0.0,0.0,1.0
1449617834328753096,18,1449617834283317240,/odom,0.0,0.0,0.0,0.0,0.0,0.0,1.0
1449617834403877783,19,1449617834382264924,/odom,0.0,0.0,0.0,0.0,0.0,0.0,1.0
1449617834525882404,20,1449617834481462131,/odom,0.0,0.0,0.0,0.0,0.0,0.0,1.0
1449617834607958356,21,1449617834586628262,/odom,0.0,0.0,0.0,0.0,0.0,0.0,1.0
1449617834729390136,22,1449617834681784422,/odom,-0.00287963245437,-3.04332289367e-05,0.0,0.0,0.0,0.0052839997518,0.999986039576
1449617834804261963,23,1449617834781538274,/odom,-0.00287963245437,-3.04332289367e-05,0.0,0.0,0.0,0.0052839997518,0.999986039576
1449617834929623116,24,1449617834883701965,/odom,1.60811419144e-07,-3.04332289367e-05,0.0,0.0,0.0,0.0,1.0
1449617835007812918,25,1449617834981387129,/odom,1.60811419144e-07,-3.04332289367e-05,0.0,0.0,0.0,0.0,1.0
1449617835125204495,26,1449617835081619929,/odom,1.60811419144e-07,-3.04332289367e-05,0.0,0.0,0.0,0.0,1.0
1449617835208327868,27,1449617835187209702,/odom,1.60811419144e-07,-3.04332289367e-05,0.0,0.0,0.0,0.0,1.0
1449617835324979615,28,1449617835281283450,/odom,1.60811419144e-07,-3.04332289367e-05,0.0,0.0,0.0,0.0,1.0
1449617835402937655,29,1449617835382096717,/odom,1.60811419144e-07,-3.04332289367e-05,0.0,0.0,0.0,0.0,1.0
1449617835526817976,30,1449617835483311582,/odom,1.60811419144e-07,-3.04332289367e-05,0.0,0.0,0.0,0.0,1.0
1449617835604957835,31,1449617835581018607,/odom,1.60811419144e-07,-3.04332289367e-05,0.0,0.0,0.0,0.0,1.0
1449617835746034750,32,1449617835685858825,/odom,1.60811419144e-07,-3.04332289367e-05,0.0,0.0,0.0,0.0,1.0
1449617835803421355,33,1449617835782843473,/odom,1.60811419144e-07,-3.04332289367e-05,0.0,0.0,0.0,0.0,1.0
1449617835930964160,34,1449617835880408080,/odom,1.60811419144e-07,-3.04332289367e-05,0.0,0.0,0.0,0.0,1.0
1449617836006250872,35,1449617835980697839,/odom,1.60811419144e-07,-3.04332289367e-05,0.0,0.0,0.0,0.0,1.0
1449617836126986604,36,1449617836084293099,/odom,-0.00287947164295,-6.08664578733e-05,0.0,0.0,0.0,0.0052839997518,0.999986039576
1449617836211729290,37,1449617836183694244,/odom,0.00287979326579,0.0,0.0,0.0,0.0,0.0052839997518,0.999986039576
1449617836366337632,38,1449617836314756674,/odom,0.0,0.0,0.0,0.0,0.0,0.0,1.0
1449617836406453281,39,1449617836381196995,/odom,0.0,0.0,0.0,0.0,0.0,0.0,1.0
1449617836487829995,40,1449617836479639495,/odom,0.0,0.0,0.0,0.0,0.0,0.0,1.0
1449617836646206241,41,1449617836581083244,/odom,0.0054904534118,0.0,0.0,0.0,0.0,0.0,1.0
1449617836695160115,42,1449617836680691711,/odom,0.010263473843,0.0,0.0,0.0,0.0,0.0,1.0
1449617836821104663,43,1449617836781779263,/odom,0.319921200107,-0.00100392645039,0.0,0.0,0.0,-0.00287652591558,0.999995862791
1449617844582712097,44,1449617844498324761,/odom,3.01211377034,-0.528465639496,0.0,0.0,0.0,-0.136974144229,0.990574623041
1449617844767365617,45,1449617844714890368,/odom,2.7545546665,-0.472678563563,0.0,0.0,0.0,-0.142196866325,0.989838396511
1449617845000833458,46,1449617844906192112,/odom,1.79978699929,-0.203702466354,0.0,0.0,0.0,-0.15263984949,0.988281881018
1449617846033615528,47,1449617845941402116,/odom,2.6566042463,-0.520184736449,0.0,0.0,0.0,-0.168284253471,0.985738509968
1449617849883704919,48,1449617849813772324,/odom,2.90258595357,-0.418281516663,0.0,0.0,0.0,-0.0297902603963,0.999556171701
1449617850106319219,49,1449617850015107918,/odom,2.99293606114,-0.0870417068956,0.0,0.0,0.0,0.190491733615,0.981688799684
1449617850288508344,50,1449617850216052312,/odom,2.98606246674,0.137421917854,0.0,0.0,0.0,0.328504120661,0.944502537164
1449617850716771299,51,1449617850663369534,/odom,2.07280164534,-0.156623362291,0.0,0.0,0.0,0.0808367120427,0.9967273579
1449617851930598283,52,1449617851888655164,/odom,3.35232002287,0.302017846614,0.0,0.0,0.0,0.364077572529,0.931368627978
1449617853913957680,53,1449617853879085779,/odom,2.59773186604,-0.0162529598151,0.0,0.0,0.0,0.163842576377,0.986486497711
1449617854021955474,54,1449617853985783737,/odom,2.03354614713,-0.165896170186,0.0,0.0,0.0,0.0739088866573,0.997264998119
1449617854120156325,55,1449617854087021749,/odom,2.06136990219,-0.157767479499,0.0,0.0,0.0,0.0949690991753,0.995480220899
1449617854237695883,56,1449617854183791538,/odom,2.09760561511,-0.148398341543,0.0,0.0,0.0,0.10548388359,0.994421012601
1449617854320056108,57,1449617854279246577,/odom,2.26393561028,-0.0992124172034,0.0,0.0,0.0,0.131716738444,0.99128739567
1449617854388234303,58,1449617854377214583,/odom,2.34502351549,-0.0739581547485,0.0,0.0,0.0,0.136952861975,0.990577565664
1449617854523289839,59,1449617854479784171,/odom,2.55275370952,-0.0042204952432,0.0,0.0,0.0,0.147413491427,0.989074952946
1449617855585918337,60,1449617855509715318,/odom,3.43162337767,-0.795388274501,0.0,0.0,0.0,-0.657609122859,0.753359304404
1449617868354372180,61,1449617868333218563,/odom,5.00911995628,1.75242727241,0.0,0.0,0.0,0.547641260078,0.836713242551
1449617872261799381,62,1449617872221252187,/odom,5.12916182052,2.44838030318,0.0,0.0,0.0,0.610324498926,0.792151504456
1449617889135517252,63,1449617889123254107,/odom,3.78069256392,6.02730266551,0.0,0.0,0.0,0.788797518786,0.614653133367
1449617889257813801,64,1449617889222548249,/odom,3.79138896354,5.98851082801,0.0,0.0,0.0,0.785539282794,0.618811793026
1449617889343853001,65,1449617889322267069,/odom,3.79320605246,5.98096590331,0.0,0.0,0.0,0.785539475313,0.618811548636
1449617889498808828,66,1449617889422114172,/odom,3.79627492131,5.96972410031,0.0,0.0,0.0,0.782258912695,0.622953444095
1449617889544645923,67,1449617889522194303,/odom,3.79475245138,5.97608061527,0.0,0.0,0.0,0.782258962784,0.622953381197
1449617889661835875,68,1449617889622794646,/odom,3.796392778,5.96893904274,0.0,0.0,0.0,0.78225909434,0.622953215998
1449617889737751675,69,1449617889725199401,/odom,3.79611337516,5.96980403628,0.0,0.0,0.0,0.785539878019,0.618811037427
1449617889858116850,70,1449617889823073720,/odom,3.79597457587,5.97062383231,0.0,0.0,0.0,0.782259134788,0.622953165206
1449617889976485287,71,1449617889923466620,/odom,3.79614398815,5.9698862561,0.0,0.0,0.0,0.782259142396,0.622953155653
1449617890064759398,72,1449617890024122469,/odom,3.79626221466,5.9693715292,0.0,0.0,0.0,0.782259147705,0.622953148987
1449617890174290495,73,1449617890122720991,/odom,3.79705390299,5.96602882818,0.0,0.0,0.0,0.785539916866,0.618810988114
1449617890261463894,74,1449617890225432588,/odom,3.79710150513,5.96583117848,0.0,0.0,0.0,0.785539918896,0.618810985537
1449617890384528217,75,1449617890322773852,/odom,3.79715120383,5.96562482365,0.0,0.0,0.0,0.785539921016,0.618810982846
1449617890461913317,76,1449617890431903212,/odom,3.79716909123,5.96555055304,0.0,0.0,0.0,0.785539921778,0.618810981878
1449617890578722941,77,1449617890524317937,/odom,3.79718865984,5.96546930187,0.0,0.0,0.0,0.785539922613,0.618810980818
1449617890658764599,78,1449617890622454873,/odom,3.79719565977,5.96544023736,0.0,0.0,0.0,0.785539922911,0.618810980439
1449617890734401849,79,1449617890722486717,/odom,3.79720292677,5.9654100639,0.0,0.0,0.0,0.785539923221,0.618810980046
1449617890854704580,80,1449617890826368406,/odom,3.79720693923,5.96539340368,0.0,0.0,0.0,0.785539923392,0.618810979829
1449617890980560854,81,1449617890923411876,/odom,3.79720842882,5.96538721873,0.0,0.0,0.0,0.785539923456,0.618810979748
1449617891064969993,82,1449617891024105085,/odom,3.79720946392,5.96538292089,0.0,0.0,0.0,0.7855399235,0.618810979692
1449617891137033094,83,1449617891124349345,/odom,3.79850685709,5.95999599203,0.0,0.0,0.0,0.785539923546,0.618810979633
1449617891270546771,84,1449617891221859586,/odom,3.7992110433,5.95707212819,0.0,0.0,0.0,0.785539923571,0.618810979601
1449617891379308673,85,1449617891323442129,/odom,3.80209512425,5.9450970853,0.0,0.0,0.0,0.785539923581,0.618810979589
1449617891463091563,86,1449617891425140944,/odom,3.82055359961,5.86845532742,0.0,0.0,0.0,0.785539923588,0.618810979581
1449617891588415988,87,1449617891524615714,/odom,3.8890506611,5.58404748229,0.0,0.0,0.0,0.785539923594,0.618810979572
1449617892239174640,88,1449617892167562452,/odom,4.08646065203,4.68295019833,0.0,0.0,0.0,0.779914089679,0.625886581355
1449617893237693901,89,1449617893189646326,/odom,3.98791725682,5.2240311967,0.0,0.0,0.0,0.790294977637,0.61272656897
1449617895270309645,90,1449617895221513505,/odom,4.03103195337,5.21901248208,0.0,0.0,0.0,0.801026805146,0.598628480309
1449617895377255238,91,1449617895323942376,/odom,4.02573386449,5.22772581545,0.0,0.0,0.0,0.794836133834,0.606824126376
1449617895456314760,92,1449617895421494224,/odom,4.0232757378,5.22610365913,0.0,0.0,0.0,0.785244544059,0.619185760516
1449617895538162836,93,1449617895523755163,/odom,4.02010594877,5.2374682742,0.0,0.0,0.0,0.78209502383,0.623159188089
1449617895655669900,94,1449617895622631424,/odom,4.02004957482,5.23774875012,0.0,0.0,0.0,0.782168256135,0.623067266911
1449617895733587487,95,1449617895724927624,/odom,4.02303044199,5.22157603724,0.0,0.0,0.0,0.7755679811,0.631264054649
1449617895869161589,96,1449617895824335745,/odom,4.02432664947,5.21415385801,0.0,0.0,0.0,0.772250746645,0.635317860843
1449617895936068280,97,1449617895925102101,/odom,4.02746177428,5.19677939217,0.0,0.0,0.0,0.768893659489,0.639376681149
1449617896064384691,98,1449617896021910488,/odom,4.02698770464,5.19933476177,0.0,0.0,0.0,0.768904778033,0.639363310113
1449617896136240711,99,1449617896122752121,/odom,4.02938194573,5.18613704176,0.0,0.0,0.0,0.765519891578,0.643412228357
1449617896255040973,100,1449617896230254706,/odom,4.03020004701,5.18145366688,0.0,0.0,0.0,0.765524219456,0.643407079092
1449617896338706477,101,1449617896322333748,/odom,4.05722724977,5.01397751164,0.0,0.0,0.0,0.760747379335,0.649048091312
1449617896457501727,102,1449617896423028739,/odom,4.08405517409,4.84267294834,0.0,0.0,0.0,0.75932308657,0.650713800531
1449617897143511140,103,1449617897126483045,/odom,4.08305684881,4.87493983287,0.0,0.0,0.0,0.76434902515,0.644802735534
1449617897373189837,104,1449617897327243125,/odom,4.05269103848,5.051623351,0.0,0.0,0.0,0.765076819684,0.643939018838
1449617897454595420,105,1449617897429029227,/odom,4.04740911031,5.0819618175,0.0,0.0,0.0,0.76521308675,0.643777082434
1449617897536354215,106,1449617897522043539,/odom,4.04084875482,5.11665532034,0.0,0.0,0.0,0.761943875486,0.647643058026
1449617897656121160,107,1449617897622456202,/odom,4.03840044281,5.13166118943,0.0,0.0,0.0,0.762022478426,0.647550571287
1449617897777735283,108,1449617897739739530,/odom,4.03715711698,5.1392646491,0.0,0.0,0.0,0.762051363013,0.647516579039
1449617897854551411,109,1449617897822702340,/odom,4.03628127102,5.14461802766,0.0,0.0,0.0,0.762071699192,0.647492644971
1449617897976156308,110,1449617897922884312,/odom,4.03534903033,5.15031357649,0.0,0.0,0.0,0.762093334616,0.647467180121
1449617898054691050,111,1449617898022665571,/odom,4.03501382504,5.15236088548,0.0,0.0,0.0,0.762101111492,0.647458026333
1449617898176811117,112,1449617898127068153,/odom,4.03466587026,5.15448570775,0.0,0.0,0.0,0.762109182727,0.647448525832
1449617898256455671,113,1449617898222054315,/odom,4.03453619803,5.15527747218,0.0,0.0,0.0,0.76211219026,0.647444985661
1449617898342597529,114,1449617898323803594,/odom,4.03440102104,5.15610279442,0.0,0.0,0.0,0.76211532525,0.647441295423
1449617898455507558,115,1449617898422408031,/odom,4.03432756342,5.1565512666,0.0,0.0,0.0,0.762117028769,0.647439290174
1449617898578277493,116,1449617898524675686,/odom,4.03429955219,5.15672227597,0.0,0.0,0.0,0.762117678346,0.64743852554
1449617898661195395,117,1449617898624086431,/odom,4.03427084692,5.15689752009,0.0,0.0,0.0,0.762118344008,0.64743774197
1449617898743125822,118,1449617898726072226,/odom,4.03545201756,5.14968666997,0.0,0.0,0.0,0.762118588509,0.64743745416
1449617898857864701,119,1449617898823688520,/odom,4.03668261332,5.14217412728,0.0,0.0,0.0,0.76211884324,0.647437154309
1449617898981266914,120,1449617898942473123,/odom,4.06930280199,4.94303404416,0.0,0.0,0.0,0.762118939754,0.647437040698
1449617899064945130,121,1449617899025429386,/odom,4.09567999364,4.7820065254,0.0,0.0,0.0,0.76211900548,0.64743696333
1449617905148443134,122,1449617905116370399,/odom,4.42209003739,3.9977093591,0.0,0.0,0.0,0.967679948476,0.252181516607
1449617906873223918,123,1449617906814342493,/odom,4.54022762333,3.93749566487,0.0,0.0,0.0,0.979933061691,0.1993268537
1449617910744617973,124,1449617910717433002,/odom,5.08399310015,4.01203647834,0.0,0.0,0.0,-0.973653370991,0.228033140481
1449617910979436298,125,1449617910936125436,/odom,4.93712223769,3.95174756044,0.0,0.0,0.0,-0.989353029087,0.145535507135
1449617911057958043,126,1449617911016358425,/odom,4.83478371661,3.92647241101,0.0,0.0,0.0,-0.987301492129,0.158857683604
1449617911135379214,127,1449617911114127909,/odom,4.53653719603,3.81040952399,0.0,0.0,0.0,-0.971090702582,0.238710802771
1449617917002558624,128,1449617916925906544,/odom,3.59152594184,1.75041655352,0.0,0.0,0.0,-0.987164810579,0.159704842617
1449617917099300208,129,1449617917036192189,/odom,3.84522741249,1.77041067431,0.0,0.0,0.0,-0.967094826468,0.254416187808
1449617918505339106,130,1449617918448580925,/odom,4.36523629034,1.77782896367,0.0,0.0,0.0,-0.787320192347,0.616544333137
1449617922090925833,131,1449617922015250213,/odom,3.4897317629,0.102271827942,0.0,0.0,0.0,-0.836139463925,0.548516906637
1449617922181189025,132,1449617922144119553,/odom,3.76363783343,0.743194128336,0.0,0.0,0.0,-0.83936247453,0.543572107775
1449617924959477759,133,1449617924900139954,/odom,2.20902566479,-0.653030620375,0.0,0.0,0.0,-0.95005248191,0.312090181866
1449617925288414980,134,1449617925212703645,/odom,1.84693005795,-0.294146222596,0.0,0.0,0.0,-0.996194809439,0.0871544700287
1449617925408273113,135,1449617925341631149,/odom,2.95769410018,0.219839829057,0.0,0.0,0.0,-0.982151882298,0.188089553399
1449617925559138663,136,1449617925488724076,/odom,1.84351889376,0.869939545801,0.0,0.0,0.0,0.871282027698,0.49078266902
1449617926727736337,137,1449617926659709362,/odom,1.40173726091,0.598955514586,0.0,0.0,0.0,0.941012333316,0.338372263264
1449617926879273885,138,1449617926815625800,/odom,1.36944139596,0.302276175578,0.0,0.0,0.0,0.981086801217,0.193568304425
1449617927110645189,139,1449617927054170053,/odom,1.64180266867,0.182476827025,0.0,0.0,0.0,0.992355009542,0.12341610526
1449617927626522262,140,1449617927596086859,/odom,1.83982908811,0.588111326324,0.0,0.0,0.0,0.903986262981,0.427561500069
1449617928536431214,141,1449617928480968512,/odom,1.44108130194,0.680034743151,0.0,0.0,0.0,0.897599550954,0.440811803526
1449617928678104696,142,1449617928603762564,/odom,1.44871341945,0.404281958454,0.0,0.0,0.0,0.960803407851,0.277230610613
1449617929314437694,143,1449617929248415141,/odom,1.56945425747,0.0400341004769,0.0,0.0,0.0,-0.999736638293,0.0229489445347
1449617929505302187,144,1449617929457801256,/odom,2.3214433887,0.073318511872,0.0,0.0,0.0,-0.988140721318,0.153551017167
1449617929724687492,145,1449617929622839624,/odom,2.69335097379,-0.0112378171938,0.0,0.0,0.0,-0.303402146996,0.952862601427
1449617930227590636,146,1449617930169848156,/odom,2.63388959097,-0.276280603099,0.0,0.0,0.0,-0.293315501071,0.956015699051
1449617930428664757,147,1449617930398018293,/odom,2.29820640426,-0.632458868309,0.0,0.0,0.0,-0.563085687083,0.826398517062
1449617930597711077,148,1449617930536305515,/odom,2.38518180404,0.0479651556638,0.0,0.0,0.0,-0.971029717338,0.238958758045
1449617930664927113,149,1449617930603883863,/odom,1.74763223314,0.0217716320971,0.0,0.0,0.0,-0.999034070763,0.0439422968787
1449617934237098934,150,1449617934175224764,/odom,1.3596562038,-1.14100390185,0.0,0.0,0.0,-0.416683221941,0.909051754606
1449617934907024050,151,1449617934854100637,/odom,0.863630342183,-1.1636533342,0.0,0.0,0.0,-0.557733061906,0.830020380266
1449617935077034829,152,1449617934990012599,/odom,0.530080915531,-1.09152116112,0.0,0.0,0.0,-0.69339077453,0.720561748774
1449617935211997923,153,1449617935133793723,/odom,0.232068423861,-0.955291056593,0.0,0.0,0.0,-0.800570621595,0.599238416525
1449617935401245033,154,1449617935350933060,/odom,-0.0807605661274,-0.70428568414,0.0,0.0,0.0,-0.902585158684,0.430511360273
1449617935597294908,155,1449617935557378967,/odom,-0.342208463083,-0.453161240484,0.0,0.0,0.0,-0.961612192609,0.274412082505
1449617935752537725,156,1449617935704549001,/odom,-0.454141590713,-0.268958519687,0.0,0.0,0.0,-0.9841103762,0.177557786246
1449617936156093775,157,1449617936124494981,/odom,0.633235345838,0.074780961881,0.0,0.0,0.0,-0.999999857397,0.00053404638175
1449617938508764309,158,1449617938475689434,/odom,0.16380710403,0.388613811455,0.0,0.0,0.0,0.908776739903,0.417282682377
1449617938908622284,159,1449617938852494675,/odom,-0.4658182813,1.54093098294,0.0,0.0,0.0,0.692582629847,0.721338548003
1449617939143248598,160,1449617939111596717,/odom,-0.145041590437,0.235738330499,0.0,0.0,0.0,0.998623973356,0.0524419663832
1449617939222928437,161,1449617939179139028,/odom,-0.0786181141437,-0.0241675624697,0.0,0.0,0.0,-0.958070349056,0.286533080568
1449617940085234360,162,1449617940040358743,/odom,-0.397345541328,-0.841174327968,0.0,0.0,0.0,-0.528311168468,0.849050828439
1449617941032451224,163,1449617940992417163,/odom,-0.140421979622,0.107415800003,0.0,0.0,0.0,-0.928731051533,0.370754142147
1449617941142456287,164,1449617941093480948,/odom,0.125121008955,0.207402359429,0.0,0.0,0.0,-0.928503332737,0.371324064797
1449617941870837958,165,1449617941818010914,/odom,-0.0925676460235,0.117052492371,0.0,0.0,0.0,-0.893830968072,0.448404059432
1449617942085610671,166,1449617942023218902,/odom,-0.162555713272,-0.553031232382,0.0,0.0,0.0,-0.371822863697,0.928303699245
1449617942439018898,167,1449617942373401858,/odom,-0.368910135051,-0.829509767909,0.0,0.0,0.0,-0.481339191566,0.876534416131
1449617942829814244,168,1449617942797960085,/odom,-0.524728404392,-1.24032235183,0.0,0.0,0.0,-0.504903068698,0.863176048799
1449617943432674617,169,1449617943401935561,/odom,-0.0485388724208,-1.31158261111,0.0,0.0,0.0,-0.295878251762,0.955225659273
1449617943744696674,170,1449617943688757079,/odom,0.103371897561,-1.02698193828,0.0,0.0,0.0,-0.197121269114,0.980379113029
1449617943864335059,171,1449617943832989332,/odom,-0.190278915273,-0.283947207348,0.0,0.0,0.0,-0.620019847326,0.784586125879
1449617943944254910,172,1449617943922769778,/odom,-0.0861674804979,0.138042357071,0.0,0.0,0.0,-0.557374042839,0.830261510832
1449617945065586285,173,1449617945028270997,/odom,0.494894932831,-0.656949704165,0.0,0.0,0.0,0.140415449303,0.990092673237
1449617946297994258,174,1449617946282747348,/odom,-0.233377650734,0.0364784916322,0.0,0.0,0.0,-0.367295923938,0.930104136244
1449617946478319685,175,1449617946441561077,/odom,-1.11308794905,1.72964044155,0.0,0.0,0.0,-0.370662578182,0.928767599098
1449617947726954913,176,1449617947673785734,/odom,-1.19350419783,1.55365337852,0.0,0.0,0.0,-0.348708936962,0.937231069311
1449617947914260029,177,1449617947864001542,/odom,-1.21535806579,1.02625130511,0.0,0.0,0.0,-0.16659086637,0.986026106775
1449617948074074100,178,1449617948008811911,/odom,-1.17838793598,0.756993183279,0.0,0.0,0.0,-0.0518053436552,0.998657201631
1449617948193911723,179,1449617948129411529,/odom,-1.08801641215,0.496989945754,0.0,0.0,0.0,0.0881119276324,0.996110580312
1449617948316106241,180,1449617948283123276,/odom,-0.908274512101,0.252251235157,0.0,0.0,0.0,0.248324520482,0.968676897901
1449617948667327568,181,1449617948616636626,/odom,-0.27031552194,0.101820821003,0.0,0.0,0.0,-0.177486361745,0.984123260265
1449617949055389851,182,1449617948918346199,/odom,0.994449320552,0.191664193564,0.0,0.0,0.0,0.590997829358,0.806673146754
1449617950058037972,183,1449617950045158476,/odom,0.50847106007,-0.0753998451993,0.0,0.0,0.0,0.230398945462,0.973096257279
1449617950982758700,184,1449617950883795311,/odom,0.831818297966,0.792182477804,0.0,0.0,0.0,0.809941687664,0.586510411318
1449617951507845395,185,1449617951450606747,/odom,0.4604703224,-0.005869623393,0.0,0.0,0.0,0.247604047613,0.968861308757
1449617951589983268,186,1449617951538889824,/odom,0.224918388679,-0.0951083396034,0.0,0.0,0.0,0.0639599698939,0.997952464926
1449617951826792948,187,1449617951788387539,/odom,-0.414637288867,-0.104056056396,0.0,0.0,0.0,0.0892984168261,0.996004916028
1449617952266748337,188,1449617952243086729,/odom,-1.57509987675,-0.159742549271,0.0,0.0,0.0,0.0387842526485,0.999247607826
1449617953346603417,189,1449617953289278739,/odom,-1.46667590583,-0.331091863599,0.0,0.0,0.0,0.15663006327,0.987657341025
1449617953556878597,190,1449617953502426512,/odom,-1.03841846495,-0.22901274891,0.0,0.0,0.0,0.11777631642,0.993040149888
1449617953904720234,191,1449617953881636165,/odom,-0.553656211861,-0.216674211195,0.0,0.0,0.0,0.181056598832,0.98347267782
1449617954027263699,192,1449617953993073239,/odom,0.155601789634,-0.04921667921,0.0,0.0,0.0,0.158357185888,0.987381892521
1449617954189093294,193,1449617954143584406,/odom,1.65186372187,0.96988088599,0.0,0.0,0.0,0.462858114578,0.886432380822
1449617954608022542,194,1449617954556530897,/odom,1.49329487381,0.791731528739,0.0,0.0,0.0,0.425405930468,0.905002648793
1449617954831961898,195,1449617954796277643,/odom,0.439862779002,0.0206168922588,0.0,0.0,0.0,0.165733815175,0.986170524051
1449617954946899977,196,1449617954901567661,/odom,-0.0696672782804,-0.102272608487,0.0,0.0,0.0,0.0604891484621,0.998168854913
1449617955261153705,197,1449617955201560033,/odom,-0.0668050435956,-0.101955083901,0.0,0.0,0.0,0.0552139800263,0.998474544698
1449617955302420388,198,1449617955245684573,/odom,-0.034683012267,-0.0984922186291,0.0,0.0,0.0,0.052380604209,0.998627193853
1449617955545338193,199,1449617955478347094,/odom,1.36188770181,-0.120058389957,0.0,0.0,0.0,-0.0638883825286,0.997957050468
1449617956023391253,200,1449617955971512595,/odom,0.520579470622,-0.0861930071504,0.0,0.0,0.0,-0.0145453016972,0.999894211504
1449617956073831559,201,1449617956003420139,/odom,0.120000725292,-0.0866003748971,0.0,0.0,0.0,0.0321745819753,0.999482264112
1449617956136954947,202,1449617956101664955,/odom,0.00706649890938,-0.0955483577758,0.0,0.0,0.0,0.0388215603187,0.999246159089
1449617956378459686,203,1449617956336094495,/odom,0.0403710645486,-0.0929926715305,0.0,0.0,0.0,0.0359836504561,0.999352378743
1449617956423790916,204,1449617956365526697,/odom,0.0146015020804,-0.0958179139189,0.0,0.0,0.0,0.0298556830625,0.999554219734
1449617956453524006,205,1449617956427818902,/odom,-0.0144728233789,-0.0974977998863,0.0,0.0,0.0,0.0384222592089,0.999261592376
1449617956543708695,206,1449617956499980047,/odom,-0.0177725977013,-0.0978133682751,0.0,0.0,0.0,0.0337775826955,0.999429374647
1449617956661792640,207,1449617956605505141,/odom,-0.0134359602365,-0.0975163275882,0.0,0.0,0.0,0.0339226403552,0.999424461613
1449617956743665768,208,1449617956700293428,/odom,-0.0110819665684,-0.0973985320158,0.0,0.0,0.0,0.028694917376,0.999588216075
1449617956856006493,209,1449617956831547675,/odom,-0.0087402420467,-0.0973007762617,0.0,0.0,0.0,0.0234677561326,0.999724594287
1449617956983159447,210,1449617956932638330,/odom,-0.00893894605351,-0.0973101122256,0.0,0.0,0.0,0.0234881865986,0.999724114489
1449617957174406041,211,1449617957139340266,/odom,-0.00912114207971,-0.0973491472797,0.0,0.0,0.0,0.0235070505014,0.99972367111
1449617957263438989,212,1449617957204324267,/odom,-0.00940029977564,-0.09736228982,0.0,0.0,0.0,0.0235357532011,0.999722995795
1449617957337555360,213,1449617957309409839,/odom,-0.00940029977564,-0.09736228982,0.0,0.0,0.0,0.0235357532011,0.999722995795
1449617957459166039,214,1449617957405784618,/odom,-0.00940029977564,-0.09736228982,0.0,0.0,0.0,0.0235357532011,0.999722995795
1449617957581457415,215,1449617957538774476,/odom,-0.00940029977564,-0.09736228982,0.0,0.0,0.0,0.0235357532011,0.999722995795
1449617957699754598,216,1449617957634256491,/odom,-0.00940029977564,-0.09736228982,0.0,0.0,0.0,0.0235357532011,0.999722995795
1449617957778180834,217,1449617957702175462,/odom,-0.00940029977564,-0.09736228982,0.0,0.0,0.0,0.0235357532011,0.999722995795
1449617958543164969,218,1449617958507536615,/odom,-0.00940029977564,-0.09736228982,0.0,0.0,0.0,0.0235357532011,0.999722995795
1449617958663114045,219,1449617958609632754,/odom,-0.00940029977564,-0.09736228982,0.0,0.0,0.0,0.0235357532011,0.999722995795
1449617958738788964,220,1449617958711870543,/odom,-0.00940029977564,-0.09736228982,0.0,0.0,0.0,0.0235357532011,0.999722995795
1449617958858281503,221,1449617958810740798,/odom,-0.00940029977564,-0.09736228982,0.0,0.0,0.0,0.0235357532011,0.999722995795
1449617958983908353,222,1449617958946037246,/odom,-0.00940029977564,-0.09736228982,0.0,0.0,0.0,0.0235357532011,0.999722995795
1449617959100409882,223,1449617959025739740,/odom,-0.00940029977564,-0.09736228982,0.0,0.0,0.0,0.0235357532011,0.999722995795
1449617959182783577,224,1449617959112567197,/odom,-0.00940029977564,-0.09736228982,0.0,0.0,0.0,0.0235357532011,0.999722995795
1449617959298284135,225,1449617959215968812,/odom,-0.00940029977564,-0.09736228982,0.0,0.0,0.0,0.0235357532011,0.999722995795
1449617959344493073,226,1449617959308442787,/odom,-0.00940029977564,-0.09736228982,0.0,0.0,0.0,0.0235357532011,0.999722995795
1449617959461294602,227,1449617959407309164,/odom,-0.00940029977564,-0.09736228982,0.0,0.0,0.0,0.0235357532011,0.999722995795
1449617959545334851,228,1449617959508588246,/odom,-0.00940029977564,-0.09736228982,0.0,0.0,0.0,0.0235357532011,0.999722995795
1449617959696370768,229,1449617959644508523,/odom,-0.00940029977564,-0.09736228982,0.0,0.0,0.0,0.0235357532011,0.999722995795
1449617959735169491,230,1449617959710650924,/odom,-0.00940029977564,-0.09736228982,0.0,0.0,0.0,0.0235357532011,0.999722995795
1449617959860304048,231,1449617959807828045,/odom,-0.00940029977564,-0.09736228982,0.0,0.0,0.0,0.0235357532011,0.999722995795
1449617959937257866,232,1449617959907964884,/odom,-0.00940029977564,-0.09736228982,0.0,0.0,0.0,0.0235357532011,0.999722995795
1449617960060727042,233,1449617960009715243,/odom,-0.00940029977564,-0.09736228982,0.0,0.0,0.0,0.0235357532011,0.999722995795
1449617960138137941,234,1449617960109817413,/odom,-0.00940029977564,-0.09736228982,0.0,0.0,0.0,0.0235357532011,0.999722995795
1449617960257956920,235,1449617960211885168,/odom,-0.00940029977564,-0.09736228982,0.0,0.0,0.0,0.0235357532011,0.999722995795
1449617960333907308,236,1449617960309250484,/odom,-0.00940029977564,-0.09736228982,0.0,0.0,0.0,0.0235357532011,0.999722995795
1449617960464053851,237,1449617960411606574,/odom,-0.00940029977564,-0.09736228982,0.0,0.0,0.0,0.0235357532011,0.999722995795
1449617960535554029,238,1449617960509057129,/odom,-0.00940029977564,-0.09736228982,0.0,0.0,0.0,0.0235357532011,0.999722995795
1449617960665339319,239,1449617960608172414,/odom,-0.00940029977564,-0.09736228982,0.0,0.0,0.0,0.0235357532011,0.999722995795
1449617960746921506,240,1449617960709624251,/odom,-0.00940029977564,-0.09736228982,0.0,0.0,0.0,0.0235357532011,0.999722995795
1449617960870058891,241,1449617960807537824,/odom,-0.00940029977564,-0.09736228982,0.0,0.0,0.0,0.0235357532011,0.999722995795
1449617960942262722,242,1449617960907792022,/odom,-0.00940029977564,-0.09736228982,0.0,0.0,0.0,0.0235357532011,0.999722995795
1449617961065308259,243,1449617961009111860,/odom,-0.00940029977564,-0.09736228982,0.0,0.0,0.0,0.0235357532011,0.999722995795
1449617961140093723,244,1449617961107818344,/odom,-0.00940029977564,-0.09736228982,0.0,0.0,0.0,0.0235357532011,0.999722995795
1449617961269048078,245,1449617961209326235,/odom,-0.00940029977564,-0.09736228982,0.0,0.0,0.0,0.0235357532011,0.999722995795
1449617961343750063,246,1449617961310251441,/odom,-0.00940029977564,-0.09736228982,0.0,0.0,0.0,0.0235357532011,0.999722995795
1449617961458694394,247,1449617961408145027,/odom,-0.00940029977564,-0.09736228982,0.0,0.0,0.0,0.0235357532011,0.999722995795
1449617961543948962,248,1449617961510645742,/odom,-0.00940029977564,-0.09736228982,0.0,0.0,0.0,0.0235357532011,0.999722995795
1449617961667540805,249,1449617961609821105,/odom,-0.00940029977564,-0.09736228982,0.0,0.0,0.0,0.0235357532011,0.999722995795
1449617961737584365,250,1449617961708556098,/odom,-0.00940029977564,-0.09736228982,0.0,0.0,0.0,0.0235357532011,0.999722995795
1449617961869805529,251,1449617961812731963,/odom,-0.00940029977564,-0.09736228982,0.0,0.0,0.0,0.0235357532011,0.999722995795
1449617961936235487,252,1449617961910638033,/odom,-0.00940029977564,-0.09736228982,0.0,0.0,0.0,0.0235357532011,0.999722995795
1449617962071929015,253,1449617962009987995,/odom,-0.00940029977564,-0.09736228982,0.0,0.0,0.0,0.0235357532011,0.999722995795
1449617962135177921,254,1449617962107541393,/odom,-0.00940029977564,-0.09736228982,0.0,0.0,0.0,0.0235357532011,0.999722995795
1449617962262941015,255,1449617962212786000,/odom,-0.00940029977564,-0.09736228982,0.0,0.0,0.0,0.0235357532011,0.999722995795
1449617962344552924,256,1449617962326426866,/odom,-0.00940029977564,-0.09736228982,0.0,0.0,0.0,0.0235357532011,0.999722995795
1449617962472406547,257,1449617962416483670,/odom,-0.00940029977564,-0.09736228982,0.0,0.0,0.0,0.0235357532011,0.999722995795
1449617962546761364,258,1449617962510576522,/odom,-0.00940029977564,-0.09736228982,0.0,0.0,0.0,0.0235357532011,0.999722995795
1449617962659961741,259,1449617962609837813,/odom,-0.00940029977564,-0.09736228982,0.0,0.0,0.0,0.0235357532011,0.999722995795
1449617962733783744,260,1449617962709032914,/odom,-0.00940029977564,-0.09736228982,0.0,0.0,0.0,0.0235357532011,0.999722995795
1449617962866748738,261,1449617962809889463,/odom,-0.00940029977564,-0.09736228982,0.0,0.0,0.0,0.0235357532011,0.999722995795
1449617962939976432,262,1449617962908974661,/odom,-0.00940029977564,-0.09736228982,0.0,0.0,0.0,0.0235357532011,0.999722995795
