%time,field.header.seq,field.header.stamp,field.header.frame_id,field.ns,field.id,field.type,field.action,field.pose.position.x,field.pose.position.y,field.pose.position.z,field.pose.orientation.x,field.pose.orientation.y,field.pose.orientation.z,field.pose.orientation.w,field.scale.x,field.scale.y,field.scale.z,field.color.r,field.color.g,field.color.b,field.color.a,field.lifetime,field.frame_locked,field.text,field.mesh_resource,field.mesh_use_embedded_materials
1449617836459432522,0,0,/odom,ucmd_vector,0,0,0,0.0,0.0,0.0,0.0,0.0,0.0,1.0,0.00559730190992,0.05,0.05,0.0,0.0,1.0,1.0,0,0,,,0
1449617836482068948,1,0,/odom,ucmd_vector,0,0,0,0.0,0.0,0.0,0.0,0.0,0.0,1.0,0.00559730190992,0.05,0.05,0.0,0.0,1.0,1.0,0,0,,,0
1449617836543061612,2,0,/odom,ucmd_vector,0,0,0,0.0,0.0,0.0,0.0,0.0,0.0,1.0,0.0111846038198,0.05,0.05,0.0,0.0,1.0,1.0,0,0,,,0
1449617836567988682,3,0,/odom,ucmd_vector,0,0,0,0.0,0.0,0.0,0.0,0.0,0.0,1.0,0.0111846038198,0.05,0.05,0.0,0.0,1.0,1.0,0,0,,,0
1449617836631622044,4,0,/odom,ucmd_vector,0,0,0,0.0,0.0,0.0,0.0,0.0,0.0,1.0,0.0111846038198,0.05,0.05,0.0,0.0,1.0,1.0,0,0,,,0
1449617836658748363,5,0,/odom,ucmd_vector,0,0,0,0.0,0.0,0.0,0.0,0.0,-0.00317459802558,0.999994960951,0.346422698746,0.05,0.05,0.0,0.0,1.0,1.0,0,0,,,0
1449617836689170009,6,0,/odom,ucmd_vector,0,0,0,0.0,0.0,0.0,0.0,0.0,-0.00317459802558,0.999994960951,0.346422698746,0.05,0.05,0.0,0.0,1.0,1.0,0,0,,,0
1449617836723499657,7,0,/odom,ucmd_vector,0,0,0,0.0,0.0,0.0,0.0,0.0,-0.00317459802558,0.999994960951,0.35201,0.05,0.05,0.0,0.0,1.0,1.0,0,0,,,0
1449617836768904811,8,0,/odom,ucmd_vector,0,0,0,0.0,0.0,0.0,0.0,0.0,-0.00317459802558,0.999994960951,0.35201,0.05,0.05,0.0,0.0,1.0,1.0,0,0,,,0
1449617836805535291,9,0,/odom,ucmd_vector,0,0,0,0.0,0.0,0.0,0.0,0.0,-0.00317459802558,0.999994960951,0.35201,0.05,0.05,0.0,0.0,1.0,1.0,0,0,,,0
1449617836857454142,10,0,/odom,ucmd_vector,0,0,0,0.0,0.0,0.0,0.0,0.0,-0.00317459802558,0.999994960951,0.346422698746,0.05,0.05,0.0,0.0,1.0,1.0,0,0,,,0
1449617836890355319,11,0,/odom,ucmd_vector,0,0,0,0.0,0.0,0.0,0.0,0.0,-0.00317459802558,0.999994960951,0.346422698746,0.05,0.05,0.0,0.0,1.0,1.0,0,0,,,0
1449617836925270355,12,0,/odom,ucmd_vector,0,0,0,0.0,0.0,0.0,0.0,0.0,0.0,1.0,0.184390962372,0.05,0.05,0.0,0.0,1.0,1.0,0,0,,,0
1449617837019159071,13,0,/odom,ucmd_vector,0,0,0,0.0,0.0,0.0,0.0,0.0,0.0,1.0,0.184390962372,0.05,0.05,0.0,0.0,1.0,1.0,0,0,,,0
1449617837034780864,14,0,/odom,ucmd_vector,0,0,0,0.0,0.0,0.0,0.0,0.0,0.0,1.0,0.184390962372,0.05,0.05,0.0,0.0,1.0,1.0,0,0,,,0
1449617837054849536,15,0,/odom,ucmd_vector,0,0,0,0.0,0.0,0.0,0.0,0.0,0.0,1.0,0.167629048119,0.05,0.05,0.0,0.0,1.0,1.0,0,0,,,0
1449617837124905227,16,0,/odom,ucmd_vector,0,0,0,0.0,0.0,0.0,0.0,0.0,0.0,1.0,0.167629048119,0.05,0.05,0.0,0.0,1.0,1.0,0,0,,,0
1449617837133068990,17,0,/odom,ucmd_vector,0,0,0,0.0,0.0,0.0,0.0,0.0,0.0,1.0,0.167629048119,0.05,0.05,0.0,0.0,1.0,1.0,0,0,,,0
1449617837171031334,18,0,/odom,ucmd_vector,0,0,0,0.0,0.0,0.0,0.0,0.0,0.0,1.0,0.184390962372,0.05,0.05,0.0,0.0,1.0,1.0,0,0,,,0
1449617837205082832,19,0,/odom,ucmd_vector,0,0,0,0.0,0.0,0.0,0.0,0.0,0.0,1.0,0.184390962372,0.05,0.05,0.0,0.0,1.0,1.0,0,0,,,0
1449617837260091871,20,0,/odom,ucmd_vector,0,0,0,0.0,0.0,0.0,0.0,0.0,0.0,1.0,0.189978263626,0.05,0.05,0.0,0.0,1.0,1.0,0,0,,,0
1449617837289013935,21,0,/odom,ucmd_vector,0,0,0,0.0,0.0,0.0,0.0,0.0,0.0,1.0,0.189978263626,0.05,0.05,0.0,0.0,1.0,1.0,0,0,,,0
1449617837325520766,22,0,/odom,ucmd_vector,0,0,0,0.0,0.0,0.0,0.0,0.0,0.0,1.0,0.167629048119,0.05,0.05,0.0,0.0,1.0,1.0,0,0,,,0
1449617837410665792,23,0,/odom,ucmd_vector,0,0,0,0.0,0.0,0.0,0.0,0.0,0.0,1.0,0.167629048119,0.05,0.05,0.0,0.0,1.0,1.0,0,0,,,0
1449617837433957576,24,0,/odom,ucmd_vector,0,0,0,0.0,0.0,0.0,0.0,0.0,0.0,1.0,0.167629048119,0.05,0.05,0.0,0.0,1.0,1.0,0,0,,,0
1449617837445854282,25,0,/odom,ucmd_vector,0,0,0,0.00287963245437,3.04332289367e-05,0.0,0.0,0.0,0.0052839997518,0.999986039576,0.189978263626,0.05,0.05,0.0,0.0,1.0,1.0,0,0,,,0
1449617837543376401,26,0,/odom,ucmd_vector,0,0,0,0.00287963245437,3.04332289367e-05,0.0,0.0,0.0,0.0052839997518,0.999986039576,0.189978263626,0.05,0.05,0.0,0.0,1.0,1.0,0,0,,,0
1449617837552717984,27,0,/odom,ucmd_vector,0,0,0,0.00287963245437,3.04332289367e-05,0.0,0.0,0.0,0.0052839997518,0.999986039576,0.189978263626,0.05,0.05,0.0,0.0,1.0,1.0,0,0,,,0
1449617837568541324,28,0,/odom,ucmd_vector,0,0,0,0.00287963245437,3.04332289367e-05,0.0,0.0,0.0,0.0052839997518,0.999986039576,0.189978263626,0.05,0.05,0.0,0.0,1.0,1.0,0,0,,,0
1449617837658203672,29,0,/odom,ucmd_vector,0,0,0,0.00287963245437,3.04332289367e-05,0.0,0.0,0.0,0.0052839997518,0.999986039576,0.189978263626,0.05,0.05,0.0,0.0,1.0,1.0,0,0,,,0
1449617837669203550,30,0,/odom,ucmd_vector,0,0,0,0.00287963245437,3.04332289367e-05,0.0,0.0,0.0,0.0052839997518,0.999986039576,0.189978263626,0.05,0.05,0.0,0.0,1.0,1.0,0,0,,,0
1449617837685686157,31,0,/odom,ucmd_vector,0,0,0,0.00287963245437,3.04332289367e-05,0.0,0.0,0.0,0.0052839997518,0.999986039576,0.189978263626,0.05,0.05,0.0,0.0,1.0,1.0,0,0,,,0
1449617837750836878,32,0,/odom,ucmd_vector,0,0,0,0.00287963245437,3.04332289367e-05,0.0,0.0,0.0,0.0052839997518,0.999986039576,0.189978263626,0.05,0.05,0.0,0.0,1.0,1.0,0,0,,,0
1449617837769294601,33,0,/odom,ucmd_vector,0,0,0,0.00863889736311,9.129968681e-05,0.0,0.0,0.0,0.0052839997518,0.999986039576,0.189978263626,0.05,0.05,0.0,0.0,1.0,1.0,0,0,,,0
1449617837805888995,34,0,/odom,ucmd_vector,0,0,0,0.00863889736311,9.129968681e-05,0.0,0.0,0.0,0.0052839997518,0.999986039576,0.189978263626,0.05,0.05,0.0,0.0,1.0,1.0,0,0,,,0
1449617837842480386,35,0,/odom,ucmd_vector,0,0,0,0.00863889736311,9.129968681e-05,0.0,0.0,0.0,0.0052839997518,0.999986039576,0.189978263626,0.05,0.05,0.0,0.0,1.0,1.0,0,0,,,0
1449617837921459575,36,0,/odom,ucmd_vector,0,0,0,0.0115180474012,0.000152162745821,0.0,0.0,0.0,0.0105678519699,0.999944158693,0.189978263626,0.05,0.05,0.0,0.0,1.0,1.0,0,0,,,0
1449617837935518728,37,0,/odom,ucmd_vector,0,0,0,0.0143976798556,0.000182595974757,0.0,0.0,0.0,0.0052839997518,0.999986039576,0.189978263626,0.05,0.05,0.0,0.0,1.0,1.0,0,0,,,0
1449617837971217590,38,0,/odom,ucmd_vector,0,0,0,0.0143976798556,0.000182595974757,0.0,0.0,0.0,0.0052839997518,0.999986039576,0.173216349373,0.05,0.05,0.0,0.0,1.0,1.0,0,0,,,0
1449617838020351901,39,0,/odom,ucmd_vector,0,0,0,0.0172768298936,0.000243459033768,0.0,0.0,0.0,0.0105678519699,0.999944158693,0.173216349373,0.05,0.05,0.0,0.0,1.0,1.0,0,0,,,0
1449617838069864618,40,0,/odom,ucmd_vector,0,0,0,0.0172768298936,0.000243459033768,0.0,0.0,0.0,0.0105678519699,0.999944158693,0.189978263626,0.05,0.05,0.0,0.0,1.0,1.0,0,0,,,0
1449617838093346573,41,0,/odom,ucmd_vector,0,0,0,0.0230343260025,0.000395608184518,0.0,0.0,0.0,0.0105678519699,0.999944158693,0.189978263626,0.05,0.05,0.0,0.0,1.0,1.0,0,0,,,0
1449617838166152825,42,0,/odom,ucmd_vector,0,0,0,0.0230343260025,0.000395608184518,0.0,0.0,0.0,0.0105678519699,0.999944158693,0.189978263626,0.05,0.05,0.0,0.0,1.0,1.0,0,0,,,0
1449617838177776302,43,0,/odom,ucmd_vector,0,0,0,0.0259126720733,0.000486894276258,0.0,0.0,0.0,0.0158514091245,0.999874358521,0.189978263626,0.05,0.05,0.0,0.0,1.0,1.0,0,0,,,0
1449617838204935318,44,0,/odom,ucmd_vector,0,0,0,0.0259126720733,0.000486894276258,0.0,0.0,0.0,0.0126771300841,0.999919641958,0.189978263626,0.05,0.05,0.0,0.0,1.0,1.0,0,0,,,0
1449617838247358949,45,0,/odom,ucmd_vector,0,0,0,0.0316693642148,0.000669466459736,0.0,0.0,0.0,0.0126771300841,0.999919641958,0.189978263626,0.05,0.05,0.0,0.0,1.0,1.0,0,0,,,0
1449617838302874574,46,0,/odom,ucmd_vector,0,0,0,0.0316693642148,0.000669466459736,0.0,0.0,0.0,0.0126771300841,0.999919641958,0.189978263626,0.05,0.05,0.0,0.0,1.0,1.0,0,0,,,0
1449617838326429587,47,0,/odom,ucmd_vector,0,0,0,0.0374260563564,0.000852038643215,0.0,0.0,0.0,0.0126771300841,0.999919641958,0.189978263626,0.05,0.05,0.0,0.0,1.0,1.0,0,0,,,0
1449617838368549593,48,0,/odom,ucmd_vector,0,0,0,0.0374260563564,0.000852038643215,0.0,0.0,0.0,0.0158514091245,0.999874358521,0.346422698746,0.05,0.05,0.0,0.0,1.0,1.0,0,0,,,0
1449617838408854790,49,0,/odom,ucmd_vector,0,0,0,0.0403032769986,0.000973737572614,0.0,0.0,0.0,0.0211345236944,0.999776641009,0.346422698746,0.05,0.05,0.0,0.0,1.0,1.0,0,0,,,0
1449617838446993120,50,0,/odom,ucmd_vector,0,0,0,0.0460577182832,0.00121713543141,0.0,0.0,0.0,0.0179605282459,0.999838696703,0.307311589966,0.05,0.05,0.0,0.0,1.0,1.0,0,0,,,0
1449617838485953685,51,0,/odom,ucmd_vector,0,0,0,0.0460577182832,0.00121713543141,0.0,0.0,0.0,0.0179605282459,0.999838696703,0.307311589966,0.05,0.05,0.0,0.0,1.0,1.0,0,0,,,0
1449617838530727661,52,0,/odom,ucmd_vector,0,0,0,0.0489334921614,0.00136923360681,0.0,0.0,0.0,0.0232434249345,0.999729835104,0.307311589966,0.05,0.05,0.0,0.0,1.0,1.0,0,0,,,0
1449617838569740473,53,0,/odom,ucmd_vector,0,0,0,0.0518107128037,0.00149093253621,0.0,0.0,0.0,0.0179605282459,0.999838696703,0.346422698746,0.05,0.05,0.0,0.0,1.0,1.0,0,0,,,0
1449617838610577679,54,0,/odom,ucmd_vector,0,0,0,0.0546864866819,0.00164303071162,0.0,0.0,0.0,0.0232434249345,0.999729835104,0.346422698746,0.05,0.05,0.0,0.0,1.0,1.0,0,0,,,0
1449617838682922109,55,0,/odom,ucmd_vector,0,0,0,0.0604380344384,0.00194722706242,0.0,0.0,0.0,0.0232434249345,0.999729835104,0.340835397491,0.05,0.05,0.0,0.0,1.0,1.0,0,0,,,0
1449617838694800291,56,0,/odom,ucmd_vector,0,0,0,0.0661895821948,0.00225142341323,0.0,0.0,0.0,0.0232434249345,0.999729835104,0.340835397491,0.05,0.05,0.0,0.0,1.0,1.0,0,0,,,0
1449617838724512825,57,0,/odom,ucmd_vector,0,0,0,0.0661895821948,0.00225142341323,0.0,0.0,0.0,0.0200695674491,0.999798585947,0.346422698746,0.05,0.05,0.0,0.0,1.0,1.0,0,0,,,0
1449617838821355894,58,0,/odom,ucmd_vector,0,0,0,0.0719411299513,0.00255561976404,0.0,0.0,0.0,0.0200695674491,0.999798585947,0.346422698746,0.05,0.05,0.0,0.0,1.0,1.0,0,0,,,0
1449617838821361815,59,0,/odom,ucmd_vector,0,0,0,0.0805631477721,0.0031030610681,0.0,0.0,0.0,0.0253522227495,0.999678580746,0.346422698746,0.05,0.05,0.0,0.0,1.0,1.0,0,0,,,0
1449617838851433014,60,0,/odom,ucmd_vector,0,0,0,0.0805631477721,0.0031030610681,0.0,0.0,0.0,0.0221785177222,0.999754026424,0.346422698746,0.05,0.05,0.0,0.0,1.0,1.0,0,0,,,0
1449617838961039518,61,0,/odom,ucmd_vector,0,0,0,0.0863111596526,0.00346802193747,0.0,0.0,0.0,0.0221785177222,0.999754026424,0.346422698746,0.05,0.05,0.0,0.0,1.0,1.0,0,0,,,0
1449617838990664778,62,0,/odom,ucmd_vector,0,0,0,0.100670744782,0.00453223350786,0.0,0.0,0.0,0.0274609081281,0.999622878152,0.346422698746,0.05,0.05,0.0,0.0,1.0,1.0,0,0,,,0
1449617839014581296,63,0,/odom,ucmd_vector,0,0,0,0.106414578833,0.00495791813602,0.0,0.0,0.0,-0.00110706819238,0.9999993872,0.335248096237,0.05,0.05,0.0,0.0,1.0,1.0,0,0,,,0
1449617839058628764,64,0,/odom,ucmd_vector,0,0,0,0.106414578833,0.00495791813602,0.0,0.0,0.0,-0.00110706819238,0.9999993872,0.335248096237,0.05,0.05,0.0,0.0,1.0,1.0,0,0,,,0
1449617839097166631,65,0,/odom,ucmd_vector,0,0,0,0.115023100938,0.00568745940406,0.0,0.0,0.0,0.00417694377653,0.999991276532,0.335248096237,0.05,0.05,0.0,0.0,1.0,1.0,0,0,,,0
1449617839134741894,66,0,/odom,ucmd_vector,0,0,0,0.120762115674,0.00617382024943,0.0,0.0,0.0,0.00417694377653,0.999991276532,0.335248096237,0.05,0.05,0.0,0.0,1.0,1.0,0,0,,,0
1449617839167387756,67,0,/odom,ucmd_vector,0,0,0,0.12650113041,0.0066601810948,0.0,0.0,0.0,0.00417694377653,0.999991276532,0.335248096237,0.05,0.05,0.0,0.0,1.0,1.0,0,0,,,0
1449617839237524006,68,0,/odom,ucmd_vector,0,0,0,0.135101462119,0.00748065521159,0.0,0.0,0.0,0.00946083912163,0.99995524526,0.335248096237,0.05,0.05,0.0,0.0,1.0,1.0,0,0,,,0
1449617839250160912,69,0,/odom,ucmd_vector,0,0,0,0.152310315933,0.00903067059643,0.0,0.0,0.0,0.0126352470228,0.99992017208,0.329660794983,0.05,0.05,0.0,0.0,1.0,1.0,0,0,,,0
1449617839290566826,70,0,/odom,ucmd_vector,0,0,0,0.152310315933,0.00903067059643,0.0,0.0,0.0,0.0126352470228,0.99992017208,0.329660794983,0.05,0.05,0.0,0.0,1.0,1.0,0,0,,,0
1449617839329128574,71,0,/odom,ucmd_vector,0,0,0,0.158043870405,0.00957765334095,0.0,0.0,0.0,0.0126352470228,0.99992017208,0.329660794983,0.05,0.05,0.0,0.0,1.0,1.0,0,0,,,0
1449617839427395992,72,0,/odom,ucmd_vector,0,0,0,0.169510979351,0.01067161883,0.0,0.0,0.0,-0.0159351721207,0.999873027084,0.324073493729,0.05,0.05,0.0,0.0,1.0,1.0,0,0,,,0
1449617839460538786,73,0,/odom,ucmd_vector,0,0,0,0.195302823575,0.0132238823964,0.0,0.0,0.0,-0.0106516208319,0.999943269878,0.324073493729,0.05,0.05,0.0,0.0,1.0,1.0,0,0,,,0
1449617839471129284,74,0,/odom,ucmd_vector,0,0,0,0.195302823575,0.0132238823964,0.0,0.0,0.0,0.00204658825372,0.999997905736,0.279375083694,0.05,0.05,0.0,0.0,1.0,1.0,0,0,,,0
1449617839507430119,75,0,/odom,ucmd_vector,0,0,0,0.206757731317,0.0144389695069,0.0,0.0,0.0,-0.0106516208319,0.999943269878,0.329660794983,0.05,0.05,0.0,0.0,1.0,1.0,0,0,,,0
1449617839528677308,76,0,/odom,ucmd_vector,0,0,0,0.218212639059,0.0156540566173,0.0,0.0,0.0,-0.0106516208319,0.999943269878,0.329660794983,0.05,0.05,0.0,0.0,1.0,1.0,0,0,,,0
1449617839596803808,77,0,/odom,ucmd_vector,0,0,0,0.218212639059,0.0156540566173,0.0,0.0,0.0,-0.0106516208319,0.999943269878,0.329660794983,0.05,0.05,0.0,0.0,1.0,1.0,0,0,,,0
1449617839613314881,78,0,/odom,ucmd_vector,0,0,0,0.235395000672,0.017476687283,0.0,0.0,0.0,-0.0106516208319,0.999943269878,0.329660794983,0.05,0.05,0.0,0.0,1.0,1.0,0,0,,,0
1449617839650550869,79,0,/odom,ucmd_vector,0,0,0,0.235395000672,0.017476687283,0.0,0.0,0.0,-0.00747714960018,0.999972045726,0.329660794983,0.05,0.05,0.0,0.0,1.0,1.0,0,0,,,0
1449617839733146729,80,0,/odom,ucmd_vector,0,0,0,0.246849908414,0.0186917743934,0.0,0.0,0.0,-0.00747714960018,0.999972045726,0.329660794983,0.05,0.05,0.0,0.0,1.0,1.0,0,0,,,0
1449617839739609975,81,0,/odom,ucmd_vector,0,0,0,0.266872406056,0.021029902192,0.0,0.0,0.0,-0.00219319317457,0.999997594949,0.329660794983,0.05,0.05,0.0,0.0,1.0,1.0,0,0,,,0
1449617839788922336,82,0,/odom,ucmd_vector,0,0,0,0.266872406056,0.021029902192,0.0,0.0,0.0,-0.00536777214095,0.999985593407,0.329660794983,0.05,0.05,0.0,0.0,1.0,1.0,0,0,,,0
1449617839836314648,83,0,/odom,ucmd_vector,0,0,0,0.281191040733,0.02254876108,0.0,0.0,0.0,-0.0106516208319,0.999943269878,0.329660794983,0.05,0.05,0.0,0.0,1.0,1.0,0,0,,,0
1449617839849882713,84,0,/odom,ucmd_vector,0,0,0,0.301227018893,0.0247659029613,0.0,0.0,0.0,-0.00536777214095,0.999985593407,0.329660794983,0.05,0.05,0.0,0.0,1.0,1.0,0,0,,,0
1449617839895086107,85,0,/odom,ucmd_vector,0,0,0,0.301227018893,0.0247659029613,0.0,0.0,0.0,-0.00536777214095,0.999985593407,0.329660794983,0.05,0.05,0.0,0.0,1.0,1.0,0,0,,,0
1449617839936527911,86,0,/odom,ucmd_vector,0,0,0,0.312668446117,0.026101975989,0.0,0.0,0.0,-0.00536777214095,0.999985593407,0.329660794983,0.05,0.05,0.0,0.0,1.0,1.0,0,0,,,0
1449617839973453906,87,0,/odom,ucmd_vector,0,0,0,0.326987080794,0.0276208348771,0.0,0.0,0.0,-0.00747714960018,0.999972045726,0.329660794983,0.05,0.05,0.0,0.0,1.0,1.0,0,0,,,0
1449617840012477650,88,0,/odom,ucmd_vector,0,0,0,0.338441988536,0.0288359219875,0.0,0.0,0.0,-0.00747714960018,0.999972045726,0.329660794983,0.05,0.05,0.0,0.0,1.0,1.0,0,0,,,0
1449617840100114333,89,0,/odom,ucmd_vector,0,0,0,0.344169442407,0.0294434655428,0.0,0.0,0.0,-0.0106516208319,0.999943269878,0.329660794983,0.05,0.05,0.0,0.0,1.0,1.0,0,0,,,0
1449617840115164870,90,0,/odom,ucmd_vector,0,0,0,0.369970437534,0.0319048878931,0.0,0.0,0.0,-0.0159351721207,0.999873027084,0.329660794983,0.05,0.05,0.0,0.0,1.0,1.0,0,0,,,0
1449617840131360977,91,0,/odom,ucmd_vector,0,0,0,0.37856161834,0.032816203226,0.0,0.0,0.0,-0.00747714960018,0.999972045726,0.329660794983,0.05,0.05,0.0,0.0,1.0,1.0,0,0,,,0
1449617840204248411,92,0,/odom,ucmd_vector,0,0,0,0.37856161834,0.032816203226,0.0,0.0,0.0,-0.00747714960018,0.999972045726,0.329660794983,0.05,0.05,0.0,0.0,1.0,1.0,0,0,,,0
1449617840211285709,93,0,/odom,ucmd_vector,0,0,0,0.398629058995,0.0347306428318,0.0,0.0,0.0,-0.0127608972574,0.999918576436,0.329660794983,0.05,0.05,0.0,0.0,1.0,1.0,0,0,,,0
1449617840250287769,94,0,/odom,ucmd_vector,0,0,0,0.398629058995,0.0347306428318,0.0,0.0,0.0,-0.0159351721207,0.999873027084,0.329660794983,0.05,0.05,0.0,0.0,1.0,1.0,0,0,,,0
1449617840291791233,95,0,/odom,ucmd_vector,0,0,0,0.412976595836,0.0359465449452,0.0,0.0,0.0,-0.0212182784858,0.999774866987,0.329660794983,0.05,0.05,0.0,0.0,1.0,1.0,0,0,,,0
1449617840345934209,96,0,/odom,ucmd_vector,0,0,0,0.424454625308,0.036919266636,0.0,0.0,0.0,-0.0212182784858,0.999774866987,0.329660794983,0.05,0.05,0.0,0.0,1.0,1.0,0,0,,,0
1449617840377604144,97,0,/odom,ucmd_vector,0,0,0,0.430193640044,0.0374056274813,0.0,0.0,0.0,-0.0116957953205,0.999931601847,0.27378778244,0.05,0.05,0.0,0.0,1.0,1.0,0,0,,,0
1449617840439866691,98,0,/odom,ucmd_vector,0,0,0,0.444553225173,0.0384698390517,0.0,0.0,0.0,-0.0169792703782,0.999855841798,0.27378778244,0.05,0.05,0.0,0.0,1.0,1.0,0,0,,,0
1449617840450292395,99,0,/odom,ucmd_vector,0,0,0,0.46752856138,0.0401725775643,0.0,0.0,0.0,-0.0265007924187,0.999648792327,0.329660794983,0.05,0.05,0.0,0.0,1.0,1.0,0,0,,,0
1449617840489595558,100,0,/odom,ucmd_vector,0,0,0,0.46752856138,0.0401725775643,0.0,0.0,0.0,-0.0265007924187,0.999648792327,0.329660794983,0.05,0.05,0.0,0.0,1.0,1.0,0,0,,,0
1449617840583283188,101,0,/odom,ucmd_vector,0,0,0,0.479016229483,0.0410239468207,0.0,0.0,0.0,-0.0265007924187,0.999648792327,0.329660794983,0.05,0.05,0.0,0.0,1.0,1.0,0,0,,,0
1449617840595067120,102,0,/odom,ucmd_vector,0,0,0,0.504873927287,0.0427877182504,0.0,0.0,0.0,-0.0317825664269,0.999494806625,0.329660794983,0.05,0.05,0.0,0.0,1.0,1.0,0,0,,,0
1449617840678405020,103,0,/odom,ucmd_vector,0,0,0,0.510621939168,0.0431526791198,0.0,0.0,0.0,-0.0286094124057,0.999590666984,0.329660794983,0.05,0.05,0.0,0.0,1.0,1.0,0,0,,,0
1449617840724066654,104,0,/odom,ucmd_vector,0,0,0,0.530752356316,0.0442173663476,0.0,0.0,0.0,-0.0338908498424,0.999425540146,0.329660794983,0.05,0.05,0.0,0.0,1.0,1.0,0,0,,,0
1449617840734618122,105,0,/odom,ucmd_vector,0,0,0,0.542255451828,0.0448257590492,0.0,0.0,0.0,-0.037063453039,0.999312914181,0.329660794983,0.05,0.05,0.0,0.0,1.0,1.0,0,0,,,0
1449617840770400182,106,0,/odom,ucmd_vector,0,0,0,0.542255451828,0.0448257590492,0.0,0.0,0.0,-0.037063453039,0.999312914181,0.329660794983,0.05,0.05,0.0,0.0,1.0,1.0,0,0,,,0
1449617840813387767,107,0,/odom,ucmd_vector,0,0,0,0.55664155504,0.0454342536962,0.0,0.0,0.0,-0.0423433048079,0.999103120072,0.329660794983,0.05,0.05,0.0,0.0,1.0,1.0,0,0,,,0
1449617840872186458,108,0,/odom,ucmd_vector,0,0,0,0.565276593252,0.0457081119714,0.0,0.0,0.0,-0.0476219743159,0.998865430157,0.329660794983,0.05,0.05,0.0,0.0,1.0,1.0,0,0,,,0
1449617840893310151,109,0,/odom,ucmd_vector,0,0,0,0.582543293391,0.0463470670348,0.0,0.0,0.0,-0.0476219743159,0.998865430157,0.329660794983,0.05,0.05,0.0,0.0,1.0,1.0,0,0,,,0
1449617840957327406,110,0,/odom,ucmd_vector,0,0,0,0.582543293391,0.0463470670348,0.0,0.0,0.0,-0.0444507384962,0.999011577434,0.329660794983,0.05,0.05,0.0,0.0,1.0,1.0,0,0,,,0
1449617840972836865,111,0,/odom,ucmd_vector,0,0,0,0.605574081794,0.0469252406051,0.0,0.0,0.0,-0.0444507384962,0.999011577434,0.329660794983,0.05,0.05,0.0,0.0,1.0,1.0,0,0,,,0
1449617841009494919,112,0,/odom,ucmd_vector,0,0,0,0.605574081794,0.0469252406051,0.0,0.0,0.0,-0.0476219743159,0.998865430157,0.329660794983,0.05,0.05,0.0,0.0,1.0,1.0,0,0,,,0
1449617841074576718,113,0,/odom,ucmd_vector,0,0,0,0.614211531908,0.0471078297821,0.0,0.0,0.0,-0.052899314178,0.998599851071,0.329660794983,0.05,0.05,0.0,0.0,1.0,1.0,0,0,,,0
1449617841090457833,114,0,/odom,ucmd_vector,0,0,0,0.634367029424,0.047442581705,0.0,0.0,0.0,-0.0581751770464,0.998306390231,0.329660794983,0.05,0.05,0.0,0.0,1.0,1.0,0,0,,,0
1449617841129142854,115,0,/odom,ucmd_vector,0,0,0,0.634367029424,0.047442581705,0.0,0.0,0.0,-0.0328053274876,0.999461760393,0.335248096237,0.05,0.05,0.0,0.0,1.0,1.0,0,0,,,0
1449617841189504806,116,0,/odom,ucmd_vector,0,0,0,0.648765995753,0.047442581705,0.0,0.0,0.0,-0.0380860252052,0.999274464141,0.335248096237,0.05,0.05,0.0,0.0,1.0,1.0,0,0,,,0
1449617841209762007,117,0,/odom,ucmd_vector,0,0,0,0.668924066179,0.0473512820182,0.0,0.0,0.0,-0.0433656595286,0.999059267298,0.335248096237,0.05,0.05,0.0,0.0,1.0,1.0,0,0,,,0
1449617841248197967,118,0,/odom,ucmd_vector,0,0,0,0.668924066179,0.0473512820182,0.0,0.0,0.0,-0.0370215949976,0.999314465773,0.284962384949,0.05,0.05,0.0,0.0,1.0,1.0,0,0,,,0
1449617841302645077,119,0,/odom,ucmd_vector,0,0,0,0.680442595996,0.0472295491024,0.0,0.0,0.0,-0.0370215949976,0.999314465773,0.284962384949,0.05,0.05,0.0,0.0,1.0,1.0,0,0,,,0
1449617841334060670,120,0,/odom,ucmd_vector,0,0,0,0.691961125814,0.0471078161867,0.0,0.0,0.0,-0.0370215949976,0.999314465773,0.284962384949,0.05,0.05,0.0,0.0,1.0,1.0,0,0,,,0
1449617841382949095,121,0,/odom,ucmd_vector,0,0,0,0.700598575928,0.0469252270097,0.0,0.0,0.0,-0.0739924308543,0.997258803008,0.335248096237,0.05,0.05,0.0,0.0,1.0,1.0,0,0,,,0
1449617841410730465,122,0,/odom,ucmd_vector,0,0,0,0.71211517608,0.0466817747736,0.0,0.0,0.0,-0.0739924308543,0.997258803008,0.335248096237,0.05,0.05,0.0,0.0,1.0,1.0,0,0,,,0
1449617841466590036,123,0,/odom,ucmd_vector,0,0,0,0.720750214293,0.0464079164984,0.0,0.0,0.0,-0.0539211483794,0.998545196652,0.335248096237,0.05,0.05,0.0,0.0,1.0,1.0,0,0,,,0
1449617841500738216,124,0,/odom,ucmd_vector,0,0,0,0.746649701787,0.0454342774844,0.0,0.0,0.0,-0.0591967081886,0.998246337203,0.335248096237,0.05,0.05,0.0,0.0,1.0,1.0,0,0,,,0
1449617841532387869,125,0,/odom,ucmd_vector,0,0,0,0.746649701787,0.0454342774844,0.0,0.0,0.0,-0.0623654403728,0.998053381261,0.335248096237,0.05,0.05,0.0,0.0,1.0,1.0,0,0,,,0
1449617841580135560,126,0,/odom,ucmd_vector,0,0,0,0.752404143072,0.0451908796257,0.0,0.0,0.0,-0.0623654403728,0.998053381261,0.335248096237,0.05,0.05,0.0,0.0,1.0,1.0,0,0,,,0
1449617841626314770,127,0,/odom,ucmd_vector,0,0,0,0.763913025641,0.0447040839081,0.0,0.0,0.0,-0.0623654403728,0.998053381261,0.335248096237,0.05,0.05,0.0,0.0,1.0,1.0,0,0,,,0
1449617841652362420,128,0,/odom,ucmd_vector,0,0,0,0.784043442788,0.0436393966802,0.0,0.0,0.0,-0.0644706151755,0.99791960587,0.335248096237,0.05,0.05,0.0,0.0,1.0,1.0,0,0,,,0
1449617841690771504,129,0,/odom,ucmd_vector,0,0,0,0.784043442788,0.0436393966802,0.0,0.0,0.0,-0.0644706151755,0.99791960587,0.335248096237,0.05,0.05,0.0,0.0,1.0,1.0,0,0,,,0
1449617841764500511,130,0,/odom,ucmd_vector,0,0,0,0.795546538301,0.0430310039786,0.0,0.0,0.0,-0.0644706151755,0.99791960587,0.335248096237,0.05,0.05,0.0,0.0,1.0,1.0,0,0,,,0
1449617841777511957,131,0,/odom,ucmd_vector,0,0,0,0.81853231908,0.041480074863,0.0,0.0,0.0,-0.0750128817247,0.997182564817,0.335248096237,0.05,0.05,0.0,0.0,1.0,1.0,0,0,,,0
1449617841860753729,132,0,/odom,ucmd_vector,0,0,0,0.81853231908,0.041480074863,0.0,0.0,0.0,-0.0750128817247,0.997182564817,0.340835397491,0.05,0.05,0.0,0.0,1.0,1.0,0,0,,,0
1449617841884349034,133,0,/odom,ucmd_vector,0,0,0,0.838628509287,0.0398991643386,0.0,0.0,0.0,-0.0802809469381,0.996772275677,0.340835397491,0.05,0.05,0.0,0.0,1.0,1.0,0,0,,,0
1449617841897586209,134,0,/odom,ucmd_vector,0,0,0,0.85010653876,0.0389264426479,0.0,0.0,0.0,-0.0802809469381,0.996772275677,0.335248096237,0.05,0.05,0.0,0.0,1.0,1.0,0,0,,,0
1449617841991856354,135,0,/odom,ucmd_vector,0,0,0,0.85010653876,0.0389264426479,0.0,0.0,0.0,-0.0802809469381,0.996772275677,0.335248096237,0.05,0.05,0.0,0.0,1.0,1.0,0,0,,,0
1449617842008536589,136,0,/odom,ucmd_vector,0,0,0,0.88164108836,0.035918037553,0.0,0.0,0.0,-0.0855467706393,0.99633415581,0.335248096237,0.05,0.05,0.0,0.0,1.0,1.0,0,0,,,0
1449617842025754932,137,0,/odom,ucmd_vector,0,0,0,0.88164108836,0.035918037553,0.0,0.0,0.0,-0.0855467706393,0.99633415581,0.335248096237,0.05,0.05,0.0,0.0,1.0,1.0,0,0,,,0
1449617842085018246,138,0,/odom,ucmd_vector,0,0,0,0.890232269166,0.0350067222201,0.0,0.0,0.0,-0.0908102058021,0.995868217448,0.335248096237,0.05,0.05,0.0,0.0,1.0,1.0,0,0,,,0
1449617842102383208,139,0,/odom,ucmd_vector,0,0,0,0.901687176908,0.0337916351097,0.0,0.0,0.0,-0.0908102058021,0.995868217448,0.335248096237,0.05,0.05,0.0,0.0,1.0,1.0,0,0,,,0
1449617842145309454,140,0,/odom,ucmd_vector,0,0,0,0.901687176908,0.0337916351097,0.0,0.0,0.0,-0.0908102058021,0.995868217448,0.335248096237,0.05,0.05,0.0,0.0,1.0,1.0,0,0,,,0
1449617842184434554,141,0,/odom,ucmd_vector,0,0,0,0.921723155068,0.0315744932284,0.0,0.0,0.0,-0.0960711054669,0.9953744736,0.335248096237,0.05,0.05,0.0,0.0,1.0,1.0,0,0,,,0
1449617842218654053,142,0,/odom,ucmd_vector,0,0,0,0.921723155068,0.0315744932284,0.0,0.0,0.0,-0.0960711054669,0.9953744736,0.335248096237,0.05,0.05,0.0,0.0,1.0,1.0,0,0,,,0
1449617842282796329,143,0,/odom,ucmd_vector,0,0,0,0.930293156741,0.0304818109317,0.0,0.0,0.0,-0.101329322745,0.994852938053,0.340835397491,0.05,0.05,0.0,0.0,1.0,1.0,0,0,,,0
1449617842304543467,144,0,/odom,ucmd_vector,0,0,0,0.947433160088,0.0282964463384,0.0,0.0,0.0,-0.101329322745,0.994852938053,0.340835397491,0.05,0.05,0.0,0.0,1.0,1.0,0,0,,,0
1449617842335523344,145,0,/odom,ucmd_vector,0,0,0,0.947433160088,0.0282964463384,0.0,0.0,0.0,-0.0697009379753,0.997567932146,0.346422698746,0.05,0.05,0.0,0.0,1.0,1.0,0,0,,,0
1449617842410381233,146,0,/odom,ucmd_vector,0,0,0,0.958859828986,0.0268395366095,0.0,0.0,0.0,-0.0697009379753,0.997567932146,0.346422698746,0.05,0.05,0.0,0.0,1.0,1.0,0,0,,,0
1449617842438443469,147,0,/odom,ucmd_vector,0,0,0,0.973123122,0.0248675569613,0.0,0.0,0.0,-0.0749711136265,0.997185705935,0.346422698746,0.05,0.05,0.0,0.0,1.0,1.0,0,0,,,0
1449617842451584030,148,0,/odom,ucmd_vector,0,0,0,0.984533756412,0.0232899732427,0.0,0.0,0.0,-0.0718050720702,0.997418684217,0.189978263626,0.05,0.05,0.0,0.0,1.0,1.0,0,0,,,0
1449617842538644940,149,0,/odom,ucmd_vector,0,0,0,0.984533756412,0.0232899732427,0.0,0.0,0.0,-0.0718050720702,0.997418684217,0.189978263626,0.05,0.05,0.0,0.0,1.0,1.0,0,0,,,0
1449617842547165046,150,0,/odom,ucmd_vector,0,0,0,0.998775413356,0.0211673713432,0.0,0.0,0.0,-0.0770744297208,0.997025341846,0.189978263626,0.05,0.05,0.0,0.0,1.0,1.0,0,0,,,0
1449617842572034023,151,0,/odom,ucmd_vector,0,0,0,1.00730647155,0.0198035790874,0.0,0.0,0.0,-0.0791774028604,0.996860541338,0.346422698746,0.05,0.05,0.0,0.0,1.0,1.0,0,0,,,0
1449617842631875060,152,0,/odom,ucmd_vector,0,0,0,1.00730647155,0.0198035790874,0.0,0.0,0.0,-0.0791774028604,0.996860541338,0.346422698746,0.05,0.05,0.0,0.0,1.0,1.0,0,0,,,0
1449617842655789135,153,0,/odom,ucmd_vector,0,0,0,1.01869515179,0.0180754205291,0.0,0.0,0.0,-0.0791774028604,0.996860541338,0.35201,0.05,0.05,0.0,0.0,1.0,1.0,0,0,,,0
1449617842745743439,154,0,/odom,ucmd_vector,0,0,0,1.01869515179,0.0180754205291,0.0,0.0,0.0,-0.0791774028604,0.996860541338,0.35201,0.05,0.05,0.0,0.0,1.0,1.0,0,0,,,0
1449617842762423457,155,0,/odom,ucmd_vector,0,0,0,1.03858606551,0.0148031597946,0.0,0.0,0.0,-0.0844437083633,0.996428251365,0.346422698746,0.05,0.05,0.0,0.0,1.0,1.0,0,0,,,0
1449617842783414972,156,0,/odom,ucmd_vector,0,0,0,1.04426351181,0.0138339124213,0.0,0.0,0.0,-0.0844437083633,0.996428251365,0.346422698746,0.05,0.05,0.0,0.0,1.0,1.0,0,0,,,0
1449617842836328213,157,0,/odom,ucmd_vector,0,0,0,1.04426351181,0.0138339124213,0.0,0.0,0.0,-0.0844437083633,0.996428251365,0.35201,0.05,0.05,0.0,0.0,1.0,1.0,0,0,,,0
1449617842857719660,158,0,/odom,ucmd_vector,0,0,0,1.05844128772,0.0113208775558,0.0,0.0,0.0,-0.0897076561262,0.99596814027,0.35201,0.05,0.05,0.0,0.0,1.0,1.0,0,0,,,0
1449617842891472305,159,0,/odom,ucmd_vector,0,0,0,1.05844128772,0.0113208775558,0.0,0.0,0.0,-0.0897076561262,0.99596814027,0.35201,0.05,0.05,0.0,0.0,1.0,1.0,0,0,,,0
1449617842941605317,160,0,/odom,ucmd_vector,0,0,0,1.06410817413,0.0102916858943,0.0,0.0,0.0,-0.0897076561262,0.99596814027,0.35201,0.05,0.05,0.0,0.0,1.0,1.0,0,0,,,0
1449617842977468994,161,0,/odom,ucmd_vector,0,0,0,1.06977506054,0.00926249423289,0.0,0.0,0.0,-0.0897076561262,0.99596814027,0.35201,0.05,0.05,0.0,0.0,1.0,1.0,0,0,,,0
1449617843073013397,162,0,/odom,ucmd_vector,0,0,0,1.07825860096,0.00762896272284,0.0,0.0,0.0,-0.0949690991753,0.995480220899,0.35201,0.05,0.05,0.0,0.0,1.0,1.0,0,0,,,0
1449617843090732008,163,0,/odom,ucmd_vector,0,0,0,1.1008981646,0.00336262271394,0.0,0.0,0.0,-0.0949690991753,0.995480220899,0.318486192474,0.05,0.05,0.0,0.0,1.0,1.0,0,0,,,0
1449617843102866427,164,0,/odom,ucmd_vector,0,0,0,1.1008981646,0.00336262271394,0.0,0.0,0.0,-0.0949690991753,0.995480220899,0.340835397491,0.05,0.05,0.0,0.0,1.0,1.0,0,0,,,0
1449617843142600144,165,0,/odom,ucmd_vector,0,0,0,1.1008981646,0.00336262271394,0.0,0.0,0.0,-0.0949690991753,0.995480220899,0.340835397491,0.05,0.05,0.0,0.0,1.0,1.0,0,0,,,0
1449617843190769084,166,0,/odom,ucmd_vector,0,0,0,1.10655385822,0.00227360170724,0.0,0.0,0.0,-0.0949690991753,0.995480220899,0.340835397491,0.05,0.05,0.0,0.0,1.0,1.0,0,0,,,0
1449617843214827807,167,0,/odom,ucmd_vector,0,0,0,1.12066353117,-0.000598220110881,0.0,0.0,0.0,-0.100227890607,0.994964506877,0.340835397491,0.05,0.05,0.0,0.0,1.0,1.0,0,0,,,0
1449617843251902860,168,0,/odom,ucmd_vector,0,0,0,1.12066353117,-0.000598220110881,0.0,0.0,0.0,-0.100227890607,0.994964506877,0.189978263626,0.05,0.05,0.0,0.0,1.0,1.0,0,0,,,0
1449617843297153201,169,0,/odom,ucmd_vector,0,0,0,1.12630740035,-0.00174694883813,0.0,0.0,0.0,-0.100227890607,0.994964506877,0.189978263626,0.05,0.05,0.0,0.0,1.0,1.0,0,0,,,0
1449617843331741164,170,0,/odom,ucmd_vector,0,0,0,1.13475452199,-0.00355941107029,0.0,0.0,0.0,-0.10548388359,0.994421012601,0.189978263626,0.05,0.05,0.0,0.0,1.0,1.0,0,0,,,0
1449617843372612551,171,0,/odom,ucmd_vector,0,0,0,1.14038593641,-0.00476771922506,0.0,0.0,0.0,-0.10548388359,0.994421012601,0.184390962372,0.05,0.05,0.0,0.0,1.0,1.0,0,0,,,0
1449617843421689714,172,0,/odom,ucmd_vector,0,0,0,1.14881343252,-0.00666934817798,0.0,0.0,0.0,-0.110736931374,0.993849753247,0.184390962372,0.05,0.05,0.0,0.0,1.0,1.0,0,0,,,0
1449617843462728825,173,0,/odom,ucmd_vector,0,0,0,1.15443176325,-0.00793710081326,0.0,0.0,0.0,-0.110736931374,0.993849753247,0.189978263626,0.05,0.05,0.0,0.0,1.0,1.0,0,0,,,0
1449617843527155810,174,0,/odom,ucmd_vector,0,0,0,1.16005009399,-0.00920485344854,0.0,0.0,0.0,-0.110736931374,0.993849753247,0.189978263626,0.05,0.05,0.0,0.0,1.0,1.0,0,0,,,0
1449617843536676620,175,0,/odom,ucmd_vector,0,0,0,1.17406164294,-0.0125224922732,0.0,0.0,0.0,-0.115986887289,0.993250744765,0.212327468643,0.05,0.05,0.0,0.0,1.0,1.0,0,0,,,0
1449617843569075795,176,0,/odom,ucmd_vector,0,0,0,1.17406164294,-0.0125224922732,0.0,0.0,0.0,-0.115986887289,0.993250744765,0.212327468643,0.05,0.05,0.0,0.0,1.0,1.0,0,0,,,0
1449617843623776332,177,0,/odom,ucmd_vector,0,0,0,1.17966626252,-0.0138495478031,0.0,0.0,0.0,-0.115986887289,0.993250744765,0.212327468643,0.05,0.05,0.0,0.0,1.0,1.0,0,0,,,0
1449617843659109398,178,0,/odom,ucmd_vector,0,0,0,1.1852708821,-0.0151766033329,0.0,0.0,0.0,-0.115986887289,0.993250744765,0.189978263626,0.05,0.05,0.0,0.0,1.0,1.0,0,0,,,0
1449617843706259948,179,0,/odom,ucmd_vector,0,0,0,1.19365630583,-0.0172559186561,0.0,0.0,0.0,-0.121233604752,0.99262400388,0.189978263626,0.05,0.05,0.0,0.0,1.0,1.0,0,0,,,0
1449617843743093200,180,0,/odom,ucmd_vector,0,0,0,1.19924658831,-0.0186421288715,0.0,0.0,0.0,-0.121233604752,0.99262400388,0.189978263626,0.05,0.05,0.0,0.0,1.0,1.0,0,0,,,0
1449617843798765856,181,0,/odom,ucmd_vector,0,0,0,1.20483687079,-0.0200283390869,0.0,0.0,0.0,-0.121233604752,0.99262400388,0.189978263626,0.05,0.05,0.0,0.0,1.0,1.0,0,0,,,0
1449617843819261047,182,0,/odom,ucmd_vector,0,0,0,1.21879013486,-0.0235823644304,0.0,0.0,0.0,-0.126476937269,0.991969548091,0.189978263626,0.05,0.05,0.0,0.0,1.0,1.0,0,0,,,0
1449617843873243807,183,0,/odom,ucmd_vector,0,0,0,1.21879013486,-0.0235823644304,0.0,0.0,0.0,-0.126476937269,0.991969548091,0.173216349373,0.05,0.05,0.0,0.0,1.0,1.0,0,0,,,0
1449617843896049852,184,0,/odom,ucmd_vector,0,0,0,1.22994825767,-0.0264432846662,0.0,0.0,0.0,-0.126476937269,0.991969548091,0.173216349373,0.05,0.05,0.0,0.0,1.0,1.0,0,0,,,0
1449617843933243630,185,0,/odom,ucmd_vector,0,0,0,1.22994825767,-0.0264432846662,0.0,0.0,0.0,-0.126476937269,0.991969548091,0.346422698746,0.05,0.05,0.0,0.0,1.0,1.0,0,0,,,0
1449617844017636270,186,0,/odom,ucmd_vector,0,0,0,1.23552357873,-0.0278884947516,0.0,0.0,0.0,-0.126476937269,0.991969548091,0.346422698746,0.05,0.05,0.0,0.0,1.0,1.0,0,0,,,0
1449617844059788008,187,0,/odom,ucmd_vector,0,0,0,1.24386318415,-0.0301445675774,0.0,0.0,0.0,-0.131716738444,0.99128739567,0.346422698746,0.05,0.05,0.0,0.0,1.0,1.0,0,0,,,0
1449617844075279817,188,0,/odom,ucmd_vector,0,0,0,1.2494229211,-0.0316486161279,0.0,0.0,0.0,-0.131716738444,0.99128739567,0.346422698746,0.05,0.05,0.0,0.0,1.0,1.0,0,0,,,0
1449617844150455534,189,0,/odom,ucmd_vector,0,0,0,1.25498265806,-0.0331526646784,0.0,0.0,0.0,-0.131716738444,0.99128739567,0.346422698746,0.05,0.05,0.0,0.0,1.0,1.0,0,0,,,0
1449617844173966447,190,0,/odom,ucmd_vector,0,0,0,1.26331416097,-0.0354380727487,0.0,0.0,0.0,-0.136952861975,0.990577565664,0.346422698746,0.05,0.05,0.0,0.0,1.0,1.0,0,0,,,0
1449617844200659400,191,0,/odom,ucmd_vector,0,0,0,1.26331416097,-0.0354380727487,0.0,0.0,0.0,-0.136952861975,0.990577565664,0.346422698746,0.05,0.05,0.0,0.0,1.0,1.0,0,0,,,0
1449617844243196135,192,0,/odom,ucmd_vector,0,0,0,1.2688576929,-0.0370007917883,0.0,0.0,0.0,-0.136952861975,0.990577565664,0.189978263626,0.05,0.05,0.0,0.0,1.0,1.0,0,0,,,0
1449617844255781026,193,0,/odom,ucmd_vector,0,0,0,1.27440122482,-0.0385635108279,0.0,0.0,0.0,-0.136952861975,0.990577565664,0.189978263626,0.05,0.05,0.0,0.0,1.0,1.0,0,0,,,0
1449617844291764799,194,0,/odom,ucmd_vector,0,0,0,1.27440122482,-0.0385635108279,0.0,0.0,0.0,-0.136952861975,0.990577565664,0.189978263626,0.05,0.05,0.0,0.0,1.0,1.0,0,0,,,0
1449617844372546655,195,0,/odom,ucmd_vector,0,0,0,1.27994475675,-0.0401262298675,0.0,0.0,0.0,-0.136952861975,0.990577565664,0.189978263626,0.05,0.05,0.0,0.0,1.0,1.0,0,0,,,0
1449617844388846146,196,0,/odom,ucmd_vector,0,0,0,1.28548828868,-0.0416889489071,0.0,0.0,0.0,-0.136952861975,0.990577565664,0.189978263626,0.05,0.05,0.0,0.0,1.0,1.0,0,0,,,0
1449617844438814547,197,0,/odom,ucmd_vector,0,0,0,1.2910318206,-0.0432516679466,0.0,0.0,0.0,-0.136952861975,0.990577565664,0.189978263626,0.05,0.05,0.0,0.0,1.0,1.0,0,0,,,0
1449617844452516743,198,0,/odom,ucmd_vector,0,0,0,1.2937951745,-0.0440622754467,0.0,0.0,0.0,-0.142185161666,0.989840077892,0.189978263626,0.05,0.05,0.0,0.0,1.0,1.0,0,0,,,0
1449617844496324382,199,0,/odom,ucmd_vector,0,0,0,1.2937951745,-0.0440622754467,0.0,0.0,0.0,-0.142185161666,0.989840077892,0.189978263626,0.05,0.05,0.0,0.0,1.0,1.0,0,0,,,0
1449617844558741660,200,0,/odom,ucmd_vector,0,0,0,1.29932188228,-0.0456834904468,0.0,0.0,0.0,-0.142185161666,0.989840077892,0.189978263626,0.05,0.05,0.0,0.0,1.0,1.0,0,0,,,0
1449617844572892136,201,0,/odom,ucmd_vector,0,0,0,1.30758578189,-0.0482027852954,0.0,0.0,0.0,-0.147413491427,0.989074952946,0.189978263626,0.05,0.05,0.0,0.0,1.0,1.0,0,0,,,0
1449617844610721758,202,0,/odom,ucmd_vector,0,0,0,1.30758578189,-0.0482027852954,0.0,0.0,0.0,-0.147413491427,0.989074952946,0.189978263626,0.05,0.05,0.0,0.0,1.0,1.0,0,0,,,0
1449617844655196734,203,0,/odom,ucmd_vector,0,0,0,1.31034913578,-0.0490133927955,0.0,0.0,0.0,-0.142185161666,0.989840077892,0.189978263626,0.05,0.05,0.0,0.0,1.0,1.0,0,0,,,0
1449617844705574496,204,0,/odom,ucmd_vector,0,0,0,1.31310376898,-0.049853157745,0.0,0.0,0.0,-0.147413491427,0.989074952946,0.189978263626,0.05,0.05,0.0,0.0,1.0,1.0,0,0,,,0
1449617844732875072,205,0,/odom,ucmd_vector,0,0,0,1.31861303539,-0.0515326876441,0.0,0.0,0.0,-0.147413491427,0.989074952946,0.189978263626,0.05,0.05,0.0,0.0,1.0,1.0,0,0,,,0
1449617844790589626,206,0,/odom,ucmd_vector,0,0,0,1.3241223018,-0.0532122175432,0.0,0.0,0.0,-0.147413491427,0.989074952946,0.189978263626,0.05,0.05,0.0,0.0,1.0,1.0,0,0,,,0
1449617844811052399,207,0,/odom,ucmd_vector,0,0,0,1.32962253987,-0.0549208111046,0.0,0.0,0.0,-0.147413491427,0.989074952946,0.189978263626,0.05,0.05,0.0,0.0,1.0,1.0,0,0,,,0
1449617844890575499,208,0,/odom,ucmd_vector,0,0,0,1.32962253987,-0.0549208111046,0.0,0.0,0.0,-0.147413491427,0.989074952946,0.184390962372,0.05,0.05,0.0,0.0,1.0,1.0,0,0,,,0
1449617844913452356,209,0,/odom,ucmd_vector,0,0,0,1.33785935448,-0.0575272969403,0.0,0.0,0.0,-0.152637705278,0.988282212188,0.184390962372,0.05,0.05,0.0,0.0,1.0,1.0,0,0,,,0
1449617844985495824,210,0,/odom,ucmd_vector,0,0,0,1.34335056421,-0.0592649541641,0.0,0.0,0.0,-0.152637705278,0.988282212188,0.189978263626,0.05,0.05,0.0,0.0,1.0,1.0,0,0,,,0
1449617844997638071,211,0,/odom,ucmd_vector,0,0,0,1.34608683411,-0.0601627494053,0.0,0.0,0.0,-0.157857657354,0.987461877753,0.189978263626,0.05,0.05,0.0,0.0,1.0,1.0,0,0,,,0
1449617845012613986,212,0,/odom,ucmd_vector,0,0,0,1.34883243898,-0.0610315780171,0.0,0.0,0.0,-0.152637705278,0.988282212188,0.189978263626,0.05,0.05,0.0,0.0,1.0,1.0,0,0,,,0
1449617845052427611,213,0,/odom,ucmd_vector,0,0,0,1.34883243898,-0.0610315780171,0.0,0.0,0.0,-0.152637705278,0.988282212188,0.189978263626,0.05,0.05,0.0,0.0,1.0,1.0,0,0,,,0
1449617845134073397,214,0,/odom,ucmd_vector,0,0,0,1.35156870888,-0.0619293732583,0.0,0.0,0.0,-0.157857657354,0.987461877753,0.189978263626,0.05,0.05,0.0,0.0,1.0,1.0,0,0,,,0
1449617845150865162,215,0,/odom,ucmd_vector,0,0,0,1.35705058365,-0.0636959971114,0.0,0.0,0.0,-0.157857657354,0.987461877753,0.189978263626,0.05,0.05,0.0,0.0,1.0,1.0,0,0,,,0
1449617845218817722,216,0,/odom,ucmd_vector,0,0,0,1.36252312345,-0.0654915875938,0.0,0.0,0.0,-0.157857657354,0.987461877753,0.184390962372,0.05,0.05,0.0,0.0,1.0,1.0,0,0,,,0
1449617845250551944,217,0,/odom,ucmd_vector,0,0,0,1.36252312345,-0.0654915875938,0.0,0.0,0.0,-0.157857657354,0.987461877753,0.184390962372,0.05,0.05,0.0,0.0,1.0,1.0,0,0,,,0
1449617845279547290,218,0,/odom,ucmd_vector,0,0,0,1.36799566324,-0.0672871780762,0.0,0.0,0.0,-0.157857657354,0.987461877753,0.189978263626,0.05,0.05,0.0,0.0,1.0,1.0,0,0,,,0
1449617845360887949,219,0,/odom,ucmd_vector,0,0,0,1.36799566324,-0.0672871780762,0.0,0.0,0.0,-0.157857657354,0.987461877753,0.189978263626,0.05,0.05,0.0,0.0,1.0,1.0,0,0,,,0
1449617845378217354,220,0,/odom,ucmd_vector,0,0,0,1.37345856248,-0.0691116349197,0.0,0.0,0.0,-0.157857657354,0.987461877753,0.189978263626,0.05,0.05,0.0,0.0,1.0,1.0,0,0,,,0
1449617845396945584,221,0,/odom,ucmd_vector,0,0,0,1.37345856248,-0.0691116349197,0.0,0.0,0.0,-0.157857657354,0.987461877753,0.184390962372,0.05,0.05,0.0,0.0,1.0,1.0,0,0,,,0
1449617845433401170,222,0,/odom,ucmd_vector,0,0,0,1.37618519181,-0.0700382965221,0.0,0.0,0.0,-0.163073201911,0.986613972544,0.184390962372,0.05,0.05,0.0,0.0,1.0,1.0,0,0,,,0
1449617845503740390,223,0,/odom,ucmd_vector,0,0,0,1.37892146171,-0.0709360917633,0.0,0.0,0.0,-0.157857657354,0.987461877753,0.184390962372,0.05,0.05,0.0,0.0,1.0,1.0,0,0,,,0
1449617845548871812,224,0,/odom,ucmd_vector,0,0,0,1.37892146171,-0.0709360917633,0.0,0.0,0.0,-0.157857657354,0.987461877753,0.184390962372,0.05,0.05,0.0,0.0,1.0,1.0,0,0,,,0
1449617845576797054,225,0,/odom,ucmd_vector,0,0,0,1.38164809104,-0.0718627533657,0.0,0.0,0.0,-0.163073201911,0.986613972544,0.189978263626,0.05,0.05,0.0,0.0,1.0,1.0,0,0,,,0
1449617845597835854,226,0,/odom,ucmd_vector,0,0,0,1.38164809104,-0.0718627533657,0.0,0.0,0.0,-0.163073201911,0.986613972544,0.189978263626,0.05,0.05,0.0,0.0,1.0,1.0,0,0,,,0
1449617845693642498,227,0,/odom,ucmd_vector,0,0,0,1.38710134971,-0.0737160765704,0.0,0.0,0.0,-0.163073201911,0.986613972544,0.35201,0.05,0.05,0.0,0.0,1.0,1.0,0,0,,,0
1449617845774411336,228,0,/odom,ucmd_vector,0,0,0,1.38981803397,-0.074671501042,0.0,0.0,0.0,-0.168284193326,0.985738520236,0.35201,0.05,0.05,0.0,0.0,1.0,1.0,0,0,,,0
1449617845799167058,229,0,/odom,ucmd_vector,0,0,0,1.3925446633,-0.0755981626443,0.0,0.0,0.0,-0.163073201911,0.986613972544,0.189978263626,0.05,0.05,0.0,0.0,1.0,1.0,0,0,,,0
1449617845863424156,230,0,/odom,ucmd_vector,0,0,0,1.39526134756,-0.0765535871159,0.0,0.0,0.0,-0.168284193326,0.985738520236,0.184390962372,0.05,0.05,0.0,0.0,1.0,1.0,0,0,,,0
1449617845930217518,231,0,/odom,ucmd_vector,0,0,0,1.39798797689,-0.0774802487183,0.0,0.0,0.0,-0.163073201911,0.986613972544,0.184390962372,0.05,0.05,0.0,0.0,1.0,1.0,0,0,,,0
1449617845974432630,232,0,/odom,ucmd_vector,0,0,0,1.40070466114,-0.0784356731898,0.0,0.0,0.0,-0.168284193326,0.985738520236,0.184390962372,0.05,0.05,0.0,0.0,1.0,1.0,0,0,,,0
1449617846017689609,233,0,/odom,ucmd_vector,0,0,0,1.40613802965,-0.0803465221329,0.0,0.0,0.0,-0.168284193326,0.985738520236,0.184390962372,0.05,0.05,0.0,0.0,1.0,1.0,0,0,,,0
1449617846062311112,234,0,/odom,ucmd_vector,0,0,0,1.40613802965,-0.0803465221329,0.0,0.0,0.0,-0.168284193326,0.985738520236,0.173216349373,0.05,0.05,0.0,0.0,1.0,1.0,0,0,,,0
1449617846090844004,235,0,/odom,ucmd_vector,0,0,0,1.40884446542,-0.0813306027694,0.0,0.0,0.0,-0.173490486104,0.984835545272,0.173216349373,0.05,0.05,0.0,0.0,1.0,1.0,0,0,,,0
1449617846130501478,236,0,/odom,ucmd_vector,0,0,0,1.41156114967,-0.0822860272409,0.0,0.0,0.0,-0.168284193326,0.985738520236,0.184390962372,0.05,0.05,0.0,0.0,1.0,1.0,0,0,,,0
1449617846198514174,237,0,/odom,ucmd_vector,0,0,0,1.41426758544,-0.0832701078774,0.0,0.0,0.0,-0.173490486104,0.984835545272,0.184390962372,0.05,0.05,0.0,0.0,1.0,1.0,0,0,,,0
1449617846220835375,238,0,/odom,ucmd_vector,0,0,0,1.41969070545,-0.0852096129854,0.0,0.0,0.0,-0.173490486104,0.984835545272,0.184390962372,0.05,0.05,0.0,0.0,1.0,1.0,0,0,,,0
1449617846253659814,239,0,/odom,ucmd_vector,0,0,0,1.41969070545,-0.0852096129854,0.0,0.0,0.0,-0.173490486104,0.984835545272,0.189978263626,0.05,0.05,0.0,0.0,1.0,1.0,0,0,,,0
1449617846309250755,240,0,/odom,ucmd_vector,0,0,0,1.41969070545,-0.0852096129854,0.0,0.0,0.0,-0.173490486104,0.984835545272,0.189978263626,0.05,0.05,0.0,0.0,1.0,1.0,0,0,,,0
1449617846345834340,241,0,/odom,ucmd_vector,0,0,0,1.42510357699,-0.0871777742583,0.0,0.0,0.0,-0.173490486104,0.984835545272,0.189978263626,0.05,0.05,0.0,0.0,1.0,1.0,0,0,,,0
1449617846413353614,242,0,/odom,ucmd_vector,0,0,0,1.42510357699,-0.0871777742583,0.0,0.0,0.0,-0.173490486104,0.984835545272,0.173216349373,0.05,0.05,0.0,0.0,1.0,1.0,0,0,,,0
1449617846444765388,243,0,/odom,ucmd_vector,0,0,0,1.43051644852,-0.0891459355312,0.0,0.0,0.0,-0.173490486104,0.984835545272,0.173216349373,0.05,0.05,0.0,0.0,1.0,1.0,0,0,,,0
1449617846468636645,244,0,/odom,ucmd_vector,0,0,0,1.43051644852,-0.0891459355312,0.0,0.0,0.0,-0.173490486104,0.984835545272,0.184390962372,0.05,0.05,0.0,0.0,1.0,1.0,0,0,,,0
1449617846490601845,245,0,/odom,ucmd_vector,0,0,0,1.43592932005,-0.0911140968041,0.0,0.0,0.0,-0.173490486104,0.984835545272,0.184390962372,0.05,0.05,0.0,0.0,1.0,1.0,0,0,,,0
1449617846513274143,246,0,/odom,ucmd_vector,0,0,0,1.43592932005,-0.0911140968041,0.0,0.0,0.0,-0.173490486104,0.984835545272,0.184390962372,0.05,0.05,0.0,0.0,1.0,1.0,0,0,,,0
1449617846604577639,247,0,/odom,ucmd_vector,0,0,0,1.43592932005,-0.0911140968041,0.0,0.0,0.0,-0.173490486104,0.984835545272,0.189978263626,0.05,0.05,0.0,0.0,1.0,1.0,0,0,,,0
1449617846657698614,248,0,/odom,ucmd_vector,0,0,0,1.44133164083,-0.0931108043372,0.0,0.0,0.0,-0.173490486104,0.984835545272,0.189978263626,0.05,0.05,0.0,0.0,1.0,1.0,0,0,,,0
1449617846700295889,249,0,/odom,ucmd_vector,0,0,0,1.44133164083,-0.0931108043372,0.0,0.0,0.0,-0.173490486104,0.984835545272,0.173216349373,0.05,0.05,0.0,0.0,1.0,1.0,0,0,,,0
1449617846759788937,250,0,/odom,ucmd_vector,0,0,0,1.44402752585,-0.0941234312338,0.0,0.0,0.0,-0.17869193488,0.983905072865,0.184390962372,0.05,0.05,0.0,0.0,1.0,1.0,0,0,,,0
1449617846770259217,251,0,/odom,ucmd_vector,0,0,0,1.44942984663,-0.0961201387669,0.0,0.0,0.0,-0.17869193488,0.983905072865,0.184390962372,0.05,0.05,0.0,0.0,1.0,1.0,0,0,,,0
1449617846801414706,252,0,/odom,ucmd_vector,0,0,0,1.44942984663,-0.0961201387669,0.0,0.0,0.0,-0.17869193488,0.983905072865,0.189978263626,0.05,0.05,0.0,0.0,1.0,1.0,0,0,,,0
1449617846848044087,253,0,/odom,ucmd_vector,0,0,0,1.44942984663,-0.0961201387669,0.0,0.0,0.0,-0.17869193488,0.983905072865,0.189978263626,0.05,0.05,0.0,0.0,1.0,1.0,0,0,,,0
1449617846875435635,254,0,/odom,ucmd_vector,0,0,0,1.4521362824,-0.0971042194033,0.0,0.0,0.0,-0.173490486104,0.984835545272,0.189978263626,0.05,0.05,0.0,0.0,1.0,1.0,0,0,,,0
1449617846913682197,255,0,/odom,ucmd_vector,0,0,0,1.45483216741,-0.0981168463,0.0,0.0,0.0,-0.17869193488,0.983905072865,0.189978263626,0.05,0.05,0.0,0.0,1.0,1.0,0,0,,,0
1449617846954677089,256,0,/odom,ucmd_vector,0,0,0,1.45483216741,-0.0981168463,0.0,0.0,0.0,-0.17869193488,0.983905072865,0.184390962372,0.05,0.05,0.0,0.0,1.0,1.0,0,0,,,0
1449617847020166651,257,0,/odom,ucmd_vector,0,0,0,1.4575172006,-0.099157906364,0.0,0.0,0.0,-0.183888394426,0.982947128993,0.184390962372,0.05,0.05,0.0,0.0,1.0,1.0,0,0,,,0
1449617847045494121,258,0,/odom,ucmd_vector,0,0,0,1.46021308561,-0.100170533261,0.0,0.0,0.0,-0.17869193488,0.983905072865,0.184390962372,0.05,0.05,0.0,0.0,1.0,1.0,0,0,,,0
1449617847134033745,259,0,/odom,ucmd_vector,0,0,0,1.46021308561,-0.100170533261,0.0,0.0,0.0,-0.17869193488,0.983905072865,0.184390962372,0.05,0.05,0.0,0.0,1.0,1.0,0,0,,,0
1449617847156247705,260,0,/odom,ucmd_vector,0,0,0,1.4628981188,-0.101211593325,0.0,0.0,0.0,-0.183888394426,0.982947128993,0.184390962372,0.05,0.05,0.0,0.0,1.0,1.0,0,0,,,0
1449617847239083228,261,0,/odom,ucmd_vector,0,0,0,1.46559400381,-0.102224220221,0.0,0.0,0.0,-0.17869193488,0.983905072865,0.189978263626,0.05,0.05,0.0,0.0,1.0,1.0,0,0,,,0
1449617847257019513,262,0,/odom,ucmd_vector,0,0,0,1.468279037,-0.103265280285,0.0,0.0,0.0,-0.183888394426,0.982947128993,0.173216349373,0.05,0.05,0.0,0.0,1.0,1.0,0,0,,,0
1449617847294516988,263,0,/odom,ucmd_vector,0,0,0,1.468279037,-0.103265280285,0.0,0.0,0.0,-0.183888394426,0.982947128993,0.173216349373,0.05,0.05,0.0,0.0,1.0,1.0,0,0,,,0
1449617847351887049,264,0,/odom,ucmd_vector,0,0,0,1.468279037,-0.103265280285,0.0,0.0,0.0,-0.183888394426,0.982947128993,0.189978263626,0.05,0.05,0.0,0.0,1.0,1.0,0,0,,,0
1449617847402209846,265,0,/odom,ucmd_vector,0,0,0,1.47097492201,-0.104277907182,0.0,0.0,0.0,-0.17869193488,0.983905072865,0.189978263626,0.05,0.05,0.0,0.0,1.0,1.0,0,0,,,0
1449617847422848916,266,0,/odom,ucmd_vector,0,0,0,1.47097492201,-0.104277907182,0.0,0.0,0.0,-0.17869193488,0.983905072865,0.189978263626,0.05,0.05,0.0,0.0,1.0,1.0,0,0,,,0
1449617847478600204,267,0,/odom,ucmd_vector,0,0,0,1.47097492201,-0.104277907182,0.0,0.0,0.0,-0.17869193488,0.983905072865,0.189978263626,0.05,0.05,0.0,0.0,1.0,1.0,0,0,,,0
1449617847501101240,268,0,/odom,ucmd_vector,0,0,0,1.4736599552,-0.105318967246,0.0,0.0,0.0,-0.183888394426,0.982947128993,0.189978263626,0.05,0.05,0.0,0.0,1.0,1.0,0,0,,,0
1449617847556725693,269,0,/odom,ucmd_vector,0,0,0,1.4736599552,-0.105318967246,0.0,0.0,0.0,-0.183888394426,0.982947128993,0.346422698746,0.05,0.05,0.0,0.0,1.0,1.0,0,0,,,0
1449617847593624281,270,0,/odom,ucmd_vector,0,0,0,1.4736599552,-0.105318967246,0.0,0.0,0.0,-0.183888394426,0.982947128993,0.346422698746,0.05,0.05,0.0,0.0,1.0,1.0,0,0,,,0
1449617847654779078,271,0,/odom,ucmd_vector,0,0,0,1.4736599552,-0.105318967246,0.0,0.0,0.0,-0.183888394426,0.982947128993,0.184390962372,0.05,0.05,0.0,0.0,1.0,1.0,0,0,,,0
1449617847677087002,272,0,/odom,ucmd_vector,0,0,0,1.4736599552,-0.105318967246,0.0,0.0,0.0,-0.183888394426,0.982947128993,0.184390962372,0.05,0.05,0.0,0.0,1.0,1.0,0,0,,,0
1449617847696249037,273,0,/odom,ucmd_vector,0,0,0,1.4736599552,-0.105318967246,0.0,0.0,0.0,-0.183888394426,0.982947128993,0.184390962372,0.05,0.05,0.0,0.0,1.0,1.0,0,0,,,0
1449617847798676301,274,0,/odom,ucmd_vector,0,0,0,1.4736599552,-0.105318967246,0.0,0.0,0.0,-0.183888394426,0.982947128993,0.184390962372,0.05,0.05,0.0,0.0,1.0,1.0,0,0,,,0
1449617847817444870,275,0,/odom,ucmd_vector,0,0,0,1.4736599552,-0.105318967246,0.0,0.0,0.0,-0.183888394426,0.982947128993,0.184390962372,0.05,0.05,0.0,0.0,1.0,1.0,0,0,,,0
1449617847884090135,276,0,/odom,ucmd_vector,0,0,0,1.4736599552,-0.105318967246,0.0,0.0,0.0,-0.183888394426,0.982947128993,0.189978263626,0.05,0.05,0.0,0.0,1.0,1.0,0,0,,,0
1449617847906662519,277,0,/odom,ucmd_vector,0,0,0,1.4736599552,-0.105318967246,0.0,0.0,0.0,-0.183888394426,0.982947128993,0.189978263626,0.05,0.05,0.0,0.0,1.0,1.0,0,0,,,0
1449617847941074719,278,0,/odom,ucmd_vector,0,0,0,1.47633383668,-0.106388344209,0.0,0.0,0.0,-0.189079719651,0.981961740404,0.189978263626,0.05,0.05,0.0,0.0,1.0,1.0,0,0,,,0
1449617848007386791,279,0,/odom,ucmd_vector,0,0,0,1.47633383668,-0.106388344209,0.0,0.0,0.0,-0.189079719651,0.981961740404,0.189978263626,0.05,0.05,0.0,0.0,1.0,1.0,0,0,,,0
1449617848030384712,280,0,/odom,ucmd_vector,0,0,0,1.47901886986,-0.107429404273,0.0,0.0,0.0,-0.183888394426,0.982947128993,0.189978263626,0.05,0.05,0.0,0.0,1.0,1.0,0,0,,,0
1449617848083389145,281,0,/odom,ucmd_vector,0,0,0,1.47901886986,-0.107429404273,0.0,0.0,0.0,-0.183888394426,0.982947128993,0.189978263626,0.05,0.05,0.0,0.0,1.0,1.0,0,0,,,0
1449617848150689306,282,0,/odom,ucmd_vector,0,0,0,1.47901886986,-0.107429404273,0.0,0.0,0.0,-0.183888394426,0.982947128993,0.189978263626,0.05,0.05,0.0,0.0,1.0,1.0,0,0,,,0
1449617848212104836,283,0,/odom,ucmd_vector,0,0,0,1.47901886986,-0.107429404273,0.0,0.0,0.0,-0.183888394426,0.982947128993,0.346422698746,0.05,0.05,0.0,0.0,1.0,1.0,0,0,,,0
1449617848245466373,284,0,/odom,ucmd_vector,0,0,0,1.47901886986,-0.107429404273,0.0,0.0,0.0,-0.183888394426,0.982947128993,0.346422698746,0.05,0.05,0.0,0.0,1.0,1.0,0,0,,,0
1449617848313222373,285,0,/odom,ucmd_vector,0,0,0,1.47901886986,-0.107429404273,0.0,0.0,0.0,-0.183888394426,0.982947128993,0.189978263626,0.05,0.05,0.0,0.0,1.0,1.0,0,0,,,0
1449617848335080582,286,0,/odom,ucmd_vector,0,0,0,1.47901886986,-0.107429404273,0.0,0.0,0.0,-0.183888394426,0.982947128993,0.189978263626,0.05,0.05,0.0,0.0,1.0,1.0,0,0,,,0
1449617848377721115,287,0,/odom,ucmd_vector,0,0,0,1.47901886986,-0.107429404273,0.0,0.0,0.0,-0.183888394426,0.982947128993,0.189978263626,0.05,0.05,0.0,0.0,1.0,1.0,0,0,,,0
1449617848393187131,288,0,/odom,ucmd_vector,0,0,0,1.47901886986,-0.107429404273,0.0,0.0,0.0,-0.183888394426,0.982947128993,0.189978263626,0.05,0.05,0.0,0.0,1.0,1.0,0,0,,,0
1449617848447880140,289,0,/odom,ucmd_vector,0,0,0,1.47901886986,-0.107429404273,0.0,0.0,0.0,-0.183888394426,0.982947128993,0.189978263626,0.05,0.05,0.0,0.0,1.0,1.0,0,0,,,0
1449617848516104828,290,0,/odom,ucmd_vector,0,0,0,1.47901886986,-0.107429404273,0.0,0.0,0.0,-0.183888394426,0.982947128993,0.189978263626,0.05,0.05,0.0,0.0,1.0,1.0,0,0,,,0
1449617848594079636,291,0,/odom,ucmd_vector,0,0,0,1.47901886986,-0.107429404273,0.0,0.0,0.0,-0.183888394426,0.982947128993,0.189978263626,0.05,0.05,0.0,0.0,1.0,1.0,0,0,,,0
1449617848630040763,292,0,/odom,ucmd_vector,0,0,0,1.47901886986,-0.107429404273,0.0,0.0,0.0,-0.183888394426,0.982947128993,0.189978263626,0.05,0.05,0.0,0.0,1.0,1.0,0,0,,,0
1449617848662038760,293,0,/odom,ucmd_vector,0,0,0,1.47901886986,-0.107429404273,0.0,0.0,0.0,-0.183888394426,0.982947128993,0.346422698746,0.05,0.05,0.0,0.0,1.0,1.0,0,0,,,0
1449617848695529833,294,0,/odom,ucmd_vector,0,0,0,1.47901886986,-0.107429404273,0.0,0.0,0.0,-0.183888394426,0.982947128993,0.346422698746,0.05,0.05,0.0,0.0,1.0,1.0,0,0,,,0
1449617848784306981,295,0,/odom,ucmd_vector,0,0,0,1.47901886986,-0.107429404273,0.0,0.0,0.0,-0.183888394426,0.982947128993,0.346422698746,0.05,0.05,0.0,0.0,1.0,1.0,0,0,,,0
1449617848817973720,296,0,/odom,ucmd_vector,0,0,0,1.47901886986,-0.107429404273,0.0,0.0,0.0,-0.183888394426,0.982947128993,0.346422698746,0.05,0.05,0.0,0.0,1.0,1.0,0,0,,,0
1449617848847265285,297,0,/odom,ucmd_vector,0,0,0,1.47901886986,-0.107429404273,0.0,0.0,0.0,-0.183888394426,0.982947128993,0.31289889122,0.05,0.05,0.0,0.0,1.0,1.0,0,0,,,0
1449617848899519695,298,0,/odom,ucmd_vector,0,0,0,1.47901886986,-0.107429404273,0.0,0.0,0.0,-0.183888394426,0.982947128993,0.31289889122,0.05,0.05,0.0,0.0,1.0,1.0,0,0,,,0
1449617848937984667,299,0,/odom,ucmd_vector,0,0,0,1.47901886986,-0.107429404273,0.0,0.0,0.0,-0.183888394426,0.982947128993,0.31289889122,0.05,0.05,0.0,0.0,1.0,1.0,0,0,,,0
1449617848952304432,300,0,/odom,ucmd_vector,0,0,0,1.47901886986,-0.107429404273,0.0,0.0,0.0,-0.183888394426,0.982947128993,0.35201,0.05,0.05,0.0,0.0,1.0,1.0,0,0,,,0
1449617848977685228,301,0,/odom,ucmd_vector,0,0,0,1.47901886986,-0.107429404273,0.0,0.0,0.0,-0.183888394426,0.982947128993,0.35201,0.05,0.05,0.0,0.0,1.0,1.0,0,0,,,0
1449617849054959437,302,0,/odom,ucmd_vector,0,0,0,1.47901886986,-0.107429404273,0.0,0.0,0.0,-0.183888394426,0.982947128993,0.35201,0.05,0.05,0.0,0.0,1.0,1.0,0,0,,,0
1449617849084029824,303,0,/odom,ucmd_vector,0,0,0,1.47901886986,-0.107429404273,0.0,0.0,0.0,-0.183888394426,0.982947128993,0.189978263626,0.05,0.05,0.0,0.0,1.0,1.0,0,0,,,0
1449617849168153541,304,0,/odom,ucmd_vector,0,0,0,1.47901886986,-0.107429404273,0.0,0.0,0.0,-0.183888394426,0.982947128993,0.189978263626,0.05,0.05,0.0,0.0,1.0,1.0,0,0,,,0
1449617849206047963,305,0,/odom,ucmd_vector,0,0,0,1.47901886986,-0.107429404273,0.0,0.0,0.0,-0.183888394426,0.982947128993,0.346422698746,0.05,0.05,0.0,0.0,1.0,1.0,0,0,,,0
1449617849245678804,306,0,/odom,ucmd_vector,0,0,0,1.47901886986,-0.107429404273,0.0,0.0,0.0,-0.180767005788,0.983525947608,0.346422698746,0.05,0.05,0.0,0.0,1.0,1.0,0,0,,,0
1449617849273245795,307,0,/odom,ucmd_vector,0,0,0,1.47901886986,-0.107429404273,0.0,0.0,0.0,-0.180767005788,0.983525947608,0.346422698746,0.05,0.05,0.0,0.0,1.0,1.0,0,0,,,0
1449617849333811200,308,0,/odom,ucmd_vector,0,0,0,1.47901886986,-0.107429404273,0.0,0.0,0.0,-0.180767005788,0.983525947608,0.346422698746,0.05,0.05,0.0,0.0,1.0,1.0,0,0,,,0
1449617849416374166,309,0,/odom,ucmd_vector,0,0,0,1.48169275134,-0.108498781236,0.0,0.0,0.0,-0.185961433067,0.982557044355,0.346422698746,0.05,0.05,0.0,0.0,1.0,1.0,0,0,,,0
1449617849449785942,310,0,/odom,ucmd_vector,0,0,0,1.48169275134,-0.108498781236,0.0,0.0,0.0,-0.185961433067,0.982557044355,0.346422698746,0.05,0.05,0.0,0.0,1.0,1.0,0,0,,,0
1449617849473232622,311,0,/odom,ucmd_vector,0,0,0,1.48169275134,-0.108498781236,0.0,0.0,0.0,-0.179719269298,0.983717939372,0.346422698746,0.05,0.05,0.0,0.0,1.0,1.0,0,0,,,0
1449617849544773666,312,0,/odom,ucmd_vector,0,0,0,1.48169275134,-0.108498781236,0.0,0.0,0.0,-0.179719269298,0.983717939372,0.346422698746,0.05,0.05,0.0,0.0,1.0,1.0,0,0,,,0
1449617849575097661,313,0,/odom,ucmd_vector,0,0,0,1.48169275134,-0.108498781236,0.0,0.0,0.0,-0.0980038180925,0.995186038708,0.318486192474,0.05,0.05,0.0,0.0,1.0,1.0,0,0,,,0
1449617849635572156,314,0,/odom,ucmd_vector,0,0,0,1.48169275134,-0.108498781236,0.0,0.0,0.0,-0.0980038180925,0.995186038708,0.318486192474,0.05,0.05,0.0,0.0,1.0,1.0,0,0,,,0
1449617849676408412,315,0,/odom,ucmd_vector,0,0,0,1.48169275134,-0.108498781236,0.0,0.0,0.0,-0.0219691385336,0.999758649351,0.301724288712,0.05,0.05,0.0,0.0,1.0,1.0,0,0,,,0
1449617849695698325,316,0,/odom,ucmd_vector,0,0,0,1.48169275134,-0.108498781236,0.0,0.0,0.0,-0.0219691385336,0.999758649351,0.301724288712,0.05,0.05,0.0,0.0,1.0,1.0,0,0,,,0
1449617849734416081,317,0,/odom,ucmd_vector,0,0,0,1.48169275134,-0.108498781236,0.0,0.0,0.0,-0.0219691385336,0.999758649351,0.296136987457,0.05,0.05,0.0,0.0,1.0,1.0,0,0,,,0
1449617849760240848,318,0,/odom,ucmd_vector,0,0,0,1.48169275134,-0.108498781236,0.0,0.0,0.0,-0.0219691385336,0.999758649351,0.296136987457,0.05,0.05,0.0,0.0,1.0,1.0,0,0,,,0
1449617849800680774,319,0,/odom,ucmd_vector,0,0,0,1.48169275134,-0.108498781236,0.0,0.0,0.0,-0.0219691385336,0.999758649351,0.296136987457,0.05,0.05,0.0,0.0,1.0,1.0,0,0,,,0
1449617849860974964,320,0,/odom,ucmd_vector,0,0,0,1.48169275134,-0.108498781236,0.0,0.0,0.0,-0.0219691385336,0.999758649351,0.301724288712,0.05,0.05,0.0,0.0,1.0,1.0,0,0,,,0
1449617849875851138,321,0,/odom,ucmd_vector,0,0,0,1.48169275134,-0.108498781236,0.0,0.0,0.0,-0.0219691385336,0.999758649351,0.301724288712,0.05,0.05,0.0,0.0,1.0,1.0,0,0,,,0
1449617849919026500,322,0,/odom,ucmd_vector,0,0,0,1.48169275134,-0.108498781236,0.0,0.0,0.0,-0.0187951963682,0.999823354695,0.296136987457,0.05,0.05,0.0,0.0,1.0,1.0,0,0,,,0
1449617850017892703,323,0,/odom,ucmd_vector,0,0,0,1.48169275134,-0.108498781236,0.0,0.0,0.0,-0.0187951963682,0.999823354695,0.296136987457,0.05,0.05,0.0,0.0,1.0,1.0,0,0,,,0
1449617850075192456,324,0,/odom,ucmd_vector,0,0,0,1.48169275134,-0.108498781236,0.0,0.0,0.0,-0.0187951963682,0.999823354695,0.296136987457,0.05,0.05,0.0,0.0,1.0,1.0,0,0,,,0
1449617850093060676,325,0,/odom,ucmd_vector,0,0,0,1.48169275134,-0.108498781236,0.0,0.0,0.0,-0.0219691385336,0.999758649351,0.301724288712,0.05,0.05,0.0,0.0,1.0,1.0,0,0,,,0
1449617850119256006,326,0,/odom,ucmd_vector,0,0,0,1.48169275134,-0.108498781236,0.0,0.0,0.0,-0.0187951963682,0.999823354695,0.296136987457,0.05,0.05,0.0,0.0,1.0,1.0,0,0,,,0
1449617850194903085,327,0,/odom,ucmd_vector,0,0,0,1.48169275134,-0.108498781236,0.0,0.0,0.0,-0.0187951963682,0.999823354695,0.296136987457,0.05,0.05,0.0,0.0,1.0,1.0,0,0,,,0
1449617850234327095,328,0,/odom,ucmd_vector,0,0,0,1.48169275134,-0.108498781236,0.0,0.0,0.0,-0.0187951963682,0.999823354695,0.296136987457,0.05,0.05,0.0,0.0,1.0,1.0,0,0,,,0
1449617850295676190,329,0,/odom,ucmd_vector,0,0,0,1.48437778452,-0.1095398413,0.0,0.0,0.0,-0.0388992858925,0.999243136357,0.262613179932,0.05,0.05,0.0,0.0,1.0,1.0,0,0,,,0
1449617850320192227,330,0,/odom,ucmd_vector,0,0,0,1.48437778452,-0.1095398413,0.0,0.0,0.0,-0.0388992858925,0.999243136357,0.262613179932,0.05,0.05,0.0,0.0,1.0,1.0,0,0,,,0
1449617850338374790,331,0,/odom,ucmd_vector,0,0,0,1.48437778452,-0.1095398413,0.0,0.0,0.0,-0.0135118676213,0.99990871055,0.296136987457,0.05,0.05,0.0,0.0,1.0,1.0,0,0,,,0
1449617850384535182,332,0,/odom,ucmd_vector,0,0,0,1.48437778452,-0.1095398413,0.0,0.0,0.0,-0.0135118676213,0.99990871055,0.296136987457,0.05,0.05,0.0,0.0,1.0,1.0,0,0,,,0
1449617850405744297,333,0,/odom,ucmd_vector,0,0,0,1.48437778452,-0.1095398413,0.0,0.0,0.0,-0.0135118676213,0.99990871055,0.296136987457,0.05,0.05,0.0,0.0,1.0,1.0,0,0,,,0
1449617850435132897,334,0,/odom,ucmd_vector,0,0,0,1.48437778452,-0.1095398413,0.0,0.0,0.0,-0.0166861073801,0.999860777219,0.301724288712,0.05,0.05,0.0,0.0,1.0,1.0,0,0,,,0
1449617850491410501,335,0,/odom,ucmd_vector,0,0,0,1.48437778452,-0.1095398413,0.0,0.0,0.0,-0.0166861073801,0.999860777219,0.301724288712,0.05,0.05,0.0,0.0,1.0,1.0,0,0,,,0
1449617850520068336,336,0,/odom,ucmd_vector,0,0,0,1.48437778452,-0.1095398413,0.0,0.0,0.0,-0.0166861073801,0.999860777219,0.301724288712,0.05,0.05,0.0,0.0,1.0,1.0,0,0,,,0
1449617850556491768,337,0,/odom,ucmd_vector,0,0,0,1.48437778452,-0.1095398413,0.0,0.0,0.0,-0.0325541439717,0.999469973391,0.268200481186,0.05,0.05,0.0,0.0,1.0,1.0,0,0,,,0
1449617850659015190,338,0,/odom,ucmd_vector,0,0,0,1.48437778452,-0.1095398413,0.0,0.0,0.0,-0.0325541439717,0.999469973391,0.268200481186,0.05,0.05,0.0,0.0,1.0,1.0,0,0,,,0
1449617850684207475,339,0,/odom,ucmd_vector,0,0,0,1.48437778452,-0.1095398413,0.0,0.0,0.0,-0.0166861073801,0.999860777219,0.296136987457,0.05,0.05,0.0,0.0,1.0,1.0,0,0,,,0
1449617850789721298,340,0,/odom,ucmd_vector,0,0,0,1.48437778452,-0.1095398413,0.0,0.0,0.0,-0.0135118676213,0.99990871055,0.296136987457,0.05,0.05,0.0,0.0,1.0,1.0,0,0,,,0
1449617850824252022,341,0,/odom,ucmd_vector,0,0,0,1.48437778452,-0.1095398413,0.0,0.0,0.0,-0.0135118676213,0.99990871055,0.296136987457,0.05,0.05,0.0,0.0,1.0,1.0,0,0,,,0
1449617850915900309,342,0,/odom,ucmd_vector,0,0,0,1.48437778452,-0.1095398413,0.0,0.0,0.0,-0.0166861073801,0.999860777219,0.296136987457,0.05,0.05,0.0,0.0,1.0,1.0,0,0,,,0
1449617851017893447,343,0,/odom,ucmd_vector,0,0,0,1.48707366954,-0.110552468197,0.0,0.0,0.0,-0.0114026103363,0.999934988125,0.296136987457,0.05,0.05,0.0,0.0,1.0,1.0,0,0,,,0
1449617851051002674,344,0,/odom,ucmd_vector,0,0,0,1.49245458774,-0.112606155157,0.0,0.0,0.0,-0.0082281616115,0.999966148105,0.301724288712,0.05,0.05,0.0,0.0,1.0,1.0,0,0,,,0
1449617851163684679,345,0,/odom,ucmd_vector,0,0,0,1.49245458774,-0.112606155157,0.0,0.0,0.0,-0.0082281616115,0.999966148105,0.296136987457,0.05,0.05,0.0,0.0,1.0,1.0,0,0,,,0
1449617851179247812,346,0,/odom,ucmd_vector,0,0,0,1.50326978005,-0.116571023963,0.0,0.0,0.0,-0.0082281616115,0.999966148105,0.296136987457,0.05,0.05,0.0,0.0,1.0,1.0,0,0,,,0
1449617851258681525,347,0,/odom,ucmd_vector,0,0,0,1.50326978005,-0.116571023963,0.0,0.0,0.0,-0.0082281616115,0.999966148105,0.296136987457,0.05,0.05,0.0,0.0,1.0,1.0,0,0,,,0
1449617851286479315,348,0,/odom,ucmd_vector,0,0,0,1.50869290007,-0.118510529071,0.0,0.0,0.0,0.00233979208783,0.999997262683,0.296136987457,0.05,0.05,0.0,0.0,1.0,1.0,0,0,,,0
1449617851314968027,349,0,/odom,ucmd_vector,0,0,0,1.51412626858,-0.120421378014,0.0,0.0,0.0,0.00233979208783,0.999997262683,0.301724288712,0.05,0.05,0.0,0.0,1.0,1.0,0,0,,,0
