%time,field.header.seq,field.header.stamp,field.header.frame_id,field.command.linear.x,field.command.linear.y,field.command.linear.z,field.command.angular.x,field.command.angular.y,field.command.angular.z,field.goal_source
1449617828695755361,9,1449617828695044608,base_footprint,0.0,0.0,0.0,0.0,0.0,0.0,teleoperation
1449617828728965421,10,1449617828728362694,base_footprint,0.0,0.0,0.0,0.0,0.0,0.0,teleoperation
1449617828762841773,11,1449617828761700508,base_footprint,0.0,0.0,0.0,0.0,0.0,0.0,teleoperation
1449617828795830386,12,1449617828795041487,base_footprint,-0.0,0.0,0.0,0.0,0.0,-0.0,teleoperation
1449617828828829550,13,1449617828828375845,base_footprint,-0.0,0.0,0.0,0.0,0.0,-0.0,teleoperation
1449617828862301382,14,1449617828861724012,base_footprint,-0.0,0.0,0.0,0.0,0.0,-0.0,teleoperation
1449617828895656182,15,1449617828895061358,base_footprint,-0.0,0.0,0.0,0.0,0.0,-0.0,teleoperation
1449617828929047058,16,1449617828928365898,base_footprint,-0.0,0.0,0.0,0.0,0.0,-0.0,teleoperation
1449617828962366600,17,1449617828961695780,base_footprint,-0.0,0.0,0.0,0.0,0.0,-0.0,teleoperation
1449617828995567473,18,1449617828995037891,base_footprint,-0.0,0.0,0.0,0.0,0.0,-0.0,teleoperation
1449617829028892305,19,1449617829028361801,base_footprint,-0.0,0.0,0.0,0.0,0.0,-0.0,teleoperation
1449617829062954382,20,1449617829061714735,base_footprint,-0.0,0.0,0.0,0.0,0.0,-0.0,teleoperation
1449617829095585461,21,1449617829095028865,base_footprint,-0.0,0.0,0.0,0.0,0.0,-0.0,teleoperation
1449617829128888941,22,1449617829128361880,base_footprint,-0.0,0.0,0.0,0.0,0.0,-0.0,teleoperation
1449617829162279179,23,1449617829161695633,base_footprint,-0.0,0.0,0.0,0.0,0.0,-0.0,teleoperation
1449617829195579703,24,1449617829195038412,base_footprint,-0.0,0.0,0.0,0.0,0.0,-0.0,teleoperation
1449617829228900055,25,1449617829228373327,base_footprint,-0.0,0.0,0.0,0.0,0.0,-0.0,teleoperation
1449617829262461011,26,1449617829261695748,base_footprint,-0.0,0.0,0.0,0.0,0.0,-0.0,teleoperation
1449617829295690659,27,1449617829295028506,base_footprint,-0.0,0.0,0.0,0.0,0.0,-0.0,teleoperation
1449617829328840165,28,1449617829328361251,base_footprint,-0.0,0.0,0.0,0.0,0.0,-0.0,teleoperation
1449617829362276029,29,1449617829361695033,base_footprint,-0.0,0.0,0.0,0.0,0.0,-0.0,teleoperation
1449617829395552127,30,1449617829395028490,base_footprint,-0.0,0.0,0.0,0.0,0.0,-0.0,teleoperation
1449617829428946956,31,1449617829428368843,base_footprint,-0.0,0.0,0.0,0.0,0.0,-0.0,teleoperation
1449617829462362316,32,1449617829461693263,base_footprint,-0.0,0.0,0.0,0.0,0.0,-0.0,teleoperation
1449617829495639871,33,1449617829495058822,base_footprint,-0.0,0.0,0.0,0.0,0.0,-0.0,teleoperation
1449617829529111937,34,1449617829528375506,base_footprint,-0.0,0.0,0.0,0.0,0.0,-0.0,teleoperation
1449617829562266556,35,1449617829561693992,base_footprint,-0.0,0.0,0.0,0.0,0.0,-0.0,teleoperation
1449617829595592817,36,1449617829595058893,base_footprint,-0.0,0.0,0.0,0.0,0.0,-0.0,teleoperation
1449617829629212286,37,1449617829628361591,base_footprint,-0.0,0.0,0.0,0.0,0.0,-0.0,teleoperation
1449617829662274433,38,1449617829661693825,base_footprint,-0.0,0.0,0.0,0.0,0.0,-0.0,teleoperation
1449617829695959470,39,1449617829695029249,base_footprint,-0.0,0.0,0.0,0.0,0.0,-0.0,teleoperation
1449617829729466840,40,1449617829728362969,base_footprint,-0.0,0.0,0.0,0.0,0.0,-0.0,teleoperation
1449617829762645434,41,1449617829761696441,base_footprint,-0.0,0.0,0.0,0.0,0.0,-0.0,teleoperation
1449617829796660735,42,1449617829795038982,base_footprint,-0.0,0.0,0.0,0.0,0.0,-0.0,teleoperation
1449617829829027055,43,1449617829828361128,base_footprint,-0.0,0.0,0.0,0.0,0.0,-0.0,teleoperation
1449617829862213733,44,1449617829861695522,base_footprint,-0.0,0.0,0.0,0.0,0.0,-0.0,teleoperation
1449617829895653293,45,1449617829895028357,base_footprint,-0.0,0.0,0.0,0.0,0.0,-0.0,teleoperation
1449617829928793288,46,1449617829928370338,base_footprint,-0.0,0.0,0.0,0.0,0.0,-0.0,teleoperation
1449617829962248733,47,1449617829961694815,base_footprint,-0.0,0.0,0.0,0.0,0.0,-0.0,teleoperation
1449617829995786954,48,1449617829995031053,base_footprint,-0.0,0.0,0.0,0.0,0.0,-0.0,teleoperation
1449617830028820867,49,1449617830028363644,base_footprint,-0.0,0.0,0.0,0.0,0.0,-0.0,teleoperation
1449617830062379835,50,1449617830061706148,base_footprint,-0.0,0.0,0.0,0.0,0.0,-0.0,teleoperation
1449617830095957438,51,1449617830095043360,base_footprint,-0.0,0.0,0.0,0.0,0.0,-0.0,teleoperation
1449617830130344595,52,1449617830128366259,base_footprint,-0.0,0.0,0.0,0.0,0.0,-0.0,teleoperation
1449617830162365625,53,1449617830161714946,base_footprint,-0.0,0.0,0.0,0.0,0.0,-0.0,teleoperation
1449617830195606491,54,1449617830195032000,base_footprint,-0.0,0.0,0.0,0.0,0.0,-0.0,teleoperation
1449617830229102653,55,1449617830228364873,base_footprint,-0.0,0.0,0.0,0.0,0.0,-0.0,teleoperation
1449617830262323572,56,1449617830261703688,base_footprint,-0.0,0.0,0.0,0.0,0.0,-0.0,teleoperation
1449617830295663187,57,1449617830295035696,base_footprint,-0.0,0.0,0.0,0.0,0.0,-0.0,teleoperation
1449617830329313861,58,1449617830328382485,base_footprint,-0.0,0.0,0.0,0.0,0.0,-0.0,teleoperation
1449617830362438641,59,1449617830361707624,base_footprint,-0.0,0.0,0.0,0.0,0.0,-0.0,teleoperation
1449617830396564061,60,1449617830395037573,base_footprint,-0.0,0.0,0.0,0.0,0.0,-0.0,teleoperation
1449617830429304961,61,1449617830428366965,base_footprint,-0.0,0.0,0.0,0.0,0.0,-0.0,teleoperation
1449617830462384237,62,1449617830461704057,base_footprint,-0.0,0.0,0.0,0.0,0.0,-0.0,teleoperation
1449617830496014690,63,1449617830495034355,base_footprint,-0.0,0.0,0.0,0.0,0.0,-0.0,teleoperation
1449617830529967499,64,1449617830528376208,base_footprint,-0.0,0.0,0.0,0.0,0.0,-0.0,teleoperation
1449617830562417977,65,1449617830561710464,base_footprint,-0.0,0.0,0.0,0.0,0.0,-0.0,teleoperation
1449617830596077851,66,1449617830595032699,base_footprint,-0.0,0.0,0.0,0.0,0.0,-0.0,teleoperation
1449617830629241002,67,1449617830628366124,base_footprint,-0.0,0.0,0.0,0.0,0.0,-0.0,teleoperation
1449617830663410677,68,1449617830661708377,base_footprint,-0.0,0.0,0.0,0.0,0.0,-0.0,teleoperation
1449617830696341314,69,1449617830695036931,base_footprint,-0.0,0.0,0.0,0.0,0.0,-0.0,teleoperation
1449617830729555047,70,1449617830728375667,base_footprint,-0.0,0.0,0.0,0.0,0.0,-0.0,teleoperation
1449617830762609797,71,1449617830761704577,base_footprint,-0.0,0.0,0.0,0.0,0.0,-0.0,teleoperation
1449617830799114036,72,1449617830795061999,base_footprint,-0.0,0.0,0.0,0.0,0.0,-0.0,teleoperation
1449617830834177199,73,1449617830828387588,base_footprint,-0.0,0.0,0.0,0.0,0.0,-0.0,teleoperation
1449617830865697174,74,1449617830861721719,base_footprint,-0.0,0.0,0.0,0.0,0.0,-0.0,teleoperation
1449617830896302676,75,1449617830895035858,base_footprint,-0.0,0.0,0.0,0.0,0.0,-0.0,teleoperation
1449617830931357224,76,1449617830928390392,base_footprint,-0.0,0.0,0.0,0.0,0.0,-0.0,teleoperation
1449617830963868823,77,1449617830961712720,base_footprint,-0.0,0.0,0.0,0.0,0.0,-0.0,teleoperation
1449617830996528928,78,1449617830995041090,base_footprint,-0.0,0.0,0.0,0.0,0.0,-0.0,teleoperation
1449617831030675327,79,1449617831028384006,base_footprint,-0.0,0.0,0.0,0.0,0.0,-0.0,teleoperation
1449617831062731406,80,1449617831061702562,base_footprint,-0.0,0.0,0.0,0.0,0.0,-0.0,teleoperation
1449617831095642961,81,1449617831095031598,base_footprint,-0.0,0.0,0.0,0.0,0.0,-0.0,teleoperation
1449617831130253183,82,1449617831128378266,base_footprint,-0.0,0.0,0.0,0.0,0.0,-0.0,teleoperation
1449617831163023942,83,1449617831161705826,base_footprint,-0.0,0.0,0.0,0.0,0.0,-0.0,teleoperation
1449617831200226225,84,1449617831195045832,base_footprint,-0.0,0.0,0.0,0.0,0.0,-0.0,teleoperation
1449617831231592947,85,1449617831228388467,base_footprint,-0.0,0.0,0.0,0.0,0.0,-0.0,teleoperation
1449617831266378598,86,1449617831261808060,base_footprint,-0.0,0.0,0.0,0.0,0.0,-0.0,teleoperation
1449617831295972264,87,1449617831295039092,base_footprint,-0.0,0.0,0.0,0.0,0.0,-0.0,teleoperation
1449617831329889411,88,1449617831328375197,base_footprint,-0.0,0.0,0.0,0.0,0.0,-0.0,teleoperation
1449617831362994935,89,1449617831361712480,base_footprint,-0.0,0.0,0.0,0.0,0.0,-0.0,teleoperation
1449617831396130436,90,1449617831395036506,base_footprint,-0.0,0.0,0.0,0.0,0.0,-0.0,teleoperation
1449617831430714547,91,1449617831429328068,base_footprint,-0.0,0.0,0.0,0.0,0.0,-0.0,teleoperation
1449617831463028134,92,1449617831461703694,base_footprint,-0.0,0.0,0.0,0.0,0.0,-0.0,teleoperation
1449617831497346293,93,1449617831495050749,base_footprint,-0.0,0.0,0.0,0.0,0.0,-0.0,teleoperation
1449617831529670671,94,1449617831528378762,base_footprint,-0.0,0.0,0.0,0.0,0.0,-0.0,teleoperation
1449617831565657176,95,1449617831561718486,base_footprint,-0.0,0.0,0.0,0.0,0.0,-0.0,teleoperation
1449617831597247896,96,1449617831595051563,base_footprint,-0.0,0.0,0.0,0.0,0.0,-0.0,teleoperation
1449617831633387189,97,1449617831628380484,base_footprint,-0.0,0.0,0.0,0.0,0.0,-0.0,teleoperation
1449617831662957493,98,1449617831661713466,base_footprint,-0.0,0.0,0.0,0.0,0.0,-0.0,teleoperation
1449617831697364649,99,1449617831695041935,base_footprint,-0.0,0.0,0.0,0.0,0.0,-0.0,teleoperation
1449617831731156876,100,1449617831728970763,base_footprint,-0.0,0.0,0.0,0.0,0.0,-0.0,teleoperation
1449617831763361437,101,1449617831761725910,base_footprint,-0.0,0.0,0.0,0.0,0.0,-0.0,teleoperation
1449617831796894952,102,1449617831795043202,base_footprint,-0.0,0.0,0.0,0.0,0.0,-0.0,teleoperation
1449617831830001117,103,1449617831828373034,base_footprint,-0.0,0.0,0.0,0.0,0.0,-0.0,teleoperation
1449617831870989643,104,1449617831861959674,base_footprint,-0.0,0.0,0.0,0.0,0.0,-0.0,teleoperation
1449617831903543197,105,1449617831895607859,base_footprint,-0.0,0.0,0.0,0.0,0.0,-0.0,teleoperation
1449617831929732640,106,1449617831928371020,base_footprint,-0.0,0.0,0.0,0.0,0.0,-0.0,teleoperation
1449617831964636225,107,1449617831962160331,base_footprint,-0.0,0.0,0.0,0.0,0.0,-0.0,teleoperation
1449617832001243124,108,1449617831995045642,base_footprint,-0.0,0.0,0.0,0.0,0.0,-0.0,teleoperation
1449617832031173467,109,1449617832028401323,base_footprint,-0.0,0.0,0.0,0.0,0.0,-0.0,teleoperation
1449617832066075529,110,1449617832061705282,base_footprint,-0.0,0.0,0.0,0.0,0.0,-0.0,teleoperation
1449617832098403810,111,1449617832095035748,base_footprint,-0.0,0.0,0.0,0.0,0.0,-0.0,teleoperation
1449617832129734533,112,1449617832128376067,base_footprint,-0.0,0.0,0.0,0.0,0.0,-0.0,teleoperation
1449617832163715076,113,1449617832161702676,base_footprint,-0.0,0.0,0.0,0.0,0.0,-0.0,teleoperation
1449617832196950976,114,1449617832195110277,base_footprint,-0.0,0.0,0.0,0.0,0.0,-0.0,teleoperation
1449617832235158133,115,1449617832228370930,base_footprint,-0.0,0.0,0.0,0.0,0.0,-0.0,teleoperation
1449617832263550957,116,1449617832261704339,base_footprint,-0.0,0.0,0.0,0.0,0.0,-0.0,teleoperation
1449617832315457970,117,1449617832295035364,base_footprint,-0.0,0.0,0.0,0.0,0.0,-0.0,teleoperation
1449617832330423079,118,1449617832328362753,base_footprint,-0.0,0.0,0.0,0.0,0.0,-0.0,teleoperation
1449617832379198130,119,1449617832361702037,base_footprint,-0.0,0.0,0.0,0.0,0.0,-0.0,teleoperation
1449617832396504849,120,1449617832395037789,base_footprint,-0.0,0.0,0.0,0.0,0.0,-0.0,teleoperation
1449617832442378552,121,1449617832428369023,base_footprint,-0.0,0.0,0.0,0.0,0.0,-0.0,teleoperation
1449617832463437313,122,1449617832461700094,base_footprint,-0.0,0.0,0.0,0.0,0.0,-0.0,teleoperation
1449617832537668483,123,1449617832495059572,base_footprint,-0.0,0.0,0.0,0.0,0.0,-0.0,teleoperation
1449617832560150723,124,1449617832537348776,base_footprint,-0.0,0.0,0.0,0.0,0.0,-0.0,teleoperation
1449617832599813498,125,1449617832561698656,base_footprint,-0.0,0.0,0.0,0.0,0.0,-0.0,teleoperation
1449617832639041491,126,1449617832598853716,base_footprint,-0.0,0.0,0.0,0.0,0.0,-0.0,teleoperation
1449617832679011688,127,1449617832638519292,base_footprint,-0.0,0.0,0.0,0.0,0.0,-0.0,teleoperation
1449617832719061234,128,1449617832678495819,base_footprint,-0.0,0.0,0.0,0.0,0.0,-0.0,teleoperation
1449617832759692665,129,1449617832718440096,base_footprint,-0.0,0.0,0.0,0.0,0.0,-0.0,teleoperation
1449617832799222662,130,1449617832758802143,base_footprint,-0.0,0.0,0.0,0.0,0.0,-0.0,teleoperation
1449617832839676032,131,1449617832799110287,base_footprint,-0.0,0.0,0.0,0.0,0.0,-0.0,teleoperation
1449617832878554930,132,1449617832838680790,base_footprint,-0.0,0.0,0.0,0.0,0.0,-0.0,teleoperation
1449617832918759815,133,1449617832878147561,base_footprint,-0.0,0.0,0.0,0.0,0.0,-0.0,teleoperation
1449617832958913585,134,1449617832918272173,base_footprint,-0.0,0.0,0.0,0.0,0.0,-0.0,teleoperation
1449617832998795067,135,1449617832958477278,base_footprint,-0.0,0.0,0.0,0.0,0.0,-0.0,teleoperation
1449617833039264156,136,1449617832998400196,base_footprint,-0.0,0.0,0.0,0.0,0.0,-0.0,teleoperation
1449617833078752982,137,1449617833038640807,base_footprint,-0.0,0.0,0.0,0.0,0.0,-0.0,teleoperation
1449617833119444110,138,1449617833078406274,base_footprint,-0.0,0.0,0.0,0.0,0.0,-0.0,teleoperation
1449617833158855875,139,1449617833118845016,base_footprint,-0.0,0.0,0.0,0.0,0.0,-0.0,teleoperation
1449617833199566517,140,1449617833158150214,base_footprint,-0.0,0.0,0.0,0.0,0.0,-0.0,teleoperation
1449617833238713462,141,1449617833199027083,base_footprint,-0.0,0.0,0.0,0.0,0.0,-0.0,teleoperation
1449617833278908333,142,1449617833238603008,base_footprint,-0.0,0.0,0.0,0.0,0.0,-0.0,teleoperation
1449617833319123653,143,1449617833278468056,base_footprint,-0.0,0.0,0.0,0.0,0.0,-0.0,teleoperation
1449617833359733994,144,1449617833318691774,base_footprint,-0.0,0.0,0.0,0.0,0.0,-0.0,teleoperation
1449617833399448102,145,1449617833358449296,base_footprint,-0.0,0.0,0.0,0.0,0.0,-0.0,teleoperation
1449617833439032304,146,1449617833398584509,base_footprint,-0.0,0.0,0.0,0.0,0.0,-0.0,teleoperation
1449617833478839294,147,1449617833438358438,base_footprint,-0.0,0.0,0.0,0.0,0.0,-0.0,teleoperation
1449617833518700784,148,1449617833478495338,base_footprint,-0.0,0.0,0.0,0.0,0.0,-0.0,teleoperation
1449617833559624558,149,1449617833518538252,base_footprint,-0.0,0.0,0.0,0.0,0.0,-0.0,teleoperation
1449617833600380900,150,1449617833558689777,base_footprint,-0.0,0.0,0.0,0.0,0.0,-0.0,teleoperation
1449617833640357632,151,1449617833599389050,base_footprint,-0.0,0.0,0.0,0.0,0.0,-0.0,teleoperation
1449617833678577595,152,1449617833639050000,base_footprint,-0.0,0.0,0.0,0.0,0.0,-0.0,teleoperation
1449617833718457756,153,1449617833678246788,base_footprint,-0.0,0.0,0.0,0.0,0.0,-0.0,teleoperation
1449617833758223331,154,1449617833718106347,base_footprint,-0.0,0.0,0.0,0.0,0.0,-0.0,teleoperation
1449617833800430402,155,1449617833758067900,base_footprint,-0.0,0.0,0.0,0.0,0.0,-0.0,teleoperation
1449617833840363141,156,1449617833799815861,base_footprint,-0.0,0.0,0.0,0.0,0.0,-0.0,teleoperation
1449617833878205288,157,1449617833839218970,base_footprint,-0.0,0.0,0.0,0.0,0.0,-0.0,teleoperation
1449617833919731172,158,1449617833878089392,base_footprint,-0.0,0.0,0.0,0.0,0.0,-0.0,teleoperation
1449617833958664945,159,1449617833919168453,base_footprint,-0.0,0.0,0.0,0.0,0.0,-0.0,teleoperation
1449617833999196729,160,1449617833958174898,base_footprint,-0.0,0.0,0.0,0.0,0.0,-0.0,teleoperation
1449617834039675196,161,1449617833998834340,base_footprint,-0.0,0.0,0.0,0.0,0.0,-0.0,teleoperation
1449617834079110804,162,1449617834038634780,base_footprint,-0.0,0.0,0.0,0.0,0.0,-0.0,teleoperation
1449617834118842286,163,1449617834078781765,base_footprint,-0.0,0.0,0.0,0.0,0.0,-0.0,teleoperation
1449617834160217728,164,1449617834118437537,base_footprint,-0.0,0.0,0.0,0.0,0.0,-0.0,teleoperation
1449617834198805438,165,1449617834158709910,base_footprint,-0.0,0.0,0.0,0.0,0.0,-0.0,teleoperation
1449617834239418356,166,1449617834198470100,base_footprint,-0.0,0.0,0.0,0.0,0.0,-0.0,teleoperation
1449617834279235868,167,1449617834238728385,base_footprint,-0.0,0.0,0.0,0.0,0.0,-0.0,teleoperation
1449617834318649058,168,1449617834278604196,base_footprint,-0.0,0.0,0.0,0.0,0.0,-0.0,teleoperation
1449617834359415975,169,1449617834318184215,base_footprint,-0.0,0.0,0.0,0.0,0.0,-0.0,teleoperation
1449617834398981201,170,1449617834358633289,base_footprint,-0.0,0.0,0.0,0.0,0.0,-0.0,teleoperation
1449617834439527923,171,1449617834398318456,base_footprint,-0.0,0.0,0.0,0.0,0.0,-0.0,teleoperation
1449617834479867597,172,1449617834438668633,base_footprint,-0.0,0.0,0.0,0.0,0.0,-0.0,teleoperation
1449617834518617280,173,1449617834478680419,base_footprint,-0.0,0.0,0.0,0.0,0.0,-0.0,teleoperation
1449617834558969822,174,1449617834518245281,base_footprint,-0.0,0.0,0.0,0.0,0.0,-0.0,teleoperation
1449617834598835379,175,1449617834558535602,base_footprint,-0.0,0.0,0.0,0.0,0.0,-0.0,teleoperation
1449617834639153966,176,1449617834598437963,base_footprint,-0.0,0.0,0.0,0.0,0.0,-0.0,teleoperation
1449617834678951756,177,1449617834638449934,base_footprint,-0.0,0.0,0.0,0.0,0.0,-0.0,teleoperation
1449617834718587371,178,1449617834678587312,base_footprint,-0.0,0.0,0.0,0.0,0.0,-0.0,teleoperation
1449617834758841790,179,1449617834718244128,base_footprint,-0.0,0.0,0.0,0.0,0.0,-0.0,teleoperation
1449617834798923783,180,1449617834758439862,base_footprint,-0.0,0.0,0.0,0.0,0.0,-0.0,teleoperation
1449617834839002630,181,1449617834798611084,base_footprint,-0.0,0.0,0.0,0.0,0.0,-0.0,teleoperation
1449617834878563005,182,1449617834838337060,base_footprint,-0.0,0.0,0.0,0.0,0.0,-0.0,teleoperation
1449617834919035499,183,1449617834878282276,base_footprint,-0.0,0.0,0.0,0.0,0.0,-0.0,teleoperation
1449617834958876088,184,1449617834918707474,base_footprint,-0.0,0.0,0.0,0.0,0.0,-0.0,teleoperation
1449617834999032257,185,1449617834958439685,base_footprint,-0.0,0.0,0.0,0.0,0.0,-0.0,teleoperation
1449617835038777273,186,1449617834998720872,base_footprint,-0.0,0.0,0.0,0.0,0.0,-0.0,teleoperation
1449617835079528900,187,1449617835038443006,base_footprint,-0.0,0.0,0.0,0.0,0.0,-0.0,teleoperation
1449617835118577236,188,1449617835078670906,base_footprint,-0.0,0.0,0.0,0.0,0.0,-0.0,teleoperation
1449617835158696512,189,1449617835118244996,base_footprint,-0.0,0.0,0.0,0.0,0.0,-0.0,teleoperation
1449617835199135104,190,1449617835158294392,base_footprint,-0.0,0.0,0.0,0.0,0.0,-0.0,teleoperation
1449617835239286127,191,1449617835198218566,base_footprint,-0.0,0.0,0.0,0.0,0.0,-0.0,teleoperation
1449617835280189514,192,1449617835238437643,base_footprint,-0.0,0.0,0.0,0.0,0.0,-0.0,teleoperation
1449617835319497867,193,1449617835279785627,base_footprint,-0.0,0.0,0.0,0.0,0.0,-0.0,teleoperation
1449617835359120626,194,1449617835319115841,base_footprint,-0.0,0.0,0.0,0.0,0.0,-0.0,teleoperation
1449617835398599589,195,1449617835358375138,base_footprint,-0.0,0.0,0.0,0.0,0.0,-0.0,teleoperation
1449617835441164175,196,1449617835398145759,base_footprint,-0.0,0.0,0.0,0.0,0.0,-0.0,teleoperation
1449617835482245811,197,1449617835438562183,base_footprint,-0.0,0.0,0.0,0.0,0.0,-0.0,teleoperation
1449617835518846956,198,1449617835481670029,base_footprint,-0.0,0.0,0.0,0.0,0.0,-0.0,teleoperation
1449617835561480231,199,1449617835518426545,base_footprint,-0.0,0.0,0.0,0.0,0.0,-0.0,teleoperation
1449617835599018551,200,1449617835558573663,base_footprint,-0.0,0.0,0.0,0.0,0.0,-0.0,teleoperation
1449617835640435523,201,1449617835598695914,base_footprint,-0.0,0.0,0.0,0.0,0.0,-0.0,teleoperation
1449617835679918110,202,1449617835639232744,base_footprint,-0.0,0.0,0.0,0.0,0.0,-0.0,teleoperation
1449617835720354249,203,1449617835678716324,base_footprint,-0.0,0.0,0.0,0.0,0.0,-0.0,teleoperation
1449617835758729160,204,1449617835719352569,base_footprint,-0.0,0.0,0.0,0.0,0.0,-0.0,teleoperation
1449617835798503377,205,1449617835758359008,base_footprint,-0.0,0.0,0.0,0.0,0.0,-0.0,teleoperation
1449617835843416175,206,1449617835798172620,base_footprint,-0.0,0.0,0.0,0.0,0.0,-0.0,teleoperation
1449617835879414301,207,1449617835842309792,base_footprint,-0.0,0.0,0.0,0.0,0.0,-0.0,teleoperation
1449617835921365554,208,1449617835878714008,base_footprint,-0.0,0.0,0.0,0.0,0.0,-0.0,teleoperation
1449617835958786368,209,1449617835918833277,base_footprint,-0.0,0.0,0.0,0.0,0.0,-0.0,teleoperation
1449617835998846768,210,1449617835958316825,base_footprint,-0.0,0.0,0.0,0.0,0.0,-0.0,teleoperation
1449617836039663816,211,1449617835998329003,base_footprint,-0.0,0.0,0.0,0.0,0.0,-0.0,teleoperation
1449617836079159532,212,1449617836038650287,base_footprint,-0.0,0.0,0.0,0.0,0.0,-0.0,teleoperation
1449617836120979486,213,1449617836078459924,base_footprint,-0.0,0.0,0.0,0.0,0.0,-0.0,teleoperation
1449617836159925676,214,1449617836120216503,base_footprint,-0.0,0.0,0.0,0.0,0.0,-0.0,teleoperation
1449617836198956690,215,1449617836159238453,base_footprint,-0.0,0.0,0.0,0.0,0.0,-0.0,teleoperation
1449617836239784554,216,1449617836198462292,base_footprint,-0.0,0.0,0.0,0.0,0.0,-0.0,teleoperation
1449617836281878831,217,1449617836238849987,base_footprint,-0.0,0.0,0.0,0.0,0.0,-0.0,teleoperation
1449617836318614731,218,1449617836278568173,base_footprint,-0.0,0.0,0.0,0.0,0.0,-0.0,teleoperation
1449617836361058645,219,1449617836318367083,base_footprint,-0.0,0.0,0.0,0.0,0.0,-0.0,teleoperation
1449617836399744005,220,1449617836358543815,base_footprint,0.00558730190992,0.0,0.0,0.0,0.0,0.0,teleoperation
1449617836459181067,221,1449617836398961191,base_footprint,0.00558730190992,0.0,0.0,0.0,0.0,0.0,teleoperation
1449617836482168394,222,1449617836458365739,base_footprint,0.0111746038198,0.0,0.0,0.0,0.0,0.0,teleoperation
1449617836541559041,223,1449617836491765395,base_footprint,0.0111746038198,0.0,0.0,0.0,0.0,0.0,teleoperation
1449617836568617101,224,1449617836537599198,base_footprint,0.0111746038198,0.0,0.0,0.0,0.0,0.0,teleoperation
1449617836630125494,225,1449617836568129514,base_footprint,0.346412698746,0.0,0.0,0.0,0.0,-0.00634920671582,teleoperation
1449617836658720123,226,1449617836626304683,base_footprint,0.346412698746,0.0,0.0,0.0,0.0,-0.00634920671582,teleoperation
1449617836688911947,227,1449617836659702825,base_footprint,0.352,0.0,0.0,0.0,0.0,-0.00634920671582,teleoperation
1449617836723467207,228,1449617836693026309,base_footprint,0.352,0.0,0.0,0.0,0.0,-0.00634920671582,teleoperation
1449617836769096696,229,1449617836726365877,base_footprint,0.352,0.0,0.0,0.0,0.0,-0.00634920671582,teleoperation
1449617836806863017,230,1449617836768869654,base_footprint,0.346412698746,0.0,0.0,0.0,0.0,-0.00634920671582,teleoperation
1449617836857405239,231,1449617836805956035,base_footprint,0.346412698746,0.0,0.0,0.0,0.0,-0.00634920671582,teleoperation
1449617836889978382,232,1449617836856880704,base_footprint,0.184380962372,0.0,0.0,0.0,0.0,0.0,teleoperation
1449617836925000627,233,1449617836889520869,base_footprint,0.184380962372,0.0,0.0,0.0,0.0,0.0,teleoperation
1449617837020487518,234,1449617836924722839,base_footprint,0.184380962372,0.0,0.0,0.0,0.0,0.0,teleoperation
1449617837033123428,235,1449617837019793225,base_footprint,0.167619048119,0.0,0.0,0.0,0.0,0.0,teleoperation
1449617837125765750,236,1449617837053211512,base_footprint,0.167619048119,0.0,0.0,0.0,0.0,0.0,teleoperation
1449617837133161105,237,1449617837125090764,base_footprint,0.184380962372,0.0,0.0,0.0,0.0,0.0,teleoperation
1449617837172442238,238,1449617837158495310,base_footprint,0.184380962372,0.0,0.0,0.0,0.0,0.0,teleoperation
1449617837205044581,239,1449617837191829188,base_footprint,0.189968263626,0.0,0.0,0.0,0.0,0.0,teleoperation
1449617837260040386,240,1449617837225169615,base_footprint,0.189968263626,0.0,0.0,0.0,0.0,0.0,teleoperation
1449617837288991070,241,1449617837259452329,base_footprint,0.167619048119,0.0,0.0,0.0,0.0,0.0,teleoperation
1449617837325438240,242,1449617837291816884,base_footprint,0.167619048119,0.0,0.0,0.0,0.0,0.0,teleoperation
1449617837410394403,243,1449617837325149409,base_footprint,0.167619048119,0.0,0.0,0.0,0.0,0.0,teleoperation
1449617837433795470,244,1449617837407178477,base_footprint,0.189968263626,0.0,0.0,0.0,0.0,0.0,teleoperation
1449617837446047461,245,1449617837440569881,base_footprint,0.189968263626,0.0,0.0,0.0,0.0,0.0,teleoperation
1449617837543629423,246,1449617837473908718,base_footprint,0.189968263626,0.0,0.0,0.0,0.0,0.0,teleoperation
1449617837552698211,247,1449617837543450916,base_footprint,0.189968263626,0.0,0.0,0.0,0.0,0.0,teleoperation
1449617837658170496,248,1449617837576858062,base_footprint,0.189968263626,0.0,0.0,0.0,0.0,0.0,teleoperation
1449617837669101656,249,1449617837657997610,base_footprint,0.189968263626,0.0,0.0,0.0,0.0,0.0,teleoperation
1449617837750797126,250,1449617837691524871,base_footprint,0.189968263626,0.0,0.0,0.0,0.0,0.0,teleoperation
1449617837769208940,251,1449617837750639019,base_footprint,0.189968263626,0.0,0.0,0.0,0.0,0.0,teleoperation
1449617837806747544,252,1449617837768870386,base_footprint,0.189968263626,0.0,0.0,0.0,0.0,0.0,teleoperation
1449617837842614481,253,1449617837805836146,base_footprint,0.189968263626,0.0,0.0,0.0,0.0,0.0,teleoperation
1449617837921432466,254,1449617837842370338,base_footprint,0.189968263626,0.0,0.0,0.0,0.0,0.0,teleoperation
1449617837936620855,255,1449617837921112576,base_footprint,0.173206349373,0.0,0.0,0.0,0.0,0.0,teleoperation
1449617837971173335,256,1449617837954516144,base_footprint,0.173206349373,0.0,0.0,0.0,0.0,0.0,teleoperation
1449617838020169991,257,1449617837987879366,base_footprint,0.189968263626,0.0,0.0,0.0,0.0,0.0,teleoperation
1449617838069803765,258,1449617838021182441,base_footprint,0.189968263626,0.0,0.0,0.0,0.0,0.0,teleoperation
1449617838094924538,259,1449617838067676202,base_footprint,0.189968263626,0.0,0.0,0.0,0.0,0.0,teleoperation
1449617838174929005,260,1449617838092549833,base_footprint,0.189968263626,0.0,0.0,0.0,0.0,0.0,teleoperation
1449617838179529044,261,1449617838166252654,base_footprint,0.189968263626,0.0,0.0,0.0,0.0,-0.00634920671582,teleoperation
1449617838205328280,262,1449617838200388163,base_footprint,0.189968263626,0.0,0.0,0.0,0.0,-0.00634920671582,teleoperation
1449617838247331722,263,1449617838232992162,base_footprint,0.189968263626,0.0,0.0,0.0,0.0,-0.00634920671582,teleoperation
1449617838303610546,264,1449617838266307575,base_footprint,0.189968263626,0.0,0.0,0.0,0.0,-0.00634920671582,teleoperation
1449617838326369978,265,1449617838303222441,base_footprint,0.346412698746,0.0,0.0,0.0,0.0,0.0,teleoperation
1449617838368433128,266,1449617838332989796,base_footprint,0.346412698746,0.0,0.0,0.0,0.0,0.0,teleoperation
1449617838408821608,267,1449617838368053771,base_footprint,0.307301589966,0.0,0.0,0.0,0.0,-0.00634920671582,teleoperation
1449617838446948987,268,1449617838408622668,base_footprint,0.307301589966,0.0,0.0,0.0,0.0,-0.00634920671582,teleoperation
1449617838485928556,269,1449617838446754263,base_footprint,0.307301589966,0.0,0.0,0.0,0.0,-0.00634920671582,teleoperation
1449617838530693672,270,1449617838485727823,base_footprint,0.346412698746,0.0,0.0,0.0,0.0,-0.00634920671582,teleoperation
1449617838569689114,271,1449617838530168951,base_footprint,0.346412698746,0.0,0.0,0.0,0.0,-0.00634920671582,teleoperation
1449617838611497635,272,1449617838569220219,base_footprint,0.340825397491,0.0,0.0,0.0,0.0,-0.00634920671582,teleoperation
1449617838683059691,273,1449617838610762863,base_footprint,0.340825397491,0.0,0.0,0.0,0.0,-0.00634920671582,teleoperation
1449617838696694788,274,1449617838682621883,base_footprint,0.346412698746,0.0,0.0,0.0,0.0,-0.0126984134316,teleoperation
1449617838724941908,275,1449617838716027762,base_footprint,0.346412698746,0.0,0.0,0.0,0.0,-0.0126984134316,teleoperation
1449617838821054603,276,1449617838749349522,base_footprint,0.346412698746,0.0,0.0,0.0,0.0,-0.0126984134316,teleoperation
1449617838821060939,277,1449617838810188661,base_footprint,0.346412698746,0.0,0.0,0.0,0.0,-0.0190476194024,teleoperation
1449617838851276917,278,1449617838819746058,base_footprint,0.346412698746,0.0,0.0,0.0,0.0,-0.0190476194024,teleoperation
1449617838961678544,279,1449617838849827908,base_footprint,0.346412698746,0.0,0.0,0.0,0.0,-0.0190476194024,teleoperation
1449617838990605735,280,1449617838961304737,base_footprint,0.335238096237,0.0,0.0,0.0,0.0,-0.0761904776096,teleoperation
1449617839014563991,281,1449617838994697324,base_footprint,0.335238096237,0.0,0.0,0.0,0.0,-0.0761904776096,teleoperation
1449617839058578609,282,1449617839032131520,base_footprint,0.335238096237,0.0,0.0,0.0,0.0,-0.0761904776096,teleoperation
1449617839097070955,283,1449617839061375530,base_footprint,0.335238096237,0.0,0.0,0.0,0.0,-0.0761904776096,teleoperation
1449617839133450084,284,1449617839096027102,base_footprint,0.335238096237,0.0,0.0,0.0,0.0,-0.0761904776096,teleoperation
1449617839167362915,285,1449617839132669472,base_footprint,0.335238096237,0.0,0.0,0.0,0.0,-0.0761904776096,teleoperation
1449617839237426371,286,1449617839166883034,base_footprint,0.329650794983,0.0,0.0,0.0,0.0,-0.0698412716389,teleoperation
1449617839250133403,287,1449617839231959255,base_footprint,0.329650794983,0.0,0.0,0.0,0.0,-0.0698412716389,teleoperation
1449617839293324178,288,1449617839265408654,base_footprint,0.329650794983,0.0,0.0,0.0,0.0,-0.0698412716389,teleoperation
1449617839331029958,289,1449617839298693894,base_footprint,0.324063493729,0.0,0.0,0.0,0.0,-0.126984131336,teleoperation
1449617839428711411,290,1449617839332019752,base_footprint,0.324063493729,0.0,0.0,0.0,0.0,-0.126984131336,teleoperation
1449617839460678666,291,1449617839428410479,base_footprint,0.279365083694,0.0,0.0,0.0,0.0,-0.101587307453,teleoperation
1449617839471410023,292,1449617839461807685,base_footprint,0.329650794983,0.0,0.0,0.0,0.0,-0.126984131336,teleoperation
1449617839509405575,293,1449617839495144482,base_footprint,0.329650794983,0.0,0.0,0.0,0.0,-0.126984131336,teleoperation
1449617839596525290,294,1449617839528475732,base_footprint,0.329650794983,0.0,0.0,0.0,0.0,-0.126984131336,teleoperation
1449617839613950882,295,1449617839596259717,base_footprint,0.329650794983,0.0,0.0,0.0,0.0,-0.120634925365,teleoperation
1449617839650471330,296,1449617839629657138,base_footprint,0.329650794983,0.0,0.0,0.0,0.0,-0.120634925365,teleoperation
1449617839733008453,297,1449617839662993323,base_footprint,0.329650794983,0.0,0.0,0.0,0.0,-0.120634925365,teleoperation
1449617839739801115,298,1449617839732013944,base_footprint,0.329650794983,0.0,0.0,0.0,0.0,-0.126984131336,teleoperation
1449617839787452973,299,1449617839765422513,base_footprint,0.329650794983,0.0,0.0,0.0,0.0,-0.126984131336,teleoperation
1449617839836238296,300,1449617839799141932,base_footprint,0.329650794983,0.0,0.0,0.0,0.0,-0.126984131336,teleoperation
1449617839849843198,301,1449617839835705298,base_footprint,0.329650794983,0.0,0.0,0.0,0.0,-0.126984131336,teleoperation
1449617839894997520,302,1449617839865403902,base_footprint,0.329650794983,0.0,0.0,0.0,0.0,-0.126984131336,teleoperation
1449617839936408012,303,1449617839898743047,base_footprint,0.329650794983,0.0,0.0,0.0,0.0,-0.120634925365,teleoperation
1449617839973432834,304,1449617839935986410,base_footprint,0.329650794983,0.0,0.0,0.0,0.0,-0.120634925365,teleoperation
1449617840012463317,305,1449617839973132304,base_footprint,0.329650794983,0.0,0.0,0.0,0.0,-0.126984131336,teleoperation
1449617840100640569,306,1449617840012105765,base_footprint,0.329650794983,0.0,0.0,0.0,0.0,-0.126984131336,teleoperation
1449617840115361649,307,1449617840100141962,base_footprint,0.329650794983,0.0,0.0,0.0,0.0,-0.120634925365,teleoperation
1449617840203996063,308,1449617840133532974,base_footprint,0.329650794983,0.0,0.0,0.0,0.0,-0.120634925365,teleoperation
1449617840211231175,309,1449617840202983130,base_footprint,0.329650794983,0.0,0.0,0.0,0.0,-0.126984131336,teleoperation
1449617840250279240,310,1449617840236395544,base_footprint,0.329650794983,0.0,0.0,0.0,0.0,-0.126984131336,teleoperation
1449617840291696991,311,1449617840270063440,base_footprint,0.329650794983,0.0,0.0,0.0,0.0,-0.126984131336,teleoperation
1449617840345492884,312,1449617840303477517,base_footprint,0.27377778244,0.0,0.0,0.0,0.0,-0.107936513424,teleoperation
1449617840377560613,313,1449617840344256314,base_footprint,0.27377778244,0.0,0.0,0.0,0.0,-0.107936513424,teleoperation
1449617840440621784,314,1449617840377169600,base_footprint,0.329650794983,0.0,0.0,0.0,0.0,-0.126984131336,teleoperation
1449617840450277832,315,1449617840440140815,base_footprint,0.329650794983,0.0,0.0,0.0,0.0,-0.126984131336,teleoperation
1449617840489560987,316,1449617840473533516,base_footprint,0.329650794983,0.0,0.0,0.0,0.0,-0.126984131336,teleoperation
1449617840582610956,317,1449617840506867640,base_footprint,0.329650794983,0.0,0.0,0.0,0.0,-0.126984131336,teleoperation
1449617840595717538,318,1449617840582471450,base_footprint,0.329650794983,0.0,0.0,0.0,0.0,-0.120634925365,teleoperation
1449617840678382649,319,1449617840615873423,base_footprint,0.329650794983,0.0,0.0,0.0,0.0,-0.120634925365,teleoperation
1449617840724709574,320,1449617840677795142,base_footprint,0.329650794983,0.0,0.0,0.0,0.0,-0.126984131336,teleoperation
1449617840734467933,321,1449617840724148651,base_footprint,0.329650794983,0.0,0.0,0.0,0.0,-0.126984131336,teleoperation
1449617840770722108,322,1449617840757543120,base_footprint,0.329650794983,0.0,0.0,0.0,0.0,-0.126984131336,teleoperation
1449617840813339147,323,1449617840790884894,base_footprint,0.329650794983,0.0,0.0,0.0,0.0,-0.126984131336,teleoperation
1449617840873550377,324,1449617840824297269,base_footprint,0.329650794983,0.0,0.0,0.0,0.0,-0.126984131336,teleoperation
1449617840893019354,325,1449617840872584843,base_footprint,0.329650794983,0.0,0.0,0.0,0.0,-0.120634925365,teleoperation
1449617840957236117,326,1449617840892119761,base_footprint,0.329650794983,0.0,0.0,0.0,0.0,-0.120634925365,teleoperation
1449617840972692473,327,1449617840956817521,base_footprint,0.329650794983,0.0,0.0,0.0,0.0,-0.126984131336,teleoperation
1449617841010571495,328,1449617840971116258,base_footprint,0.329650794983,0.0,0.0,0.0,0.0,-0.126984131336,teleoperation
1449617841075691647,329,1449617841010059326,base_footprint,0.329650794983,0.0,0.0,0.0,0.0,-0.126984131336,teleoperation
1449617841091123186,330,1449617841075044821,base_footprint,0.335238096237,0.0,0.0,0.0,0.0,-0.0761904776096,teleoperation
1449617841129116735,331,1449617841108440170,base_footprint,0.335238096237,0.0,0.0,0.0,0.0,-0.0761904776096,teleoperation
1449617841189432866,332,1449617841141787264,base_footprint,0.335238096237,0.0,0.0,0.0,0.0,-0.0761904776096,teleoperation
1449617841209603140,333,1449617841188897158,base_footprint,0.284952384949,0.0,0.0,0.0,0.0,-0.0634920656681,teleoperation
1449617841248164258,334,1449617841209472830,base_footprint,0.284952384949,0.0,0.0,0.0,0.0,-0.0634920656681,teleoperation
1449617841302775635,335,1449617841247900963,base_footprint,0.284952384949,0.0,0.0,0.0,0.0,-0.0634920656681,teleoperation
1449617841333965663,336,1449617841302431528,base_footprint,0.335238096237,0.0,0.0,0.0,0.0,-0.126984131336,teleoperation
1449617841382098974,337,1449617841332949491,base_footprint,0.335238096237,0.0,0.0,0.0,0.0,-0.126984131336,teleoperation
1449617841410851508,338,1449617841380289533,base_footprint,0.335238096237,0.0,0.0,0.0,0.0,-0.0761904776096,teleoperation
1449617841467630869,339,1449617841413686367,base_footprint,0.335238096237,0.0,0.0,0.0,0.0,-0.0761904776096,teleoperation
1449617841501745979,340,1449617841466965305,base_footprint,0.335238096237,0.0,0.0,0.0,0.0,-0.0825396835804,teleoperation
1449617841532209337,341,1449617841501449887,base_footprint,0.335238096237,0.0,0.0,0.0,0.0,-0.0825396835804,teleoperation
1449617841581145274,342,1449617841530906835,base_footprint,0.335238096237,0.0,0.0,0.0,0.0,-0.0825396835804,teleoperation
1449617841626200221,343,1449617841580163718,base_footprint,0.335238096237,0.0,0.0,0.0,0.0,-0.0761904776096,teleoperation
1449617841652325147,344,1449617841625376749,base_footprint,0.335238096237,0.0,0.0,0.0,0.0,-0.0761904776096,teleoperation
1449617841689875953,345,1449617841658775552,base_footprint,0.335238096237,0.0,0.0,0.0,0.0,-0.0761904776096,teleoperation
1449617841764066059,346,1449617841692115437,base_footprint,0.335238096237,0.0,0.0,0.0,0.0,-0.0761904776096,teleoperation
1449617841777431885,347,1449617841762445284,base_footprint,0.340825397491,0.0,0.0,0.0,0.0,-0.0761904776096,teleoperation
1449617841862067073,348,1449617841795852791,base_footprint,0.340825397491,0.0,0.0,0.0,0.0,-0.0761904776096,teleoperation
1449617841884454735,349,1449617841861730500,base_footprint,0.335238096237,0.0,0.0,0.0,0.0,-0.0761904776096,teleoperation
1449617841896657630,350,1449617841883949934,base_footprint,0.335238096237,0.0,0.0,0.0,0.0,-0.0761904776096,teleoperation
1449617841991830939,351,1449617841896358662,base_footprint,0.335238096237,0.0,0.0,0.0,0.0,-0.0761904776096,teleoperation
1449617842009081355,352,1449617841991461779,base_footprint,0.335238096237,0.0,0.0,0.0,0.0,-0.0761904776096,teleoperation
1449617842084379624,353,1449617842025121258,base_footprint,0.335238096237,0.0,0.0,0.0,0.0,-0.0761904776096,teleoperation
1449617842104421862,354,1449617842082778755,base_footprint,0.335238096237,0.0,0.0,0.0,0.0,-0.0761904776096,teleoperation
1449617842145204376,355,1449617842102395793,base_footprint,0.335238096237,0.0,0.0,0.0,0.0,-0.0761904776096,teleoperation
1449617842184759803,356,1449617842144712853,base_footprint,0.335238096237,0.0,0.0,0.0,0.0,-0.0761904776096,teleoperation
1449617842218370874,357,1449617842184058163,base_footprint,0.340825397491,0.0,0.0,0.0,0.0,-0.0761904776096,teleoperation
1449617842282725980,358,1449617842217880038,base_footprint,0.340825397491,0.0,0.0,0.0,0.0,-0.0761904776096,teleoperation
1449617842303684223,359,1449617842281231821,base_footprint,0.346412698746,0.0,0.0,0.0,0.0,-0.0126984134316,teleoperation
1449617842336476926,360,1449617842314654603,base_footprint,0.346412698746,0.0,0.0,0.0,0.0,-0.0126984134316,teleoperation
1449617842410967535,361,1449617842347969375,base_footprint,0.346412698746,0.0,0.0,0.0,0.0,-0.0126984134316,teleoperation
1449617842438416138,362,1449617842410689281,base_footprint,0.189968263626,0.0,0.0,0.0,0.0,-0.00634920671582,teleoperation
1449617842451565775,363,1449617842437680060,base_footprint,0.189968263626,0.0,0.0,0.0,0.0,-0.00634920671582,teleoperation
1449617842537843670,364,1449617842451093677,base_footprint,0.189968263626,0.0,0.0,0.0,0.0,-0.00634920671582,teleoperation
1449617842547739071,365,1449617842534913297,base_footprint,0.346412698746,0.0,0.0,0.0,0.0,0.0,teleoperation
1449617842572383215,366,1449617842568305658,base_footprint,0.346412698746,0.0,0.0,0.0,0.0,0.0,teleoperation
1449617842632399588,367,1449617842601606806,base_footprint,0.352,0.0,0.0,0.0,0.0,0.0,teleoperation
1449617842655511374,368,1449617842634974598,base_footprint,0.352,0.0,0.0,0.0,0.0,0.0,teleoperation
1449617842745660424,369,1449617842668310138,base_footprint,0.346412698746,0.0,0.0,0.0,0.0,0.0,teleoperation
1449617842762261170,370,1449617842744012747,base_footprint,0.346412698746,0.0,0.0,0.0,0.0,0.0,teleoperation
1449617842784420652,371,1449617842777411531,base_footprint,0.352,0.0,0.0,0.0,0.0,0.0,teleoperation
1449617842836304546,372,1449617842812192542,base_footprint,0.352,0.0,0.0,0.0,0.0,0.0,teleoperation
1449617842858997538,373,1449617842845551315,base_footprint,0.352,0.0,0.0,0.0,0.0,0.0,teleoperation
1449617842891433732,374,1449617842877412400,base_footprint,0.352,0.0,0.0,0.0,0.0,0.0,teleoperation
1449617842942800073,375,1449617842910745543,base_footprint,0.352,0.0,0.0,0.0,0.0,0.0,teleoperation
1449617842977629103,376,1449617842944078843,base_footprint,0.352,0.0,0.0,0.0,0.0,0.0,teleoperation
1449617843072978579,377,1449617842978019876,base_footprint,0.318476192474,0.0,0.0,0.0,0.0,0.0,teleoperation
1449617843090848298,378,1449617843071276867,base_footprint,0.340825397491,0.0,0.0,0.0,0.0,0.0,teleoperation
1449617843142325631,379,1449617843104666793,base_footprint,0.340825397491,0.0,0.0,0.0,0.0,0.0,teleoperation
1449617843190330507,380,1449617843141447974,base_footprint,0.340825397491,0.0,0.0,0.0,0.0,0.0,teleoperation
1449617843214762960,381,1449617843189365793,base_footprint,0.189968263626,0.0,0.0,0.0,0.0,0.0,teleoperation
1449617843251881749,382,1449617843214178394,base_footprint,0.189968263626,0.0,0.0,0.0,0.0,0.0,teleoperation
1449617843297230308,383,1449617843251377810,base_footprint,0.189968263626,0.0,0.0,0.0,0.0,0.0,teleoperation
1449617843331606171,384,1449617843297021419,base_footprint,0.184380962372,0.0,0.0,0.0,0.0,0.0,teleoperation
1449617843372770347,385,1449617843331192692,base_footprint,0.184380962372,0.0,0.0,0.0,0.0,0.0,teleoperation
1449617843420979467,386,1449617843372615765,base_footprint,0.189968263626,0.0,0.0,0.0,0.0,0.0,teleoperation
1449617843462671893,387,1449617843420652802,base_footprint,0.189968263626,0.0,0.0,0.0,0.0,0.0,teleoperation
1449617843526149293,388,1449617843462142282,base_footprint,0.212317468643,0.0,0.0,0.0,0.0,0.0,teleoperation
1449617843536642039,389,1449617843522277949,base_footprint,0.212317468643,0.0,0.0,0.0,0.0,0.0,teleoperation
1449617843569217251,390,1449617843555867274,base_footprint,0.212317468643,0.0,0.0,0.0,0.0,0.0,teleoperation
1449617843624935466,391,1449617843590540266,base_footprint,0.189968263626,0.0,0.0,0.0,0.0,0.0,teleoperation
1449617843660045026,392,1449617843624234610,base_footprint,0.189968263626,0.0,0.0,0.0,0.0,0.0,teleoperation
1449617843706185765,393,1449617843659516838,base_footprint,0.189968263626,0.0,0.0,0.0,0.0,0.0,teleoperation
1449617843744305743,394,1449617843705254261,base_footprint,0.189968263626,0.0,0.0,0.0,0.0,0.0,teleoperation
1449617843799069472,395,1449617843743242856,base_footprint,0.189968263626,0.0,0.0,0.0,0.0,0.0,teleoperation
1449617843819141001,396,1449617843798772755,base_footprint,0.173206349373,0.0,0.0,0.0,0.0,0.0,teleoperation
1449617843873166807,397,1449617843832170389,base_footprint,0.173206349373,0.0,0.0,0.0,0.0,0.0,teleoperation
1449617843895461981,398,1449617843872984937,base_footprint,0.346412698746,0.0,0.0,0.0,0.0,0.0,teleoperation
1449617843933887361,399,1449617843899026767,base_footprint,0.346412698746,0.0,0.0,0.0,0.0,0.0,teleoperation
1449617844017563785,400,1449617843933741931,base_footprint,0.346412698746,0.0,0.0,0.0,0.0,0.0,teleoperation
1449617844059441212,401,1449617844017056876,base_footprint,0.346412698746,0.0,0.0,0.0,0.0,0.0,teleoperation
1449617844075616060,402,1449617844059018620,base_footprint,0.346412698746,0.0,0.0,0.0,0.0,0.0,teleoperation
1449617844151286681,403,1449617844084074790,base_footprint,0.346412698746,0.0,0.0,0.0,0.0,0.0,teleoperation
1449617844174104425,404,1449617844149780384,base_footprint,0.346412698746,0.0,0.0,0.0,0.0,0.0,teleoperation
1449617844200808679,405,1449617844173952280,base_footprint,0.189968263626,0.0,0.0,0.0,0.0,0.0,teleoperation
1449617844243042038,406,1449617844200513646,base_footprint,0.189968263626,0.0,0.0,0.0,0.0,0.0,teleoperation
1449617844255760281,407,1449617844242422253,base_footprint,0.189968263626,0.0,0.0,0.0,0.0,0.0,teleoperation
1449617844295839798,408,1449617844255637950,base_footprint,0.189968263626,0.0,0.0,0.0,0.0,0.0,teleoperation
1449617844373014793,409,1449617844292339293,base_footprint,0.189968263626,0.0,0.0,0.0,0.0,0.0,teleoperation
1449617844390062216,410,1449617844372517305,base_footprint,0.189968263626,0.0,0.0,0.0,0.0,0.0,teleoperation
1449617844439186926,411,1449617844405918752,base_footprint,0.189968263626,0.0,0.0,0.0,0.0,0.0,teleoperation
1449617844454783016,412,1449617844439246534,base_footprint,0.189968263626,0.0,0.0,0.0,0.0,0.0,teleoperation
1449617844496276817,413,1449617844473633608,base_footprint,0.189968263626,0.0,0.0,0.0,0.0,0.0,teleoperation
1449617844559046873,414,1449617844505968997,base_footprint,0.189968263626,0.0,0.0,0.0,0.0,0.0,teleoperation
1449617844572960703,415,1449617844558695468,base_footprint,0.189968263626,0.0,0.0,0.0,0.0,0.0,teleoperation
1449617844612235750,416,1449617844572845912,base_footprint,0.189968263626,0.0,0.0,0.0,0.0,0.0,teleoperation
1449617844653866012,417,1449617844610465167,base_footprint,0.189968263626,0.0,0.0,0.0,0.0,0.0,teleoperation
1449617844706028404,418,1449617844651229660,base_footprint,0.189968263626,0.0,0.0,0.0,0.0,0.0,teleoperation
1449617844733199329,419,1449617844705691321,base_footprint,0.189968263626,0.0,0.0,0.0,0.0,0.0,teleoperation
1449617844791034605,420,1449617844732912768,base_footprint,0.189968263626,0.0,0.0,0.0,0.0,0.0,teleoperation
1449617844811578506,421,1449617844790501325,base_footprint,0.184380962372,0.0,0.0,0.0,0.0,0.0,teleoperation
1449617844890466187,422,1449617844823894278,base_footprint,0.184380962372,0.0,0.0,0.0,0.0,0.0,teleoperation
1449617844913276733,423,1449617844890118491,base_footprint,0.189968263626,0.0,0.0,0.0,0.0,0.0,teleoperation
1449617844986820126,424,1449617844912278021,base_footprint,0.189968263626,0.0,0.0,0.0,0.0,0.0,teleoperation
1449617844997611971,425,1449617844985588169,base_footprint,0.189968263626,0.0,0.0,0.0,0.0,0.0,teleoperation
1449617845052402896,426,1449617845018986186,base_footprint,0.189968263626,0.0,0.0,0.0,0.0,0.0,teleoperation
1449617845134237723,427,1449617845052278396,base_footprint,0.189968263626,0.0,0.0,0.0,0.0,0.0,teleoperation
1449617845150799716,428,1449617845134025865,base_footprint,0.184380962372,0.0,0.0,0.0,0.0,0.0,teleoperation
1449617845219009792,429,1449617845167441747,base_footprint,0.184380962372,0.0,0.0,0.0,0.0,0.0,teleoperation
1449617845250361690,430,1449617845218368400,base_footprint,0.189968263626,0.0,0.0,0.0,0.0,0.0,teleoperation
1449617845285136733,431,1449617845247576262,base_footprint,0.189968263626,0.0,0.0,0.0,0.0,0.0,teleoperation
1449617845361483979,432,1449617845279748531,base_footprint,0.189968263626,0.0,0.0,0.0,0.0,0.0,teleoperation
1449617845377960615,433,1449617845361330893,base_footprint,0.184380962372,0.0,0.0,0.0,0.0,0.0,teleoperation
1449617845433364583,434,1449617845395790697,base_footprint,0.184380962372,0.0,0.0,0.0,0.0,0.0,teleoperation
1449617845503950110,435,1449617845433000679,base_footprint,0.184380962372,0.0,0.0,0.0,0.0,0.0,teleoperation
1449617845548802140,436,1449617845502999393,base_footprint,0.189968263626,0.0,0.0,0.0,0.0,0.0,teleoperation
1449617845576977676,437,1449617845547020423,base_footprint,0.189968263626,0.0,0.0,0.0,0.0,0.0,teleoperation
1449617845598070356,438,1449617845576708210,base_footprint,0.352,0.0,0.0,0.0,0.0,0.0,teleoperation
1449617845693627134,439,1449617845603065932,base_footprint,0.352,0.0,0.0,0.0,0.0,0.0,teleoperation
1449617845774559889,440,1449617845691287770,base_footprint,0.189968263626,0.0,0.0,0.0,0.0,0.0,teleoperation
1449617845798292327,441,1449617845774296465,base_footprint,0.184380962372,0.0,0.0,0.0,0.0,0.0,teleoperation
1449617845863331270,442,1449617845807970157,base_footprint,0.184380962372,0.0,0.0,0.0,0.0,0.0,teleoperation
1449617845930130079,443,1449617845862959633,base_footprint,0.184380962372,0.0,0.0,0.0,0.0,0.0,teleoperation
1449617845975233789,444,1449617845927945861,base_footprint,0.184380962372,0.0,0.0,0.0,0.0,0.0,teleoperation
1449617846017670691,445,1449617845974415702,base_footprint,0.173206349373,0.0,0.0,0.0,0.0,0.0,teleoperation
1449617846061738585,446,1449617846015624418,base_footprint,0.173206349373,0.0,0.0,0.0,0.0,0.0,teleoperation
1449617846090819815,447,1449617846061320050,base_footprint,0.184380962372,0.0,0.0,0.0,0.0,0.0,teleoperation
1449617846131419299,448,1449617846094725407,base_footprint,0.184380962372,0.0,0.0,0.0,0.0,0.0,teleoperation
1449617846198421339,449,1449617846130939502,base_footprint,0.184380962372,0.0,0.0,0.0,0.0,0.0,teleoperation
1449617846221664072,450,1449617846197919266,base_footprint,0.189968263626,0.0,0.0,0.0,0.0,0.0,teleoperation
1449617846253567411,451,1449617846231433521,base_footprint,0.189968263626,0.0,0.0,0.0,0.0,0.0,teleoperation
1449617846308921060,452,1449617846264646400,base_footprint,0.189968263626,0.0,0.0,0.0,0.0,0.0,teleoperation
1449617846345601712,453,1449617846306601770,base_footprint,0.173206349373,0.0,0.0,0.0,0.0,0.0,teleoperation
1449617846414202282,454,1449617846344982696,base_footprint,0.173206349373,0.0,0.0,0.0,0.0,0.0,teleoperation
1449617846444507172,455,1449617846414049776,base_footprint,0.184380962372,0.0,0.0,0.0,0.0,0.0,teleoperation
1449617846468599875,456,1449617846448480483,base_footprint,0.184380962372,0.0,0.0,0.0,0.0,0.0,teleoperation
1449617846513425805,457,1449617846480776755,base_footprint,0.189968263626,0.0,0.0,0.0,0.0,0.0,teleoperation
1449617846605572472,458,1449617846514107907,base_footprint,0.189968263626,0.0,0.0,0.0,0.0,0.0,teleoperation
1449617846657585075,459,1449617846604995015,base_footprint,0.173206349373,0.0,0.0,0.0,0.0,0.0,teleoperation
1449617846700090343,460,1449617846656358506,base_footprint,0.184380962372,0.0,0.0,0.0,0.0,0.0,teleoperation
1449617846759885858,461,1449617846698983291,base_footprint,0.184380962372,0.0,0.0,0.0,0.0,0.0,teleoperation
1449617846770513499,462,1449617846759758147,base_footprint,0.189968263626,0.0,0.0,0.0,0.0,0.0,teleoperation
1449617846800981628,463,1449617846793157746,base_footprint,0.189968263626,0.0,0.0,0.0,0.0,0.0,teleoperation
1449617846847985141,464,1449617846829056753,base_footprint,0.189968263626,0.0,0.0,0.0,0.0,0.0,teleoperation
1449617846875967604,465,1449617846859820108,base_footprint,0.189968263626,0.0,0.0,0.0,0.0,0.0,teleoperation
1449617846913889216,466,1449617846893155012,base_footprint,0.184380962372,0.0,0.0,0.0,0.0,0.0,teleoperation
1449617846954619104,467,1449617846926490906,base_footprint,0.184380962372,0.0,0.0,0.0,0.0,0.0,teleoperation
1449617847021469165,468,1449617846959816636,base_footprint,0.184380962372,0.0,0.0,0.0,0.0,0.0,teleoperation
1449617847045266327,469,1449617847020237872,base_footprint,0.184380962372,0.0,0.0,0.0,0.0,0.0,teleoperation
1449617847133133444,470,1449617847045001425,base_footprint,0.184380962372,0.0,0.0,0.0,0.0,0.0,teleoperation
1449617847156180867,471,1449617847132376117,base_footprint,0.189968263626,0.0,0.0,0.0,0.0,0.0,teleoperation
1449617847240311443,472,1449617847165834350,base_footprint,0.173206349373,0.0,0.0,0.0,0.0,0.0,teleoperation
1449617847256938004,473,1449617847239435691,base_footprint,0.173206349373,0.0,0.0,0.0,0.0,0.0,teleoperation
1449617847294274281,474,1449617847272839116,base_footprint,0.189968263626,0.0,0.0,0.0,0.0,0.0,teleoperation
1449617847351812076,475,1449617847306173368,base_footprint,0.189968263626,0.0,0.0,0.0,0.0,0.0,teleoperation
1449617847402767956,476,1449617847351157556,base_footprint,0.189968263626,0.0,0.0,0.0,0.0,0.0,teleoperation
1449617847423115900,477,1449617847402170792,base_footprint,0.189968263626,0.0,0.0,0.0,0.0,0.0,teleoperation
1449617847478989541,478,1449617847422282737,base_footprint,0.189968263626,0.0,0.0,0.0,0.0,0.0,teleoperation
1449617847501052097,479,1449617847478522807,base_footprint,0.346412698746,0.0,0.0,0.0,0.0,0.0,teleoperation
1449617847556688793,480,1449617847511960878,base_footprint,0.346412698746,0.0,0.0,0.0,0.0,0.0,teleoperation
1449617847593550775,481,1449617847556171313,base_footprint,0.184380962372,0.0,0.0,0.0,0.0,0.0,teleoperation
1449617847654428689,482,1449617847593207599,base_footprint,0.184380962372,0.0,0.0,0.0,0.0,0.0,teleoperation
1449617847677290991,483,1449617847653049219,base_footprint,0.184380962372,0.0,0.0,0.0,0.0,0.0,teleoperation
1449617847696230869,484,1449617847686455713,base_footprint,0.184380962372,0.0,0.0,0.0,0.0,0.0,teleoperation
1449617847798638292,485,1449617847721610914,base_footprint,0.184380962372,0.0,0.0,0.0,0.0,0.0,teleoperation
1449617847817375503,486,1449617847798141838,base_footprint,0.189968263626,0.0,0.0,0.0,0.0,0.0,teleoperation
1449617847884060530,487,1449617847831543937,base_footprint,0.189968263626,0.0,0.0,0.0,0.0,0.0,teleoperation
1449617847907134290,488,1449617847883352149,base_footprint,0.189968263626,0.0,0.0,0.0,0.0,0.0,teleoperation
1449617847940988858,489,1449617847906765675,base_footprint,0.189968263626,0.0,0.0,0.0,0.0,0.0,teleoperation
1449617848007607664,490,1449617847940757925,base_footprint,0.189968263626,0.0,0.0,0.0,0.0,0.0,teleoperation
1449617848030278718,491,1449617848007354928,base_footprint,0.189968263626,0.0,0.0,0.0,0.0,0.0,teleoperation
1449617848084056868,492,1449617848040992329,base_footprint,0.189968263626,0.0,0.0,0.0,0.0,0.0,teleoperation
1449617848151244716,493,1449617848083640923,base_footprint,0.346412698746,0.0,0.0,0.0,0.0,0.0,teleoperation
1449617848212388564,494,1449617848150802022,base_footprint,0.346412698746,0.0,0.0,0.0,0.0,0.0,teleoperation
1449617848245216216,495,1449617848212019431,base_footprint,0.189968263626,0.0,0.0,0.0,0.0,0.0,teleoperation
1449617848313321774,496,1449617848244154577,base_footprint,0.189968263626,0.0,0.0,0.0,0.0,0.0,teleoperation
1449617848335042286,497,1449617848313192822,base_footprint,0.189968263626,0.0,0.0,0.0,0.0,0.0,teleoperation
1449617848377657490,498,1449617848346596598,base_footprint,0.189968263626,0.0,0.0,0.0,0.0,0.0,teleoperation
1449617848393268895,499,1449617848379926006,base_footprint,0.189968263626,0.0,0.0,0.0,0.0,0.0,teleoperation
1449617848447701597,500,1449617848413368957,base_footprint,0.189968263626,0.0,0.0,0.0,0.0,0.0,teleoperation
1449617848517866109,501,1449617848446892302,base_footprint,0.189968263626,0.0,0.0,0.0,0.0,0.0,teleoperation
1449617848594535276,502,1449617848516687612,base_footprint,0.189968263626,0.0,0.0,0.0,0.0,0.0,teleoperation
1449617848629310546,503,1449617848594206634,base_footprint,0.346412698746,0.0,0.0,0.0,0.0,0.0,teleoperation
1449617848661851791,504,1449617848628391701,base_footprint,0.346412698746,0.0,0.0,0.0,0.0,0.0,teleoperation
1449617848695365051,505,1449617848661551561,base_footprint,0.346412698746,0.0,0.0,0.0,0.0,0.0,teleoperation
1449617848784499919,506,1449617848694330125,base_footprint,0.346412698746,0.0,0.0,0.0,0.0,0.0,teleoperation
1449617848818200569,507,1449617848783369876,base_footprint,0.31288889122,0.0,0.0,0.0,0.0,0.0,teleoperation
1449617848847569198,508,1449617848817836559,base_footprint,0.31288889122,0.0,0.0,0.0,0.0,0.0,teleoperation
1449617848899674707,509,1449617848850098037,base_footprint,0.31288889122,0.0,0.0,0.0,0.0,0.0,teleoperation
1449617848937962703,510,1449617848899293415,base_footprint,0.352,0.0,0.0,0.0,0.0,0.0,teleoperation
1449617848952142121,511,1449617848934005183,base_footprint,0.352,0.0,0.0,0.0,0.0,0.0,teleoperation
1449617848978325920,512,1449617848951868531,base_footprint,0.352,0.0,0.0,0.0,0.0,0.0,teleoperation
1449617849052790835,513,1449617848983474082,base_footprint,0.189968263626,0.0,0.0,0.0,0.0,0.0,teleoperation
1449617849085339843,514,1449617849051856287,base_footprint,0.189968263626,0.0,0.0,0.0,0.0,0.0,teleoperation
1449617849168856407,515,1449617849085443911,base_footprint,0.346412698746,0.0,0.0,0.0,0.0,0.0,teleoperation
1449617849205989346,516,1449617849167137996,base_footprint,0.346412698746,0.0,0.0,0.0,0.0,0.00634920671582,teleoperation
1449617849245438372,517,1449617849205409763,base_footprint,0.346412698746,0.0,0.0,0.0,0.0,0.00634920671582,teleoperation
1449617849273211639,518,1449617849245296256,base_footprint,0.346412698746,0.0,0.0,0.0,0.0,0.00634920671582,teleoperation
1449617849335141672,519,1449617849272548784,base_footprint,0.346412698746,0.0,0.0,0.0,0.0,0.00634920671582,teleoperation
1449617849415567349,520,1449617849334124668,base_footprint,0.346412698746,0.0,0.0,0.0,0.0,0.00634920671582,teleoperation
1449617849449444704,521,1449617849415335150,base_footprint,0.346412698746,0.0,0.0,0.0,0.0,0.0190476194024,teleoperation
1449617849473127995,522,1449617849449192966,base_footprint,0.346412698746,0.0,0.0,0.0,0.0,0.0190476194024,teleoperation
1449617849545673857,523,1449617849482062799,base_footprint,0.318476192474,0.0,0.0,0.0,0.0,0.184126985073,teleoperation
1449617849575030117,524,1449617849545230793,base_footprint,0.318476192474,0.0,0.0,0.0,0.0,0.184126985073,teleoperation
1449617849635983270,525,1449617849574734167,base_footprint,0.301714288712,0.0,0.0,0.0,0.0,0.336507940292,teleoperation
1449617849676795438,526,1449617849635677088,base_footprint,0.301714288712,0.0,0.0,0.0,0.0,0.336507940292,teleoperation
1449617849695641963,527,1449617849676448106,base_footprint,0.296126987457,0.0,0.0,0.0,0.0,0.336507940292,teleoperation
1449617849734239421,528,1449617849702405473,base_footprint,0.296126987457,0.0,0.0,0.0,0.0,0.336507940292,teleoperation
1449617849760413200,529,1449617849735742227,base_footprint,0.296126987457,0.0,0.0,0.0,0.0,0.336507940292,teleoperation
1449617849801182860,530,1449617849769075167,base_footprint,0.301714288712,0.0,0.0,0.0,0.0,0.336507940292,teleoperation
1449617849861184174,531,1449617849802442086,base_footprint,0.301714288712,0.0,0.0,0.0,0.0,0.336507940292,teleoperation
1449617849875775741,532,1449617849860994220,base_footprint,0.296126987457,0.0,0.0,0.0,0.0,0.342857146263,teleoperation
1449617849918884057,533,1449617849873903809,base_footprint,0.296126987457,0.0,0.0,0.0,0.0,0.342857146263,teleoperation
1449617850017858110,534,1449617849918602719,base_footprint,0.296126987457,0.0,0.0,0.0,0.0,0.342857146263,teleoperation
1449617850076608611,535,1449617850017268682,base_footprint,0.301714288712,0.0,0.0,0.0,0.0,0.336507940292,teleoperation
1449617850093347973,536,1449617850075918173,base_footprint,0.296126987457,0.0,0.0,0.0,0.0,0.342857146263,teleoperation
1449617850120138855,537,1449617850092609576,base_footprint,0.296126987457,0.0,0.0,0.0,0.0,0.342857146263,teleoperation
1449617850194859763,538,1449617850119707255,base_footprint,0.296126987457,0.0,0.0,0.0,0.0,0.342857146263,teleoperation
1449617850234590806,539,1449617850194071782,base_footprint,0.262603179932,0.0,0.0,0.0,0.0,0.292063498497,teleoperation
1449617850295657827,540,1449617850234134051,base_footprint,0.262603179932,0.0,0.0,0.0,0.0,0.292063498497,teleoperation
1449617850321254595,541,1449617850294873203,base_footprint,0.296126987457,0.0,0.0,0.0,0.0,0.342857146263,teleoperation
1449617850339015715,542,1449617850328264477,base_footprint,0.296126987457,0.0,0.0,0.0,0.0,0.342857146263,teleoperation
1449617850384716660,543,1449617850361601842,base_footprint,0.296126987457,0.0,0.0,0.0,0.0,0.342857146263,teleoperation
1449617850406296511,544,1449617850395007206,base_footprint,0.301714288712,0.0,0.0,0.0,0.0,0.336507940292,teleoperation
1449617850436757246,545,1449617850428369533,base_footprint,0.301714288712,0.0,0.0,0.0,0.0,0.336507940292,teleoperation
1449617850491321899,546,1449617850461603752,base_footprint,0.301714288712,0.0,0.0,0.0,0.0,0.336507940292,teleoperation
1449617850519977659,547,1449617850494944567,base_footprint,0.268190481186,0.0,0.0,0.0,0.0,0.304761910439,teleoperation
1449617850556641155,548,1449617850528407555,base_footprint,0.268190481186,0.0,0.0,0.0,0.0,0.304761910439,teleoperation
1449617850658986536,549,1449617850561598575,base_footprint,0.296126987457,0.0,0.0,0.0,0.0,0.336507940292,teleoperation
1449617850684159834,550,1449617850658366581,base_footprint,0.296126987457,0.0,0.0,0.0,0.0,0.342857146263,teleoperation
1449617850789664504,551,1449617850691901800,base_footprint,0.296126987457,0.0,0.0,0.0,0.0,0.342857146263,teleoperation
1449617850824211926,552,1449617850785123881,base_footprint,0.296126987457,0.0,0.0,0.0,0.0,0.336507940292,teleoperation
1449617850915778079,553,1449617850823073942,base_footprint,0.296126987457,0.0,0.0,0.0,0.0,0.336507940292,teleoperation
1449617851017741837,554,1449617850915626726,base_footprint,0.301714288712,0.0,0.0,0.0,0.0,0.342857146263,teleoperation
1449617851050929283,555,1449617851017446892,base_footprint,0.296126987457,0.0,0.0,0.0,0.0,0.342857146263,teleoperation
1449617851163619588,556,1449617851051390947,base_footprint,0.296126987457,0.0,0.0,0.0,0.0,0.342857146263,teleoperation
1449617851179363170,557,1449617851161653177,base_footprint,0.296126987457,0.0,0.0,0.0,0.0,0.342857146263,teleoperation
1449617851259748966,558,1449617851195046261,base_footprint,0.296126987457,0.0,0.0,0.0,0.0,0.342857146263,teleoperation
1449617851286308140,559,1449617851259147684,base_footprint,0.301714288712,0.0,0.0,0.0,0.0,0.342857146263,teleoperation
1449617851316252303,560,1449617851285924000,base_footprint,0.301714288712,0.0,0.0,0.0,0.0,0.342857146263,teleoperation
1449617851338318302,561,1449617851315663651,base_footprint,0.301714288712,0.0,0.0,0.0,0.0,0.342857146263,teleoperation
1449617851432862204,562,1449617851337632002,base_footprint,0.301714288712,0.0,0.0,0.0,0.0,0.342857146263,teleoperation
1449617851453065689,563,1449617851432330967,base_footprint,0.296126987457,0.0,0.0,0.0,0.0,0.336507940292,teleoperation
