%time,field.header.seq,field.header.stamp,field.header.frame_id,field.ns,field.id,field.type,field.action,field.pose.position.x,field.pose.position.y,field.pose.position.z,field.pose.orientation.x,field.pose.orientation.y,field.pose.orientation.z,field.pose.orientation.w,field.scale.x,field.scale.y,field.scale.z,field.color.r,field.color.g,field.color.b,field.color.a,field.lifetime,field.frame_locked,field.text,field.mesh_resource,field.mesh_use_embedded_materials
1449617832530060968,4,1449617832528727881,/odom,ga,1,0,0,nan,nan,0.0,nan,nan,nan,nan,0.25,0.15,0.0,1.0,0.0,0.0,1.0,2000000000,0,,,0
1449617832530063579,5,1449617832529134580,/odom,ga,2,2,0,nan,nan,0.0,0.0,0.0,0.0,0.0,0.15,0.15,0.01,0.0,1.0,0.0,1.0,2000000000,0,,,0
1449617832595036956,6,1449617832594819567,/odom,ga,1,0,0,0.0,0.0,0.0,0.0,0.0,0.0,1.0,0.25,0.15,0.0,1.0,0.0,0.0,1.0,2000000000,0,,,0
1449617832595231378,7,1449617832595045525,/odom,ga,2,2,0,0.0,0.0,0.0,0.0,0.0,0.0,0.0,0.15,0.15,0.01,0.0,1.0,0.0,1.0,2000000000,0,,,0
1449617832711305789,8,1449617832710868446,/odom,ga,1,0,0,0.0,0.0,0.0,0.0,0.0,0.0,1.0,0.25,0.15,0.0,1.0,0.0,0.0,1.0,2000000000,0,,,0
1449617832711309488,9,1449617832711073097,/odom,ga,2,2,0,0.0,0.0,0.0,0.0,0.0,0.0,0.0,0.15,0.15,0.01,0.0,1.0,0.0,1.0,2000000000,0,,,0
1449617832798106266,10,1449617832797832884,/odom,ga,1,0,0,0.0,0.0,0.0,0.0,0.0,0.0,1.0,0.25,0.15,0.0,1.0,0.0,0.0,1.0,2000000000,0,,,0
1449617832798425109,11,1449617832798073540,/odom,ga,2,2,0,0.0,0.0,0.0,0.0,0.0,0.0,0.0,0.15,0.15,0.01,0.0,1.0,0.0,1.0,2000000000,0,,,0
1449617832904005837,12,1449617832903688178,/odom,ga,1,0,0,0.0,0.0,0.0,0.0,0.0,0.0,1.0,0.25,0.15,0.0,1.0,0.0,0.0,1.0,2000000000,0,,,0
1449617832904021164,13,1449617832903899792,/odom,ga,2,2,0,0.0,0.0,0.0,0.0,0.0,0.0,0.0,0.15,0.15,0.01,0.0,1.0,0.0,1.0,2000000000,0,,,0
1449617832986350321,14,1449617832983671000,/odom,ga,1,0,0,0.0,0.0,0.0,0.0,0.0,0.0,1.0,0.25,0.15,0.0,1.0,0.0,0.0,1.0,2000000000,0,,,0
1449617832986687444,15,1449617832983889348,/odom,ga,2,2,0,0.0,0.0,0.0,0.0,0.0,0.0,0.0,0.15,0.15,0.01,0.0,1.0,0.0,1.0,2000000000,0,,,0
1449617833096510150,16,1449617833095775884,/odom,ga,1,0,0,0.0,0.0,0.0,0.0,0.0,0.0,1.0,0.25,0.15,0.0,1.0,0.0,0.0,1.0,2000000000,0,,,0
1449617833096513590,17,1449617833095967686,/odom,ga,2,2,0,0.0,0.0,0.0,0.0,0.0,0.0,0.0,0.15,0.15,0.01,0.0,1.0,0.0,1.0,2000000000,0,,,0
1449617833188183196,18,1449617833187939149,/odom,ga,1,0,0,0.0,0.0,0.0,0.0,0.0,0.0,1.0,0.25,0.15,0.0,1.0,0.0,0.0,1.0,2000000000,0,,,0
1449617833188230197,19,1449617833188126251,/odom,ga,2,2,0,0.0,0.0,0.0,0.0,0.0,0.0,0.0,0.15,0.15,0.01,0.0,1.0,0.0,1.0,2000000000,0,,,0
1449617833285267072,20,1449617833284920193,/odom,ga,1,0,0,0.0,0.0,0.0,0.0,0.0,0.0,1.0,0.25,0.15,0.0,1.0,0.0,0.0,1.0,2000000000,0,,,0
1449617833285351903,21,1449617833285107272,/odom,ga,2,2,0,0.0,0.0,0.0,0.0,0.0,0.0,0.0,0.15,0.15,0.01,0.0,1.0,0.0,1.0,2000000000,0,,,0
1449617833390808489,22,1449617833390586272,/odom,ga,1,0,0,0.0,0.0,0.0,0.0,0.0,0.0,1.0,0.25,0.15,0.0,1.0,0.0,0.0,1.0,2000000000,0,,,0
1449617833390928420,23,1449617833390747623,/odom,ga,2,2,0,0.0,0.0,0.0,0.0,0.0,0.0,0.0,0.15,0.15,0.01,0.0,1.0,0.0,1.0,2000000000,0,,,0
1449617833491788396,24,1449617833491138065,/odom,ga,1,0,0,0.0,0.0,0.0,0.0,0.0,0.0,1.0,0.25,0.15,0.0,1.0,0.0,0.0,1.0,2000000000,0,,,0
1449617833491791687,25,1449617833491361808,/odom,ga,2,2,0,0.0,0.0,0.0,0.0,0.0,0.0,0.0,0.15,0.15,0.01,0.0,1.0,0.0,1.0,2000000000,0,,,0
1449617833589298177,26,1449617833589046651,/odom,ga,1,0,0,0.0,0.0,0.0,0.0,0.0,0.0,1.0,0.25,0.15,0.0,1.0,0.0,0.0,1.0,2000000000,0,,,0
1449617833589516725,27,1449617833589198659,/odom,ga,2,2,0,0.0,0.0,0.0,0.0,0.0,0.0,0.0,0.15,0.15,0.01,0.0,1.0,0.0,1.0,2000000000,0,,,0
1449617833685182787,28,1449617833684925487,/odom,ga,1,0,0,0.0,0.0,0.0,0.0,0.0,0.0,1.0,0.25,0.15,0.0,1.0,0.0,0.0,1.0,2000000000,0,,,0
1449617833685185728,29,1449617833684997845,/odom,ga,2,2,0,0.0,0.0,0.0,0.0,0.0,0.0,0.0,0.15,0.15,0.01,0.0,1.0,0.0,1.0,2000000000,0,,,0
1449617833784972141,30,1449617833784627810,/odom,ga,1,0,0,0.0,0.0,0.0,0.0,0.0,0.0,1.0,0.25,0.15,0.0,1.0,0.0,0.0,1.0,2000000000,0,,,0
1449617833784981610,31,1449617833784729178,/odom,ga,2,2,0,0.0,0.0,0.0,0.0,0.0,0.0,0.0,0.15,0.15,0.01,0.0,1.0,0.0,1.0,2000000000,0,,,0
1449617833882175200,32,1449617833881952137,/odom,ga,1,0,0,0.0,0.0,0.0,0.0,0.0,0.0,1.0,0.25,0.15,0.0,1.0,0.0,0.0,1.0,2000000000,0,,,0
1449617833882340038,33,1449617833882118920,/odom,ga,2,2,0,0.0,0.0,0.0,0.0,0.0,0.0,0.0,0.15,0.15,0.01,0.0,1.0,0.0,1.0,2000000000,0,,,0
1449617833995350318,34,1449617833995167697,/odom,ga,1,0,0,0.0,0.0,0.0,0.0,0.0,0.0,1.0,0.25,0.15,0.0,1.0,0.0,0.0,1.0,2000000000,0,,,0
1449617833995594525,35,1449617833995343439,/odom,ga,2,2,0,0.0,0.0,0.0,0.0,0.0,0.0,0.0,0.15,0.15,0.01,0.0,1.0,0.0,1.0,2000000000,0,,,0
1449617834087185051,36,1449617834086774091,/odom,ga,1,0,0,0.0,0.0,0.0,0.0,0.0,0.0,1.0,0.25,0.15,0.0,1.0,0.0,0.0,1.0,2000000000,0,,,0
1449617834087190964,37,1449617834086883709,/odom,ga,2,2,0,0.0,0.0,0.0,0.0,0.0,0.0,0.0,0.15,0.15,0.01,0.0,1.0,0.0,1.0,2000000000,0,,,0
1449617834182484355,38,1449617834182051098,/odom,ga,1,0,0,0.0,0.0,0.0,0.0,0.0,0.0,1.0,0.25,0.15,0.0,1.0,0.0,0.0,1.0,2000000000,0,,,0
1449617834182552279,39,1449617834182161207,/odom,ga,2,2,0,0.0,0.0,0.0,0.0,0.0,0.0,0.0,0.15,0.15,0.01,0.0,1.0,0.0,1.0,2000000000,0,,,0
1449617834285935876,40,1449617834285679014,/odom,ga,1,0,0,0.0,0.0,0.0,0.0,0.0,0.0,1.0,0.25,0.15,0.0,1.0,0.0,0.0,1.0,2000000000,0,,,0
1449617834286129299,41,1449617834285922095,/odom,ga,2,2,0,0.0,0.0,0.0,0.0,0.0,0.0,0.0,0.15,0.15,0.01,0.0,1.0,0.0,1.0,2000000000,0,,,0
1449617834386153576,42,1449617834385306205,/odom,ga,1,0,0,0.0,0.0,0.0,0.0,0.0,0.0,1.0,0.25,0.15,0.0,1.0,0.0,0.0,1.0,2000000000,0,,,0
1449617834386157435,43,1449617834385450984,/odom,ga,2,2,0,0.0,0.0,0.0,0.0,0.0,0.0,0.0,0.15,0.15,0.01,0.0,1.0,0.0,1.0,2000000000,0,,,0
1449617834484179069,44,1449617834483350629,/odom,ga,1,0,0,0.0,0.0,0.0,0.0,0.0,0.0,1.0,0.25,0.15,0.0,1.0,0.0,0.0,1.0,2000000000,0,,,0
1449617834484182792,45,1449617834483689677,/odom,ga,2,2,0,0.0,0.0,0.0,0.0,0.0,0.0,0.0,0.15,0.15,0.01,0.0,1.0,0.0,1.0,2000000000,0,,,0
1449617834591298445,46,1449617834590455591,/odom,ga,1,0,0,0.0,0.0,0.0,0.0,0.0,0.0,1.0,0.25,0.15,0.0,1.0,0.0,0.0,1.0,2000000000,0,,,0
1449617834591306475,47,1449617834590797569,/odom,ga,2,2,0,0.0,0.0,0.0,0.0,0.0,0.0,0.0,0.15,0.15,0.01,0.0,1.0,0.0,1.0,2000000000,0,,,0
1449617834688124659,48,1449617834687670484,/odom,ga,1,0,0,-0.00287963245437,-3.04332289367e-05,0.0,0.0,0.0,0.0052839997518,0.999986039576,0.25,0.15,0.0,1.0,0.0,0.0,1.0,2000000000,0,,,0
1449617834688132144,49,1449617834687790431,/odom,ga,2,2,0,-0.00287963245437,-3.04332289367e-05,0.0,0.0,0.0,0.0,0.0,0.15,0.15,0.01,0.0,1.0,0.0,1.0,2000000000,0,,,0
1449617834783808704,50,1449617834783511120,/odom,ga,1,0,0,-0.00287963245437,-3.04332289367e-05,0.0,0.0,0.0,0.0052839997518,0.999986039576,0.25,0.15,0.0,1.0,0.0,0.0,1.0,2000000000,0,,,0
1449617834783817254,51,1449617834783637649,/odom,ga,2,2,0,-0.00287963245437,-3.04332289367e-05,0.0,0.0,0.0,0.0,0.0,0.15,0.15,0.01,0.0,1.0,0.0,1.0,2000000000,0,,,0
1449617834887457110,52,1449617834886955674,/odom,ga,1,0,0,1.60811419144e-07,-3.04332289367e-05,0.0,0.0,0.0,0.0,1.0,0.25,0.15,0.0,1.0,0.0,0.0,1.0,2000000000,0,,,0
1449617834887487878,53,1449617834887118470,/odom,ga,2,2,0,1.60811419144e-07,-3.04332289367e-05,0.0,0.0,0.0,0.0,0.0,0.15,0.15,0.01,0.0,1.0,0.0,1.0,2000000000,0,,,0
1449617834998324696,54,1449617834997811629,/odom,ga,1,0,0,1.60811419144e-07,-3.04332289367e-05,0.0,0.0,0.0,0.0,1.0,0.25,0.15,0.0,1.0,0.0,0.0,1.0,2000000000,0,,,0
1449617834998327308,55,1449617834997951580,/odom,ga,2,2,0,1.60811419144e-07,-3.04332289367e-05,0.0,0.0,0.0,0.0,0.0,0.15,0.15,0.01,0.0,1.0,0.0,1.0,2000000000,0,,,0
1449617835101553331,56,1449617835100944358,/odom,ga,1,0,0,1.60811419144e-07,-3.04332289367e-05,0.0,0.0,0.0,0.0,1.0,0.25,0.15,0.0,1.0,0.0,0.0,1.0,2000000000,0,,,0
1449617835101588391,57,1449617835101108353,/odom,ga,2,2,0,1.60811419144e-07,-3.04332289367e-05,0.0,0.0,0.0,0.0,0.0,0.15,0.15,0.01,0.0,1.0,0.0,1.0,2000000000,0,,,0
1449617835190830340,58,1449617835190300054,/odom,ga,1,0,0,1.60811419144e-07,-3.04332289367e-05,0.0,0.0,0.0,0.0,1.0,0.25,0.15,0.0,1.0,0.0,0.0,1.0,2000000000,0,,,0
1449617835191079877,59,1449617835190482037,/odom,ga,2,2,0,1.60811419144e-07,-3.04332289367e-05,0.0,0.0,0.0,0.0,0.0,0.15,0.15,0.01,0.0,1.0,0.0,1.0,2000000000,0,,,0
1449617835282904703,60,1449617835282769697,/odom,ga,1,0,0,1.60811419144e-07,-3.04332289367e-05,0.0,0.0,0.0,0.0,1.0,0.25,0.15,0.0,1.0,0.0,0.0,1.0,2000000000,0,,,0
1449617835283039222,61,1449617835282862143,/odom,ga,2,2,0,1.60811419144e-07,-3.04332289367e-05,0.0,0.0,0.0,0.0,0.0,0.15,0.15,0.01,0.0,1.0,0.0,1.0,2000000000,0,,,0
1449617835396449003,62,1449617835396184000,/odom,ga,1,0,0,1.60811419144e-07,-3.04332289367e-05,0.0,0.0,0.0,0.0,1.0,0.25,0.15,0.0,1.0,0.0,0.0,1.0,2000000000,0,,,0
1449617835396453769,63,1449617835396266496,/odom,ga,2,2,0,1.60811419144e-07,-3.04332289367e-05,0.0,0.0,0.0,0.0,0.0,0.15,0.15,0.01,0.0,1.0,0.0,1.0,2000000000,0,,,0
1449617835504254246,64,1449617835504150132,/odom,ga,1,0,0,1.60811419144e-07,-3.04332289367e-05,0.0,0.0,0.0,0.0,1.0,0.25,0.15,0.0,1.0,0.0,0.0,1.0,2000000000,0,,,0
1449617835504369473,65,1449617835504236470,/odom,ga,2,2,0,1.60811419144e-07,-3.04332289367e-05,0.0,0.0,0.0,0.0,0.0,0.15,0.15,0.01,0.0,1.0,0.0,1.0,2000000000,0,,,0
1449617835589465875,66,1449617835589278597,/odom,ga,1,0,0,1.60811419144e-07,-3.04332289367e-05,0.0,0.0,0.0,0.0,1.0,0.25,0.15,0.0,1.0,0.0,0.0,1.0,2000000000,0,,,0
1449617835589731099,67,1449617835589426730,/odom,ga,2,2,0,1.60811419144e-07,-3.04332289367e-05,0.0,0.0,0.0,0.0,0.0,0.15,0.15,0.01,0.0,1.0,0.0,1.0,2000000000,0,,,0
1449617835695255154,68,1449617835694980528,/odom,ga,1,0,0,1.60811419144e-07,-3.04332289367e-05,0.0,0.0,0.0,0.0,1.0,0.25,0.15,0.0,1.0,0.0,0.0,1.0,2000000000,0,,,0
1449617835695258409,69,1449617835695173931,/odom,ga,2,2,0,1.60811419144e-07,-3.04332289367e-05,0.0,0.0,0.0,0.0,0.0,0.15,0.15,0.01,0.0,1.0,0.0,1.0,2000000000,0,,,0
1449617835796148761,70,1449617835796006561,/odom,ga,1,0,0,1.60811419144e-07,-3.04332289367e-05,0.0,0.0,0.0,0.0,1.0,0.25,0.15,0.0,1.0,0.0,0.0,1.0,2000000000,0,,,0
1449617835796160088,71,1449617835796076294,/odom,ga,2,2,0,1.60811419144e-07,-3.04332289367e-05,0.0,0.0,0.0,0.0,0.0,0.15,0.15,0.01,0.0,1.0,0.0,1.0,2000000000,0,,,0
1449617835886867928,72,1449617835886323868,/odom,ga,1,0,0,1.60811419144e-07,-3.04332289367e-05,0.0,0.0,0.0,0.0,1.0,0.25,0.15,0.0,1.0,0.0,0.0,1.0,2000000000,0,,,0
1449617835886884179,73,1449617835886492066,/odom,ga,2,2,0,1.60811419144e-07,-3.04332289367e-05,0.0,0.0,0.0,0.0,0.0,0.15,0.15,0.01,0.0,1.0,0.0,1.0,2000000000,0,,,0
1449617835982961717,74,1449617835982620790,/odom,ga,1,0,0,1.60811419144e-07,-3.04332289367e-05,0.0,0.0,0.0,0.0,1.0,0.25,0.15,0.0,1.0,0.0,0.0,1.0,2000000000,0,,,0
1449617835982979622,75,1449617835982748208,/odom,ga,2,2,0,1.60811419144e-07,-3.04332289367e-05,0.0,0.0,0.0,0.0,0.0,0.15,0.15,0.01,0.0,1.0,0.0,1.0,2000000000,0,,,0
1449617836101708628,76,1449617836101500509,/odom,ga,1,0,0,-0.00287947164295,-6.08664578733e-05,0.0,0.0,0.0,0.0052839997518,0.999986039576,0.25,0.15,0.0,1.0,0.0,0.0,1.0,2000000000,0,,,0
1449617836101847761,77,1449617836101731253,/odom,ga,2,2,0,-0.00287947164295,-6.08664578733e-05,0.0,0.0,0.0,0.0,0.0,0.15,0.15,0.01,0.0,1.0,0.0,1.0,2000000000,0,,,0
1449617836186206344,78,1449617836185977105,/odom,ga,1,0,0,0.00287979326579,0.0,0.0,0.0,0.0,0.0052839997518,0.999986039576,0.25,0.15,0.0,1.0,0.0,0.0,1.0,2000000000,0,,,0
1449617836186260202,79,1449617836186118296,/odom,ga,2,2,0,0.00287979326579,0.0,0.0,0.0,0.0,0.0,0.0,0.15,0.15,0.01,0.0,1.0,0.0,1.0,2000000000,0,,,0
1449617836321067590,80,1449617836320486620,/odom,ga,1,0,0,0.0,0.0,0.0,0.0,0.0,0.0,1.0,0.25,0.15,0.0,1.0,0.0,0.0,1.0,2000000000,0,,,0
1449617836321071613,81,1449617836320620880,/odom,ga,2,2,0,0.0,0.0,0.0,0.0,0.0,0.0,0.0,0.15,0.15,0.01,0.0,1.0,0.0,1.0,2000000000,0,,,0
1449617836385684182,82,1449617836385328108,/odom,ga,1,0,0,0.0,0.0,0.0,0.0,0.0,0.0,1.0,0.25,0.15,0.0,1.0,0.0,0.0,1.0,2000000000,0,,,0
1449617836386001340,83,1449617836385665666,/odom,ga,2,2,0,0.0,0.0,0.0,0.0,0.0,0.0,0.0,0.15,0.15,0.01,0.0,1.0,0.0,1.0,2000000000,0,,,0
1449617836481209197,84,1449617836481096898,/odom,ga,1,0,0,0.0,0.0,0.0,0.0,0.0,0.0,1.0,0.25,0.15,0.0,1.0,0.0,0.0,1.0,2000000000,0,,,0
1449617836481453473,85,1449617836481210421,/odom,ga,2,2,0,0.0,0.0,0.0,0.0,0.0,0.0,0.0,0.15,0.15,0.01,0.0,1.0,0.0,1.0,2000000000,0,,,0
1449617836583825686,86,1449617836583374377,/odom,ga,1,0,0,0.0054904534118,0.0,0.0,0.0,0.0,0.0,1.0,0.25,0.15,0.0,1.0,0.0,0.0,1.0,2000000000,0,,,0
1449617836583843614,87,1449617836583546625,/odom,ga,2,2,0,0.0054904534118,0.0,0.0,0.0,0.0,0.0,0.0,0.15,0.15,0.01,0.0,1.0,0.0,1.0,2000000000,0,,,0
1449617836686447000,88,1449617836686070798,/odom,ga,1,0,0,0.010263473843,0.0,0.0,0.0,0.0,0.0,1.0,0.25,0.15,0.0,1.0,0.0,0.0,1.0,2000000000,0,,,0
1449617836686456562,89,1449617836686170686,/odom,ga,2,2,0,0.010263473843,0.0,0.0,0.0,0.0,0.0,0.0,0.15,0.15,0.01,0.0,1.0,0.0,1.0,2000000000,0,,,0
1449617836783840992,90,1449617836783575185,/odom,ga,1,0,0,0.319921200107,-0.00100392645039,0.0,0.0,0.0,-0.00287652591558,0.999995862791,0.25,0.15,0.0,1.0,0.0,0.0,1.0,2000000000,0,,,0
1449617836783844742,91,1449617836783690438,/odom,ga,2,2,0,0.319921200107,-0.00100392645039,0.0,0.0,0.0,0.0,0.0,0.15,0.15,0.01,0.0,1.0,0.0,1.0,2000000000,0,,,0
1449617836887416647,92,1449617836886411098,/odom,ga,1,0,0,0.487006497608,-0.00233058633571,0.0,0.0,0.0,-0.00438669228882,0.999990378419,0.25,0.15,0.0,1.0,0.0,0.0,1.0,2000000000,0,,,0
1449617836887523905,93,1449617836886588543,/odom,ga,2,2,0,0.487006497608,-0.00233058633571,0.0,0.0,0.0,0.0,0.0,0.15,0.15,0.01,0.0,1.0,0.0,1.0,2000000000,0,,,0
1449617837025809317,94,1449617837025180396,/odom,ga,1,0,0,0.611114543275,-0.00370579557665,0.0,0.0,0.0,-0.00555856538827,0.999984551056,0.25,0.15,0.0,1.0,0.0,0.0,1.0,2000000000,0,,,0
1449617837026032973,95,1449617837025545165,/odom,ga,2,2,0,0.611114543275,-0.00370579557665,0.0,0.0,0.0,0.0,0.0,0.15,0.15,0.01,0.0,1.0,0.0,1.0,2000000000,0,,,0
1449617837095793994,96,1449617837092368231,/odom,ga,1,0,0,0.548462046073,-0.00231169335103,0.0,0.0,0.0,-0.00386359354017,0.999992536295,0.25,0.15,0.0,1.0,0.0,0.0,1.0,2000000000,0,,,0
1449617837095845836,97,1449617837092670405,/odom,ga,2,2,0,0.548462046073,-0.00231169335103,0.0,0.0,0.0,0.0,0.0,0.15,0.15,0.01,0.0,1.0,0.0,1.0,2000000000,0,,,0
1449617837189805301,98,1449617837189433967,/odom,ga,1,0,0,0.479015284321,-0.00123870507918,0.0,0.0,0.0,-0.00237043806054,0.999997190508,0.25,0.15,0.0,1.0,0.0,0.0,1.0,2000000000,0,,,0
1449617837190594866,99,1449617837189818413,/odom,ga,2,2,0,0.479015284321,-0.00123870507918,0.0,0.0,0.0,0.0,0.0,0.15,0.15,0.01,0.0,1.0,0.0,1.0,2000000000,0,,,0
1449617837287239311,100,1449617837286464017,/odom,ga,1,0,0,0.460684755456,-0.000893693195083,0.0,0.0,0.0,-0.00177826006406,0.999998418894,0.25,0.15,0.0,1.0,0.0,0.0,1.0,2000000000,0,,,0
1449617837287243583,101,1449617837286557966,/odom,ga,2,2,0,0.460684755456,-0.000893693195083,0.0,0.0,0.0,0.0,0.0,0.15,0.15,0.01,0.0,1.0,0.0,1.0,2000000000,0,,,0
1449617837410641130,102,1449617837407210088,/odom,ga,1,0,0,0.438735775281,-0.000414170104971,0.0,0.0,0.0,-0.000865340350134,0.999999625593,0.25,0.15,0.0,1.0,0.0,0.0,1.0,2000000000,0,,,0
1449617837410650162,103,1449617837407834528,/odom,ga,2,2,0,0.438735775281,-0.000414170104971,0.0,0.0,0.0,0.0,0.0,0.15,0.15,0.01,0.0,1.0,0.0,1.0,2000000000,0,,,0
1449617837547093543,104,1449617837546950835,/odom,ga,1,0,0,0.41298863715,-0.000246412170972,0.0,0.0,0.0,-0.000546934624847,0.999999850431,0.25,0.15,0.0,1.0,0.0,0.0,1.0,2000000000,0,,,0
1449617837547776965,105,1449617837547140512,/odom,ga,2,2,0,0.41298863715,-0.000246412170972,0.0,0.0,0.0,0.0,0.0,0.15,0.15,0.01,0.0,1.0,0.0,1.0,2000000000,0,,,0
1449617837591709271,106,1449617837590495130,/odom,ga,1,0,0,0.416963542548,0.00421538498428,0.0,0.0,0.0,0.00486063165784,0.99998818706,0.25,0.15,0.0,1.0,0.0,0.0,1.0,2000000000,0,,,0
1449617837591715324,107,1449617837590797699,/odom,ga,2,2,0,0.416963542548,0.00421538498428,0.0,0.0,0.0,0.0,0.0,0.15,0.15,0.01,0.0,1.0,0.0,1.0,2000000000,0,,,0
1449617837687509574,108,1449617837686651321,/odom,ga,1,0,0,0.418870672502,0.00433051645368,0.0,0.0,0.0,0.00507183489546,0.999987138163,0.25,0.15,0.0,1.0,0.0,0.0,1.0,2000000000,0,,,0
1449617837687537656,109,1449617837686854372,/odom,ga,2,2,0,0.418870672502,0.00433051645368,0.0,0.0,0.0,0.0,0.0,0.15,0.15,0.01,0.0,1.0,0.0,1.0,2000000000,0,,,0
1449617837797120011,110,1449617837796733270,/odom,ga,1,0,0,0.419480058122,0.00436748918871,0.0,0.0,0.0,0.00513931927027,0.999986793612,0.25,0.15,0.0,1.0,0.0,0.0,1.0,2000000000,0,,,0
1449617837797123954,111,1449617837796872249,/odom,ga,2,2,0,0.419480058122,0.00436748918871,0.0,0.0,0.0,0.0,0.0,0.15,0.15,0.01,0.0,1.0,0.0,1.0,2000000000,0,,,0
1449617837919590943,112,1449617837919167036,/odom,ga,1,0,0,0.425756628814,0.00445981309064,0.0,0.0,0.0,0.0051966086014,0.999986497538,0.25,0.15,0.0,1.0,0.0,0.0,1.0,2000000000,0,,,0
1449617837919618632,113,1449617837919416669,/odom,ga,2,2,0,0.425756628814,0.00445981309064,0.0,0.0,0.0,0.0,0.0,0.15,0.15,0.01,0.0,1.0,0.0,1.0,2000000000,0,,,0
1449617837986681992,114,1449617837986315775,/odom,ga,1,0,0,0.431969792601,0.00457879386541,0.0,0.0,0.0,0.00524692956117,0.99998623477,0.25,0.15,0.0,1.0,0.0,0.0,1.0,2000000000,0,,,0
1449617837987433330,115,1449617837986450739,/odom,ga,2,2,0,0.431969792601,0.00457879386541,0.0,0.0,0.0,0.0,0.0,0.15,0.15,0.01,0.0,1.0,0.0,1.0,2000000000,0,,,0
1449617838090297764,116,1449617838089446354,/odom,ga,1,0,0,0.426519115499,0.00888171821292,0.0,0.0,0.0,0.0105391643669,0.999944461465,0.25,0.15,0.0,1.0,0.0,0.0,1.0,2000000000,0,,,0
1449617838090301915,117,1449617838089784790,/odom,ga,2,2,0,0.426519115499,0.00888171821292,0.0,0.0,0.0,0.0,0.0,0.15,0.15,0.01,0.0,1.0,0.0,1.0,2000000000,0,,,0
1449617838186203203,118,1449617838185688902,/odom,ga,1,0,0,0.436689213751,0.00913365810703,0.0,0.0,0.0,0.0105538931191,0.999944306119,0.25,0.15,0.0,1.0,0.0,0.0,1.0,2000000000,0,,,0
1449617838186215715,119,1449617838185890047,/odom,ga,2,2,0,0.436689213751,0.00913365810703,0.0,0.0,0.0,0.0,0.0,0.15,0.15,0.01,0.0,1.0,0.0,1.0,2000000000,0,,,0
1449617838302743124,120,1449617838302039577,/odom,ga,1,0,0,0.446211404944,0.0130706806717,0.0,0.0,0.0,0.0142037868549,0.999899121131,0.25,0.15,0.0,1.0,0.0,0.0,1.0,2000000000,0,,,0
1449617838302747226,121,1449617838302228282,/odom,ga,2,2,0,0.446211404944,0.0130706806717,0.0,0.0,0.0,0.0,0.0,0.15,0.15,0.01,0.0,1.0,0.0,1.0,2000000000,0,,,0
1449617838390487089,122,1449617838390074420,/odom,ga,1,0,0,0.453644574581,0.0120593020679,0.0,0.0,0.0,0.0114662522569,0.999934260369,0.25,0.15,0.0,1.0,0.0,0.0,1.0,2000000000,0,,,0
1449617838390502773,123,1449617838390340175,/odom,ga,2,2,0,0.453644574581,0.0120593020679,0.0,0.0,0.0,0.0,0.0,0.15,0.15,0.01,0.0,1.0,0.0,1.0,2000000000,0,,,0
1449617838484268372,124,1449617838483017081,/odom,ga,1,0,0,0.589201905995,0.0225454169042,0.0,0.0,0.0,0.0183628966178,0.999831387799,0.25,0.15,0.0,1.0,0.0,0.0,1.0,2000000000,0,,,0
1449617838484292635,125,1449617838483104562,/odom,ga,2,2,0,0.589201905995,0.0225454169042,0.0,0.0,0.0,0.0,0.0,0.15,0.15,0.01,0.0,1.0,0.0,1.0,2000000000,0,,,0
1449617838588155619,126,1449617838587408674,/odom,ga,1,0,0,0.654000496685,0.0302281545366,0.0,0.0,0.0,0.0216692237673,0.999765194804,0.25,0.15,0.0,1.0,0.0,0.0,1.0,2000000000,0,,,0
1449617838588247757,127,1449617838587713556,/odom,ga,2,2,0,0.654000496685,0.0302281545366,0.0,0.0,0.0,0.0,0.0,0.15,0.15,0.01,0.0,1.0,0.0,1.0,2000000000,0,,,0
1449617838684474660,128,1449617838683692967,/odom,ga,1,0,0,0.711843169922,0.0325441948126,0.0,0.0,0.0,0.021006556734,0.999779337941,0.25,0.15,0.0,1.0,0.0,0.0,1.0,2000000000,0,,,0
1449617838684480014,129,1449617838683947172,/odom,ga,2,2,0,0.711843169922,0.0325441948126,0.0,0.0,0.0,0.0,0.0,0.15,0.15,0.01,0.0,1.0,0.0,1.0,2000000000,0,,,0
1449617838821260163,130,1449617838819188621,/odom,ga,1,0,0,0.76120513631,0.0343632325285,0.0,0.0,0.0,0.0203044951804,0.999793842487,0.25,0.15,0.0,1.0,0.0,0.0,1.0,2000000000,0,,,0
1449617838821267133,131,1449617838819517004,/odom,ga,2,2,0,0.76120513631,0.0343632325285,0.0,0.0,0.0,0.0,0.0,0.15,0.15,0.01,0.0,1.0,0.0,1.0,2000000000,0,,,0
1449617838964346933,132,1449617838963674870,/odom,ga,1,0,0,0.791849151729,0.0419745627831,0.0,0.0,0.0,0.0236233728644,0.999720929187,0.25,0.15,0.0,1.0,0.0,0.0,1.0,2000000000,0,,,0
1449617838964354181,133,1449617838964077580,/odom,ga,2,2,0,0.791849151729,0.0419745627831,0.0,0.0,0.0,0.0,0.0,0.15,0.15,0.01,0.0,1.0,0.0,1.0,2000000000,0,,,0
1449617838992127455,134,1449617838991791632,/odom,ga,1,0,0,0.829906209881,0.0483546427568,0.0,0.0,0.0,0.0241938289167,0.999707286481,0.25,0.15,0.0,1.0,0.0,0.0,1.0,2000000000,0,,,0
1449617838992139466,135,1449617838991936532,/odom,ga,2,2,0,0.829906209881,0.0483546427568,0.0,0.0,0.0,0.0,0.0,0.15,0.15,0.01,0.0,1.0,0.0,1.0,2000000000,0,,,0
1449617839094558539,136,1449617839093446638,/odom,ga,1,0,0,0.838669337999,0.0303119063217,0.0,0.0,0.0,0.000903016731774,0.99999959228,0.25,0.15,0.0,1.0,0.0,0.0,1.0,2000000000,0,,,0
1449617839096917202,137,1449617839093656904,/odom,ga,2,2,0,0.838669337999,0.0303119063217,0.0,0.0,0.0,0.0,0.0,0.15,0.15,0.01,0.0,1.0,0.0,1.0,2000000000,0,,,0
1449617839220813329,138,1449617839220615635,/odom,ga,1,0,0,0.855342973678,0.0205278438167,0.0,0.0,0.0,-0.0173161846968,0.999850063633,0.25,0.15,0.0,1.0,0.0,0.0,1.0,2000000000,0,,,0
1449617839220930591,139,1449617839220789703,/odom,ga,2,2,0,0.855342973678,0.0205278438167,0.0,0.0,0.0,0.0,0.0,0.15,0.15,0.01,0.0,1.0,0.0,1.0,2000000000,0,,,0
1449617839290471190,140,1449617839290071326,/odom,ga,1,0,0,0.879124405799,0.0154689298554,0.0,0.0,0.0,-0.0261763918467,0.999657339547,0.25,0.15,0.0,1.0,0.0,0.0,1.0,2000000000,0,,,0
1449617839290475466,141,1449617839290243014,/odom,ga,2,2,0,0.879124405799,0.0154689298554,0.0,0.0,0.0,0.0,0.0,0.15,0.15,0.01,0.0,1.0,0.0,1.0,2000000000,0,,,0
1449617839416082940,142,1449617839415199650,/odom,ga,1,0,0,0.88934123593,0.0220499923438,0.0,0.0,0.0,-0.0239955665471,0.99971206494,0.25,0.15,0.0,1.0,0.0,0.0,1.0,2000000000,0,,,0
1449617839416087307,143,1449617839415490467,/odom,ga,2,2,0,0.88934123593,0.0220499923438,0.0,0.0,0.0,0.0,0.0,0.15,0.15,0.01,0.0,1.0,0.0,1.0,2000000000,0,,,0
1449617839503016496,144,1449617839502319190,/odom,ga,1,0,0,0.907430003621,-0.00288158555113,0.0,0.0,0.0,-0.0589183052432,0.998262807735,0.25,0.15,0.0,1.0,0.0,0.0,1.0,2000000000,0,,,0
1449617839503910527,145,1449617839502918208,/odom,ga,2,2,0,0.907430003621,-0.00288158555113,0.0,0.0,0.0,0.0,0.0,0.15,0.15,0.01,0.0,1.0,0.0,1.0,2000000000,0,,,0
1449617839601477743,146,1449617839600531875,/odom,ga,1,0,0,0.927940518657,0.00174964087364,0.0,0.0,0.0,-0.0601244877745,0.998190886539,0.25,0.15,0.0,1.0,0.0,0.0,1.0,2000000000,0,,,0
1449617839602034578,147,1449617839600741551,/odom,ga,2,2,0,0.927940518657,0.00174964087364,0.0,0.0,0.0,0.0,0.0,0.15,0.15,0.01,0.0,1.0,0.0,1.0,2000000000,0,,,0
1449617839739013277,148,1449617839738642021,/odom,ga,1,0,0,0.95715086777,-0.00601554622546,0.0,0.0,0.0,-0.0737922034473,0.997273638833,0.25,0.15,0.0,1.0,0.0,0.0,1.0,2000000000,0,,,0
1449617839739082133,149,1449617839738897056,/odom,ga,2,2,0,0.95715086777,-0.00601554622546,0.0,0.0,0.0,0.0,0.0,0.15,0.15,0.01,0.0,1.0,0.0,1.0,2000000000,0,,,0
1449617839788813670,150,1449617839784019359,/odom,ga,1,0,0,0.989065469919,0.0039295718703,0.0,0.0,0.0,-0.0700804852068,0.997541340293,0.25,0.15,0.0,1.0,0.0,0.0,1.0,2000000000,0,,,0
1449617839788874518,151,1449617839784166332,/odom,ga,2,2,0,0.989065469919,0.0039295718703,0.0,0.0,0.0,0.0,0.0,0.15,0.15,0.01,0.0,1.0,0.0,1.0,2000000000,0,,,0
1449617839887378654,152,1449617839887065721,/odom,ga,1,0,0,1.01468305045,-0.00420393634275,0.0,0.0,0.0,-0.0794386804001,0.996839754452,0.25,0.15,0.0,1.0,0.0,0.0,1.0,2000000000,0,,,0
1449617839887645278,153,1449617839887407421,/odom,ga,2,2,0,1.01468305045,-0.00420393634275,0.0,0.0,0.0,0.0,0.0,0.15,0.15,0.01,0.0,1.0,0.0,1.0,2000000000,0,,,0
1449617839993233003,154,1449617839992379827,/odom,ga,1,0,0,1.03503302427,0.00290515070488,0.0,0.0,0.0,-0.0777844475944,0.996970200012,0.25,0.15,0.0,1.0,0.0,0.0,1.0,2000000000,0,,,0
1449617839993238011,155,1449617839992543910,/odom,ga,2,2,0,1.03503302427,0.00290515070488,0.0,0.0,0.0,0.0,0.0,0.15,0.15,0.01,0.0,1.0,0.0,1.0,2000000000,0,,,0
1449617840112859943,156,1449617840112212674,/odom,ga,1,0,0,1.06643019636,-0.000441325007516,0.0,0.0,0.0,-0.0818489211817,0.996644748193,0.25,0.15,0.0,1.0,0.0,0.0,1.0,2000000000,0,,,0
1449617840112868279,157,1449617840112331399,/odom,ga,2,2,0,1.06643019636,-0.000441325007516,0.0,0.0,0.0,0.0,0.0,0.15,0.15,0.01,0.0,1.0,0.0,1.0,2000000000,0,,,0
1449617840197403927,158,1449617840196895587,/odom,ga,1,0,0,1.1007538308,0.00112708805591,0.0,0.0,0.0,-0.0841306597666,0.99645473158,0.25,0.15,0.0,1.0,0.0,0.0,1.0,2000000000,0,,,0
1449617840197426870,159,1449617840197188508,/odom,ga,2,2,0,1.1007538308,0.00112708805591,0.0,0.0,0.0,0.0,0.0,0.15,0.15,0.01,0.0,1.0,0.0,1.0,2000000000,0,,,0
1449617840288159222,160,1449617840287748049,/odom,ga,1,0,0,1.12062051326,-0.00316633735054,0.0,0.0,0.0,-0.0875890710896,0.996156691804,0.25,0.15,0.0,1.0,0.0,0.0,1.0,2000000000,0,,,0
1449617840288165696,161,1449617840287904169,/odom,ga,2,2,0,1.12062051326,-0.00316633735054,0.0,0.0,0.0,0.0,0.0,0.15,0.15,0.01,0.0,1.0,0.0,1.0,2000000000,0,,,0
1449617840382884035,162,1449617840382711207,/odom,ga,1,0,0,1.14592585143,-0.00949569699708,0.0,0.0,0.0,-0.0939794008058,0.995574142003,0.25,0.15,0.0,1.0,0.0,0.0,1.0,2000000000,0,,,0
1449617840382974193,163,1449617840382817733,/odom,ga,2,2,0,1.14592585143,-0.00949569699708,0.0,0.0,0.0,0.0,0.0,0.15,0.15,0.01,0.0,1.0,0.0,1.0,2000000000,0,,,0
1449617840483421296,164,1449617840482729628,/odom,ga,1,0,0,1.12445042502,-0.00801324072267,0.0,0.0,0.0,-0.0932608703897,0.995641707671,0.25,0.15,0.0,1.0,0.0,0.0,1.0,2000000000,0,,,0
1449617840483427858,165,1449617840482968845,/odom,ga,2,2,0,1.12445042502,-0.00801324072267,0.0,0.0,0.0,0.0,0.0,0.15,0.15,0.01,0.0,1.0,0.0,1.0,2000000000,0,,,0
1449617840587437313,166,1449617840586600012,/odom,ga,1,0,0,1.17456693813,-0.0092471399663,0.0,0.0,0.0,-0.0968089116778,0.995302986341,0.25,0.15,0.0,1.0,0.0,0.0,1.0,2000000000,0,,,0
1449617840587449683,167,1449617840586900703,/odom,ga,2,2,0,1.17456693813,-0.0092471399663,0.0,0.0,0.0,0.0,0.0,0.15,0.15,0.01,0.0,1.0,0.0,1.0,2000000000,0,,,0
1449617840722316268,168,1449617840722011158,/odom,ga,1,0,0,1.21846803227,-0.0178207154087,0.0,0.0,0.0,-0.104992889109,0.994472972602,0.25,0.15,0.0,1.0,0.0,0.0,1.0,2000000000,0,,,0
1449617840722567090,169,1449617840722281092,/odom,ga,2,2,0,1.21846803227,-0.0178207154087,0.0,0.0,0.0,0.0,0.0,0.15,0.15,0.01,0.0,1.0,0.0,1.0,2000000000,0,,,0
1449617840789617788,170,1449617840788551775,/odom,ga,1,0,0,1.25375756017,-0.0229406091538,0.0,0.0,0.0,-0.108845200834,0.994058711674,0.25,0.15,0.0,1.0,0.0,0.0,1.0,2000000000,0,,,0
1449617840789699461,171,1449617840788781320,/odom,ga,2,2,0,1.25375756017,-0.0229406091538,0.0,0.0,0.0,0.0,0.0,0.15,0.15,0.01,0.0,1.0,0.0,1.0,2000000000,0,,,0
1449617840889424444,172,1449617840888938834,/odom,ga,1,0,0,1.27706428257,-0.0381012215041,0.0,0.0,0.0,-0.120355679881,0.992730834779,0.25,0.15,0.0,1.0,0.0,0.0,1.0,2000000000,0,,,0
1449617840889427318,173,1449617840889088769,/odom,ga,2,2,0,1.27706428257,-0.0381012215041,0.0,0.0,0.0,0.0,0.0,0.15,0.15,0.01,0.0,1.0,0.0,1.0,2000000000,0,,,0
1449617840988974636,174,1449617840988501130,/odom,ga,1,0,0,1.29733413375,-0.0391067113468,0.0,0.0,0.0,-0.121976078349,0.992533040413,0.25,0.15,0.0,1.0,0.0,0.0,1.0,2000000000,0,,,0
1449617840989321721,175,1449617840988616136,/odom,ga,2,2,0,1.29733413375,-0.0391067113468,0.0,0.0,0.0,0.0,0.0,0.15,0.15,0.01,0.0,1.0,0.0,1.0,2000000000,0,,,0
1449617841084277274,176,1449617841083684320,/odom,ga,1,0,0,1.32881195697,-0.0463195868354,0.0,0.0,0.0,-0.127627446784,0.991822179036,0.25,0.15,0.0,1.0,0.0,0.0,1.0,2000000000,0,,,0
1449617841084286370,177,1449617841083768898,/odom,ga,2,2,0,1.32881195697,-0.0463195868354,0.0,0.0,0.0,0.0,0.0,0.15,0.15,0.01,0.0,1.0,0.0,1.0,2000000000,0,,,0
1449617841202911498,178,1449617841201360609,/odom,ga,1,0,0,1.34915308723,-0.054234576583,0.0,0.0,0.0,-0.133528715623,0.991044944543,0.25,0.15,0.0,1.0,0.0,0.0,1.0,2000000000,0,,,0
1449617841202918537,179,1449617841201613178,/odom,ga,2,2,0,1.34915308723,-0.054234576583,0.0,0.0,0.0,0.0,0.0,0.15,0.15,0.01,0.0,1.0,0.0,1.0,2000000000,0,,,0
1449617841306256724,180,1449617841305398451,/odom,ga,1,0,0,1.38715650791,-0.0584433163679,0.0,0.0,0.0,-0.129293342555,0.991606389436,0.25,0.15,0.0,1.0,0.0,0.0,1.0,2000000000,0,,,0
1449617841306264838,181,1449617841305562134,/odom,ga,2,2,0,1.38715650791,-0.0584433163679,0.0,0.0,0.0,0.0,0.0,0.15,0.15,0.01,0.0,1.0,0.0,1.0,2000000000,0,,,0
1449617841412470543,182,1449617841411627776,/odom,ga,1,0,0,1.38582475103,-0.0470037232226,0.0,0.0,0.0,-0.115808773451,0.993271527827,0.25,0.15,0.0,1.0,0.0,0.0,1.0,2000000000,0,,,0
1449617841412474629,183,1449617841411796848,/odom,ga,2,2,0,1.38582475103,-0.0470037232226,0.0,0.0,0.0,0.0,0.0,0.15,0.15,0.01,0.0,1.0,0.0,1.0,2000000000,0,,,0
1449617841501495253,184,1449617841501097905,/odom,ga,1,0,0,1.41743908707,-0.052125704089,0.0,0.0,0.0,-0.115323942571,0.993327935915,0.25,0.15,0.0,1.0,0.0,0.0,1.0,2000000000,0,,,0
1449617841501500210,185,1449617841501202859,/odom,ga,2,2,0,1.41743908707,-0.052125704089,0.0,0.0,0.0,0.0,0.0,0.15,0.15,0.01,0.0,1.0,0.0,1.0,2000000000,0,,,0
1449617841619696923,186,1449617841619188819,/odom,ga,1,0,0,1.46696053421,-0.0550682212833,0.0,0.0,0.0,-0.109247050035,0.994014628694,0.25,0.15,0.0,1.0,0.0,0.0,1.0,2000000000,0,,,0
1449617841619730461,187,1449617841619330980,/odom,ga,2,2,0,1.46696053421,-0.0550682212833,0.0,0.0,0.0,0.0,0.0,0.15,0.15,0.01,0.0,1.0,0.0,1.0,2000000000,0,,,0
1449617841685556328,188,1449617841684848915,/odom,ga,1,0,0,1.50023698852,-0.0651914619368,0.0,0.0,0.0,-0.115255971047,0.993335824955,0.25,0.15,0.0,1.0,0.0,0.0,1.0,2000000000,0,,,0
1449617841685651481,189,1449617841685123106,/odom,ga,2,2,0,1.50023698852,-0.0651914619368,0.0,0.0,0.0,0.0,0.0,0.15,0.15,0.01,0.0,1.0,0.0,1.0,2000000000,0,,,0
1449617841791977388,190,1449617841791083495,/odom,ga,1,0,0,1.52024241501,-0.0648594620763,0.0,0.0,0.0,-0.113215386119,0.993570468737,0.25,0.15,0.0,1.0,0.0,0.0,1.0,2000000000,0,,,0
1449617841791982367,191,1449617841791410486,/odom,ga,2,2,0,1.52024241501,-0.0648594620763,0.0,0.0,0.0,0.0,0.0,0.15,0.15,0.01,0.0,1.0,0.0,1.0,2000000000,0,,,0
1449617841884325527,192,1449617841883849120,/odom,ga,1,0,0,1.5564550614,-0.0825983016868,0.0,0.0,0.0,-0.122895273252,0.992419645015,0.25,0.15,0.0,1.0,0.0,0.0,1.0,2000000000,0,,,0
1449617841884329258,193,1449617841884024749,/odom,ga,2,2,0,1.5564550614,-0.0825983016868,0.0,0.0,0.0,0.0,0.0,0.15,0.15,0.01,0.0,1.0,0.0,1.0,2000000000,0,,,0
1449617841988849805,194,1449617841987975166,/odom,ga,1,0,0,1.58399574716,-0.0921331367191,0.0,0.0,0.0,-0.126426654065,0.991975957945,0.25,0.15,0.0,1.0,0.0,0.0,1.0,2000000000,0,,,0
1449617841988853531,195,1449617841988183482,/odom,ga,2,2,0,1.58399574716,-0.0921331367191,0.0,0.0,0.0,0.0,0.0,0.15,0.15,0.01,0.0,1.0,0.0,1.0,2000000000,0,,,0
1449617842092503992,196,1449617842092180711,/odom,ga,1,0,0,1.61055123733,-0.101983000129,0.0,0.0,0.0,-0.131385444506,0.991331359825,0.25,0.15,0.0,1.0,0.0,0.0,1.0,2000000000,0,,,0
1449617842092509874,197,1449617842092317503,/odom,ga,2,2,0,1.61055123733,-0.101983000129,0.0,0.0,0.0,0.0,0.0,0.15,0.15,0.01,0.0,1.0,0.0,1.0,2000000000,0,,,0
1449617842191313552,198,1449617842190802273,/odom,ga,1,0,0,1.62787868885,-0.111479941367,0.0,0.0,0.0,-0.136525065006,0.990636616841,0.25,0.15,0.0,1.0,0.0,0.0,1.0,2000000000,0,,,0
1449617842191317062,199,1449617842191006820,/odom,ga,2,2,0,1.62787868885,-0.111479941367,0.0,0.0,0.0,0.0,0.0,0.15,0.15,0.01,0.0,1.0,0.0,1.0,2000000000,0,,,0
1449617842287783766,200,1449617842287092570,/odom,ga,1,0,0,1.6521134241,-0.1297763564,0.0,0.0,0.0,-0.146895698665,0.989151987166,0.25,0.15,0.0,1.0,0.0,0.0,1.0,2000000000,0,,,0
1449617842287789934,201,1449617842287262866,/odom,ga,2,2,0,1.6521134241,-0.1297763564,0.0,0.0,0.0,0.0,0.0,0.15,0.15,0.01,0.0,1.0,0.0,1.0,2000000000,0,,,0
1449617842403736891,202,1449617842403590495,/odom,ga,1,0,0,1.67375620729,-0.132876878078,0.0,0.0,0.0,-0.146795106472,0.989166920553,0.25,0.15,0.0,1.0,0.0,0.0,1.0,2000000000,0,,,0
1449617842403904098,203,1449617842403719506,/odom,ga,2,2,0,1.67375620729,-0.132876878078,0.0,0.0,0.0,0.0,0.0,0.15,0.15,0.01,0.0,1.0,0.0,1.0,2000000000,0,,,0
1449617842524163181,204,1449617842524043520,/odom,ga,1,0,0,1.7091652425,-0.124289358234,0.0,0.0,0.0,-0.125701053456,0.992068165581,0.25,0.15,0.0,1.0,0.0,0.0,1.0,2000000000,0,,,0
1449617842525518077,205,1449617842524232651,/odom,ga,2,2,0,1.7091652425,-0.124289358234,0.0,0.0,0.0,0.0,0.0,0.15,0.15,0.01,0.0,1.0,0.0,1.0,2000000000,0,,,0
1449617842586591722,206,1449617842586356257,/odom,ga,1,0,0,1.64021979376,-0.105160621399,0.0,0.0,0.0,-0.116338900039,0.993209575235,0.25,0.15,0.0,1.0,0.0,0.0,1.0,2000000000,0,,,0
1449617842586602469,207,1449617842586501026,/odom,ga,2,2,0,1.64021979376,-0.105160621399,0.0,0.0,0.0,0.0,0.0,0.15,0.15,0.01,0.0,1.0,0.0,1.0,2000000000,0,,,0
1449617842683958278,208,1449617842683274460,/odom,ga,1,0,0,1.68772809198,-0.105022759748,0.0,0.0,0.0,-0.104865153454,0.99448645018,0.25,0.15,0.0,1.0,0.0,0.0,1.0,2000000000,0,,,0
1449617842683977861,209,1449617842683377115,/odom,ga,2,2,0,1.68772809198,-0.105022759748,0.0,0.0,0.0,0.0,0.0,0.15,0.15,0.01,0.0,1.0,0.0,1.0,2000000000,0,,,0
1449617842785502287,210,1449617842785279304,/odom,ga,1,0,0,1.74893753569,-0.110859751229,0.0,0.0,0.0,-0.094244574103,0.995549074758,0.25,0.15,0.0,1.0,0.0,0.0,1.0,2000000000,0,,,0
1449617842785549887,211,1449617842785438750,/odom,ga,2,2,0,1.74893753569,-0.110859751229,0.0,0.0,0.0,0.0,0.0,0.15,0.15,0.01,0.0,1.0,0.0,1.0,2000000000,0,,,0
1449617842883054308,212,1449617842882452436,/odom,ga,1,0,0,1.77846386323,-0.120921915039,0.0,0.0,0.0,-0.095881340876,0.995392770956,0.25,0.15,0.0,1.0,0.0,0.0,1.0,2000000000,0,,,0
1449617842883079318,213,1449617842882612552,/odom,ga,2,2,0,1.77846386323,-0.120921915039,0.0,0.0,0.0,0.0,0.0,0.15,0.15,0.01,0.0,1.0,0.0,1.0,2000000000,0,,,0
1449617842985579291,214,1449617842985375632,/odom,ga,1,0,0,1.80881543601,-0.129725712888,0.0,0.0,0.0,-0.0953576747373,0.995443074148,0.25,0.15,0.0,1.0,0.0,0.0,1.0,2000000000,0,,,0
1449617842985829295,215,1449617842985575848,/odom,ga,2,2,0,1.80881543601,-0.129725712888,0.0,0.0,0.0,0.0,0.0,0.15,0.15,0.01,0.0,1.0,0.0,1.0,2000000000,0,,,0
1449617843090085611,216,1449617843089547557,/odom,ga,1,0,0,1.82788248141,-0.139731415375,0.0,0.0,0.0,-0.0985083441752,0.99513622491,0.25,0.15,0.0,1.0,0.0,0.0,1.0,2000000000,0,,,0
1449617843090089193,217,1449617843089686900,/odom,ga,2,2,0,1.82788248141,-0.139731415375,0.0,0.0,0.0,0.0,0.0,0.15,0.15,0.01,0.0,1.0,0.0,1.0,2000000000,0,,,0
1449617843188016362,218,1449617843187894480,/odom,ga,1,0,0,1.80665168189,-0.133349706356,0.0,0.0,0.0,-0.0959878537845,0.995382505334,0.25,0.15,0.0,1.0,0.0,0.0,1.0,2000000000,0,,,0
1449617843188210556,219,1449617843188050773,/odom,ga,2,2,0,1.80665168189,-0.133349706356,0.0,0.0,0.0,0.0,0.0,0.15,0.15,0.01,0.0,1.0,0.0,1.0,2000000000,0,,,0
1449617843297265269,220,1449617843296930207,/odom,ga,1,0,0,1.83352211621,-0.146285734259,0.0,0.0,0.0,-0.100959163924,0.994890570475,0.25,0.15,0.0,1.0,0.0,0.0,1.0,2000000000,0,,,0
1449617843297268681,221,1449617843297149128,/odom,ga,2,2,0,1.83352211621,-0.146285734259,0.0,0.0,0.0,0.0,0.0,0.15,0.15,0.01,0.0,1.0,0.0,1.0,2000000000,0,,,0
1449617843390565815,222,1449617843387105363,/odom,ga,1,0,0,1.74480887092,-0.13479668269,0.0,0.0,0.0,-0.105970284981,0.994369296942,0.25,0.15,0.0,1.0,0.0,0.0,1.0,2000000000,0,,,0
1449617843390573197,223,1449617843387294709,/odom,ga,2,2,0,1.74480887092,-0.13479668269,0.0,0.0,0.0,0.0,0.0,0.15,0.15,0.01,0.0,1.0,0.0,1.0,2000000000,0,,,0
1449617843527071196,224,1449617843521467312,/odom,ga,1,0,0,1.69698951212,-0.130572824235,0.0,0.0,0.0,-0.111072201297,0.993812339478,0.25,0.15,0.0,1.0,0.0,0.0,1.0,2000000000,0,,,0
1449617843527096365,225,1449617843521663338,/odom,ga,2,2,0,1.69698951212,-0.130572824235,0.0,0.0,0.0,0.0,0.0,0.15,0.15,0.01,0.0,1.0,0.0,1.0,2000000000,0,,,0
1449617843593816466,226,1449617843590832960,/odom,ga,1,0,0,1.66029746156,-0.127764597586,0.0,0.0,0.0,-0.116184990685,0.993227591209,0.25,0.15,0.0,1.0,0.0,0.0,1.0,2000000000,0,,,0
1449617843593823825,227,1449617843591311403,/odom,ga,2,2,0,1.66029746156,-0.127764597586,0.0,0.0,0.0,0.0,0.0,0.15,0.15,0.01,0.0,1.0,0.0,1.0,2000000000,0,,,0
1449617843686070562,228,1449617843685560625,/odom,ga,1,0,0,1.66330537651,-0.12844650613,0.0,0.0,0.0,-0.116133744705,0.993233584481,0.25,0.15,0.0,1.0,0.0,0.0,1.0,2000000000,0,,,0
1449617843686075443,229,1449617843685676469,/odom,ga,2,2,0,1.66330537651,-0.12844650613,0.0,0.0,0.0,0.0,0.0,0.15,0.15,0.01,0.0,1.0,0.0,1.0,2000000000,0,,,0
1449617843798940567,230,1449617843798294840,/odom,ga,1,0,0,1.64013656019,-0.128006043598,0.0,0.0,0.0,-0.121306289017,0.992615123925,0.25,0.15,0.0,1.0,0.0,0.0,1.0,2000000000,0,,,0
1449617843798948355,231,1449617843798426988,/odom,ga,2,2,0,1.64013656019,-0.128006043598,0.0,0.0,0.0,0.0,0.0,0.15,0.15,0.01,0.0,1.0,0.0,1.0,2000000000,0,,,0
1449617843896028597,232,1449617843894449177,/odom,ga,1,0,0,1.6428661468,-0.133529547141,0.0,0.0,0.0,-0.126517267172,0.991964405161,0.25,0.15,0.0,1.0,0.0,0.0,1.0,2000000000,0,,,0
1449617843896034038,233,1449617843894604512,/odom,ga,2,2,0,1.6428661468,-0.133529547141,0.0,0.0,0.0,0.0,0.0,0.15,0.15,0.01,0.0,1.0,0.0,1.0,2000000000,0,,,0
1449617844021797964,234,1449617844020904959,/odom,ga,1,0,0,1.63850582768,-0.132361675472,0.0,0.0,0.0,-0.126505931783,0.991965850835,0.25,0.15,0.0,1.0,0.0,0.0,1.0,2000000000,0,,,0
1449617844021856408,235,1449617844021063495,/odom,ga,2,2,0,1.63850582768,-0.132361675472,0.0,0.0,0.0,0.0,0.0,0.15,0.15,0.01,0.0,1.0,0.0,1.0,2000000000,0,,,0
1449617844091569891,236,1449617844091037604,/odom,ga,1,0,0,1.77015090305,-0.17253010771,0.0,0.0,0.0,-0.131735220086,0.991284939757,0.25,0.15,0.0,1.0,0.0,0.0,1.0,2000000000,0,,,0
1449617844091983682,237,1449617844091263210,/odom,ga,2,2,0,1.77015090305,-0.17253010771,0.0,0.0,0.0,0.0,0.0,0.15,0.15,0.01,0.0,1.0,0.0,1.0,2000000000,0,,,0
1449617844194411593,238,1449617844192578323,/odom,ga,1,0,0,1.84109172151,-0.191719032209,0.0,0.0,0.0,-0.131729939635,0.99128564148,0.25,0.15,0.0,1.0,0.0,0.0,1.0,2000000000,0,,,0
1449617844194415411,239,1449617844193413364,/odom,ga,2,2,0,1.84109172151,-0.191719032209,0.0,0.0,0.0,0.0,0.0,0.15,0.15,0.01,0.0,1.0,0.0,1.0,2000000000,0,,,0
1449617844500914077,240,1449617844500554913,/odom,ga,1,0,0,3.01211377034,-0.528465639496,0.0,0.0,0.0,-0.136974144229,0.990574623041,0.25,0.15,0.0,1.0,0.0,0.0,1.0,2000000000,0,,,0
1449617844501240054,241,1449617844501018104,/odom,ga,2,2,0,3.01211377034,-0.528465639496,0.0,0.0,0.0,0.0,0.0,0.15,0.15,0.01,0.0,1.0,0.0,1.0,2000000000,0,,,0
1449617844604629951,242,1449617844604202488,/odom,ga,1,0,0,3.01166151062,-0.548024132379,0.0,0.0,0.0,-0.142205593977,0.989837142686,0.25,0.15,0.0,1.0,0.0,0.0,1.0,2000000000,0,,,0
1449617844604633854,243,1449617844604258113,/odom,ga,2,2,0,3.01166151062,-0.548024132379,0.0,0.0,0.0,0.0,0.0,0.15,0.15,0.01,0.0,1.0,0.0,1.0,2000000000,0,,,0
1449617844717503752,244,1449617844716938079,/odom,ga,1,0,0,2.7545546665,-0.472678563563,0.0,0.0,0.0,-0.142196866325,0.989838396511,0.25,0.15,0.0,1.0,0.0,0.0,1.0,2000000000,0,,,0
1449617844717528899,245,1449617844717189398,/odom,ga,2,2,0,2.7545546665,-0.472678563563,0.0,0.0,0.0,0.0,0.0,0.15,0.15,0.01,0.0,1.0,0.0,1.0,2000000000,0,,,0
1449617844903767070,246,1449617844903538592,/odom,ga,1,0,0,2.62167740502,-0.448789424846,0.0,0.0,0.0,-0.147420550942,0.989073900758,0.25,0.15,0.0,1.0,0.0,0.0,1.0,2000000000,0,,,0
1449617844905159910,247,1449617844903804641,/odom,ga,2,2,0,2.62167740502,-0.448789424846,0.0,0.0,0.0,0.0,0.0,0.15,0.15,0.01,0.0,1.0,0.0,1.0,2000000000,0,,,0
1449617844913393638,248,1449617844912971594,/odom,ga,1,0,0,1.79978699929,-0.203702466354,0.0,0.0,0.0,-0.15263984949,0.988281881018,0.25,0.15,0.0,1.0,0.0,0.0,1.0,2000000000,0,,,0
1449617844913422522,249,1449617844913074669,/odom,ga,2,2,0,1.79978699929,-0.203702466354,0.0,0.0,0.0,0.0,0.0,0.15,0.15,0.01,0.0,1.0,0.0,1.0,2000000000,0,,,0
1449617845012521103,250,1449617845012275942,/odom,ga,1,0,0,1.77254637158,-0.195081687232,0.0,0.0,0.0,-0.152638743734,0.988282051801,0.25,0.15,0.0,1.0,0.0,0.0,1.0,2000000000,0,,,0
1449617845012524432,251,1449617845012345805,/odom,ga,2,2,0,1.77254637158,-0.195081687232,0.0,0.0,0.0,0.0,0.0,0.15,0.15,0.01,0.0,1.0,0.0,1.0,2000000000,0,,,0
1449617845131389665,252,1449617845131255919,/odom,ga,1,0,0,1.76619560477,-0.193103731919,0.0,0.0,0.0,-0.152638344002,0.988282113539,0.25,0.15,0.0,1.0,0.0,0.0,1.0,2000000000,0,,,0
1449617845131962618,253,1449617845131410958,/odom,ga,2,2,0,1.76619560477,-0.193103731919,0.0,0.0,0.0,0.0,0.0,0.15,0.15,0.01,0.0,1.0,0.0,1.0,2000000000,0,,,0
1449617845218768511,254,1449617845218168453,/odom,ga,1,0,0,1.75950201916,-0.195744092207,0.0,0.0,0.0,-0.157857838559,0.987461848785,0.25,0.15,0.0,1.0,0.0,0.0,1.0,2000000000,0,,,0
1449617845218776702,255,1449617845218312015,/odom,ga,2,2,0,1.75950201916,-0.195744092207,0.0,0.0,0.0,0.0,0.0,0.15,0.15,0.01,0.0,1.0,0.0,1.0,2000000000,0,,,0
1449617845343949775,256,1449617845343099764,/odom,ga,1,0,0,1.75958451391,-0.195771130429,0.0,0.0,0.0,-0.157857781205,0.987461857953,0.25,0.15,0.0,1.0,0.0,0.0,1.0,2000000000,0,,,0
1449617845343956430,257,1449617845343273956,/odom,ga,2,2,0,1.75958451391,-0.195771130429,0.0,0.0,0.0,0.0,0.0,0.15,0.15,0.01,0.0,1.0,0.0,1.0,2000000000,0,,,0
1449617845411758123,258,1449617845409924465,/odom,ga,1,0,0,1.76639752576,-0.202686520915,0.0,0.0,0.0,-0.163073285902,0.986613958661,0.25,0.15,0.0,1.0,0.0,0.0,1.0,2000000000,0,,,0
1449617845411761237,259,1449617845410111165,/odom,ga,2,2,0,1.76639752576,-0.202686520915,0.0,0.0,0.0,0.0,0.0,0.15,0.15,0.01,0.0,1.0,0.0,1.0,2000000000,0,,,0
1449617845524852700,260,1449617845524182583,/odom,ga,1,0,0,1.76813781051,-0.203245811128,0.0,0.0,0.0,-0.163073258974,0.986613963112,0.25,0.15,0.0,1.0,0.0,0.0,1.0,2000000000,0,,,0
1449617845525461139,261,1449617845524511732,/odom,ga,2,2,0,1.76813781051,-0.203245811128,0.0,0.0,0.0,0.0,0.0,0.15,0.15,0.01,0.0,1.0,0.0,1.0,2000000000,0,,,0
1449617845670325465,262,1449617845666053814,/odom,ga,1,0,0,1.76974816476,-0.203760943459,0.0,0.0,0.0,-0.163073231107,0.986613967718,0.25,0.15,0.0,1.0,0.0,0.0,1.0,2000000000,0,,,0
1449617845670335232,263,1449617845666611283,/odom,ga,2,2,0,1.76974816476,-0.203760943459,0.0,0.0,0.0,0.0,0.0,0.15,0.15,0.01,0.0,1.0,0.0,1.0,2000000000,0,,,0
1449617845954040640,264,1449617845951675597,/odom,ga,1,0,0,2.6566042463,-0.520184736449,0.0,0.0,0.0,-0.168284253471,0.985738509968,0.25,0.15,0.0,1.0,0.0,0.0,1.0,2000000000,0,,,0
1449617845954044111,265,1449617845951883899,/odom,ga,2,2,0,2.6566042463,-0.520184736449,0.0,0.0,0.0,0.0,0.0,0.15,0.15,0.01,0.0,1.0,0.0,1.0,2000000000,0,,,0
1449617846177124680,266,1449617846176210753,/odom,ga,1,0,0,2.65967942638,-0.521201712622,0.0,0.0,0.0,-0.168284250035,0.985738510554,0.25,0.15,0.0,1.0,0.0,0.0,1.0,2000000000,0,,,0
1449617846177131215,267,1449617846176286449,/odom,ga,2,2,0,2.65967942638,-0.521201712622,0.0,0.0,0.0,0.0,0.0,0.15,0.15,0.01,0.0,1.0,0.0,1.0,2000000000,0,,,0
1449617846322740655,268,1449617846322143981,/odom,ga,1,0,0,2.64899153669,-0.51750742446,0.0,0.0,0.0,-0.168284244449,0.985738511508,0.25,0.15,0.0,1.0,0.0,0.0,1.0,2000000000,0,,,0
1449617846322745096,269,1449617846322250517,/odom,ga,2,2,0,2.64899153669,-0.51750742446,0.0,0.0,0.0,0.0,0.0,0.15,0.15,0.01,0.0,1.0,0.0,1.0,2000000000,0,,,0
1449617846513245407,270,1449617846512424133,/odom,ga,1,0,0,2.62227992525,-0.522480262596,0.0,0.0,0.0,-0.173490527842,0.98483553792,0.25,0.15,0.0,1.0,0.0,0.0,1.0,2000000000,0,,,0
1449617846513248575,271,1449617846512494009,/odom,ga,2,2,0,2.62227992525,-0.522480262596,0.0,0.0,0.0,0.0,0.0,0.15,0.15,0.01,0.0,1.0,0.0,1.0,2000000000,0,,,0
1449617846770530213,272,1449617846769973013,/odom,ga,1,0,0,2.60667421731,-0.516805897909,0.0,0.0,0.0,-0.173490521202,0.984835539089,0.25,0.15,0.0,1.0,0.0,0.0,1.0,2000000000,0,,,0
1449617846772436875,273,1449617846770529718,/odom,ga,2,2,0,2.60667421731,-0.516805897909,0.0,0.0,0.0,0.0,0.0,0.15,0.15,0.01,0.0,1.0,0.0,1.0,2000000000,0,,,0
1449617846907338761,274,1449617846906511394,/odom,ga,1,0,0,2.61080478209,-0.532355221227,0.0,0.0,0.0,-0.178691968385,0.98390506678,0.25,0.15,0.0,1.0,0.0,0.0,1.0,2000000000,0,,,0
1449617846907343495,275,1449617846906663916,/odom,ga,2,2,0,2.61080478209,-0.532355221227,0.0,0.0,0.0,0.0,0.0,0.15,0.15,0.01,0.0,1.0,0.0,1.0,2000000000,0,,,0
1449617847133941841,276,1449617847132417740,/odom,ga,1,0,0,2.57824805893,-0.520093754746,0.0,0.0,0.0,-0.178691956067,0.983905069017,0.25,0.15,0.0,1.0,0.0,0.0,1.0,2000000000,0,,,0
1449617847133956746,277,1449617847132572087,/odom,ga,2,2,0,2.57824805893,-0.520093754746,0.0,0.0,0.0,0.0,0.0,0.15,0.15,0.01,0.0,1.0,0.0,1.0,2000000000,0,,,0
1449617847351869660,278,1449617847351072623,/odom,ga,1,0,0,2.56672106001,-0.529193658065,0.0,0.0,0.0,-0.18388841227,0.982947125655,0.25,0.15,0.0,1.0,0.0,0.0,1.0,2000000000,0,,,0
1449617847351873005,279,1449617847351226630,/odom,ga,2,2,0,2.56672106001,-0.529193658065,0.0,0.0,0.0,0.0,0.0,0.15,0.15,0.01,0.0,1.0,0.0,1.0,2000000000,0,,,0
1449617847603237172,280,1449617847603105403,/odom,ga,1,0,0,2.57412051938,-0.518640891183,0.0,0.0,0.0,-0.178691950912,0.983905069953,0.25,0.15,0.0,1.0,0.0,0.0,1.0,2000000000,0,,,0
1449617847603832520,281,1449617847603259763,/odom,ga,2,2,0,2.57412051938,-0.518640891183,0.0,0.0,0.0,0.0,0.0,0.15,0.15,0.01,0.0,1.0,0.0,1.0,2000000000,0,,,0
1449617847808596350,282,1449617847808304764,/odom,ga,1,0,0,2.56790478548,-0.529587335172,0.0,0.0,0.0,-0.1838884095,0.982947126173,0.25,0.15,0.0,1.0,0.0,0.0,1.0,2000000000,0,,,0
1449617847808660985,283,1449617847808479925,/odom,ga,2,2,0,2.56790478548,-0.529587335172,0.0,0.0,0.0,0.0,0.0,0.15,0.15,0.01,0.0,1.0,0.0,1.0,2000000000,0,,,0
1449617848010351498,284,1449617848009360999,/odom,ga,1,0,0,2.55425777698,-0.524296016463,0.0,0.0,0.0,-0.183888406617,0.982947126712,0.25,0.15,0.0,1.0,0.0,0.0,1.0,2000000000,0,,,0
1449617848010360791,285,1449617848009422701,/odom,ga,2,2,0,2.55425777698,-0.524296016463,0.0,0.0,0.0,0.0,0.0,0.15,0.15,0.01,0.0,1.0,0.0,1.0,2000000000,0,,,0
1449617848306761555,286,1449617848305759525,/odom,ga,1,0,0,2.55662961004,-0.525248279254,0.0,0.0,0.0,-0.183888405255,0.982947126967,0.25,0.15,0.0,1.0,0.0,0.0,1.0,2000000000,0,,,0
1449617848306765797,287,1449617848305828049,/odom,ga,2,2,0,2.55662961004,-0.525248279254,0.0,0.0,0.0,0.0,0.0,0.15,0.15,0.01,0.0,1.0,0.0,1.0,2000000000,0,,,0
1449617848511216250,288,1449617848510392425,/odom,ga,1,0,0,2.55505396841,-0.524637359379,0.0,0.0,0.0,-0.183888404536,0.982947127102,0.25,0.15,0.0,1.0,0.0,0.0,1.0,2000000000,0,,,0
1449617848511224423,289,1449617848510459874,/odom,ga,2,2,0,2.55505396841,-0.524637359379,0.0,0.0,0.0,0.0,0.0,0.15,0.15,0.01,0.0,1.0,0.0,1.0,2000000000,0,,,0
1449617848804451464,290,1449617848801144971,/odom,ga,1,0,0,2.55209423848,-0.52348979016,0.0,0.0,0.0,-0.183888403186,0.982947127354,0.25,0.15,0.0,1.0,0.0,0.0,1.0,2000000000,0,,,0
1449617848804491637,291,1449617848801254952,/odom,ga,2,2,0,2.55209423848,-0.52348979016,0.0,0.0,0.0,0.0,0.0,0.15,0.15,0.01,0.0,1.0,0.0,1.0,2000000000,0,,,0
1449617848994376108,292,1449617848993676378,/odom,ga,1,0,0,2.60320909471,-0.543308403706,0.0,0.0,0.0,-0.183888402659,0.982947127453,0.25,0.15,0.0,1.0,0.0,0.0,1.0,2000000000,0,,,0
1449617848994384550,293,1449617848993789781,/odom,ga,2,2,0,2.60320909471,-0.543308403706,0.0,0.0,0.0,0.0,0.0,0.15,0.15,0.01,0.0,1.0,0.0,1.0,2000000000,0,,,0
1449617849254836814,294,1449617849254047127,/odom,ga,1,0,0,2.6662833435,-0.567763997463,0.0,0.0,0.0,-0.183888402032,0.98294712757,0.25,0.15,0.0,1.0,0.0,0.0,1.0,2000000000,0,,,0
1449617849254841385,295,1449617849254137360,/odom,ga,2,2,0,2.6662833435,-0.567763997463,0.0,0.0,0.0,0.0,0.0,0.15,0.15,0.01,0.0,1.0,0.0,1.0,2000000000,0,,,0
1449617849478363186,296,1449617849477367911,/odom,ga,1,0,0,2.72522155534,-0.588400232444,0.0,0.0,0.0,-0.182417167851,0.983221224788,0.25,0.15,0.0,1.0,0.0,0.0,1.0,2000000000,0,,,0
1449617849478367493,297,1449617849477446349,/odom,ga,2,2,0,2.72522155534,-0.588400232444,0.0,0.0,0.0,0.0,0.0,0.15,0.15,0.01,0.0,1.0,0.0,1.0,2000000000,0,,,0
1449617849687365291,298,1449617849686348800,/odom,ga,1,0,0,2.78416206196,-0.61956611939,0.0,0.0,0.0,-0.182874261907,0.983136310148,0.25,0.15,0.0,1.0,0.0,0.0,1.0,2000000000,0,,,0
1449617849687378617,299,1449617849686534019,/odom,ga,2,2,0,2.78416206196,-0.61956611939,0.0,0.0,0.0,0.0,0.0,0.15,0.15,0.01,0.0,1.0,0.0,1.0,2000000000,0,,,0
1449617849859092298,300,1449617849858138369,/odom,ga,1,0,0,2.90258595357,-0.418281516663,0.0,0.0,0.0,-0.0297902603963,0.999556171701,0.25,0.15,0.0,1.0,0.0,0.0,1.0,2000000000,0,,,0
1449617849859095779,301,1449617849858274498,/odom,ga,2,2,0,2.90258595357,-0.418281516663,0.0,0.0,0.0,0.0,0.0,0.15,0.15,0.01,0.0,1.0,0.0,1.0,2000000000,0,,,0
1449617850020765337,302,1449617850019024749,/odom,ga,1,0,0,2.99293606114,-0.0870417068956,0.0,0.0,0.0,0.190491733615,0.981688799684,0.25,0.15,0.0,1.0,0.0,0.0,1.0,2000000000,0,,,0
1449617850020777840,303,1449617850019144888,/odom,ga,2,2,0,2.99293606114,-0.0870417068956,0.0,0.0,0.0,0.0,0.0,0.15,0.15,0.01,0.0,1.0,0.0,1.0,2000000000,0,,,0
1449617850227899919,304,1449617850227074992,/odom,ga,1,0,0,2.98606246674,0.137421917854,0.0,0.0,0.0,0.328504120661,0.944502537164,0.25,0.15,0.0,1.0,0.0,0.0,1.0,2000000000,0,,,0
1449617850227903110,305,1449617850227161528,/odom,ga,2,2,0,2.98606246674,0.137421917854,0.0,0.0,0.0,0.0,0.0,0.15,0.15,0.01,0.0,1.0,0.0,1.0,2000000000,0,,,0
1449617850478035425,306,1449617850477627575,/odom,ga,1,0,0,2.96642990863,0.254848709974,0.0,0.0,0.0,0.39518192108,0.91860287897,0.25,0.15,0.0,1.0,0.0,0.0,1.0,2000000000,0,,,0
1449617850478271186,307,1449617850477711908,/odom,ga,2,2,0,2.96642990863,0.254848709974,0.0,0.0,0.0,0.0,0.0,0.15,0.15,0.01,0.0,1.0,0.0,1.0,2000000000,0,,,0
1449617850660193060,308,1449617850656956139,/odom,ga,1,0,0,2.96078308672,0.283890184455,0.0,0.0,0.0,0.412302985468,0.911046787039,0.25,0.15,0.0,1.0,0.0,0.0,1.0,2000000000,0,,,0
1449617850660196048,309,1449617850657194074,/odom,ga,2,2,0,2.96078308672,0.283890184455,0.0,0.0,0.0,0.0,0.0,0.15,0.15,0.01,0.0,1.0,0.0,1.0,2000000000,0,,,0
1449617850672132671,310,1449617850671520119,/odom,ga,1,0,0,2.07280164534,-0.156623362291,0.0,0.0,0.0,0.0808367120427,0.9967273579,0.25,0.15,0.0,1.0,0.0,0.0,1.0,2000000000,0,,,0
1449617850672139264,311,1449617850671725346,/odom,ga,2,2,0,2.07280164534,-0.156623362291,0.0,0.0,0.0,0.0,0.0,0.15,0.15,0.01,0.0,1.0,0.0,1.0,2000000000,0,,,0
1449617850693721793,312,1449617850692948679,/odom,ga,1,0,0,2.10840517388,-0.108421215692,0.0,0.0,0.0,0.155131519194,0.987893826154,0.25,0.15,0.0,1.0,0.0,0.0,1.0,2000000000,0,,,0
1449617850693736877,313,1449617850693199078,/odom,ga,2,2,0,2.10840517388,-0.108421215692,0.0,0.0,0.0,0.0,0.0,0.15,0.15,0.01,0.0,1.0,0.0,1.0,2000000000,0,,,0
1449617850810596326,314,1449617850809637280,/odom,ga,1,0,0,2.11301490659,-0.098916286757,0.0,0.0,0.0,0.168794968539,0.985651185053,0.25,0.15,0.0,1.0,0.0,0.0,1.0,2000000000,0,,,0
1449617850810603441,315,1449617850809766215,/odom,ga,2,2,0,2.11301490659,-0.098916286757,0.0,0.0,0.0,0.0,0.0,0.15,0.15,0.01,0.0,1.0,0.0,1.0,2000000000,0,,,0
1449617850907121681,316,1449617850902786666,/odom,ga,1,0,0,2.11813630783,-0.0876512458786,0.0,0.0,0.0,0.184697840291,0.982795353973,0.25,0.15,0.0,1.0,0.0,0.0,1.0,2000000000,0,,,0
1449617850907234084,317,1449617850903259322,/odom,ga,2,2,0,2.11813630783,-0.0876512458786,0.0,0.0,0.0,0.0,0.0,0.15,0.15,0.01,0.0,1.0,0.0,1.0,2000000000,0,,,0
1449617851319057424,318,1449617851318797819,/odom,ga,1,0,0,2.64015174214,0.814730061949,0.0,0.0,0.0,0.73274738602,0.680500748185,0.25,0.15,0.0,1.0,0.0,0.0,1.0,2000000000,0,,,0
1449617851319139126,319,1449617851318962003,/odom,ga,2,2,0,2.64015174214,0.814730061949,0.0,0.0,0.0,0.0,0.0,0.15,0.15,0.01,0.0,1.0,0.0,1.0,2000000000,0,,,0
1449617851328359273,320,1449617851327932393,/odom,ga,1,0,0,2.1534566305,-0.0804074387344,0.0,0.0,0.0,0.200086108397,0.979778316369,0.25,0.15,0.0,1.0,0.0,0.0,1.0,2000000000,0,,,0
1449617851328361966,321,1449617851328011597,/odom,ga,2,2,0,2.1534566305,-0.0804074387344,0.0,0.0,0.0,0.0,0.0,0.15,0.15,0.01,0.0,1.0,0.0,1.0,2000000000,0,,,0
1449617851434402206,322,1449617851434079575,/odom,ga,1,0,0,2.16609570754,-0.0748879135761,0.0,0.0,0.0,0.20655633889,0.978434708534,0.25,0.15,0.0,1.0,0.0,0.0,1.0,2000000000,0,,,0
1449617851434419209,323,1449617851434171992,/odom,ga,2,2,0,2.16609570754,-0.0748879135761,0.0,0.0,0.0,0.0,0.0,0.15,0.15,0.01,0.0,1.0,0.0,1.0,2000000000,0,,,0
1449617851528519003,324,1449617851527941483,/odom,ga,1,0,0,2.17917147615,-0.072748899193,0.0,0.0,0.0,0.211723504033,0.977329605527,0.25,0.15,0.0,1.0,0.0,0.0,1.0,2000000000,0,,,0
1449617851528523306,325,1449617851528161960,/odom,ga,2,2,0,2.17917147615,-0.072748899193,0.0,0.0,0.0,0.0,0.0,0.15,0.15,0.01,0.0,1.0,0.0,1.0,2000000000,0,,,0
1449617851627455341,326,1449617851627134887,/odom,ga,1,0,0,2.18920696984,-0.0720728962801,0.0,0.0,0.0,0.214990513626,0.976616137001,0.25,0.15,0.0,1.0,0.0,0.0,1.0,2000000000,0,,,0
1449617851627769747,327,1449617851627365271,/odom,ga,2,2,0,2.18920696984,-0.0720728962801,0.0,0.0,0.0,0.0,0.0,0.15,0.15,0.01,0.0,1.0,0.0,1.0,2000000000,0,,,0
1449617851896552523,328,1449617851896378466,/odom,ga,1,0,0,3.35232002287,0.302017846614,0.0,0.0,0.0,0.364077572529,0.931368627978,0.25,0.15,0.0,1.0,0.0,0.0,1.0,2000000000,0,,,0
1449617851896727778,329,1449617851896568431,/odom,ga,2,2,0,3.35232002287,0.302017846614,0.0,0.0,0.0,0.0,0.0,0.15,0.15,0.01,0.0,1.0,0.0,1.0,2000000000,0,,,0
1449617852149540695,330,1449617852148608463,/odom,ga,1,0,0,3.41794910115,0.282776832242,0.0,0.0,0.0,0.343900789064,0.939005988949,0.25,0.15,0.0,1.0,0.0,0.0,1.0,2000000000,0,,,0
1449617852149544890,331,1449617852148697613,/odom,ga,2,2,0,3.41794910115,0.282776832242,0.0,0.0,0.0,0.0,0.0,0.15,0.15,0.01,0.0,1.0,0.0,1.0,2000000000,0,,,0
1449617852402538419,332,1449617852400847940,/odom,ga,1,0,0,3.48780516111,0.249039317581,0.0,0.0,0.0,0.321111249146,0.947041480439,0.25,0.15,0.0,1.0,0.0,0.0,1.0,2000000000,0,,,0
1449617852402542294,333,1449617852401218115,/odom,ga,2,2,0,3.48780516111,0.249039317581,0.0,0.0,0.0,0.0,0.0,0.15,0.15,0.01,0.0,1.0,0.0,1.0,2000000000,0,,,0
1449617852593355133,334,1449617852592110746,/odom,ga,1,0,0,3.54036445722,0.2188725936,0.0,0.0,0.0,0.297907744049,0.954594665832,0.25,0.15,0.0,1.0,0.0,0.0,1.0,2000000000,0,,,0
1449617852593361236,335,1449617852592378384,/odom,ga,2,2,0,3.54036445722,0.2188725936,0.0,0.0,0.0,0.0,0.0,0.15,0.15,0.01,0.0,1.0,0.0,1.0,2000000000,0,,,0
1449617852841238689,336,1449617852840397918,/odom,ga,1,0,0,3.59643438057,0.174929780231,0.0,0.0,0.0,0.261236970893,0.965274699264,0.25,0.15,0.0,1.0,0.0,0.0,1.0,2000000000,0,,,0
1449617852841263679,337,1449617852840560819,/odom,ga,2,2,0,3.59643438057,0.174929780231,0.0,0.0,0.0,0.0,0.0,0.15,0.15,0.01,0.0,1.0,0.0,1.0,2000000000,0,,,0
1449617853089580233,338,1449617853089317077,/odom,ga,1,0,0,3.57225268046,0.126174865511,0.0,0.0,0.0,0.23009917663,0.973167184462,0.25,0.15,0.0,1.0,0.0,0.0,1.0,2000000000,0,,,0
1449617853089848681,339,1449617853089556864,/odom,ga,2,2,0,3.57225268046,0.126174865511,0.0,0.0,0.0,0.0,0.0,0.15,0.15,0.01,0.0,1.0,0.0,1.0,2000000000,0,,,0
1449617853446931410,340,1449617853446272195,/odom,ga,1,0,0,3.60110569196,0.182044812396,0.0,0.0,0.0,0.236993564652,0.97151121986,0.25,0.15,0.0,1.0,0.0,0.0,1.0,2000000000,0,,,0
1449617853447358598,341,1449617853447010063,/odom,ga,2,2,0,3.60110569196,0.182044812396,0.0,0.0,0.0,0.0,0.0,0.15,0.15,0.01,0.0,1.0,0.0,1.0,2000000000,0,,,0
1449617853653755584,342,1449617853649625844,/odom,ga,1,0,0,3.48816681802,0.26730511617,0.0,0.0,0.0,0.256576292285,0.966523981201,0.25,0.15,0.0,1.0,0.0,0.0,1.0,2000000000,0,,,0
1449617853653760613,343,1449617853649788711,/odom,ga,2,2,0,3.48816681802,0.26730511617,0.0,0.0,0.0,0.0,0.0,0.15,0.15,0.01,0.0,1.0,0.0,1.0,2000000000,0,,,0
1449617853875428581,344,1449617853875179178,/odom,ga,1,0,0,3.5205567089,0.343918286812,0.0,0.0,0.0,0.269450668042,0.963014193816,0.25,0.15,0.0,1.0,0.0,0.0,1.0,2000000000,0,,,0
1449617853876312129,345,1449617853875493394,/odom,ga,2,2,0,3.5205567089,0.343918286812,0.0,0.0,0.0,0.0,0.0,0.15,0.15,0.01,0.0,1.0,0.0,1.0,2000000000,0,,,0
1449617853889228238,346,1449617853886105649,/odom,ga,1,0,0,2.59773186604,-0.0162529598151,0.0,0.0,0.0,0.163842576377,0.986486497711,0.25,0.15,0.0,1.0,0.0,0.0,1.0,2000000000,0,,,0
1449617853889238305,347,1449617853886227212,/odom,ga,2,2,0,2.59773186604,-0.0162529598151,0.0,0.0,0.0,0.0,0.0,0.15,0.15,0.01,0.0,1.0,0.0,1.0,2000000000,0,,,0
1449617853993058304,348,1449617853992157468,/odom,ga,1,0,0,2.03354614713,-0.165896170186,0.0,0.0,0.0,0.0739088866573,0.997264998119,0.25,0.15,0.0,1.0,0.0,0.0,1.0,2000000000,0,,,0
1449617853993062802,349,1449617853992428259,/odom,ga,2,2,0,2.03354614713,-0.165896170186,0.0,0.0,0.0,0.0,0.0,0.15,0.15,0.01,0.0,1.0,0.0,1.0,2000000000,0,,,0
1449617854102268234,350,1449617854101216589,/odom,ga,1,0,0,2.06136990219,-0.157767479499,0.0,0.0,0.0,0.0949690991753,0.995480220899,0.25,0.15,0.0,1.0,0.0,0.0,1.0,2000000000,0,,,0
1449617854102279912,351,1449617854101551495,/odom,ga,2,2,0,2.06136990219,-0.157767479499,0.0,0.0,0.0,0.0,0.0,0.15,0.15,0.01,0.0,1.0,0.0,1.0,2000000000,0,,,0
1449617854198215815,352,1449617854188753527,/odom,ga,1,0,0,2.09760561511,-0.148398341543,0.0,0.0,0.0,0.10548388359,0.994421012601,0.25,0.15,0.0,1.0,0.0,0.0,1.0,2000000000,0,,,0
1449617854198278966,353,1449617854188960906,/odom,ga,2,2,0,2.09760561511,-0.148398341543,0.0,0.0,0.0,0.0,0.0,0.15,0.15,0.01,0.0,1.0,0.0,1.0,2000000000,0,,,0
1449617854288096296,354,1449617854286823430,/odom,ga,1,0,0,2.26393561028,-0.0992124172034,0.0,0.0,0.0,0.131716738444,0.99128739567,0.25,0.15,0.0,1.0,0.0,0.0,1.0,2000000000,0,,,0
1449617854288100808,355,1449617854287372850,/odom,ga,2,2,0,2.26393561028,-0.0992124172034,0.0,0.0,0.0,0.0,0.0,0.15,0.15,0.01,0.0,1.0,0.0,1.0,2000000000,0,,,0
1449617854381625635,356,1449617854380498999,/odom,ga,1,0,0,2.34502351549,-0.0739581547485,0.0,0.0,0.0,0.136952861975,0.990577565664,0.25,0.15,0.0,1.0,0.0,0.0,1.0,2000000000,0,,,0
1449617854381653451,357,1449617854380642593,/odom,ga,2,2,0,2.34502351549,-0.0739581547485,0.0,0.0,0.0,0.0,0.0,0.15,0.15,0.01,0.0,1.0,0.0,1.0,2000000000,0,,,0
1449617854491532400,358,1449617854490470363,/odom,ga,1,0,0,2.55275370952,-0.0042204952432,0.0,0.0,0.0,0.147413491427,0.989074952946,0.25,0.15,0.0,1.0,0.0,0.0,1.0,2000000000,0,,,0
1449617854491536840,359,1449617854490791243,/odom,ga,2,2,0,2.55275370952,-0.0042204952432,0.0,0.0,0.0,0.0,0.0,0.15,0.15,0.01,0.0,1.0,0.0,1.0,2000000000,0,,,0
1449617854588863381,360,1449617854588668355,/odom,ga,1,0,0,2.63376081937,0.0332979661363,0.0,0.0,0.0,0.157857657354,0.987461877753,0.25,0.15,0.0,1.0,0.0,0.0,1.0,2000000000,0,,,0
1449617854589004036,361,1449617854588862013,/odom,ga,2,2,0,2.63376081937,0.0332979661363,0.0,0.0,0.0,0.0,0.0,0.15,0.15,0.01,0.0,1.0,0.0,1.0,2000000000,0,,,0
1449617854704104074,362,1449617854703444455,/odom,ga,1,0,0,2.7217957774,0.076744755154,0.0,0.0,0.0,0.168284193326,0.985738520236,0.25,0.15,0.0,1.0,0.0,0.0,1.0,2000000000,0,,,0
1449617854704112480,363,1449617854703557930,/odom,ga,2,2,0,2.7217957774,0.076744755154,0.0,0.0,0.0,0.0,0.0,0.15,0.15,0.01,0.0,1.0,0.0,1.0,2000000000,0,,,0
1449617854789115015,364,1449617854786199262,/odom,ga,1,0,0,2.78579844972,0.107167651169,0.0,0.0,0.0,0.173490486104,0.984835545272,0.25,0.15,0.0,1.0,0.0,0.0,1.0,2000000000,0,,,0
1449617854789150479,365,1449617854786476835,/odom,ga,2,2,0,2.78579844972,0.107167651169,0.0,0.0,0.0,0.0,0.0,0.15,0.15,0.01,0.0,1.0,0.0,1.0,2000000000,0,,,0
1449617854882119517,366,1449617854881177961,/odom,ga,1,0,0,2.79523058489,0.126479285088,0.0,0.0,0.0,0.183888394426,0.982947128993,0.25,0.15,0.0,1.0,0.0,0.0,1.0,2000000000,0,,,0
1449617854882124263,367,1449617854881351859,/odom,ga,2,2,0,2.79523058489,0.126479285088,0.0,0.0,0.0,0.0,0.0,0.15,0.15,0.01,0.0,1.0,0.0,1.0,2000000000,0,,,0
1449617855010054589,368,1449617855009719777,/odom,ga,1,0,0,2.83649832136,0.148200569469,0.0,0.0,0.0,0.18602314223,0.982545363103,0.25,0.15,0.0,1.0,0.0,0.0,1.0,2000000000,0,,,0
