%time,field.x,field.y,field.z
1449617826245550689,6.0,6.0,0.0
1449617826278949943,6.0,6.0,0.0
1449617826312278747,6.0,6.0,0.0
1449617826345560587,6.0,6.0,0.0
1449617826378950135,6.0,6.0,0.0
1449617826412223410,6.0,6.0,0.0
1449617826445660085,6.0,6.0,0.0
1449617826478957849,6.0,6.0,0.0
1449617826512244132,6.0,6.0,0.0
1449617826545599480,6.0,6.0,0.0
1449617826578949177,6.0,6.0,0.0
1449617826612249233,6.0,6.0,0.0
1449617826645543739,6.0,6.0,0.0
1449617826678919797,6.0,6.0,0.0
1449617826712243326,6.0,6.0,0.0
1449617826745613161,6.0,6.0,0.0
1449617826778882094,6.0,6.0,0.0
1449617826812285605,6.0,6.0,0.0
1449617826845704999,6.0,6.0,0.0
1449617826879019166,6.0,6.0,0.0
1449617826912228261,6.0,6.0,0.0
1449617826945663543,6.0,6.0,0.0
1449617826978951760,6.0,6.0,0.0
1449617827012198430,6.0,6.0,0.0
1449617827045645911,6.0,6.0,0.0
1449617827078930745,6.0,6.0,0.0
1449617827112233504,6.0,6.0,0.0
1449617827145608361,6.0,6.0,0.0
1449617827178908007,6.0,6.0,0.0
1449617827212223804,6.0,6.0,0.0
1449617827245556279,6.0,6.0,0.0
1449617827278917835,6.0,6.0,0.0
1449617827312181629,6.0,6.0,0.0
1449617827345548668,6.0,6.0,0.0
1449617827378925255,6.0,6.0,0.0
1449617827412226139,6.0,6.0,0.0
1449617827445545795,6.0,6.0,0.0
1449617827478890606,6.0,6.0,0.0
1449617827512263887,6.0,6.0,0.0
1449617827545625833,6.0,6.0,0.0
1449617827578901465,6.0,6.0,0.0
1449617827612253267,6.0,6.0,0.0
1449617827645576668,6.0,6.0,0.0
1449617827678893402,6.0,6.0,0.0
1449617827712215080,6.0,6.0,0.0
1449617827745626035,6.0,6.0,0.0
1449617827778923235,6.0,6.0,0.0
1449617827812277958,6.0,6.0,0.0
1449617827845644589,6.0,6.0,0.0
1449617827878894732,6.0,6.0,0.0
1449617827912360319,6.0,6.0,0.0
1449617827945850269,6.0,6.0,0.0
1449617827978946733,6.0,6.0,0.0
1449617828012342775,6.0,6.0,0.0
1449617828045602713,6.0,6.0,0.0
1449617828078900918,6.0,6.0,0.0
1449617828112247331,6.0,6.0,0.0
1449617828145612260,6.0,6.0,0.0
1449617828178941993,6.0,6.0,0.0
1449617828212250120,6.0,6.0,0.0
1449617828245580584,6.0,6.0,0.0
1449617828278950931,6.0,6.0,0.0
1449617828312244243,6.0,6.0,0.0
1449617828345565729,6.0,6.0,0.0
1449617828378931095,6.0,6.0,0.0
1449617828412262771,6.0,6.0,0.0
1449617828445753785,6.0,6.0,0.0
1449617828479014808,6.0,6.0,0.0
1449617828512201425,6.0,6.0,0.0
1449617828545522269,6.0,6.0,0.0
1449617828578883397,6.0,6.0,0.0
1449617828612274080,6.0,6.0,0.0
1449617828645583686,6.0,6.0,0.0
1449617828678943840,6.0,6.0,0.0
1449617828712222224,6.0,6.0,0.0
1449617828745536527,6.0,6.0,0.0
1449617828778940098,6.0,6.0,0.0
1449617828812251613,6.0,6.0,0.0
1449617828845605029,6.0,6.0,0.0
1449617828878901169,6.0,6.0,0.0
1449617828912247076,6.0,6.0,0.0
1449617828945609523,6.0,6.0,0.0
1449617828978979758,6.0,6.0,0.0
1449617829012238279,6.0,6.0,0.0
1449617829045535353,6.0,6.0,0.0
1449617829078975083,6.0,6.0,0.0
1449617829112231175,6.0,6.0,0.0
1449617829145645506,6.0,6.0,0.0
1449617829178949374,6.0,6.0,0.0
1449617829212277015,6.0,6.0,0.0
1449617829245611267,6.0,6.0,0.0
1449617829278933455,6.0,6.0,0.0
1449617829312285735,6.0,6.0,0.0
1449617829345534333,6.0,6.0,0.0
1449617829378924346,6.0,6.0,0.0
1449617829412244561,6.0,6.0,0.0
1449617829445626506,6.0,6.0,0.0
1449617829478852942,6.0,6.0,0.0
1449617829512312814,6.0,6.0,0.0
1449617829545614669,6.0,6.0,0.0
1449617829578916504,6.0,6.0,0.0
1449617829612352763,6.0,6.0,0.0
1449617829645642718,6.0,6.0,0.0
1449617829678924330,6.0,6.0,0.0
1449617829712240628,6.0,6.0,0.0
1449617829745588024,6.0,6.0,0.0
1449617829778883322,6.0,6.0,0.0
1449617829812234542,6.0,6.0,0.0
1449617829845710218,6.0,6.0,0.0
1449617829878920099,6.0,6.0,0.0
1449617829912330739,6.0,6.0,0.0
1449617829945747986,6.0,6.0,0.0
1449617829979156486,6.0,6.0,0.0
1449617830012326896,6.0,6.0,0.0
1449617830046157275,6.0,6.0,0.0
1449617830078935297,6.0,6.0,0.0
1449617830112481998,6.0,6.0,0.0
1449617830145649143,6.0,6.0,0.0
1449617830179179620,6.0,6.0,0.0
1449617830212464268,6.0,6.0,0.0
1449617830246119993,6.0,6.0,0.0
1449617830279128166,6.0,6.0,0.0
1449617830312844556,6.0,6.0,0.0
1449617830345690211,6.0,6.0,0.0
1449617830379084363,6.0,6.0,0.0
1449617830412411409,6.0,6.0,0.0
1449617830445885817,6.0,6.0,0.0
1449617830479288277,6.0,6.0,0.0
1449617830512645231,6.0,6.0,0.0
1449617830546309411,6.0,6.0,0.0
1449617830579311865,6.0,6.0,0.0
1449617830612654606,6.0,6.0,0.0
1449617830646690461,6.0,6.0,0.0
1449617830679129650,6.0,6.0,0.0
1449617830713826208,6.0,6.0,0.0
1449617830746563508,6.0,6.0,0.0
1449617830779446608,6.0,6.0,0.0
1449617830813306411,6.0,6.0,0.0
1449617830846857086,6.0,6.0,0.0
1449617830879175963,6.0,6.0,0.0
1449617830912710189,6.0,6.0,0.0
1449617830946126531,6.0,6.0,0.0
1449617830979277707,6.0,6.0,0.0
1449617831013205927,6.0,6.0,0.0
1449617831046141823,6.0,6.0,0.0
1449617831079048837,6.0,6.0,0.0
1449617831112798614,6.0,6.0,0.0
1449617831146594579,6.0,6.0,0.0
1449617831179257639,6.0,6.0,0.0
1449617831212704160,6.0,6.0,0.0
1449617831246189552,6.0,6.0,0.0
1449617831279163918,6.0,6.0,0.0
1449617831312770239,6.0,6.0,0.0
1449617831346270435,6.0,6.0,0.0
1449617831379110489,6.0,6.0,0.0
1449617831413002559,6.0,6.0,0.0
1449617831446452807,6.0,6.0,0.0
1449617831479337067,6.0,6.0,0.0
1449617831513574402,6.0,6.0,0.0
1449617831545848815,6.0,6.0,0.0
1449617831579729030,6.0,6.0,0.0
1449617831612595127,6.0,6.0,0.0
1449617831646179294,6.0,6.0,0.0
1449617831679598071,6.0,6.0,0.0
1449617831712455419,6.0,6.0,0.0
1449617831746047605,6.0,6.0,0.0
1449617831779549902,6.0,6.0,0.0
1449617831812461826,6.0,6.0,0.0
1449617831846161991,6.0,6.0,0.0
1449617831879350273,6.0,6.0,0.0
1449617831912598051,6.0,6.0,0.0
1449617831946463076,6.0,6.0,0.0
1449617831979739051,6.0,6.0,0.0
1449617832017930379,6.0,6.0,0.0
1449617832046082346,6.0,6.0,0.0
1449617832079334610,6.0,6.0,0.0
1449617832113934920,6.0,6.0,0.0
1449617832145986457,6.0,6.0,0.0
1449617832181287544,6.0,6.0,0.0
1449617832212769367,6.0,6.0,0.0
1449617832246108181,6.0,6.0,0.0
1449617832279261338,6.0,6.0,0.0
1449617832312339718,6.0,6.0,0.0
1449617832345787242,6.0,6.0,0.0
1449617832379171713,6.0,6.0,0.0
1449617832412484784,6.0,6.0,0.0
1449617832445868857,6.0,6.0,0.0
1449617832479263662,6.0,6.0,0.0
1449617832514441134,6.0,6.0,0.0
1449617832546193794,6.0,6.0,0.0
1449617832581517781,6.0,6.0,0.0
1449617832613069554,6.0,6.0,0.0
1449617832645838308,6.0,6.0,0.0
1449617832681452330,6.0,6.0,0.0
1449617832712645488,6.0,6.0,0.0
1449617832745728857,6.0,6.0,0.0
1449617832779783626,6.0,6.0,0.0
1449617832812669293,6.0,6.0,0.0
1449617832845911987,6.0,6.0,0.0
1449617832879198057,6.0,6.0,0.0
1449617832912572807,6.0,6.0,0.0
1449617832946099521,6.0,6.0,0.0
1449617832979321927,6.0,6.0,0.0
1449617833012551655,6.0,6.0,0.0
1449617833045927526,6.0,6.0,0.0
1449617833079766870,6.0,6.0,0.0
1449617833112569009,6.0,6.0,0.0
1449617833145994719,6.0,6.0,0.0
1449617833179561434,6.0,6.0,0.0
1449617833212556412,6.0,6.0,0.0
1449617833245950950,6.0,6.0,0.0
1449617833279183238,6.0,6.0,0.0
1449617833312855722,6.0,6.0,0.0
1449617833346193094,6.0,6.0,0.0
1449617833379659902,6.0,6.0,0.0
1449617833412812852,6.0,6.0,0.0
1449617833446083814,6.0,6.0,0.0
1449617833479037036,6.0,6.0,0.0
1449617833512541621,6.0,6.0,0.0
1449617833546136201,6.0,6.0,0.0
1449617833580017580,6.0,6.0,0.0
1449617833612978610,6.0,6.0,0.0
1449617833647501404,6.0,6.0,0.0
1449617833678983499,6.0,6.0,0.0
1449617833712853267,6.0,6.0,0.0
1449617833745601545,6.0,6.0,0.0
1449617833779214633,6.0,6.0,0.0
1449617833813685510,6.0,6.0,0.0
1449617833845971811,6.0,6.0,0.0
1449617833879278278,6.0,6.0,0.0
1449617833912409902,6.0,6.0,0.0
1449617833946832040,6.0,6.0,0.0
1449617833979102380,6.0,6.0,0.0
1449617834012355666,6.0,6.0,0.0
1449617834045696897,6.0,6.0,0.0
1449617834079059628,6.0,6.0,0.0
1449617834112505738,6.0,6.0,0.0
1449617834145879477,6.0,6.0,0.0
1449617834179316749,6.0,6.0,0.0
1449617834212771463,6.0,6.0,0.0
1449617834246189792,6.0,6.0,0.0
1449617834279219593,6.0,6.0,0.0
1449617834312286676,6.0,6.0,0.0
1449617834345852173,6.0,6.0,0.0
1449617834379576139,6.0,6.0,0.0
1449617834414500266,6.0,6.0,0.0
1449617834445960804,6.0,6.0,0.0
1449617834480815556,6.0,6.0,0.0
1449617834513240801,6.0,6.0,0.0
1449617834547343929,6.0,6.0,0.0
1449617834580425695,6.0,6.0,0.0
1449617834612380574,6.0,6.0,0.0
1449617834646797966,6.0,6.0,0.0
1449617834679112501,6.0,6.0,0.0
1449617834712746297,6.0,6.0,0.0
1449617834749670993,6.0,6.0,0.0
1449617834779098635,6.0,6.0,0.0
1449617834812304484,6.0,6.0,0.0
1449617834846344083,6.0,6.0,0.0
1449617834880135916,6.0,6.0,0.0
1449617834912803325,6.0,6.0,0.0
1449617834946158310,6.0,6.0,0.0
1449617834979831286,6.0,6.0,0.0
1449617835012966077,6.0,6.0,0.0
1449617835045882878,6.0,6.0,0.0
1449617835079491977,6.0,6.0,0.0
1449617835112581979,6.0,6.0,0.0
1449617835145915673,6.0,6.0,0.0
1449617835179750316,6.0,6.0,0.0
1449617835212491951,6.0,6.0,0.0
1449617835246290268,6.0,6.0,0.0
1449617835279851205,6.0,6.0,0.0
1449617835313444469,6.0,6.0,0.0
1449617835345714807,6.0,6.0,0.0
1449617835379712842,6.0,6.0,0.0
1449617835412506812,6.0,6.0,0.0
1449617835446500111,6.0,6.0,0.0
1449617835479280603,6.0,6.0,0.0
1449617835512544766,6.0,6.0,0.0
1449617835545690780,6.0,6.0,0.0
1449617835579053881,6.0,6.0,0.0
1449617835612756136,6.0,6.0,0.0
1449617835647106835,6.0,6.0,0.0
1449617835679815916,6.0,6.0,0.0
1449617835714244399,6.0,6.0,0.0
1449617835745958131,6.0,6.0,0.0
1449617835779606605,6.0,6.0,0.0
1449617835812510453,6.0,6.0,0.0
1449617835846898546,6.0,6.0,0.0
1449617835879354330,6.0,6.0,0.0
1449617835912776654,6.0,6.0,0.0
1449617835946591628,6.0,6.0,0.0
1449617835979050507,6.0,6.0,0.0
1449617836012585173,6.0,6.0,0.0
1449617836046118748,6.0,6.0,0.0
1449617836079141551,6.0,6.0,0.0
1449617836112721815,6.0,6.0,0.0
1449617836145930530,6.0,6.0,0.0
1449617836180749970,6.0,6.0,0.0
1449617836212756197,6.0,6.0,0.0
1449617836245851855,6.0,6.0,0.0
1449617836281812124,6.0,6.0,0.0
1449617836312654853,6.0,6.0,0.0
1449617836345762915,6.0,6.0,0.0
1449617836379212090,6.0,6.0,0.0
1449617836412382944,6.0,6.0,0.0
1449617836445888687,6.0,6.0,0.0
1449617836479000640,6.0,6.0,0.0
1449617836512564941,6.01773968356,6.0,0.0
1449617836546256574,6.01773968356,6.0,0.0
1449617836579139672,6.03547936713,6.0,0.0
1449617836612903110,6.03547936713,6.0,0.0
1449617836650143972,6.03547936713,6.0,0.0
1449617836678935926,6.03547936713,6.0,0.0
1449617836712589701,6.60968634979,6.01064285776,0.0
1449617836745922381,6.60968634979,6.01064285776,0.0
1449617836780319781,6.61952,6.01064285776,0.0
1449617836813115742,6.61952,6.01064285776,0.0
1449617836846101067,6.61952,6.01064285776,0.0
1449617836879077176,6.61952,6.01064285776,0.0
1449617836912973217,6.60968634979,6.01064285776,0.0
1449617836946217340,6.60968634979,6.01064285776,0.0
1449617836979830951,6.32451049377,6.0,0.0
1449617837012629666,6.32451049377,6.0,0.0
1449617837049108114,6.32451049377,6.0,0.0
1449617837079371661,6.32451049377,6.0,0.0
1449617837112489986,6.29500952469,6.0,0.0
1449617837146538888,6.29500952469,6.0,0.0
1449617837179583754,6.29500952469,6.0,0.0
1449617837212609391,6.32451049377,6.0,0.0
1449617837246389472,6.32451049377,6.0,0.0
1449617837279688327,6.32451049377,6.0,0.0
1449617837319636329,6.33434414398,6.0,0.0
1449617837346226232,6.33434414398,6.0,0.0
1449617837379266599,6.29500952469,6.0,0.0
1449617837412681660,6.29500952469,6.0,0.0
1449617837445812298,6.29500952469,6.0,0.0
1449617837478917136,6.29500952469,6.0,0.0
1449617837512969424,6.33434414398,6.0,0.0
1449617837547008734,6.33434414398,6.0,0.0
1449617837579407925,6.33434414398,6.0,0.0
1449617837612741528,6.33434414398,6.0,0.0
1449617837646248251,6.33434414398,6.0,0.0
1449617837679202715,6.33434414398,6.0,0.0
1449617837712948032,6.33434414398,6.0,0.0
1449617837746230796,6.33434414398,6.0,0.0
1449617837779409337,6.33434414398,6.0,0.0
1449617837812460112,6.33434414398,6.0,0.0
1449617837846025670,6.33434414398,6.0,0.0
1449617837879455692,6.33434414398,6.0,0.0
1449617837912694785,6.33434414398,6.0,0.0
1449617837946131628,6.33434414398,6.0,0.0
1449617837980203264,6.33434414398,6.0,0.0
1449617838013609108,6.3048431749,6.0,0.0
1449617838046943137,6.3048431749,6.0,0.0
1449617838080247560,6.3048431749,6.0,0.0
1449617838112915246,6.33434414398,6.0,0.0
1449617838146434330,6.33434414398,6.0,0.0
1449617838179178253,6.33434414398,6.0,0.0
1449617838212998874,6.33434414398,6.0,0.0
1449617838245913583,6.33434414398,6.01064285776,0.0
1449617838280006206,6.33434414398,6.01064285776,0.0
1449617838313109699,6.33434414398,6.01064285776,0.0
1449617838345999886,6.33434414398,6.01064285776,0.0
1449617838379346657,6.33434414398,6.01064285776,0.0
1449617838412793468,6.60968634979,6.0,0.0
1449617838446086004,6.60968634979,6.0,0.0
1449617838479440312,6.60968634979,6.0,0.0
1449617838512832107,6.54085079834,6.01064285776,0.0
1449617838548222069,6.54085079834,6.01064285776,0.0
1449617838579071340,6.54085079834,6.01064285776,0.0
1449617838613601445,6.60968634979,6.01064285776,0.0
1449617838646048993,6.60968634979,6.01064285776,0.0
1449617838680153990,6.60968634979,6.01064285776,0.0
1449617838712893210,6.60968634979,6.01064285776,0.0
1449617838746083599,6.59985269958,6.01064285776,0.0
1449617838780682600,6.60968634979,6.02128571551,0.0
1449617838819758734,6.60968634979,6.02128571551,0.0
1449617838847162305,6.60968634979,6.02128571551,0.0
1449617838879360380,6.60968634979,6.02128571551,0.0
1449617838915428954,6.60968634979,6.03192857202,0.0
1449617838953329571,6.60968634979,6.03192857202,0.0
1449617838979246236,6.60968634979,6.03192857202,0.0
1449617839012772567,6.60968634979,6.03192857202,0.0
1449617839047041643,6.60968634979,6.03192857202,0.0
1449617839080205657,6.59001904938,6.12771428809,0.0
1449617839113806283,6.59001904938,6.12771428809,0.0
1449617839145815879,6.59001904938,6.12771428809,0.0
1449617839179324563,6.59001904938,6.12771428809,0.0
1449617839213852846,6.59001904938,6.12771428809,0.0
1449617839247739351,6.59001904938,6.12771428809,0.0
1449617839279207580,6.59001904938,6.12771428809,0.0
1449617839313849697,6.58018539917,6.11707143158,0.0
1449617839347124574,6.58018539917,6.11707143158,0.0
1449617839379301378,6.58018539917,6.11707143158,0.0
1449617839414823633,6.58018539917,6.11707143158,0.0
1449617839446182406,6.58018539917,6.11707143158,0.0
1449617839479516076,6.0,6.6705,0.0
1449617839513569599,6.4916825473,6.17028572412,0.0
1449617839545904801,6.58018539917,6.21285715015,0.0
1449617839579980617,6.58018539917,6.21285715015,0.0
1449617839612794191,6.58018539917,6.21285715015,0.0
1449617839646820339,6.58018539917,6.21285715015,0.0
1449617839679524151,6.58018539917,6.21285715015,0.0
1449617839713604534,6.58018539917,6.20221429364,0.0
1449617839745826225,6.58018539917,6.20221429364,0.0
1449617839786453485,6.58018539917,6.20221429364,0.0
1449617839812714255,6.58018539917,6.21285715015,0.0
1449617839845805299,6.58018539917,6.21285715015,0.0
1449617839879033359,6.58018539917,6.21285715015,0.0
1449617839912498361,6.58018539917,6.21285715015,0.0
1449617839947133605,6.58018539917,6.21285715015,0.0
1449617839979817772,6.58018539917,6.21285715015,0.0
1449617840012544391,6.58018539917,6.20221429364,0.0
1449617840046664040,6.58018539917,6.20221429364,0.0
1449617840079636381,6.58018539917,6.20221429364,0.0
1449617840113094378,6.58018539917,6.20221429364,0.0
1449617840146228625,6.58018539917,6.21285715015,0.0
1449617840179899202,6.58018539917,6.20221429364,0.0
1449617840212988737,6.58018539917,6.20221429364,0.0
1449617840246252849,6.58018539917,6.20221429364,0.0
1449617840282490501,6.58018539917,6.20221429364,0.0
1449617840312308088,6.58018539917,6.21285715015,0.0
1449617840346126335,6.58018539917,6.21285715015,0.0
1449617840380021000,6.58018539917,6.21285715015,0.0
1449617840413079265,6.48184889709,6.18092858063,0.0
1449617840446664947,6.48184889709,6.18092858063,0.0
1449617840479321247,6.48184889709,6.18092858063,0.0
1449617840516350723,6.58018539917,6.21285715015,0.0
1449617840550532792,6.58018539917,6.21285715015,0.0
1449617840580613113,6.58018539917,6.21285715015,0.0
1449617840618234595,6.58018539917,6.21285715015,0.0
1449617840648679559,6.58018539917,6.21285715015,0.0
1449617840683538167,6.58018539917,6.21285715015,0.0
1449617840712507006,6.58018539917,6.20221429364,0.0
1449617840745917213,6.58018539917,6.20221429364,0.0
1449617840780204133,6.58018539917,6.21285715015,0.0
1449617840812827877,6.58018539917,6.21285715015,0.0
1449617840846392934,6.58018539917,6.21285715015,0.0
1449617840879223130,6.58018539917,6.21285715015,0.0
1449617840912712060,6.58018539917,6.21285715015,0.0
1449617840947825731,6.58018539917,6.21285715015,0.0
1449617840979916416,6.58018539917,6.21285715015,0.0
1449617841013033445,6.58018539917,6.20221429364,0.0
1449617841046443909,6.58018539917,6.21285715015,0.0
1449617841079628205,6.58018539917,6.21285715015,0.0
1449617841112414540,6.58018539917,6.21285715015,0.0
1449617841145863519,6.58018539917,6.21285715015,0.0
1449617841179854840,6.59001904938,6.12771428809,0.0
1449617841212640203,6.59001904938,6.12771428809,0.0
1449617841246168284,6.59001904938,6.12771428809,0.0
1449617841280373345,6.59001904938,6.12771428809,0.0
1449617841312908999,6.50151619751,6.10642857508,0.0
1449617841346356259,6.50151619751,6.10642857508,0.0
1449617841381348206,6.50151619751,6.10642857508,0.0
1449617841412535655,6.50151619751,6.10642857508,0.0
1449617841446525684,6.59001904938,6.21285715015,0.0
1449617841480129060,6.59001904938,6.21285715015,0.0
1449617841513933294,6.59001904938,6.12771428809,0.0
1449617841545874021,6.59001904938,6.12771428809,0.0
1449617841579671818,6.59001904938,6.1383571446,0.0
1449617841618887930,6.59001904938,6.1383571446,0.0
1449617841646165736,6.59001904938,6.1383571446,0.0
1449617841679224174,6.59001904938,6.1383571446,0.0
1449617841714182831,6.59001904938,6.12771428809,0.0
1449617841746061135,6.59001904938,6.12771428809,0.0
1449617841779865722,6.59001904938,6.12771428809,0.0
1449617841812570667,6.44251428703,6.09578571607,0.0
1449617841846617794,6.44251428703,6.09578571607,0.0
1449617841879256471,6.44251428703,6.09578571607,0.0
1449617841913181227,6.44988952469,6.09578571607,0.0
1449617841946856172,6.44251428703,6.09578571607,0.0
1449617841980726153,6.44251428703,6.09578571607,0.0
1449617842012882712,6.44251428703,6.09578571607,0.0
1449617842046619603,6.44251428703,6.09578571607,0.0
1449617842079852386,6.44251428703,6.09578571607,0.0
1449617842112806339,6.44251428703,6.09578571607,0.0
1449617842146169892,6.44251428703,6.09578571607,0.0
1449617842180015104,6.44251428703,6.09578571607,0.0
1449617842212508914,6.44251428703,6.09578571607,0.0
1449617842250228713,6.44251428703,6.09578571607,0.0
1449617842279528335,6.44251428703,6.09578571607,0.0
1449617842317976707,6.44251428703,6.09578571607,0.0
1449617842346107509,6.44988952469,6.09578571607,0.0
1449617842379529933,6.45726476234,6.01596428664,0.0
1449617842412873302,6.45726476234,6.01596428664,0.0
1449617842447964676,6.45726476234,6.01596428664,0.0
1449617842479175953,6.45726476234,6.01596428664,0.0
1449617842513207397,6.33434414398,6.01064285776,0.0
1449617842546533867,6.33434414398,6.01064285776,0.0
1449617842579591202,6.33434414398,6.01064285776,0.0
1449617842612946892,6.45726476234,6.0,0.0
1449617842646005532,6.45726476234,6.0,0.0
1449617842678919335,6.45726476234,6.0,0.0
1449617842712355934,6.46464,6.0,0.0
1449617842746671346,6.46464,6.0,0.0
1449617842779672303,6.46464,6.0,0.0
1449617842813461523,6.45726476234,6.0,0.0
1449617842846573765,6.45726476234,6.0,0.0
1449617842879646965,6.46464,6.0,0.0
1449617842912861960,6.46464,6.0,0.0
1449617842945970608,6.46464,6.0,0.0
1449617842979639762,6.46464,6.0,0.0
1449617843012785099,6.46464,6.0,0.0
1449617843045798670,6.46464,6.0,0.0
1449617843080557661,6.46464,6.0,0.0
1449617843112823303,6.46464,6.0,0.0
1449617843146259843,6.44988952469,6.0,0.0
1449617843181263827,6.44988952469,6.0,0.0
1449617843213026413,6.44988952469,6.0,0.0
1449617843246013127,6.44988952469,6.0,0.0
1449617843279554166,6.44988952469,6.0,0.0
1449617843313152563,6.33434414398,6.0,0.0
1449617843346160249,6.33434414398,6.0,0.0
1449617843380619854,6.33434414398,6.0,0.0
1449617843413065793,6.32451049377,6.0,0.0
1449617843446110376,6.32451049377,6.0,0.0
1449617843481285321,6.32451049377,6.0,0.0
1449617843514008189,6.33434414398,6.0,0.0
1449617843546416675,6.33434414398,6.0,0.0
1449617843580185703,6.37367874481,6.0,0.0
1449617843613528865,6.37367874481,6.0,0.0
1449617843646464227,6.37367874481,6.0,0.0
1449617843679893585,6.37367874481,6.0,0.0
1449617843712692443,6.33434414398,6.0,0.0
1449617843748294824,6.33434414398,6.0,0.0
1449617843779688369,6.33434414398,6.0,0.0
1449617843812952156,6.33434414398,6.0,0.0
1449617843846194077,6.33434414398,6.0,0.0
1449617843879411465,6.33434414398,6.0,0.0
1449617843912302140,6.3048431749,6.0,0.0
1449617843945794216,6.3048431749,6.0,0.0
1449617843980057713,6.3048431749,6.0,0.0
1449617844013203080,6.3048431749,6.0,0.0
1449617844046207400,6.3048431749,6.0,0.0
1449617844079377475,6.3048431749,6.0,0.0
1449617844112812291,6.3048431749,6.0,0.0
1449617844145806885,6.3048431749,6.0,0.0
1449617844178961101,6.3048431749,6.0,0.0
1449617844212493244,6.3048431749,6.0,0.0
1449617844246194978,6.3048431749,6.0,0.0
1449617844283480442,6.33434414398,6.0,0.0
1449617844313175662,6.33434414398,6.0,0.0
1449617844346235107,6.33434414398,6.0,0.0
1449617844379158941,6.33434414398,6.0,0.0
1449617844412511897,6.33434414398,6.0,0.0
1449617844445793792,6.33434414398,6.0,0.0
1449617844479393359,6.33434414398,6.0,0.0
1449617844512461948,6.33434414398,6.0,0.0
1449617844546810739,6.33434414398,6.0,0.0
1449617844578897980,6.33434414398,6.0,0.0
1449617844612287755,6.25075810799,6.0,0.0
1449617844646342824,6.25075810799,6.0,0.0
1449617844679180068,6.25075810799,6.0,0.0
1449617844712396792,6.33434414398,6.0,0.0
1449617844746002614,6.25075810799,6.0,0.0
1449617844780219183,6.25075810799,6.0,0.0
1449617844812459602,6.25075810799,6.0,0.0
1449617844847110476,6.25075810799,6.0,0.0
1449617844879809249,6.25075810799,6.0,0.0
1449617844913220746,6.25075810799,6.0,0.0
1449617844948365577,6.24338287033,6.0,0.0
1449617844980079650,6.24338287033,6.0,0.0
1449617845012268521,6.24338287033,6.0,0.0
1449617845045891335,6.25075810799,6.0,0.0
1449617845079785752,6.25075810799,6.0,0.0
1449617845112742735,6.25075810799,6.0,0.0
1449617845145765023,6.25075810799,6.0,0.0
1449617845179962875,6.25075810799,6.0,0.0
1449617845213301640,6.25075810799,6.0,0.0
1449617845250031833,6.25075810799,6.0,0.0
1449617845279369200,6.24338287033,6.0,0.0
1449617845313681899,6.24338287033,6.0,0.0
1449617845346378618,6.27972950443,6.02646710526,0.0
1449617845379069461,6.27972950443,6.02646710526,0.0
1449617845412380289,6.26152462459,6.03528947368,0.0
1449617845446619464,6.27423022698,6.02646710526,0.0
1449617845479845261,6.27220297413,6.02646710526,0.0
1449617845512481291,6.27220297413,6.02646710526,0.0
1449617845547541118,6.27220297413,6.02646710526,0.0
1449617845579428294,6.27220297413,6.02646710526,0.0
1449617845613172508,6.29252862078,6.01764473684,0.0
1449617845646552533,6.29252862078,6.01764473684,0.0
1449617845679529456,6.29252862078,6.01764473684,0.0
1449617845712525662,6.29252862078,6.01764473684,0.0
1449617845745856185,6.24936157594,6.03528947368,0.0
1449617845779210197,6.24936157594,6.03528947368,0.0
1449617845820920852,6.24936157594,6.03528947368,0.0
1449617845845921701,6.26959380363,6.02646710526,0.0
1449617845879881068,6.26959380363,6.02646710526,0.0
1449617845913732693,6.26510853153,6.0,0.0
1449617845947027316,6.26510853153,6.0,0.0
1449617845979527070,6.26510853153,6.0,0.0
1449617846014455774,6.26308196908,6.0,0.0
1449617846047049510,6.26308196908,6.0,0.0
1449617846079266974,6.26206881933,6.0,0.0
1449617846112380933,6.27304905138,6.0,0.0
1449617846145873810,6.26827894202,6.0,0.0
1449617846179462752,6.2549136553,6.0,0.0
1449617846212380220,6.2549136553,6.0,0.0
1449617846247455280,6.23171470914,6.0,0.0
1449617846279798527,6.22968850057,6.0,0.0
1449617846312720942,6.22968850057,6.0,0.0
1449617846346305523,6.22968850057,6.0,0.0
1449617846379332928,6.22968850057,6.0,0.0
1449617846413225068,6.22968850057,6.0,0.0
1449617846445970465,6.22968850057,6.0,0.0
1449617846480543031,6.24847716915,6.0,0.0
1449617846513125939,6.25339399887,6.0,0.0
1449617846546424123,6.25339399887,6.0,0.0
1449617846579256904,6.25339399887,6.0,0.0
1449617846612293134,6.25339399887,6.0,0.0
1449617846645942266,6.25585241142,6.0,0.0
1449617846679019999,6.25585241142,6.0,0.0
1449617846712379938,6.22968850057,6.0,0.0
1449617846745818649,6.24847716915,6.0,0.0
1449617846779186409,6.24847716915,6.0,0.0
1449617846812367352,6.24338287033,6.0,0.0
1449617846845831859,6.16717207199,6.0,0.0
1449617846879042678,6.16717207199,6.0,0.0
1449617846912393042,6.16717207199,6.0,0.0
1449617846945786780,6.16717207199,6.0,0.0
1449617846980344877,6.16717207199,6.0,0.0
1449617847012498815,6.16225524689,6.0,0.0
1449617847045960075,6.16225524689,6.0,0.0
1449617847079762703,6.16225524689,6.0,0.0
1449617847112541553,6.16225524689,6.0,0.0
1449617847145813996,6.16225524689,6.0,0.0
1449617847179760668,6.16225524689,6.0,0.0
1449617847214099822,6.16225524689,6.0,0.0
1449617847246317707,6.16225524689,6.0,0.0
1449617847279516831,6.16717207199,6.0,0.0
1449617847312664383,6.22863238117,6.0,0.0
1449617847345952588,6.22863238117,6.0,0.0
1449617847379299179,6.22863238117,6.0,0.0
1449617847413481363,6.16717207199,6.0,0.0
1449617847445980477,6.16717207199,6.0,0.0
1449617847479183497,6.16717207199,6.0,0.0
1449617847513137991,6.16717207199,6.0,0.0
1449617847546053693,6.16717207199,6.0,0.0
1449617847579033601,6.16717207199,6.0,0.0
1449617847612363947,6.15242158745,6.0,0.0
1449617847645982662,6.15242158745,6.0,0.0
1449617847679843812,6.15242158745,6.0,0.0
1449617847712414251,6.16225524689,6.0,0.0
1449617847746001865,6.16225524689,6.0,0.0
1449617847779132563,6.16225524689,6.0,0.0
1449617847812955751,6.16225524689,6.0,0.0
1449617847847246449,6.16225524689,6.0,0.0
1449617847879027336,6.16225524689,6.0,0.0
1449617847912351743,6.16225524689,6.0,0.0
1449617847946158314,6.16717207199,6.0,0.0
1449617847979229493,6.16717207199,6.0,0.0
1449617848029840485,6.16717207199,6.0,0.0
1449617848045622966,6.16717207199,6.0,0.0
1449617848079821837,6.16717207199,6.0,0.0
1449617848113268171,6.16717207199,6.0,0.0
1449617848146090225,6.16717207199,6.0,0.0
1449617848179227620,6.16717207199,6.0,0.0
1449617848212445821,6.16717207199,6.0,0.0
1449617848245896818,6.15242158745,6.0,0.0
1449617848280632307,6.15242158745,6.0,0.0
1449617848312536887,6.15242158745,6.0,0.0
1449617848345984680,6.15242158745,6.0,0.0
1449617848381546092,6.16717207199,6.0,0.0
1449617848413805135,6.16717207199,6.0,0.0
1449617848447657193,6.16717207199,6.0,0.0
1449617848480241709,6.16717207199,6.0,0.0
1449617848512450405,6.16717207199,6.0,0.0
1449617848545809122,6.16717207199,6.0,0.0
1449617848579522220,6.16717207199,6.0,0.0
1449617848612829126,6.16717207199,6.0,0.0
1449617848646119421,6.16717207199,6.0,0.0
1449617848679537766,6.16717207199,6.0,0.0
1449617848712623588,6.15242158745,6.0,0.0
1449617848746919988,6.15242158745,6.0,0.0
1449617848779375493,6.15242158745,6.0,0.0
1449617848813146428,6.15242158745,6.0,0.0
1449617848845974719,6.15242158745,6.0,0.0
1449617848879125203,6.15242158745,6.0,0.0
1449617848912310271,6.13767111214,6.0,0.0
1449617848946844750,6.13767111214,6.0,0.0
1449617848978987994,6.13767111214,6.0,0.0
1449617849012652567,6.15488,6.0,0.0
1449617849045860959,6.15488,6.0,0.0
1449617849079806334,6.15488,6.0,0.0
1449617849112655810,6.15488,6.0,0.0
1449617849146492535,6.16717207199,6.0,0.0
1449617849180293583,6.16717207199,6.0,0.0
1449617849212764818,6.16717207199,6.0,0.0
1449617849245688545,6.15242158745,6.0,0.0
1449617849279136533,6.15242158745,6.0,0.0
1449617849312485814,6.15242158745,5.99733928556,0.0
1449617849345853542,6.15242158745,5.99733928556,0.0
1449617849380617533,6.15242158745,5.99733928556,0.0
1449617849412541658,6.15242158745,5.99733928556,0.0
1449617849446940812,6.15242158745,5.99733928556,0.0
1449617849479041358,6.15242158745,5.99733928556,0.0
1449617849512477411,6.15242158745,5.99201785699,0.0
1449617849547305225,6.15242158745,5.99201785699,0.0
1449617849579803007,6.15242158745,5.99201785699,0.0
1449617849613273847,6.14012952469,5.92283928532,0.0
1449617849646268741,6.14012952469,5.92283928532,0.0
1449617849679207098,6.14012952469,5.92283928532,0.0
1449617849712601384,6.3982628611,5.57694642381,0.0
1449617849746390894,6.3982628611,5.57694642381,0.0
1449617849780073487,6.13029587448,5.85898214127,0.0
1449617849812487386,6.13029587448,5.85898214127,0.0
1449617849846216633,6.13029587448,5.85898214127,0.0
1449617849879431687,6.13029587448,5.85898214127,0.0
1449617849913039350,6.3982628611,5.57694642381,0.0
1449617849949488996,6.3982628611,5.57694642381,0.0
1449617849979468709,6.13029587448,5.85632142714,0.0
1449617850012585480,6.13029587448,5.85632142714,0.0
1449617850045864235,6.13029587448,5.85632142714,0.0
1449617850079142220,6.13029587448,5.85632142714,0.0
1449617850112576311,6.13029587448,5.85632142714,0.0
1449617850146449961,6.3982628611,5.57694642381,0.0
1449617850179940206,6.13029587448,5.85632142714,0.0
1449617850212958821,6.13029587448,5.85632142714,0.0
1449617850246059978,6.13029587448,5.85632142714,0.0
1449617850279374760,6.13029587448,5.85632142714,0.0
1449617850312819849,6.13029587448,5.85632142714,0.0
1449617850347327680,6.23109079834,5.75521428032,0.0
1449617850379420883,6.39088762344,5.56896428143,0.0
1449617850413258986,6.39088762344,5.56896428143,0.0
1449617850446718546,6.39088762344,5.56896428143,0.0
1449617850479481724,6.3982628611,5.57694642381,0.0
1449617850513964517,6.3982628611,5.57694642381,0.0
1449617850546454033,6.3982628611,5.57694642381,0.0
1449617850579333797,6.3982628611,5.57694642381,0.0
1449617850612774256,6.23600762344,5.74457142381,0.0
1449617850646353655,6.23600762344,5.74457142381,0.0
1449617850680908155,6.23600762344,5.74457142381,0.0
1449617850712649093,6.23600762344,5.74457142381,0.0
1449617850747215049,6.39088762344,5.57694642381,0.0
1449617850785645976,6.39088762344,5.57694642381,0.0
1449617850812476796,6.39088762344,5.57694642381,0.0
1449617850846949178,6.61952,5.40007894737,0.0
1449617850887585224,6.61952,5.40007894737,0.0
1449617850913140949,6.61952,5.40007894737,0.0
1449617850945730163,6.61952,5.40007894737,0.0
1449617850980172181,6.61952,5.40007894737,0.0
1449617851012715431,6.61952,5.40007894737,0.0
1449617851048180409,6.61952,5.40007894737,0.0
1449617851082182464,6.61952,5.40007894737,0.0
1449617851112891451,6.43866459681,5.55384022271,0.0
1449617851145982721,6.43866459681,5.55384022271,0.0
1449617851179101322,6.43866459681,5.55384022271,0.0
1449617851213637698,6.43293595408,5.55384022271,0.0
1449617851246895321,6.43212698455,5.55384022271,0.0
1449617851279626730,6.43212698455,5.55384022271,0.0
1449617851312817658,6.43212698455,5.55384022271,0.0
1449617851345955599,6.43131585417,5.55384022271,0.0
1449617851382135423,6.43298385492,5.55384022271,0.0
1449617851413034721,6.43298385492,5.55384022271,0.0
1449617851449597366,6.43298385492,5.55384022271,0.0
1449617851479545692,6.43298385492,5.55384022271,0.0
1449617851512882500,6.48200050153,5.48956296564,0.0
1449617851546451340,6.47218550295,5.49754510802,0.0
1449617851579818991,6.374189513,5.6207781939,0.0
1449617851612712300,6.32519151803,5.68239473684,0.0
1449617851646869816,6.32519151803,5.68239473684,0.0
1449617851680586862,6.32519151803,5.68239473684,0.0
1449617851713410246,6.31705814732,5.68239473684,0.0
1449617851746345775,6.31705814732,5.68239473684,0.0
1449617851779307087,6.31705814732,5.68239473684,0.0
1449617851812678761,6.31705814732,5.68239473684,0.0
1449617851846604574,6.30401039248,5.68239473684,0.0
1449617851879913749,6.30401039248,5.68239473684,0.0
1449617851916787264,6.30401039248,5.68239473684,0.0
1449617851946281845,6.30401039248,5.68239473684,0.0
1449617851979615291,6.29584760082,5.68239473684,0.0
1449617852014678124,6.29584760082,5.68239473684,0.0
1449617852046006245,6.29584760082,5.68239473684,0.0
1449617852079400172,6.29584760082,5.68239473684,0.0
1449617852115038557,6.28276464209,5.68239473684,0.0
1449617852145754112,6.28276464209,5.68239473684,0.0
1449617852185874022,6.26638833061,5.68239473684,0.0
1449617852213892606,6.26638833061,5.68239473684,0.0
1449617852247349216,6.26638833061,5.68239473684,0.0
1449617852281387471,6.26638833061,5.68239473684,0.0
1449617852313822536,6.61952,5.47065789474,0.0
1449617852346006952,6.61952,5.47065789474,0.0
1449617852379874292,6.61952,5.47065789474,0.0
1449617852412527706,6.61952,5.47065789474,0.0
1449617852445794209,6.61952,5.40007894737,0.0
1449617852479169724,6.61952,5.40007894737,0.0
1449617852513751888,6.61952,5.47065789474,0.0
1449617852546060682,6.61952,5.47065789474,0.0
1449617852580377338,6.61952,5.47065789474,0.0
1449617852614627598,6.61952,5.47065789474,0.0
1449617852649826438,6.61952,5.47065789474,0.0
1449617852679818147,6.61952,5.47065789474,0.0
1449617852712926652,6.61952,5.47065789474,0.0
1449617852746448806,6.61952,5.47065789474,0.0
1449617852780024842,6.61952,5.40007894737,0.0
1449617852813282775,6.61952,5.40007894737,0.0
1449617852846434348,6.61952,5.40007894737,0.0
1449617852882582336,6.61952,5.47065789474,0.0
1449617852912631317,6.61952,5.47065789474,0.0
1449617852945778259,6.61952,5.47065789474,0.0
1449617852980317512,6.61952,5.47065789474,0.0
1449617853012439035,6.61952,5.40007894737,0.0
1449617853047408661,6.61952,5.47065789474,0.0
1449617853079160135,6.61952,5.47065789474,0.0
1449617853113190262,6.61952,5.47065789474,0.0
1449617853146307878,6.61952,5.47065789474,0.0
1449617853179606796,6.61952,5.47065789474,0.0
1449617853213316647,6.61952,5.47065789474,0.0
1449617853246635469,6.61952,5.47065789474,0.0
1449617853279333803,6.61952,5.47065789474,0.0
1449617853312530719,6.61952,5.47065789474,0.0
1449617853346090077,6.61952,5.47065789474,0.0
1449617853380206163,6.61952,5.47065789474,0.0
1449617853413170722,6.61952,5.47065789474,0.0
1449617853446916926,6.59985269958,5.54739849609,0.0
1449617853479331019,6.59985269958,5.54739849609,0.0
1449617853513035623,6.59985269958,5.54739849609,0.0
1449617853546073642,6.61952,5.54123684211,0.0
1449617853582955640,6.61952,5.54123684211,0.0
1449617853612669217,6.61952,5.54123684211,0.0
1449617853645821067,6.61952,5.47065789474,0.0
1449617853679667411,6.61952,5.47065789474,0.0
1449617853712610518,6.6146031749,5.69471804481,0.0
1449617853745742810,6.6146031749,5.69471804481,0.0
1449617853779105455,6.6146031749,5.69471804481,0.0
1449617853812717395,6.61952,5.70698641951,0.0
1449617853845953140,6.61952,5.70698641951,0.0
1449617853880133970,6.61952,5.70698641951,0.0
1449617853912502843,6.10643809722,6.0,0.0
1449617853947198793,6.10643809722,6.0,0.0
1449617853979706323,6.10643809722,6.0,0.0
1449617854012619438,6.10643809722,6.0,0.0
1449617854046569186,6.10643809722,6.0,0.0
1449617854079704312,6.10643809722,6.0,0.0
1449617854113028757,6.10643809722,6.0,0.0
1449617854145835354,6.09833651131,6.0,0.0
1449617854179637132,6.33434414398,6.0,0.0
1449617854212880059,6.33434414398,6.0,0.0
1449617854246013438,6.33434414398,6.0,0.0
1449617854279461038,6.33434414398,6.0,0.0
1449617854313771868,6.33434414398,6.0,0.0
1449617854346038214,6.32451049377,6.0,0.0
1449617854379192116,6.32451049377,6.0,0.0
1449617854415007617,6.60968634979,6.0,0.0
1449617854445839669,6.60968634979,6.0,0.0
1449617854480053595,6.60968634979,6.0,0.0
1449617854512995202,6.60968634979,6.0,0.0
1449617854546096072,6.60968634979,6.0,0.0
1449617854579640422,6.60968634979,6.0,0.0
1449617854614207743,6.60968634979,6.0,0.0
1449617854645838960,6.60968634979,6.0,0.0
1449617854679707740,6.60968634979,6.0,0.0
1449617854713868180,6.60968634979,6.0,0.0
1449617854746262620,6.60968634979,6.0,0.0
1449617854779895680,6.60968634979,6.0,0.0
1449617854815263613,6.55068444855,6.0,0.0
1449617854846826012,6.55068444855,6.0,0.0
1449617854880067088,6.55068444855,6.0,0.0
1449617854912593954,6.55068444855,6.0,0.0
1449617854948637315,6.50151619751,6.06385714405,0.0
1449617854979468267,6.50151619751,6.06385714405,0.0
1449617855017997006,6.50151619751,6.06385714405,0.0
1449617855046060705,6.50151619751,6.06385714405,0.0
1449617855079459025,6.24550292502,6.10586842105,0.0
1449617855112840470,6.24550292502,6.10586842105,0.0
1449617855146267367,6.23709289277,6.10586842105,0.0
1449617855179270767,6.23709289277,6.10586842105,0.0
1449617855214086942,6.23709289277,6.10586842105,0.0
1449617855249781778,6.23205000743,6.17644736842,0.0
1449617855279152776,6.23205000743,6.17644736842,0.0
1449617855312804859,6.23205000743,6.17644736842,0.0
1449617855345610359,6.22366456493,6.17644736842,0.0
1449617855379601456,6.21365747988,6.17644736842,0.0
1449617855416874753,6.21365747988,6.17644736842,0.0
1449617855446136398,6.21365747988,6.17644736842,0.0
1449617855479936142,6.21365747988,6.17644736842,0.0
1449617855512449359,6.2112,6.24702631579,0.0
1449617855546098937,6.2112,6.24702631579,0.0
1449617855579351121,6.2112,6.24702631579,0.0
1449617855613094620,6.2112,6.24702631579,0.0
1449617855646107735,6.2112,6.24702631579,0.0
1449617855679430756,6.2112,6.24702631579,0.0
1449617855713451610,6.2112,6.24702631579,0.0
1449617855745769861,6.2112,6.24702631579,0.0
1449617855779489358,6.2112,6.24702631579,0.0
1449617855812885845,6.2112,6.24702631579,0.0
1449617855847321179,6.2112,6.24702631579,0.0
1449617855879424185,6.2112,6.24702631579,0.0
1449617855912591412,6.2112,6.24702631579,0.0
1449617855949553336,6.61952,6.45876315789,0.0
1449617855980444164,6.61952,6.45876315789,0.0
1449617856013434305,6.61952,6.52934210526,0.0
1449617856045981793,6.61952,6.52934210526,0.0
1449617856080012268,6.61952,6.52934210526,0.0
1449617856112844256,6.61952,6.52934210526,0.0
1449617856145862221,6.61952,6.52934210526,0.0
1449617856183718427,6.61952,6.52934210526,0.0
1449617856213041841,6.61952,6.52934210526,0.0
1449617856246970240,6.61952,6.59992105263,0.0
1449617856280545288,6.61952,6.59992105263,0.0
1449617856313955486,6.61952,6.59992105263,0.0
1449617856346253197,6.61952,6.52934210526,0.0
1449617856381027499,6.61952,6.52934210526,0.0
1449617856412810080,6.61952,6.52934210526,0.0
1449617856446399181,6.61952,6.52934210526,0.0
1449617856479953939,6.61952,6.52934210526,0.0
1449617856513913854,6.61952,6.52934210526,0.0
1449617856546349561,6.61952,6.45876315789,0.0
1449617856579726543,6.61952,6.45876315789,0.0
1449617856612582634,6.61952,6.45876315789,0.0
1449617856645771438,6.61952,6.52934210526,0.0
1449617856679315104,6.58018539917,6.21285715015,0.0
1449617856713780724,6.58018539917,6.21285715015,0.0
1449617856747401715,6.58018539917,6.21285715015,0.0
1449617856779554577,6.48184889709,6.17028572412,0.0
1449617856812672624,6.48184889709,6.17028572412,0.0
1449617856845850599,6.48184889709,6.17028572412,0.0
1449617856881565488,6.48184889709,6.17028572412,0.0
1449617856912936957,6.58018539917,6.21285715015,0.0
1449617856946792198,6.58018539917,6.21285715015,0.0
1449617856979008524,6.58018539917,6.21285715015,0.0
1449617857013058200,6.58018539917,6.21285715015,0.0
1449617857046138827,6.58018539917,6.21285715015,0.0
1449617857079775890,6.59001904938,6.12771428809,0.0
1449617857114675160,6.59001904938,6.12771428809,0.0
1449617857146025938,6.59001904938,6.12771428809,0.0
1449617857179134574,6.59001904938,6.12771428809,0.0
1449617857212721751,6.59001904938,6.12771428809,0.0
1449617857246004399,6.59001904938,6.12771428809,0.0
1449617857282447371,6.59001904938,6.12771428809,0.0
1449617857312789165,6.59985269958,6.05321428754,0.0
1449617857355996551,6.59985269958,6.05321428754,0.0
1449617857379293474,6.60968634979,6.03192857202,0.0
1449617857413229542,6.60968634979,6.03192857202,0.0
1449617857446241080,6.60968634979,6.03192857202,0.0
1449617857479484764,6.60968634979,6.03192857202,0.0
1449617857512584843,6.60968634979,6.02128571551,0.0
1449617857546424016,6.60968634979,6.02128571551,0.0
1449617857579574695,6.60968634979,6.02128571551,0.0
1449617857614733305,6.60968634979,6.02128571551,0.0
1449617857645891789,6.60968634979,6.02128571551,0.0
1449617857680771341,6.60968634979,6.02128571551,0.0
1449617857712869254,6.60968634979,6.01064285776,0.0
1449617857745775416,6.60968634979,6.01064285776,0.0
1449617857779767636,6.60968634979,6.01064285776,0.0
1449617857812987322,6.60968634979,6.01064285776,0.0
1449617857846298048,6.60968634979,6.01064285776,0.0
1449617857879986269,6.60968634979,6.01064285776,0.0
1449617857912890892,6.60968634979,6.01064285776,0.0
1449617857945854958,6.60968634979,6.01064285776,0.0
1449617857979707493,6.54085079834,6.01064285776,0.0
1449617858012882101,6.54085079834,6.01064285776,0.0
1449617858046137965,6.54085079834,6.01064285776,0.0
1449617858079308104,6.54085079834,6.01064285776,0.0
1449617858113315492,6.60968634979,6.01064285776,0.0
1449617858147383513,6.60968634979,6.01064285776,0.0
1449617858182353855,6.60968634979,6.01064285776,0.0
1449617858212675911,6.60968634979,6.01064285776,0.0
1449617858246848783,6.60968634979,6.01064285776,0.0
1449617858279407930,6.60968634979,6.01064285776,0.0
1449617858313568535,6.61952,6.01064285776,0.0
1449617858349638638,6.61952,6.01064285776,0.0
1449617858379218899,6.53101714813,6.01064285776,0.0
1449617858414871288,6.53101714813,6.01064285776,0.0
1449617858445919685,6.53101714813,6.01064285776,0.0
1449617858481646006,6.53101714813,6.01064285776,0.0
1449617858513570732,6.60968634979,6.01064285776,0.0
1449617858552621108,6.60968634979,6.01064285776,0.0
1449617858581238475,6.60968634979,6.01064285776,0.0
1449617858615247767,6.59001904938,5.87228571191,0.0
1449617858646053691,6.59001904938,5.87228571191,0.0
1449617858679664648,6.59001904938,5.87228571191,0.0
1449617858713835886,6.48868774896,5.98263533517,0.0
1449617858749026415,6.48868774896,6.01792480886,0.0
1449617858779377958,6.48868774896,6.01792480886,0.0
1449617858812884076,6.5123108611,5.73658928143,0.0
1449617858847221414,6.5123108611,5.73658928143,0.0
1449617858880091745,6.50493562344,5.73658928143,0.0
1449617858912616188,6.50493562344,5.73658928143,0.0
1449617858946063166,6.48451962344,5.73658928143,0.0
1449617858980266917,6.4918948611,5.73658928143,0.0
1449617859013032334,6.4918948611,5.73658928143,0.0
1449617859051139833,6.45277257407,6.0126033806,0.0
1449617859080622353,6.4918948611,5.71894454459,0.0
1449617859112523804,6.48451962344,5.74457142381,0.0
1449617859145919749,6.48451962344,5.74457142381,0.0
1449617859180273382,6.48451962344,5.74457142381,0.0
1449617859214128241,6.4918948611,5.73658928143,0.0
1449617859246955561,6.4918948611,5.73658928143,0.0
1449617859279967971,6.49177135746,5.73658928143,0.0
1449617859312672466,6.4843961198,5.73658928143,0.0
1449617859347290947,6.48401872359,5.73658928143,0.0
1449617859379756394,6.48401872359,5.73658928143,0.0
1449617859413049166,6.49139396125,5.73658928143,0.0
1449617859446501307,6.49139396125,5.73658928143,0.0
1449617859481709426,6.424583999,5.80842856286,0.0
1449617859513923581,6.40433576962,5.80842856286,0.0
1449617859545793195,6.40433576962,5.80842856286,0.0
1449617859579246793,6.40433576962,5.80842856286,0.0
1449617859615753717,6.47062545595,5.73658928143,0.0
1449617859646655440,6.47062545595,5.73658928143,0.0
1449617859679287685,6.47040149957,5.73658928143,0.0
1449617859713125405,6.46302626192,5.73658928143,0.0
1449617859745869171,6.46302626192,5.73658928143,0.0
1449617859779081890,6.40391750163,5.80842856286,0.0
1449617859813739246,6.40391750163,5.80842856286,0.0
1449617859847298429,6.40378624665,5.80842856286,0.0
1449617859879786496,6.40363389746,5.80842856286,0.0
1449617859912737875,6.47001103636,5.73658928143,0.0
1449617859955589573,6.46996201684,5.73658928143,0.0
1449617859979471914,6.46996201684,5.73658928143,0.0
1449617860012530713,6.46982030634,5.73658928143,0.0
1449617860046308689,6.46982030634,5.73658928143,0.0
1449617860079121209,6.46231147373,5.73658928143,0.0
1449617860113240555,6.46231147373,5.73658928143,0.0
1449617860148635041,6.46224516317,5.73658928143,0.0
1449617860179155991,6.46224516317,5.73658928143,0.0
1449617860212720267,6.46953605929,5.73658928143,0.0
1449617860247237779,6.46953605929,5.73658928143,0.0
1449617860281256301,6.4510628611,5.73658928143,0.0
1449617860313310801,6.4510628611,5.73658928143,0.0
1449617860346190812,6.4510628611,5.73658928143,0.0
1449617860379842446,6.4510628611,5.73658928143,0.0
1449617860413036906,6.4510628611,5.73658928143,0.0
1449617860446013844,6.4510628611,5.73658928143,0.0
1449617860479621410,6.4510628611,5.73658928143,0.0
1449617860512821638,6.4510628611,5.73658928143,0.0
1449617860546177710,6.4510628611,5.73658928143,0.0
1449617860582945291,6.4510628611,5.73658928143,0.0
1449617860612852963,6.4510628611,5.73658928143,0.0
1449617860646511489,6.4510628611,5.73658928143,0.0
1449617860679912027,6.4510628611,5.73658928143,0.0
1449617860713458113,6.57035174896,5.69135714127,0.0
1449617860746385306,6.57035174896,5.69135714127,0.0
1449617860779815439,6.57035174896,5.69135714127,0.0
1449617860814421301,6.57035174896,5.69135714127,0.0
1449617860850677718,6.57035174896,5.69135714127,0.0
1449617860879146417,6.57035174896,5.69135714127,0.0
1449617860913264408,6.56051809875,5.69135714127,0.0
1449617860948385877,6.56051809875,5.69135714127,0.0
1449617860979519136,6.56051809875,5.69135714127,0.0
1449617861016269452,6.56051809875,5.69135714127,0.0
1449617861045794204,6.56051809875,5.69135714127,0.0
1449617861079205377,6.56051809875,5.69135714127,0.0
1449617861120963353,6.57035174896,5.69135714127,0.0
1449617861145823383,6.57035174896,5.69135714127,0.0
1449617861181320229,6.57035174896,5.70199999778,0.0
1449617861216587170,6.57035174896,5.70199999778,0.0
1449617861250319103,6.57035174896,5.70199999778,0.0
1449617861282074587,6.57035174896,5.70199999778,0.0
1449617861312837194,6.56051809875,5.69135714127,0.0
1449617861346597267,6.56051809875,5.69135714127,0.0
1449617861380597752,6.57035174896,5.69135714127,0.0
1449617861413353141,6.57035174896,5.69135714127,0.0
1449617861445879205,6.57035174896,5.69135714127,0.0
1449617861479850216,6.57035174896,5.69135714127,0.0
1449617861513813814,6.57035174896,5.70199999778,0.0
1449617861548875876,6.57035174896,5.70199999778,0.0
1449617861579711064,6.56051809875,5.69135714127,0.0
1449617861612574435,6.56051809875,5.69135714127,0.0
1449617861646266843,6.56051809875,5.69135714127,0.0
1449617861680689544,6.56051809875,5.69135714127,0.0
1449617861713234906,6.57035174896,5.69135714127,0.0
1449617861746061907,6.57035174896,5.69135714127,0.0
1449617861779653512,6.57035174896,5.69135714127,0.0
1449617861813004335,6.57035174896,5.69135714127,0.0
1449617861846168983,6.57035174896,5.69135714127,0.0
1449617861880031695,6.57035174896,5.69135714127,0.0
1449617861912355807,6.56051809875,5.70199999778,0.0
1449617861945998514,6.56051809875,5.70199999778,0.0
1449617861979454707,6.57035174896,5.70199999778,0.0
1449617862012920736,6.57035174896,5.70199999778,0.0
1449617862046160868,6.57035174896,5.70199999778,0.0
1449617862079415435,6.57035174896,5.70199999778,0.0
1449617862113086699,6.57035174896,5.69135714127,0.0
1449617862145756778,6.57035174896,5.69135714127,0.0
1449617862179715774,6.48184889709,5.74457142381,0.0
1449617862213232477,6.48184889709,5.74457142381,0.0
1449617862246429250,6.48184889709,5.74457142381,0.0
1449617862279398950,6.48184889709,5.74457142381,0.0
1449617862312751502,6.56051809875,5.69135714127,0.0
1449617862345975871,6.56051809875,5.69135714127,0.0
1449617862381758231,6.56051809875,5.69135714127,0.0
1449617862412434361,6.56051809875,5.69135714127,0.0
1449617862446267552,6.56051809875,5.69135714127,0.0
1449617862479323563,6.56051809875,5.69135714127,0.0
1449617862512437273,6.57035174896,5.69135714127,0.0
1449617862545921682,6.57035174896,5.69135714127,0.0
1449617862579788548,6.58018539917,5.78714284985,0.0
1449617862612745212,6.58018539917,5.78714284985,0.0
1449617862646486776,6.58018539917,5.78714284985,0.0
1449617862681690712,6.58018539917,5.78714284985,0.0
1449617862713719750,6.58018539917,5.79778570636,0.0
1449617862745946716,6.58018539917,5.79778570636,0.0
1449617862780002089,6.58018539917,5.79778570636,0.0
1449617862812676983,6.58018539917,5.79778570636,0.0
1449617862846531234,6.58018539917,5.79778570636,0.0
1449617862880353452,6.58018539917,5.79778570636,0.0
1449617862912754541,6.4916825473,5.82971427588,0.0
1449617862946673072,6.4916825473,5.82971427588,0.0
1449617862979516435,6.58018539917,5.78714284985,0.0
1449617863014385853,6.58018539917,5.78714284985,0.0
1449617863045997986,6.58018539917,5.78714284985,0.0
1449617863079104254,6.58018539917,5.78714284985,0.0
1449617863117992366,6.58018539917,5.78714284985,0.0
1449617863146019429,6.58018539917,5.78714284985,0.0
1449617863181296335,6.58018539917,5.78714284985,0.0
1449617863214540236,6.58018539917,5.78714284985,0.0
1449617863245687272,6.58018539917,5.78714284985,0.0
1449617863279674655,6.58018539917,5.78714284985,0.0
1449617863312819930,6.58018539917,5.79778570636,0.0
1449617863346010902,6.58018539917,5.79778570636,0.0
1449617863379066031,6.58018539917,5.79778570636,0.0
1449617863417098340,6.57035174896,5.78714284985,0.0
1449617863446867958,6.57035174896,5.78714284985,0.0
1449617863479352164,6.57035174896,5.78714284985,0.0
1449617863514361061,6.58018539917,5.78714284985,0.0
1449617863546392670,6.58018539917,5.78714284985,0.0
1449617863580479921,6.58018539917,5.78714284985,0.0
1449617863614613712,6.59985269958,5.90421428143,0.0
1449617863646268160,6.59985269958,5.90421428143,0.0
1449617863679160845,6.59985269958,5.90421428143,0.0
1449617863713026664,6.59985269958,5.97871428449,0.0
1449617863745845182,6.59985269958,5.97871428449,0.0
1449617863779656438,6.59985269958,5.97871428449,0.0
1449617863813283225,6.60968634979,5.98935714224,0.0
1449617863848207846,6.60968634979,5.98935714224,0.0
1449617863879439961,6.60968634979,5.98935714224,0.0
1449617863913468052,6.60968634979,5.98935714224,0.0
1449617863946392126,6.60968634979,5.98935714224,0.0
1449617863983737527,6.60968634979,5.98935714224,0.0
1449617864012911070,6.60968634979,5.98935714224,0.0
1449617864046265639,6.60968634979,5.98935714224,0.0
1449617864081790476,6.60968634979,5.98935714224,0.0
1449617864113391114,6.60968634979,5.98935714224,0.0
1449617864149834983,6.60968634979,5.98935714224,0.0
1449617864179583487,6.60968634979,5.98935714224,0.0
1449617864212494076,6.60968634979,5.98935714224,0.0
1449617864246272881,6.60968634979,5.98935714224,0.0
1449617864280371183,6.60968634979,5.98935714224,0.0
1449617864314170846,6.60968634979,5.98935714224,0.0
1449617864346097298,6.60968634979,5.98935714224,0.0
1449617864379776101,6.61952,5.98935714224,0.0
1449617864412655068,6.61952,5.98935714224,0.0
1449617864445957833,6.61952,5.98935714224,0.0
1449617864479913180,6.61952,5.98935714224,0.0
1449617864512620110,6.60968634979,5.97871428449,0.0
1449617864546262214,6.60968634979,5.97871428449,0.0
1449617864580012947,6.60968634979,5.97871428449,0.0
1449617864612588149,6.60968634979,5.98935714224,0.0
1449617864645822398,6.60968634979,5.98935714224,0.0
1449617864679429021,6.60968634979,5.98935714224,0.0
1449617864713382315,6.60968634979,5.98935714224,0.0
1449617864745690501,6.60968634979,5.98935714224,0.0
1449617864779311377,6.52118349792,5.42528570858,0.0
1449617864812762507,6.52118349792,5.42528570858,0.0
1449617864846167834,6.52118349792,5.42528570858,0.0
1449617864880629341,6.52118349792,5.42528570858,0.0
1449617864912899920,6.53101714813,5.42528570858,0.0
1449617864945733020,6.53101714813,5.42528570858,0.0
1449617864979330778,6.44251429626,5.52107141715,0.0
1449617865012998159,6.44251429626,5.52107141715,0.0
1449617865047083549,6.44251429626,5.52107141715,0.0
1449617865079336467,6.44251429626,5.52107141715,0.0
1449617865113197431,6.53101714813,5.42528570858,0.0
1449617865145902368,6.53101714813,5.42528570858,0.0
1449617865179216394,6.53101714813,5.43592856508,0.0
1449617865216040102,6.53101714813,5.43592856508,0.0
1449617865246791397,6.53101714813,5.43592856508,0.0
1449617865279304594,6.53101714813,5.43592856508,0.0
1449617865312717309,6.53101714813,5.43592856508,0.0
1449617865347367800,6.53101714813,5.42528570858,0.0
1449617865379842987,6.53101714813,5.42528570858,0.0
1449617865413193676,6.52118349792,5.43592856508,0.0
1449617865452026973,6.52118349792,5.43592856508,0.0
1449617865483235391,6.53101714813,5.42528570858,0.0
1449617865512903052,6.53101714813,5.42528570858,0.0
1449617865546733507,6.53101714813,5.42528570858,0.0
1449617865579531366,6.53101714813,5.43592856508,0.0
1449617865612532192,6.53101714813,5.43592856508,0.0
1449617865646715543,6.53101714813,5.43592856508,0.0
1449617865681860801,6.53101714813,5.43592856508,0.0
1449617865712676609,6.53101714813,5.42528570858,0.0
1449617865745737972,6.53101714813,5.42528570858,0.0
1449617865779777438,6.52118349792,5.43592856508,0.0
1449617865813703108,6.52118349792,5.43592856508,0.0
1449617865846853770,6.52118349792,5.43592856508,0.0
1449617865879152007,6.52118349792,5.43592856508,0.0
1449617865913936380,6.53101714813,5.42528570858,0.0
1449617865946207170,6.53101714813,5.42528570858,0.0
1449617865979246509,6.44251429626,5.52107141715,0.0
1449617866013536006,6.44251429626,5.52107141715,0.0
1449617866046188825,6.44251429626,5.52107141715,0.0
1449617866079341830,6.44251429626,5.52107141715,0.0
1449617866114053675,6.53101714813,5.43592856508,0.0
1449617866149139266,6.53101714813,5.43592856508,0.0
1449617866180550245,6.52118349792,5.43592856508,0.0
1449617866212503534,6.52118349792,5.43592856508,0.0
1449617866246469468,6.52118349792,5.43592856508,0.0
1449617866279332126,6.52118349792,5.43592856508,0.0
1449617866312637548,6.44251429626,5.52107141715,0.0
1449617866345933935,6.44251429626,5.52107141715,0.0
1449617866380759232,6.53101714813,5.42528570858,0.0
1449617866414369712,6.53101714813,5.42528570858,0.0
1449617866446096625,6.53101714813,5.42528570858,0.0
1449617866479949180,6.53101714813,5.42528570858,0.0
1449617866513694329,6.53101714813,5.43592856508,0.0
1449617866545958701,6.53101714813,5.43592856508,0.0
1449617866579321205,6.43268064606,5.52107141715,0.0
1449617866613309395,6.43268064606,5.52107141715,0.0
1449617866647069206,6.43268064606,5.52107141715,0.0
1449617866679169871,6.43268064606,5.52107141715,0.0
1449617866712837729,6.53101714813,5.43592856508,0.0
1449617866745834891,6.53101714813,5.43592856508,0.0
1449617866779296105,6.52118349792,5.42528570858,0.0
1449617866813010912,6.52118349792,5.42528570858,0.0
1449617866845697508,6.52118349792,5.42528570858,0.0
1449617866879087376,6.52118349792,5.42528570858,0.0
1449617866912595607,6.53101714813,5.43592856508,0.0
1449617866945882279,6.53101714813,5.43592856508,0.0
1449617866979893742,6.60968634979,5.98935714224,0.0
1449617867013106285,6.60968634979,5.98935714224,0.0
1449617867046190170,6.60968634979,5.98935714224,0.0
1449617867080715348,6.60968634979,5.98935714224,0.0
1449617867113501165,6.60968634979,5.98935714224,0.0
1449617867146532211,6.60968634979,5.98935714224,0.0
1449617867179616187,6.61952,5.98935714224,0.0
1449617867216349391,6.61952,5.98935714224,0.0
1449617867246407780,6.61952,5.98935714224,0.0
1449617867284773576,6.61952,5.98935714224,0.0
1449617867313540175,6.60968634979,5.98935714224,0.0
1449617867346812598,6.60968634979,5.98935714224,0.0
1449617867378959783,6.60968634979,5.98935714224,0.0
1449617867412925240,6.60968634979,5.98935714224,0.0
1449617867448555791,6.60968634979,5.98935714224,0.0
1449617867480084778,6.60968634979,5.98935714224,0.0
1449617867512603995,6.55068444855,6.0,0.0
1449617867546196127,6.55068444855,6.0,0.0
1449617867579607927,6.60968634979,6.01064285776,0.0
1449617867612683158,6.60968634979,6.01064285776,0.0
1449617867646822079,6.60968634979,6.01064285776,0.0
1449617867679257331,6.60968634979,6.01064285776,0.0
1449617867712609755,6.53101714813,6.01064285776,0.0
1449617867746242583,6.53101714813,6.01064285776,0.0
1449617867779249075,6.60968634979,6.01064285776,0.0
1449617867813674365,6.60968634979,6.01064285776,0.0
1449617867846483400,6.60968634979,6.01064285776,0.0
1449617867880768864,6.60968634979,6.01064285776,0.0
1449617867912459884,6.60968634979,6.01064285776,0.0
1449617867945705880,6.60968634979,6.01064285776,0.0
1449617867979472852,6.60968634979,6.02128571551,0.0
1449617868013047166,6.60968634979,6.02128571551,0.0
1449617868046180415,6.60968634979,6.02128571551,0.0
1449617868080033406,6.60968634979,6.02128571551,0.0
1449617868112898765,6.60968634979,6.02128571551,0.0
1449617868145945429,6.60968634979,6.02128571551,0.0
1449617868181681866,6.60968634979,6.02128571551,0.0
1449617868215721579,6.60968634979,6.02128571551,0.0
1449617868246007772,6.60968634979,6.02128571551,0.0
1449617868279344431,6.60968634979,6.02128571551,0.0
1449617868313102008,6.60968634979,6.03192857202,0.0
1449617868353341615,6.60968634979,6.03192857202,0.0
1449617868379609875,6.59985269958,6.03192857202,0.0
1449617868412741645,6.59985269958,6.03192857202,0.0
1449617868446526366,6.59985269958,6.03192857202,0.0
1449617868480600399,6.59985269958,6.03192857202,0.0
1449617868513024324,6.59985269958,6.03192857202,0.0
1449617868546511878,6.59985269958,6.03192857202,0.0
1449617868579311575,6.60968634979,6.03192857202,0.0
1449617868614621807,6.60968634979,6.03192857202,0.0
1449617868646219434,6.60968634979,6.03192857202,0.0
1449617868692083129,6.60968634979,6.03192857202,0.0
1449617868714766601,6.60968634979,6.03192857202,0.0
1449617868750411029,6.60968634979,6.03192857202,0.0
1449617868782783761,6.59985269958,6.03192857202,0.0
1449617868814573837,6.59985269958,6.03192857202,0.0
1449617868848646455,6.59985269958,6.03192857202,0.0
1449617868879657179,6.59985269958,6.03192857202,0.0
1449617868914819978,6.60968634979,6.02128571551,0.0
1449617868945958937,6.60968634979,6.02128571551,0.0
1449617868979984570,6.60968634979,6.02128571551,0.0
1449617869013642026,6.60968634979,6.02128571551,0.0
1449617869049833309,6.60968634979,6.02128571551,0.0
1449617869078926180,6.60968634979,6.02128571551,0.0
1449617869113186837,6.60968634979,6.03192857202,0.0
1449617869145876483,6.60968634979,6.03192857202,0.0
1449617869182132757,6.60968634979,6.02128571551,0.0
1449617869215471781,6.60968634979,6.02128571551,0.0
1449617869246257441,6.60968634979,6.02128571551,0.0
1449617869279408341,6.60968634979,6.02128571551,0.0
1449617869312602133,6.60968634979,6.02128571551,0.0
1449617869346066255,6.60968634979,6.02128571551,0.0
1449617869378976628,6.59985269958,6.02128571551,0.0
1449617869412827860,6.59985269958,6.02128571551,0.0
1449617869447300529,6.59985269958,6.02128571551,0.0
1449617869479424052,6.59985269958,6.02128571551,0.0
1449617869514629640,6.60968634979,6.01064285776,0.0
1449617869553385351,6.60968634979,6.01064285776,0.0
1449617869579299720,6.60968634979,6.02128571551,0.0
1449617869612782444,6.60968634979,6.02128571551,0.0
1449617869649990280,6.60968634979,6.02128571551,0.0
1449617869679303494,6.60968634979,6.02128571551,0.0
1449617869713904327,6.59985269958,6.02128571551,0.0
1449617869746148621,6.59985269958,6.02128571551,0.0
1449617869779420280,6.56051809875,6.01064285776,0.0
1449617869812946961,6.56051809875,6.01064285776,0.0
1449617869846087090,6.56051809875,6.01064285776,0.0
1449617869879818497,6.56051809875,6.01064285776,0.0
1449617869913058000,6.60968634979,6.01064285776,0.0
1449617869945859491,6.60968634979,6.01064285776,0.0
1449617869979660155,6.52118349792,6.01064285776,0.0
1449617870012828246,6.52118349792,6.01064285776,0.0
1449617870045872246,6.52118349792,6.01064285776,0.0
1449617870079354557,6.52118349792,6.01064285776,0.0
1449617870112368400,6.60968634979,6.01064285776,0.0
1449617870146778845,6.60968634979,6.01064285776,0.0
1449617870179405036,6.60968634979,6.01064285776,0.0
1449617870213189502,6.53101714813,6.01064285776,0.0
1449617870246301895,6.53101714813,6.01064285776,0.0
1449617870281367128,6.53101714813,6.01064285776,0.0
1449617870312804334,6.60968634979,6.02128571551,0.0
1449617870346412496,6.60968634979,6.02128571551,0.0
1449617870379420872,6.57035174896,6.01064285776,0.0
1449617870412537054,6.57035174896,6.01064285776,0.0
1449617870446033113,6.57035174896,6.01064285776,0.0
1449617870479449473,6.57035174896,6.01064285776,0.0
1449617870513217198,6.60968634979,6.01064285776,0.0
1449617870545824985,6.60968634979,6.01064285776,0.0
1449617870579510319,6.60968634979,6.01064285776,0.0
1449617870612377090,6.60968634979,6.01064285776,0.0
1449617870645817779,6.60968634979,6.01064285776,0.0
1449617870679373718,6.60968634979,6.01064285776,0.0
1449617870712966802,6.60968634979,6.01064285776,0.0
1449617870746710565,6.60968634979,6.01064285776,0.0
1449617870779992957,6.60968634979,6.02128571551,0.0
