%time,field.linear.x,field.linear.y,field.linear.z,field.angular.x,field.angular.y,field.angular.z
1449616128306619643,-0.0,0.0,0.0,0.0,0.0,-0.0
1449616128346944577,-0.0,0.0,0.0,0.0,0.0,-0.0
1449616128386723393,-0.0,0.0,0.0,0.0,0.0,-0.0
1449616128426817869,-0.0,0.0,0.0,0.0,0.0,-0.0
1449616128466546863,-0.0,0.0,0.0,0.0,0.0,-0.0
1449616128506160901,-0.0,0.0,0.0,0.0,0.0,-0.0
1449616128546290204,-0.0,0.0,0.0,0.0,0.0,-0.0
1449616128586702460,-0.0,0.0,0.0,0.0,0.0,-0.0
1449616128626319328,-0.0,0.0,0.0,0.0,0.0,-0.0
1449616128666939496,-0.0,0.0,0.0,0.0,0.0,-0.0
1449616128706233387,-0.0,0.0,0.0,0.0,0.0,-0.0
1449616128746138632,-0.0,0.0,0.0,0.0,0.0,-0.0
1449616128787207212,-0.0,0.0,0.0,0.0,0.0,-0.0
1449616128826429729,-0.0,0.0,0.0,0.0,0.0,-0.0
1449616128867022793,-0.0,0.0,0.0,0.0,0.0,-0.0
1449616128906622864,-0.0,0.0,0.0,0.0,0.0,-0.0
1449616128947558954,-0.0,0.0,0.0,0.0,0.0,-0.0
1449616128986851019,-0.0,0.0,0.0,0.0,0.0,-0.0
1449616129026248292,-0.0,0.0,0.0,0.0,0.0,-0.0
1449616129067186423,-0.0,0.0,0.0,0.0,0.0,-0.0
1449616129107044989,-0.0,0.0,0.0,0.0,0.0,-0.0
1449616129146988452,-0.0,0.0,0.0,0.0,0.0,-0.0
1449616129185998186,-0.0,0.0,0.0,0.0,0.0,-0.0
1449616129227554117,-0.0,0.0,0.0,0.0,0.0,-0.0
1449616129267055845,-0.0,0.0,0.0,0.0,0.0,-0.0
1449616129306485654,-0.0,0.0,0.0,0.0,0.0,-0.0
1449616129349396314,-0.0,0.0,0.0,0.0,0.0,-0.0
1449616129385765708,-0.0,0.0,0.0,0.0,0.0,-0.0
1449616129426746335,-0.0,0.0,0.0,0.0,0.0,-0.0
1449616129465845856,-0.0,0.0,0.0,0.0,0.0,-0.0
1449616129506557656,-0.0,0.0,0.0,0.0,0.0,-0.0
1449616129546139578,-0.0,0.0,0.0,0.0,0.0,-0.0
1449616129586114817,-0.0,0.0,0.0,0.0,0.0,-0.0
1449616129627154053,-0.0,0.0,0.0,0.0,0.0,-0.0
1449616129666063977,-0.0,0.0,0.0,0.0,0.0,-0.0
1449616129706313156,-0.0,0.0,0.0,0.0,0.0,-0.0
1449616129745885710,-0.0,0.0,0.0,0.0,0.0,-0.0
1449616129786410290,-0.0,0.0,0.0,0.0,0.0,-0.0
1449616129825853723,-0.0,0.0,0.0,0.0,0.0,-0.0
1449616129866440599,-0.0,0.0,0.0,0.0,0.0,-0.0
1449616129906557462,-0.0,0.0,0.0,0.0,0.0,-0.0
1449616129946713789,-0.0,0.0,0.0,0.0,0.0,-0.0
1449616129986577807,-0.0,0.0,0.0,0.0,0.0,-0.0
1449616130030493080,-0.0,0.0,0.0,0.0,0.0,-0.0
1449616130066401574,-0.0,0.0,0.0,0.0,0.0,-0.0
1449616130106705629,-0.0,0.0,0.0,0.0,0.0,-0.0
1449616130145867182,-0.0,0.0,0.0,0.0,0.0,-0.0
1449616130187005626,-0.0,0.0,0.0,0.0,0.0,-0.0
1449616130226071361,-0.0,0.0,0.0,0.0,0.0,-0.0
1449616130266277265,-0.0,0.0,0.0,0.0,0.0,-0.0
1449616130306826805,-0.0,0.0,0.0,0.0,0.0,-0.0
1449616130346927110,-0.0,0.0,0.0,0.0,0.0,-0.0
1449616130386099049,-0.0,0.0,0.0,0.0,0.0,-0.0
1449616130426281656,-0.0,0.0,0.0,0.0,0.0,-0.0
1449616130467776640,-0.0,0.0,0.0,0.0,0.0,-0.0
1449616130507732244,-0.0,0.0,0.0,0.0,0.0,-0.0
1449616130546378344,-0.0,0.0,0.0,0.0,0.0,-0.0
1449616130586567928,-0.0,0.0,0.0,0.0,0.0,-0.0
1449616130626570624,-0.0,0.0,0.0,0.0,0.0,-0.0
1449616130666131215,-0.0,0.0,0.0,0.0,0.0,-0.0
1449616130706661699,-0.0,0.0,0.0,0.0,0.0,-0.0
1449616130746630212,-0.0,0.0,0.0,0.0,0.0,-0.0
1449616130786297045,-0.0,0.0,0.0,0.0,0.0,-0.0
1449616130825890998,-0.0,0.0,0.0,0.0,0.0,-0.0
1449616130868306291,-0.0,0.0,0.0,0.0,0.0,-0.0
1449616130907509532,-0.0,0.0,0.0,0.0,0.0,-0.0
1449616130946429867,-0.0,0.0,0.0,0.0,0.0,-0.0
1449616130987391319,-0.0,0.0,0.0,0.0,0.0,-0.0
1449616131025959932,-0.0,0.0,0.0,0.0,0.0,-0.0
1449616131065902375,-0.0,0.0,0.0,0.0,0.0,-0.0
1449616131107461507,-0.0,0.0,0.0,0.0,0.0,-0.0
1449616131146116787,-0.0,0.0,0.0,0.0,0.0,-0.0
1449616131187798691,-0.0,0.0,0.0,0.0,0.0,-0.0
1449616131226631076,-0.0,0.0,0.0,0.0,0.0,-0.0
1449616131266898347,-0.0,0.0,0.0,0.0,0.0,-0.0
1449616131307427125,-0.0,0.0,0.0,0.0,0.0,-0.0
1449616131346811448,-0.0,0.0,0.0,0.0,0.0,-0.0
1449616131385927857,-0.0,0.0,0.0,0.0,0.0,-0.0
1449616131426832478,-0.0,0.0,0.0,0.0,0.0,-0.0
1449616131466101156,-0.0,0.0,0.0,0.0,0.0,-0.0
1449616131506446652,-0.0,0.0,0.0,0.0,0.0,-0.0
1449616131546356216,-0.0,0.0,0.0,0.0,0.0,-0.0
1449616131587037958,-0.0,0.0,0.0,0.0,0.0,-0.0
1449616131626412992,-0.0,0.0,0.0,0.0,0.0,-0.0
1449616131668833794,-0.0,0.0,0.0,0.0,0.0,-0.0
1449616131707982620,-0.0,0.0,0.0,0.0,0.0,-0.0
1449616131746152786,-0.0,0.0,0.0,0.0,0.0,-0.0
1449616131786138689,-0.0,0.0,0.0,0.0,0.0,-0.0
1449616131826757335,-0.0,0.0,0.0,0.0,0.0,-0.0
1449616131866455758,-0.0,0.0,0.0,0.0,0.0,-0.0
1449616131906717960,-0.0,0.0,0.0,0.0,0.0,-0.0
1449616131946016477,-0.0,0.0,0.0,0.0,0.0,-0.0
1449616131987142534,-0.0,0.0,0.0,0.0,0.0,-0.0
1449616132025830554,-0.0,0.0,0.0,0.0,0.0,-0.0
1449616132065964665,-0.0,0.0,0.0,0.0,0.0,-0.0
1449616132106189519,-0.0,0.0,0.0,0.0,0.0,-0.0
1449616132146025020,-0.0,0.0,0.0,0.0,0.0,-0.0
1449616132185858276,-0.0,0.0,0.0,0.0,0.0,-0.0
1449616132226171927,-0.0,0.0,0.0,0.0,0.0,-0.0
1449616132265978816,-0.0,0.0,0.0,0.0,0.0,-0.0
1449616132307061429,-0.0,0.0,0.0,0.0,0.0,-0.0
1449616132347732705,-0.0,0.0,0.0,0.0,0.0,-0.0
1449616132386590953,-0.0,0.0,0.0,0.0,0.0,-0.0
1449616132427085544,-0.0,0.0,0.0,0.0,0.0,-0.0
1449616132467239017,-0.0,0.0,0.0,0.0,0.0,-0.0
1449616132506972390,-0.0,0.0,0.0,0.0,0.0,-0.0
1449616132546068865,-0.0,0.0,0.0,0.0,0.0,-0.0
1449616132588023110,-0.0,0.0,0.0,0.0,0.0,-0.0
1449616132626157225,-0.0,0.0,0.0,0.0,0.0,-0.0
1449616132667393492,-0.0,0.0,0.0,0.0,0.0,-0.0
1449616132706234878,-0.0,0.0,0.0,0.0,0.0,-0.0
1449616132746664630,-0.0,0.0,0.0,0.0,0.0,-0.0
1449616132786377250,-0.0,0.0,0.0,0.0,0.0,-0.0
1449616132826157271,-0.0,0.0,0.0,0.0,0.0,-0.0
1449616132866375459,-0.0,0.0,0.0,0.0,0.0,-0.0
1449616132906509197,-0.0,0.0,0.0,0.0,0.0,-0.0
1449616132947069433,-0.0,0.0,0.0,0.0,0.0,-0.0
1449616132987002534,-0.0,0.0,0.0,0.0,0.0,-0.0
1449616133026242662,-0.0,0.0,0.0,0.0,0.0,-0.0
1449616133065817281,-0.0,0.0,0.0,0.0,0.0,-0.0
1449616133106582536,-0.0,0.0,0.0,0.0,0.0,-0.0
1449616133147528700,-0.0,0.0,0.0,0.0,0.0,-0.0
1449616133187624807,-0.0,0.0,0.0,0.0,0.0,-0.0
1449616133226925589,-0.0,0.0,0.0,0.0,0.0,-0.0
1449616133266904878,-0.0,0.0,0.0,0.0,0.0,-0.0
1449616133306050406,-0.0,0.0,0.0,0.0,0.0,-0.0
1449616133346214979,-0.0,0.0,0.0,0.0,0.0,-0.0
1449616133386167471,-0.0,0.0,0.0,0.0,0.0,-0.0
1449616133426645622,-0.0,0.0,0.0,0.0,0.0,-0.0
1449616133466057610,-0.0,0.0,0.0,0.0,0.0,-0.0
1449616133505902748,-0.0,0.0,0.0,0.0,0.0,-0.0
1449616133546742127,-0.0,0.0,0.0,0.0,0.0,-0.0
1449616133586111187,-0.0,0.0,0.0,0.0,0.0,-0.0
1449616133625983668,-0.0,0.0,0.0,0.0,0.0,-0.0
1449616133666452266,-0.0,0.0,0.0,0.0,0.0,-0.0
1449616133706660538,-0.0,0.0,0.0,0.0,0.0,-0.0
1449616133747896129,-0.0,0.0,0.0,0.0,0.0,-0.0
1449616133787424985,-0.0,0.0,0.0,0.0,0.0,-0.0
1449616133828042512,-0.0,0.0,0.0,0.0,0.0,-0.0
1449616133866289544,-0.0,0.0,0.0,0.0,0.0,-0.0
1449616133906076835,-0.0,0.0,0.0,0.0,0.0,-0.0
1449616133946583719,-0.0,0.0,0.0,0.0,0.0,-0.0
1449616133986867061,-0.0,0.0,0.0,0.0,0.0,-0.0
1449616134026095703,-0.0,0.0,0.0,0.0,0.0,-0.0
1449616134066344190,-0.0,0.0,0.0,0.0,0.0,-0.0
1449616134106091873,-0.0,0.0,0.0,0.0,0.0,-0.0
1449616134146475728,-0.0,0.0,0.0,0.0,0.0,-0.0
1449616134186051957,-0.0,0.0,0.0,0.0,0.0,-0.0
1449616134225858619,-0.0,0.0,0.0,0.0,0.0,-0.0
1449616134266632057,-0.0,0.0,0.0,0.0,0.0,-0.0
1449616134307936143,-0.0,0.0,0.0,0.0,0.0,-0.0
1449616134346572579,-0.0,0.0,0.0,0.0,0.0,-0.0
1449616134387072232,-0.0,0.0,0.0,0.0,0.0,-0.0
1449616134427252763,-0.0,0.0,0.0,0.0,0.0,-0.0
1449616134466926019,-0.0,0.0,0.0,0.0,0.0,-0.0
1449616134508039858,-0.0,0.0,0.0,0.0,0.0,-0.0
1449616134546288805,-0.0,0.0,0.0,0.0,0.0,-0.0
1449616134588762942,-0.0,0.0,0.0,0.0,0.0,-0.0
1449616134626188188,-0.0,0.0,0.0,0.0,0.0,-0.0
1449616134666486632,-0.0,0.0,0.0,0.0,0.0,-0.0
1449616134706208200,-0.0,0.0,0.0,0.0,0.0,-0.0
1449616134746360805,-0.0,0.0,0.0,0.0,0.0,-0.0
1449616134785836775,-0.0,0.0,0.0,0.0,0.0,-0.0
1449616134825966571,-0.0,0.0,0.0,0.0,0.0,-0.0
1449616134865838587,-0.0,0.0,0.0,0.0,0.0,-0.0
1449616134907009899,-0.0,0.0,0.0,0.0,0.0,-0.0
1449616134947201505,-0.0,0.0,0.0,0.0,0.0,-0.0
1449616134986358825,-0.0,0.0,0.0,0.0,0.0,-0.0
1449616135026453288,-0.0,0.0,0.0,0.0,0.0,-0.0
1449616135066083868,-0.0,0.0,0.0,0.0,0.0,-0.0
1449616135106868346,-0.0,0.0,0.0,0.0,0.0,-0.0
1449616135146258407,-0.0,0.0,0.0,0.0,0.0,-0.0
1449616135186029246,-0.0,0.0,0.0,0.0,0.0,-0.0
1449616135225950122,-0.0,0.0,0.0,0.0,0.0,-0.0
1449616135266894295,-0.0,0.0,0.0,0.0,0.0,-0.0
1449616135309330749,-0.0,0.0,0.0,0.0,0.0,-0.0
1449616135346073796,-0.0,0.0,0.0,0.0,0.0,-0.0
1449616135386090693,-0.0,0.0,0.0,0.0,0.0,-0.0
1449616135426420082,-0.0,0.0,0.0,0.0,0.0,-0.0
1449616135466128799,-0.0,0.0,0.0,0.0,0.0,-0.0
1449616135507357550,-0.0,0.0,0.0,0.0,0.0,-0.0
1449616135546619459,-0.0,0.0,0.0,0.0,0.0,-0.0
1449616135585965940,-0.0,0.0,0.0,0.0,0.0,-0.0
1449616135627204169,-0.0,0.0,0.0,0.0,0.0,-0.0
1449616135665841559,-0.0,0.0,0.0,0.0,0.0,-0.0
1449616135706457543,-0.0,0.0,0.0,0.0,0.0,-0.0
1449616135746964924,-0.0,0.0,0.0,0.0,0.0,-0.0
1449616135785948404,-0.0,0.0,0.0,0.0,0.0,-0.0
1449616135826678868,-0.0,0.0,0.0,0.0,0.0,-0.0
1449616135867508321,-0.0,0.0,0.0,0.0,0.0,-0.0
1449616135906266680,-0.0,0.0,0.0,0.0,0.0,-0.0
1449616135946206068,-0.0,0.0,0.0,0.0,0.0,-0.0
1449616135986454493,-0.0,0.0,0.0,0.0,0.0,-0.0
1449616136026454402,-0.0,0.0,0.0,0.0,0.0,-0.0
1449616136065866417,-0.0,0.0,0.0,0.0,0.0,-0.0
1449616136106805032,-0.0,0.0,0.0,0.0,0.0,-0.0
1449616136146991043,-0.0,0.0,0.0,0.0,0.0,-0.0
1449616136186454342,-0.0,0.0,0.0,0.0,0.0,-0.0
1449616136226844190,-0.0,0.0,0.0,0.0,0.0,-0.0
1449616136266465652,-0.0,0.0,0.0,0.0,0.0,-0.0
1449616136307253362,-0.0,0.0,0.0,0.0,0.0,-0.0
1449616136346420853,-0.0,0.0,0.0,0.0,0.0,-0.0
1449616136386647467,-0.0,0.0,0.0,0.0,0.0,-0.0
1449616136426308961,-0.0,0.0,0.0,0.0,0.0,-0.0
1449616136466320682,-0.0,0.0,0.0,0.0,0.0,-0.0
1449616136506006533,-0.0,0.0,0.0,0.0,0.0,-0.0
1449616136547446638,-0.0,0.0,0.0,0.0,0.0,-0.0
1449616136587133536,-0.0,0.0,0.0,0.0,0.0,-0.0
1449616136627714846,-0.0,0.0,0.0,0.0,0.0,-0.0
1449616136666822871,-0.0,0.0,0.0,0.0,0.0,-0.0
1449616136707111731,-0.0,0.0,0.0,0.0,0.0,-0.0
1449616136746417633,-0.0,0.0,0.0,0.0,0.0,-0.0
1449616136785801678,-0.0,0.0,0.0,0.0,0.0,-0.0
1449616136826081774,-0.0,0.0,0.0,0.0,0.0,-0.0
1449616136865978423,-0.0,0.0,0.0,0.0,0.0,-0.0
1449616136907267408,-0.0,0.0,0.0,0.0,0.0,-0.0
1449616136946428160,-0.0,0.0,0.0,0.0,0.0,-0.0
1449616136986361899,-0.0,0.0,0.0,0.0,0.0,-0.0
1449616137026360721,-0.0,0.0,0.0,0.0,0.0,-0.0
1449616137066253576,-0.0,0.0,0.0,0.0,0.0,-0.0
1449616137106322122,-0.0,0.0,0.0,0.0,0.0,-0.0
1449616137146772074,-0.0,0.0,0.0,0.0,0.0,-0.0
1449616137186068377,-0.0,0.0,0.0,0.0,0.0,-0.0
1449616137225801709,-0.0,0.0,0.0,0.0,0.0,-0.0
1449616137266729891,-0.0,0.0,0.0,0.0,0.0,-0.0
1449616137306419987,-0.0,0.0,0.0,0.0,0.0,-0.0
1449616137346528518,-0.0,0.0,0.0,0.0,0.0,-0.0
1449616137385783805,-0.0,0.0,0.0,0.0,0.0,-0.0
1449616137425795299,-0.0,0.0,0.0,0.0,0.0,-0.0
1449616137466121825,-0.0,0.0,0.0,0.0,0.0,-0.0
1449616137506075394,-0.0,0.0,0.0,0.0,0.0,-0.0
1449616137546250602,-0.0,0.0,0.0,0.0,0.0,-0.0
1449616137586242518,-0.0,0.0,0.0,0.0,0.0,-0.0
1449616137626269574,-0.0,0.0,0.0,0.0,0.0,-0.0
1449616137666127459,-0.0,0.0,0.0,0.0,0.0,-0.0
1449616137705991785,-0.0,0.0,0.0,0.0,0.0,-0.0
1449616137747602630,-0.0,0.0,0.0,0.0,0.0,-0.0
1449616137786093179,-0.0,0.0,0.0,0.0,0.0,-0.0
1449616137826515075,-0.0,0.0,0.0,0.0,0.0,-0.0
1449616137866485713,-0.0,0.0,0.0,0.0,0.0,-0.0
1449616137905920626,-0.0,0.0,0.0,0.0,0.0,-0.0
1449616137946047315,-0.0,0.0,0.0,0.0,0.0,-0.0
1449616137987474048,-0.0,0.0,0.0,0.0,0.0,-0.0
1449616138026580302,-0.0,0.0,0.0,0.0,0.0,-0.0
1449616138066373656,-0.0,0.0,0.0,0.0,0.0,-0.0
1449616138106822557,-0.0,0.0,0.0,0.0,0.0,-0.0
1449616138148345652,-0.0,0.0,0.0,0.0,0.0,-0.0
1449616138186598862,-0.0,0.0,0.0,0.0,0.0,-0.0
1449616138226543510,-0.0,0.0,0.0,0.0,0.0,-0.0
1449616138267706387,-0.0,0.0,0.0,0.0,0.0,-0.0
1449616138305839876,-0.0,0.0,0.0,0.0,0.0,-0.0
1449616138346047403,-0.0,0.0,0.0,0.0,0.0,-0.0
1449616138385807717,-0.0,0.0,0.0,0.0,0.0,-0.0
1449616138425905677,-0.0,0.0,0.0,0.0,0.0,-0.0
1449616138465921783,-0.0,0.0,0.0,0.0,0.0,-0.0
1449616138507018561,-0.0,0.0,0.0,0.0,0.0,-0.0
1449616138545816811,-0.0,0.0,0.0,0.0,0.0,-0.0
1449616138586350642,-0.0,0.0,0.0,0.0,0.0,-0.0
1449616138626093723,-0.0,0.0,0.0,0.0,0.0,-0.0
1449616138666727917,-0.0,0.0,0.0,0.0,0.0,-0.0
1449616138706778159,-0.0,0.0,0.0,0.0,0.0,-0.0
1449616138745807755,-0.0,0.0,0.0,0.0,0.0,-0.0
1449616138786471020,-0.0,0.0,0.0,0.0,0.0,-0.0
1449616138825776858,-0.0,0.0,0.0,0.0,0.0,-0.0
1449616138865935809,-0.0,0.0,0.0,0.0,0.0,-0.0
1449616138906094904,-0.0,0.0,0.0,0.0,0.0,-0.0
1449616138946987115,-0.0,0.0,0.0,0.0,0.0,-0.0
1449616138986030711,-0.0,0.0,0.0,0.0,0.0,-0.0
1449616139025903343,-0.0,0.0,0.0,0.0,0.0,-0.0
1449616139066695344,-0.0,0.0,0.0,0.0,0.0,-0.0
1449616139108964487,-0.0,0.0,0.0,0.0,0.0,-0.0
1449616139147533263,-0.0,0.0,0.0,0.0,0.0,-0.0
1449616139185951605,-0.0,0.0,0.0,0.0,0.0,-0.0
1449616139226501830,-0.0,0.0,0.0,0.0,0.0,-0.0
1449616139266523264,-0.0,0.0,0.0,0.0,0.0,-0.0
1449616139306552088,-0.0,0.0,0.0,0.0,0.0,-0.0
1449616139347371292,-0.0,0.0,0.0,0.0,0.0,-0.0
1449616139386576590,-0.0,0.0,0.0,0.0,0.0,-0.0
1449616139425940198,-0.0,0.0,0.0,0.0,0.0,-0.0
1449616139468388581,-0.0,0.0,0.0,0.0,0.0,-0.0
1449616139506607788,-0.0,0.0,0.0,0.0,0.0,-0.0
1449616139547871701,-0.0,0.0,0.0,0.0,0.0,-0.0
1449616139586220947,-0.0,0.0,0.0,0.0,0.0,-0.0
1449616139625949381,-0.0,0.0,0.0,0.0,0.0,-0.0
1449616139666391125,-0.0,0.0,0.0,0.0,0.0,-0.0
1449616139707779531,-0.0,0.0,0.0,0.0,0.0,-0.0
1449616139746401844,-0.0,0.0,0.0,0.0,0.0,-0.0
1449616139786299424,-0.0,0.0,0.0,0.0,0.0,-0.0
1449616139826276449,-0.0,0.0,0.0,0.0,0.0,-0.0
1449616139866009135,-0.0,0.0,0.0,0.0,0.0,-0.0
1449616139907260667,-0.0,0.0,0.0,0.0,0.0,-0.0
1449616139946799591,-0.0,0.0,0.0,0.0,0.0,-0.0
1449616139986132018,-0.0,0.0,0.0,0.0,0.0,-0.0
1449616140026994936,-0.0,0.0,0.0,0.0,0.0,-0.0
1449616140066022854,-0.0,0.0,0.0,0.0,0.0,-0.0
1449616140106387387,-0.0,0.0,0.0,0.0,0.0,-0.0
1449616140145876624,-0.0,0.0,0.0,0.0,0.0,-0.0
1449616140185981210,-0.0,0.0,0.0,0.0,0.0,-0.0
1449616140227393187,-0.0,0.0,0.0,0.0,0.0,-0.0
1449616140266062087,-0.0,0.0,0.0,0.0,0.0,-0.0
1449616140306233030,-0.0,0.0,0.0,0.0,0.0,-0.0
1449616140345979233,-0.0,0.0,0.0,0.0,0.0,-0.0
1449616140387662383,-0.0,0.0,0.0,0.0,0.0,-0.0
1449616140425902124,-0.0,0.0,0.0,0.0,0.0,-0.0
1449616140466743182,-0.0,0.0,0.0,0.0,0.0,-0.0
1449616140506649141,-0.0,0.0,0.0,0.0,0.0,-0.0
1449616140546159190,-0.0,0.0,0.0,0.0,0.0,-0.0
1449616140585991371,-0.0,0.0,0.0,0.0,0.0,-0.0
1449616140625850935,-0.0,0.0,0.0,0.0,0.0,-0.0
1449616140666237971,-0.0,0.0,0.0,0.0,0.0,-0.0
1449616140706095328,-0.0,0.0,0.0,0.0,0.0,-0.0
1449616140746136855,-0.0,0.0,0.0,0.0,0.0,-0.0
1449616140786204484,-0.0,0.0,0.0,0.0,0.0,-0.0
1449616140826571019,-0.0,0.0,0.0,0.0,0.0,-0.0
1449616140865797639,-0.0,0.0,0.0,0.0,0.0,-0.0
1449616140906040691,-0.0,0.0,0.0,0.0,0.0,-0.0
1449616140946207230,-0.0,0.0,0.0,0.0,0.0,-0.0
1449616140986088164,-0.0,0.0,0.0,0.0,0.0,-0.0
1449616141025941404,-0.0,0.0,0.0,0.0,0.0,-0.0
1449616141066404277,-0.0,0.0,0.0,0.0,0.0,-0.0
1449616141106616629,-0.0,0.0,0.0,0.0,0.0,-0.0
1449616141146740526,-0.0,0.0,0.0,0.0,0.0,-0.0
1449616141187294694,-0.0,0.0,0.0,0.0,0.0,-0.0
1449616141226148484,-0.0,0.0,0.0,0.0,0.0,-0.0
1449616141266547269,-0.0,0.0,0.0,0.0,0.0,-0.0
1449616141306290020,-0.0,0.0,0.0,0.0,0.0,-0.0
1449616141347823233,-0.0,0.0,0.0,0.0,0.0,-0.0
1449616141386057941,-0.0,0.0,0.0,0.0,0.0,-0.0
1449616141426174962,-0.0,0.0,0.0,0.0,0.0,-0.0
1449616141466288666,-0.0,0.0,0.0,0.0,0.0,-0.0
1449616141506064238,-0.0,0.0,0.0,0.0,0.0,-0.0
1449616141546403813,-0.0,0.0,0.0,0.0,0.0,-0.0
1449616141586059439,-0.0,0.0,0.0,0.0,0.0,-0.0
1449616141626087633,-0.0,0.0,0.0,0.0,0.0,-0.0
1449616141666571288,-0.0,0.0,0.0,0.0,0.0,-0.0
1449616141706753932,-0.0,0.0,0.0,0.0,0.0,-0.0
1449616141746687369,-0.0,0.0,0.0,0.0,0.0,-0.0
1449616141787147863,-0.0,0.0,0.0,0.0,0.0,-0.0
1449616141827843246,-0.0,0.0,0.0,0.0,0.0,-0.0
1449616141866391450,-0.0,0.0,0.0,0.0,0.0,-0.0
1449616141906640188,-0.0,0.0,0.0,0.0,0.0,-0.0
1449616141947345581,-0.0,0.0,0.0,0.0,0.0,-0.0
1449616141988376787,-0.0,0.0,0.0,0.0,0.0,-0.0
1449616142026572323,-0.0,0.0,0.0,0.0,0.0,-0.0
1449616142069103204,-0.0,0.0,0.0,0.0,0.0,-0.0
1449616142106901441,-0.0,0.0,0.0,0.0,0.0,-0.0
1449616142146909700,-0.0,0.0,0.0,0.0,0.0,-0.0
1449616142186427049,-0.0,0.0,0.0,0.0,0.0,-0.0
1449616142227450459,-0.0,0.0,0.0,0.0,0.0,-0.0
1449616142265902406,-0.0,0.0,0.0,0.0,0.0,-0.0
1449616142307114679,-0.0,0.0,0.0,0.0,0.0,-0.0
1449616142347342222,-0.0,0.0,0.0,0.0,0.0,-0.0
1449616142387165812,-0.0,0.0,0.0,0.0,0.0,-0.0
1449616142426187552,-0.0,0.0,0.0,0.0,0.0,-0.0
1449616142465895206,-0.0,0.0,0.0,0.0,0.0,-0.0
1449616142506562317,-0.0,0.0,0.0,0.0,0.0,-0.0
1449616142546690665,-0.0,0.0,0.0,0.0,0.0,-0.0
1449616142587458227,-0.0,0.0,0.0,0.0,0.0,-0.0
1449616142625907880,-0.0,0.0,0.0,0.0,0.0,-0.0
1449616142666345975,-0.0,0.0,0.0,0.0,0.0,-0.0
1449616142705812775,-0.0,0.0,0.0,0.0,0.0,-0.0
1449616142746602306,-0.0,0.0,0.0,0.0,0.0,-0.0
1449616142785790631,-0.0,0.0,0.0,0.0,0.0,-0.0
1449616142827486452,-0.0,0.0,0.0,0.0,0.0,-0.0
1449616142866272691,-0.0,0.0,0.0,0.0,0.0,-0.0
1449616142906538288,-0.0,0.0,0.0,0.0,0.0,-0.0
1449616142946115835,-0.0,0.0,0.0,0.0,0.0,-0.0
1449616142986652375,-0.0,0.0,0.0,0.0,0.0,-0.0
1449616143025819333,-0.0,0.0,0.0,0.0,0.0,-0.0
1449616143067280213,-0.0,0.0,0.0,0.0,0.0,-0.0
1449616143106505389,-0.0,0.0,0.0,0.0,0.0,-0.0
1449616143146146257,-0.0,0.0,0.0,0.0,0.0,-0.0
1449616143187924718,-0.0,0.0,0.0,0.0,0.0,-0.0
1449616143228946138,-0.0,0.0,0.0,0.0,0.0,-0.0
1449616143266656649,-0.0,0.0,0.0,0.0,0.0,-0.0
1449616143306284369,-0.0,0.0,0.0,0.0,0.0,-0.0
1449616143347873624,-0.0,0.0,0.0,0.0,0.0,-0.0
1449616143386558133,-0.0,0.0,0.0,0.0,0.0,-0.0
1449616143425844032,-0.0,0.0,0.0,0.0,0.0,-0.0
1449616143465944071,-0.0,0.0,0.0,0.0,0.0,-0.0
1449616143506449604,-0.0,0.0,0.0,0.0,0.0,-0.0
1449616143546050854,-0.0,0.0,0.0,0.0,0.0,-0.0
1449616143587574914,-0.0,0.0,0.0,0.0,0.0,-0.0
1449616143625958920,-0.0,0.0,0.0,0.0,0.0,-0.0
1449616143666675141,-0.0,0.0,0.0,0.0,0.0,-0.0
1449616143706150577,-0.0,0.0,0.0,0.0,0.0,-0.0
1449616143746439068,-0.0,0.0,0.0,0.0,0.0,-0.0
1449616143786718047,-0.0,0.0,0.0,0.0,0.0,-0.0
1449616143828394607,-0.0,0.0,0.0,0.0,0.0,-0.0
1449616143866542467,-0.0,0.0,0.0,0.0,0.0,-0.0
1449616143906290463,-0.0,0.0,0.0,0.0,0.0,-0.0
1449616143946169549,-0.0,0.0,0.0,0.0,0.0,-0.0
1449616143986141296,-0.0,0.0,0.0,0.0,0.0,-0.0
1449616144025828037,-0.0,0.0,0.0,0.0,0.0,-0.0
1449616144065896485,-0.0,0.0,0.0,0.0,0.0,-0.0
1449616144105906987,-0.0,0.0,0.0,0.0,0.0,-0.0
1449616144146434405,-0.0,0.0,0.0,0.0,0.0,-0.0
1449616144187406118,-0.0,0.0,0.0,0.0,0.0,-0.0
1449616144226188451,-0.0,0.0,0.0,0.0,0.0,-0.0
1449616144266927093,-0.0,0.0,0.0,0.0,0.0,-0.0
1449616144307322968,-0.0,0.0,0.0,0.0,0.0,-0.0
1449616144345943680,-0.0,0.0,0.0,0.0,0.0,-0.0
1449616144386202752,-0.0,0.0,0.0,0.0,0.0,-0.0
1449616144425807312,-0.0,0.0,0.0,0.0,0.0,-0.0
1449616144466423646,-0.0,0.0,0.0,0.0,0.0,-0.0
1449616144506294522,-0.0,0.0,0.0,0.0,0.0,-0.0
1449616144546305684,-0.0,0.0,0.0,0.0,0.0,-0.0
1449616144586287345,-0.0,0.0,0.0,0.0,0.0,-0.0
1449616144626443111,-0.0,0.0,0.0,0.0,0.0,-0.0
1449616144665931297,-0.0,0.0,0.0,0.0,0.0,-0.0
1449616144705938252,-0.0,0.0,0.0,0.0,0.0,-0.0
1449616144746329985,-0.0,0.0,0.0,0.0,0.0,-0.0
1449616144786217021,-0.0,0.0,0.0,0.0,0.0,-0.0
1449616144826598545,-0.0,0.0,0.0,0.0,0.0,-0.0
1449616144866927044,-0.0,0.0,0.0,0.0,0.0,-0.0
1449616144907513452,-0.0,0.0,0.0,0.0,0.0,-0.0
1449616144946354675,-0.0,0.0,0.0,0.0,0.0,-0.0
1449616144986206426,-0.0,0.0,0.0,0.0,0.0,-0.0
1449616145026233870,0.00558730190992,0.0,0.0,0.0,0.0,0.0
1449616145066591912,0.00558730190992,0.0,0.0,0.0,0.0,0.0
1449616145106013915,0.0838095240593,0.0,0.0,0.0,0.0,-0.00634920671582
1449616145146047609,0.0838095240593,0.0,0.0,0.0,0.0,-0.00634920671582
1449616145186326601,0.0838095240593,0.0,0.0,0.0,0.0,-0.00634920671582
1449616145225869106,0.31288889122,0.0,0.0,0.0,0.0,-0.00634920671582
1449616145266417702,0.31288889122,0.0,0.0,0.0,0.0,-0.00634920671582
1449616145306367462,0.352,0.0,0.0,0.0,0.0,-0.00634920671582
1449616145346393282,0.352,0.0,0.0,0.0,0.0,-0.00634920671582
1449616145386068424,0.352,0.0,0.0,0.0,0.0,-0.00634920671582
1449616145426244864,0.307301589966,0.0,0.0,0.0,0.0,-0.00634920671582
1449616145471323845,0.307301589966,0.0,0.0,0.0,0.0,-0.00634920671582
1449616145506656390,0.346412698746,0.0,0.0,0.0,0.0,-0.00634920671582
1449616145547343763,0.346412698746,0.0,0.0,0.0,0.0,-0.00634920671582
1449616145586538277,0.346412698746,0.0,0.0,0.0,0.0,-0.00634920671582
1449616145626043076,0.307301589966,0.0,0.0,0.0,0.0,0.0
1449616145666429938,0.307301589966,0.0,0.0,0.0,0.0,0.0
1449616145706437057,0.346412698746,0.0,0.0,0.0,0.0,-0.00634920671582
1449616145746998211,0.346412698746,0.0,0.0,0.0,0.0,-0.00634920671582
1449616145786260629,0.346412698746,0.0,0.0,0.0,0.0,-0.00634920671582
1449616145826581837,0.346412698746,0.0,0.0,0.0,0.0,0.0
1449616145866272771,0.346412698746,0.0,0.0,0.0,0.0,0.0
1449616145906000745,0.346412698746,0.0,0.0,0.0,0.0,-0.00634920671582
1449616145947810096,0.346412698746,0.0,0.0,0.0,0.0,-0.00634920671582
1449616145986729646,0.346412698746,0.0,0.0,0.0,0.0,-0.00634920671582
1449616146026056285,0.346412698746,0.0,0.0,0.0,0.0,0.0
1449616146068665651,0.346412698746,0.0,0.0,0.0,0.0,0.0
1449616146105950326,0.346412698746,0.0,0.0,0.0,0.0,-0.00634920671582
1449616146147479573,0.346412698746,0.0,0.0,0.0,0.0,-0.00634920671582
1449616146187313945,0.346412698746,0.0,0.0,0.0,0.0,-0.00634920671582
1449616146226248252,0.346412698746,0.0,0.0,0.0,0.0,0.0
1449616146266076316,0.346412698746,0.0,0.0,0.0,0.0,0.0
1449616146307512249,0.346412698746,0.0,0.0,0.0,0.0,-0.00634920671582
1449616146347335388,0.346412698746,0.0,0.0,0.0,0.0,-0.00634920671582
1449616146386341760,0.346412698746,0.0,0.0,0.0,0.0,-0.00634920671582
1449616146426674573,0.346412698746,0.0,0.0,0.0,0.0,0.0
1449616146466220210,0.346412698746,0.0,0.0,0.0,0.0,0.0
1449616146505981603,0.346412698746,0.0,0.0,0.0,0.0,-0.00634920671582
1449616146546694576,0.346412698746,0.0,0.0,0.0,0.0,-0.00634920671582
1449616146586942612,0.346412698746,0.0,0.0,0.0,0.0,-0.00634920671582
1449616146627944446,0.346412698746,0.0,0.0,0.0,0.0,0.0
1449616146666647545,0.346412698746,0.0,0.0,0.0,0.0,0.0
1449616146707013553,0.346412698746,0.0,0.0,0.0,0.0,-0.00634920671582
1449616146745873299,0.346412698746,0.0,0.0,0.0,0.0,-0.00634920671582
1449616146787816294,0.346412698746,0.0,0.0,0.0,0.0,-0.00634920671582
1449616146827584657,0.346412698746,0.0,0.0,0.0,0.0,0.0
1449616146868310284,0.346412698746,0.0,0.0,0.0,0.0,0.0
1449616146906474682,0.307301589966,0.0,0.0,0.0,0.0,-0.00634920671582
1449616146946314179,0.307301589966,0.0,0.0,0.0,0.0,-0.00634920671582
1449616146987331323,0.307301589966,0.0,0.0,0.0,0.0,-0.00634920671582
1449616147027315184,0.346412698746,0.0,0.0,0.0,0.0,0.0
1449616147066106632,0.346412698746,0.0,0.0,0.0,0.0,0.0
1449616147107536533,0.307301589966,0.0,0.0,0.0,0.0,-0.00634920671582
1449616147146156605,0.307301589966,0.0,0.0,0.0,0.0,-0.00634920671582
1449616147186968175,0.307301589966,0.0,0.0,0.0,0.0,-0.00634920671582
1449616147226275199,0.346412698746,0.0,0.0,0.0,0.0,0.0
1449616147266279190,0.346412698746,0.0,0.0,0.0,0.0,0.0
1449616147306047222,0.346412698746,0.0,0.0,0.0,0.0,-0.00634920671582
1449616147346958379,0.346412698746,0.0,0.0,0.0,0.0,-0.00634920671582
1449616147386519220,0.346412698746,0.0,0.0,0.0,0.0,-0.00634920671582
1449616147426111755,0.340825397491,0.0,0.0,0.0,0.0,0.0
1449616147465904389,0.340825397491,0.0,0.0,0.0,0.0,0.0
1449616147508229187,0.346412698746,0.0,0.0,0.0,0.0,-0.00634920671582
1449616147546431781,0.346412698746,0.0,0.0,0.0,0.0,-0.00634920671582
1449616147589228698,0.346412698746,0.0,0.0,0.0,0.0,-0.00634920671582
1449616147626084057,0.346412698746,0.0,0.0,0.0,0.0,0.0
1449616147668208557,0.346412698746,0.0,0.0,0.0,0.0,0.0
1449616147706481360,0.346412698746,0.0,0.0,0.0,0.0,-0.00634920671582
1449616147747319841,0.346412698746,0.0,0.0,0.0,0.0,-0.00634920671582
1449616147786069833,0.346412698746,0.0,0.0,0.0,0.0,-0.00634920671582
1449616147826141348,0.346412698746,0.0,0.0,0.0,0.0,0.0
1449616147866564548,0.346412698746,0.0,0.0,0.0,0.0,0.0
1449616147906979454,0.346412698746,0.0,0.0,0.0,0.0,0.0
1449616147947273010,0.346412698746,0.0,0.0,0.0,0.0,0.0
1449616147986307838,0.346412698746,0.0,0.0,0.0,0.0,0.0
1449616148026656566,0.346412698746,0.0,0.0,0.0,0.0,0.0
1449616148066772843,0.346412698746,0.0,0.0,0.0,0.0,0.0
1449616148106443097,0.346412698746,0.0,0.0,0.0,0.0,-0.00634920671582
1449616148150546832,0.346412698746,0.0,0.0,0.0,0.0,-0.00634920671582
1449616148187069408,0.346412698746,0.0,0.0,0.0,0.0,-0.00634920671582
1449616148226280857,0.346412698746,0.0,0.0,0.0,0.0,-0.00634920671582
1449616148267234272,0.346412698746,0.0,0.0,0.0,0.0,-0.00634920671582
1449616148306072580,0.346412698746,0.0,0.0,0.0,0.0,-0.00634920671582
1449616148347228348,0.346412698746,0.0,0.0,0.0,0.0,-0.00634920671582
1449616148387355269,0.346412698746,0.0,0.0,0.0,0.0,-0.00634920671582
1449616148425800876,0.346412698746,0.0,0.0,0.0,0.0,-0.00634920671582
1449616148466930509,0.346412698746,0.0,0.0,0.0,0.0,-0.00634920671582
1449616148505922394,0.346412698746,0.0,0.0,0.0,0.0,-0.00634920671582
1449616148548804344,0.346412698746,0.0,0.0,0.0,0.0,-0.00634920671582
1449616148587188475,0.346412698746,0.0,0.0,0.0,0.0,-0.00634920671582
1449616148626085458,0.346412698746,0.0,0.0,0.0,0.0,-0.00634920671582
1449616148666737808,0.346412698746,0.0,0.0,0.0,0.0,-0.00634920671582
1449616148706039432,0.346412698746,0.0,0.0,0.0,0.0,-0.00634920671582
1449616148746728689,0.346412698746,0.0,0.0,0.0,0.0,-0.00634920671582
1449616148786494546,0.346412698746,0.0,0.0,0.0,0.0,-0.00634920671582
1449616148826100242,0.340825397491,0.0,0.0,0.0,0.0,-0.0126984134316
1449616148866332530,0.340825397491,0.0,0.0,0.0,0.0,-0.0126984134316
1449616148906871701,0.340825397491,0.0,0.0,0.0,0.0,-0.0317460328341
1449616148946124120,0.340825397491,0.0,0.0,0.0,0.0,-0.0317460328341
1449616148986190021,0.340825397491,0.0,0.0,0.0,0.0,-0.0317460328341
1449616149027221334,0.340825397491,0.0,0.0,0.0,0.0,-0.0317460328341
1449616149066393325,0.340825397491,0.0,0.0,0.0,0.0,-0.0317460328341
1449616149106328272,0.340825397491,0.0,0.0,0.0,0.0,-0.0317460328341
1449616149148259921,0.340825397491,0.0,0.0,0.0,0.0,-0.0317460328341
1449616149186561303,0.340825397491,0.0,0.0,0.0,0.0,-0.0317460328341
1449616149226735503,0.340825397491,0.0,0.0,0.0,0.0,-0.0317460328341
1449616149267269156,0.340825397491,0.0,0.0,0.0,0.0,-0.0317460328341
1449616149307013637,0.346412698746,0.0,0.0,0.0,0.0,-0.0190476194024
1449616149348456593,0.346412698746,0.0,0.0,0.0,0.0,-0.0190476194024
1449616149386053085,0.346412698746,0.0,0.0,0.0,0.0,-0.0190476194024
1449616149426417324,0.346412698746,0.0,0.0,0.0,0.0,-0.0253968268633
1449616149465965533,0.346412698746,0.0,0.0,0.0,0.0,-0.0253968268633
1449616149506383024,0.340825397491,0.0,0.0,0.0,0.0,-0.0253968268633
1449616149547747310,0.340825397491,0.0,0.0,0.0,0.0,-0.0253968268633
1449616149585971114,0.340825397491,0.0,0.0,0.0,0.0,-0.0253968268633
1449616149626265940,0.340825397491,0.0,0.0,0.0,0.0,-0.0380952388048
1449616149667560023,0.340825397491,0.0,0.0,0.0,0.0,-0.0380952388048
1449616149706656436,0.296126987457,0.0,0.0,0.0,0.0,-0.336507940292
1449616149746025900,0.296126987457,0.0,0.0,0.0,0.0,-0.336507940292
1449616149786208201,0.296126987457,0.0,0.0,0.0,0.0,-0.336507940292
1449616149826256109,0.296126987457,0.0,0.0,0.0,0.0,-0.342857146263
1449616149868216758,0.296126987457,0.0,0.0,0.0,0.0,-0.342857146263
1449616149906354885,0.251428577423,0.0,0.0,0.0,0.0,-0.279365086555
1449616149948842933,0.251428577423,0.0,0.0,0.0,0.0,-0.279365086555
1449616149990783751,0.251428577423,0.0,0.0,0.0,0.0,-0.279365086555
1449616150026991335,0.296126987457,0.0,0.0,0.0,0.0,-0.336507940292
1449616150066473616,0.296126987457,0.0,0.0,0.0,0.0,-0.336507940292
1449616150106755539,0.301714288712,0.0,0.0,0.0,0.0,-0.336507940292
1449616150146353031,0.301714288712,0.0,0.0,0.0,0.0,-0.336507940292
1449616150187946587,0.301714288712,0.0,0.0,0.0,0.0,-0.336507940292
1449616150226330631,0.301714288712,0.0,0.0,0.0,0.0,-0.336507940292
1449616150266473542,0.301714288712,0.0,0.0,0.0,0.0,-0.336507940292
1449616150306938332,0.301714288712,0.0,0.0,0.0,0.0,-0.342857146263
1449616150346173407,0.301714288712,0.0,0.0,0.0,0.0,-0.342857146263
1449616150386903624,0.301714288712,0.0,0.0,0.0,0.0,-0.342857146263
1449616150426736315,0.301714288712,0.0,0.0,0.0,0.0,-0.336507940292
1449616150468401589,0.301714288712,0.0,0.0,0.0,0.0,-0.336507940292
1449616150506863467,0.296126987457,0.0,0.0,0.0,0.0,-0.336507940292
1449616150546251839,0.296126987457,0.0,0.0,0.0,0.0,-0.336507940292
1449616150591288118,0.296126987457,0.0,0.0,0.0,0.0,-0.336507940292
1449616150629005844,-0.0,0.0,0.0,0.0,0.0,-0.0
1449616150666312647,-0.0,0.0,0.0,0.0,0.0,-0.0
1449616150706129989,0.346412698746,0.0,0.0,0.0,0.0,0.0
1449616150746080094,0.346412698746,0.0,0.0,0.0,0.0,0.0
1449616150786219601,0.346412698746,0.0,0.0,0.0,0.0,0.0
1449616150825776151,0.346412698746,0.0,0.0,0.0,0.0,-0.00634920671582
1449616150866809906,0.346412698746,0.0,0.0,0.0,0.0,-0.00634920671582
1449616150906836035,0.346412698746,0.0,0.0,0.0,0.0,-0.00634920671582
1449616150946400839,0.346412698746,0.0,0.0,0.0,0.0,-0.00634920671582
1449616150986708279,0.346412698746,0.0,0.0,0.0,0.0,-0.00634920671582
1449616151026451197,0.346412698746,0.0,0.0,0.0,0.0,0.0
1449616151069854837,0.346412698746,0.0,0.0,0.0,0.0,0.0
1449616151107234418,0.307301589966,0.0,0.0,0.0,0.0,-0.00634920671582
1449616151147045977,0.307301589966,0.0,0.0,0.0,0.0,-0.00634920671582
1449616151186418603,0.307301589966,0.0,0.0,0.0,0.0,-0.00634920671582
1449616151234239415,0.346412698746,0.0,0.0,0.0,0.0,0.0
1449616151267412258,0.346412698746,0.0,0.0,0.0,0.0,0.0
1449616151306884054,0.301714288712,0.0,0.0,0.0,0.0,0.00634920671582
1449616151349398852,0.301714288712,0.0,0.0,0.0,0.0,0.00634920671582
1449616151386514162,0.301714288712,0.0,0.0,0.0,0.0,0.00634920671582
1449616151425991343,0.335238096237,0.0,0.0,0.0,0.0,0.0761904776096
1449616151466962437,0.335238096237,0.0,0.0,0.0,0.0,0.0761904776096
1449616151506450406,0.27377778244,0.0,0.0,0.0,0.0,0.114285719395
1449616151547674070,0.27377778244,0.0,0.0,0.0,0.0,0.114285719395
1449616151586221766,0.27377778244,0.0,0.0,0.0,0.0,0.114285719395
1449616151626284843,0.301714288712,0.0,0.0,0.0,0.0,0.336507940292
1449616151666215685,0.301714288712,0.0,0.0,0.0,0.0,0.336507940292
1449616151706165294,0.296126987457,0.0,0.0,0.0,0.0,0.336507940292
1449616151747355153,0.296126987457,0.0,0.0,0.0,0.0,0.336507940292
1449616151786965649,0.296126987457,0.0,0.0,0.0,0.0,0.336507940292
1449616151826454347,0.301714288712,0.0,0.0,0.0,0.0,0.342857146263
1449616151866726641,0.301714288712,0.0,0.0,0.0,0.0,0.342857146263
1449616151906445204,0.301714288712,0.0,0.0,0.0,0.0,0.342857146263
1449616151946251080,0.301714288712,0.0,0.0,0.0,0.0,0.342857146263
1449616151987222892,0.301714288712,0.0,0.0,0.0,0.0,0.342857146263
1449616152026379221,0.301714288712,0.0,0.0,0.0,0.0,0.342857146263
1449616152067087803,0.301714288712,0.0,0.0,0.0,0.0,0.342857146263
1449616152106165168,0.301714288712,0.0,0.0,0.0,0.0,0.336507940292
1449616152147504137,0.301714288712,0.0,0.0,0.0,0.0,0.336507940292
1449616152186595958,0.301714288712,0.0,0.0,0.0,0.0,0.336507940292
1449616152226328984,0.301714288712,0.0,0.0,0.0,0.0,0.336507940292
1449616152266795200,0.301714288712,0.0,0.0,0.0,0.0,0.336507940292
1449616152306471574,0.296126987457,0.0,0.0,0.0,0.0,0.336507940292
1449616152347382073,0.296126987457,0.0,0.0,0.0,0.0,0.336507940292
1449616152387863003,0.296126987457,0.0,0.0,0.0,0.0,0.336507940292
1449616152426462888,0.301714288712,0.0,0.0,0.0,0.0,0.342857146263
1449616152467785843,0.301714288712,0.0,0.0,0.0,0.0,0.342857146263
1449616152507864846,0.301714288712,0.0,0.0,0.0,0.0,0.342857146263
1449616152546461643,0.301714288712,0.0,0.0,0.0,0.0,0.342857146263
1449616152586174378,0.301714288712,0.0,0.0,0.0,0.0,0.342857146263
1449616152627928004,0.301714288712,0.0,0.0,0.0,0.0,0.336507940292
1449616152666785388,0.301714288712,0.0,0.0,0.0,0.0,0.336507940292
1449616152705782494,-0.0,0.0,0.0,0.0,0.0,-0.0
1449616152747537771,-0.0,0.0,0.0,0.0,0.0,-0.0
1449616152785973591,-0.0,0.0,0.0,0.0,0.0,-0.0
1449616152827344169,0.296126987457,0.0,0.0,0.0,0.0,0.336507940292
1449616152867220347,0.296126987457,0.0,0.0,0.0,0.0,0.336507940292
1449616152906448367,0.301714288712,0.0,0.0,0.0,0.0,0.342857146263
1449616152946533538,0.301714288712,0.0,0.0,0.0,0.0,0.342857146263
1449616152989277213,0.301714288712,0.0,0.0,0.0,0.0,0.342857146263
1449616153028239944,0.301714288712,0.0,0.0,0.0,0.0,0.336507940292
1449616153067465445,0.301714288712,0.0,0.0,0.0,0.0,0.336507940292
1449616153106162120,0.301714288712,0.0,0.0,0.0,0.0,0.342857146263
1449616153146003080,0.301714288712,0.0,0.0,0.0,0.0,0.342857146263
1449616153186635715,0.301714288712,0.0,0.0,0.0,0.0,0.342857146263
1449616153226322727,0.324063493729,0.0,0.0,0.0,0.0,0.184126985073
1449616153266912909,0.324063493729,0.0,0.0,0.0,0.0,0.184126985073
1449616153305796897,0.340825397491,0.0,0.0,0.0,0.0,0.0571428596973
1449616153346089675,0.340825397491,0.0,0.0,0.0,0.0,0.0571428596973
1449616153386737805,0.340825397491,0.0,0.0,0.0,0.0,0.0571428596973
1449616153426963508,0.346412698746,0.0,0.0,0.0,0.0,0.0126984134316
1449616153465975241,0.346412698746,0.0,0.0,0.0,0.0,0.0126984134316
1449616153506089178,0.346412698746,0.0,0.0,0.0,0.0,0.0126984134316
1449616153546714106,0.346412698746,0.0,0.0,0.0,0.0,0.0126984134316
1449616153586529494,0.346412698746,0.0,0.0,0.0,0.0,0.0126984134316
1449616153626443273,0.340825397491,0.0,0.0,0.0,0.0,0.00634920671582
1449616153667437485,0.340825397491,0.0,0.0,0.0,0.0,0.00634920671582
1449616153706131893,0.307301589966,0.0,0.0,0.0,0.0,0.0
1449616153746089027,0.307301589966,0.0,0.0,0.0,0.0,0.0
1449616153786794487,0.307301589966,0.0,0.0,0.0,0.0,0.0
1449616153826202000,0.346412698746,0.0,0.0,0.0,0.0,-0.00634920671582
1449616153866530047,0.346412698746,0.0,0.0,0.0,0.0,-0.00634920671582
1449616153906518831,0.301714288712,0.0,0.0,0.0,0.0,-0.00634920671582
1449616153946776704,0.301714288712,0.0,0.0,0.0,0.0,-0.00634920671582
1449616153985942420,0.301714288712,0.0,0.0,0.0,0.0,-0.00634920671582
1449616154026356088,0.346412698746,0.0,0.0,0.0,0.0,0.0
1449616154067134797,0.346412698746,0.0,0.0,0.0,0.0,0.0
1449616154106934336,0.301714288712,0.0,0.0,0.0,0.0,-0.00634920671582
1449616154146080610,0.301714288712,0.0,0.0,0.0,0.0,-0.00634920671582
1449616154186848799,0.301714288712,0.0,0.0,0.0,0.0,-0.00634920671582
1449616154227990574,0.346412698746,0.0,0.0,0.0,0.0,-0.00634920671582
1449616154266806021,0.346412698746,0.0,0.0,0.0,0.0,-0.00634920671582
1449616154305788606,0.340825397491,0.0,0.0,0.0,0.0,-0.0507936537266
1449616154346295318,0.340825397491,0.0,0.0,0.0,0.0,-0.0507936537266
1449616154386458199,0.340825397491,0.0,0.0,0.0,0.0,-0.0507936537266
1449616154427725110,0.324063493729,0.0,0.0,0.0,0.0,-0.126984131336
1449616154466232389,0.324063493729,0.0,0.0,0.0,0.0,-0.126984131336
1449616154506276996,0.296126987457,0.0,0.0,0.0,0.0,-0.336507940292
1449616154546254669,0.296126987457,0.0,0.0,0.0,0.0,-0.336507940292
1449616154585780250,0.296126987457,0.0,0.0,0.0,0.0,-0.336507940292
1449616154625868789,0.324063493729,0.0,0.0,0.0,0.0,-0.184126985073
1449616154666537650,0.324063493729,0.0,0.0,0.0,0.0,-0.184126985073
1449616154706442708,0.318476192474,0.0,0.0,0.0,0.0,-0.184126985073
1449616154745705278,0.318476192474,0.0,0.0,0.0,0.0,-0.184126985073
1449616154785927217,0.318476192474,0.0,0.0,0.0,0.0,-0.184126985073
1449616154826493799,0.346412698746,0.0,0.0,0.0,0.0,-0.0126984134316
1449616154866635515,0.346412698746,0.0,0.0,0.0,0.0,-0.0126984134316
1449616154906773275,0.346412698746,0.0,0.0,0.0,0.0,-0.0126984134316
1449616154945930016,0.346412698746,0.0,0.0,0.0,0.0,-0.0126984134316
1449616154986227811,0.346412698746,0.0,0.0,0.0,0.0,-0.0126984134316
1449616155026049556,0.346412698746,0.0,0.0,0.0,0.0,0.0
1449616155066012288,0.346412698746,0.0,0.0,0.0,0.0,0.0
1449616155106263233,0.346412698746,0.0,0.0,0.0,0.0,0.00634920671582
1449616155145870801,0.346412698746,0.0,0.0,0.0,0.0,0.00634920671582
1449616155185893427,0.346412698746,0.0,0.0,0.0,0.0,0.00634920671582
1449616155226033845,0.301714288712,0.0,0.0,0.0,0.0,0.342857146263
1449616155266479499,0.301714288712,0.0,0.0,0.0,0.0,0.342857146263
1449616155307759566,-0.0,0.0,0.0,0.0,0.0,-0.0
1449616155345897345,-0.0,0.0,0.0,0.0,0.0,-0.0
1449616155385791491,-0.0,0.0,0.0,0.0,0.0,-0.0
1449616155425806269,0.301714288712,0.0,0.0,0.0,0.0,0.342857146263
1449616155466281146,0.301714288712,0.0,0.0,0.0,0.0,0.342857146263
1449616155506433400,0.296126987457,0.0,0.0,0.0,0.0,0.336507940292
1449616155545767769,0.296126987457,0.0,0.0,0.0,0.0,0.336507940292
1449616155586209080,0.296126987457,0.0,0.0,0.0,0.0,0.336507940292
1449616155626207026,0.301714288712,0.0,0.0,0.0,0.0,0.342857146263
1449616155666045358,0.301714288712,0.0,0.0,0.0,0.0,0.342857146263
1449616155706233700,0.296126987457,0.0,0.0,0.0,0.0,0.336507940292
1449616155745662790,0.296126987457,0.0,0.0,0.0,0.0,0.336507940292
1449616155785768239,0.296126987457,0.0,0.0,0.0,0.0,0.336507940292
1449616155825780257,0.251428577423,0.0,0.0,0.0,0.0,0.285714292526
1449616155866019060,0.251428577423,0.0,0.0,0.0,0.0,0.285714292526
1449616155907619722,0.296126987457,0.0,0.0,0.0,0.0,0.336507940292
1449616155945788426,0.296126987457,0.0,0.0,0.0,0.0,0.336507940292
1449616155985724305,0.296126987457,0.0,0.0,0.0,0.0,0.336507940292
1449616156025872249,0.301714288712,0.0,0.0,0.0,0.0,0.342857146263
1449616156065842980,0.301714288712,0.0,0.0,0.0,0.0,0.342857146263
1449616156107942713,0.078222222805,0.0,0.0,0.0,0.0,0.31746032238
1449616156145925100,0.078222222805,0.0,0.0,0.0,0.0,0.31746032238
1449616156185711659,0.078222222805,0.0,0.0,0.0,0.0,0.31746032238
1449616156226622252,0.0502857165337,0.0,0.0,0.0,0.0,0.387301588058
1449616156266636934,0.0502857165337,0.0,0.0,0.0,0.0,0.387301588058
1449616156307393685,0.0111746038198,0.0,0.0,0.0,0.0,0.336507940292
1449616156345803440,0.0111746038198,0.0,0.0,0.0,0.0,0.336507940292
1449616156385957723,0.0111746038198,0.0,0.0,0.0,0.0,0.336507940292
1449616156425835710,0.0111746038198,0.0,0.0,0.0,0.0,0.387301588058
1449616156466225400,0.0111746038198,0.0,0.0,0.0,0.0,0.387301588058
1449616156506501537,0.00558730190992,0.0,0.0,0.0,0.0,0.393650794029
1449616156545744736,0.00558730190992,0.0,0.0,0.0,0.0,0.393650794029
1449616156585808414,0.00558730190992,0.0,0.0,0.0,0.0,0.393650794029
1449616156625825439,0.00558730190992,0.0,0.0,0.0,0.0,0.393650794029
1449616156665898115,0.00558730190992,0.0,0.0,0.0,0.0,0.393650794029
1449616156706176316,0.00558730190992,0.0,0.0,0.0,0.0,0.146031749249
1449616156745751804,0.00558730190992,0.0,0.0,0.0,0.0,0.146031749249
1449616156785658384,0.00558730190992,0.0,0.0,0.0,0.0,0.146031749249
1449616156826013136,0.00558730190992,0.0,0.0,0.0,0.0,0.209523820877
1449616156865849767,0.00558730190992,0.0,0.0,0.0,0.0,0.209523820877
1449616156905972049,-0.0,0.0,0.0,0.0,0.0,0.393650794029
1449616156946397206,-0.0,0.0,0.0,0.0,0.0,0.393650794029
1449616156985728160,-0.0,0.0,0.0,0.0,0.0,0.393650794029
1449616157025752560,-0.0,0.0,0.0,0.0,0.0,0.393650794029
1449616157067036093,-0.0,0.0,0.0,0.0,0.0,0.393650794029
1449616157106766940,-0.0,0.0,0.0,0.0,0.0,0.393650794029
1449616157146020300,-0.0,0.0,0.0,0.0,0.0,0.393650794029
1449616157186006225,-0.0,0.0,0.0,0.0,0.0,0.393650794029
1449616157225824758,-0.0,0.0,0.0,0.0,0.0,0.190476191044
1449616157265994221,-0.0,0.0,0.0,0.0,0.0,0.190476191044
1449616157306294921,-0.0,0.0,0.0,0.0,0.0,0.209523820877
1449616157345979731,-0.0,0.0,0.0,0.0,0.0,0.209523820877
1449616157385952205,-0.0,0.0,0.0,0.0,0.0,0.209523820877
1449616157425760469,-0.0,0.0,0.0,0.0,0.0,0.393650794029
1449616157465783068,-0.0,0.0,0.0,0.0,0.0,0.393650794029
1449616157505882237,-0.0,0.0,0.0,0.0,0.0,0.374603176117
1449616157546199007,-0.0,0.0,0.0,0.0,0.0,0.374603176117
1449616157585742602,-0.0,0.0,0.0,0.0,0.0,0.374603176117
1449616157625683332,-0.0,0.0,0.0,0.0,0.0,0.393650794029
1449616157666310179,-0.0,0.0,0.0,0.0,0.0,0.393650794029
1449616157706218668,-0.0,0.0,0.0,0.0,0.0,0.355555558205
1449616157746387688,-0.0,0.0,0.0,0.0,0.0,0.355555558205
1449616157785710725,-0.0,0.0,0.0,0.0,0.0,0.355555558205
1449616157825671639,-0.0,0.0,0.0,0.0,0.0,0.387301588058
1449616157865771094,-0.0,0.0,0.0,0.0,0.0,0.387301588058
1449616157905957619,-0.0,0.0,0.0,0.0,0.0,0.0888888895512
1449616157945786238,-0.0,0.0,0.0,0.0,0.0,0.0888888895512
1449616157986183416,-0.0,0.0,0.0,0.0,0.0,0.0888888895512
1449616158025994401,-0.0,0.0,0.0,0.0,0.0,0.0126984134316
1449616158066398858,-0.0,0.0,0.0,0.0,0.0,0.0126984134316
1449616158107332702,0.00558730190992,0.0,0.0,0.0,0.0,0.0
1449616158145978141,0.00558730190992,0.0,0.0,0.0,0.0,0.0
1449616158185721175,0.00558730190992,0.0,0.0,0.0,0.0,0.0
1449616158225822383,-0.0,0.0,0.0,0.0,0.0,0.4
1449616158265953678,-0.0,0.0,0.0,0.0,0.0,0.4
1449616158306417443,-0.0,0.0,0.0,0.0,0.0,0.361904764175
1449616158345797565,-0.0,0.0,0.0,0.0,0.0,0.361904764175
1449616158385664771,-0.0,0.0,0.0,0.0,0.0,0.361904764175
1449616158428716849,-0.0,0.0,0.0,0.0,0.0,0.393650794029
1449616158465691541,-0.0,0.0,0.0,0.0,0.0,0.393650794029
1449616158506137128,-0.0,0.0,0.0,0.0,0.0,0.355555558205
1449616158545826053,-0.0,0.0,0.0,0.0,0.0,0.355555558205
1449616158585693003,-0.0,0.0,0.0,0.0,0.0,0.355555558205
1449616158626272327,-0.0,0.0,0.0,0.0,0.0,0.393650794029
1449616158665855575,-0.0,0.0,0.0,0.0,0.0,0.393650794029
1449616158705932464,-0.0,0.0,0.0,0.0,0.0,0.368253970146
1449616158745874413,-0.0,0.0,0.0,0.0,0.0,0.368253970146
1449616158785715705,-0.0,0.0,0.0,0.0,0.0,0.368253970146
1449616158825961565,-0.0,0.0,0.0,0.0,0.0,0.393650794029
1449616158867954448,-0.0,0.0,0.0,0.0,0.0,0.393650794029
1449616158906260960,-0.0,0.0,0.0,0.0,0.0,0.393650794029
1449616158945930974,-0.0,0.0,0.0,0.0,0.0,0.393650794029
1449616158985728925,-0.0,0.0,0.0,0.0,0.0,0.393650794029
1449616159025748186,-0.0,0.0,0.0,0.0,0.0,0.393650794029
1449616159065912453,-0.0,0.0,0.0,0.0,0.0,0.393650794029
1449616159105921658,-0.0,0.0,0.0,0.0,0.0,0.393650794029
1449616159145780104,-0.0,0.0,0.0,0.0,0.0,0.393650794029
1449616159185795039,-0.0,0.0,0.0,0.0,0.0,0.393650794029
1449616159225814286,-0.0,0.0,0.0,0.0,0.0,0.0126984134316
1449616159265968429,-0.0,0.0,0.0,0.0,0.0,0.0126984134316
1449616159307049771,-0.0,0.0,0.0,0.0,0.0,0.0126984134316
1449616159345818557,-0.0,0.0,0.0,0.0,0.0,0.0126984134316
1449616159386066821,-0.0,0.0,0.0,0.0,0.0,0.0126984134316
1449616159425910750,-0.0,0.0,0.0,0.0,0.0,0.0126984134316
1449616159466531692,-0.0,0.0,0.0,0.0,0.0,0.0126984134316
1449616159508275698,0.00558730190992,0.0,0.0,0.0,0.0,0.387301588058
1449616159545773015,0.00558730190992,0.0,0.0,0.0,0.0,0.387301588058
1449616159585866822,0.00558730190992,0.0,0.0,0.0,0.0,0.387301588058
1449616159625793351,-0.0,0.0,0.0,0.0,0.0,0.393650794029
1449616159666026627,-0.0,0.0,0.0,0.0,0.0,0.393650794029
1449616159705982858,0.00558730190992,0.0,0.0,0.0,0.0,0.393650794029
1449616159745777310,0.00558730190992,0.0,0.0,0.0,0.0,0.393650794029
1449616159785845693,0.00558730190992,0.0,0.0,0.0,0.0,0.393650794029
1449616159825836429,-0.0,0.0,0.0,0.0,0.0,0.393650794029
1449616159865720976,-0.0,0.0,0.0,0.0,0.0,0.393650794029
1449616159908247053,-0.0,0.0,0.0,0.0,0.0,0.393650794029
1449616159945777294,-0.0,0.0,0.0,0.0,0.0,0.393650794029
1449616159985950762,-0.0,0.0,0.0,0.0,0.0,0.393650794029
1449616160025746420,-0.0,0.0,0.0,0.0,0.0,0.393650794029
1449616160066325787,-0.0,0.0,0.0,0.0,0.0,0.393650794029
1449616160111336829,-0.0,0.0,0.0,0.0,0.0,0.393650794029
1449616160145789982,-0.0,0.0,0.0,0.0,0.0,0.393650794029
1449616160185724432,-0.0,0.0,0.0,0.0,0.0,0.393650794029
1449616160226862497,-0.0,0.0,0.0,0.0,0.0,0.4
1449616160265795532,-0.0,0.0,0.0,0.0,0.0,0.4
1449616160307639062,-0.0,0.0,0.0,0.0,0.0,0.393650794029
1449616160345859436,-0.0,0.0,0.0,0.0,0.0,0.393650794029
1449616160386191918,-0.0,0.0,0.0,0.0,0.0,0.393650794029
1449616160425813154,-0.0,0.0,0.0,0.0,0.0,0.393650794029
1449616160465819833,-0.0,0.0,0.0,0.0,0.0,0.393650794029
1449616160506379929,-0.0,0.0,0.0,0.0,0.0,0.393650794029
1449616160545943354,-0.0,0.0,0.0,0.0,0.0,0.393650794029
1449616160585770663,-0.0,0.0,0.0,0.0,0.0,0.393650794029
1449616160625975767,-0.0,0.0,0.0,0.0,0.0,0.393650794029
1449616160665912195,-0.0,0.0,0.0,0.0,0.0,0.393650794029
1449616160706529183,0.00558730190992,0.0,0.0,0.0,0.0,0.0
1449616160745798862,0.00558730190992,0.0,0.0,0.0,0.0,0.0
1449616160785755910,0.00558730190992,0.0,0.0,0.0,0.0,0.0
1449616160826072328,0.00558730190992,0.0,0.0,0.0,0.0,0.0
1449616160865719670,0.00558730190992,0.0,0.0,0.0,0.0,0.0
1449616160906207534,-0.0,0.0,0.0,0.0,0.0,-0.0
1449616160946544645,-0.0,0.0,0.0,0.0,0.0,-0.0
1449616160985719428,-0.0,0.0,0.0,0.0,0.0,-0.0
1449616161027226991,0.0111746038198,0.0,0.0,0.0,0.0,0.0
1449616161065749477,0.0111746038198,0.0,0.0,0.0,0.0,0.0
1449616161107317395,0.346412698746,0.0,0.0,0.0,0.0,0.0
1449616161145827811,0.346412698746,0.0,0.0,0.0,0.0,0.0
1449616161185886981,0.346412698746,0.0,0.0,0.0,0.0,0.0
1449616161225933057,0.346412698746,0.0,0.0,0.0,0.0,-0.00634920671582
1449616161265801163,0.346412698746,0.0,0.0,0.0,0.0,-0.00634920671582
1449616161305882696,0.346412698746,0.0,0.0,0.0,0.0,-0.00634920671582
1449616161346229583,0.346412698746,0.0,0.0,0.0,0.0,-0.00634920671582
1449616161385847717,0.346412698746,0.0,0.0,0.0,0.0,-0.00634920671582
1449616161425819762,0.346412698746,0.0,0.0,0.0,0.0,-0.00634920671582
1449616161465885104,0.346412698746,0.0,0.0,0.0,0.0,-0.00634920671582
1449616161506296090,0.335238096237,0.0,0.0,0.0,0.0,-0.00634920671582
1449616161545799425,0.335238096237,0.0,0.0,0.0,0.0,-0.00634920671582
1449616161586912989,0.335238096237,0.0,0.0,0.0,0.0,-0.00634920671582
1449616161625762268,0.346412698746,0.0,0.0,0.0,0.0,-0.00634920671582
1449616161665785593,0.346412698746,0.0,0.0,0.0,0.0,-0.00634920671582
1449616161708100545,0.307301589966,0.0,0.0,0.0,0.0,-0.00634920671582
1449616161746429811,0.307301589966,0.0,0.0,0.0,0.0,-0.00634920671582
1449616161785792130,0.307301589966,0.0,0.0,0.0,0.0,-0.00634920671582
1449616161827559348,0.346412698746,0.0,0.0,0.0,0.0,-0.00634920671582
1449616161865955111,0.346412698746,0.0,0.0,0.0,0.0,-0.00634920671582
1449616161905983753,0.307301589966,0.0,0.0,0.0,0.0,-0.00634920671582
1449616161945853421,0.307301589966,0.0,0.0,0.0,0.0,-0.00634920671582
1449616161985759203,0.307301589966,0.0,0.0,0.0,0.0,-0.00634920671582
1449616162025700989,0.346412698746,0.0,0.0,0.0,0.0,-0.00634920671582
1449616162065791288,0.346412698746,0.0,0.0,0.0,0.0,-0.00634920671582
1449616162106105114,0.346412698746,0.0,0.0,0.0,0.0,-0.00634920671582
1449616162146122388,0.346412698746,0.0,0.0,0.0,0.0,-0.00634920671582
1449616162185836225,0.346412698746,0.0,0.0,0.0,0.0,-0.00634920671582
1449616162225751898,0.346412698746,0.0,0.0,0.0,0.0,-0.00634920671582
1449616162265779287,0.346412698746,0.0,0.0,0.0,0.0,-0.00634920671582
1449616162306674218,0.346412698746,0.0,0.0,0.0,0.0,-0.00634920671582
1449616162345881939,0.346412698746,0.0,0.0,0.0,0.0,-0.00634920671582
1449616162385929651,0.346412698746,0.0,0.0,0.0,0.0,-0.00634920671582
1449616162425964419,0.346412698746,0.0,0.0,0.0,0.0,-0.00634920671582
1449616162465964705,0.346412698746,0.0,0.0,0.0,0.0,-0.00634920671582
1449616162510149237,0.346412698746,0.0,0.0,0.0,0.0,-0.00634920671582
1449616162545870784,0.346412698746,0.0,0.0,0.0,0.0,-0.00634920671582
1449616162586096976,0.346412698746,0.0,0.0,0.0,0.0,-0.00634920671582
1449616162625717662,0.346412698746,0.0,0.0,0.0,0.0,-0.00634920671582
1449616162665650248,0.346412698746,0.0,0.0,0.0,0.0,-0.00634920671582
1449616162705959147,0.346412698746,0.0,0.0,0.0,0.0,-0.00634920671582
1449616162746077623,0.346412698746,0.0,0.0,0.0,0.0,-0.00634920671582
1449616162786185053,0.346412698746,0.0,0.0,0.0,0.0,-0.00634920671582
1449616162825797173,0.346412698746,0.0,0.0,0.0,0.0,-0.0126984134316
1449616162866163302,0.346412698746,0.0,0.0,0.0,0.0,-0.0126984134316
1449616162906064006,0.106158734322,0.0,0.0,0.0,0.0,-0.374603176117
1449616162945864611,0.106158734322,0.0,0.0,0.0,0.0,-0.374603176117
1449616162985966082,0.106158734322,0.0,0.0,0.0,0.0,-0.374603176117
1449616163026041487,0.106158734322,0.0,0.0,0.0,0.0,-0.374603176117
1449616163065721810,0.106158734322,0.0,0.0,0.0,0.0,-0.374603176117
1449616163106234747,0.134095240593,0.0,0.0,0.0,0.0,-0.304761910439
1449616163145957363,0.134095240593,0.0,0.0,0.0,0.0,-0.304761910439
1449616163186041841,0.134095240593,0.0,0.0,0.0,0.0,-0.304761910439
1449616163225736041,0.162031746864,0.0,0.0,0.0,0.0,-0.361904764175
1449616163265805612,0.162031746864,0.0,0.0,0.0,0.0,-0.361904764175
1449616163306001649,0.162031746864,0.0,0.0,0.0,0.0,-0.361904764175
1449616163345941272,0.162031746864,0.0,0.0,0.0,0.0,-0.361904764175
1449616163386034805,0.162031746864,0.0,0.0,0.0,0.0,-0.361904764175
1449616163426043304,0.139682541847,0.0,0.0,0.0,0.0,-0.304761910439
1449616163466001651,0.139682541847,0.0,0.0,0.0,0.0,-0.304761910439
1449616163506440821,0.15644444561,0.0,0.0,0.0,0.0,-0.361904764175
1449616163546052234,0.15644444561,0.0,0.0,0.0,0.0,-0.361904764175
1449616163586854972,0.15644444561,0.0,0.0,0.0,0.0,-0.361904764175
1449616163625835925,0.15644444561,0.0,0.0,0.0,0.0,-0.361904764175
1449616163665651597,0.15644444561,0.0,0.0,0.0,0.0,-0.361904764175
1449616163705756065,0.111746035576,0.0,0.0,0.0,0.0,-0.374603176117
1449616163746039988,0.111746035576,0.0,0.0,0.0,0.0,-0.374603176117
1449616163789971711,0.111746035576,0.0,0.0,0.0,0.0,-0.374603176117
1449616163826286005,0.111746035576,0.0,0.0,0.0,0.0,-0.368253970146
1449616163865710333,0.111746035576,0.0,0.0,0.0,0.0,-0.368253970146
1449616163907899028,0.111746035576,0.0,0.0,0.0,0.0,-0.374603176117
1449616163945810979,0.111746035576,0.0,0.0,0.0,0.0,-0.374603176117
1449616163985897012,0.111746035576,0.0,0.0,0.0,0.0,-0.374603176117
1449616164025752901,0.111746035576,0.0,0.0,0.0,0.0,-0.374603176117
1449616164065685104,0.111746035576,0.0,0.0,0.0,0.0,-0.374603176117
1449616164106044426,0.111746035576,0.0,0.0,0.0,0.0,-0.374603176117
1449616164145786147,0.111746035576,0.0,0.0,0.0,0.0,-0.374603176117
1449616164186019817,0.111746035576,0.0,0.0,0.0,0.0,-0.374603176117
1449616164225744578,0.0670476202965,0.0,0.0,0.0,0.0,-0.380952382088
1449616164265777566,0.0670476202965,0.0,0.0,0.0,0.0,-0.380952382088
1449616164305791056,0.150857144356,0.0,0.0,0.0,0.0,-0.349206352234
1449616164345879732,0.150857144356,0.0,0.0,0.0,0.0,-0.349206352234
1449616164385864188,0.150857144356,0.0,0.0,0.0,0.0,-0.349206352234
1449616164425799740,0.078222222805,0.0,0.0,0.0,0.0,0.0
1449616164465838581,0.078222222805,0.0,0.0,0.0,0.0,0.0
1449616164505922054,0.346412698746,0.0,0.0,0.0,0.0,0.00634920671582
1449616164545897072,0.346412698746,0.0,0.0,0.0,0.0,0.00634920671582
1449616164586382788,0.346412698746,0.0,0.0,0.0,0.0,0.00634920671582
1449616164625695838,0.352,0.0,0.0,0.0,0.0,0.0
1449616164665630673,0.352,0.0,0.0,0.0,0.0,0.0
1449616164705836111,0.346412698746,0.0,0.0,0.0,0.0,-0.0126984134316
1449616164746070434,0.346412698746,0.0,0.0,0.0,0.0,-0.0126984134316
1449616164787294126,0.346412698746,0.0,0.0,0.0,0.0,-0.0126984134316
1449616164825682494,0.346412698746,0.0,0.0,0.0,0.0,-0.0126984134316
1449616164865887657,0.346412698746,0.0,0.0,0.0,0.0,-0.0126984134316
1449616164905886295,0.346412698746,0.0,0.0,0.0,0.0,-0.0190476194024
1449616164945804521,0.346412698746,0.0,0.0,0.0,0.0,-0.0190476194024
1449616164987191631,0.346412698746,0.0,0.0,0.0,0.0,-0.0190476194024
1449616165026057915,0.346412698746,0.0,0.0,0.0,0.0,-0.0253968268633
1449616165065710089,0.346412698746,0.0,0.0,0.0,0.0,-0.0253968268633
1449616165105870345,0.340825397491,0.0,0.0,0.0,0.0,-0.0317460328341
1449616165145979644,0.340825397491,0.0,0.0,0.0,0.0,-0.0317460328341
1449616165185841324,0.340825397491,0.0,0.0,0.0,0.0,-0.0317460328341
1449616165225665864,0.340825397491,0.0,0.0,0.0,0.0,-0.0317460328341
1449616165265743407,0.340825397491,0.0,0.0,0.0,0.0,-0.0317460328341
1449616165305732596,0.346412698746,0.0,0.0,0.0,0.0,-0.0317460328341
1449616165345883679,0.346412698746,0.0,0.0,0.0,0.0,-0.0317460328341
1449616165386014834,0.346412698746,0.0,0.0,0.0,0.0,-0.0317460328341
1449616165425726401,0.340825397491,0.0,0.0,0.0,0.0,-0.0317460328341
1449616165465769790,0.340825397491,0.0,0.0,0.0,0.0,-0.0317460328341
1449616165505737221,0.340825397491,0.0,0.0,0.0,0.0,-0.0317460328341
1449616165545774654,0.340825397491,0.0,0.0,0.0,0.0,-0.0317460328341
1449616165588067338,0.340825397491,0.0,0.0,0.0,0.0,-0.0317460328341
1449616165625719588,0.340825397491,0.0,0.0,0.0,0.0,-0.0317460328341
1449616165665742104,0.340825397491,0.0,0.0,0.0,0.0,-0.0317460328341
1449616165705687542,0.340825397491,0.0,0.0,0.0,0.0,-0.0317460328341
1449616165745995905,0.340825397491,0.0,0.0,0.0,0.0,-0.0317460328341
1449616165786215710,0.340825397491,0.0,0.0,0.0,0.0,-0.0317460328341
1449616165825691473,0.346412698746,0.0,0.0,0.0,0.0,-0.0317460328341
1449616165865873871,0.346412698746,0.0,0.0,0.0,0.0,-0.0317460328341
1449616165905931047,0.340825397491,0.0,0.0,0.0,0.0,-0.0317460328341
1449616165946248464,0.340825397491,0.0,0.0,0.0,0.0,-0.0317460328341
1449616165985921312,0.340825397491,0.0,0.0,0.0,0.0,-0.0317460328341
1449616166025902430,0.346412698746,0.0,0.0,0.0,0.0,-0.0317460328341
1449616166065751279,0.346412698746,0.0,0.0,0.0,0.0,-0.0317460328341
1449616166105863561,0.346412698746,0.0,0.0,0.0,0.0,-0.0380952388048
1449616166146376095,0.346412698746,0.0,0.0,0.0,0.0,-0.0380952388048
1449616166186783232,0.346412698746,0.0,0.0,0.0,0.0,-0.0380952388048
1449616166225707953,0.340825397491,0.0,0.0,0.0,0.0,-0.0317460328341
1449616166265805778,0.340825397491,0.0,0.0,0.0,0.0,-0.0317460328341
1449616166305848623,0.340825397491,0.0,0.0,0.0,0.0,-0.0317460328341
1449616166346815406,0.340825397491,0.0,0.0,0.0,0.0,-0.0317460328341
1449616166386213028,0.340825397491,0.0,0.0,0.0,0.0,-0.0317460328341
1449616166425805765,0.340825397491,0.0,0.0,0.0,0.0,-0.0253968268633
1449616166465809067,0.340825397491,0.0,0.0,0.0,0.0,-0.0253968268633
1449616166505895315,0.346412698746,0.0,0.0,0.0,0.0,-0.0190476194024
1449616166546275594,0.346412698746,0.0,0.0,0.0,0.0,-0.0190476194024
1449616166586040850,0.346412698746,0.0,0.0,0.0,0.0,-0.0190476194024
1449616166625806289,0.346412698746,0.0,0.0,0.0,0.0,-0.0253968268633
1449616166665707447,0.346412698746,0.0,0.0,0.0,0.0,-0.0253968268633
1449616166705763314,0.346412698746,0.0,0.0,0.0,0.0,-0.0190476194024
1449616166745953078,0.346412698746,0.0,0.0,0.0,0.0,-0.0190476194024
1449616166787443505,0.346412698746,0.0,0.0,0.0,0.0,-0.0190476194024
1449616166825642850,0.340825397491,0.0,0.0,0.0,0.0,-0.0190476194024
1449616166865795137,0.340825397491,0.0,0.0,0.0,0.0,-0.0190476194024
1449616166905903046,0.346412698746,0.0,0.0,0.0,0.0,-0.0190476194024
1449616166946634895,0.346412698746,0.0,0.0,0.0,0.0,-0.0190476194024
1449616166987027142,0.346412698746,0.0,0.0,0.0,0.0,-0.0190476194024
1449616167025780757,0.31288889122,0.0,0.0,0.0,0.0,-0.0190476194024
1449616167065755141,0.31288889122,0.0,0.0,0.0,0.0,-0.0190476194024
1449616167106401131,0.340825397491,0.0,0.0,0.0,0.0,-0.0190476194024
1449616167146115112,0.340825397491,0.0,0.0,0.0,0.0,-0.0190476194024
1449616167186843197,0.340825397491,0.0,0.0,0.0,0.0,-0.0190476194024
1449616167225739701,0.296126987457,0.0,0.0,0.0,0.0,-0.0190476194024
1449616167265807682,0.296126987457,0.0,0.0,0.0,0.0,-0.0190476194024
1449616167305843656,0.346412698746,0.0,0.0,0.0,0.0,-0.0190476194024
1449616167345806271,0.346412698746,0.0,0.0,0.0,0.0,-0.0190476194024
1449616167385850915,0.346412698746,0.0,0.0,0.0,0.0,-0.0190476194024
1449616167426097822,0.296126987457,0.0,0.0,0.0,0.0,-0.0126984134316
1449616167465877019,0.296126987457,0.0,0.0,0.0,0.0,-0.0126984134316
1449616167505948269,0.340825397491,0.0,0.0,0.0,0.0,-0.0126984134316
1449616167546275136,0.340825397491,0.0,0.0,0.0,0.0,-0.0126984134316
1449616167586991991,0.340825397491,0.0,0.0,0.0,0.0,-0.0126984134316
1449616167625842085,0.290539686203,0.0,0.0,0.0,0.0,-0.0190476194024
1449616167665715984,0.290539686203,0.0,0.0,0.0,0.0,-0.0190476194024
1449616167705693787,0.340825397491,0.0,0.0,0.0,0.0,-0.0190476194024
1449616167746318182,0.340825397491,0.0,0.0,0.0,0.0,-0.0190476194024
1449616167786399916,0.340825397491,0.0,0.0,0.0,0.0,-0.0190476194024
1449616167826004862,0.296126987457,0.0,0.0,0.0,0.0,-0.0126984134316
1449616167866301383,0.296126987457,0.0,0.0,0.0,0.0,-0.0126984134316
1449616167906118394,0.346412698746,0.0,0.0,0.0,0.0,-0.0190476194024
1449616167947103038,0.346412698746,0.0,0.0,0.0,0.0,-0.0190476194024
1449616167987876941,0.346412698746,0.0,0.0,0.0,0.0,-0.0190476194024
1449616168025720546,0.340825397491,0.0,0.0,0.0,0.0,-0.0190476194024
1449616168065911774,0.340825397491,0.0,0.0,0.0,0.0,-0.0190476194024
1449616168105803224,0.346412698746,0.0,0.0,0.0,0.0,-0.0190476194024
1449616168146031298,0.346412698746,0.0,0.0,0.0,0.0,-0.0190476194024
1449616168187310541,0.346412698746,0.0,0.0,0.0,0.0,-0.0190476194024
1449616168226254316,0.346412698746,0.0,0.0,0.0,0.0,-0.0126984134316
1449616168267378989,0.346412698746,0.0,0.0,0.0,0.0,-0.0126984134316
1449616168305996210,0.346412698746,0.0,0.0,0.0,0.0,-0.00634920671582
1449616168346485096,0.346412698746,0.0,0.0,0.0,0.0,-0.00634920671582
1449616168386999242,0.346412698746,0.0,0.0,0.0,0.0,-0.00634920671582
1449616168425811185,0.340825397491,0.0,0.0,0.0,0.0,-0.00634920671582
1449616168465809488,0.340825397491,0.0,0.0,0.0,0.0,-0.00634920671582
1449616168505805520,0.346412698746,0.0,0.0,0.0,0.0,-0.00634920671582
1449616168545853151,0.346412698746,0.0,0.0,0.0,0.0,-0.00634920671582
1449616168586037869,0.346412698746,0.0,0.0,0.0,0.0,-0.00634920671582
1449616168625794250,0.340825397491,0.0,0.0,0.0,0.0,-0.0126984134316
1449616168666464487,0.340825397491,0.0,0.0,0.0,0.0,-0.0126984134316
1449616168705915640,0.346412698746,0.0,0.0,0.0,0.0,-0.00634920671582
1449616168746284078,0.346412698746,0.0,0.0,0.0,0.0,-0.00634920671582
1449616168787566073,0.346412698746,0.0,0.0,0.0,0.0,-0.00634920671582
1449616168825898706,0.346412698746,0.0,0.0,0.0,0.0,-0.00634920671582
1449616168865819249,0.346412698746,0.0,0.0,0.0,0.0,-0.00634920671582
1449616168906229274,0.0223492076397,0.0,0.0,0.0,0.0,0.0126984134316
1449616168945867132,0.0223492076397,0.0,0.0,0.0,0.0,0.0126984134316
1449616168986942589,0.0223492076397,0.0,0.0,0.0,0.0,0.0126984134316
1449616169025978968,0.162031746864,0.0,0.0,0.0,0.0,0.368253970146
1449616169065810926,0.162031746864,0.0,0.0,0.0,0.0,0.368253970146
1449616169105993818,0.027936508894,0.0,0.0,0.0,0.0,0.387301588058
1449616169145865203,0.027936508894,0.0,0.0,0.0,0.0,0.387301588058
1449616169185934080,0.027936508894,0.0,0.0,0.0,0.0,0.387301588058
1449616169226056756,0.027936508894,0.0,0.0,0.0,0.0,0.387301588058
1449616169266378755,0.027936508894,0.0,0.0,0.0,0.0,0.387301588058
1449616169306661466,0.0223492076397,0.0,0.0,0.0,0.0,0.387301588058
1449616169345873148,0.0223492076397,0.0,0.0,0.0,0.0,0.387301588058
1449616169386006770,0.0223492076397,0.0,0.0,0.0,0.0,0.387301588058
1449616169426329404,0.00558730190992,0.0,0.0,0.0,0.0,0.393650794029
1449616169466042287,0.00558730190992,0.0,0.0,0.0,0.0,0.393650794029
1449616169505768104,0.0111746038198,0.0,0.0,0.0,0.0,0.393650794029
1449616169546032413,0.0111746038198,0.0,0.0,0.0,0.0,0.393650794029
1449616169585861279,0.0111746038198,0.0,0.0,0.0,0.0,0.393650794029
1449616169625864840,0.00558730190992,0.0,0.0,0.0,0.0,0.393650794029
1449616169666476422,0.00558730190992,0.0,0.0,0.0,0.0,0.393650794029
1449616169705984268,-0.0,0.0,0.0,0.0,0.0,-0.0
1449616169745884298,-0.0,0.0,0.0,0.0,0.0,-0.0
1449616169786555517,-0.0,0.0,0.0,0.0,0.0,-0.0
1449616169825883027,0.00558730190992,0.0,0.0,0.0,0.0,0.393650794029
1449616169866080484,0.00558730190992,0.0,0.0,0.0,0.0,0.393650794029
1449616169905925051,0.00558730190992,0.0,0.0,0.0,0.0,0.349206352234
1449616169945922178,0.00558730190992,0.0,0.0,0.0,0.0,0.349206352234
1449616169986133422,0.00558730190992,0.0,0.0,0.0,0.0,0.349206352234
1449616170025861308,0.00558730190992,0.0,0.0,0.0,0.0,0.393650794029
1449616170066738618,0.00558730190992,0.0,0.0,0.0,0.0,0.393650794029
1449616170105845384,0.00558730190992,0.0,0.0,0.0,0.0,0.374603176117
1449616170145850973,0.00558730190992,0.0,0.0,0.0,0.0,0.374603176117
1449616170189014076,0.00558730190992,0.0,0.0,0.0,0.0,0.374603176117
1449616170226073622,0.00558730190992,0.0,0.0,0.0,0.0,0.387301588058
1449616170266348999,0.00558730190992,0.0,0.0,0.0,0.0,0.387301588058
