%time,field.header.seq,field.header.stamp,field.header.frame_id,field.polygon.points0.x,field.polygon.points0.y,field.polygon.points0.z,field.polygon.points1.x,field.polygon.points1.y,field.polygon.points1.z,field.polygon.points2.x,field.polygon.points2.y,field.polygon.points2.z,field.polygon.points3.x,field.polygon.points3.y,field.polygon.points3.z,field.polygon.points4.x,field.polygon.points4.y,field.polygon.points4.z
1449616125811014874,2,1449616125810698781,odom,0.569999992847,0.0,0.0,0.469999998808,-0.305000007153,0.0,-0.730000019073,-0.305000007153,0.0,-0.730000019073,0.305000007153,0.0,0.469999998808,0.305000007153,0.0
1449616126010774685,3,1449616126010407482,odom,0.569999992847,0.0,0.0,0.469999998808,-0.305000007153,0.0,-0.730000019073,-0.305000007153,0.0,-0.730000019073,0.305000007153,0.0,0.469999998808,0.305000007153,0.0
1449616126210695187,4,1449616126210539220,odom,0.569999992847,0.0,0.0,0.469999998808,-0.305000007153,0.0,-0.730000019073,-0.305000007153,0.0,-0.730000019073,0.305000007153,0.0,0.469999998808,0.305000007153,0.0
1449616126410622228,5,1449616126410404020,odom,0.569999992847,0.0,0.0,0.469999998808,-0.305000007153,0.0,-0.730000019073,-0.305000007153,0.0,-0.730000019073,0.305000007153,0.0,0.469999998808,0.305000007153,0.0
1449616126610559324,6,1449616126610424240,odom,0.569999992847,0.0,0.0,0.469999998808,-0.305000007153,0.0,-0.730000019073,-0.305000007153,0.0,-0.730000019073,0.305000007153,0.0,0.469999998808,0.305000007153,0.0
1449616126810708139,7,1449616126810475723,odom,0.569999992847,0.0,0.0,0.469999998808,-0.305000007153,0.0,-0.730000019073,-0.305000007153,0.0,-0.730000019073,0.305000007153,0.0,0.469999998808,0.305000007153,0.0
1449616127010660057,8,1449616127010390596,odom,0.569999992847,0.0,0.0,0.469999998808,-0.305000007153,0.0,-0.730000019073,-0.305000007153,0.0,-0.730000019073,0.305000007153,0.0,0.469999998808,0.305000007153,0.0
1449616127211048983,9,1449616127210791639,odom,0.569999992847,0.0,0.0,0.469999998808,-0.305000007153,0.0,-0.730000019073,-0.305000007153,0.0,-0.730000019073,0.305000007153,0.0,0.469999998808,0.305000007153,0.0
1449616127410599804,10,1449616127410449927,odom,0.569999992847,0.0,0.0,0.469999998808,-0.305000007153,0.0,-0.730000019073,-0.305000007153,0.0,-0.730000019073,0.305000007153,0.0,0.469999998808,0.305000007153,0.0
1449616127781745317,11,1449616127780610318,odom,0.569999992847,0.0,0.0,0.469999998808,-0.305000007153,0.0,-0.730000019073,-0.305000007153,0.0,-0.730000019073,0.305000007153,0.0,0.469999998808,0.305000007153,0.0
1449616127924473963,12,1449616127924148074,odom,0.569999992847,0.0,0.0,0.469999998808,-0.305000007153,0.0,-0.730000019073,-0.305000007153,0.0,-0.730000019073,0.305000007153,0.0,0.469999998808,0.305000007153,0.0
1449616128128577681,13,1449616128127848440,odom,0.569999992847,0.0,0.0,0.469999998808,-0.305000007153,0.0,-0.730000019073,-0.305000007153,0.0,-0.730000019073,0.305000007153,0.0,0.469999998808,0.305000007153,0.0
1449616128359340056,14,1449616128359061255,odom,0.569999992847,0.0,0.0,0.469999998808,-0.305000007153,0.0,-0.730000019073,-0.305000007153,0.0,-0.730000019073,0.305000007153,0.0,0.469999998808,0.305000007153,0.0
1449616128507181690,15,1449616128505873484,odom,0.569999992847,0.0,0.0,0.469999998808,-0.305000007153,0.0,-0.730000019073,-0.305000007153,0.0,-0.730000019073,0.305000007153,0.0,0.469999998808,0.305000007153,0.0
1449616128698710476,16,1449616128698332750,odom,0.569999992847,0.0,0.0,0.469999998808,-0.305000007153,0.0,-0.730000019073,-0.305000007153,0.0,-0.730000019073,0.305000007153,0.0,0.469999998808,0.305000007153,0.0
1449616128897347690,17,1449616128897224885,odom,0.569999992847,0.0,0.0,0.469999998808,-0.305000007153,0.0,-0.730000019073,-0.305000007153,0.0,-0.730000019073,0.305000007153,0.0,0.469999998808,0.305000007153,0.0
1449616129100475553,18,1449616129100129925,odom,0.569999992847,0.0,0.0,0.469999998808,-0.305000007153,0.0,-0.730000019073,-0.305000007153,0.0,-0.730000019073,0.305000007153,0.0,0.469999998808,0.305000007153,0.0
1449616129310098831,19,1449616129309992756,odom,0.569999992847,0.0,0.0,0.469999998808,-0.305000007153,0.0,-0.730000019073,-0.305000007153,0.0,-0.730000019073,0.305000007153,0.0,0.469999998808,0.305000007153,0.0
1449616129484599598,20,1449616129484364104,odom,0.569999992847,0.0,0.0,0.469999998808,-0.305000007153,0.0,-0.730000019073,-0.305000007153,0.0,-0.730000019073,0.305000007153,0.0,0.469999998808,0.305000007153,0.0
1449616129697882317,21,1449616129695714866,odom,0.569999992847,0.0,0.0,0.469999998808,-0.305000007153,0.0,-0.730000019073,-0.305000007153,0.0,-0.730000019073,0.305000007153,0.0,0.469999998808,0.305000007153,0.0
1449616129881930212,22,1449616129881606636,odom,0.569999992847,0.0,0.0,0.469999998808,-0.305000007153,0.0,-0.730000019073,-0.305000007153,0.0,-0.730000019073,0.305000007153,0.0,0.469999998808,0.305000007153,0.0
1449616130109497580,23,1449616130108792446,odom,0.569999992847,0.0,0.0,0.469999998808,-0.305000007153,0.0,-0.730000019073,-0.305000007153,0.0,-0.730000019073,0.305000007153,0.0,0.469999998808,0.305000007153,0.0
1449616130291757393,24,1449616130291484803,odom,0.569999992847,0.0,0.0,0.469999998808,-0.305000007153,0.0,-0.730000019073,-0.305000007153,0.0,-0.730000019073,0.305000007153,0.0,0.469999998808,0.305000007153,0.0
1449616130498094525,25,1449616130497727722,odom,0.569999992847,0.0,0.0,0.469999998808,-0.305000007153,0.0,-0.730000019073,-0.305000007153,0.0,-0.730000019073,0.305000007153,0.0,0.469999998808,0.305000007153,0.0
1449616130686112768,26,1449616130685820654,odom,0.569999992847,0.0,0.0,0.469999998808,-0.305000007153,0.0,-0.730000019073,-0.305000007153,0.0,-0.730000019073,0.305000007153,0.0,0.469999998808,0.305000007153,0.0
1449616130907514379,27,1449616130906383605,odom,0.569999992847,0.0,0.0,0.469999998808,-0.305000007153,0.0,-0.730000019073,-0.305000007153,0.0,-0.730000019073,0.305000007153,0.0,0.469999998808,0.305000007153,0.0
1449616131092747538,28,1449616131092570345,odom,0.569999992847,0.0,0.0,0.469999998808,-0.305000007153,0.0,-0.730000019073,-0.305000007153,0.0,-0.730000019073,0.305000007153,0.0,0.469999998808,0.305000007153,0.0
1449616131286865017,29,1449616131286681275,odom,0.569999992847,0.0,0.0,0.469999998808,-0.305000007153,0.0,-0.730000019073,-0.305000007153,0.0,-0.730000019073,0.305000007153,0.0,0.469999998808,0.305000007153,0.0
1449616131513245945,30,1449616131510889235,odom,0.569999992847,0.0,0.0,0.469999998808,-0.305000007153,0.0,-0.730000019073,-0.305000007153,0.0,-0.730000019073,0.305000007153,0.0,0.469999998808,0.305000007153,0.0
1449616131687503145,31,1449616131687001489,odom,0.569999992847,0.0,0.0,0.469999998808,-0.305000007153,0.0,-0.730000019073,-0.305000007153,0.0,-0.730000019073,0.305000007153,0.0,0.469999998808,0.305000007153,0.0
1449616131894388474,32,1449616131894113718,odom,0.569999992847,0.0,0.0,0.469999998808,-0.305000007153,0.0,-0.730000019073,-0.305000007153,0.0,-0.730000019073,0.305000007153,0.0,0.469999998808,0.305000007153,0.0
1449616132083857411,33,1449616132083644352,odom,0.569999992847,0.0,0.0,0.469999998808,-0.305000007153,0.0,-0.730000019073,-0.305000007153,0.0,-0.730000019073,0.305000007153,0.0,0.469999998808,0.305000007153,0.0
1449616132281286781,34,1449616132280935379,odom,0.569999992847,0.0,0.0,0.469999998808,-0.305000007153,0.0,-0.730000019073,-0.305000007153,0.0,-0.730000019073,0.305000007153,0.0,0.469999998808,0.305000007153,0.0
1449616132504059818,35,1449616132503743477,odom,0.569999992847,0.0,0.0,0.469999998808,-0.305000007153,0.0,-0.730000019073,-0.305000007153,0.0,-0.730000019073,0.305000007153,0.0,0.469999998808,0.305000007153,0.0
1449616132705872103,36,1449616132698386894,odom,0.569999992847,0.0,0.0,0.469999998808,-0.305000007153,0.0,-0.730000019073,-0.305000007153,0.0,-0.730000019073,0.305000007153,0.0,0.469999998808,0.305000007153,0.0
1449616132892116703,37,1449616132891296126,odom,0.569999992847,0.0,0.0,0.469999998808,-0.305000007153,0.0,-0.730000019073,-0.305000007153,0.0,-0.730000019073,0.305000007153,0.0,0.469999998808,0.305000007153,0.0
1449616133097510124,38,1449616133094546582,odom,0.569999992847,0.0,0.0,0.469999998808,-0.305000007153,0.0,-0.730000019073,-0.305000007153,0.0,-0.730000019073,0.305000007153,0.0,0.469999998808,0.305000007153,0.0
1449616133301766141,39,1449616133301518089,odom,0.569999992847,0.0,0.0,0.469999998808,-0.305000007153,0.0,-0.730000019073,-0.305000007153,0.0,-0.730000019073,0.305000007153,0.0,0.469999998808,0.305000007153,0.0
1449616133501925856,40,1449616133501705451,odom,0.569999992847,0.0,0.0,0.469999998808,-0.305000007153,0.0,-0.730000019073,-0.305000007153,0.0,-0.730000019073,0.305000007153,0.0,0.469999998808,0.305000007153,0.0
1449616133691253329,41,1449616133691028613,odom,0.569999992847,0.0,0.0,0.469999998808,-0.305000007153,0.0,-0.730000019073,-0.305000007153,0.0,-0.730000019073,0.305000007153,0.0,0.469999998808,0.305000007153,0.0
1449616133901354026,42,1449616133901165193,odom,0.569999992847,0.0,0.0,0.469999998808,-0.305000007153,0.0,-0.730000019073,-0.305000007153,0.0,-0.730000019073,0.305000007153,0.0,0.469999998808,0.305000007153,0.0
1449616134094771271,43,1449616134094533923,odom,0.569999992847,0.0,0.0,0.469999998808,-0.305000007153,0.0,-0.730000019073,-0.305000007153,0.0,-0.730000019073,0.305000007153,0.0,0.469999998808,0.305000007153,0.0
1449616134292190306,44,1449616134292017585,odom,0.569999992847,0.0,0.0,0.469999998808,-0.305000007153,0.0,-0.730000019073,-0.305000007153,0.0,-0.730000019073,0.305000007153,0.0,0.469999998808,0.305000007153,0.0
1449616134487112236,45,1449616134486809267,odom,0.569999992847,0.0,0.0,0.469999998808,-0.305000007153,0.0,-0.730000019073,-0.305000007153,0.0,-0.730000019073,0.305000007153,0.0,0.469999998808,0.305000007153,0.0
1449616134700780429,46,1449616134700500331,odom,0.569999992847,0.0,0.0,0.469999998808,-0.305000007153,0.0,-0.730000019073,-0.305000007153,0.0,-0.730000019073,0.305000007153,0.0,0.469999998808,0.305000007153,0.0
1449616134887906329,47,1449616134887640465,odom,0.569999992847,0.0,0.0,0.469999998808,-0.305000007153,0.0,-0.730000019073,-0.305000007153,0.0,-0.730000019073,0.305000007153,0.0,0.469999998808,0.305000007153,0.0
1449616135093748527,48,1449616135093227095,odom,0.569999992847,0.0,0.0,0.469999998808,-0.305000007153,0.0,-0.730000019073,-0.305000007153,0.0,-0.730000019073,0.305000007153,0.0,0.469999998808,0.305000007153,0.0
1449616135299675080,49,1449616135299274055,odom,0.569999992847,0.0,0.0,0.469999998808,-0.305000007153,0.0,-0.730000019073,-0.305000007153,0.0,-0.730000019073,0.305000007153,0.0,0.469999998808,0.305000007153,0.0
1449616135535981117,50,1449616135535083657,odom,0.569999992847,0.0,0.0,0.469999998808,-0.305000007153,0.0,-0.730000019073,-0.305000007153,0.0,-0.730000019073,0.305000007153,0.0,0.469999998808,0.305000007153,0.0
1449616135690909085,51,1449616135689583591,odom,0.569999992847,0.0,0.0,0.469999998808,-0.305000007153,0.0,-0.730000019073,-0.305000007153,0.0,-0.730000019073,0.305000007153,0.0,0.469999998808,0.305000007153,0.0
1449616135902470009,52,1449616135902303009,odom,0.569999992847,0.0,0.0,0.469999998808,-0.305000007153,0.0,-0.730000019073,-0.305000007153,0.0,-0.730000019073,0.305000007153,0.0,0.469999998808,0.305000007153,0.0
1449616136092549902,53,1449616136092319694,odom,0.569999992847,0.0,0.0,0.469999998808,-0.305000007153,0.0,-0.730000019073,-0.305000007153,0.0,-0.730000019073,0.305000007153,0.0,0.469999998808,0.305000007153,0.0
1449616136300044658,54,1449616136299670947,odom,0.569999992847,0.0,0.0,0.469999998808,-0.305000007153,0.0,-0.730000019073,-0.305000007153,0.0,-0.730000019073,0.305000007153,0.0,0.469999998808,0.305000007153,0.0
1449616136501229318,55,1449616136501096234,odom,0.569999992847,0.0,0.0,0.469999998808,-0.305000007153,0.0,-0.730000019073,-0.305000007153,0.0,-0.730000019073,0.305000007153,0.0,0.469999998808,0.305000007153,0.0
1449616136690452591,56,1449616136690294501,odom,0.569999992847,0.0,0.0,0.469999998808,-0.305000007153,0.0,-0.730000019073,-0.305000007153,0.0,-0.730000019073,0.305000007153,0.0,0.469999998808,0.305000007153,0.0
1449616136904726098,57,1449616136904366870,odom,0.569999992847,0.0,0.0,0.469999998808,-0.305000007153,0.0,-0.730000019073,-0.305000007153,0.0,-0.730000019073,0.305000007153,0.0,0.469999998808,0.305000007153,0.0
1449616137106297835,58,1449616137105975104,odom,0.569999992847,0.0,0.0,0.469999998808,-0.305000007153,0.0,-0.730000019073,-0.305000007153,0.0,-0.730000019073,0.305000007153,0.0,0.469999998808,0.305000007153,0.0
1449616137289819990,59,1449616137289465760,odom,0.569999992847,0.0,0.0,0.469999998808,-0.305000007153,0.0,-0.730000019073,-0.305000007153,0.0,-0.730000019073,0.305000007153,0.0,0.469999998808,0.305000007153,0.0
1449616137506968774,60,1449616137506838432,odom,0.569999992847,0.0,0.0,0.469999998808,-0.305000007153,0.0,-0.730000019073,-0.305000007153,0.0,-0.730000019073,0.305000007153,0.0,0.469999998808,0.305000007153,0.0
1449616137719810027,61,1449616137719642214,odom,0.569999992847,0.0,0.0,0.469999998808,-0.305000007153,0.0,-0.730000019073,-0.305000007153,0.0,-0.730000019073,0.305000007153,0.0,0.469999998808,0.305000007153,0.0
1449616137905706690,62,1449616137905557310,odom,0.569999992847,0.0,0.0,0.469999998808,-0.305000007153,0.0,-0.730000019073,-0.305000007153,0.0,-0.730000019073,0.305000007153,0.0,0.469999998808,0.305000007153,0.0
1449616138143907100,63,1449616138140619638,odom,0.569999992847,0.0,0.0,0.469999998808,-0.305000007153,0.0,-0.730000019073,-0.305000007153,0.0,-0.730000019073,0.305000007153,0.0,0.469999998808,0.305000007153,0.0
1449616138316970579,64,1449616138316120302,odom,0.569999992847,0.0,0.0,0.469999998808,-0.305000007153,0.0,-0.730000019073,-0.305000007153,0.0,-0.730000019073,0.305000007153,0.0,0.469999998808,0.305000007153,0.0
1449616138489626595,65,1449616138487211062,odom,0.569999992847,0.0,0.0,0.469999998808,-0.305000007153,0.0,-0.730000019073,-0.305000007153,0.0,-0.730000019073,0.305000007153,0.0,0.469999998808,0.305000007153,0.0
1449616138703553688,66,1449616138703272500,odom,0.569999992847,0.0,0.0,0.469999998808,-0.305000007153,0.0,-0.730000019073,-0.305000007153,0.0,-0.730000019073,0.305000007153,0.0,0.469999998808,0.305000007153,0.0
1449616138899042787,67,1449616138898804916,odom,0.569999992847,0.0,0.0,0.469999998808,-0.305000007153,0.0,-0.730000019073,-0.305000007153,0.0,-0.730000019073,0.305000007153,0.0,0.469999998808,0.305000007153,0.0
1449616139109873946,68,1449616139109123662,odom,0.569999992847,0.0,0.0,0.469999998808,-0.305000007153,0.0,-0.730000019073,-0.305000007153,0.0,-0.730000019073,0.305000007153,0.0,0.469999998808,0.305000007153,0.0
1449616139296593253,69,1449616139296183264,odom,0.569999992847,0.0,0.0,0.469999998808,-0.305000007153,0.0,-0.730000019073,-0.305000007153,0.0,-0.730000019073,0.305000007153,0.0,0.469999998808,0.305000007153,0.0
1449616139508228468,70,1449616139504326661,odom,0.569999992847,0.0,0.0,0.469999998808,-0.305000007153,0.0,-0.730000019073,-0.305000007153,0.0,-0.730000019073,0.305000007153,0.0,0.469999998808,0.305000007153,0.0
1449616139703017985,71,1449616139702751582,odom,0.569999992847,0.0,0.0,0.469999998808,-0.305000007153,0.0,-0.730000019073,-0.305000007153,0.0,-0.730000019073,0.305000007153,0.0,0.469999998808,0.305000007153,0.0
1449616139907788047,72,1449616139907298241,odom,0.569999992847,0.0,0.0,0.469999998808,-0.305000007153,0.0,-0.730000019073,-0.305000007153,0.0,-0.730000019073,0.305000007153,0.0,0.469999998808,0.305000007153,0.0
1449616140089412894,73,1449616140089102661,odom,0.569999992847,0.0,0.0,0.469999998808,-0.305000007153,0.0,-0.730000019073,-0.305000007153,0.0,-0.730000019073,0.305000007153,0.0,0.469999998808,0.305000007153,0.0
1449616140290193215,74,1449616140289897711,odom,0.569999992847,0.0,0.0,0.469999998808,-0.305000007153,0.0,-0.730000019073,-0.305000007153,0.0,-0.730000019073,0.305000007153,0.0,0.469999998808,0.305000007153,0.0
1449616140515682886,75,1449616140515192076,odom,0.569999992847,0.0,0.0,0.469999998808,-0.305000007153,0.0,-0.730000019073,-0.305000007153,0.0,-0.730000019073,0.305000007153,0.0,0.469999998808,0.305000007153,0.0
1449616140700183059,76,1449616140700037656,odom,0.569999992847,0.0,0.0,0.469999998808,-0.305000007153,0.0,-0.730000019073,-0.305000007153,0.0,-0.730000019073,0.305000007153,0.0,0.469999998808,0.305000007153,0.0
1449616140912667830,77,1449616140912381903,odom,0.569999992847,0.0,0.0,0.469999998808,-0.305000007153,0.0,-0.730000019073,-0.305000007153,0.0,-0.730000019073,0.305000007153,0.0,0.469999998808,0.305000007153,0.0
1449616141120914907,78,1449616141117390634,odom,0.569999992847,0.0,0.0,0.469999998808,-0.305000007153,0.0,-0.730000019073,-0.305000007153,0.0,-0.730000019073,0.305000007153,0.0,0.469999998808,0.305000007153,0.0
1449616141316516488,79,1449616141315999012,odom,0.569999992847,0.0,0.0,0.469999998808,-0.305000007153,0.0,-0.730000019073,-0.305000007153,0.0,-0.730000019073,0.305000007153,0.0,0.469999998808,0.305000007153,0.0
1449616141515557606,80,1449616141515066090,odom,0.569999992847,0.0,0.0,0.469999998808,-0.305000007153,0.0,-0.730000019073,-0.305000007153,0.0,-0.730000019073,0.305000007153,0.0,0.469999998808,0.305000007153,0.0
1449616141710860403,81,1449616141710634077,odom,0.569999992847,0.0,0.0,0.469999998808,-0.305000007153,0.0,-0.730000019073,-0.305000007153,0.0,-0.730000019073,0.305000007153,0.0,0.469999998808,0.305000007153,0.0
1449616141912120676,82,1449616141911829537,odom,0.569999992847,0.0,0.0,0.469999998808,-0.305000007153,0.0,-0.730000019073,-0.305000007153,0.0,-0.730000019073,0.305000007153,0.0,0.469999998808,0.305000007153,0.0
1449616142106861374,83,1449616142102065592,odom,0.569999992847,0.0,0.0,0.469999998808,-0.305000007153,0.0,-0.730000019073,-0.305000007153,0.0,-0.730000019073,0.305000007153,0.0,0.469999998808,0.305000007153,0.0
1449616142291824631,84,1449616142291549595,odom,0.569999992847,0.0,0.0,0.469999998808,-0.305000007153,0.0,-0.730000019073,-0.305000007153,0.0,-0.730000019073,0.305000007153,0.0,0.469999998808,0.305000007153,0.0
1449616142525191206,85,1449616142524900633,odom,0.569999992847,0.0,0.0,0.469999998808,-0.305000007153,0.0,-0.730000019073,-0.305000007153,0.0,-0.730000019073,0.305000007153,0.0,0.469999998808,0.305000007153,0.0
1449616142703627327,86,1449616142703458468,odom,0.569999992847,0.0,0.0,0.469999998808,-0.305000007153,0.0,-0.730000019073,-0.305000007153,0.0,-0.730000019073,0.305000007153,0.0,0.469999998808,0.305000007153,0.0
1449616142912905186,87,1449616142912614099,odom,0.569999992847,0.0,0.0,0.469999998808,-0.305000007153,0.0,-0.730000019073,-0.305000007153,0.0,-0.730000019073,0.305000007153,0.0,0.469999998808,0.305000007153,0.0
1449616143088320478,88,1449616143088162484,odom,0.569999992847,0.0,0.0,0.469999998808,-0.305000007153,0.0,-0.730000019073,-0.305000007153,0.0,-0.730000019073,0.305000007153,0.0,0.469999998808,0.305000007153,0.0
1449616143306579226,89,1449616143306030795,odom,0.569999992847,0.0,0.0,0.469999998808,-0.305000007153,0.0,-0.730000019073,-0.305000007153,0.0,-0.730000019073,0.305000007153,0.0,0.469999998808,0.305000007153,0.0
1449616143492296056,90,1449616143492113552,odom,0.569999992847,0.0,0.0,0.469999998808,-0.305000007153,0.0,-0.730000019073,-0.305000007153,0.0,-0.730000019073,0.305000007153,0.0,0.469999998808,0.305000007153,0.0
1449616143699169319,91,1449616143698456079,odom,0.569999992847,0.0,0.0,0.469999998808,-0.305000007153,0.0,-0.730000019073,-0.305000007153,0.0,-0.730000019073,0.305000007153,0.0,0.469999998808,0.305000007153,0.0
1449616143916599429,92,1449616143914670740,odom,0.569999992847,0.0,0.0,0.469999998808,-0.305000007153,0.0,-0.730000019073,-0.305000007153,0.0,-0.730000019073,0.305000007153,0.0,0.469999998808,0.305000007153,0.0
1449616144090738966,93,1449616144090520206,odom,0.569999992847,0.0,0.0,0.469999998808,-0.305000007153,0.0,-0.730000019073,-0.305000007153,0.0,-0.730000019073,0.305000007153,0.0,0.469999998808,0.305000007153,0.0
1449616144303272010,94,1449616144302416888,odom,0.569999992847,0.0,0.0,0.469999998808,-0.305000007153,0.0,-0.730000019073,-0.305000007153,0.0,-0.730000019073,0.305000007153,0.0,0.469999998808,0.305000007153,0.0
1449616144508139283,95,1449616144507879072,odom,0.569999992847,0.0,0.0,0.469999998808,-0.305000007153,0.0,-0.730000019073,-0.305000007153,0.0,-0.730000019073,0.305000007153,0.0,0.469999998808,0.305000007153,0.0
1449616144688773689,96,1449616144688517797,odom,0.569999992847,0.0,0.0,0.469999998808,-0.305000007153,0.0,-0.730000019073,-0.305000007153,0.0,-0.730000019073,0.305000007153,0.0,0.469999998808,0.305000007153,0.0
1449616144900892148,97,1449616144900598587,odom,0.569999992847,0.0,0.0,0.469999998808,-0.305000007153,0.0,-0.730000019073,-0.305000007153,0.0,-0.730000019073,0.305000007153,0.0,0.469999998808,0.305000007153,0.0
1449616145111813503,98,1449616145111594626,odom,0.569999992847,0.0,0.0,0.469999998808,-0.305000007153,0.0,-0.730000019073,-0.305000007153,0.0,-0.730000019073,0.305000007153,0.0,0.469999998808,0.305000007153,0.0
1449616145302914798,99,1449616145302698413,odom,0.569999992847,0.0,0.0,0.469999998808,-0.305000007153,0.0,-0.730000019073,-0.305000007153,0.0,-0.730000019073,0.305000007153,0.0,0.469999998808,0.305000007153,0.0
1449616145517545642,100,1449616145517151029,odom,0.569999992847,0.0,0.0,0.469999998808,-0.305000007153,0.0,-0.730000019073,-0.305000007153,0.0,-0.730000019073,0.305000007153,0.0,0.469999998808,0.305000007153,0.0
1449616145724705594,101,1449616145724402078,odom,0.572847783566,-0.00605410896242,0.0,0.469630181789,-0.309980303049,0.0,-0.730302810669,-0.297298878431,0.0,-0.723856449127,0.312667071819,0.0,0.476076573133,0.299985647202,0.0
1449616145915679171,102,1449616145915457625,odom,0.572847783566,-0.00605410896242,0.0,0.469630181789,-0.309980303049,0.0,-0.730302810669,-0.297298878431,0.0,-0.723856449127,0.312667071819,0.0,0.476076573133,0.299985647202,0.0
1449616146102416692,103,1449616146101354424,odom,0.578607082367,-0.00611497508362,0.0,0.475389450788,-0.310041159391,0.0,-0.724543571472,-0.297359734774,0.0,-0.718097150326,0.312606215477,0.0,0.481835842133,0.299924790859,0.0
1449616146302563153,104,1449616146302414694,odom,0.59012556076,-0.00623670825735,0.0,0.486907988787,-0.310162901878,0.0,-0.713025033474,-0.297481477261,0.0,-0.706578612328,0.31248447299,0.0,0.493354380131,0.299803048372,0.0
1449616146514790759,105,1449616146510596389,odom,0.604555904865,-0.000304332294036,0.0,0.504555881023,-0.305304348469,0.0,-0.695444107056,-0.305304348469,0.0,-0.695444107056,0.304695665836,0.0,0.504555881023,0.304695665836,0.0
1449616146703348705,106,1449616146703197170,odom,0.627593755722,-0.000395631970605,0.0,0.527593791485,-0.305395632982,0.0,-0.672406256199,-0.305395632982,0.0,-0.672406256199,0.304604381323,0.0,0.527593791485,0.304604381323,0.0
1449616146913026704,107,1449616146912649722,odom,0.656391680241,-0.000395631970605,0.0,0.556391716003,-0.305395632982,0.0,-0.64360833168,-0.305395632982,0.0,-0.64360833168,0.304604381323,0.0,0.556391716003,0.304604381323,0.0
1449616147123704025,108,1449616147123133580,odom,0.699556291103,0.00571934320033,0.0,0.602785050869,-0.300320416689,0.0,-0.597147941589,-0.313001841307,0.0,-0.603594303131,0.296964108944,0.0,0.596338689327,0.309645533562,0.0
1449616147323642158,109,1449616147323216413,odom,0.745631992817,0.00590194249526,0.0,0.648860812187,-0.30013781786,0.0,-0.551072180271,-0.312819242477,0.0,-0.557518601418,0.297146707773,0.0,0.642414391041,0.309828132391,0.0
1449616147527353710,110,1449616147527100415,odom,0.791706621647,0.00629757437855,0.0,0.694935381413,-0.29974219203,0.0,-0.504997611046,-0.312423616648,0.0,-0.511443972588,0.297542333603,0.0,0.688489019871,0.310223758221,0.0
1449616147715941046,111,1449616147712226748,odom,0.843540012836,0.006845372729,0.0,0.746768772602,-0.299194395542,0.0,-0.453164219856,-0.31187582016,0.0,-0.4596106112,0.298090130091,0.0,0.74032241106,0.310771554708,0.0
1449616147908138093,112,1449616147907846260,odom,0.895373404026,0.00739317107946,0.0,0.798602163792,-0.298646599054,0.0,-0.401330828667,-0.311328023672,0.0,-0.407777220011,0.298637926579,0.0,0.79215580225,0.311319351196,0.0
1449616148138182809,113,1449616148138028685,odom,0.947206795216,0.00794096942991,0.0,0.850435554981,-0.298098802567,0.0,-0.349497467279,-0.310780227184,0.0,-0.355943858624,0.299185723066,0.0,0.843989193439,0.311867147684,0.0
1449616148334168825,114,1449616148333691566,odom,1.01055383682,0.00891479849815,0.0,0.913782656193,-0.297124952078,0.0,-0.286150366068,-0.309806376696,0.0,-0.292596757412,0.300159573555,0.0,0.907336235046,0.312840998173,0.0
1449616148497932618,115,1449616148497795674,odom,1.06516563892,0.0158811900765,0.0,0.971633970737,-0.291164129972,0.0,-0.228098019958,-0.316525578499,0.0,-0.240990072489,0.293338179588,0.0,0.958741903305,0.318699628115,0.0
1449616148692999708,116,1449616148692869197,odom,1.12275338173,0.0167941525578,0.0,1.02922177315,-0.290251195431,0.0,-0.170510187745,-0.315612614155,0.0,-0.183402255177,0.294251143932,0.0,1.01632976532,0.319612592459,0.0
1449616148904226013,117,1449616148903780120,odom,1.18609952927,0.017828842625,0.0,1.09256792068,-0.2892164886,0.0,-0.10716406256,-0.314577907324,0.0,-0.120056122541,0.295285850763,0.0,1.07967591286,0.320647269487,0.0
1449616149101893077,118,1449616149101416352,odom,1.2436825037,0.0190461035818,0.0,1.15015089512,-0.287999242544,0.0,-0.0495810620487,-0.313360661268,0.0,-0.0624731220305,0.296503096819,0.0,1.13725888729,0.321864545345,0.0
1449616149314075051,119,1449616149313874527,odom,1.30126559734,0.0202633645386,0.0,1.20773386955,-0.286781966686,0.0,0.00800193753093,-0.31214338541,0.0,-0.00489012245089,0.297720372677,0.0,1.19484186172,0.323081791401,0.0
1449616149521617227,120,1449616149521259307,odom,1.35309028625,0.0213588997722,0.0,1.25955867767,-0.285686433315,0.0,0.0598266385496,-0.311047852039,0.0,0.0469345785677,0.298815906048,0.0,1.24666655064,0.324177324772,0.0
1449616149705662471,121,1449616149703997283,odom,1.41067326069,0.0225761607289,0.0,1.31714165211,-0.28446918726,0.0,0.11740963906,-0.309830605984,0.0,0.104517579079,0.300033152103,0.0,1.30424952507,0.32539460063,0.0
1449616149905466587,122,1449616149905230944,odom,1.46825385094,0.023884691298,0.0,1.37472224236,-0.283160656691,0.0,0.174990221858,-0.308522075415,0.0,0.162098169327,0.301341682673,0.0,1.36183011532,0.326703131199,0.0
1449616150091870702,123,1449616150091622695,odom,1.52007126808,0.0252540335059,0.0,1.4265396595,-0.281791299582,0.0,0.226807698607,-0.307152718306,0.0,0.213915631175,0.302711039782,0.0,1.41364765167,0.328072458506,0.0
1449616150301812835,124,1449616150301281518,odom,1.56885051727,0.0325841717422,0.0,1.47856891155,-0.275432437658,0.0,0.279171913862,-0.31347104907,0.0,0.259835630655,0.296222418547,0.0,1.45923256874,0.334261029959,0.0
1449616150497367174,125,1449616150493822336,odom,1.62092673779,0.0216654203832,0.0,1.52415549755,-0.284374326468,0.0,0.324222534895,-0.297055751085,0.0,0.317776143551,0.312910199165,0.0,1.51770913601,0.325591623783,0.0
1449616150716533943,126,1449616150716067140,odom,1.6641535759,0.0160069428384,0.0,1.56415355206,-0.288993060589,0.0,0.364153534174,-0.288993060589,0.0,0.364153534174,0.321006953716,0.0,1.56415355206,0.321006953716,0.0
1449616150897208938,127,1449616150896740243,odom,1.71281039715,-0.00309601635672,0.0,1.60319256783,-0.304772853851,0.0,0.403795540333,-0.266734272242,0.0,0.42313182354,0.342959195375,0.0,1.62252879143,0.304920613766,0.0
1449616151095202264,128,1449616151094924246,odom,1.76326954365,-0.0304098688066,0.0,1.64100086689,-0.327184826136,0.0,0.444282799959,-0.23849414289,0.0,0.489367216825,0.369837522507,0.0,1.68608522415,0.281146854162,0.0
1449616151305788885,129,1449616151305501299,odom,1.81037056446,-0.0531780011952,0.0,1.6787558794,-0.345928013325,0.0,0.485450595617,-0.219347372651,0.0,0.549795746803,0.387249469757,0.0,1.74310100079,0.260668814182,0.0
1449616151500710275,130,1449616151500515458,odom,1.85100471973,-0.0767596140504,0.0,1.71017634869,-0.365190505981,0.0,0.521483302116,-0.200847059488,0.0,0.605024516582,0.403405278921,0.0,1.79371762276,0.239061832428,0.0
1449616151696720675,131,1449616151696186244,odom,1.89660680294,-0.102226175368,0.0,1.74670624733,-0.386048018932,0.0,0.563820004463,-0.184106975794,0.0,0.666473388672,0.41719353199,0.0,1.84935963154,0.215252503753,0.0
1449616151893799887,132,1449616151893004628,odom,1.93980395794,-0.122223064303,0.0,1.78393852711,-0.402813434601,0.0,0.605584383011,-0.175917759538,0.0,0.720923066139,0.423078894615,0.0,1.89927709103,0.196183249354,0.0
1449616152097487956,133,1449616152097015568,odom,1.98099827766,-0.136568412185,0.0,1.82217621803,-0.415495932102,0.0,0.646285772324,-0.176160275936,0.0,0.767948031425,0.421584069729,0.0,1.94383859634,0.182248398662,0.0
1449616152293160116,134,1449616152290127287,odom,2.02765750885,-0.152616173029,0.0,1.86589682102,-0.429849714041,0.0,0.692601203918,-0.178100779653,0.0,0.820573627949,0.41832447052,0.0,1.99386918545,0.166575536132,0.0
1449616152499004726,135,1449616152495769678,odom,2.07683825493,-0.156603217125,0.0,1.9180161953,-0.435530751944,0.0,0.742125689983,-0.196195095778,0.0,0.863787949085,0.401549249887,0.0,2.03967857361,0.162213593721,0.0
1449616152686666506,136,1449616152686317133,odom,2.13398385048,-0.148677632213,0.0,1.98408329487,-0.432499468327,0.0,0.801197052002,-0.230558440089,0.0,0.903850376606,0.370742082596,0.0,2.08673667908,0.168801039457,0.0
1449616152897796507,137,1449616152896873549,odom,2.18511557579,-0.138336151838,0.0,2.04428720474,-0.426767021418,0.0,0.855594158173,-0.262423604727,0.0,0.939135432243,0.341828733683,0.0,2.12782859802,0.177485302091,0.0
1449616153078003758,138,1449616153077548491,odom,2.24165844917,-0.126684501767,0.0,2.11004376411,-0.419434517622,0.0,0.916738450527,-0.292853862047,0.0,0.981083571911,0.31374296546,0.0,2.1743888855,0.187162309885,0.0
1449616153293063035,139,1449616153292592467,odom,2.28961753845,-0.10638590157,0.0,2.17049193382,-0.404436379671,0.0,0.972903490067,-0.328397423029,0.0,1.01155662537,0.280376732349,0.0,2.20914506912,0.204337745905,0.0
1449616153479320457,140,1449616153479090863,odom,2.33666849136,-0.084230683744,0.0,2.23024487495,-0.387049108744,0.0,1.03051280975,-0.36168769002,0.0,1.04340493679,0.248176082969,0.0,2.24313688278,0.222814649343,0.0
1449616153675870490,141,1449616153675628716,odom,2.37995839119,-0.0662516355515,0.0,2.28318715096,-0.372291386127,0.0,1.0832542181,-0.384972810745,0.0,1.07680785656,0.224993139505,0.0,2.27674078941,0.237674564123,0.0
1449616153875891162,142,1449616153875727736,odom,2.43098688126,-0.0401320084929,0.0,2.34723520279,-0.349987894297,0.0,1.14891004562,-0.413366675377,0.0,1.11669242382,0.195781946182,0.0,2.3150177002,0.259160727262,0.0
1449616154064836709,143,1449616154064721509,odom,2.47514033318,-0.012517192401,0.0,2.40455794334,-0.325635582209,0.0,1.20998167992,-0.439598500729,0.0,1.15205049515,0.167644456029,0.0,2.34662675858,0.281607359648,0.0
1449616154263318884,144,1449616154262942792,odom,2.52382516861,0.0174556653947,0.0,2.46653795242,-0.29836577177,0.0,1.27784490585,-0.462709218264,0.0,1.19430363178,0.141543105245,0.0,2.38299679756,0.305886536837,0.0
1449616154462250242,145,1449616154461949536,odom,2.57332110405,0.0369823090732,0.0,2.52272152901,-0.279979348183,0.0,1.33776736259,-0.469408512115,0.0,1.24147415161,0.132943227887,0.0,2.42642855644,0.322372436523,0.0
1449616154651129593,146,1449616154650972339,odom,2.61834263802,0.0635866671801,0.0,2.5778157711,-0.254819631577,0.0,1.39946162701,-0.481715291739,0.0,1.28412294388,0.117281369865,0.0,2.46247696877,0.344177037477,0.0
1449616154857185599,147,1449616154857044433,odom,2.66107201576,0.08467117697,0.0,2.62728357315,-0.23452052474,0.0,1.45398795605,-0.48626947403,0.0,1.32601559162,0.110155783594,0.0,2.49931120872,0.361904740334,0.0
1449616155054330814,148,1449616155054195579,odom,2.71175479889,0.0955459475517,0.0,2.67796635628,-0.223645761609,0.0,1.50467073917,-0.475394695997,0.0,1.37669837475,0.121030561626,0.0,2.54999399185,0.372779488564,0.0
1449616155244980662,149,1449616155244226973,odom,2.75680613518,0.105212412775,0.0,2.72301769257,-0.213979288936,0.0,1.54972207546,-0.465728223324,0.0,1.42174971104,0.130697026849,0.0,2.59504532814,0.382445961237,0.0
1449616155442165232,150,1449616155441763998,odom,2.80741691589,0.116414129734,0.0,2.77362847328,-0.202777579427,0.0,1.60033285618,-0.454526513815,0.0,1.47236037254,0.141898736358,0.0,2.64565610886,0.393647670746,0.0
1449616155646119426,151,1449616155645787202,odom,2.85952234268,0.134221836925,0.0,2.82910895348,-0.185309112072,0.0,1.6585392952,-0.449443221092,0.0,1.52427113056,0.1455963552,0.0,2.69484066963,0.409730434418,0.0
1449616155841711279,152,1449616155841490811,odom,2.90446901321,0.144363865256,0.0,2.87405562401,-0.17516708374,0.0,1.70348596573,-0.43930119276,0.0,1.56921780109,0.15573836863,0.0,2.73978734016,0.419872462749,0.0
1449616156044326066,153,1449616156043917886,odom,2.94090390205,0.165465191007,0.0,2.91725039482,-0.154637172818,0.0,1.75252473354,-0.443451702595,0.0,1.60571062565,0.148617267609,0.0,2.77043652534,0.437431782484,0.0
1449616156248826502,154,1449616156247108280,odom,2.98569083214,0.176288679242,0.0,2.96203732491,-0.143813684583,0.0,1.79731142521,-0.432628214359,0.0,1.65049743652,0.159440740943,0.0,2.81522321701,0.44825527072,0.0
1449616156445450253,155,1449616156445283493,odom,3.0228228569,0.204801544547,0.0,3.00932812691,-0.11588973552,0.0,1.85434269905,-0.441479563713,0.0,1.688834548,0.145638003945,0.0,2.84382009506,0.47122785449,0.0
1449616156636373922,156,1449616156636181533,odom,3.05816054344,0.22756396234,0.0,3.05144643784,-0.09334089607,0.0,1.90360021591,-0.443268090487,0.0,1.72572052479,0.140220433474,0.0,2.87356686592,0.49014762044,0.0
1449616156846632232,157,1449616156846512179,odom,3.08828091621,0.256144672632,0.0,3.09174251556,-0.0648117437959,0.0,1.95556545258,-0.450948476791,0.0,1.75927937031,0.126608237624,0.0,2.89545655251,0.512744963169,0.0
1449616157042709050,158,1449616157042354020,odom,3.10655283928,0.282016247511,0.0,3.12018656731,-0.0386691391468,0.0,1.99682056904,-0.460627317429,0.0,1.78232514858,0.110417120159,0.0,2.90569114685,0.532375276089,0.0
1449616157235933698,159,1449616157235763374,odom,3.11292648315,0.297441393137,0.0,3.13333487511,-0.0228842198849,0.0,2.01913762093,-0.468489944935,0.0,1.79262137413,0.0978936776519,0.0,2.90681862831,0.543499410152,0.0
1449616157442406723,160,1449616157441983165,odom,3.11332249641,0.304120123386,0.0,3.13711500168,-0.0159719362855,0.0,2.0276889801,-0.473327457905,0.0,1.79519999027,0.0906307548285,0.0,2.90462589264,0.547986268997,0.0
1449616157640777066,161,1449616157640493955,odom,3.11332249641,0.304120123386,0.0,3.13711500168,-0.0159719362855,0.0,2.0276889801,-0.473327457905,0.0,1.79519999027,0.0906307548285,0.0,2.90462589264,0.547986268997,0.0
1449616157840608292,162,1449616157840408271,odom,3.11332249641,0.304120123386,0.0,3.13711500168,-0.0159719362855,0.0,2.0276889801,-0.473327457905,0.0,1.79519999027,0.0906307548285,0.0,2.90462589264,0.547986268997,0.0
1449616158038414371,163,1449616158038162905,odom,3.11364793777,0.310802668333,0.0,3.14082169533,-0.00902009103447,0.0,2.03629112244,-0.47807431221,0.0,1.79785513878,0.0833954811096,0.0,2.90238595009,0.552449703217,0.0
1449616158239314432,164,1449616158238899513,odom,3.11364793777,0.310802668333,0.0,3.14082169533,-0.00902009103447,0.0,2.03629112244,-0.47807431221,0.0,1.79785513878,0.0833954811096,0.0,2.90238595009,0.552449703217,0.0
1449616158436710976,165,1449616158436465046,odom,3.11390280724,0.317488253117,0.0,3.14445495605,-0.00202946085483,0.0,2.04494261742,-0.482730001211,0.0,1.80058658123,0.0761886835098,0.0,2.90009880066,0.556889235973,0.0
1449616158635936052,166,1449616158635731391,odom,3.11390280724,0.317488253117,0.0,3.14445495605,-0.00202946085483,0.0,2.04494261742,-0.482730001211,0.0,1.80058658123,0.0761886835098,0.0,2.90009880066,0.556889235973,0.0
1449616158836679564,167,1449616158836319280,odom,3.11390280724,0.317488253117,0.0,3.14445495605,-0.00202946085483,0.0,2.04494261742,-0.482730001211,0.0,1.80058658123,0.0761886835098,0.0,2.90009880066,0.556889235973,0.0
1449616159036063119,168,1449616159035697160,odom,3.11390280724,0.317488253117,0.0,3.14445495605,-0.00202946085483,0.0,2.04494261742,-0.482730001211,0.0,1.80058658123,0.0761886835098,0.0,2.90009880066,0.556889235973,0.0
1449616159236777372,169,1449616159236513212,odom,3.11390280724,0.317488253117,0.0,3.14445495605,-0.00202946085483,0.0,2.04494261742,-0.482730001211,0.0,1.80058658123,0.0761886835098,0.0,2.90009880066,0.556889235973,0.0
1449616159441291623,170,1449616159439832443,odom,3.10894775391,0.328502833843,0.0,3.14624595642,0.00970218889415,0.0,2.05713868141,-0.494128674269,0.0,1.80102467537,0.0595008432865,0.0,2.89013195038,0.563331663609,0.0
1449616159640863954,171,1449616159640635884,odom,3.10377430916,0.339382827282,0.0,3.14780187607,0.0214416552335,0.0,2.06958603859,-0.505294442177,0.0,1.80182862282,0.0427985787392,0.0,2.8800444603,0.569534659386,0.0
1449616159837554509,172,1449616159837214908,odom,3.09837222099,0.350151032209,0.0,3.14910936356,0.0332113839686,0.0,2.08226680756,-0.51619464159,0.0,1.80298531055,0.0261170323938,0.0,2.86982798576,0.575523018837,0.0
1449616160037180094,173,1449616160036740917,odom,3.09837222099,0.350151032209,0.0,3.14910936356,0.0332113839686,0.0,2.08226680756,-0.51619464159,0.0,1.80298531055,0.0261170323938,0.0,2.86982798576,0.575523018837,0.0
1449616160243309146,174,1449616160242657102,odom,3.09837222099,0.350151032209,0.0,3.14910936356,0.0332113839686,0.0,2.08226680756,-0.51619464159,0.0,1.80298531055,0.0261170323938,0.0,2.86982798576,0.575523018837,0.0
1449616160439920718,175,1449616160439631125,odom,3.09813213348,0.356837183237,0.0,3.15221595764,0.0404514148831,0.0,2.09123897552,-0.52019816637,0.0,1.80624198914,0.0191318206489,0.0,2.86721897125,0.579781353474,0.0
1449616160643224521,176,1449616160639975758,odom,3.09195399284,0.374077260494,0.0,3.15603971481,0.0595648624003,0.0,2.11336779594,-0.53443467617,0.0,1.81141805649,-0.00440982123837,0.0,2.85408997536,0.589589715004,0.0
1449616160839216128,177,1449616160838676651,odom,3.07957267761,0.394781261683,0.0,3.15689206123,0.0832580849528,0.0,2.14025402069,-0.554273724556,0.0,1.8161752224,-0.0374826304615,0.0,2.83281350136,0.600049197674,0.0
1449616161040008314,178,1449616161039742108,odom,3.06634378433,0.414918035269,0.0,3.15675902367,0.106940634549,0.0,2.16797089577,-0.572984337807,0.0,1.82234239578,-0.0703503787518,0.0,2.81113052368,0.609574615955,0.0
1449616161245651945,179,1449616161244892192,odom,3.05943083763,0.424747437239,0.0,3.15633487701,0.118749715388,0.0,2.18213748932,-0.581920981407,0.0,1.82596325874,-0.0867039635777,0.0,2.80016064644,0.61396676302,0.0
1449616161444043997,180,1449616161443325237,odom,3.05943083763,0.424747437239,0.0,3.15633487701,0.118749715388,0.0,2.18213748932,-0.581920981407,0.0,1.82596325874,-0.0867039635777,0.0,2.80016064644,0.61396676302,0.0
1449616161642292466,181,1449616161641254690,odom,3.05943083763,0.424747437239,0.0,3.15633487701,0.118749715388,0.0,2.18213748932,-0.581920981407,0.0,1.82596325874,-0.0867039635777,0.0,2.80016064644,0.61396676302,0.0
1449616161846105266,182,1449616161843200076,odom,3.06527781487,0.421495348215,0.0,3.15894269943,0.114490635693,0.0,2.17739510536,-0.575845777988,0.0,1.82647407055,-0.0768923982978,0.0,2.80802154541,0.613444030285,0.0
1449616162040854045,183,1449616162040654414,odom,3.06997132301,0.424833536148,0.0,3.16363620758,0.117828808725,0.0,2.18208861351,-0.572507619858,0.0,1.83116745949,-0.073554225266,0.0,2.81271505356,0.616782188416,0.0
1449616162242280115,184,1449616162241465111,odom,3.07351136208,0.434761971235,0.0,3.17041540146,0.128764256835,0.0,2.19621777534,-0.571906447411,0.0,1.84004354477,-0.0766894295812,0.0,2.81424093246,0.623981297016,0.0
1449616162442110302,185,1449616162441827497,odom,3.08755636215,0.444826126099,0.0,3.18446040154,0.138828381896,0.0,2.21026301384,-0.56184232235,0.0,1.85408866405,-0.0666252970695,0.0,2.82828617096,0.634045422077,0.0
1449616162646231948,186,1449616162645953499,odom,3.0988881588,0.468302577734,0.0,3.20223784447,0.164421200752,0.0,2.24306631088,-0.556682169437,0.0,1.87650537491,-0.0691033527255,0.0,2.83567690849,0.652000069618,0.0
1449616162846881519,187,1449616162846545584,odom,3.11275005341,0.502090215683,0.0,3.22568035126,0.201637625694,0.0,2.28984904289,-0.549508035183,0.0,1.90801668167,-0.073793746531,0.0,2.84384799004,0.677351891994,0.0
1449616163045156923,188,1449616163043520786,odom,3.14073467255,0.540623664856,0.0,3.25998973846,0.242624908686,0.0,2.34024238586,-0.528131306171,0.0,1.94844138622,-0.0605931505561,0.0,2.86818861961,0.71016305685,0.0
1449616163242492256,189,1449616163242306066,odom,3.16780042648,0.579856276512,0.0,3.29332685471,0.284444451332,0.0,2.39007472992,-0.505578041077,0.0,1.98847997189,-0.0464248172939,0.0,2.89173221588,0.743597686291,0.0
1449616163444112220,190,1449616163443652384,odom,3.19409179688,0.619583904743,0.0,3.32583355904,0.326891034842,0.0,2.43947982788,-0.482044786215,0.0,2.02827095985,-0.0314816460013,0.0,2.91462445259,0.777454197407,0.0
1449616163641114096,191,1449616163640942549,odom,3.22602391243,0.657170534134,0.0,3.36085152626,0.365886211395,0.0,2.48309588432,-0.452371299267,0.0,2.06714844704,-0.00617890805006,0.0,2.94490385056,0.812078595161,0.0
1449616163841963468,192,1449616163841569387,odom,3.2470676899,0.676829457283,0.0,3.38189506531,0.385545134544,0.0,2.50413966179,-0.432712376118,0.0,2.0881922245,0.0134800132364,0.0,2.96594762802,0.831737518311,0.0
1449616164045568667,193,1449616164044733757,odom,3.27218484879,0.683483541012,0.0,3.40082597733,0.389414787292,0.0,2.50597310066,-0.410109013319,0.0,2.09954857826,0.0447745546699,0.0,2.99440145493,0.844298362732,0.0
1449616164252771856,194,1449616164252578209,odom,3.29486703873,0.679274916649,0.0,3.41412210464,0.381276130676,0.0,2.49437475204,-0.389480084181,0.0,2.10257363319,0.0780580714345,0.0,3.02232098579,0.848814308643,0.0
1449616164442443124,195,1449616164442147629,odom,3.31298995018,0.670650005341,0.0,3.42273879051,0.369020730257,0.0,2.47902178764,-0.37219324708,0.0,2.10223793983,0.107529610395,0.0,3.0459549427,0.84874355793,0.0
1449616164642793381,196,1449616164642253661,odom,3.33671140671,0.658264815807,0.0,3.43361544609,0.352267056704,0.0,2.4594180584,-0.348403632641,0.0,2.1032435894,0.146813392639,0.0,3.07744121552,0.847484111786,0.0
1449616164842208641,197,1449616164841898325,odom,3.35414719582,0.648324012756,0.0,3.44130277634,0.33940833807,0.0,2.44538450241,-0.330029338598,0.0,2.10508704185,0.176229134202,0.0,3.10100531578,0.845666825771,0.0
1449616165048676002,198,1449616165046629732,odom,3.36471843719,0.648025095463,0.0,3.44860458374,0.338205575943,0.0,2.44566726685,-0.320670008659,0.0,2.11073899269,0.189156413078,0.0,3.11367607117,0.848031997681,0.0
1449616165241692638,199,1449616165241504155,odom,3.37526965141,0.647640109062,0.0,3.45587682724,0.336951434612,0.0,2.44603276253,-0.31128847599,0.0,2.11651086807,0.202048957348,0.0,3.12635493279,0.85028886795,0.0
1449616165446350693,200,1449616165445005509,odom,3.39144515991,0.643527626991,0.0,3.46546816826,0.331204712391,0.0,2.44214940071,-0.295547813177,0.0,2.12355017662,0.224639251828,0.0,3.14686894417,0.851391792297,0.0
1449616165653958882,201,1449616165650948976,odom,3.4124417305,0.642082393169,0.0,3.47984743118,0.328264802694,0.0,2.44351100922,-0.276720374823,0.0,2.1359770298,0.25008392334,0.0,3.17231321335,0.855069100857,0.0
1449616165849276487,202,1449616165848469404,odom,3.43794083595,0.649746417999,0.0,3.5020263195,0.33523401618,0.0,2.45935440063,-0.258765548468,0.0,2.15740466118,0.271259307861,0.0,3.20007658005,0.865258872509,0.0
1449616166041407546,203,1449616166041230091,odom,3.47954773903,0.651744186878,0.0,3.53363132477,0.335358440876,0.0,2.47265434265,-0.225291118026,0.0,2.18765759468,0.314038842916,0.0,3.2486345768,0.874688386917,0.0
1449616166240079025,204,1449616166239917693,odom,3.52626299858,0.655167877674,0.0,3.57029032707,0.337226748466,0.0,2.49207472801,-0.189509347081,0.0,2.22431707382,0.358583658934,0.0,3.3025329113,0.885319709778,0.0
1449616166451571422,205,1449616166451312240,odom,3.58343815804,0.662109732628,0.0,3.61736488342,0.342932701111,0.0,2.52299427986,-0.149360492826,0.0,2.27274513245,0.406944662333,0.0,3.36711597443,0.89923787117,0.0
1449616166640976533,206,1449616166640855232,odom,3.63574576378,0.671863138676,0.0,3.66291952133,0.352040410042,0.0,2.55838871002,-0.117013826966,0.0,2.31995272636,0.444455981255,0.0,3.42448353767,0.913510203362,0.0
1449616166840692801,207,1449616166840590128,odom,3.68831777573,0.680340230465,0.0,3.70872616768,0.360014587641,0.0,2.5945289135,-0.0855911299586,0.0,2.3680126667,0.480792492628,0.0,3.48220992088,0.926398217678,0.0
1449616167042985311,208,1449616167042778979,odom,3.74642658234,0.689786195755,0.0,3.76006054878,0.369100809097,0.0,2.6366944313,-0.0528573617339,0.0,2.42219901085,0.518187046051,0.0,3.54556512833,0.940145254135,0.0
1449616167243464538,209,1449616167242987513,odom,3.79933094978,0.695976912975,0.0,3.80618429184,0.375075012445,0.0,2.67415118217,-0.0230470914394,0.0,2.47177243233,0.55240303278,0.0,3.60380554199,0.950525164604,0.0
1449616167454281374,210,1449616167454048725,odom,3.85773921013,0.703103244305,0.0,3.85780906677,0.382128179073,0.0,2.71761465073,0.00801996514201,0.0,2.52744293213,0.587618768215,0.0,3.66763734818,0.96172696352,0.0
1449616167643863402,211,1449616167643677445,odom,3.91167879105,0.714109361172,0.0,3.90835642815,0.393151462078,0.0,2.76427221298,0.0311135351658,0.0,2.58023643494,0.612689673901,0.0,3.72432041168,0.974727571011,0.0
1449616167839560173,212,1449616167839437739,odom,3.96483635902,0.717497229576,0.0,3.95473146439,0.396681278944,0.0,2.80325126648,0.0589038915932,0.0,2.63154768944,0.644239604473,0.0,3.78302788734,0.982016980648,0.0
1449616168044375117,213,1449616168044155733,odom,4.01353740692,0.725283741951,0.0,4.00004243851,0.404592484236,0.0,2.84505724907,0.0790026411414,0.0,2.67954897881,0.666120231152,0.0,3.83453440666,0.991710066795,0.0
1449616168256762677,214,1449616168256532889,odom,4.06239891052,0.732261836529,0.0,4.0455160141,0.41173106432,0.0,2.88715410233,0.0983651131392,0.0,2.72785973549,0.687198996544,0.0,3.88622140884,1.00056493282,0.0
1449616168444699012,215,1449616168444428202,odom,4.11563682556,0.733459293842,0.0,4.09198331833,0.413356930017,0.0,2.92725777626,0.124542407691,0.0,2.78044366837,0.716611385345,0.0,3.94516944885,1.00542593002,0.0
1449616168645120158,216,1449616168644968301,odom,4.1646232605,0.739180743694,0.0,4.13758850098,0.419346243143,0.0,2.96987557411,0.142856508493,0.0,2.82932662964,0.73644387722,0.0,3.9970395565,1.01293361187,0.0
1449616168844074689,217,1449616168843832710,odom,4.22346401215,0.740076422691,0.0,4.18967533112,0.420884698629,0.0,3.01637983322,0.169135764241,0.0,2.8884074688,0.765561044216,0.0,4.06170320511,1.0173099041,0.0
1449616169046551821,218,1449616169046312952,odom,4.27820634842,0.745599269867,0.0,4.24104642868,0.426782429218,0.0,3.06515622139,0.187446773052,0.0,2.94349384308,0.785191118717,0.0,4.11938428879,1.02452683449,0.0
1449616169245585950,219,1449616169245453777,odom,4.3330821991,0.750155389309,0.0,4.29255533218,0.431749045849,0.0,3.11420106888,0.204853385687,0.0,2.99886250496,0.803850054741,0.0,4.17721652985,1.03074574471,0.0
1449616169445451366,220,1449616169445261395,odom,4.38234138489,0.753072202206,0.0,4.33845186234,0.435111939907,0.0,3.15776586533,0.220681622624,0.0,3.04876375198,0.820863723755,0.0,4.22944974899,1.03529405594,0.0
1449616169648741087,221,1449616169648200993,odom,4.4202580452,0.753619730473,0.0,4.37301111221,0.436141043901,0.0,3.19012475014,0.234200015664,0.0,3.08747148514,0.835500538349,0.0,4.2703576088,1.03744161129,0.0
1449616169849294717,222,1449616169849029063,odom,4.45038080215,0.765212714672,0.0,4.40649175644,0.447252452374,0.0,3.22580552101,0.23282212019,0.0,3.11680340767,0.833004236221,0.0,4.2974896431,1.04743456841,0.0
1449616170049920746,223,1449616170049679497,odom,4.4673871994,0.76827031374,0.0,4.42349767685,0.450310051441,0.0,3.24281144142,0.235879719257,0.0,3.13380932808,0.836061835289,0.0,4.31449556351,1.05049216747,0.0
1449616170248091939,224,1449616170247971924,odom,4.46910715103,0.774735867977,0.0,4.42858028412,0.456329524517,0.0,3.25022625923,0.229433864355,0.0,3.13488745689,0.828430533409,0.0,4.31324148178,1.05532622337,0.0
1449616170449176317,225,1449616170448897457,odom,4.46910715103,0.774735867977,0.0,4.42858028412,0.456329524517,0.0,3.25022625923,0.229433864355,0.0,3.13488745689,0.828430533409,0.0,4.31324148178,1.05532622337,0.0
1449616170645991415,226,1449616170645830522,odom,4.46910715103,0.774735867977,0.0,4.42858028412,0.456329524517,0.0,3.25022625923,0.229433864355,0.0,3.13488745689,0.828430533409,0.0,4.31324148178,1.05532622337,0.0
1449616170846106609,227,1449616170845940613,odom,4.46669816971,0.786570906639,0.0,4.43290948868,0.467379242182,0.0,3.25961399078,0.215630292892,0.0,3.13164162636,0.812055528164,0.0,4.30493736267,1.06380450726,0.0
1449616171045350112,228,1449616171045167719,odom,4.46403932571,0.798352479935,0.0,4.43700456619,0.478517949581,0.0,3.26929163933,0.20202820003,0.0,3.12874269485,0.795615613461,0.0,4.2964553833,1.07210540771,0.0
1449616171246458062,229,1449616171246321972,odom,4.46237754822,0.816620707512,0.0,4.44549465179,0.496089935303,0.0,3.28713274002,0.182723984122,0.0,3.1278386116,0.771557867527,0.0,4.28620004654,1.0849237442,0.0
1449616171444682824,230,1449616171444577777,odom,4.45910024643,0.828245341778,0.0,4.44899559021,0.507429361343,0.0,3.2975153923,0.16965200007,0.0,3.12581181526,0.754987716675,0.0,4.27729177475,1.09276509285,0.0
1449616171645733231,231,1449616171645551229,odom,4.45183134079,0.851216077805,0.0,4.45529317856,0.530259668827,0.0,3.31911587715,0.14412291348,0.0,3.12282967567,0.721679627895,0.0,4.25900697708,1.10781633854,0.0
1449616171843866163,232,1449616171843727491,odom,4.44360923767,0.873830616474,0.0,4.46063137054,0.553307175636,0.0,3.34178709984,0.119501031935,0.0,3.12126898766,0.688246846199,0.0,4.24011325836,1.12205302715,0.0
1449616172042635281,233,1449616172042522571,odom,4.43465805054,0.902681291103,0.0,4.46858501434,0.583504319191,0.0,3.37421441078,0.0912111178041,0.0,3.12396526337,0.64751625061,0.0,4.21833610535,1.13980948925,0.0
1449616172254735814,234,1449616172254384632,odom,4.42432546616,0.924412786961,0.0,4.47171020508,0.60695463419,0.0,3.39912128448,0.068853572011,0.0,3.1255865097,0.614086329937,0.0,4.1981754303,1.15218746662,0.0
1449616172441714734,235,1449616172441527323,odom,4.41882371902,0.93509632349,0.0,4.47290754318,0.618710577488,0.0,3.41193032265,0.058061003685,0.0,3.12693357468,0.597390949726,0.0,4.18791055679,1.15804052353,0.0
1449616172641447510,236,1449616172641255920,odom,4.41813182831,0.948459148407,0.0,4.47888994217,0.633287072182,0.0,3.42999911308,0.0503395162523,0.0,3.13366746902,0.583525717258,0.0,4.18255853653,1.16647326946,0.0
1449616172848907636,237,1449616172848746683,odom,4.41091251373,0.972248673439,0.0,4.48493528366,0.659925758839,0.0,3.46161651611,0.0331732518971,0.0,3.14301729202,0.553360283375,0.0,4.16633605957,1.18011283875,0.0
1449616173043202492,238,1449616173043001620,odom,4.40652608871,1.00543582439,0.0,4.49694156647,0.697458446026,0.0,3.50815320015,0.0175334122032,0.0,3.16252470016,0.520167410374,0.0,4.15131282806,1.20009243488,0.0
1449616173245281304,239,1449616173245136062,odom,4.39896297455,1.044880867,0.0,4.50871133804,0.743251621723,0.0,3.56499457359,0.00203762738965,0.0,3.18821072578,0.481760472059,0.0,4.13192796707,1.22297441959,0.0
1449616173448392986,240,1449616173448258320,odom,4.38292169571,1.10300946236,0.0,4.52082014084,0.813166201115,0.0,3.65176081657,-0.0143215926364,0.0,3.23112106323,0.427450209856,0.0,4.10018014908,1.2549380064,0.0
1449616173637735876,241,1449616173637533275,odom,4.36409568787,1.15318369865,0.0,4.52597665787,0.876020312309,0.0,3.7298977375,-0.0218984726816,0.0,3.27345561981,0.382775038481,0.0,4.06953477859,1.28069388866,0.0
1449616173836802470,242,1449616173836698496,odom,4.35455465317,1.19856369495,0.0,4.53367328644,0.932215034962,0.0,3.79609155655,-0.0143434796482,0.0,3.31492424011,0.36059397459,0.0,4.05250597,1.30715250969,0.0
1449616174042061567,243,1449616174041909842,odom,4.36265277863,1.2393424511,0.0,4.5501241684,0.978805541992,0.0,3.84291791916,0.0093422010541,0.0,3.35010743141,0.368838787079,0.0,4.05731391907,1.33830213547,0.0
1449616174242029200,244,1449616174241853640,odom,4.37289047241,1.27448832989,0.0,4.56582593918,1.01797175407,0.0,3.87926673889,0.0337785258889,0.0,3.37896847725,0.382779508829,0.0,4.06552791595,1.36697280407,0.0
1449616174435933796,245,1449616174435804964,odom,4.38557767868,1.31463575363,0.0,4.58389186859,1.06225407124,0.0,3.91828608513,0.0637705177069,0.0,3.41072368622,0.402119964361,0.0,4.07632923126,1.40060353279,0.0
1449616174636101145,246,1449616174635965336,odom,4.41815567017,1.35171401501,0.0,4.61379146576,1.0972507,0.0,3.93767142296,0.105856947601,0.0,3.43371295929,0.44955137372,0.0,4.10983324051,1.44094514847,0.0
1449616174838114327,247,1449616174837951285,odom,4.45411777496,1.3933763504,0.0,4.64705371857,1.13685977459,0.0,3.96049451828,0.152666524053,0.0,3.46019625664,0.501667499542,0.0,4.14675569534,1.48586070538,0.0
1449616175035838363,248,1449616175035679723,odom,4.50106716156,1.42697060108,0.0,4.68577480316,1.16446709633,0.0,3.96836280823,0.202531561255,0.0,3.47937893867,0.567216038704,0.0,4.19679069519,1.52915155888,0.0
1449616175242119084,249,1449616175241999002,odom,4.54188156128,1.45004856586,0.0,4.71817541122,1.18182194233,0.0,3.97063159943,0.243110880256,0.0,3.49345350266,0.6231123209,0.0,4.24099731445,1.56182336807,0.0
1449616175437649655,250,1449616175437511703,odom,4.60767412186,1.48126268387,0.0,4.76955509186,1.20409941673,0.0,3.97347617149,0.306180596352,0.0,3.5170340538,0.710854113102,0.0,4.31311321259,1.60877287388,0.0
1449616175638362515,251,1449616175638208955,odom,4.65146636963,1.51153481007,0.0,4.80745363235,1.23101210594,0.0,3.99257516861,0.350118637085,0.0,3.54478764534,0.764348447323,0.0,4.35966587067,1.64524197578,0.0
1449616175840561925,252,1449616175840458198,odom,4.7026181221,1.53834092617,0.0,4.84963464737,1.25301456451,0.0,4.0072426796,0.398394435644,0.0,3.57281064987,0.826610445976,0.0,4.41520309448,1.68123054504,0.0
1449616176050727861,253,1449616176050515448,odom,4.74629402161,1.55552494526,0.0,4.8841919899,1.26568162441,0.0,4.01513290405,0.438193887472,0.0,3.59449315071,0.879965662956,0.0,4.46355247498,1.7074534893,0.0
1449616176239753044,254,1449616176239578414,odom,4.7901134491,1.58880472183,0.0,4.92494106293,1.2975205183,0.0,4.04718542099,0.479262977839,0.0,3.6312379837,0.925455331802,0.0,4.50899362564,1.74371290207,0.0
1449616176440990310,255,1449616176440817772,odom,4.82158374786,1.62679314613,0.0,4.95948219299,1.3369499445,0.0,4.09042310715,0.509462177753,0.0,3.66978335381,0.95123398304,0.0,4.53884267807,1.77872180939,0.0
1449616176641613573,256,1449616176641472767,odom,4.85286140442,1.66489207745,0.0,4.99381494522,1.37652242184,0.0,4.13354921341,0.539896667004,0.0,3.70826435089,0.977198541164,0.0,4.5685300827,1.81382417679,0.0
1449616176845693963,257,1449616176845561687,odom,4.88350057602,1.7035588026,0.0,5.0274939537,1.41669476032,0.0,4.1761174202,0.571024656296,0.0,3.7462348938,1.00380778313,0.0,4.59761142731,1.84947788715,0.0
1449616177039426486,258,1449616177039296436,odom,4.90869092941,1.75541949272,0.0,5.06170463562,1.47326409817,0.0,4.2375626564,0.601031243801,0.0,3.79417777061,1.01997005939,0.0,4.61831951141,1.89220285416,0.0
1449616177240185237,259,1449616177240017600,odom,4.93217897415,1.80809378624,0.0,5.09406042099,1.53093039989,0.0,4.29798126221,0.633011639118,0.0,3.84153914452,1.03768515587,0.0,4.63761806488,1.93560397625,0.0
1449616177438749564,260,1449616177438609073,odom,4.94719028473,1.86335325241,0.0,5.12063980103,1.59327852726,0.0,4.36321735382,0.662519931793,0.0,3.89008164406,1.04754292965,0.0,4.64750385284,1.97830152512,0.0
1449616177637526936,261,1449616177637396120,odom,4.95992422104,1.91914081573,0.0,5.14463186264,1.65663731098,0.0,4.42721939087,0.694701731205,0.0,3.93823575974,1.05938613415,0.0,4.65564775467,2.02132177353,0.0
1449616177838089435,262,1449616177837961957,odom,4.96339702606,1.97659647465,0.0,5.16171121597,1.72421479225,0.0,4.49610567093,0.725731194019,0.0,3.98854327202,1.06408071518,0.0,4.65414905548,2.0625641346,0.0
1449616178038760196,263,1449616178038580721,odom,4.9639582634,2.0340719223,0.0,5.17532539368,1.79251646996,0.0,4.56338405609,0.760272204876,0.0,4.03866004944,1.07134222984,0.0,4.65060091019,2.10358643532,0.0
1449616178238302035,264,1449616178238199541,odom,4.96143054962,2.09152793884,0.0,5.18526029587,1.86147332191,0.0,4.62869215012,0.798349618912,0.0,4.08827114105,1.08127176762,0.0,4.6448392868,2.14439535141,0.0
1449616178438430033,265,1449616178438288252,odom,4.95320034027,2.14366722107,0.0,5.18886804581,1.92575538158,0.0,4.68922662735,0.834720015526,0.0,4.13461685181,1.08870458603,0.0,4.6342587471,2.17973995209,0.0
1449616178639502100,266,1449616178639404092,odom,4.95620203018,2.19580960274,0.0,5.19865894318,1.98547768593,0.0,4.73385286331,0.879152536392,0.0,4.17147111893,1.11542904377,0.0,4.63627719879,2.2217540741,0.0
1449616178843188228,267,1449616178843045944,odom,4.95732402802,2.24811291695,0.0,5.20632648468,2.04557228088,0.0,4.77682304382,0.925069272518,0.0,4.20723438263,1.14340019226,0.0,4.63673734665,2.26390314102,0.0
1449616179040668245,268,1449616179040570425,odom,4.95174503326,2.30519366264,0.0,5.2090845108,2.11335682869,0.0,4.82731676102,0.975704133511,0.0,4.24901008606,1.16976928711,0.0,4.63077735901,2.30742192268,0.0
1449616179239833570,269,1449616179239758693,odom,4.95266342163,2.36835932732,0.0,5.21595430374,2.18477606773,0.0,4.87044095993,1.03559362888,0.0,4.28627300262,1.21122968197,0.0,4.63178682327,2.36041212082,0.0
1449616179446103656,270,1449616179445974467,odom,4.96240615845,2.42253017426,0.0,5.227622509,2.24173974991,0.0,4.89427280426,1.08896994591,0.0,4.30828142166,1.25842285156,0.0,4.64163160324,2.41119241714,0.0
1449616179638620171,271,1449616179638490367,odom,4.96565389633,2.48139858246,0.0,5.23463201523,2.30625367165,0.0,4.92571973801,1.14669632912,0.0,4.33627796173,1.30372667313,0.0,4.64519023895,2.46328401566,0.0
1449616179839907789,272,1449616179839825794,odom,4.96256780624,2.54449558258,0.0,5.23696279526,2.37796497345,0.0,4.96496248245,1.20919811726,0.0,4.37083911896,1.34746491909,0.0,4.64283943176,2.51623177528,0.0
1449616180040859974,273,1449616180040743704,odom,4.96187210083,2.59774208069,0.0,5.23972558975,2.43704795837,0.0,4.99248743057,1.26279354095,0.0,4.3955745697,1.3884729147,0.0,4.64281272888,2.56272721291,0.0
1449616180249720532,274,1449616180249570790,odom,4.9656701088,2.64693760872,0.0,5.24520635605,2.48918867111,0.0,5.01039123535,1.3123871088,0.0,4.4121837616,1.43175148964,0.0,4.64699888229,2.60855293274,0.0
1449616180447669401,275,1449616180447546948,odom,4.96322727203,2.70014572144,0.0,5.24603462219,2.54833984375,0.0,5.03614330292,1.3668384552,0.0,4.435546875,1.47353327274,0.0,4.64543819427,2.6550347805,0.0
1449616180641999513,276,1449616180641896878,odom,4.95966053009,2.7532916069,0.0,5.24561309814,2.60749650002,0.0,5.06073904037,1.42182314396,0.0,4.45802164078,1.51580071449,0.0,4.64289569855,2.70147418976,0.0
1449616180848612203,277,1449616180848508140,odom,4.9616522789,2.80832338333,0.0,5.24912929535,2.66555857658,0.0,5.076795578,1.47799754143,0.0,4.47311878204,1.56560051441,0.0,4.64545249939,2.75316143036,0.0
1449616181045865735,278,1449616181045731858,odom,4.95784568787,2.87275767326,0.0,5.24827575684,2.73610043526,0.0,5.10107898712,1.54516243935,0.0,4.49568557739,1.61998748779,0.0,4.64288234711,2.8109254837,0.0
1449616181244795631,279,1449616181244662218,odom,4.95177936554,2.92560648918,0.0,5.24503278732,2.79511785507,0.0,5.12303876877,1.60133504868,0.0,4.51619958878,1.66334855556,0.0,4.63819313049,2.85713148117,0.0
1449616181453948249,280,1449616181453823256,odom,4.95704889297,2.97717428207,0.0,5.2503027916,2.84668564796,0.0,5.12830877304,1.65290272236,0.0,4.52146911621,1.71491634846,0.0,4.64346313477,2.90869927406,0.0
