%time,field.x,field.y,field.z
1449616121992007346,6.0,6.0,0.0
1449616122025388729,6.0,6.0,0.0
1449616122058730644,6.0,6.0,0.0
1449616122092041183,6.0,6.0,0.0
1449616122125473277,6.0,6.0,0.0
1449616122158758204,6.0,6.0,0.0
1449616122192081125,6.0,6.0,0.0
1449616122225393367,6.0,6.0,0.0
1449616122258730015,6.0,6.0,0.0
1449616122291973724,6.0,6.0,0.0
1449616122325347664,6.0,6.0,0.0
1449616122358703648,6.0,6.0,0.0
1449616122392054129,6.0,6.0,0.0
1449616122425356363,6.0,6.0,0.0
1449616122458660477,6.0,6.0,0.0
1449616122491998254,6.0,6.0,0.0
1449616122525417202,6.0,6.0,0.0
1449616122558759790,6.0,6.0,0.0
1449616122592035485,6.0,6.0,0.0
1449616122625362517,6.0,6.0,0.0
1449616122658704206,6.0,6.0,0.0
1449616122692133677,6.0,6.0,0.0
1449616122725339850,6.0,6.0,0.0
1449616122758704327,6.0,6.0,0.0
1449616122792111590,6.0,6.0,0.0
1449616122825283079,6.0,6.0,0.0
1449616122858666952,6.0,6.0,0.0
1449616122891995372,6.0,6.0,0.0
1449616122925345167,6.0,6.0,0.0
1449616122958781478,6.0,6.0,0.0
1449616122992068839,6.0,6.0,0.0
1449616123025567514,6.0,6.0,0.0
1449616123058693387,6.0,6.0,0.0
1449616123091972596,6.0,6.0,0.0
1449616123125420435,6.0,6.0,0.0
1449616123158650018,6.0,6.0,0.0
1449616123192020053,6.0,6.0,0.0
1449616123225348000,6.0,6.0,0.0
1449616123258709811,6.0,6.0,0.0
1449616123292059102,6.0,6.0,0.0
1449616123325347896,6.0,6.0,0.0
1449616123358706510,6.0,6.0,0.0
1449616123392084139,6.0,6.0,0.0
1449616123425338546,6.0,6.0,0.0
1449616123458685563,6.0,6.0,0.0
1449616123492119289,6.0,6.0,0.0
1449616123525400239,6.0,6.0,0.0
1449616123558654778,6.0,6.0,0.0
1449616123592048212,6.0,6.0,0.0
1449616123625351361,6.0,6.0,0.0
1449616123658674067,6.0,6.0,0.0
1449616123692181103,6.0,6.0,0.0
1449616123725344211,6.0,6.0,0.0
1449616123758676665,6.0,6.0,0.0
1449616123792104259,6.0,6.0,0.0
1449616123825359555,6.0,6.0,0.0
1449616123858681088,6.0,6.0,0.0
1449616123892071631,6.0,6.0,0.0
1449616123925462878,6.0,6.0,0.0
1449616123958680959,6.0,6.0,0.0
1449616123992052135,6.0,6.0,0.0
1449616124025463148,6.0,6.0,0.0
1449616124058854350,6.0,6.0,0.0
1449616124092033129,6.0,6.0,0.0
1449616124125337485,6.0,6.0,0.0
1449616124158668722,6.0,6.0,0.0
1449616124192052410,6.0,6.0,0.0
1449616124225333045,6.0,6.0,0.0
1449616124258676247,6.0,6.0,0.0
1449616124291979727,6.0,6.0,0.0
1449616124325348933,6.0,6.0,0.0
1449616124358683306,6.0,6.0,0.0
1449616124391993170,6.0,6.0,0.0
1449616124425304381,6.0,6.0,0.0
1449616124458680357,6.0,6.0,0.0
1449616124492002020,6.0,6.0,0.0
1449616124525346828,6.0,6.0,0.0
1449616124558684815,6.0,6.0,0.0
1449616124591992079,6.0,6.0,0.0
1449616124625427536,6.0,6.0,0.0
1449616124658800358,6.0,6.0,0.0
1449616124692089486,6.0,6.0,0.0
1449616124725600474,6.0,6.0,0.0
1449616124758810849,6.0,6.0,0.0
1449616124792216834,6.0,6.0,0.0
1449616124825470255,6.0,6.0,0.0
1449616124858831047,6.0,6.0,0.0
1449616124892091749,6.0,6.0,0.0
1449616124925510035,6.0,6.0,0.0
1449616124958733038,6.0,6.0,0.0
1449616124992148960,6.0,6.0,0.0
1449616125025400672,6.0,6.0,0.0
1449616125058759115,6.0,6.0,0.0
1449616125092103363,6.0,6.0,0.0
1449616125125475096,6.0,6.0,0.0
1449616125158773507,6.0,6.0,0.0
1449616125192177069,6.0,6.0,0.0
1449616125225427294,6.0,6.0,0.0
1449616125258817481,6.0,6.0,0.0
1449616125292095897,6.0,6.0,0.0
1449616125325511912,6.0,6.0,0.0
1449616125358701546,6.0,6.0,0.0
1449616125392025425,6.0,6.0,0.0
1449616125425340192,6.0,6.0,0.0
1449616125458891977,6.0,6.0,0.0
1449616125492152552,6.0,6.0,0.0
1449616125525465957,6.0,6.0,0.0
1449616125558771714,6.0,6.0,0.0
1449616125592329516,6.0,6.0,0.0
1449616125625300605,6.0,6.0,0.0
1449616125658891105,6.0,6.0,0.0
1449616125692133146,6.0,6.0,0.0
1449616125725499771,6.0,6.0,0.0
1449616125758822099,6.0,6.0,0.0
1449616125792308501,6.0,6.0,0.0
1449616125825451099,6.0,6.0,0.0
1449616125859067928,6.0,6.0,0.0
1449616125892049023,6.0,6.0,0.0
1449616125925553326,6.0,6.0,0.0
1449616125958763418,6.0,6.0,0.0
1449616125992111205,6.0,6.0,0.0
1449616126025490769,6.0,6.0,0.0
1449616126058814777,6.0,6.0,0.0
1449616126092182788,6.0,6.0,0.0
1449616126125538242,6.0,6.0,0.0
1449616126158720956,6.0,6.0,0.0
1449616126192097818,6.0,6.0,0.0
1449616126225453788,6.0,6.0,0.0
1449616126258719113,6.0,6.0,0.0
1449616126292137983,6.0,6.0,0.0
1449616126325425881,6.0,6.0,0.0
1449616126358824178,6.0,6.0,0.0
1449616126392073303,6.0,6.0,0.0
1449616126425645921,6.0,6.0,0.0
1449616126458824718,6.0,6.0,0.0
1449616126492227693,6.0,6.0,0.0
1449616126525461258,6.0,6.0,0.0
1449616126558783570,6.0,6.0,0.0
1449616126592106977,6.0,6.0,0.0
1449616126625351174,6.0,6.0,0.0
1449616126658759490,6.0,6.0,0.0
1449616126692192243,6.0,6.0,0.0
1449616126725410915,6.0,6.0,0.0
1449616126758901514,6.0,6.0,0.0
1449616126792175894,6.0,6.0,0.0
1449616126825562767,6.0,6.0,0.0
1449616126859083615,6.0,6.0,0.0
1449616126892195906,6.0,6.0,0.0
1449616126925421649,6.0,6.0,0.0
1449616126958678390,6.0,6.0,0.0
1449616126992241110,6.0,6.0,0.0
1449616127025532098,6.0,6.0,0.0
1449616127058813353,6.0,6.0,0.0
1449616127092134430,6.0,6.0,0.0
1449616127125468388,6.0,6.0,0.0
1449616127158733053,6.0,6.0,0.0
1449616127192152394,6.0,6.0,0.0
1449616127225384878,6.0,6.0,0.0
1449616127258845274,6.0,6.0,0.0
1449616127292030585,6.0,6.0,0.0
1449616127325570680,6.0,6.0,0.0
1449616127358709635,6.0,6.0,0.0
1449616127392161846,6.0,6.0,0.0
1449616127425582684,6.0,6.0,0.0
1449616127458937970,6.0,6.0,0.0
1449616127492424451,6.0,6.0,0.0
1449616127525684855,6.0,6.0,0.0
1449616127558996149,6.0,6.0,0.0
1449616127592578064,6.0,6.0,0.0
1449616127626247486,6.0,6.0,0.0
1449616127658913799,6.0,6.0,0.0
1449616127692634274,6.0,6.0,0.0
1449616127725545548,6.0,6.0,0.0
1449616127759199379,6.0,6.0,0.0
1449616127792200037,6.0,6.0,0.0
1449616127825529567,6.0,6.0,0.0
1449616127858861254,6.0,6.0,0.0
1449616127892078966,6.0,6.0,0.0
1449616127925560830,6.0,6.0,0.0
1449616127959069507,6.0,6.0,0.0
1449616127992720254,6.0,6.0,0.0
1449616128025520839,6.0,6.0,0.0
1449616128058803776,6.0,6.0,0.0
1449616128092433226,6.0,6.0,0.0
1449616128125809761,6.0,6.0,0.0
1449616128159023781,6.0,6.0,0.0
1449616128192517525,6.0,6.0,0.0
1449616128225690021,6.0,6.0,0.0
1449616128259144894,6.0,6.0,0.0
1449616128292129428,6.0,6.0,0.0
1449616128325836759,6.0,6.0,0.0
1449616128358941231,6.0,6.0,0.0
1449616128392615926,6.0,6.0,0.0
1449616128426762634,6.0,6.0,0.0
1449616128459092066,6.0,6.0,0.0
1449616128492201736,6.0,6.0,0.0
1449616128525444047,6.0,6.0,0.0
1449616128559057150,6.0,6.0,0.0
1449616128592295553,6.0,6.0,0.0
1449616128625979707,6.0,6.0,0.0
1449616128659039028,6.0,6.0,0.0
1449616128692497746,6.0,6.0,0.0
1449616128726102430,6.0,6.0,0.0
1449616128758843637,6.0,6.0,0.0
1449616128792031196,6.0,6.0,0.0
1449616128826403679,6.0,6.0,0.0
1449616128859001071,6.0,6.0,0.0
1449616128892102806,6.0,6.0,0.0
1449616128925872724,6.0,6.0,0.0
1449616128958923674,6.0,6.0,0.0
1449616128992227646,6.0,6.0,0.0
1449616129025496478,6.0,6.0,0.0
1449616129059259843,6.0,6.0,0.0
1449616129092473126,6.0,6.0,0.0
1449616129125706398,6.0,6.0,0.0
1449616129158797287,6.0,6.0,0.0
1449616129192491418,6.0,6.0,0.0
1449616129225791146,6.0,6.0,0.0
1449616129259043647,6.0,6.0,0.0
1449616129292123876,6.0,6.0,0.0
1449616129325446146,6.0,6.0,0.0
1449616129358858543,6.0,6.0,0.0
1449616129391997641,6.0,6.0,0.0
1449616129426570899,6.0,6.0,0.0
1449616129458878003,6.0,6.0,0.0
1449616129492874591,6.0,6.0,0.0
1449616129525613088,6.0,6.0,0.0
1449616129558806120,6.0,6.0,0.0
1449616129592061639,6.0,6.0,0.0
1449616129625441182,6.0,6.0,0.0
1449616129658733480,6.0,6.0,0.0
1449616129692366627,6.0,6.0,0.0
1449616129725685813,6.0,6.0,0.0
1449616129758908158,6.0,6.0,0.0
1449616129792716015,6.0,6.0,0.0
1449616129825673853,6.0,6.0,0.0
1449616129859129692,6.0,6.0,0.0
1449616129892553493,6.0,6.0,0.0
1449616129929178190,6.0,6.0,0.0
1449616129958924706,6.0,6.0,0.0
1449616129992119293,6.0,6.0,0.0
1449616130025498183,6.0,6.0,0.0
1449616130059128431,6.0,6.0,0.0
1449616130092268306,6.0,6.0,0.0
1449616130125433273,6.0,6.0,0.0
1449616130158830244,6.0,6.0,0.0
1449616130192335351,6.0,6.0,0.0
1449616130225962852,6.0,6.0,0.0
1449616130258830114,6.0,6.0,0.0
1449616130292593877,6.0,6.0,0.0
1449616130325603827,6.0,6.0,0.0
1449616130358763739,6.0,6.0,0.0
1449616130392183745,6.0,6.0,0.0
1449616130425440497,6.0,6.0,0.0
1449616130459070259,6.0,6.0,0.0
1449616130493407965,6.0,6.0,0.0
1449616130525421699,6.0,6.0,0.0
1449616130558922317,6.0,6.0,0.0
1449616130592426462,6.0,6.0,0.0
1449616130625679070,6.0,6.0,0.0
1449616130658886166,6.0,6.0,0.0
1449616130692259238,6.0,6.0,0.0
1449616130725871985,6.0,6.0,0.0
1449616130758727445,6.0,6.0,0.0
1449616130792146579,6.0,6.0,0.0
1449616130825672426,6.0,6.0,0.0
1449616130859521476,6.0,6.0,0.0
1449616130892339095,6.0,6.0,0.0
1449616130926012695,6.0,6.0,0.0
1449616130958859903,6.0,6.0,0.0
1449616130992339737,6.0,6.0,0.0
1449616131025639648,6.0,6.0,0.0
1449616131059910829,6.0,6.0,0.0
1449616131092093713,6.0,6.0,0.0
1449616131125685371,6.0,6.0,0.0
1449616131158672614,6.0,6.0,0.0
1449616131192266830,6.0,6.0,0.0
1449616131225420017,6.0,6.0,0.0
1449616131259465597,6.0,6.0,0.0
1449616131292081887,6.0,6.0,0.0
1449616131326429832,6.0,6.0,0.0
1449616131358874826,6.0,6.0,0.0
1449616131392167995,6.0,6.0,0.0
1449616131426547509,6.0,6.0,0.0
1449616131458870911,6.0,6.0,0.0
1449616131492449077,6.0,6.0,0.0
1449616131525823142,6.0,6.0,0.0
1449616131558773286,6.0,6.0,0.0
1449616131592140625,6.0,6.0,0.0
1449616131625957680,6.0,6.0,0.0
1449616131658962554,6.0,6.0,0.0
1449616131692621730,6.0,6.0,0.0
1449616131726474151,6.0,6.0,0.0
1449616131761320135,6.0,6.0,0.0
1449616131792324552,6.0,6.0,0.0
1449616131825771112,6.0,6.0,0.0
1449616131859126863,6.0,6.0,0.0
1449616131892410781,6.0,6.0,0.0
1449616131925611660,6.0,6.0,0.0
1449616131959031335,6.0,6.0,0.0
1449616131992122379,6.0,6.0,0.0
1449616132025419193,6.0,6.0,0.0
1449616132058938877,6.0,6.0,0.0
1449616132092195577,6.0,6.0,0.0
1449616132125679420,6.0,6.0,0.0
1449616132158724221,6.0,6.0,0.0
1449616132192168242,6.0,6.0,0.0
1449616132226072682,6.0,6.0,0.0
1449616132258871004,6.0,6.0,0.0
1449616132292506794,6.0,6.0,0.0
1449616132330059148,6.0,6.0,0.0
1449616132358672085,6.0,6.0,0.0
1449616132392208385,6.0,6.0,0.0
1449616132430321866,6.0,6.0,0.0
1449616132459792310,6.0,6.0,0.0
1449616132492803407,6.0,6.0,0.0
1449616132526181096,6.0,6.0,0.0
1449616132559432829,6.0,6.0,0.0
1449616132593270991,6.0,6.0,0.0
1449616132625755031,6.0,6.0,0.0
1449616132659202740,6.0,6.0,0.0
1449616132692487792,6.0,6.0,0.0
1449616132725490616,6.0,6.0,0.0
1449616132759506471,6.0,6.0,0.0
1449616132792630972,6.0,6.0,0.0
1449616132826123358,6.0,6.0,0.0
1449616132858837744,6.0,6.0,0.0
1449616132892361420,6.0,6.0,0.0
1449616132925693199,6.0,6.0,0.0
1449616132959029933,6.0,6.0,0.0
1449616132992597573,6.0,6.0,0.0
1449616133025656213,6.0,6.0,0.0
1449616133059792087,6.0,6.0,0.0
1449616133092347413,6.0,6.0,0.0
1449616133126374899,6.0,6.0,0.0
1449616133162048185,6.0,6.0,0.0
1449616133192522370,6.0,6.0,0.0
1449616133226752196,6.0,6.0,0.0
1449616133259162347,6.0,6.0,0.0
1449616133292435653,6.0,6.0,0.0
1449616133326815927,6.0,6.0,0.0
1449616133359255576,6.0,6.0,0.0
1449616133392522707,6.0,6.0,0.0
1449616133425960784,6.0,6.0,0.0
1449616133459739311,6.0,6.0,0.0
1449616133492617095,6.0,6.0,0.0
1449616133525495458,6.0,6.0,0.0
1449616133558766194,6.0,6.0,0.0
1449616133592332530,6.0,6.0,0.0
1449616133625982009,6.0,6.0,0.0
1449616133659006733,6.0,6.0,0.0
1449616133692437162,6.0,6.0,0.0
1449616133725860963,6.0,6.0,0.0
1449616133758749179,6.0,6.0,0.0
1449616133792310878,6.0,6.0,0.0
1449616133827669817,6.0,6.0,0.0
1449616133858981116,6.0,6.0,0.0
1449616133892561610,6.0,6.0,0.0
1449616133925629355,6.0,6.0,0.0
1449616133958877535,6.0,6.0,0.0
1449616133992346484,6.0,6.0,0.0
1449616134025836831,6.0,6.0,0.0
1449616134058961016,6.0,6.0,0.0
1449616134092792141,6.0,6.0,0.0
1449616134125709782,6.0,6.0,0.0
1449616134158718880,6.0,6.0,0.0
1449616134192120917,6.0,6.0,0.0
1449616134225424938,6.0,6.0,0.0
1449616134258881098,6.0,6.0,0.0
1449616134292192385,6.0,6.0,0.0
1449616134325540720,6.0,6.0,0.0
1449616134358916296,6.0,6.0,0.0
1449616134392154161,6.0,6.0,0.0
1449616134425697320,6.0,6.0,0.0
1449616134459110931,6.0,6.0,0.0
1449616134492308850,6.0,6.0,0.0
1449616134526144286,6.0,6.0,0.0
1449616134558751222,6.0,6.0,0.0
1449616134592727460,6.0,6.0,0.0
1449616134625718035,6.0,6.0,0.0
1449616134658912769,6.0,6.0,0.0
1449616134692088981,6.0,6.0,0.0
1449616134725927586,6.0,6.0,0.0
1449616134758680050,6.0,6.0,0.0
1449616134792155072,6.0,6.0,0.0
1449616134825860228,6.0,6.0,0.0
1449616134858880153,6.0,6.0,0.0
1449616134892366740,6.0,6.0,0.0
1449616134925380166,6.0,6.0,0.0
1449616134958940887,6.0,6.0,0.0
1449616134992800780,6.0,6.0,0.0
1449616135025618973,6.0,6.0,0.0
1449616135058692160,6.0,6.0,0.0
1449616135092604733,6.0,6.0,0.0
1449616135125389895,6.0,6.0,0.0
1449616135159269475,6.0,6.0,0.0
1449616135192197339,6.0,6.0,0.0
1449616135225611335,6.0,6.0,0.0
1449616135259874460,6.0,6.0,0.0
1449616135292584196,6.0,6.0,0.0
1449616135325815193,6.0,6.0,0.0
1449616135358852788,6.0,6.0,0.0
1449616135392254680,6.0,6.0,0.0
1449616135425462704,6.0,6.0,0.0
1449616135459005885,6.0,6.0,0.0
1449616135492304755,6.0,6.0,0.0
1449616135525406083,6.0,6.0,0.0
1449616135559220519,6.0,6.0,0.0
1449616135592383702,6.0,6.0,0.0
1449616135625426389,6.0,6.0,0.0
1449616135658803712,6.0,6.0,0.0
1449616135692961189,6.0,6.0,0.0
1449616135725577731,6.0,6.0,0.0
1449616135758998912,6.0,6.0,0.0
1449616135792061574,6.0,6.0,0.0
1449616135826126434,6.0,6.0,0.0
1449616135858912496,6.0,6.0,0.0
1449616135892221069,6.0,6.0,0.0
1449616135925766534,6.0,6.0,0.0
1449616135958757417,6.0,6.0,0.0
1449616135992368238,6.0,6.0,0.0
1449616136025482579,6.0,6.0,0.0
1449616136059010574,6.0,6.0,0.0
1449616136092393989,6.0,6.0,0.0
1449616136125491614,6.0,6.0,0.0
1449616136158839866,6.0,6.0,0.0
1449616136192242193,6.0,6.0,0.0
1449616136226685373,6.0,6.0,0.0
1449616136259130836,6.0,6.0,0.0
1449616136292437533,6.0,6.0,0.0
1449616136325355606,6.0,6.0,0.0
1449616136359244780,6.0,6.0,0.0
1449616136392274764,6.0,6.0,0.0
1449616136425802798,6.0,6.0,0.0
1449616136458910070,6.0,6.0,0.0
1449616136492382950,6.0,6.0,0.0
1449616136525866001,6.0,6.0,0.0
1449616136558713823,6.0,6.0,0.0
1449616136592151880,6.0,6.0,0.0
1449616136625739534,6.0,6.0,0.0
1449616136659133642,6.0,6.0,0.0
1449616136692305827,6.0,6.0,0.0
1449616136725612351,6.0,6.0,0.0
1449616136759313491,6.0,6.0,0.0
1449616136792162601,6.0,6.0,0.0
1449616136825719619,6.0,6.0,0.0
1449616136858753000,6.0,6.0,0.0
1449616136892117315,6.0,6.0,0.0
1449616136925600574,6.0,6.0,0.0
1449616136958846567,6.0,6.0,0.0
1449616136993620596,6.0,6.0,0.0
1449616137025676658,6.0,6.0,0.0
1449616137058714572,6.0,6.0,0.0
1449616137092673022,6.0,6.0,0.0
1449616137125908448,6.0,6.0,0.0
1449616137158911810,6.0,6.0,0.0
1449616137192257716,6.0,6.0,0.0
1449616137225363188,6.0,6.0,0.0
1449616137258978878,6.0,6.0,0.0
1449616137292012273,6.0,6.0,0.0
1449616137325563900,6.0,6.0,0.0
1449616137358842427,6.0,6.0,0.0
1449616137392287605,6.0,6.0,0.0
1449616137425526280,6.0,6.0,0.0
1449616137458963118,6.0,6.0,0.0
1449616137492246918,6.0,6.0,0.0
1449616137525454581,6.0,6.0,0.0
1449616137558944167,6.0,6.0,0.0
1449616137592230630,6.0,6.0,0.0
1449616137625843845,6.0,6.0,0.0
1449616137658843916,6.0,6.0,0.0
1449616137692265415,6.0,6.0,0.0
1449616137727106223,6.0,6.0,0.0
1449616137758861313,6.0,6.0,0.0
1449616137792059774,6.0,6.0,0.0
1449616137826400231,6.0,6.0,0.0
1449616137859207070,6.0,6.0,0.0
1449616137892363377,6.0,6.0,0.0
1449616137925830689,6.0,6.0,0.0
1449616137959597627,6.0,6.0,0.0
1449616137992250374,6.0,6.0,0.0
1449616138025699899,6.0,6.0,0.0
1449616138058718862,6.0,6.0,0.0
1449616138092177215,6.0,6.0,0.0
1449616138125791300,6.0,6.0,0.0
1449616138159242756,6.0,6.0,0.0
1449616138192566123,6.0,6.0,0.0
1449616138226500814,6.0,6.0,0.0
1449616138258783760,6.0,6.0,0.0
1449616138292159399,6.0,6.0,0.0
1449616138326139369,6.0,6.0,0.0
1449616138359141022,6.0,6.0,0.0
1449616138392293329,6.0,6.0,0.0
1449616138425510866,6.0,6.0,0.0
1449616138458895895,6.0,6.0,0.0
1449616138492225699,6.0,6.0,0.0
1449616138525843980,6.0,6.0,0.0
1449616138558844694,6.0,6.0,0.0
1449616138592214361,6.0,6.0,0.0
1449616138625501786,6.0,6.0,0.0
1449616138659176566,6.0,6.0,0.0
1449616138692328008,6.0,6.0,0.0
1449616138725902879,6.0,6.0,0.0
1449616138758989571,6.0,6.0,0.0
1449616138792202053,6.0,6.0,0.0
1449616138825379309,6.0,6.0,0.0
1449616138858814309,6.0,6.0,0.0
1449616138892043765,6.0,6.0,0.0
1449616138925856241,6.0,6.0,0.0
1449616138958806227,6.0,6.0,0.0
1449616138992417035,6.0,6.0,0.0
1449616139025739110,6.0,6.0,0.0
1449616139058928972,6.0,6.0,0.0
1449616139092240039,6.0,6.0,0.0
1449616139125893755,6.0,6.0,0.0
1449616139158845749,6.0,6.0,0.0
1449616139192348602,6.0,6.0,0.0
1449616139225549326,6.0,6.0,0.0
1449616139258923004,6.0,6.0,0.0
1449616139292448299,6.0,6.0,0.0
1449616139326803791,6.0,6.0,0.0
1449616139358850767,6.0,6.0,0.0
1449616139392568882,6.0,6.0,0.0
1449616139425625954,6.0,6.0,0.0
1449616139459585390,6.0,6.0,0.0
1449616139492165514,6.0,6.0,0.0
1449616139526030117,6.0,6.0,0.0
1449616139558952749,6.0,6.0,0.0
1449616139592167085,6.0,6.0,0.0
1449616139625699313,6.0,6.0,0.0
1449616139658754809,6.0,6.0,0.0
1449616139692518400,6.0,6.0,0.0
1449616139725699873,6.0,6.0,0.0
1449616139758895161,6.0,6.0,0.0
1449616139792146111,6.0,6.0,0.0
1449616139825722640,6.0,6.0,0.0
1449616139858817256,6.0,6.0,0.0
1449616139892138723,6.0,6.0,0.0
1449616139925524869,6.0,6.0,0.0
1449616139959786949,6.0,6.0,0.0
1449616139992352537,6.0,6.0,0.0
1449616140026943273,6.0,6.0,0.0
1449616140058846135,6.0,6.0,0.0
1449616140092316684,6.0,6.0,0.0
1449616140127682900,6.0,6.0,0.0
1449616140159008177,6.0,6.0,0.0
1449616140192250613,6.0,6.0,0.0
1449616140225713601,6.0,6.0,0.0
1449616140258974333,6.0,6.0,0.0
1449616140292495727,6.0,6.0,0.0
1449616140325762495,6.0,6.0,0.0
1449616140358712455,6.0,6.0,0.0
1449616140392704054,6.0,6.0,0.0
1449616140425573421,6.0,6.0,0.0
1449616140459110474,6.0,6.0,0.0
1449616140492257177,6.0,6.0,0.0
1449616140525691752,6.0,6.0,0.0
1449616140558770508,6.0,6.0,0.0
1449616140592330604,6.0,6.0,0.0
1449616140625800681,6.0,6.0,0.0
1449616140658944679,6.0,6.0,0.0
1449616140692146462,6.0,6.0,0.0
1449616140725829355,6.0,6.0,0.0
1449616140759031279,6.0,6.0,0.0
1449616140792380339,6.0,6.0,0.0
1449616140826467441,6.0,6.0,0.0
1449616140859489549,6.0,6.0,0.0
1449616140892568974,6.0,6.0,0.0
1449616140925691899,6.0,6.0,0.0
1449616140959076996,6.0,6.0,0.0
1449616140992246688,6.0,6.0,0.0
1449616141025688296,6.0,6.0,0.0
1449616141059007218,6.0,6.0,0.0
1449616141092188917,6.0,6.0,0.0
1449616141125794757,6.0,6.0,0.0
1449616141158927546,6.0,6.0,0.0
1449616141192551035,6.0,6.0,0.0
1449616141226121281,6.0,6.0,0.0
1449616141259006679,6.0,6.0,0.0
1449616141293050190,6.0,6.0,0.0
1449616141325666172,6.0,6.0,0.0
1449616141359097104,6.0,6.0,0.0
1449616141392623878,6.0,6.0,0.0
1449616141426050746,6.0,6.0,0.0
1449616141459468544,6.0,6.0,0.0
1449616141492294792,6.0,6.0,0.0
1449616141525607533,6.0,6.0,0.0
1449616141558996817,6.0,6.0,0.0
1449616141592381284,6.0,6.0,0.0
1449616141625685028,6.0,6.0,0.0
1449616141659071722,6.0,6.0,0.0
1449616141692527858,6.0,6.0,0.0
1449616141725630507,6.0,6.0,0.0
1449616141758745553,6.0,6.0,0.0
1449616141792847081,6.0,6.0,0.0
1449616141825905937,6.0,6.0,0.0
1449616141859383554,6.0,6.0,0.0
1449616141892361123,6.0,6.0,0.0
1449616141925768512,6.0,6.0,0.0
1449616141958866483,6.0,6.0,0.0
1449616141992444086,6.0,6.0,0.0
1449616142025707049,6.0,6.0,0.0
1449616142058845326,6.0,6.0,0.0
1449616142092049414,6.0,6.0,0.0
1449616142126436089,6.0,6.0,0.0
1449616142159515726,6.0,6.0,0.0
1449616142192925907,6.0,6.0,0.0
1449616142226145836,6.0,6.0,0.0
1449616142259054166,6.0,6.0,0.0
1449616142292283617,6.0,6.0,0.0
1449616142325834153,6.0,6.0,0.0
1449616142358897070,6.0,6.0,0.0
1449616142392077762,6.0,6.0,0.0
1449616142425738670,6.0,6.0,0.0
1449616142458944957,6.0,6.0,0.0
1449616142492167619,6.0,6.0,0.0
1449616142525771342,6.0,6.0,0.0
1449616142558925883,6.0,6.0,0.0
1449616142592200859,6.0,6.0,0.0
1449616142625893160,6.0,6.0,0.0
1449616142658792239,6.0,6.0,0.0
1449616142692696295,6.0,6.0,0.0
1449616142725520487,6.0,6.0,0.0
1449616142759199271,6.0,6.0,0.0
1449616142792648005,6.0,6.0,0.0
1449616142826254873,6.0,6.0,0.0
1449616142858899458,6.0,6.0,0.0
1449616142892181735,6.0,6.0,0.0
1449616142925814795,6.0,6.0,0.0
1449616142958841721,6.0,6.0,0.0
1449616142992979169,6.0,6.0,0.0
1449616143025788610,6.0,6.0,0.0
1449616143059189780,6.0,6.0,0.0
1449616143092448149,6.0,6.0,0.0
1449616143125393843,6.0,6.0,0.0
1449616143158872130,6.0,6.0,0.0
1449616143192502478,6.0,6.0,0.0
1449616143225664970,6.0,6.0,0.0
1449616143259104517,6.0,6.0,0.0
1449616143292318954,6.0,6.0,0.0
1449616143326107794,6.0,6.0,0.0
1449616143358794377,6.0,6.0,0.0
1449616143392363063,6.0,6.0,0.0
1449616143425643631,6.0,6.0,0.0
1449616143458706414,6.0,6.0,0.0
1449616143492275811,6.0,6.0,0.0
1449616143525421620,6.0,6.0,0.0
1449616143558799732,6.0,6.0,0.0
1449616143592046703,6.0,6.0,0.0
1449616143625725801,6.0,6.0,0.0
1449616143658842137,6.0,6.0,0.0
1449616143692300795,6.0,6.0,0.0
1449616143726057861,6.0,6.0,0.0
1449616143758872630,6.0,6.0,0.0
1449616143792488746,6.0,6.0,0.0
1449616143826021914,6.0,6.0,0.0
1449616143860198053,6.0,6.0,0.0
1449616143892243768,6.0,6.0,0.0
1449616143925800127,6.0,6.0,0.0
1449616143959129628,6.0,6.0,0.0
1449616143992527691,6.0,6.0,0.0
1449616144025792718,6.0,6.0,0.0
1449616144058881651,6.0,6.0,0.0
1449616144092177907,6.0,6.0,0.0
1449616144126357656,6.0,6.0,0.0
1449616144160249293,6.0,6.0,0.0
1449616144192328787,6.0,6.0,0.0
1449616144225531050,6.0,6.0,0.0
1449616144259345669,6.0,6.0,0.0
1449616144292380191,6.0,6.0,0.0
1449616144325693045,6.0,6.0,0.0
1449616144360453320,6.0,6.0,0.0
1449616144392304208,6.0,6.0,0.0
1449616144425534593,6.0,6.0,0.0
1449616144459083304,6.0,6.0,0.0
1449616144492384730,6.0,6.0,0.0
1449616144525691353,6.0,6.0,0.0
1449616144558902026,6.0,6.0,0.0
1449616144592858218,6.0,6.0,0.0
1449616144625691085,6.0,6.0,0.0
1449616144658801910,6.0,6.0,0.0
1449616144692141831,6.0,6.0,0.0
1449616144725650603,6.0,6.0,0.0
1449616144759896782,6.0,6.0,0.0
1449616144792244338,6.0,6.0,0.0
1449616144826164693,6.0,6.0,0.0
1449616144859737115,6.0,6.0,0.0
1449616144892275785,6.0,6.0,0.0
1449616144925630485,6.0,6.0,0.0
1449616144959633580,6.0,6.0,0.0
1449616144992206912,6.0,6.0,0.0
1449616145025617516,6.0,6.0,0.0
1449616145059246100,6.0,6.0,0.0
1449616145092998227,6.01773968356,6.0,0.0
1449616145125661167,6.01773968356,6.0,0.0
1449616145158935800,6.14750476234,6.01064285776,0.0
1449616145192296844,6.14750476234,6.01064285776,0.0
1449616145225650398,6.14750476234,6.01064285776,0.0
1449616145258909528,6.14750476234,6.01064285776,0.0
1449616145292929462,6.55068444855,6.01064285776,0.0
1449616145326038839,6.55068444855,6.01064285776,0.0
1449616145359804111,6.61952,6.01064285776,0.0
1449616145392254366,6.61952,6.01064285776,0.0
1449616145425987902,6.61952,6.01064285776,0.0
1449616145459009538,6.61952,6.01064285776,0.0
1449616145492629638,6.54085079834,6.01064285776,0.0
1449616145526163213,6.54085079834,6.01064285776,0.0
1449616145559346729,6.60968634979,6.01064285776,0.0
1449616145592389798,6.60968634979,6.01064285776,0.0
1449616145625611560,6.60968634979,6.01064285776,0.0
1449616145659052504,6.60968634979,6.01064285776,0.0
1449616145692589382,6.54085079834,6.0,0.0
1449616145725687719,6.54085079834,6.0,0.0
1449616145759107046,6.60968634979,6.01064285776,0.0
1449616145792544550,6.60968634979,6.01064285776,0.0
1449616145825796590,6.60968634979,6.01064285776,0.0
1449616145859103259,6.60968634979,6.01064285776,0.0
1449616145892280902,6.60968634979,6.0,0.0
1449616145925421690,6.60968634979,6.0,0.0
1449616145959225150,6.60968634979,6.01064285776,0.0
1449616145992458540,6.60968634979,6.01064285776,0.0
1449616146026021451,6.60968634979,6.01064285776,0.0
1449616146059166284,6.60968634979,6.01064285776,0.0
1449616146092429455,6.60968634979,6.0,0.0
1449616146125546583,6.60968634979,6.0,0.0
1449616146159608404,6.60968634979,6.01064285776,0.0
1449616146192550871,6.60968634979,6.01064285776,0.0
1449616146225772601,6.60968634979,6.01064285776,0.0
1449616146261957869,6.60968634979,6.01064285776,0.0
1449616146292472927,6.60968634979,6.0,0.0
1449616146325876706,6.60968634979,6.0,0.0
1449616146359442723,6.60968634979,6.01064285776,0.0
1449616146392128557,6.60968634979,6.01064285776,0.0
1449616146425843075,6.60968634979,6.01064285776,0.0
1449616146459017388,6.60968634979,6.01064285776,0.0
1449616146492375178,6.60968634979,6.0,0.0
1449616146525749771,6.60968634979,6.0,0.0
1449616146559373313,6.60968634979,6.01064285776,0.0
1449616146592173724,6.60968634979,6.01064285776,0.0
1449616146626382243,6.60968634979,6.01064285776,0.0
1449616146659325702,6.60968634979,6.01064285776,0.0
1449616146692203965,6.60968634979,6.0,0.0
1449616146725530491,6.60968634979,6.0,0.0
1449616146758804348,6.60968634979,6.01064285776,0.0
1449616146792633274,6.60968634979,6.01064285776,0.0
1449616146825744006,6.60968634979,6.01064285776,0.0
1449616146860748885,6.60968634979,6.01064285776,0.0
1449616146892241485,6.60968634979,6.0,0.0
1449616146926243505,6.60968634979,6.0,0.0
1449616146959090156,6.54085079834,6.01064285776,0.0
1449616146992540010,6.54085079834,6.01064285776,0.0
1449616147029167160,6.54085079834,6.01064285776,0.0
1449616147058971273,6.60968634979,6.0,0.0
1449616147093945164,6.60968634979,6.0,0.0
1449616147125560634,6.60968634979,6.0,0.0
1449616147158987077,6.54085079834,6.01064285776,0.0
1449616147192580001,6.54085079834,6.01064285776,0.0
1449616147225798897,6.54085079834,6.01064285776,0.0
1449616147258915938,6.54085079834,6.01064285776,0.0
1449616147292538903,6.60968634979,6.0,0.0
1449616147327927169,6.60968634979,6.0,0.0
1449616147359152300,6.60968634979,6.01064285776,0.0
1449616147392437725,6.60968634979,6.01064285776,0.0
1449616147426090264,6.60968634979,6.01064285776,0.0
1449616147460253954,6.60968634979,6.01064285776,0.0
1449616147492692813,6.59985269958,6.0,0.0
1449616147526140630,6.59985269958,6.0,0.0
1449616147558964278,6.60968634979,6.01064285776,0.0
1449616147593146656,6.60968634979,6.01064285776,0.0
1449616147626061492,6.60968634979,6.01064285776,0.0
1449616147660326604,6.60968634979,6.01064285776,0.0
1449616147692264539,6.60968634979,6.0,0.0
1449616147725700589,6.60968634979,6.0,0.0
1449616147759046294,6.60968634979,6.01064285776,0.0
1449616147792861672,6.60968634979,6.01064285776,0.0
1449616147825608526,6.60968634979,6.01064285776,0.0
1449616147859210293,6.60968634979,6.01064285776,0.0
1449616147892779751,6.60968634979,6.0,0.0
1449616147925658980,6.60968634979,6.0,0.0
1449616147958843863,6.60968634979,6.0,0.0
1449616147992192461,6.60968634979,6.0,0.0
1449616148025907904,6.60968634979,6.0,0.0
1449616148060907337,6.60968634979,6.0,0.0
1449616148092950234,6.60968634979,6.0,0.0
1449616148125851380,6.60968634979,6.0,0.0
1449616148159139801,6.60968634979,6.01064285776,0.0
1449616148192229407,6.60968634979,6.01064285776,0.0
1449616148225645001,6.60968634979,6.01064285776,0.0
1449616148258849038,6.60968634979,6.01064285776,0.0
1449616148293420443,6.60968634979,6.01064285776,0.0
1449616148325886549,6.60968634979,6.01064285776,0.0
1449616148359320373,6.60968634979,6.01064285776,0.0
1449616148392541543,6.60968634979,6.01064285776,0.0
1449616148426503244,6.60968634979,6.01064285776,0.0
1449616148459344639,6.60968634979,6.01064285776,0.0
1449616148492878456,6.60968634979,6.01064285776,0.0
1449616148525920061,6.60968634979,6.01064285776,0.0
1449616148558739818,6.60968634979,6.01064285776,0.0
1449616148592389271,6.60968634979,6.01064285776,0.0
1449616148625453740,6.60968634979,6.01064285776,0.0
1449616148659342469,6.60968634979,6.01064285776,0.0
1449616148692308670,6.60968634979,6.01064285776,0.0
1449616148725996269,6.60968634979,6.01064285776,0.0
1449616148759052766,6.60968634979,6.01064285776,0.0
1449616148794772555,6.60968634979,6.01064285776,0.0
1449616148827276430,6.60968634979,6.01064285776,0.0
1449616148859087890,6.59985269958,6.02128571551,0.0
1449616148892314056,6.59985269958,6.02128571551,0.0
1449616148925740395,6.59985269958,6.02128571551,0.0
1449616148958788851,6.59985269958,6.05321428754,0.0
1449616148992535863,6.59985269958,6.05321428754,0.0
1449616149027120763,6.59985269958,6.05321428754,0.0
1449616149059287544,6.59985269958,6.05321428754,0.0
1449616149092968232,6.59985269958,6.05321428754,0.0
1449616149125651994,6.59985269958,6.05321428754,0.0
1449616149159146015,6.59985269958,6.05321428754,0.0
1449616149192265968,6.59985269958,6.05321428754,0.0
1449616149226725318,6.59985269958,6.05321428754,0.0
1449616149258704183,6.59985269958,6.05321428754,0.0
1449616149292423524,6.59985269958,6.05321428754,0.0
1449616149325871113,6.59985269958,6.05321428754,0.0
1449616149359486327,6.60968634979,6.03192857202,0.0
1449616149392058925,6.60968634979,6.03192857202,0.0
1449616149425697642,6.60968634979,6.03192857202,0.0
1449616149458824519,6.60968634979,6.03192857202,0.0
1449616149492451383,6.60968634979,6.04257143103,0.0
1449616149525627667,6.60968634979,6.04257143103,0.0
1449616149558966789,6.59985269958,6.04257143103,0.0
1449616149592149605,6.59985269958,6.04257143103,0.0
1449616149625721883,6.59985269958,6.04257143103,0.0
1449616149658801489,6.59985269958,6.04257143103,0.0
1449616149692295081,6.59985269958,6.06385714405,0.0
1449616149726105784,6.59985269958,6.06385714405,0.0
1449616149758887181,6.52118349792,6.56407143492,0.0
1449616149792169886,6.52118349792,6.56407143492,0.0
1449616149825454843,6.52118349792,6.56407143492,0.0
1449616149859097102,6.52118349792,6.56407143492,0.0
1449616149892287311,6.52118349792,6.57471429142,0.0
1449616149925782946,6.52118349792,6.57471429142,0.0
1449616149960135478,6.44251429626,6.46828572634,0.0
1449616149992353476,6.44251429626,6.46828572634,0.0
1449616150025798278,6.44251429626,6.46828572634,0.0
1449616150059470739,6.44251429626,6.46828572634,0.0
1449616150092782540,6.52118349792,6.56407143492,0.0
1449616150125408205,6.52118349792,6.56407143492,0.0
1449616150158928480,6.53101714813,6.56407143492,0.0
1449616150192410044,6.53101714813,6.56407143492,0.0
1449616150225936500,6.53101714813,6.56407143492,0.0
1449616150259165051,6.53101714813,6.56407143492,0.0
1449616150292336414,6.53101714813,6.56407143492,0.0
1449616150325518696,6.53101714813,6.56407143492,0.0
1449616150359183258,6.53101714813,6.57471429142,0.0
1449616150392304863,6.53101714813,6.57471429142,0.0
1449616150425758356,6.53101714813,6.57471429142,0.0
1449616150458890704,6.53101714813,6.57471429142,0.0
1449616150492345799,6.53101714813,6.56407143492,0.0
1449616150525737548,6.53101714813,6.56407143492,0.0
1449616150559728944,6.52118349792,6.56407143492,0.0
1449616150592238197,6.52118349792,6.56407143492,0.0
1449616150628960051,6.52118349792,6.56407143492,0.0
1449616150659607696,6.52118349792,6.56407143492,0.0
1449616150692889262,6.0,6.0,0.0
1449616150725791924,6.0,6.0,0.0
1449616150759529320,6.60968634979,6.0,0.0
1449616150792365869,6.60968634979,6.0,0.0
1449616150825448595,6.60968634979,6.0,0.0
1449616150859103843,6.60968634979,6.0,0.0
1449616150892179413,6.60968634979,6.01064285776,0.0
1449616150925752175,6.60968634979,6.01064285776,0.0
1449616150958949789,6.60968634979,6.01064285776,0.0
1449616150992318558,6.60968634979,6.01064285776,0.0
1449616151025777912,6.60968634979,6.01064285776,0.0
1449616151059097720,6.60968634979,6.01064285776,0.0
1449616151095199141,6.60968634979,6.0,0.0
1449616151125539543,6.60968634979,6.0,0.0
1449616151159115609,6.54085079834,6.01064285776,0.0
1449616151192307763,6.54085079834,6.01064285776,0.0
1449616151225873976,6.54085079834,6.01064285776,0.0
1449616151258900013,6.54085079834,6.01064285776,0.0
1449616151292393474,6.60968634979,6.0,0.0
1449616151325542226,6.60968634979,6.0,0.0
1449616151360047763,6.53101714813,5.98935714224,0.0
1449616151392173138,6.53101714813,5.98935714224,0.0
1449616151425416287,6.53101714813,5.98935714224,0.0
1449616151459314939,6.53101714813,5.98935714224,0.0
1449616151492305724,6.59001904938,5.87228571191,0.0
1449616151525929094,6.59001904938,5.87228571191,0.0
1449616151559254252,6.48184889709,5.80842856286,0.0
1449616151592804516,6.48184889709,5.80842856286,0.0
1449616151626176137,6.48184889709,5.80842856286,0.0
1449616151659319272,6.48184889709,5.80842856286,0.0
1449616151692772584,6.53101714813,5.43592856508,0.0
1449616151725634165,6.53101714813,5.43592856508,0.0
1449616151759057719,6.52118349792,5.43592856508,0.0
1449616151792791912,6.52118349792,5.43592856508,0.0
1449616151826392371,6.52118349792,5.43592856508,0.0
1449616151862447367,6.52118349792,5.43592856508,0.0
1449616151892099680,6.53101714813,5.42528570858,0.0
1449616151926058811,6.53101714813,5.42528570858,0.0
1449616151960210614,6.53101714813,5.42528570858,0.0
1449616151992395365,6.53101714813,5.42528570858,0.0
1449616152026346104,6.53101714813,5.42528570858,0.0
1449616152058933943,6.53101714813,5.42528570858,0.0
1449616152093314328,6.53101714813,5.42528570858,0.0
1449616152125475899,6.53101714813,5.42528570858,0.0
1449616152159155906,6.53101714813,5.43592856508,0.0
1449616152192253877,6.53101714813,5.43592856508,0.0
1449616152226129751,6.53101714813,5.43592856508,0.0
1449616152260516950,6.53101714813,5.43592856508,0.0
1449616152293147099,6.53101714813,5.43592856508,0.0
1449616152325522092,6.53101714813,5.43592856508,0.0
1449616152358852001,6.52118349792,5.43592856508,0.0
1449616152392469645,6.52118349792,5.43592856508,0.0
1449616152426236219,6.52118349792,5.43592856508,0.0
1449616152459311107,6.52118349792,5.43592856508,0.0
1449616152492739288,6.53101714813,5.42528570858,0.0
1449616152525402540,6.53101714813,5.42528570858,0.0
1449616152559934276,6.53101714813,5.42528570858,0.0
1449616152592723962,6.53101714813,5.42528570858,0.0
1449616152625379576,6.53101714813,5.42528570858,0.0
1449616152659424832,6.53101714813,5.42528570858,0.0
1449616152692724693,6.53101714813,5.43592856508,0.0
1449616152727125213,6.53101714813,5.43592856508,0.0
1449616152759015076,6.0,6.0,0.0
1449616152792270645,6.0,6.0,0.0
1449616152825495945,6.0,6.0,0.0
1449616152859135556,6.0,6.0,0.0
1449616152892257923,6.52118349792,5.43592856508,0.0
1449616152925902510,6.52118349792,5.43592856508,0.0
1449616152958808407,6.53101714813,5.42528570858,0.0
1449616152993968315,6.53101714813,5.42528570858,0.0
1449616153025457130,6.53101714813,5.42528570858,0.0
1449616153058976655,6.53101714813,5.42528570858,0.0
1449616153092105584,6.53101714813,5.43592856508,0.0
1449616153125444341,6.53101714813,5.43592856508,0.0
1449616153159225389,6.53101714813,5.42528570858,0.0
1449616153192439251,6.53101714813,5.42528570858,0.0
1449616153225560019,6.53101714813,5.42528570858,0.0
1449616153259655998,6.53101714813,5.42528570858,0.0
1449616153292512917,6.57035174896,5.69135714127,0.0
1449616153325536195,6.57035174896,5.69135714127,0.0
1449616153359000479,6.59985269958,5.90421428143,0.0
1449616153392400482,6.59985269958,5.90421428143,0.0
1449616153425562862,6.59985269958,5.90421428143,0.0
1449616153459495621,6.59985269958,5.90421428143,0.0
1449616153493733195,6.60968634979,5.97871428449,0.0
1449616153525743797,6.60968634979,5.97871428449,0.0
1449616153558955538,6.60968634979,5.97871428449,0.0
1449616153592286426,6.60968634979,5.97871428449,0.0
1449616153626134400,6.60968634979,5.97871428449,0.0
1449616153659183601,6.60968634979,5.97871428449,0.0
1449616153692597312,6.59985269958,5.98935714224,0.0
1449616153725567661,6.59985269958,5.98935714224,0.0
1449616153759420212,6.54085079834,6.0,0.0
1449616153792562643,6.54085079834,6.0,0.0
1449616153826155909,6.54085079834,6.0,0.0
1449616153859084397,6.54085079834,6.0,0.0
1449616153892540498,6.60968634979,6.01064285776,0.0
1449616153925934405,6.60968634979,6.01064285776,0.0
1449616153959655274,6.53101714813,6.01064285776,0.0
1449616153992300746,6.53101714813,6.01064285776,0.0
1449616154030268160,6.53101714813,6.01064285776,0.0
1449616154059282797,6.60968634979,6.0,0.0
1449616154092285986,6.60968634979,6.0,0.0
1449616154126056061,6.60968634979,6.0,0.0
1449616154159462693,6.53101714813,6.01064285776,0.0
1449616154192332102,6.53101714813,6.01064285776,0.0
1449616154225578724,6.53101714813,6.01064285776,0.0
1449616154259612253,6.53101714813,6.01064285776,0.0
1449616154292912147,6.60968634979,6.01064285776,0.0
1449616154325481192,6.60968634979,6.01064285776,0.0
1449616154358876055,6.59985269958,6.08514286206,0.0
1449616154392445294,6.59985269958,6.08514286206,0.0
1449616154425570204,6.59985269958,6.08514286206,0.0
1449616154458801763,6.59985269958,6.08514286206,0.0
1449616154492129516,6.57035174896,6.21285715015,0.0
1449616154525497085,6.57035174896,6.21285715015,0.0
1449616154558667549,6.52118349792,6.56407143492,0.0
1449616154592014989,6.52118349792,6.56407143492,0.0
1449616154625555737,6.52118349792,6.56407143492,0.0
1449616154658936993,6.52118349792,6.56407143492,0.0
1449616154692161604,6.57035174896,6.30864285873,0.0
1449616154725477722,6.57035174896,6.30864285873,0.0
1449616154758836428,6.56051809875,6.30864285873,0.0
1449616154792240202,6.56051809875,6.30864285873,0.0
1449616154826107714,6.56051809875,6.30864285873,0.0
1449616154858815666,6.56051809875,6.30864285873,0.0
1449616154892232927,6.60968634979,6.02128571551,0.0
1449616154925389118,6.60968634979,6.02128571551,0.0
1449616154958952989,6.60968634979,6.02128571551,0.0
1449616154992088826,6.60968634979,6.02128571551,0.0
1449616155025609272,6.60968634979,6.02128571551,0.0
1449616155058736238,6.60968634979,6.02128571551,0.0
1449616155092259761,6.60968634979,6.0,0.0
1449616155125367202,6.60968634979,6.0,0.0
1449616155158925799,6.60968634979,5.98935714224,0.0
1449616155192038590,6.60968634979,5.98935714224,0.0
1449616155225521792,6.60968634979,5.98935714224,0.0
1449616155258698394,6.60968634979,5.98935714224,0.0
1449616155292175640,6.53101714813,5.42528570858,0.0
1449616155325365821,6.53101714813,5.42528570858,0.0
1449616155358822198,6.0,6.0,0.0
1449616155392030768,6.0,6.0,0.0
1449616155425374827,6.0,6.0,0.0
1449616155458754691,6.0,6.0,0.0
1449616155492241173,6.53101714813,5.42528570858,0.0
1449616155525408460,6.53101714813,5.42528570858,0.0
1449616155558782870,6.52118349792,5.43592856508,0.0
1449616155592041048,6.52118349792,5.43592856508,0.0
1449616155625378718,6.52118349792,5.43592856508,0.0
1449616155658733342,6.52118349792,5.43592856508,0.0
1449616155692054316,6.53101714813,5.42528570858,0.0
1449616155725402500,6.53101714813,5.42528570858,0.0
1449616155758844237,6.52118349792,5.43592856508,0.0
1449616155792011605,6.52118349792,5.43592856508,0.0
1449616155825398161,6.52118349792,5.43592856508,0.0
1449616155858769258,6.52118349792,5.43592856508,0.0
1449616155892100756,6.44251429626,5.52107141715,0.0
1449616155925339577,6.44251429626,5.52107141715,0.0
1449616155958725960,6.52118349792,5.43592856508,0.0
1449616155992003623,6.52118349792,5.43592856508,0.0
1449616156025421141,6.52118349792,5.43592856508,0.0
1449616156058796141,6.52118349792,5.43592856508,0.0
1449616156092025160,6.53101714813,5.42528570858,0.0
1449616156125444980,6.53101714813,5.42528570858,0.0
1449616156158775299,6.13767111214,5.46785713461,0.0
1449616156192063664,6.13767111214,5.46785713461,0.0
1449616156225400025,6.13767111214,5.46785713461,0.0
1449616156258718826,6.13767111214,5.46785713461,0.0
1449616156292238220,6.0885028611,5.35078571302,0.0
1449616156325403371,6.0885028611,5.35078571302,0.0
1449616156358822459,6.03547936713,5.43592856508,0.0
1449616156392131951,6.03547936713,5.43592856508,0.0
1449616156425403556,6.03547936713,5.43592856508,0.0
1449616156458797998,6.03547936713,5.43592856508,0.0
1449616156492516955,6.03547936713,5.35078571302,0.0
1449616156525358936,6.03547936713,5.35078571302,0.0
1449616156558831753,6.01773968356,5.34014285651,0.0
1449616156592093547,6.01773968356,5.34014285651,0.0
1449616156625538367,6.01773968356,5.34014285651,0.0
1449616156658671701,6.01773968356,5.34014285651,0.0
1449616156692214896,6.01773968356,5.34014285651,0.0
1449616156725394371,6.01773968356,5.34014285651,0.0
1449616156758848944,6.01773968356,5.75521428032,0.0
1449616156792052263,6.01773968356,5.75521428032,0.0
1449616156825499374,6.01773968356,5.75521428032,0.0
1449616156858721969,6.01773968356,5.75521428032,0.0
1449616156892136249,6.01773968356,5.64878569525,0.0
1449616156925353331,6.01773968356,5.64878569525,0.0
1449616156958705031,6.0,5.34014285651,0.0
1449616156992060306,6.0,5.34014285651,0.0
1449616157025350204,6.0,5.34014285651,0.0
1449616157058735390,6.0,5.34014285651,0.0
1449616157092074173,6.0,5.34014285651,0.0
1449616157125381539,6.0,5.34014285651,0.0
1449616157158700268,6.0,5.34014285651,0.0
1449616157192062341,6.0,5.34014285651,0.0
1449616157225336655,6.0,5.34014285651,0.0
1449616157258764099,6.0,5.34014285651,0.0
1449616157292066308,6.0,5.68071428476,0.0
1449616157325383607,6.0,5.68071428476,0.0
1449616157358716358,6.0,5.64878569525,0.0
1449616157392042941,6.0,5.64878569525,0.0
1449616157425338897,6.0,5.64878569525,0.0
1449616157458704383,6.0,5.64878569525,0.0
1449616157492066166,6.0,5.34014285651,0.0
1449616157525373594,6.0,5.34014285651,0.0
1449616157558704533,6.0,5.37207142603,0.0
1449616157592072503,6.0,5.37207142603,0.0
1449616157625340386,6.0,5.37207142603,0.0
1449616157658707493,6.0,5.37207142603,0.0
1449616157692326245,6.0,5.34014285651,0.0
1449616157725388391,6.0,5.34014285651,0.0
1449616157758700941,6.0,5.40399999556,0.0
1449616157792018103,6.0,5.40399999556,0.0
1449616157825429500,6.0,5.40399999556,0.0
1449616157858694505,6.0,5.40399999556,0.0
1449616157892120197,6.0,5.35078571302,0.0
1449616157925352781,6.0,5.35078571302,0.0
1449616157958778218,6.0,5.85099999889,0.0
1449616157992031529,6.0,5.85099999889,0.0
1449616158025474264,6.0,5.85099999889,0.0
1449616158058666792,6.0,5.85099999889,0.0
1449616158092116420,6.0,5.97871428449,0.0
1449616158125373478,6.0,5.97871428449,0.0
1449616158158766969,6.01773968356,6.0,0.0
1449616158192023568,6.01773968356,6.0,0.0
1449616158225421863,6.01773968356,6.0,0.0
1449616158258705748,6.01773968356,6.0,0.0
1449616158292140946,6.0,5.3295,0.0
1449616158325382733,6.0,5.3295,0.0
1449616158358731619,6.0,5.39335713905,0.0
1449616158391987319,6.0,5.39335713905,0.0
1449616158425421557,6.0,5.39335713905,0.0
1449616158458687689,6.0,5.39335713905,0.0
1449616158492060187,6.0,5.34014285651,0.0
1449616158525324858,6.0,5.34014285651,0.0
1449616158558666823,6.0,5.40399999556,0.0
1449616158592023529,6.0,5.40399999556,0.0
1449616158625419762,6.0,5.40399999556,0.0
1449616158658745893,6.0,5.40399999556,0.0
1449616158692046815,6.0,5.34014285651,0.0
1449616158725363901,6.0,5.34014285651,0.0
1449616158758791986,6.0,5.38271428254,0.0
1449616158792054844,6.0,5.38271428254,0.0
1449616158825385933,6.0,5.38271428254,0.0
1449616158858685075,6.0,5.38271428254,0.0
1449616158892172905,6.0,5.34014285651,0.0
1449616158925387361,6.0,5.34014285651,0.0
1449616158958718573,6.0,5.34014285651,0.0
1449616158992017913,6.0,5.34014285651,0.0
1449616159025424572,6.0,5.34014285651,0.0
1449616159058668884,6.0,5.34014285651,0.0
1449616159092180311,6.0,5.34014285651,0.0
1449616159125369675,6.0,5.34014285651,0.0
1449616159158698316,6.0,5.34014285651,0.0
1449616159191996930,6.0,5.34014285651,0.0
1449616159225487092,6.0,5.34014285651,0.0
1449616159258811313,6.0,5.34014285651,0.0
1449616159292151480,6.0,5.97871428449,0.0
1449616159325379049,6.0,5.97871428449,0.0
1449616159358851946,6.0,5.97871428449,0.0
1449616159392000094,6.0,5.97871428449,0.0
1449616159425707482,6.0,5.97871428449,0.0
1449616159458704373,6.0,5.97871428449,0.0
1449616159492251195,6.0,5.97871428449,0.0
1449616159525363095,6.0,5.97871428449,0.0
1449616159558821729,6.01773968356,5.35078571302,0.0
1449616159592047207,6.01773968356,5.35078571302,0.0
1449616159625407720,6.01773968356,5.35078571302,0.0
1449616159658679067,6.01773968356,5.35078571302,0.0
1449616159692022676,6.0,5.34014285651,0.0
1449616159725329398,6.0,5.34014285651,0.0
1449616159758866358,6.01773968356,5.34014285651,0.0
1449616159792008607,6.01773968356,5.34014285651,0.0
1449616159825519741,6.01773968356,5.34014285651,0.0
1449616159858672684,6.01773968356,5.34014285651,0.0
1449616159892215356,6.0,5.34014285651,0.0
1449616159925348104,6.0,5.34014285651,0.0
1449616159958762041,6.0,5.34014285651,0.0
1449616159992018747,6.0,5.34014285651,0.0
1449616160025428987,6.0,5.34014285651,0.0
1449616160058674331,6.0,5.34014285651,0.0
1449616160092150577,6.0,5.34014285651,0.0
1449616160125316369,6.0,5.34014285651,0.0
1449616160158802372,6.0,5.34014285651,0.0
1449616160192031880,6.0,5.34014285651,0.0
1449616160225506321,6.0,5.34014285651,0.0
1449616160258670273,6.0,5.34014285651,0.0
1449616160292149830,6.0,5.3295,0.0
1449616160325342682,6.0,5.3295,0.0
1449616160358868180,6.0,5.34014285651,0.0
1449616160391995047,6.0,5.34014285651,0.0
1449616160425494471,6.0,5.34014285651,0.0
1449616160458685197,6.0,5.34014285651,0.0
1449616160492162712,6.0,5.34014285651,0.0
1449616160525365847,6.0,5.34014285651,0.0
1449616160558769286,6.0,5.34014285651,0.0
1449616160592004711,6.0,5.34014285651,0.0
1449616160625564765,6.0,5.34014285651,0.0
1449616160658682713,6.0,5.34014285651,0.0
1449616160692083012,6.0,5.34014285651,0.0
1449616160725336492,6.0,5.34014285651,0.0
1449616160758743039,6.01773968356,6.0,0.0
1449616160791986542,6.01773968356,6.0,0.0
1449616160825428268,6.01773968356,6.0,0.0
1449616160858673749,6.01773968356,6.0,0.0
1449616160892167213,6.01773968356,6.0,0.0
1449616160925358153,6.01773968356,6.0,0.0
1449616160958824113,6.0,6.0,0.0
1449616160992009179,6.0,6.0,0.0
1449616161025426408,6.0,6.0,0.0
1449616161058661072,6.0,6.0,0.0
1449616161092132817,6.03547936713,6.0,0.0
1449616161125371378,6.03547936713,6.0,0.0
1449616161158757349,6.60968634979,6.0,0.0
1449616161192011030,6.60968634979,6.0,0.0
1449616161225405467,6.60968634979,6.0,0.0
1449616161258675949,6.60968634979,6.0,0.0
1449616161292126144,6.60968634979,6.01064285776,0.0
1449616161325331429,6.60968634979,6.01064285776,0.0
1449616161358719741,6.60968634979,6.01064285776,0.0
1449616161391999675,6.60968634979,6.01064285776,0.0
1449616161425504552,6.60968634979,6.01064285776,0.0
1449616161458649288,6.60968634979,6.01064285776,0.0
1449616161492076432,6.60968634979,6.01064285776,0.0
1449616161525376528,6.60968634979,6.01064285776,0.0
1449616161558734742,6.59001904938,6.01064285776,0.0
1449616161592018490,6.59001904938,6.01064285776,0.0
1449616161625331222,6.59001904938,6.01064285776,0.0
1449616161658662570,6.59001904938,6.01064285776,0.0
1449616161692170298,6.60968634979,6.01064285776,0.0
1449616161725378104,6.60968634979,6.01064285776,0.0
1449616161758858047,6.54085079834,6.01064285776,0.0
1449616161791988730,6.54085079834,6.01064285776,0.0
1449616161825345829,6.54085079834,6.01064285776,0.0
1449616161858647519,6.54085079834,6.01064285776,0.0
1449616161892077083,6.60968634979,6.01064285776,0.0
1449616161925340941,6.60968634979,6.01064285776,0.0
1449616161958787145,6.54085079834,6.01064285776,0.0
1449616161992013785,6.54085079834,6.01064285776,0.0
1449616162025336014,6.54085079834,6.01064285776,0.0
1449616162058654933,6.54085079834,6.01064285776,0.0
1449616162092109399,6.60968634979,6.01064285776,0.0
1449616162125320393,6.60968634979,6.01064285776,0.0
1449616162158769986,6.60968634979,6.01064285776,0.0
1449616162191976292,6.60968634979,6.01064285776,0.0
1449616162225494384,6.60968634979,6.01064285776,0.0
1449616162258649566,6.60968634979,6.01064285776,0.0
1449616162292004954,6.60968634979,6.01064285776,0.0
1449616162325328442,6.60968634979,6.01064285776,0.0
1449616162358724742,6.60968634979,6.01064285776,0.0
1449616162392010758,6.60968634979,6.01064285776,0.0
1449616162425382480,6.60968634979,6.01064285776,0.0
1449616162458679166,6.60968634979,6.01064285776,0.0
1449616162492098983,6.60968634979,6.01064285776,0.0
1449616162525385691,6.60968634979,6.01064285776,0.0
1449616162558679544,6.60968634979,6.01064285776,0.0
1449616162592071226,6.60968634979,6.01064285776,0.0
1449616162625335714,6.60968634979,6.01064285776,0.0
1449616162658764137,6.60968634979,6.01064285776,0.0
1449616162692067185,6.60968634979,6.01064285776,0.0
1449616162725383310,6.60968634979,6.01064285776,0.0
1449616162758703774,6.60968634979,6.01064285776,0.0
1449616162792050209,6.60968634979,6.01064285776,0.0
1449616162825333374,6.60968634979,6.01064285776,0.0
1449616162858721691,6.60968634979,6.01064285776,0.0
1449616162892085719,6.60968634979,6.02128571551,0.0
1449616162925417292,6.60968634979,6.02128571551,0.0
1449616162958843917,6.18683937241,6.62792857397,0.0
1449616162991972708,6.18683937241,6.62792857397,0.0
1449616163025484680,6.18683937241,6.62792857397,0.0
1449616163058696934,6.18683937241,6.62792857397,0.0
1449616163092046107,6.18683937241,6.62792857397,0.0
1449616163125326865,6.18683937241,6.62792857397,0.0
1449616163158658280,6.23600762344,6.51085715237,0.0
1449616163192073230,6.23600762344,6.51085715237,0.0
1449616163225358214,6.23600762344,6.51085715237,0.0
1449616163258660393,6.23600762344,6.51085715237,0.0
1449616163292026829,6.28517587448,6.60664286095,0.0
1449616163325304299,6.28517587448,6.60664286095,0.0
1449616163358650191,6.28517587448,6.60664286095,0.0
1449616163392129815,6.28517587448,6.60664286095,0.0
1449616163425447136,6.28517587448,6.60664286095,0.0
1449616163458653371,6.28517587448,6.60664286095,0.0
1449616163492010035,6.24584127365,6.51085715237,0.0
1449616163525332826,6.24584127365,6.51085715237,0.0
1449616163558690595,6.27534222427,6.60664286095,0.0
1449616163592034053,6.27534222427,6.60664286095,0.0
1449616163625358200,6.27534222427,6.60664286095,0.0
1449616163658717187,6.27534222427,6.60664286095,0.0
1449616163692000002,6.27534222427,6.60664286095,0.0
1449616163725376422,6.27534222427,6.60664286095,0.0
1449616163758763267,6.19667302261,6.62792857397,0.0
1449616163792167404,6.19667302261,6.62792857397,0.0
1449616163825348811,6.19667302261,6.62792857397,0.0
1449616163858957445,6.19667302261,6.62792857397,0.0
1449616163892067707,6.19667302261,6.61728571746,0.0
1449616163925344258,6.19667302261,6.61728571746,0.0
1449616163958694406,6.19667302261,6.62792857397,0.0
1449616163992040418,6.19667302261,6.62792857397,0.0
1449616164025415137,6.19667302261,6.62792857397,0.0
1449616164058673642,6.19667302261,6.62792857397,0.0
1449616164092038856,6.19667302261,6.62792857397,0.0
1449616164125383981,6.19667302261,6.62792857397,0.0
1449616164158679337,6.19667302261,6.62792857397,0.0
1449616164191993155,6.19667302261,6.62792857397,0.0
1449616164225383000,6.19667302261,6.62792857397,0.0
1449616164259156519,6.19667302261,6.62792857397,0.0
1449616164292061566,6.11800381172,6.63857143047,0.0
1449616164325308812,6.11800381172,6.63857143047,0.0
1449616164358708422,6.26550857407,6.58535714793,0.0
1449616164392021713,6.26550857407,6.58535714793,0.0
1449616164425355749,6.26550857407,6.58535714793,0.0
1449616164458775043,6.26550857407,6.58535714793,0.0
1449616164492143465,6.13767111214,6.0,0.0
1449616164525371296,6.13767111214,6.0,0.0
1449616164558698361,6.60968634979,5.98935714224,0.0
1449616164592087672,6.60968634979,5.98935714224,0.0
1449616164625400632,6.60968634979,5.98935714224,0.0
1449616164658729466,6.60968634979,5.98935714224,0.0
1449616164692020347,6.61952,6.0,0.0
1449616164725438627,6.61952,6.0,0.0
1449616164758719521,6.60968634979,6.02128571551,0.0
1449616164791968064,6.60968634979,6.02128571551,0.0
1449616164825396455,6.60968634979,6.02128571551,0.0
1449616164858665813,6.60968634979,6.02128571551,0.0
1449616164892030172,6.60968634979,6.02128571551,0.0
1449616164925353470,6.60968634979,6.02128571551,0.0
1449616164958729541,6.60968634979,6.03192857202,0.0
1449616164992004725,6.60968634979,6.03192857202,0.0
1449616165025310468,6.60968634979,6.03192857202,0.0
1449616165058821201,6.60968634979,6.03192857202,0.0
1449616165092001803,6.60968634979,6.04257143103,0.0
1449616165125347135,6.60968634979,6.04257143103,0.0
1449616165158702354,6.59985269958,6.05321428754,0.0
1449616165192034986,6.59985269958,6.05321428754,0.0
1449616165225333599,6.59985269958,6.05321428754,0.0
1449616165258689729,6.59985269958,6.05321428754,0.0
1449616165291995847,6.59985269958,6.05321428754,0.0
1449616165325323196,6.59985269958,6.05321428754,0.0
1449616165358728360,6.60968634979,6.05321428754,0.0
1449616165392176302,6.60968634979,6.05321428754,0.0
1449616165425411937,6.60968634979,6.05321428754,0.0
1449616165458781702,6.60968634979,6.05321428754,0.0
1449616165491987496,6.59985269958,6.05321428754,0.0
1449616165525381407,6.59985269958,6.05321428754,0.0
1449616165558780289,6.59985269958,6.05321428754,0.0
1449616165592237178,6.59985269958,6.05321428754,0.0
1449616165625388205,6.59985269958,6.05321428754,0.0
1449616165659289087,6.59985269958,6.05321428754,0.0
1449616165692052324,6.59985269958,6.05321428754,0.0
1449616165725521208,6.59985269958,6.05321428754,0.0
1449616165758727546,6.59985269958,6.05321428754,0.0
1449616165792055993,6.59985269958,6.05321428754,0.0
1449616165825396543,6.59985269958,6.05321428754,0.0
1449616165859013549,6.59985269958,6.05321428754,0.0
1449616165892044705,6.60968634979,6.05321428754,0.0
1449616165925474324,6.60968634979,6.05321428754,0.0
1449616165958737173,6.59985269958,6.05321428754,0.0
1449616165991969807,6.59985269958,6.05321428754,0.0
1449616166025319989,6.59985269958,6.05321428754,0.0
1449616166058783256,6.59985269958,6.05321428754,0.0
1449616166092123319,6.60968634979,6.05321428754,0.0
1449616166125459324,6.60968634979,6.05321428754,0.0
1449616166158721061,6.60968634979,6.06385714405,0.0
1449616166192268921,6.60968634979,6.06385714405,0.0
1449616166225323117,6.60968634979,6.06385714405,0.0
1449616166258750514,6.60968634979,6.06385714405,0.0
1449616166292034235,6.59985269958,6.05321428754,0.0
1449616166325336820,6.59985269958,6.05321428754,0.0
1449616166358721159,6.59985269958,6.05321428754,0.0
1449616166392051904,6.59985269958,6.05321428754,0.0
1449616166425372354,6.59985269958,6.05321428754,0.0
1449616166459147390,6.59985269958,6.05321428754,0.0
1449616166492007291,6.59985269958,6.04257143103,0.0
1449616166525455349,6.59985269958,6.04257143103,0.0
1449616166558892772,6.60968634979,6.03192857202,0.0
1449616166592194064,6.60968634979,6.03192857202,0.0
1449616166625384151,6.60968634979,6.03192857202,0.0
1449616166658774981,6.60968634979,6.03192857202,0.0
1449616166692051003,6.60968634979,6.04257143103,0.0
1449616166725426819,6.60968634979,6.04257143103,0.0
1449616166758750869,6.60968634979,6.03192857202,0.0
1449616166792072452,6.60968634979,6.03192857202,0.0
1449616166825354799,6.60968634979,6.03192857202,0.0
1449616166858790417,6.60968634979,6.03192857202,0.0
1449616166892035416,6.59985269958,6.03192857202,0.0
1449616166925574228,6.59985269958,6.03192857202,0.0
1449616166958910417,6.60968634979,6.03192857202,0.0
1449616166992380166,6.60968634979,6.03192857202,0.0
1449616167025415564,6.60968634979,6.03192857202,0.0
1449616167059387531,6.60968634979,6.03192857202,0.0
1449616167092111977,6.55068444855,6.03192857202,0.0
1449616167126001452,6.55068444855,6.03192857202,0.0
1449616167158669968,6.59985269958,6.03192857202,0.0
1449616167192239630,6.59985269958,6.03192857202,0.0
1449616167225389292,6.59985269958,6.03192857202,0.0
1449616167258814515,6.59985269958,6.03192857202,0.0
1449616167292057160,6.52118349792,6.03192857202,0.0
1449616167325314389,6.52118349792,6.03192857202,0.0
1449616167358723321,6.60968634979,6.03192857202,0.0
1449616167392008955,6.60968634979,6.03192857202,0.0
1449616167425366885,6.60968634979,6.03192857202,0.0
1449616167459234802,6.60968634979,6.03192857202,0.0
1449616167492084845,6.52118349792,6.02128571551,0.0
1449616167526205979,6.52118349792,6.02128571551,0.0
1449616167558689434,6.59985269958,6.02128571551,0.0
1449616167592095879,6.59985269958,6.02128571551,0.0
1449616167625360481,6.59985269958,6.02128571551,0.0
1449616167658748781,6.59985269958,6.02128571551,0.0
1449616167692016616,6.51134984772,6.03192857202,0.0
1449616167725585239,6.51134984772,6.03192857202,0.0
1449616167758706188,6.59985269958,6.03192857202,0.0
1449616167792610055,6.59985269958,6.03192857202,0.0
1449616167825935095,6.59985269958,6.03192857202,0.0
1449616167858899386,6.59985269958,6.03192857202,0.0
1449616167892044749,6.52118349792,6.02128571551,0.0
1449616167925847133,6.52118349792,6.02128571551,0.0
1449616167958691297,6.60968634979,6.03192857202,0.0
1449616167992310471,6.60968634979,6.03192857202,0.0
1449616168025311624,6.60968634979,6.03192857202,0.0
1449616168058940913,6.60968634979,6.03192857202,0.0
1449616168092126636,6.59985269958,6.03192857202,0.0
1449616168125718455,6.59985269958,6.03192857202,0.0
1449616168158670103,6.60968634979,6.03192857202,0.0
1449616168192206521,6.60968634979,6.03192857202,0.0
1449616168225298209,6.60968634979,6.03192857202,0.0
1449616168259000045,6.60968634979,6.03192857202,0.0
1449616168292037979,6.60968634979,6.02128571551,0.0
1449616168326060120,6.60968634979,6.02128571551,0.0
1449616168358663375,6.60968634979,6.01064285776,0.0
1449616168392288930,6.60968634979,6.01064285776,0.0
1449616168425344334,6.60968634979,6.01064285776,0.0
1449616168458920412,6.60968634979,6.01064285776,0.0
1449616168492039083,6.59985269958,6.01064285776,0.0
1449616168526472277,6.59985269958,6.01064285776,0.0
1449616168558672524,6.60968634979,6.01064285776,0.0
1449616168592749365,6.60968634979,6.01064285776,0.0
1449616168625340249,6.60968634979,6.01064285776,0.0
1449616168659513645,6.60968634979,6.01064285776,0.0
1449616168692091660,6.59985269958,6.02128571551,0.0
1449616168725544027,6.59985269958,6.02128571551,0.0
1449616168758665914,6.60968634979,6.01064285776,0.0
1449616168792660284,6.60968634979,6.01064285776,0.0
1449616168825305628,6.60968634979,6.01064285776,0.0
1449616168858786551,6.60968634979,6.01064285776,0.0
1449616168892062975,6.60968634979,6.01064285776,0.0
1449616168925558039,6.60968634979,6.01064285776,0.0
1449616168958662851,6.07095873426,5.97871428449,0.0
1449616168993125940,6.07095873426,5.97871428449,0.0
1449616169025356922,6.07095873426,5.97871428449,0.0
1449616169060943371,6.07095873426,5.97871428449,0.0
1449616169092024874,6.28517587448,5.38271428254,0.0
1449616169125693404,6.28517587448,5.38271428254,0.0
1449616169158743289,6.08869841574,5.35078571302,0.0
1449616169192252021,6.08869841574,5.35078571302,0.0
1449616169225410709,6.08869841574,5.35078571302,0.0
1449616169259932573,6.08869841574,5.35078571302,0.0
1449616169292042654,6.08869841574,5.35078571302,0.0
1449616169326368577,6.08869841574,5.35078571302,0.0
1449616169358683985,6.07095873426,5.35078571302,0.0
1449616169392372559,6.07095873426,5.35078571302,0.0
1449616169425363215,6.07095873426,5.35078571302,0.0
1449616169459961674,6.07095873426,5.35078571302,0.0
1449616169492045467,6.01773968356,5.34014285651,0.0
1449616169525521127,6.01773968356,5.34014285651,0.0
1449616169558677322,6.03547936713,5.34014285651,0.0
1449616169592462956,6.03547936713,5.34014285651,0.0
1449616169625407205,6.03547936713,5.34014285651,0.0
1449616169660510469,6.03547936713,5.34014285651,0.0
1449616169692106145,6.01773968356,5.34014285651,0.0
1449616169725964394,6.01773968356,5.34014285651,0.0
1449616169758729045,6.0,6.0,0.0
1449616169793525124,6.0,6.0,0.0
1449616169825394358,6.0,6.0,0.0
1449616169858907391,6.0,6.0,0.0
1449616169892043445,6.01773968356,5.34014285651,0.0
1449616169925560039,6.01773968356,5.34014285651,0.0
1449616169958722460,6.01773968356,5.41464285207,0.0
1449616169992142584,6.01773968356,5.41464285207,0.0
1449616170025348412,6.01773968356,5.41464285207,0.0
1449616170059886020,6.01773968356,5.41464285207,0.0
1449616170092074246,6.01773968356,5.34014285651,0.0
1449616170125577698,6.01773968356,5.34014285651,0.0
1449616170158708190,6.01773968356,5.37207142603,0.0
1449616170193164069,6.01773968356,5.37207142603,0.0
1449616170225418438,6.01773968356,5.37207142603,0.0
1449616170258943091,6.01773968356,5.37207142603,0.0
1449616170292119419,6.01773968356,5.35078571302,0.0
1449616170325501377,6.01773968356,5.35078571302,0.0
1449616170358787277,6.0,5.34014285651,0.0
1449616170392997255,6.0,5.34014285651,0.0
1449616170425349610,6.0,5.34014285651,0.0
1449616170459046569,6.0,5.34014285651,0.0
1449616170491996739,6.0,5.34014285651,0.0
1449616170525511130,6.0,5.34014285651,0.0
1449616170558764175,6.0,5.34014285651,0.0
1449616170592131710,6.0,5.34014285651,0.0
1449616170625510458,6.0,5.34014285651,0.0
1449616170659561868,6.0,5.34014285651,0.0
1449616170692155087,6.0,5.3295,0.0
1449616170726179868,6.0,5.3295,0.0
