%time,field.x,field.y,field.z
1449615724326117698,6.0,6.0,0.0
1449615724359492612,6.0,6.0,0.0
1449615724392769766,6.0,6.0,0.0
1449615724426115327,6.0,6.0,0.0
1449615724459499181,6.0,6.0,0.0
1449615724492799432,6.0,6.0,0.0
1449615724526109196,6.0,6.0,0.0
1449615724559441745,6.0,6.0,0.0
1449615724592870160,6.0,6.0,0.0
1449615724626136758,6.0,6.0,0.0
1449615724659521098,6.0,6.0,0.0
1449615724692795987,6.0,6.0,0.0
1449615724726138075,6.0,6.0,0.0
1449615724759480188,6.0,6.0,0.0
1449615724792850409,6.0,6.0,0.0
1449615724826114238,6.0,6.0,0.0
1449615724859493452,6.0,6.0,0.0
1449615724892815334,6.0,6.0,0.0
1449615724926111928,6.0,6.0,0.0
1449615724959506968,6.0,6.0,0.0
1449615724992800627,6.0,6.0,0.0
1449615725026088177,6.0,6.0,0.0
1449615725059477325,6.0,6.0,0.0
1449615725092786166,6.0,6.0,0.0
1449615725126113209,6.0,6.0,0.0
1449615725159511460,6.0,6.0,0.0
1449615725192795215,6.0,6.0,0.0
1449615725226188497,6.0,6.0,0.0
1449615725259413052,6.0,6.0,0.0
1449615725292855612,6.0,6.0,0.0
1449615725326127467,6.0,6.0,0.0
1449615725359463414,6.0,6.0,0.0
1449615725393047671,6.0,6.0,0.0
1449615725426125791,6.0,6.0,0.0
1449615725459516485,6.0,6.0,0.0
1449615725492784237,6.0,6.0,0.0
1449615725526153680,6.0,6.0,0.0
1449615725559529864,6.0,6.0,0.0
1449615725592824407,6.0,6.0,0.0
1449615725626197417,6.0,6.0,0.0
1449615725659500567,6.0,6.0,0.0
1449615725692937290,6.0,6.0,0.0
1449615725726320002,6.0,6.0,0.0
1449615725759553467,6.0,6.0,0.0
1449615725792833110,6.0,6.0,0.0
1449615725826201246,6.0,6.0,0.0
1449615725859629653,6.0,6.0,0.0
1449615725892823734,6.0,6.0,0.0
1449615725926215131,6.0,6.0,0.0
1449615725959503052,6.0,6.0,0.0
1449615725992895038,6.0,6.0,0.0
1449615726026224582,6.0,6.0,0.0
1449615726059515187,6.0,6.0,0.0
1449615726092853580,6.0,6.0,0.0
1449615726126207044,6.0,6.0,0.0
1449615726159571957,6.0,6.0,0.0
1449615726192871188,6.0,6.0,0.0
1449615726226185324,6.0,6.0,0.0
1449615726259541399,6.0,6.0,0.0
1449615726292842456,6.0,6.0,0.0
1449615726326153063,6.0,6.0,0.0
1449615726359466644,6.0,6.0,0.0
1449615726393016571,6.0,6.0,0.0
1449615726426145753,6.0,6.0,0.0
1449615726459509672,6.0,6.0,0.0
1449615726492830178,6.0,6.0,0.0
1449615726526149578,6.0,6.0,0.0
1449615726559497251,6.0,6.0,0.0
1449615726592806431,6.0,6.0,0.0
1449615726626112564,6.0,6.0,0.0
1449615726659421580,6.0,6.0,0.0
1449615726692808841,6.0,6.0,0.0
1449615726726121648,6.0,6.0,0.0
1449615726759419509,6.0,6.0,0.0
1449615726792790331,6.0,6.0,0.0
1449615726826121964,6.0,6.0,0.0
1449615726859459220,6.0,6.0,0.0
1449615726892801214,6.0,6.0,0.0
1449615726926129565,6.0,6.0,0.0
1449615726959460227,6.0,6.0,0.0
1449615726992801870,6.0,6.0,0.0
1449615727026137644,6.0,6.0,0.0
1449615727059480553,6.0,6.0,0.0
1449615727092800599,6.0,6.0,0.0
1449615727126124211,6.0,6.0,0.0
1449615727159610103,6.0,6.0,0.0
1449615727192811185,6.0,6.0,0.0
1449615727226300068,6.0,6.0,0.0
1449615727259468314,6.0,6.0,0.0
1449615727292789493,6.0,6.0,0.0
1449615727326170895,6.0,6.0,0.0
1449615727359460361,6.0,6.0,0.0
1449615727392776238,6.0,6.0,0.0
1449615727426102324,6.0,6.0,0.0
1449615727459476609,6.0,6.0,0.0
1449615727492764933,6.0,6.0,0.0
1449615727526116909,6.0,6.0,0.0
1449615727559447004,6.0,6.0,0.0
1449615727592840411,6.0,6.0,0.0
1449615727626118501,6.0,6.0,0.0
1449615727659469465,6.0,6.0,0.0
1449615727692881304,6.0,6.0,0.0
1449615727726108600,6.0,6.0,0.0
1449615727759478830,6.0,6.0,0.0
1449615727792752418,6.0,6.0,0.0
1449615727826086126,6.0,6.0,0.0
1449615727859486762,6.0,6.0,0.0
1449615727892738451,6.0,6.0,0.0
1449615727926176948,6.0,6.0,0.0
1449615727959464974,6.0,6.0,0.0
1449615727992797283,6.0,6.0,0.0
1449615728026140383,6.0,6.0,0.0
1449615728059490843,6.0,6.0,0.0
1449615728092751246,6.0,6.0,0.0
1449615728126135318,6.0,6.0,0.0
1449615728159589437,6.0,6.0,0.0
1449615728192865863,6.0,6.0,0.0
1449615728226162600,6.0,6.0,0.0
1449615728259510577,6.0,6.0,0.0
1449615728292836095,6.0,6.0,0.0
1449615728326178863,6.0,6.0,0.0
1449615728359519929,6.0,6.0,0.0
1449615728392893761,6.0,6.0,0.0
1449615728426181064,6.0,6.0,0.0
1449615728459484867,6.0,6.0,0.0
1449615728492894067,6.0,6.0,0.0
1449615728526173643,6.0,6.0,0.0
1449615728559468842,6.0,6.0,0.0
1449615728592834988,6.0,6.0,0.0
1449615728626148591,6.0,6.0,0.0
1449615728659539399,6.0,6.0,0.0
1449615728692895564,6.0,6.0,0.0
1449615728726176688,6.0,6.0,0.0
1449615728759542916,6.0,6.0,0.0
1449615728792798077,6.0,6.0,0.0
1449615728826229195,6.0,6.0,0.0
1449615728859504710,6.0,6.0,0.0
1449615728893089410,6.0,6.0,0.0
1449615728926239047,6.0,6.0,0.0
1449615728959455869,6.0,6.0,0.0
1449615728992896126,6.0,6.0,0.0
1449615729026161552,6.0,6.0,0.0
1449615729059517530,6.0,6.0,0.0
1449615729092822378,6.0,6.0,0.0
1449615729126153661,6.0,6.0,0.0
1449615729159552308,6.0,6.0,0.0
1449615729192809301,6.0,6.0,0.0
1449615729226182122,6.0,6.0,0.0
1449615729259485396,6.0,6.0,0.0
1449615729292839328,6.0,6.0,0.0
1449615729326184857,6.0,6.0,0.0
1449615729359488474,6.0,6.0,0.0
1449615729392913535,6.0,6.0,0.0
1449615729426134597,6.0,6.0,0.0
1449615729459510995,6.0,6.0,0.0
1449615729493035634,6.0,6.0,0.0
1449615729526326488,6.0,6.0,0.0
1449615729559509360,6.0,6.0,0.0
1449615729592831783,6.0,6.0,0.0
1449615729626155569,6.0,6.0,0.0
1449615729659575257,6.0,6.0,0.0
1449615729692806092,6.0,6.0,0.0
1449615729726167919,6.0,6.0,0.0
1449615729759944305,6.0,6.0,0.0
1449615729792861731,6.0,6.0,0.0
1449615729826301362,6.0,6.0,0.0
1449615729859535371,6.0,6.0,0.0
1449615729893537780,6.0,6.0,0.0
1449615729926529118,6.0,6.0,0.0
1449615729960109832,6.0,6.0,0.0
1449615729993585893,6.0,6.0,0.0
1449615730028260537,6.0,6.0,0.0
1449615730059836354,6.0,6.0,0.0
1449615730093684497,6.0,6.0,0.0
1449615730126796273,6.0,6.0,0.0
1449615730160280304,6.0,6.0,0.0
1449615730193034250,6.0,6.0,0.0
1449615730226517765,6.0,6.0,0.0
1449615730260354840,6.0,6.0,0.0
1449615730293299328,6.0,6.0,0.0
1449615730327048942,6.0,6.0,0.0
1449615730363105710,6.0,6.0,0.0
1449615730393783599,6.0,6.0,0.0
1449615730426588130,6.0,6.0,0.0
1449615730459886061,6.0,6.0,0.0
1449615730492829228,6.0,6.0,0.0
1449615730526420758,6.0,6.0,0.0
1449615730559794648,6.0,6.0,0.0
1449615730592941592,6.0,6.0,0.0
1449615730626468223,6.0,6.0,0.0
1449615730660121156,6.0,6.0,0.0
1449615730693083470,6.0,6.0,0.0
1449615730727320260,6.0,6.0,0.0
1449615730760014864,6.0,6.0,0.0
1449615730793343122,6.0,6.0,0.0
1449615730826372601,6.0,6.0,0.0
1449615730860270059,6.0,6.0,0.0
1449615730892924984,6.0,6.0,0.0
1449615730926918140,6.0,6.0,0.0
1449615730959832473,6.0,6.0,0.0
1449615730993276631,6.0,6.0,0.0
1449615731026424047,6.0,6.0,0.0
1449615731059934677,6.0,6.0,0.0
1449615731093216504,6.0,6.0,0.0
1449615731126976880,6.0,6.0,0.0
1449615731160307267,6.0,6.0,0.0
1449615731193003526,6.0,6.0,0.0
1449615731226452550,6.0,6.0,0.0
1449615731259799306,6.0,6.0,0.0
1449615731293460045,6.0,6.0,0.0
1449615731326287576,6.0,6.0,0.0
1449615731360806224,6.0,6.0,0.0
1449615731393106211,6.0,6.0,0.0
1449615731426614213,6.0,6.0,0.0
1449615731459472817,6.0,6.0,0.0
1449615731493098122,6.0,6.0,0.0
1449615731526346790,6.0,6.0,0.0
1449615731559625993,6.0,6.0,0.0
1449615731593049956,6.0,6.0,0.0
1449615731626540076,6.0,6.0,0.0
1449615731659717701,6.0,6.0,0.0
1449615731693327117,6.0,6.0,0.0
1449615731726398259,6.0,6.0,0.0
1449615731759730933,6.0,6.0,0.0
1449615731793002894,6.0,6.0,0.0
1449615731826518931,6.0,6.0,0.0
1449615731860440104,6.0,6.0,0.0
1449615731893255767,6.0,6.0,0.0
1449615731926383635,6.0,6.0,0.0
1449615731960054273,6.0,6.0,0.0
1449615731993959600,6.0,6.0,0.0
1449615732026462348,6.0,6.0,0.0
1449615732059836407,6.0,6.0,0.0
1449615732093827234,6.0,6.0,0.0
1449615732126406571,6.0,6.0,0.0
1449615732159893272,6.0,6.0,0.0
1449615732193063969,6.0,6.0,0.0
1449615732226306656,6.0,6.0,0.0
1449615732259816554,6.0,6.0,0.0
1449615732293116179,6.0,6.0,0.0
1449615732326723172,6.0,6.0,0.0
1449615732360046609,6.0,6.0,0.0
1449615732393222956,6.0,6.0,0.0
1449615732426550977,6.0,6.0,0.0
1449615732459529759,6.0,6.0,0.0
1449615732492985683,6.0,6.0,0.0
1449615732526260461,6.0,6.0,0.0
1449615732559519896,6.0,6.0,0.0
1449615732593013710,6.0,6.0,0.0
1449615732626270876,6.0,6.0,0.0
1449615732659639567,6.0,6.0,0.0
1449615732693152573,6.0,6.0,0.0
1449615732726412524,6.0,6.0,0.0
1449615732759947838,6.0,6.0,0.0
1449615732793167196,6.0,6.0,0.0
1449615732826426015,6.0,6.0,0.0
1449615732859993537,6.0,6.0,0.0
1449615732893558131,6.0,6.0,0.0
1449615732926631520,6.0,6.0,0.0
1449615732959781286,6.0,6.0,0.0
1449615732992983388,6.0,6.0,0.0
1449615733026267194,6.0,6.0,0.0
1449615733059722871,6.0,6.0,0.0
1449615733092868082,6.0,6.0,0.0
1449615733126307346,6.0,6.0,0.0
1449615733159545636,6.0,6.0,0.0
1449615733193314015,6.0,6.0,0.0
1449615733226363830,6.0,6.0,0.0
1449615733259511313,6.0,6.0,0.0
1449615733292869692,6.0,6.0,0.0
1449615733326552617,6.0,6.0,0.0
1449615733359692221,6.0,6.0,0.0
1449615733393025034,6.0,6.0,0.0
1449615733426432555,6.0,6.0,0.0
1449615733459684570,6.0,6.0,0.0
1449615733493290943,6.0,6.0,0.0
1449615733526928598,6.0,6.0,0.0
1449615733559692503,6.0,6.0,0.0
1449615733593195123,6.0,6.0,0.0
1449615733626489981,6.0,6.0,0.0
1449615733659817168,6.0,6.0,0.0
1449615733692991597,6.0,6.0,0.0
1449615733726407827,6.0,6.0,0.0
1449615733759679416,6.0,6.0,0.0
1449615733793247019,6.0,6.0,0.0
1449615733826810605,6.0,6.0,0.0
1449615733859631352,6.0,6.0,0.0
1449615733893004700,6.0,6.0,0.0
1449615733926429280,6.0,6.0,0.0
1449615733959678277,6.0,6.0,0.0
1449615733994180222,6.0,6.0,0.0
1449615734026423742,6.0,6.0,0.0
1449615734059813537,6.0,6.0,0.0
1449615734092980290,6.0,6.0,0.0
1449615734126379875,6.0,6.0,0.0
1449615734160268199,6.0,6.0,0.0
1449615734193063509,6.0,6.0,0.0
1449615734227161421,6.0,6.0,0.0
1449615734259614404,6.0,6.0,0.0
1449615734292943953,6.0,6.0,0.0
1449615734327018009,6.0,6.0,0.0
1449615734360801962,6.0,6.0,0.0
1449615734393086253,6.0,6.0,0.0
1449615734426293960,6.0,6.0,0.0
1449615734459872837,6.0,6.0,0.0
1449615734492938987,6.0,6.0,0.0
1449615734526942822,6.0,6.0,0.0
1449615734559673138,6.0,6.0,0.0
1449615734592964572,6.0,6.0,0.0
1449615734626824481,6.0,6.0,0.0
1449615734659717315,6.0,6.0,0.0
1449615734694011550,6.0,6.0,0.0
1449615734727386704,6.0,6.0,0.0
1449615734761199973,6.0,6.0,0.0
1449615734793400706,6.0,6.0,0.0
1449615734826157043,6.0,6.0,0.0
1449615734859534745,6.0,6.0,0.0
1449615734892839813,6.0,6.0,0.0
1449615734926196871,6.0,6.0,0.0
1449615734961093295,6.0,6.0,0.0
1449615734993334246,6.0,6.0,0.0
1449615735026265332,6.0,6.0,0.0
1449615735059485662,6.0,6.0,0.0
1449615735093023616,6.0,6.0,0.0
1449615735126507108,6.0,6.0,0.0
1449615735159880232,6.0,6.0,0.0
1449615735193174445,6.0,6.0,0.0
1449615735226152281,6.0,6.0,0.0
1449615735259948847,6.0,6.0,0.0
1449615735293357382,6.0,6.0,0.0
1449615735330050022,6.0,6.0,0.0
1449615735359792207,6.0,6.0,0.0
1449615735393191486,6.0,6.0,0.0
1449615735426444164,6.0,6.0,0.0
1449615735461389177,6.0,6.0,0.0
1449615735493078664,6.0,6.0,0.0
1449615735526293947,6.0,6.0,0.0
1449615735559668879,6.0,6.0,0.0
1449615735593601357,6.0,6.0,0.0
1449615735626390671,6.0,6.0,0.0
1449615735660258513,6.0,6.0,0.0
1449615735692885571,6.0,6.0,0.0
1449615735726561865,6.0,6.0,0.0
1449615735759777845,6.0,6.0,0.0
1449615735793164648,6.0,6.0,0.0
1449615735826304083,6.0,6.0,0.0
1449615735860046599,6.0,6.0,0.0
1449615735893508517,6.0,6.0,0.0
1449615735926563927,6.0,6.0,0.0
1449615735959814992,6.0,6.0,0.0
1449615735993335713,6.0,6.0,0.0
1449615736026496103,6.0,6.0,0.0
1449615736059605948,6.0,6.0,0.0
1449615736092835751,6.0,6.0,0.0
1449615736126427499,6.0,6.0,0.0
1449615736159630928,6.0,6.0,0.0
1449615736192888574,6.0,6.0,0.0
1449615736226625175,6.0,6.0,0.0
1449615736260052849,6.0,6.0,0.0
1449615736293437956,6.0,6.0,0.0
1449615736326942332,6.0,6.0,0.0
1449615736359879909,6.0,6.0,0.0
1449615736393070058,6.0,6.0,0.0
1449615736426838529,6.0,6.0,0.0
1449615736459544677,6.0,6.0,0.0
1449615736493607995,6.0,6.0,0.0
1449615736526382491,6.0,6.0,0.0
1449615736560558006,6.0,6.0,0.0
1449615736592999536,6.0,6.0,0.0
1449615736626476316,6.0,6.0,0.0
1449615736659490769,6.0,6.0,0.0
1449615736693063697,6.0,6.0,0.0
1449615736728699745,6.0,6.0,0.0
1449615736759861144,6.0,6.0,0.0
1449615736793285423,6.0,6.0,0.0
1449615736826338296,6.0,6.0,0.0
1449615736860020342,6.0,6.0,0.0
1449615736893129205,6.0,6.0,0.0
1449615736926903451,6.0,6.0,0.0
1449615736959492368,6.0,6.0,0.0
1449615736992988312,6.0,6.0,0.0
1449615737026566120,6.0,6.0,0.0
1449615737060131830,6.0,6.0,0.0
1449615737093116170,6.0,6.0,0.0
1449615737126366696,6.0,6.0,0.0
1449615737159582091,6.0,6.0,0.0
1449615737193329294,6.0,6.0,0.0
1449615737226983955,6.0,6.0,0.0
1449615737261154394,6.0,6.0,0.0
1449615737293022225,6.0,6.0,0.0
1449615737326364927,6.0,6.0,0.0
1449615737359756387,6.0,6.0,0.0
1449615737393086192,6.0,6.0,0.0
1449615737426468518,6.0,6.0,0.0
1449615737459764216,6.0,6.0,0.0
1449615737493204169,6.0,6.0,0.0
1449615737527020609,6.0,6.0,0.0
1449615737559674245,6.0,6.0,0.0
1449615737593173294,6.0,6.0,0.0
1449615737627377414,6.0,6.0,0.0
1449615737659825767,6.0,6.0,0.0
1449615737693028317,6.0,6.0,0.0
1449615737726550030,6.0,6.0,0.0
1449615737759695843,6.0,6.0,0.0
1449615737793135462,6.0,6.0,0.0
1449615737826595771,6.0,6.0,0.0
1449615737864341138,6.0,6.0,0.0
1449615737893429685,6.0,6.0,0.0
1449615737929379194,6.0,6.0,0.0
1449615737960020024,6.0,6.0,0.0
1449615737992908037,6.0,6.0,0.0
1449615738026468613,6.0,6.0,0.0
1449615738059641386,6.0,6.0,0.0
1449615738093265759,6.0,6.0,0.0
1449615738126565097,6.0,6.0,0.0
1449615738159685255,6.0,6.0,0.0
1449615738193085268,6.0,6.0,0.0
1449615738226340432,6.0,6.0,0.0
1449615738259522681,6.0,6.0,0.0
1449615738293416618,6.0,6.0,0.0
1449615738326405284,6.0,6.0,0.0
1449615738360037160,6.0,6.0,0.0
1449615738392869136,6.0,6.0,0.0
1449615738426397039,6.0,6.0,0.0
1449615738459727885,6.0,6.0,0.0
1449615738493035771,6.0,6.0,0.0
1449615738526203580,6.0,6.0,0.0
1449615738559742514,6.0,6.0,0.0
1449615738592823326,6.0,6.0,0.0
1449615738626438842,6.0,6.0,0.0
1449615738659512592,6.0,6.0,0.0
1449615738693514678,6.0,6.0,0.0
1449615738726391605,6.0,6.0,0.0
1449615738759675597,6.0,6.0,0.0
1449615738793203787,6.0,6.0,0.0
1449615738826448968,6.0,6.0,0.0
1449615738859693957,6.0,6.0,0.0
1449615738893423599,6.0,6.0,0.0
1449615738926611475,6.0,6.0,0.0
1449615738960616827,6.0,6.0,0.0
1449615738993475607,6.0,6.0,0.0
1449615739026661558,6.0,6.0,0.0
1449615739059737008,6.0,6.0,0.0
1449615739093394388,6.0,6.0,0.0
1449615739126324249,6.0,6.0,0.0
1449615739159725462,6.0,6.0,0.0
1449615739192835501,6.0,6.0,0.0
1449615739226694433,6.0,6.0,0.0
1449615739260064128,6.0,6.0,0.0
1449615739293024355,6.0,6.0,0.0
1449615739326856875,6.0,6.0,0.0
1449615739360321289,6.0,6.0,0.0
1449615739393133429,6.0,6.0,0.0
1449615739426562501,6.0,6.0,0.0
1449615739459944415,6.0,6.0,0.0
1449615739493510626,6.0,6.0,0.0
1449615739526434784,6.0,6.0,0.0
1449615739559938746,6.0,6.0,0.0
1449615739593188682,6.0,6.0,0.0
1449615739627152937,6.0,6.0,0.0
1449615739660226786,6.0,6.0,0.0
1449615739693110096,6.0,6.0,0.0
1449615739726462284,6.0,6.0,0.0
1449615739759635850,6.0,6.0,0.0
1449615739793290487,6.0,6.0,0.0
1449615739826801914,6.0,6.0,0.0
1449615739859642349,6.0,6.0,0.0
1449615739892923873,6.0,6.0,0.0
1449615739926826540,6.0,6.0,0.0
1449615739960564346,6.0,6.0,0.0
1449615739993103099,6.0,6.0,0.0
1449615740026360529,6.0,6.0,0.0
1449615740059525103,6.0,6.0,0.0
1449615740092863688,6.0,6.0,0.0
1449615740127502883,6.0,6.0,0.0
1449615740159649067,6.0,6.0,0.0
1449615740193009440,6.0,6.0,0.0
1449615740226971365,6.0,6.0,0.0
1449615740259704675,6.0,6.0,0.0
1449615740293071949,6.0,6.0,0.0
1449615740326416611,6.0,6.0,0.0
1449615740359633510,6.0,6.0,0.0
1449615740392830914,6.0,6.0,0.0
1449615740426439616,6.0,6.0,0.0
1449615740459955978,6.0,6.0,0.0
1449615740493070250,6.0,6.0,0.0
1449615740526287866,6.0,6.0,0.0
1449615740559763969,6.0,6.0,0.0
1449615740593006475,6.0,6.0,0.0
1449615740626596636,6.0,6.0,0.0
1449615740659700300,6.0,6.0,0.0
1449615740693252139,6.0,6.0,0.0
1449615740726550467,6.0,6.0,0.0
1449615740760457619,6.0,6.0,0.0
1449615740793083582,6.0,6.0,0.0
1449615740826214633,6.0,6.0,0.0
1449615740859923078,6.0,6.0,0.0
1449615740893058687,6.0,6.0,0.0
1449615740926558483,6.0,6.0,0.0
1449615740959875117,6.0,6.0,0.0
1449615740993387439,6.0,6.0,0.0
1449615741026240845,6.0,6.0,0.0
1449615741059649612,6.0,6.0,0.0
1449615741093211313,6.0,6.0,0.0
1449615741126161041,6.0,6.0,0.0
1449615741159583091,6.0,6.0,0.0
1449615741193213406,6.0,6.0,0.0
1449615741226192690,6.0,6.0,0.0
1449615741259772403,6.0,6.0,0.0
1449615741293266951,6.0,6.0,0.0
1449615741328013331,6.0,6.0,0.0
1449615741360305327,6.0,6.0,0.0
1449615741393240415,6.0,6.0,0.0
1449615741426302691,6.0,6.0,0.0
1449615741459636301,6.0,6.0,0.0
1449615741493171016,6.0,6.0,0.0
1449615741526694766,6.0,6.0,0.0
1449615741559590852,6.0,6.0,0.0
1449615741593616216,6.0,6.0,0.0
1449615741626403308,6.0,6.0,0.0
1449615741660313101,6.0,6.0,0.0
1449615741693308125,6.0,6.0,0.0
1449615741726493469,6.0,6.0,0.0
1449615741759727885,6.0,6.0,0.0
1449615741792965094,6.0,6.0,0.0
1449615741826225023,6.0,6.0,0.0
1449615741859846709,6.0,6.0,0.0
1449615741892983713,6.0,6.0,0.0
1449615741926610967,6.0,6.0,0.0
1449615741959838223,6.0,6.0,0.0
1449615741993163715,6.0,6.0,0.0
1449615742026636941,6.0,6.0,0.0
1449615742059502534,6.0,6.0,0.0
1449615742093414344,6.0,6.0,0.0
1449615742126945158,6.0,6.0,0.0
1449615742159840071,6.0,6.0,0.0
1449615742193478072,6.0,6.0,0.0
1449615742226593248,6.0,6.0,0.0
1449615742259741778,6.0,6.0,0.0
1449615742293747913,6.0,6.0,0.0
1449615742326243733,6.0,6.0,0.0
1449615742359565669,6.0,6.0,0.0
1449615742392857720,6.0,6.0,0.0
1449615742426459331,6.0,6.0,0.0
1449615742460911381,6.0,6.0,0.0
1449615742493108592,6.0,6.0,0.0
1449615742526595033,6.0,6.0,0.0
1449615742560955407,6.0,6.0,0.0
1449615742593436301,6.0,6.0,0.0
1449615742626184822,6.0,6.0,0.0
1449615742659745424,6.0,6.0,0.0
1449615742692871872,6.0,6.0,0.0
1449615742726457112,6.0,6.0,0.0
1449615742759502710,6.0,6.0,0.0
1449615742793282418,6.0,6.0,0.0
1449615742826332245,6.0,6.0,0.0
1449615742859715625,6.0,6.0,0.0
1449615742892873792,6.0,6.0,0.0
1449615742926482180,6.0,6.0,0.0
1449615742959808261,6.0,6.0,0.0
1449615742993327246,6.0,6.0,0.0
1449615743027261337,6.0,6.0,0.0
1449615743061293777,6.0,6.0,0.0
1449615743093452163,6.0,6.0,0.0
1449615743126733817,6.0,6.0,0.0
1449615743160159577,6.0,6.0,0.0
1449615743193515558,6.0,6.0,0.0
1449615743227209790,6.0,6.0,0.0
1449615743260383761,6.0,6.0,0.0
1449615743292980948,6.0,6.0,0.0
1449615743327140887,6.0,6.0,0.0
1449615743360138830,6.0,6.0,0.0
1449615743393102528,6.0,6.0,0.0
1449615743426230834,6.0,6.0,0.0
1449615743460014482,6.0,6.0,0.0
1449615743493517335,6.0,6.0,0.0
1449615743526549194,6.0,6.0,0.0
1449615743559735458,6.0,6.0,0.0
1449615743593126806,6.0,6.0,0.0
1449615743626389762,6.0,6.0,0.0
1449615743659506526,6.0,6.0,0.0
1449615743693011040,6.0,6.0,0.0
1449615743727950663,6.0,6.0,0.0
1449615743759589624,6.0,6.0,0.0
1449615743793374458,6.0,6.0,0.0
1449615743826443442,6.0,6.0,0.0
1449615743859757615,6.0,6.0,0.0
1449615743893126770,6.0,6.0,0.0
1449615743926450243,6.0,6.0,0.0
1449615743959629216,6.0,6.0,0.0
1449615743993244644,6.0,6.0,0.0
1449615744026356967,6.0,6.0,0.0
1449615744060581924,6.0,6.0,0.0
1449615744093204068,6.0,6.0,0.0
1449615744126221747,6.0,6.0,0.0
1449615744159779900,6.0,6.0,0.0
1449615744193286170,6.0,6.0,0.0
1449615744227055397,6.0,6.0,0.0
1449615744260196318,6.0,6.0,0.0
1449615744293122290,6.0,6.0,0.0
1449615744326336526,6.0,6.0,0.0
1449615744360068890,6.0,6.0,0.0
1449615744393267574,6.0,6.0,0.0
1449615744426421159,6.0,6.0,0.0
1449615744459665923,6.0,6.0,0.0
1449615744493138249,6.0,6.0,0.0
1449615744526393640,6.0,6.0,0.0
1449615744559706326,6.0,6.0,0.0
1449615744593418257,6.0,6.0,0.0
1449615744626815815,6.0,6.0,0.0
1449615744659847921,6.0,6.0,0.0
1449615744693215071,6.0,6.0,0.0
1449615744726298180,6.0,6.0,0.0
1449615744759764589,6.0,6.0,0.0
1449615744793190082,6.0,6.0,0.0
1449615744826230379,6.0,6.0,0.0
1449615744860213278,6.0,6.0,0.0
1449615744893055851,6.0,6.0,0.0
1449615744926476984,6.0,6.0,0.0
1449615744959683132,6.0,6.0,0.0
1449615744993184747,6.0,6.0,0.0
1449615745026708394,6.0,6.0,0.0
1449615745059777346,6.0,6.0,0.0
1449615745093102207,6.0,6.0,0.0
1449615745126357483,6.0,6.0,0.0
1449615745159740838,6.0,6.0,0.0
1449615745193411683,6.0,6.0,0.0
1449615745226536467,6.0,6.0,0.0
1449615745259863992,6.0,6.0,0.0
1449615745293455952,6.0,6.0,0.0
1449615745326425411,6.0,6.0,0.0
1449615745359555332,6.0,6.0,0.0
1449615745393071504,6.0,6.0,0.0
1449615745426417626,6.0,6.0,0.0
1449615745459879899,6.0,6.0,0.0
1449615745492847764,6.0,6.0,0.0
1449615745526508194,6.0,6.0,0.0
1449615745559902528,6.0,6.0,0.0
1449615745592847699,6.0,6.0,0.0
1449615745626282599,6.0,6.0,0.0
1449615745660171502,6.0,6.0,0.0
1449615745693071773,6.0,6.0,0.0
1449615745727675052,6.0,6.0,0.0
1449615745759503953,6.0,6.0,0.0
1449615745792976768,6.0,6.0,0.0
1449615745826306486,6.0,6.0,0.0
1449615745859828576,6.0,6.0,0.0
1449615745893368652,6.0,6.0,0.0
1449615745926521070,6.0,6.0,0.0
1449615745959600254,6.0,6.0,0.0
1449615745993190184,6.0,6.0,0.0
1449615746026655760,6.0,6.0,0.0
1449615746059965702,6.0,6.0,0.0
1449615746093185175,6.0,6.0,0.0
1449615746126381306,6.0,6.0,0.0
1449615746160017886,6.0,6.0,0.0
1449615746193428099,6.0,6.0,0.0
1449615746226423500,6.0,6.0,0.0
1449615746259915436,6.0,6.0,0.0
1449615746293484496,6.0,6.0,0.0
1449615746328373160,6.0,6.0,0.0
1449615746360224789,6.0,6.0,0.0
1449615746393045904,6.0,6.0,0.0
1449615746426803102,6.0,6.0,0.0
1449615746460010074,6.0,6.0,0.0
1449615746493152437,6.0,6.0,0.0
1449615746527225068,6.0,6.0,0.0
1449615746560990444,6.0,6.0,0.0
1449615746593326629,6.0,6.0,0.0
1449615746626479958,6.0,6.0,0.0
1449615746662138806,6.0,6.0,0.0
1449615746693409744,6.0,6.0,0.0
1449615746726388492,6.0,6.0,0.0
1449615746759602042,6.0,6.0,0.0
1449615746793237759,6.0,6.0,0.0
1449615746826499215,6.0,6.0,0.0
1449615746859773389,6.0,6.0,0.0
1449615746893277711,6.0,6.0,0.0
1449615746926213819,6.0,6.0,0.0
1449615746959725076,6.0,6.0,0.0
1449615746993012886,6.0,6.0,0.0
1449615747026543997,6.0,6.0,0.0
1449615747059553337,6.0,6.0,0.0
1449615747093010697,6.0,6.0,0.0
1449615747127550108,6.0,6.0,0.0
1449615747159522370,6.0,6.0,0.0
1449615747193273564,6.0,6.0,0.0
1449615747226215908,6.0,6.0,0.0
1449615747259722578,6.0,6.0,0.0
1449615747295529681,6.0,6.0,0.0
1449615747326709120,6.0,6.0,0.0
1449615747360920172,6.0,6.0,0.0
1449615747393104822,6.0,6.0,0.0
1449615747426573908,6.0,6.0,0.0
1449615747459521070,6.0,6.0,0.0
1449615747493231845,6.0,6.0,0.0
1449615747526572063,6.0,6.0,0.0
1449615747559797100,6.0,6.0,0.0
1449615747593504412,6.0,6.0,0.0
1449615747627135476,6.0,6.0,0.0
1449615747659778620,6.0,6.0,0.0
1449615747693319070,6.0,6.0,0.0
1449615747727740503,6.0,6.0,0.0
1449615747759658476,6.0,6.0,0.0
1449615747793225699,6.0,6.0,0.0
1449615747826407151,6.0,6.0,0.0
1449615747860197388,6.0,6.0,0.0
1449615747893537361,6.0,6.0,0.0
1449615747926459995,6.0,6.0,0.0
1449615747959595814,6.0,6.0,0.0
1449615747993076944,6.0,6.0,0.0
1449615748026317571,6.0,6.0,0.0
1449615748060043173,6.0,6.0,0.0
1449615748093297817,6.0,6.0,0.0
1449615748126560040,6.0,6.0,0.0
1449615748159785596,6.0,6.0,0.0
1449615748193012536,6.0,6.0,0.0
1449615748226472704,6.0,6.0,0.0
1449615748259552752,6.0,6.0,0.0
1449615748292919911,6.0,6.0,0.0
1449615748326601520,6.0,6.0,0.0
1449615748359827005,6.0,6.0,0.0
1449615748392959816,6.0,6.0,0.0
1449615748426176601,6.0,6.0,0.0
1449615748459855711,6.0,6.0,0.0
1449615748494164790,6.0,6.0,0.0
1449615748526549377,6.0,6.0,0.0
1449615748559836642,6.0,6.0,0.0
1449615748593427073,6.0,6.0,0.0
1449615748627094983,6.0,6.0,0.0
1449615748659487153,6.0,6.0,0.0
1449615748693128015,6.0,6.0,0.0
1449615748726337843,6.0,6.0,0.0
1449615748759810490,6.0,6.0,0.0
1449615748794148879,6.0,6.0,0.0
1449615748826418204,6.0,6.0,0.0
1449615748859858861,6.0,6.0,0.0
1449615748892932890,6.0,6.0,0.0
1449615748926428775,6.0,6.0,0.0
1449615748959650060,6.0,6.0,0.0
1449615748992938412,6.0,6.0,0.0
1449615749026472232,6.0,6.0,0.0
1449615749059726667,6.0,6.0,0.0
1449615749092962115,6.0,6.0,0.0
1449615749126456816,6.0,6.0,0.0
1449615749159595643,6.0,6.0,0.0
1449615749193063988,6.0,6.0,0.0
1449615749226414421,6.0,6.0,0.0
1449615749259699162,6.0,6.0,0.0
1449615749293181570,6.0,6.0,0.0
1449615749326963991,6.0,6.0,0.0
1449615749360150522,6.0,6.0,0.0
1449615749393970360,6.01773968356,6.0,0.0
1449615749426243005,6.01773968356,6.0,0.0
1449615749461755249,6.01773968356,6.0,0.0
1449615749494379300,6.01773968356,6.0,0.0
1449615749526514752,6.01773968356,6.0,0.0
1449615749559917899,6.01773968356,6.0,0.0
1449615749592870870,6.01773968356,6.0,0.0
1449615749626495309,6.01773968356,6.0,0.0
1449615749659541676,6.01773968356,6.0,0.0
1449615749693404607,6.01773968356,6.0,0.0
1449615749726224275,6.01773968356,6.0,0.0
1449615749759551004,6.01773968356,6.0,0.0
1449615749792984272,6.03547936713,6.0,0.0
1449615749827266415,6.03547936713,6.0,0.0
1449615749859839823,6.03547936713,6.0,0.0
1449615749893047545,6.05321904861,6.0,0.0
1449615749926413165,6.05321904861,6.0,0.0
1449615749959674879,6.05321904861,6.0,0.0
1449615749993331294,6.13767111214,6.0,0.0
1449615750026437414,6.13767111214,6.0,0.0
1449615750059620951,6.13767111214,6.0,0.0
1449615750093173352,6.33434414398,6.0,0.0
1449615750126554678,6.33434414398,6.0,0.0
1449615750160112276,6.33434414398,6.0,0.0
1449615750193125688,6.33434414398,6.0,0.0
1449615750226844551,6.33434414398,6.0,0.0
1449615750260120560,6.33434414398,6.0,0.0
1449615750293019387,6.33434414398,6.0,0.0
1449615750326490520,6.33434414398,6.0,0.0
1449615750360000147,6.33434414398,6.0,0.0
1449615750392869059,6.33434414398,6.0,0.0
1449615750426454615,6.33434414398,6.0,0.0
1449615750460610840,6.33434414398,6.0,0.0
1449615750493035091,6.33434414398,6.0,0.0
1449615750526635655,6.33434414398,6.0,0.0
1449615750559915086,6.33434414398,6.0,0.0
1449615750594070835,6.33434414398,6.0,0.0
1449615750626374035,6.33434414398,6.0,0.0
1449615750659715322,6.33434414398,6.0,0.0
1449615750693967969,6.32451049377,6.0,0.0
1449615750726624255,6.32451049377,6.0,0.0
1449615750759594937,6.32451049377,6.0,0.0
1449615750794248940,6.33434414398,6.0,0.0
1449615750826409408,6.33434414398,6.0,0.0
1449615750862286795,6.33434414398,6.0,0.0
1449615750892790009,6.33434414398,6.0,0.0
1449615750926353962,6.33434414398,6.0,0.0
1449615750959532867,6.33434414398,6.0,0.0
1449615750993258982,6.32451049377,6.0,0.0
1449615751026704220,6.32451049377,6.0,0.0
1449615751060586642,6.32451049377,6.0,0.0
1449615751092895851,6.33434414398,6.0,0.0
1449615751126939942,6.33434414398,6.0,0.0
1449615751160189765,6.33434414398,6.0,0.0
1449615751193202841,6.33434414398,6.0,0.0
1449615751226319681,6.33434414398,6.0,0.0
1449615751259904739,6.33434414398,6.0,0.0
1449615751293759425,6.33434414398,6.0,0.0
1449615751326714828,6.33434414398,6.0,0.0
1449615751359626944,6.33434414398,6.0,0.0
1449615751393230548,6.33434414398,6.0,0.0
1449615751426374270,6.33434414398,6.0,0.0
1449615751460160183,6.33434414398,6.0,0.0
1449615751493004268,6.32451049377,6.0,0.0
1449615751526292144,6.32451049377,6.0,0.0
1449615751559693588,6.32451049377,6.0,0.0
1449615751592865224,6.33434414398,6.0,0.0
1449615751626383203,6.33434414398,6.0,0.0
1449615751665659412,6.33434414398,6.0,0.0
1449615751693582307,6.32451049377,6.0,0.0
1449615751726489347,6.32451049377,6.0,0.0
1449615751760739367,6.32451049377,6.0,0.0
1449615751794086679,6.22617397324,5.98935714224,0.0
1449615751827677692,6.22617397324,5.98935714224,0.0
1449615751861764742,6.22617397324,5.98935714224,0.0
1449615751892921842,6.13767111214,5.97871428449,0.0
1449615751926477832,6.13767111214,5.97871428449,0.0
1449615751960067772,6.13767111214,5.97871428449,0.0
1449615751993249408,6.20650667282,5.97871428449,0.0
1449615752026870003,6.20650667282,5.97871428449,0.0
1449615752059923559,6.20650667282,5.97871428449,0.0
1449615752093708531,6.22617397324,5.97871428449,0.0
1449615752126500853,6.22617397324,5.97871428449,0.0
1449615752159755189,6.22617397324,5.97871428449,0.0
1449615752193257363,6.22617397324,5.97871428449,0.0
1449615752226983495,6.22617397324,5.97871428449,0.0
1449615752260118498,6.22617397324,5.97871428449,0.0
1449615752293120919,6.32451049377,5.97871428449,0.0
1449615752326356291,6.32451049377,5.97871428449,0.0
1449615752359662275,6.32451049377,5.97871428449,0.0
1449615752394207869,6.57035174896,5.69135714127,0.0
1449615752426428707,6.57035174896,5.69135714127,0.0
1449615752459561627,6.57035174896,5.69135714127,0.0
1449615752493139204,6.53101714813,5.43592856508,0.0
1449615752526481840,6.53101714813,5.43592856508,0.0
1449615752559567661,6.53101714813,5.43592856508,0.0
1449615752593911341,6.53101714813,5.42528570858,0.0
1449615752626410823,6.53101714813,5.42528570858,0.0
1449615752659996617,6.53101714813,5.42528570858,0.0
1449615752693588820,6.52118349792,5.43592856508,0.0
1449615752726548756,6.52118349792,5.43592856508,0.0
1449615752760350198,6.52118349792,5.43592856508,0.0
1449615752793041545,6.53101714813,5.42528570858,0.0
1449615752827386446,6.53101714813,5.42528570858,0.0
1449615752859898476,6.53101714813,5.42528570858,0.0
1449615752893320453,6.43268064606,5.52107141715,0.0
1449615752926578536,6.43268064606,5.52107141715,0.0
1449615752960987632,6.43268064606,5.52107141715,0.0
1449615752994627055,6.58018539917,5.78714284985,0.0
1449615753026720708,6.58018539917,5.78714284985,0.0
1449615753059963323,6.58018539917,5.78714284985,0.0
1449615753093621155,6.59985269958,5.91485713794,0.0
1449615753126406705,6.59985269958,5.91485713794,0.0
1449615753160341996,6.59985269958,5.91485713794,0.0
1449615753193064451,6.60968634979,5.97871428449,0.0
1449615753226483748,6.60968634979,5.97871428449,0.0
1449615753259492493,6.60968634979,5.97871428449,0.0
1449615753293281475,6.59985269958,5.97871428449,0.0
1449615753330708019,6.59985269958,5.97871428449,0.0
1449615753359860738,6.59985269958,5.97871428449,0.0
1449615753393344713,6.60968634979,5.98935714224,0.0
1449615753426388986,6.60968634979,5.98935714224,0.0
1449615753459577466,6.60968634979,5.98935714224,0.0
1449615753495423809,6.60968634979,5.98935714224,0.0
1449615753526243115,6.60968634979,5.98935714224,0.0
1449615753559738855,6.60968634979,5.98935714224,0.0
1449615753600320500,6.59985269958,5.98935714224,0.0
1449615753627745634,6.59985269958,5.98935714224,0.0
1449615753662208811,6.59985269958,5.98935714224,0.0
1449615753693606038,6.55068444855,6.0,0.0
1449615753726426288,6.55068444855,6.0,0.0
1449615753759605833,6.55068444855,6.0,0.0
1449615753792926315,6.61952,6.0,0.0
1449615753827215362,6.61952,6.0,0.0
1449615753859606282,6.61952,6.0,0.0
1449615753893174219,6.55068444855,6.0,0.0
1449615753926210265,6.55068444855,6.0,0.0
1449615753959839453,6.55068444855,6.0,0.0
1449615753993712535,6.60968634979,6.0,0.0
1449615754027163439,6.60968634979,6.0,0.0
1449615754060016942,6.60968634979,6.0,0.0
1449615754093314735,6.60968634979,6.0,0.0
1449615754126624410,6.60968634979,6.0,0.0
1449615754159569145,6.60968634979,6.0,0.0
1449615754193062060,6.60968634979,6.0,0.0
1449615754226392094,6.60968634979,6.0,0.0
1449615754260223046,6.60968634979,6.0,0.0
1449615754293251946,6.60968634979,6.0,0.0
1449615754326509221,6.60968634979,6.0,0.0
1449615754359696448,6.60968634979,6.0,0.0
1449615754392995251,6.60968634979,6.01064285776,0.0
1449615754426537328,6.60968634979,6.01064285776,0.0
1449615754460012482,6.60968634979,6.01064285776,0.0
1449615754493366780,6.59985269958,6.05321428754,0.0
1449615754526473947,6.59985269958,6.05321428754,0.0
1449615754559594256,6.59985269958,6.05321428754,0.0
1449615754593204501,6.58018539917,6.20221429364,0.0
1449615754626386749,6.58018539917,6.20221429364,0.0
1449615754660070630,6.58018539917,6.20221429364,0.0
1449615754694581492,6.58018539917,6.20221429364,0.0
1449615754727048270,6.44251429626,6.46828572634,0.0
1449615754760748264,6.44251429626,6.46828572634,0.0
1449615754793031036,6.52118349792,6.57471429142,0.0
1449615754826363369,6.52118349792,6.57471429142,0.0
1449615754860048528,6.52118349792,6.57471429142,0.0
1449615754893194585,6.52118349792,6.57471429142,0.0
1449615754926294946,6.52118349792,6.57471429142,0.0
1449615754959820842,6.52118349792,6.57471429142,0.0
1449615754993333123,6.44251429626,6.47892858285,0.0
1449615755027297296,6.44251429626,6.47892858285,0.0
1449615755061015806,6.44251429626,6.47892858285,0.0
1449615755094326562,6.52118349792,6.57471429142,0.0
1449615755127054850,6.52118349792,6.57471429142,0.0
1449615755159838344,6.52118349792,6.57471429142,0.0
1449615755192955609,6.28517587448,6.60664286095,0.0
1449615755226281548,6.28517587448,6.60664286095,0.0
1449615755260069268,6.28517587448,6.60664286095,0.0
1449615755293204921,6.20650667282,6.52150000888,0.0
1449615755326336432,6.20650667282,6.52150000888,0.0
1449615755359704852,6.20650667282,6.52150000888,0.0
1449615755393310383,6.18683937241,6.62792857397,0.0
1449615755427270540,6.18683937241,6.62792857397,0.0
1449615755459531670,6.18683937241,6.62792857397,0.0
1449615755493455588,6.19667302261,6.62792857397,0.0
1449615755526327638,6.19667302261,6.62792857397,0.0
1449615755559771883,6.19667302261,6.62792857397,0.0
1449615755593258647,6.18683937241,6.61728571746,0.0
1449615755626607819,6.18683937241,6.61728571746,0.0
1449615755659704043,6.18683937241,6.61728571746,0.0
1449615755693175801,6.19667302261,6.62792857397,0.0
1449615755726376730,6.19667302261,6.62792857397,0.0
1449615755760414381,6.19667302261,6.62792857397,0.0
1449615755792917450,6.27534222427,6.60664286095,0.0
1449615755826490818,6.27534222427,6.60664286095,0.0
1449615755859568497,6.27534222427,6.60664286095,0.0
1449615755894810078,6.27534222427,6.60664286095,0.0
1449615755926282852,6.27534222427,6.60664286095,0.0
1449615755959775856,6.27534222427,6.60664286095,0.0
1449615755993218035,6.45234794647,6.48957143936,0.0
1449615756027081478,6.45234794647,6.48957143936,0.0
1449615756059856115,6.45234794647,6.48957143936,0.0
1449615756093290309,6.59985269958,6.09578571857,0.0
1449615756127006641,6.59985269958,6.09578571857,0.0
1449615756159607998,6.59985269958,6.09578571857,0.0
1449615756192894404,6.56051809875,6.02128571551,0.0
1449615756226450103,6.56051809875,6.02128571551,0.0
1449615756259789566,6.56051809875,6.02128571551,0.0
1449615756293239515,6.60968634979,6.01064285776,0.0
1449615756326358746,6.60968634979,6.01064285776,0.0
1449615756359825026,6.60968634979,6.01064285776,0.0
1449615756393241710,6.53101714813,6.01064285776,0.0
1449615756426530112,6.53101714813,6.01064285776,0.0
1449615756459834913,6.53101714813,6.01064285776,0.0
1449615756493357453,6.60968634979,6.0,0.0
1449615756526277852,6.60968634979,6.0,0.0
1449615756559730957,6.60968634979,6.0,0.0
1449615756593168378,6.51134984772,5.95742856897,0.0
1449615756626191678,6.51134984772,5.95742856897,0.0
1449615756660449065,6.51134984772,5.95742856897,0.0
1449615756692903965,6.59985269958,5.94678571246,0.0
1449615756726952337,6.59985269958,5.94678571246,0.0
1449615756759755815,6.59985269958,5.94678571246,0.0
1449615756793875482,6.51134984772,5.95742856897,0.0
1449615756826658376,6.51134984772,5.95742856897,0.0
1449615756859789962,6.51134984772,5.95742856897,0.0
1449615756893888477,6.60968634979,5.97871428449,0.0
1449615756926590887,6.60968634979,5.97871428449,0.0
1449615756959861535,6.60968634979,5.97871428449,0.0
1449615756993102997,6.60968634979,5.98935714224,0.0
1449615757026224529,6.60968634979,5.98935714224,0.0
1449615757060801474,6.60968634979,5.98935714224,0.0
1449615757093024585,6.59985269958,5.98935714224,0.0
1449615757127135282,6.59985269958,5.98935714224,0.0
1449615757160065772,6.59985269958,5.98935714224,0.0
1449615757193242807,6.60968634979,5.98935714224,0.0
1449615757226499668,6.60968634979,5.98935714224,0.0
1449615757259774368,6.60968634979,5.98935714224,0.0
1449615757292861221,6.60968634979,5.98935714224,0.0
1449615757327076495,6.60968634979,5.98935714224,0.0
1449615757359745451,6.60968634979,5.98935714224,0.0
1449615757393453279,6.56051809875,5.69135714127,0.0
1449615757426215423,6.56051809875,5.69135714127,0.0
1449615757459883537,6.56051809875,5.69135714127,0.0
1449615757493826602,6.53101714813,5.42528570858,0.0
1449615757527222971,6.53101714813,5.42528570858,0.0
1449615757559883595,6.53101714813,5.42528570858,0.0
1449615757594009236,6.53101714813,5.43592856508,0.0
1449615757627262058,6.53101714813,5.43592856508,0.0
1449615757659657149,6.53101714813,5.43592856508,0.0
1449615757694971879,6.53101714813,5.42528570858,0.0
1449615757726443102,6.53101714813,5.42528570858,0.0
1449615757759956294,6.53101714813,5.42528570858,0.0
1449615757793711587,6.53101714813,5.43592856508,0.0
1449615757826315351,6.53101714813,5.43592856508,0.0
1449615757860637918,6.53101714813,5.43592856508,0.0
1449615757894045954,6.53101714813,5.42528570858,0.0
1449615757926945584,6.53101714813,5.42528570858,0.0
1449615757960298049,6.53101714813,5.42528570858,0.0
1449615757993473092,6.52118349792,5.43592856508,0.0
1449615758027299991,6.52118349792,5.43592856508,0.0
1449615758060096799,6.52118349792,5.43592856508,0.0
1449615758092856768,6.52118349792,5.42528570858,0.0
1449615758126386771,6.52118349792,5.42528570858,0.0
1449615758159723464,6.52118349792,5.42528570858,0.0
1449615758193067867,6.53101714813,5.43592856508,0.0
1449615758226180780,6.53101714813,5.43592856508,0.0
1449615758260138201,6.53101714813,5.43592856508,0.0
1449615758293586825,6.44251429626,5.52107141715,0.0
1449615758326602446,6.44251429626,5.52107141715,0.0
1449615758360409027,6.44251429626,5.52107141715,0.0
1449615758394187161,6.52118349792,5.43592856508,0.0
1449615758426376243,6.52118349792,5.43592856508,0.0
1449615758459606085,6.52118349792,5.43592856508,0.0
1449615758493236971,6.53101714813,5.43592856508,0.0
1449615758527494554,6.53101714813,5.43592856508,0.0
1449615758560556608,6.53101714813,5.43592856508,0.0
1449615758593112519,6.43268064606,5.52107141715,0.0
1449615758626343650,6.43268064606,5.52107141715,0.0
1449615758659493964,6.43268064606,5.52107141715,0.0
1449615758693172967,6.53101714813,5.43592856508,0.0
1449615758726448883,6.53101714813,5.43592856508,0.0
1449615758759723950,6.53101714813,5.43592856508,0.0
1449615758793075551,6.57035174896,5.70199999778,0.0
1449615758826496458,6.57035174896,5.70199999778,0.0
1449615758859739558,6.57035174896,5.70199999778,0.0
1449615758893115712,6.60968634979,5.97871428449,0.0
1449615758926820236,6.60968634979,5.97871428449,0.0
1449615758959766267,6.60968634979,5.97871428449,0.0
1449615758995443435,6.60968634979,5.98935714224,0.0
1449615759026381565,6.60968634979,5.98935714224,0.0
1449615759059979674,6.60968634979,5.98935714224,0.0
1449615759093148255,6.60968634979,5.98935714224,0.0
1449615759126496640,6.60968634979,5.98935714224,0.0
1449615759159909131,6.60968634979,5.98935714224,0.0
1449615759193046503,6.60968634979,6.0,0.0
1449615759226215094,6.60968634979,6.0,0.0
1449615759259628337,6.60968634979,6.0,0.0
1449615759293270978,6.60968634979,6.02128571551,0.0
1449615759326556004,6.60968634979,6.02128571551,0.0
1449615759360703791,6.60968634979,6.02128571551,0.0
1449615759395064792,6.59985269958,6.03192857202,0.0
1449615759428529315,6.59985269958,6.03192857202,0.0
1449615759459736653,6.59985269958,6.03192857202,0.0
1449615759493403086,6.59985269958,6.12771428809,0.0
1449615759526613791,6.59985269958,6.12771428809,0.0
1449615759559867692,6.59985269958,6.12771428809,0.0
1449615759593379853,6.59985269958,6.12771428809,0.0
1449615759628786707,6.59985269958,6.12771428809,0.0
1449615759659716336,6.59985269958,6.12771428809,0.0
1449615759693998904,6.59001904938,6.12771428809,0.0
1449615759726597495,6.59001904938,6.12771428809,0.0
1449615759760048344,6.59001904938,6.12771428809,0.0
1449615759793214719,6.59985269958,6.09578571857,0.0
1449615759826217381,6.59985269958,6.09578571857,0.0
1449615759859567226,6.59985269958,6.09578571857,0.0
1449615759893071234,6.59985269958,6.09578571857,0.0
1449615759926342960,6.59985269958,6.09578571857,0.0
1449615759959987197,6.59985269958,6.09578571857,0.0
1449615759993162096,6.59001904938,6.12771428809,0.0
1449615760026449831,6.59001904938,6.12771428809,0.0
1449615760059715010,6.59001904938,6.12771428809,0.0
1449615760093799644,6.51134984772,6.10642857508,0.0
1449615760126515142,6.51134984772,6.10642857508,0.0
1449615760159739910,6.51134984772,6.10642857508,0.0
1449615760192916540,6.59001904938,6.09578571857,0.0
1449615760226661183,6.59001904938,6.09578571857,0.0
1449615760260156674,6.59001904938,6.09578571857,0.0
1449615760294284924,6.50151619751,6.10642857508,0.0
1449615760326333454,6.50151619751,6.10642857508,0.0
1449615760360216753,6.50151619751,6.10642857508,0.0
1449615760393014092,6.59001904938,6.12771428809,0.0
1449615760426320316,6.59001904938,6.12771428809,0.0
1449615760459753032,6.59001904938,6.12771428809,0.0
1449615760493791505,6.50151619751,6.10642857508,0.0
1449615760526617306,6.50151619751,6.10642857508,0.0
1449615760559929614,6.50151619751,6.10642857508,0.0
1449615760593176028,6.59985269958,6.12771428809,0.0
1449615760626745148,6.59985269958,6.12771428809,0.0
1449615760659628776,6.59985269958,6.12771428809,0.0
1449615760694012384,6.59985269958,6.05321428754,0.0
1449615760726522556,6.59985269958,6.05321428754,0.0
1449615760760188765,6.59985269958,6.05321428754,0.0
1449615760794003333,6.10817016151,6.0,0.0
1449615760826900220,6.10817016151,6.0,0.0
1449615760859794827,6.10817016151,6.0,0.0
1449615760894107629,6.05321904861,5.97871428449,0.0
1449615760926558071,6.05321904861,5.97871428449,0.0
1449615760960462580,6.05321904861,5.97871428449,0.0
1449615760993341899,6.05321904861,5.34014285651,0.0
1449615761026663106,6.05321904861,5.34014285651,0.0
1449615761059721081,6.05321904861,5.34014285651,0.0
1449615761095567565,6.0,6.0,0.0
1449615761126362152,6.0,6.0,0.0
1449615761160089220,6.0,6.0,0.0
1449615761193846449,6.07095873426,5.35078571302,0.0
1449615761226296222,6.07095873426,5.35078571302,0.0
1449615761259660211,6.07095873426,5.35078571302,0.0
1449615761293577007,6.08869841574,5.35078571302,0.0
1449615761326336576,6.08869841574,5.35078571302,0.0
1449615761363576136,6.08869841574,5.35078571302,0.0
1449615761393147659,6.10643809722,5.35078571302,0.0
1449615761426894537,6.10643809722,5.35078571302,0.0
1449615761459956248,6.10643809722,5.35078571302,0.0
1449615761493241434,6.0885028611,5.36142856953,0.0
1449615761526621593,6.0885028611,5.36142856953,0.0
1449615761560010528,6.0885028611,5.36142856953,0.0
1449615761593267623,6.0885028611,5.35078571302,0.0
1449615761626371180,6.0885028611,5.35078571302,0.0
1449615761659600554,6.0885028611,5.35078571302,0.0
1449615761693018088,6.08869841574,5.34014285651,0.0
1449615761726449135,6.08869841574,5.34014285651,0.0
1449615761759873330,6.08869841574,5.34014285651,0.0
1449615761793048231,6.07095873426,5.34014285651,0.0
1449615761826491730,6.07095873426,5.34014285651,0.0
1449615761860133994,6.07095873426,5.34014285651,0.0
1449615761893432924,6.07095873426,5.35078571302,0.0
1449615761926405712,6.07095873426,5.35078571302,0.0
1449615761962170152,6.07095873426,5.35078571302,0.0
1449615761992946684,6.03547936713,5.35078571302,0.0
1449615762026356141,6.03547936713,5.35078571302,0.0
1449615762059623769,6.03547936713,5.35078571302,0.0
1449615762093156470,6.03547936713,5.34014285651,0.0
1449615762126399191,6.03547936713,5.34014285651,0.0
1449615762159840295,6.03547936713,5.34014285651,0.0
1449615762194127959,6.03547936713,5.35078571302,0.0
1449615762227287285,6.03547936713,5.35078571302,0.0
1449615762259754023,6.03547936713,5.35078571302,0.0
1449615762293522097,6.01773968356,5.34014285651,0.0
1449615762326696686,6.01773968356,5.34014285651,0.0
1449615762359770566,6.01773968356,5.34014285651,0.0
1449615762393016756,6.01773968356,5.35078571302,0.0
1449615762426811138,6.01773968356,5.35078571302,0.0
1449615762459576512,6.01773968356,5.35078571302,0.0
1449615762493265965,6.03547936713,5.34014285651,0.0
1449615762526406653,6.03547936713,5.34014285651,0.0
1449615762559625540,6.03547936713,5.34014285651,0.0
1449615762593232181,6.01773968356,5.34014285651,0.0
1449615762626544289,6.01773968356,5.34014285651,0.0
1449615762659990722,6.01773968356,5.34014285651,0.0
1449615762693171034,6.01773968356,5.34014285651,0.0
1449615762726887826,6.01773968356,5.34014285651,0.0
1449615762759656475,6.01773968356,5.34014285651,0.0
1449615762792820824,6.01773968356,5.34014285651,0.0
1449615762826518739,6.01773968356,5.34014285651,0.0
1449615762859513742,6.01773968356,5.34014285651,0.0
1449615762892845348,6.03547936713,5.35078571302,0.0
1449615762926223319,6.03547936713,5.35078571302,0.0
1449615762959982680,6.03547936713,5.35078571302,0.0
1449615762992788417,6.03547936713,5.34014285651,0.0
1449615763026258509,6.03547936713,5.34014285651,0.0
1449615763059483872,6.03547936713,5.34014285651,0.0
1449615763092961813,6.03547936713,5.34014285651,0.0
1449615763126095088,6.03547936713,5.34014285651,0.0
1449615763160055636,6.03547936713,5.34014285651,0.0
1449615763192773947,6.01773968356,5.34014285651,0.0
1449615763226627831,6.01773968356,5.34014285651,0.0
1449615763259531705,6.01773968356,5.34014285651,0.0
1449615763293604349,6.01773968356,5.34014285651,0.0
1449615763326118271,6.01773968356,5.34014285651,0.0
1449615763359951375,6.01773968356,5.34014285651,0.0
1449615763392838622,6.03547936713,5.35078571302,0.0
1449615763426334563,6.03547936713,5.35078571302,0.0
1449615763459548950,6.03547936713,5.35078571302,0.0
1449615763493021578,6.03547936713,5.34014285651,0.0
1449615763526139654,6.03547936713,5.34014285651,0.0
1449615763559766888,6.03547936713,5.34014285651,0.0
1449615763592856518,6.01773968356,5.34014285651,0.0
1449615763626282004,6.01773968356,5.34014285651,0.0
1449615763659443811,6.01773968356,5.34014285651,0.0
1449615763693478272,6.01773968356,5.92549999944,0.0
1449615763726102768,6.01773968356,5.92549999944,0.0
1449615763759722936,6.01773968356,5.92549999944,0.0
1449615763792790517,6.0,5.98935714224,0.0
1449615763826140916,6.0,5.98935714224,0.0
1449615763859528585,6.0,5.98935714224,0.0
1449615763893139334,6.0,6.0,0.0
1449615763926200373,6.0,6.0,0.0
1449615763959717456,6.0,6.0,0.0
1449615763992846213,6.0,6.0,0.0
1449615764026405893,6.0,6.0,0.0
1449615764059578999,6.0,6.0,0.0
1449615764093085259,6.0,6.0,0.0
1449615764126251643,6.0,6.0,0.0
1449615764160323528,6.0,6.0,0.0
1449615764192839172,6.0,6.0,0.0
1449615764226226278,6.0,6.0,0.0
1449615764259492735,6.0,6.0,0.0
1449615764292982917,6.0,6.01064285776,0.0
1449615764326231054,6.0,6.01064285776,0.0
1449615764360091677,6.0,6.01064285776,0.0
1449615764392941497,6.0,6.64921428698,0.0
1449615764427069750,6.0,6.64921428698,0.0
1449615764459537365,6.0,6.64921428698,0.0
1449615764493012111,6.0,6.65985714349,0.0
1449615764526172831,6.0,6.65985714349,0.0
1449615764560402150,6.0,6.65985714349,0.0
1449615764592850527,6.0,6.65985714349,0.0
1449615764627195332,6.0,6.65985714349,0.0
1449615764659764603,6.0,6.65985714349,0.0
1449615764693130220,6.0,6.64921428698,0.0
1449615764726213174,6.0,6.64921428698,0.0
1449615764759718236,6.0,6.64921428698,0.0
1449615764792940737,6.0,6.02128571551,0.0
1449615764826755116,6.0,6.02128571551,0.0
1449615764859534537,6.0,6.02128571551,0.0
1449615764892985313,6.01773968356,6.0,0.0
1449615764926157109,6.01773968356,6.0,0.0
1449615764959527847,6.01773968356,6.0,0.0
1449615764992906321,6.01773968356,6.0,0.0
1449615765026269589,6.01773968356,6.0,0.0
1449615765059593035,6.01773968356,6.0,0.0
1449615765093025491,6.60968634979,5.98935714224,0.0
1449615765126190894,6.60968634979,5.98935714224,0.0
1449615765159711519,6.60968634979,5.98935714224,0.0
1449615765192837832,6.60968634979,5.98935714224,0.0
1449615765226306826,6.60968634979,5.98935714224,0.0
1449615765259582418,6.60968634979,5.98935714224,0.0
1449615765293208157,6.60968634979,5.97871428449,0.0
1449615765326156322,6.60968634979,5.97871428449,0.0
1449615765360751085,6.60968634979,5.97871428449,0.0
1449615765392917079,6.60968634979,5.95742856897,0.0
1449615765426637635,6.60968634979,5.95742856897,0.0
1449615765459519036,6.60968634979,5.95742856897,0.0
1449615765493142619,6.60968634979,5.96807142798,0.0
1449615765526183084,6.60968634979,5.96807142798,0.0
1449615765559738893,6.60968634979,5.96807142798,0.0
1449615765592808482,6.60968634979,5.97871428449,0.0
1449615765626343078,6.60968634979,5.97871428449,0.0
1449615765659534275,6.60968634979,5.97871428449,0.0
1449615765693000723,6.60968634979,5.98935714224,0.0
1449615765726131661,6.60968634979,5.98935714224,0.0
1449615765760037381,6.60968634979,5.98935714224,0.0
1449615765792983943,6.60968634979,6.0,0.0
1449615765826295885,6.60968634979,6.0,0.0
1449615765859514665,6.60968634979,6.0,0.0
1449615765893100942,6.60968634979,6.01064285776,0.0
1449615765926169464,6.60968634979,6.01064285776,0.0
1449615765960040918,6.60968634979,6.01064285776,0.0
1449615765992830616,6.60968634979,6.01064285776,0.0
1449615766026982793,6.60968634979,6.01064285776,0.0
1449615766059557631,6.60968634979,6.01064285776,0.0
1449615766093448236,6.60968634979,6.01064285776,0.0
1449615766126321362,6.60968634979,6.01064285776,0.0
1449615766159874336,6.60968634979,6.01064285776,0.0
1449615766192865406,6.59001904938,6.01064285776,0.0
1449615766226419825,6.59001904938,6.01064285776,0.0
1449615766259624709,6.59001904938,6.01064285776,0.0
1449615766293063838,6.60968634979,6.0,0.0
1449615766326372088,6.60968634979,6.0,0.0
1449615766359888249,6.60968634979,6.0,0.0
1449615766392847898,6.55068444855,6.0,0.0
1449615766426421287,6.55068444855,6.0,0.0
1449615766459642693,6.55068444855,6.0,0.0
1449615766492963189,6.60968634979,6.0,0.0
1449615766526168983,6.60968634979,6.0,0.0
1449615766559623454,6.60968634979,6.0,0.0
1449615766592943083,6.55068444855,6.0,0.0
1449615766626379498,6.55068444855,6.0,0.0
1449615766659419274,6.55068444855,6.0,0.0
1449615766693534554,6.60968634979,6.01064285776,0.0
1449615766726166191,6.60968634979,6.01064285776,0.0
1449615766760869379,6.60968634979,6.01064285776,0.0
1449615766792944489,6.08869841574,6.01064285776,0.0
1449615766827506535,6.08869841574,6.01064285776,0.0
1449615766859570728,6.08869841574,6.01064285776,0.0
1449615766893415554,6.03547936713,6.01064285776,0.0
1449615766926185816,6.03547936713,6.01064285776,0.0
1449615766959969185,6.03547936713,6.01064285776,0.0
1449615766993073099,6.0,6.01064285776,0.0
1449615767026843473,6.0,6.01064285776,0.0
1449615767059655620,6.0,6.01064285776,0.0
1449615767093198926,6.0,6.01064285776,0.0
1449615767126355732,6.0,6.01064285776,0.0
1449615767160152582,6.0,6.01064285776,0.0
1449615767192954192,6.01773968356,6.64921428698,0.0
1449615767226392113,6.01773968356,6.64921428698,0.0
1449615767259458736,6.01773968356,6.64921428698,0.0
1449615767293267507,6.0,6.65985714349,0.0
1449615767326166054,6.0,6.65985714349,0.0
1449615767359722885,6.0,6.65985714349,0.0
1449615767392991211,6.0,6.64921428698,0.0
1449615767426364736,6.0,6.64921428698,0.0
1449615767459538561,6.0,6.64921428698,0.0
1449615767493367766,6.0,6.65985714349,0.0
1449615767526163815,6.0,6.65985714349,0.0
1449615767559742273,6.0,6.65985714349,0.0
1449615767592958853,6.0,6.65985714349,0.0
1449615767626374386,6.0,6.65985714349,0.0
1449615767659555317,6.0,6.65985714349,0.0
1449615767693215095,6.0,6.65985714349,0.0
1449615767726274207,6.0,6.65985714349,0.0
1449615767759712212,6.0,6.65985714349,0.0
1449615767792916901,6.0,6.65985714349,0.0
1449615767826394017,6.0,6.65985714349,0.0
1449615767859498732,6.0,6.65985714349,0.0
1449615767892967796,6.0,6.65985714349,0.0
1449615767926121423,6.0,6.65985714349,0.0
1449615767960139512,6.0,6.65985714349,0.0
1449615767992803590,6.0,6.64921428698,0.0
1449615768028436250,6.0,6.64921428698,0.0
1449615768059558778,6.0,6.64921428698,0.0
1449615768093809426,6.01773968356,6.58535714793,0.0
1449615768126216344,6.01773968356,6.58535714793,0.0
1449615768159870118,6.01773968356,6.58535714793,0.0
1449615768193001805,6.0,6.65985714349,0.0
1449615768226555522,6.0,6.65985714349,0.0
1449615768259483055,6.0,6.65985714349,0.0
1449615768293102027,6.0,6.59600000444,0.0
1449615768326197217,6.0,6.59600000444,0.0
1449615768359944593,6.0,6.59600000444,0.0
1449615768392770461,6.0,6.64921428698,0.0
1449615768426274276,6.0,6.64921428698,0.0
1449615768459482472,6.0,6.64921428698,0.0
1449615768493032924,6.0,6.59600000444,0.0
1449615768526174679,6.0,6.59600000444,0.0
1449615768560080898,6.0,6.59600000444,0.0
1449615768592797189,6.0,6.64921428698,0.0
1449615768626288328,6.0,6.64921428698,0.0
1449615768659507753,6.0,6.64921428698,0.0
1449615768693071120,6.0,6.14900000111,0.0
1449615768726170426,6.0,6.14900000111,0.0
1449615768759772800,6.0,6.14900000111,0.0
1449615768792936240,6.0,6.15964285762,0.0
1449615768826340892,6.0,6.15964285762,0.0
1449615768859482706,6.0,6.15964285762,0.0
1449615768893051302,6.0,6.0,0.0
1449615768926115890,6.0,6.0,0.0
1449615768959591512,6.0,6.0,0.0
1449615768992769328,6.0,6.0,0.0
1449615769026287308,6.0,6.0,0.0
1449615769059493358,6.0,6.0,0.0
1449615769092891689,6.0,6.0,0.0
1449615769126131210,6.0,6.0,0.0
1449615769159630225,6.0,6.0,0.0
1449615769192822128,6.0,6.0,0.0
1449615769226295735,6.0,6.0,0.0
1449615769259503323,6.0,6.0,0.0
1449615769292955724,6.0,6.0,0.0
1449615769326269453,6.0,6.0,0.0
1449615769359674213,6.0,6.0,0.0
1449615769392878100,6.0,6.0,0.0
1449615769426337003,6.0,6.0,0.0
1449615769459473974,6.0,6.0,0.0
1449615769493092829,6.0,6.0,0.0
1449615769526179744,6.0,6.0,0.0
1449615769559657703,6.0,6.0,0.0
1449615769592826882,6.0,6.0,0.0
1449615769626374520,6.0,6.0,0.0
1449615769659550974,6.0,6.0,0.0
1449615769693833640,6.0,6.0,0.0
1449615769726274801,6.0,6.0,0.0
1449615769760009481,6.0,6.0,0.0
1449615769792963082,6.01773968356,6.0,0.0
1449615769826616704,6.01773968356,6.0,0.0
1449615769859540562,6.01773968356,6.0,0.0
1449615769893685515,6.03547936713,6.0,0.0
1449615769926252031,6.03547936713,6.0,0.0
1449615769959826466,6.03547936713,6.0,0.0
1449615769992802801,6.07095873426,6.01064285776,0.0
1449615770026341923,6.07095873426,6.01064285776,0.0
1449615770059602915,6.07095873426,6.01064285776,0.0
1449615770093086779,6.60968634979,6.01064285776,0.0
1449615770126181507,6.60968634979,6.01064285776,0.0
1449615770159632798,6.60968634979,6.01064285776,0.0
1449615770192991140,6.54085079834,6.0,0.0
1449615770226290961,6.54085079834,6.0,0.0
1449615770259533607,6.54085079834,6.0,0.0
1449615770293195237,6.60968634979,6.01064285776,0.0
1449615770326111466,6.60968634979,6.01064285776,0.0
1449615770360580047,6.60968634979,6.01064285776,0.0
1449615770392846008,6.60968634979,6.01064285776,0.0
1449615770426333039,6.60968634979,6.01064285776,0.0
1449615770459644205,6.60968634979,6.01064285776,0.0
1449615770493195493,6.60968634979,6.01064285776,0.0
1449615770526251107,6.60968634979,6.01064285776,0.0
1449615770560187828,6.60968634979,6.01064285776,0.0
1449615770592857671,6.60968634979,6.01064285776,0.0
1449615770626279526,6.60968634979,6.01064285776,0.0
1449615770659651398,6.60968634979,6.01064285776,0.0
1449615770693439315,6.60968634979,6.01064285776,0.0
1449615770726342430,6.60968634979,6.01064285776,0.0
1449615770759707911,6.60968634979,6.01064285776,0.0
1449615770793009100,6.60968634979,6.02128571551,0.0
1449615770826720107,6.60968634979,6.02128571551,0.0
1449615770859583822,6.60968634979,6.02128571551,0.0
1449615770893671020,6.60968634979,6.01064285776,0.0
1449615770926160676,6.60968634979,6.01064285776,0.0
1449615770959800422,6.60968634979,6.01064285776,0.0
1449615770992821915,6.60968634979,6.02128571551,0.0
1449615771026213724,6.60968634979,6.02128571551,0.0
1449615771059509679,6.60968634979,6.02128571551,0.0
1449615771093098837,6.60968634979,6.03192857202,0.0
1449615771126424862,6.60968634979,6.03192857202,0.0
1449615771160405104,6.60968634979,6.03192857202,0.0
1449615771192971506,6.60968634979,6.02128571551,0.0
1449615771229130415,6.60968634979,6.02128571551,0.0
1449615771259615878,6.60968634979,6.02128571551,0.0
1449615771293291325,6.60968634979,6.03192857202,0.0
1449615771326275882,6.60968634979,6.03192857202,0.0
1449615771360488279,6.60968634979,6.03192857202,0.0
1449615771392894016,6.60968634979,6.01064285776,0.0
1449615771426823007,6.60968634979,6.01064285776,0.0
1449615771459636161,6.60968634979,6.01064285776,0.0
1449615771493041388,6.60968634979,6.01064285776,0.0
1449615771526348920,6.60968634979,6.01064285776,0.0
1449615771560018635,6.60968634979,6.01064285776,0.0
1449615771593007840,6.60968634979,6.01064285776,0.0
1449615771626249668,6.60968634979,6.01064285776,0.0
1449615771659619750,6.60968634979,6.01064285776,0.0
1449615771693054834,6.60968634979,6.01064285776,0.0
1449615771726273327,6.60968634979,6.01064285776,0.0
1449615771759600035,6.60968634979,6.01064285776,0.0
1449615771792793081,6.60968634979,5.98935714224,0.0
1449615771826195730,6.60968634979,5.98935714224,0.0
1449615771859625438,6.60968634979,5.98935714224,0.0
1449615771893198124,6.53101714813,5.42528570858,0.0
1449615771926228943,6.53101714813,5.42528570858,0.0
1449615771959718906,6.53101714813,5.42528570858,0.0
1449615771992999889,6.52118349792,5.43592856508,0.0
1449615772026399271,6.52118349792,5.43592856508,0.0
1449615772059613216,6.52118349792,5.43592856508,0.0
1449615772093027006,6.53101714813,5.42528570858,0.0
1449615772126294248,6.53101714813,5.42528570858,0.0
1449615772160109109,6.53101714813,5.42528570858,0.0
1449615772192848746,6.53101714813,5.43592856508,0.0
1449615772226358463,6.53101714813,5.43592856508,0.0
1449615772259530248,6.53101714813,5.43592856508,0.0
1449615772293151414,6.60968634979,6.02128571551,0.0
1449615772326300148,6.60968634979,6.02128571551,0.0
1449615772359619197,6.60968634979,6.02128571551,0.0
1449615772392896978,6.53101714813,6.56407143492,0.0
1449615772426182790,6.53101714813,6.56407143492,0.0
1449615772459515412,6.53101714813,6.56407143492,0.0
1449615772493053648,6.53101714813,6.56407143492,0.0
1449615772526235055,6.53101714813,6.56407143492,0.0
1449615772559666404,6.53101714813,6.56407143492,0.0
1449615772592921817,6.60968634979,6.02128571551,0.0
1449615772626253441,6.60968634979,6.02128571551,0.0
1449615772659583643,6.60968634979,6.02128571551,0.0
1449615772693103409,6.32451049377,6.0,0.0
1449615772726244779,6.32451049377,6.0,0.0
1449615772759556618,6.32451049377,6.0,0.0
1449615772792859921,6.52118349792,5.42528570858,0.0
1449615772826333597,6.52118349792,5.42528570858,0.0
1449615772859498702,6.52118349792,5.42528570858,0.0
1449615772892983267,6.53101714813,5.42528570858,0.0
1449615772926261060,6.53101714813,5.42528570858,0.0
1449615772959630072,6.53101714813,5.42528570858,0.0
1449615772992865027,6.52118349792,5.43592856508,0.0
1449615773026241971,6.52118349792,5.43592856508,0.0
1449615773059637621,6.52118349792,5.43592856508,0.0
1449615773093027147,6.53101714813,5.43592856508,0.0
1449615773126226860,6.53101714813,5.43592856508,0.0
1449615773160398672,6.53101714813,5.43592856508,0.0
1449615773193030559,6.52118349792,5.43592856508,0.0
1449615773226995457,6.52118349792,5.43592856508,0.0
1449615773259514689,6.52118349792,5.43592856508,0.0
1449615773293038313,6.53101714813,5.42528570858,0.0
1449615773326640412,6.53101714813,5.42528570858,0.0
1449615773360523822,6.53101714813,5.42528570858,0.0
1449615773392887393,6.52118349792,5.42528570858,0.0
1449615773426341940,6.52118349792,5.42528570858,0.0
1449615773459582070,6.52118349792,5.42528570858,0.0
1449615773493018581,6.53101714813,5.43592856508,0.0
1449615773526510468,6.53101714813,5.43592856508,0.0
1449615773559965846,6.53101714813,5.43592856508,0.0
1449615773592963675,6.52118349792,5.42528570858,0.0
1449615773626150316,6.52118349792,5.42528570858,0.0
1449615773659724547,6.52118349792,5.42528570858,0.0
1449615773693799395,6.52118349792,5.43592856508,0.0
1449615773726164569,6.52118349792,5.43592856508,0.0
1449615773759765023,6.52118349792,5.43592856508,0.0
1449615773792975009,6.52118349792,5.42528570858,0.0
1449615773826167062,6.52118349792,5.42528570858,0.0
1449615773859493595,6.52118349792,5.42528570858,0.0
1449615773892962574,6.59985269958,5.95742856897,0.0
1449615773926256627,6.59985269958,5.95742856897,0.0
1449615773959591181,6.59985269958,5.95742856897,0.0
1449615773992894323,6.03547936713,5.98935714224,0.0
1449615774026288203,6.03547936713,5.98935714224,0.0
1449615774059477897,6.03547936713,5.98935714224,0.0
1449615774092828996,6.01773968356,5.98935714224,0.0
1449615774126340048,6.01773968356,5.98935714224,0.0
1449615774159676047,6.01773968356,5.98935714224,0.0
1449615774192902198,6.3048431749,5.67007142825,0.0
1449615774226268740,6.3048431749,5.67007142825,0.0
