%time,field.header.seq,field.header.stamp,field.header.frame_id,field.ns,field.id,field.type,field.action,field.pose.position.x,field.pose.position.y,field.pose.position.z,field.pose.orientation.x,field.pose.orientation.y,field.pose.orientation.z,field.pose.orientation.w,field.scale.x,field.scale.y,field.scale.z,field.color.r,field.color.g,field.color.b,field.color.a,field.lifetime,field.frame_locked,field.text,field.mesh_resource,field.mesh_use_embedded_materials
1449618005707505459,0,0,/odom,acmd_vector,0,0,0,0.0,0.0,0.0,0.0,0.0,0.0,1.0,1e-05,0.05,0.05,1.0,0.0,0.0,1.0,0,0,,,0
1449618005744689671,1,0,/odom,acmd_vector,0,0,0,0.0,0.0,0.0,0.0,0.0,0.0,1.0,1e-05,0.05,0.05,1.0,0.0,0.0,1.0,0,0,,,0
1449618005784692918,2,0,/odom,acmd_vector,0,0,0,0.0,0.0,0.0,0.0,0.0,0.0,1.0,1e-05,0.05,0.05,1.0,0.0,0.0,1.0,0,0,,,0
1449618005845461357,3,0,/odom,acmd_vector,0,0,0,0.0,0.0,0.0,0.0,0.0,0.0,1.0,1e-05,0.05,0.05,1.0,0.0,0.0,1.0,0,0,,,0
1449618005862397260,4,0,/odom,acmd_vector,0,0,0,0.0,0.0,0.0,0.0,0.0,0.0,1.0,1e-05,0.05,0.05,1.0,0.0,0.0,1.0,0,0,,,0
1449618005902884872,5,0,/odom,acmd_vector,0,0,0,0.0,0.0,0.0,0.0,0.0,0.0,1.0,1e-05,0.05,0.05,1.0,0.0,0.0,1.0,0,0,,,0
1449618006010836177,6,0,/odom,acmd_vector,0,0,0,0.0,0.0,0.0,0.0,0.0,0.0,1.0,1e-05,0.05,0.05,1.0,0.0,0.0,1.0,0,0,,,0
1449618006024011951,7,0,/odom,acmd_vector,0,0,0,0.0,0.0,0.0,0.0,0.0,0.0,1.0,1e-05,0.05,0.05,1.0,0.0,0.0,1.0,0,0,,,0
1449618006050175837,8,0,/odom,acmd_vector,0,0,0,0.0,0.0,0.0,0.0,0.0,0.0,1.0,1e-05,0.05,0.05,1.0,0.0,0.0,1.0,0,0,,,0
1449618006066190144,9,0,/odom,acmd_vector,0,0,0,0.0,0.0,0.0,0.0,0.0,0.0,1.0,1e-05,0.05,0.05,1.0,0.0,0.0,1.0,0,0,,,0
1449618006130814289,10,0,/odom,acmd_vector,0,0,0,0.0,0.0,0.0,0.0,0.0,0.0,1.0,0.12001,0.05,0.05,1.0,0.0,0.0,1.0,0,0,,,0
1449618006147701986,11,0,/odom,acmd_vector,0,0,0,0.0,0.0,0.0,0.0,0.0,0.0,1.0,0.12001,0.05,0.05,1.0,0.0,0.0,1.0,0,0,,,0
1449618006189625902,12,0,/odom,acmd_vector,0,0,0,0.0,0.0,0.0,0.0,0.0,0.0,1.0,0.12001,0.05,0.05,1.0,0.0,0.0,1.0,0,0,,,0
1449618006269679155,13,0,/odom,acmd_vector,0,0,0,0.0,0.0,0.0,0.0,0.0,0.0,1.0,0.12001,0.05,0.05,1.0,0.0,0.0,1.0,0,0,,,0
1449618006279284007,14,0,/odom,acmd_vector,0,0,0,0.0,0.0,0.0,0.0,0.0,0.0,1.0,0.12001,0.05,0.05,1.0,0.0,0.0,1.0,0,0,,,0
1449618006303081915,15,0,/odom,acmd_vector,0,0,0,0.0,0.0,0.0,0.0,0.0,0.0,1.0,0.12001,0.05,0.05,1.0,0.0,0.0,1.0,0,0,,,0
1449618006384760975,16,0,/odom,acmd_vector,0,0,0,0.0,0.0,0.0,0.0,0.0,0.0,1.0,0.12001,0.05,0.05,1.0,0.0,0.0,1.0,0,0,,,0
1449618006392677392,17,0,/odom,acmd_vector,0,0,0,0.0,0.0,0.0,0.0,0.0,0.0,1.0,0.12001,0.05,0.05,1.0,0.0,0.0,1.0,0,0,,,0
1449618006474767736,18,0,/odom,acmd_vector,0,0,0,0.0,0.0,0.0,0.0,0.0,0.0,1.0,0.153480868194,0.05,0.05,1.0,0.0,0.0,1.0,0,0,,,0
1449618006491940450,19,0,/odom,acmd_vector,0,0,0,0.00287963245437,3.04332289367e-05,0.0,0.0,0.0,0.0052839997518,0.999986039576,0.153480868194,0.05,0.05,1.0,0.0,0.0,1.0,0,0,,,0
1449618006505286261,20,0,/odom,acmd_vector,0,0,0,0.00575942572016,3.04332289367e-05,0.0,0.0,0.0,0.0,1.0,0.153480868194,0.05,0.05,1.0,0.0,0.0,1.0,0,0,,,0
1449618006548627895,21,0,/odom,acmd_vector,0,0,0,0.00575942572016,3.04332289367e-05,0.0,0.0,0.0,0.0,1.0,0.153480868194,0.05,0.05,1.0,0.0,0.0,1.0,0,0,,,0
1449618006646322407,22,0,/odom,acmd_vector,0,0,0,0.00575942572016,3.04332289367e-05,0.0,0.0,0.0,0.0,1.0,0.153480868194,0.05,0.05,1.0,0.0,0.0,1.0,0,0,,,0
1449618006654968222,23,0,/odom,acmd_vector,0,0,0,0.00575942572016,3.04332289367e-05,0.0,0.0,0.0,0.0,1.0,0.152520991063,0.05,0.05,1.0,0.0,0.0,1.0,0,0,,,0
1449618006721462550,24,0,/odom,acmd_vector,0,0,0,0.00575942572016,3.04332289367e-05,0.0,0.0,0.0,0.0,1.0,0.151561059891,0.05,0.05,1.0,0.0,0.0,1.0,0,0,,,0
1449618006750150690,25,0,/odom,acmd_vector,0,0,0,0.0115188514403,0.0,0.0,0.0,0.0,0.0,1.0,0.151561059891,0.05,0.05,1.0,0.0,0.0,1.0,0,0,,,0
1449618006777389246,26,0,/odom,acmd_vector,0,0,0,0.0115188514403,0.0,0.0,0.0,0.0,0.0,1.0,0.151561059891,0.05,0.05,1.0,0.0,0.0,1.0,0,0,,,0
1449618006817413567,27,0,/odom,acmd_vector,0,0,0,0.0115188514403,0.0,0.0,0.0,0.0,0.0,1.0,0.151561059891,0.05,0.05,1.0,0.0,0.0,1.0,0,0,,,0
1449618006833352670,28,0,/odom,acmd_vector,0,0,0,0.0143984838947,-3.04332289367e-05,0.0,0.0,0.0,-0.0052839997518,0.999986039576,0.151561059891,0.05,0.05,1.0,0.0,0.0,1.0,0,0,,,0
1449618006914445985,29,0,/odom,acmd_vector,0,0,0,0.0143984838947,-3.04332289367e-05,0.0,0.0,0.0,0.0052422674375,0.999986259222,0.150601182161,0.05,0.05,1.0,0.0,0.0,1.0,0,0,,,0
1449618006925734708,30,0,/odom,acmd_vector,0,0,0,0.0201579096149,-6.08664578733e-05,0.0,0.0,0.0,0.0052422674375,0.999986259222,0.150601182161,0.05,0.05,1.0,0.0,0.0,1.0,0,0,,,0
1449618006954416641,31,0,/odom,acmd_vector,0,0,0,0.0230377028806,-6.08664578733e-05,0.0,0.0,0.0,0.0,1.0,0.149641250909,0.05,0.05,1.0,0.0,0.0,1.0,0,0,,,0
1449618006992583732,32,0,/odom,acmd_vector,0,0,0,0.0230377028806,-6.08664578733e-05,0.0,0.0,0.0,0.0,1.0,0.149641250909,0.05,0.05,1.0,0.0,0.0,1.0,0,0,,,0
1449618007075888110,33,0,/odom,acmd_vector,0,0,0,0.0287972894122,-6.08664578733e-05,0.0,0.0,0.0,0.0,1.0,0.149641250909,0.05,0.05,1.0,0.0,0.0,1.0,0,0,,,0
1449618007104034248,34,0,/odom,acmd_vector,0,0,0,0.0316769218666,-3.04332289367e-05,0.0,0.0,0.0,0.0158096814618,0.999875019176,0.147721443081,0.05,0.05,1.0,0.0,0.0,1.0,0,0,,,0
1449618007121042398,35,0,/odom,acmd_vector,0,0,0,0.0403143719808,0.000152155948096,0.0,0.0,0.0,0.0210928001051,0.999777522144,0.143881773172,0.05,0.05,1.0,0.0,0.0,1.0,0,0,,,0
1449618007150774188,36,0,/odom,acmd_vector,0,0,0,0.0403143719808,0.000152155948096,0.0,0.0,0.0,0.0210928001051,0.999777522144,0.143881773172,0.05,0.05,1.0,0.0,0.0,1.0,0,0,,,0
1449618007203097732,37,0,/odom,acmd_vector,0,0,0,0.0403143719808,0.000152155948096,0.0,0.0,0.0,0.0210928001051,0.999777522144,0.143881773172,0.05,0.05,1.0,0.0,0.0,1.0,0,0,,,0
1449618007228934388,38,0,/odom,acmd_vector,0,0,0,0.0518243799784,0.000608538828031,0.0,0.0,0.0,0.0211345236944,0.999776641009,0.142921894556,0.05,0.05,1.0,0.0,0.0,1.0,0,0,,,0
1449618007276386254,39,0,/odom,acmd_vector,0,0,0,0.0518243799784,0.000608538828031,0.0,0.0,0.0,0.0211345236944,0.999776641009,0.142921894556,0.05,0.05,1.0,0.0,0.0,1.0,0,0,,,0
1449618007315111797,40,0,/odom,acmd_vector,0,0,0,0.0575741597969,0.000943117438121,0.0,0.0,0.0,0.0316988350601,0.999497465658,0.142921894556,0.05,0.05,1.0,0.0,0.0,1.0,0,0,,,0
1449618007344493428,41,0,/odom,acmd_vector,0,0,0,0.0575741597969,0.000943117438121,0.0,0.0,0.0,0.0316988350601,0.999497465658,0.140042753169,0.05,0.05,1.0,0.0,0.0,1.0,0,0,,,0
1449618007384735509,42,0,/odom,acmd_vector,0,0,0,0.0661899108743,0.00158164438035,0.0,0.0,0.0,0.0369797368913,0.999316015612,0.140042753169,0.05,0.05,1.0,0.0,0.0,1.0,0,0,,,0
1449618007462984647,43,0,/odom,acmd_vector,0,0,0,0.0690594182424,0.00182482480304,0.0,0.0,0.0,0.042259606217,0.999106663816,0.140042753169,0.05,0.05,1.0,0.0,0.0,1.0,0,0,,,0
1449618007471751291,44,0,/odom,acmd_vector,0,0,0,0.0776469090908,0.00276635268917,0.0,0.0,0.0,0.0580915451448,0.99831126027,0.140042753169,0.05,0.05,1.0,0.0,0.0,1.0,0,0,,,0
1449618007508040951,45,0,/odom,acmd_vector,0,0,0,0.0776469090908,0.00276635268917,0.0,0.0,0.0,0.131427147796,0.991325831814,0.206611361717,0.05,0.05,1.0,0.0,0.0,1.0,0,0,,,0
1449618007560356573,46,0,/odom,acmd_vector,0,0,0,0.0862169107642,0.00385903498585,0.0,0.0,0.0,0.136663478467,0.990617531469,0.206611361717,0.05,0.05,1.0,0.0,0.0,1.0,0,0,,,0
1449618007586425982,47,0,/odom,acmd_vector,0,0,0,0.0975910198467,0.005677323119,0.0,0.0,0.0,0.178322371444,0.983972119444,0.187817891692,0.05,0.05,1.0,0.0,0.0,1.0,0,0,,,0
1449618007630707545,48,0,/odom,acmd_vector,0,0,0,0.0975910198467,0.005677323119,0.0,0.0,0.0,0.157569183141,0.987507950613,0.200129411334,0.05,0.05,1.0,0.0,0.0,1.0,0,0,,,0
1449618007675945750,49,0,/odom,acmd_vector,0,0,0,0.10042446305,0.00619191894972,0.0,0.0,0.0,0.162784975174,0.986661569059,0.200129411334,0.05,0.05,1.0,0.0,0.0,1.0,0,0,,,0
1449618007717032270,50,0,/odom,acmd_vector,0,0,0,0.111712201411,0.00848937640422,0.0,0.0,0.0,0.173202778455,0.984886185067,0.200129411334,0.05,0.05,1.0,0.0,0.0,1.0,0,0,,,0
1449618007742913452,51,0,/odom,acmd_vector,0,0,0,0.125678550725,0.0119839506524,0.0,0.0,0.0,0.204712191468,0.978822209936,0.195449823171,0.05,0.05,1.0,0.0,0.0,1.0,0,0,,,0
1449618007783105807,52,0,/odom,acmd_vector,0,0,0,0.125678550725,0.0119839506524,0.0,0.0,0.0,0.204712191468,0.978822209936,0.195449823171,0.05,0.05,1.0,0.0,0.0,1.0,0,0,,,0
1449618007848257128,53,0,/odom,acmd_vector,0,0,0,0.131253871776,0.0134291607378,0.0,0.0,0.0,0.204712191468,0.978822209936,0.195449823171,0.05,0.05,1.0,0.0,0.0,1.0,0,0,,,0
1449618007866724745,54,0,/odom,acmd_vector,0,0,0,0.145035143192,0.0175986404617,0.0,0.0,0.0,0.215642133649,0.976472462589,0.191679431644,0.05,0.05,1.0,0.0,0.0,1.0,0,0,,,0
1449618007904606369,55,0,/odom,acmd_vector,0,0,0,0.145035143192,0.0175986404617,0.0,0.0,0.0,0.210925093036,0.977502227684,0.185034114844,0.05,0.05,1.0,0.0,0.0,1.0,0,0,,,0
1449618007947915582,56,0,/odom,acmd_vector,0,0,0,0.153243952888,0.0202920261853,0.0,0.0,0.0,0.216087269961,0.976374053199,0.185034114844,0.05,0.05,1.0,0.0,0.0,1.0,0,0,,,0
1449618008030975273,57,0,/odom,acmd_vector,0,0,0,0.164110689901,0.0241137240715,0.0,0.0,0.0,0.221451644383,0.975171353763,0.182172951531,0.05,0.05,1.0,0.0,0.0,1.0,0,0,,,0
1449618008038390496,58,0,/odom,acmd_vector,0,0,0,0.177557258401,0.029262044964,0.0,0.0,0.0,0.236881660966,0.971538511176,0.182172951531,0.05,0.05,1.0,0.0,0.0,1.0,0,0,,,0
1449618008073525501,59,0,/odom,acmd_vector,0,0,0,0.185578902839,0.0324701758532,0.0,0.0,0.0,0.226263987837,0.974066018198,0.177392101244,0.05,0.05,1.0,0.0,0.0,1.0,0,0,,,0
1449618008109020448,60,0,/odom,acmd_vector,0,0,0,0.185578902839,0.0324701758532,0.0,0.0,0.0,0.226263987837,0.974066018198,0.177392101244,0.05,0.05,1.0,0.0,0.0,1.0,0,0,,,0
1449618008146003793,61,0,/odom,acmd_vector,0,0,0,0.190880269781,0.0347214744924,0.0,0.0,0.0,0.236545138449,0.971620500749,0.177392101244,0.05,0.05,1.0,0.0,0.0,1.0,0,0,,,0
1449618008198727988,62,0,/odom,acmd_vector,0,0,0,0.198796189054,0.0381822699696,0.0,0.0,0.0,0.241675878664,0.970357032062,0.177392101244,0.05,0.05,1.0,0.0,0.0,1.0,0,0,,,0
1449618008240041192,63,0,/odom,acmd_vector,0,0,0,0.209250867612,0.0430186988508,0.0,0.0,0.0,0.214954263107,0.976624116419,0.168764580801,0.05,0.05,1.0,0.0,0.0,1.0,0,0,,,0
1449618008293803350,64,0,/odom,acmd_vector,0,0,0,0.22482833468,0.0504932165644,0.0,0.0,0.0,0.225263078873,0.97429797562,0.168764580801,0.05,0.05,1.0,0.0,0.0,1.0,0,0,,,0
1449618008312615181,65,0,/odom,acmd_vector,0,0,0,0.235178462471,0.0555495198373,0.0,0.0,0.0,0.238069607061,0.971248095079,0.161086091714,0.05,0.05,1.0,0.0,0.0,1.0,0,0,,,0
1449618008347059468,66,0,/odom,acmd_vector,0,0,0,0.235178462471,0.0555495198373,0.0,0.0,0.0,0.225263078873,0.97429797562,0.155328849322,0.05,0.05,1.0,0.0,0.0,1.0,0,0,,,0
1449618008410642227,67,0,/odom,acmd_vector,0,0,0,0.242900549141,0.0594235694929,0.0,0.0,0.0,0.230408124366,0.973094083954,0.155328849322,0.05,0.05,1.0,0.0,0.0,1.0,0,0,,,0
1449618008428674036,68,0,/odom,acmd_vector,0,0,0,0.260708468478,0.0688681873043,0.0,0.0,0.0,0.24580408799,0.96931952953,0.155328849322,0.05,0.05,1.0,0.0,0.0,1.0,0,0,,,0
1449618008466943002,69,0,/odom,acmd_vector,0,0,0,0.260708468478,0.0688681873043,0.0,0.0,0.0,0.24580408799,0.96931952953,0.147659584834,0.05,0.05,1.0,0.0,0.0,1.0,0,0,,,0
1449618008542465996,70,0,/odom,acmd_vector,0,0,0,0.268346954157,0.0729045742798,0.0,0.0,0.0,0.240678772307,0.970604826158,0.147659584834,0.05,0.05,1.0,0.0,0.0,1.0,0,0,,,0
1449618008559837944,71,0,/odom,acmd_vector,0,0,0,0.288484213993,0.084096364063,0.0,0.0,0.0,0.250922540614,0.968007168678,0.147659584834,0.05,0.05,1.0,0.0,0.0,1.0,0,0,,,0
1449618008595344930,72,0,/odom,acmd_vector,0,0,0,0.295990912306,0.088372853713,0.0,0.0,0.0,0.246757586034,0.969077238271,0.137533361621,0.05,0.05,1.0,0.0,0.0,1.0,0,0,,,0
1449618008625677506,73,0,/odom,acmd_vector,0,0,0,0.295990912306,0.088372853713,0.0,0.0,0.0,0.246757586034,0.969077238271,0.137533361621,0.05,0.05,1.0,0.0,0.0,1.0,0,0,,,0
1449618008699792577,74,0,/odom,acmd_vector,0,0,0,0.308426055337,0.0956321545827,0.0,0.0,0.0,0.231538191372,0.972825814797,0.126850595686,0.05,0.05,1.0,0.0,0.0,1.0,0,0,,,0
1449618008718020627,75,0,/odom,acmd_vector,0,0,0,0.330731903183,0.10882990353,0.0,0.0,0.0,0.236675370365,0.971588785991,0.126850595686,0.05,0.05,1.0,0.0,0.0,1.0,0,0,,,0
1449618008747523890,76,0,/odom,acmd_vector,0,0,0,0.335674996552,0.111786026831,0.0,0.0,0.0,0.235668410787,0.971833524919,0.120956650716,0.05,0.05,1.0,0.0,0.0,1.0,0,0,,,0
1449618008818895850,77,0,/odom,acmd_vector,0,0,0,0.335674996552,0.111786026831,0.0,0.0,0.0,0.235668410787,0.971833524919,0.120956650716,0.05,0.05,1.0,0.0,0.0,1.0,0,0,,,0
1449618008834320418,78,0,/odom,acmd_vector,0,0,0,0.352865517682,0.122314713201,0.0,0.0,0.0,0.220315285945,0.975428713325,0.12001,0.05,0.05,1.0,0.0,0.0,1.0,0,0,,,0
1449618008895530794,79,0,/odom,acmd_vector,0,0,0,0.352865517682,0.122314713201,0.0,0.0,0.0,0.199732639972,0.979850433755,0.12001,0.05,0.05,1.0,0.0,0.0,1.0,0,0,,,0
1449618008907390762,80,0,/odom,acmd_vector,0,0,0,0.374823326299,0.136084411467,0.0,0.0,0.0,0.204907381069,0.978781367407,0.12001,0.05,0.05,1.0,0.0,0.0,1.0,0,0,,,0
1449618008981763797,81,0,/odom,acmd_vector,0,0,0,0.374823326299,0.136084411467,0.0,0.0,0.0,0.204907381069,0.978781367407,0.12001,0.05,0.05,1.0,0.0,0.0,1.0,0,0,,,0
1449618008993600488,82,0,/odom,acmd_vector,0,0,0,0.39425985491,0.14845263101,0.0,0.0,0.0,0.204907381069,0.978781367407,0.12001,0.05,0.05,1.0,0.0,0.0,1.0,0,0,,,0
1449618009024809005,83,0,/odom,acmd_vector,0,0,0,0.39425985491,0.14845263101,0.0,0.0,0.0,0.204907381069,0.978781367407,0.12001,0.05,0.05,1.0,0.0,0.0,1.0,0,0,,,0
1449618009073511167,84,0,/odom,acmd_vector,0,0,0,0.406377113983,0.156230951131,0.0,0.0,0.0,0.210076400977,0.977684972653,0.12001,0.05,0.05,1.0,0.0,0.0,1.0,0,0,,,0
1449618009104491044,85,0,/odom,acmd_vector,0,0,0,0.411224017612,0.159342279179,0.0,0.0,0.0,0.189448527238,0.981890653549,0.12001,0.05,0.05,1.0,0.0,0.0,1.0,0,0,,,0
1449618009154914357,86,0,/odom,acmd_vector,0,0,0,0.42091782487,0.165564935277,0.0,0.0,0.0,0.189448527238,0.981890653549,0.12001,0.05,0.05,1.0,0.0,0.0,1.0,0,0,,,0
1449618009190337487,87,0,/odom,acmd_vector,0,0,0,0.435458535757,0.174898919422,0.0,0.0,0.0,0.147950070166,0.988994831502,0.12001,0.05,0.05,1.0,0.0,0.0,1.0,0,0,,,0
1449618009260669002,88,0,/odom,acmd_vector,0,0,0,0.440305439386,0.178010247471,0.0,0.0,0.0,0.147950070166,0.988994831502,0.12001,0.05,0.05,1.0,0.0,0.0,1.0,0,0,,,0
1449618009272152150,89,0,/odom,acmd_vector,0,0,0,0.459693053902,0.190455559665,0.0,0.0,0.0,0.147950070166,0.988994831502,0.12001,0.05,0.05,1.0,0.0,0.0,1.0,0,0,,,0
1449618009305458422,90,0,/odom,acmd_vector,0,0,0,0.459693053902,0.190455559665,0.0,0.0,0.0,0.147950070166,0.988994831502,0.12001,0.05,0.05,1.0,0.0,0.0,1.0,0,0,,,0
1449618009370092435,91,0,/odom,acmd_vector,0,0,0,0.46938686116,0.196678215762,0.0,0.0,0.0,0.147950070166,0.988994831502,0.12001,0.05,0.05,1.0,0.0,0.0,1.0,0,0,,,0
1449618009383833436,92,0,/odom,acmd_vector,0,0,0,0.488774475676,0.209123527956,0.0,0.0,0.0,0.147950070166,0.988994831502,0.12001,0.05,0.05,1.0,0.0,0.0,1.0,0,0,,,0
1449618009444033414,93,0,/odom,acmd_vector,0,0,0,0.488774475676,0.209123527956,0.0,0.0,0.0,0.127097878823,0.991890180009,0.12001,0.05,0.05,1.0,0.0,0.0,1.0,0,0,,,0
1449618009469451635,94,0,/odom,acmd_vector,0,0,0,0.505852771267,0.219833293273,0.0,0.0,0.0,0.121854957018,0.992547917962,0.12001,0.05,0.05,1.0,0.0,0.0,1.0,0,0,,,0
1449618009512775425,95,0,/odom,acmd_vector,0,0,0,0.505852771267,0.219833293273,0.0,0.0,0.0,0.276406862881,0.961040709935,1e-05,0.05,0.05,1.0,0.0,0.0,1.0,0,0,,,0
1449618009598972777,96,0,/odom,acmd_vector,0,0,0,0.518131714931,0.227353783538,0.0,0.0,0.0,0.271324865251,0.962487827194,1e-05,0.05,0.05,1.0,0.0,0.0,1.0,0,0,,,0
1449618009616365598,97,0,/odom,acmd_vector,0,0,0,0.545255696652,0.243716607302,0.0,0.0,0.0,0.266235292001,0.963908070976,1e-05,0.05,0.05,1.0,0.0,0.0,1.0,0,0,,,0
1449618009632685402,98,0,/odom,acmd_vector,0,0,0,0.545255696652,0.243716607302,0.0,0.0,0.0,0.266235292001,0.963908070976,1e-05,0.05,0.05,1.0,0.0,0.0,1.0,0,0,,,0
1449618009706353209,99,0,/odom,acmd_vector,0,0,0,0.545255696652,0.243716607302,0.0,0.0,0.0,0.266235292001,0.963908070976,1e-05,0.05,0.05,1.0,0.0,0.0,1.0,0,0,,,0
1449618009717343407,100,0,/odom,acmd_vector,0,0,0,0.565227946325,0.255199670574,0.0,0.0,0.0,0.256033987268,0.966667780245,1e-05,0.05,0.05,1.0,0.0,0.0,1.0,0,0,,,0
1449618009805673379,101,0,/odom,acmd_vector,0,0,0,0.575236877409,0.260901656774,0.0,0.0,0.0,0.256033987268,0.966667780245,1e-05,0.05,0.05,1.0,0.0,0.0,1.0,0,0,,,0
1449618009814794407,102,0,/odom,acmd_vector,0,0,0,0.595447355173,0.271960051216,0.0,0.0,0.0,0.24580408799,0.96931952953,1e-05,0.05,0.05,1.0,0.0,0.0,1.0,0,0,,,0
1449618009833805255,103,0,/odom,acmd_vector,0,0,0,0.595447355173,0.271960051216,0.0,0.0,0.0,0.24580408799,0.96931952953,1e-05,0.05,0.05,1.0,0.0,0.0,1.0,0,0,,,0
1449618009861930736,104,0,/odom,acmd_vector,0,0,0,0.595447355173,0.271960051216,0.0,0.0,0.0,0.24580408799,0.96931952953,1e-05,0.05,0.05,1.0,0.0,0.0,1.0,0,0,,,0
1449618009928011251,105,0,/odom,acmd_vector,0,0,0,0.605574559435,0.277449229835,0.0,0.0,0.0,0.24580408799,0.96931952953,1e-05,0.05,0.05,1.0,0.0,0.0,1.0,0,0,,,0
1449618009946700215,106,0,/odom,acmd_vector,0,0,0,0.626014236907,0.288078015465,0.0,0.0,0.0,0.235546736669,0.971863022676,1e-05,0.05,0.05,1.0,0.0,0.0,1.0,0,0,,,0
1449618009986573584,107,0,/odom,acmd_vector,0,0,0,0.626014236907,0.288078015465,0.0,0.0,0.0,0.235546736669,0.971863022676,1e-05,0.05,0.05,1.0,0.0,0.0,1.0,0,0,,,0
1449618010035991189,108,0,/odom,acmd_vector,0,0,0,0.636255190342,0.293351934388,0.0,0.0,0.0,0.235546736669,0.971863022676,1e-05,0.05,0.05,1.0,0.0,0.0,1.0,0,0,,,0
1449618010065474035,109,0,/odom,acmd_vector,0,0,0,0.643977277012,0.297225984044,0.0,0.0,0.0,0.230408124366,0.973094083954,1e-05,0.05,0.05,1.0,0.0,0.0,1.0,0,0,,,0
1449618010110647251,110,0,/odom,acmd_vector,0,0,0,0.654380261102,0.302172626348,0.0,0.0,0.0,0.220111743843,0.97547466406,1e-05,0.05,0.05,1.0,0.0,0.0,1.0,0,0,,,0
1449618010198656399,111,0,/odom,acmd_vector,0,0,0,0.664783245192,0.307119268652,0.0,0.0,0.0,0.220111743843,0.97547466406,1e-05,0.05,0.05,1.0,0.0,0.0,1.0,0,0,,,0
1449618010206323419,112,0,/odom,acmd_vector,0,0,0,0.696333231337,0.321211658517,0.0,0.0,0.0,0.199446387505,0.979908739889,1e-05,0.05,0.05,1.0,0.0,0.0,1.0,0,0,,,0
1449618010235650942,113,0,/odom,acmd_vector,0,0,0,0.696333231337,0.321211658517,0.0,0.0,0.0,0.199446387505,0.979908739889,1e-05,0.05,0.05,1.0,0.0,0.0,1.0,0,0,,,0
1449618010287936168,114,0,/odom,acmd_vector,0,0,0,0.696333231337,0.321211658517,0.0,0.0,0.0,0.199446387505,0.979908739889,1e-05,0.05,0.05,1.0,0.0,0.0,1.0,0,0,,,0
1449618010301452363,115,0,/odom,acmd_vector,0,0,0,0.714923258666,0.329006979089,0.0,0.0,0.0,0.194265765611,0.98094893461,1e-05,0.05,0.05,1.0,0.0,0.0,1.0,0,0,,,0
1449618010341535907,116,0,/odom,acmd_vector,0,0,0,0.714923258666,0.329006979089,0.0,0.0,0.0,0.194265765611,0.98094893461,1e-05,0.05,0.05,1.0,0.0,0.0,1.0,0,0,,,0
1449618010414346540,117,0,/odom,acmd_vector,0,0,0,0.7256633914,0.333171219345,0.0,0.0,0.0,0.183888394426,0.982947128993,1e-05,0.05,0.05,1.0,0.0,0.0,1.0,0,0,,,0
1449618010427049597,118,0,/odom,acmd_vector,0,0,0,0.744534586516,0.340259607621,0.0,0.0,0.0,0.17869193488,0.983905072865,1e-05,0.05,0.05,1.0,0.0,0.0,1.0,0,0,,,0
1449618010473823387,119,0,/odom,acmd_vector,0,0,0,0.744534586516,0.340259607621,0.0,0.0,0.0,0.17869193488,0.983905072865,1e-05,0.05,0.05,1.0,0.0,0.0,1.0,0,0,,,0
1449618010511083565,120,0,/odom,acmd_vector,0,0,0,0.755401323529,0.344081305508,0.0,0.0,0.0,0.168284193326,0.985738520236,1e-05,0.05,0.05,1.0,0.0,0.0,1.0,0,0,,,0
1449618010590529090,121,0,/odom,acmd_vector,0,0,0,0.769034470202,0.348714613519,0.0,0.0,0.0,0.163073201911,0.986613972544,1e-05,0.05,0.05,1.0,0.0,0.0,1.0,0,0,,,0
1449618010609538903,122,0,/odom,acmd_vector,0,0,0,0.785470148348,0.354043251172,0.0,0.0,0.0,0.152637705278,0.988282212188,1e-05,0.05,0.05,1.0,0.0,0.0,1.0,0,0,,,0
1449618010659864196,123,0,/odom,acmd_vector,0,0,0,0.799243314363,0.358242075919,0.0,0.0,0.0,0.147413491427,0.989074952946,1e-05,0.05,0.05,1.0,0.0,0.0,1.0,0,0,,,0
1449618010675153533,124,0,/odom,acmd_vector,0,0,0,0.80753337604,0.36067389842,0.0,0.0,0.0,0.142185161666,0.989840077892,1e-05,0.05,0.05,1.0,0.0,0.0,1.0,0,0,,,0
1449618010710067245,125,0,/odom,acmd_vector,0,0,0,0.80753337604,0.36067389842,0.0,0.0,0.0,0.142185161666,0.989840077892,1e-05,0.05,0.05,1.0,0.0,0.0,1.0,0,0,,,0
1449618010752687371,126,0,/odom,acmd_vector,0,0,0,0.818652849943,0.363681995521,0.0,0.0,0.0,0.131716738444,0.99128739567,1e-05,0.05,0.05,1.0,0.0,0.0,1.0,0,0,,,0
1449618010804139302,127,0,/odom,acmd_vector,0,0,0,0.829772323847,0.366690092622,0.0,0.0,0.0,0.131716738444,0.99128739567,1e-05,0.05,0.05,1.0,0.0,0.0,1.0,0,0,,,0
1449618010831667602,128,0,/odom,acmd_vector,0,0,0,0.849374155281,0.371393941662,0.0,0.0,0.0,0.115986887289,0.993250744765,1e-05,0.05,0.05,1.0,0.0,0.0,1.0,0,0,,,0
1449618010869560039,129,0,/odom,acmd_vector,0,0,0,0.849374155281,0.371393941662,0.0,0.0,0.0,0.115986887289,0.993250744765,1e-05,0.05,0.05,1.0,0.0,0.0,1.0,0,0,,,0
1449618010958575787,130,0,/odom,acmd_vector,0,0,0,0.857801651386,0.373295570615,0.0,0.0,0.0,0.110736931374,0.993849753247,1e-05,0.05,0.05,1.0,0.0,0.0,1.0,0,0,,,0
1449618010976872656,131,0,/odom,acmd_vector,0,0,0,0.886073259778,0.378770347071,0.0,0.0,0.0,0.0897076561262,0.99596814027,1e-05,0.05,0.05,1.0,0.0,0.0,1.0,0,0,,,0
1449618011034908688,132,0,/odom,acmd_vector,0,0,0,0.886073259778,0.378770347071,0.0,0.0,0.0,0.0897076561262,0.99596814027,1e-05,0.05,0.05,1.0,0.0,0.0,1.0,0,0,,,0
1449618011056890266,133,0,/odom,acmd_vector,0,0,0,0.897448004041,0.380588736746,0.0,0.0,0.0,0.0791774028604,0.996860541338,1e-05,0.05,0.05,1.0,0.0,0.0,1.0,0,0,,,0
1449618011066295982,134,0,/odom,acmd_vector,0,0,0,0.908822748304,0.38240712642,0.0,0.0,0.0,0.0791774028604,0.996860541338,1e-05,0.05,0.05,1.0,0.0,0.0,1.0,0,0,,,0
1449618011138516284,135,0,/odom,acmd_vector,0,0,0,0.908822748304,0.38240712642,0.0,0.0,0.0,0.0791774028604,0.996860541338,1e-05,0.05,0.05,1.0,0.0,0.0,1.0,0,0,,,0
1449618011158050495,136,0,/odom,acmd_vector,0,0,0,0.925938699921,0.384773501998,0.0,0.0,0.0,0.0686383068554,0.997641610415,1e-05,0.05,0.05,1.0,0.0,0.0,1.0,0,0,,,0
1449618011186335831,137,0,/odom,acmd_vector,0,0,0,0.937380127146,0.386109575026,0.0,0.0,0.0,0.0580915451448,0.99831126027,1e-05,0.05,0.05,1.0,0.0,0.0,1.0,0,0,,,0
1449618011282186720,138,0,/odom,acmd_vector,0,0,0,0.937380127146,0.386109575026,0.0,0.0,0.0,0.0580915451448,0.99831126027,1e-05,0.05,0.05,1.0,0.0,0.0,1.0,0,0,,,0
1449618011291152420,139,0,/odom,acmd_vector,0,0,0,0.963180161765,0.388570905744,0.0,0.0,0.0,0.042259606217,0.999106663816,1e-05,0.05,0.05,1.0,0.0,0.0,1.0,0,0,,,0
1449618011310500400,140,0,/odom,acmd_vector,0,0,0,0.963180161765,0.388570905744,0.0,0.0,0.0,0.042259606217,0.999106663816,1e-05,0.05,0.05,1.0,0.0,0.0,1.0,0,0,,,0
1449618011398313880,141,0,/odom,acmd_vector,0,0,0,0.963180161765,0.388570905744,0.0,0.0,0.0,0.042259606217,0.999106663816,1e-05,0.05,0.05,1.0,0.0,0.0,1.0,0,0,,,0
1449618011413771252,142,0,/odom,acmd_vector,0,0,0,0.989065343688,0.389818070025,0.0,0.0,0.0,0.0158514091245,0.999874358521,1e-05,0.05,0.05,1.0,0.0,0.0,1.0,0,0,,,0
1449618011436123973,143,0,/odom,acmd_vector,0,0,0,0.989065343688,0.389818070025,0.0,0.0,0.0,0.0158514091245,0.999874358521,1e-05,0.05,0.05,1.0,0.0,0.0,1.0,0,0,,,0
1449618011496339702,144,0,/odom,acmd_vector,0,0,0,1.00058387351,0.38993980294,0.0,0.0,0.0,0.0052839997518,0.999986039576,1e-05,0.05,0.05,1.0,0.0,0.0,1.0,0,0,,,0
1449618011520912048,145,0,/odom,acmd_vector,0,0,0,1.00634313841,0.390000669398,0.0,0.0,0.0,0.0052839997518,0.999986039576,1e-05,0.05,0.05,1.0,0.0,0.0,1.0,0,0,,,0
1449618011551217185,146,0,/odom,acmd_vector,0,0,0,1.01786166823,0.389878936483,0.0,0.0,0.0,-0.0052839997518,0.999986039576,1e-05,0.05,0.05,1.0,0.0,0.0,1.0,0,0,,,0
1449618011642224171,147,0,/odom,acmd_vector,0,0,0,1.01786166823,0.389878936483,0.0,0.0,0.0,-0.0052839997518,0.999986039576,1e-05,0.05,0.05,1.0,0.0,0.0,1.0,0,0,,,0
1449618011657890104,148,0,/odom,acmd_vector,0,0,0,1.04663725207,0.388814096329,0.0,0.0,0.0,-0.0264170481704,0.999651008886,1e-05,0.05,0.05,1.0,0.0,0.0,1.0,0,0,,,0
1449618011665855451,149,0,/odom,acmd_vector,0,0,0,1.04663725207,0.388814096329,0.0,0.0,0.0,-0.0264170481704,0.999651008886,1e-05,0.05,0.05,1.0,0.0,0.0,1.0,0,0,,,0
1449618011749326065,150,0,/odom,acmd_vector,0,0,0,1.04663725207,0.388814096329,0.0,0.0,0.0,-0.0264170481704,0.999651008886,1e-05,0.05,0.05,1.0,0.0,0.0,1.0,0,0,,,0
1449618011762144853,151,0,/odom,acmd_vector,0,0,0,1.06099828463,0.387780294179,0.0,0.0,0.0,-0.042259606217,0.999106663816,1e-05,0.05,0.05,1.0,0.0,0.0,1.0,0,0,,,0
1449618011782862494,152,0,/odom,acmd_vector,0,0,0,1.07245319237,0.386565207069,0.0,0.0,0.0,-0.0528156577107,0.998604279132,1e-05,0.05,0.05,1.0,0.0,0.0,1.0,0,0,,,0
1449618011825444695,153,0,/odom,acmd_vector,0,0,0,1.07245319237,0.386565207069,0.0,0.0,0.0,-0.0528156577107,0.998604279132,1e-05,0.05,0.05,1.0,0.0,0.0,1.0,0,0,,,0
1449618011865979998,154,0,/odom,acmd_vector,0,0,0,1.08387986127,0.38510829734,0.0,0.0,0.0,-0.0633658106137,0.997990367712,1e-05,0.05,0.05,1.0,0.0,0.0,1.0,0,0,,,0
1449618011907955948,155,0,/odom,acmd_vector,0,0,0,1.09243783708,0.383925109551,0.0,0.0,0.0,-0.0686383068554,0.997641610415,1e-05,0.05,0.05,1.0,0.0,0.0,1.0,0,0,,,0
1449618011950299915,156,0,/odom,acmd_vector,0,0,0,1.10098283124,0.382651548411,0.0,0.0,0.0,-0.0739088866573,0.997264998119,1e-05,0.05,0.05,1.0,0.0,0.0,1.0,0,0,,,0
1449618012011620253,157,0,/odom,acmd_vector,0,0,0,1.10951388944,0.381287756155,0.0,0.0,0.0,-0.0791774028604,0.996860541338,1e-05,0.05,0.05,1.0,0.0,0.0,1.0,0,0,,,0
1449618012024656564,158,0,/odom,acmd_vector,0,0,0,1.12649586267,0.378110792005,0.0,0.0,0.0,-0.100227890607,0.994964506877,1e-05,0.05,0.05,1.0,0.0,0.0,1.0,0,0,,,0
1449618012064656776,159,0,/odom,acmd_vector,0,0,0,1.12649586267,0.378110792005,0.0,0.0,0.0,-0.100227890607,0.994964506877,1e-05,0.05,0.05,1.0,0.0,0.0,1.0,0,0,,,0
1449618012123486484,160,0,/odom,acmd_vector,0,0,0,1.13773252414,0.375575286734,0.0,0.0,0.0,-0.110736931374,0.993849753247,1e-05,0.05,0.05,1.0,0.0,0.0,1.0,0,0,,,0
1449618012140688309,161,0,/odom,acmd_vector,0,0,0,1.15452487724,0.371505388116,0.0,0.0,0.0,-0.121233604752,0.99262400388,1e-05,0.05,0.05,1.0,0.0,0.0,1.0,0,0,,,0
1449618012218982553,162,0,/odom,acmd_vector,0,0,0,1.15452487724,0.371505388116,0.0,0.0,0.0,-0.121233604752,0.99262400388,1e-05,0.05,0.05,1.0,0.0,0.0,1.0,0,0,,,0
1449618012244858083,163,0,/odom,acmd_vector,0,0,0,1.17669776671,0.365254861015,0.0,0.0,0.0,-0.142185161666,0.989840077892,1e-05,0.05,0.05,1.0,0.0,0.0,1.0,0,0,,,0
1449618012265852765,164,0,/odom,acmd_vector,0,0,0,1.17945239991,0.364415096065,0.0,0.0,0.0,-0.147413491427,0.989074952946,1e-05,0.05,0.05,1.0,0.0,0.0,1.0,0,0,,,0
1449618012330732787,165,0,/odom,acmd_vector,0,0,0,1.17945239991,0.364415096065,0.0,0.0,0.0,-0.147413491427,0.989074952946,1e-05,0.05,0.05,1.0,0.0,0.0,1.0,0,0,,,0
1449618012366710677,166,0,/odom,acmd_vector,0,0,0,1.19857736751,0.358043930293,0.0,0.0,0.0,-0.163073201911,0.986613972544,1e-05,0.05,0.05,1.0,0.0,0.0,1.0,0,0,,,0
1449618012391854319,167,0,/odom,acmd_vector,0,0,0,1.20672742027,0.355177656879,0.0,0.0,0.0,-0.168284193326,0.985738520236,1e-05,0.05,0.05,1.0,0.0,0.0,1.0,0,0,,,0
1449618012461171919,168,0,/odom,acmd_vector,0,0,0,1.20672742027,0.355177656879,0.0,0.0,0.0,-0.168284193326,0.985738520236,1e-05,0.05,0.05,1.0,0.0,0.0,1.0,0,0,,,0
1449618012478713271,169,0,/odom,acmd_vector,0,0,0,1.2228587233,0.348988395366,0.0,0.0,0.0,-0.189079719651,0.981961740404,1e-05,0.05,0.05,1.0,0.0,0.0,1.0,0,0,,,0
1449618012507979138,170,0,/odom,acmd_vector,0,0,0,1.23084601674,0.345695672072,0.0,0.0,0.0,-0.194265765611,0.98094893461,1e-05,0.05,0.05,1.0,0.0,0.0,1.0,0,0,,,0
1449618012585884103,171,0,/odom,acmd_vector,0,0,0,1.23084601674,0.345695672072,0.0,0.0,0.0,-0.194265765611,0.98094893461,1e-05,0.05,0.05,1.0,0.0,0.0,1.0,0,0,,,0
1449618012606910486,172,0,/odom,acmd_vector,0,0,0,1.24927947984,0.337537021617,0.0,0.0,0.0,-0.209790780666,0.977746300606,1e-05,0.05,0.05,1.0,0.0,0.0,1.0,0,0,,,0
1449618012685266205,173,0,/odom,acmd_vector,0,0,0,1.25448097188,0.335063700465,0.0,0.0,0.0,-0.220111743843,0.97547466406,1e-05,0.05,0.05,1.0,0.0,0.0,1.0,0,0,,,0
1449618012707004797,174,0,/odom,acmd_vector,0,0,0,1.2699656544,0.327397423355,0.0,0.0,0.0,-0.230408124366,0.973094083954,1e-05,0.05,0.05,1.0,0.0,0.0,1.0,0,0,,,0
1449618012730462334,175,0,/odom,acmd_vector,0,0,0,1.2699656544,0.327397423355,0.0,0.0,0.0,-0.230408124366,0.973094083954,1e-05,0.05,0.05,1.0,0.0,0.0,1.0,0,0,,,0
1449618012747092010,176,0,/odom,acmd_vector,0,0,0,1.27764636947,0.323441984163,0.0,0.0,0.0,-0.235546736669,0.971863022676,1e-05,0.05,0.05,1.0,0.0,0.0,1.0,0,0,,,0
1449618012795817491,177,0,/odom,acmd_vector,0,0,0,1.27764636947,0.323441984163,0.0,0.0,0.0,-0.235546736669,0.971863022676,1e-05,0.05,0.05,1.0,0.0,0.0,1.0,0,0,,,0
1449618012884273687,178,0,/odom,acmd_vector,0,0,0,1.28528485515,0.319405597187,0.0,0.0,0.0,-0.240678772307,0.970604826158,1e-05,0.05,0.05,1.0,0.0,0.0,1.0,0,0,,,0
1449618012904912655,179,0,/odom,acmd_vector,0,0,0,1.30287482697,0.309559891714,0.0,0.0,0.0,-0.256033987268,0.966667780245,1e-05,0.05,0.05,1.0,0.0,0.0,1.0,0,0,,,0
1449618012913224944,180,0,/odom,acmd_vector,0,0,0,1.30287482697,0.309559891714,0.0,0.0,0.0,-0.256033987268,0.966667780245,1e-05,0.05,0.05,1.0,0.0,0.0,1.0,0,0,,,0
1449618012990655743,181,0,/odom,acmd_vector,0,0,0,1.30287482697,0.309559891714,0.0,0.0,0.0,-0.256033987268,0.966667780245,1e-05,0.05,0.05,1.0,0.0,0.0,1.0,0,0,,,0
1449618013016435566,182,0,/odom,acmd_vector,0,0,0,1.31534037833,0.302353318092,0.0,0.0,0.0,-0.261138285236,0.965301401628,1e-05,0.05,0.05,1.0,0.0,0.0,1.0,0,0,,,0
1449618013030295948,183,0,/odom,acmd_vector,0,0,0,1.3202519558,0.299345121986,0.0,0.0,0.0,-0.271324865251,0.962487827194,1e-05,0.05,0.05,1.0,0.0,0.0,1.0,0,0,,,0
1449618013063984641,184,0,/odom,acmd_vector,0,0,0,1.3202519558,0.299345121986,0.0,0.0,0.0,-0.271324865251,0.962487827194,1e-05,0.05,0.05,1.0,0.0,0.0,1.0,0,0,,,0
1449618013117319322,185,0,/odom,acmd_vector,0,0,0,1.32757122533,0.294755222564,0.0,0.0,0.0,-0.276406862881,0.961040709935,1e-05,0.05,0.05,1.0,0.0,0.0,1.0,0,0,,,0
1449618013155491378,186,0,/odom,acmd_vector,0,0,0,1.33245073836,0.291695289616,0.0,0.0,0.0,-0.276406862881,0.961040709935,1e-05,0.05,0.05,1.0,0.0,0.0,1.0,0,0,,,0
1449618013234765516,187,0,/odom,acmd_vector,0,0,0,1.33245073836,0.291695289616,0.0,0.0,0.0,-0.276406862881,0.961040709935,1e-05,0.05,0.05,1.0,0.0,0.0,1.0,0,0,,,0
1449618013257629152,188,0,/odom,acmd_vector,0,0,0,1.34948011986,0.280908431648,0.0,0.0,0.0,-0.281481142997,0.959566759604,1e-05,0.05,0.05,1.0,0.0,0.0,1.0,0,0,,,0
1449618013266335268,189,0,/odom,acmd_vector,0,0,0,1.35432702348,0.277797103599,0.0,0.0,0.0,-0.281481142997,0.959566759604,1e-05,0.05,0.05,1.0,0.0,0.0,1.0,0,0,,,0
1449618013303749564,190,0,/odom,acmd_vector,0,0,0,1.35432702348,0.277797103599,0.0,0.0,0.0,-0.281481142997,0.959566759604,1e-05,0.05,0.05,1.0,0.0,0.0,1.0,0,0,,,0
1449618013383435056,191,0,/odom,acmd_vector,0,0,0,1.36154765286,0.273053540098,0.0,0.0,0.0,-0.28654756392,0.958066017355,1e-05,0.05,0.05,1.0,0.0,0.0,1.0,0,0,,,0
1449618013412635983,192,0,/odom,acmd_vector,0,0,0,1.37598891161,0.263566413094,0.0,0.0,0.0,-0.28654756392,0.958066017355,1e-05,0.05,0.05,1.0,0.0,0.0,1.0,0,0,,,0
1449618013478664038,193,0,/odom,acmd_vector,0,0,0,1.38080266453,0.260404037426,0.0,0.0,0.0,-0.28654756392,0.958066017355,1e-05,0.05,0.05,1.0,0.0,0.0,1.0,0,0,,,0
1449618013520993774,194,0,/odom,acmd_vector,0,0,0,1.38561641745,0.257241661758,0.0,0.0,0.0,-0.28654756392,0.958066017355,1e-05,0.05,0.05,1.0,0.0,0.0,1.0,0,0,,,0
1449618013597045540,195,0,/odom,acmd_vector,0,0,0,1.4000576762,0.247754534754,0.0,0.0,0.0,-0.28654756392,0.958066017355,1e-05,0.05,0.05,1.0,0.0,0.0,1.0,0,0,,,0
1449618013626651042,196,0,/odom,acmd_vector,0,0,0,1.40722777309,0.242934929596,0.0,0.0,0.0,-0.291605984193,0.956538525091,1e-05,0.05,0.05,1.0,0.0,0.0,1.0,0,0,,,0
1449618013663892197,197,0,/odom,acmd_vector,0,0,0,1.41200783768,0.239721859491,0.0,0.0,0.0,-0.291605984193,0.956538525091,1e-05,0.05,0.05,1.0,0.0,0.0,1.0,0,0,,,0
1449618013727790890,198,0,/odom,acmd_vector,0,0,0,1.41678790228,0.236508789386,0.0,0.0,0.0,-0.291605984193,0.956538525091,1e-05,0.05,0.05,1.0,0.0,0.0,1.0,0,0,,,0
1449618013766769160,199,0,/odom,acmd_vector,0,0,0,1.43112809605,0.226869579071,0.0,0.0,0.0,-0.291605984193,0.956538525091,1e-05,0.05,0.05,1.0,0.0,0.0,1.0,0,0,,,0
1449618013823509237,200,0,/odom,acmd_vector,0,0,0,1.43590816065,0.223656508966,0.0,0.0,0.0,-0.291605984193,0.956538525091,1e-05,0.05,0.05,1.0,0.0,0.0,1.0,0,0,,,0
1449618013843086811,201,0,/odom,acmd_vector,0,0,0,1.44302692428,0.218761400419,0.0,0.0,0.0,-0.296656262579,0.954984325459,1e-05,0.05,0.05,1.0,0.0,0.0,1.0,0,0,,,0
1449618013863414335,202,0,/odom,acmd_vector,0,0,0,1.4477727667,0.215497994721,0.0,0.0,0.0,-0.296656262579,0.954984325459,1e-05,0.05,0.05,1.0,0.0,0.0,1.0,0,0,,,0
1449618013895078081,203,0,/odom,acmd_vector,0,0,0,1.4477727667,0.215497994721,0.0,0.0,0.0,-0.296656262579,0.954984325459,1e-05,0.05,0.05,1.0,0.0,0.0,1.0,0,0,,,0
1449618013961595072,204,0,/odom,acmd_vector,0,0,0,1.45251860911,0.212234589023,0.0,0.0,0.0,-0.296656262579,0.954984325459,1e-05,0.05,0.05,1.0,0.0,0.0,1.0,0,0,,,0
1449618014005502646,205,0,/odom,acmd_vector,0,0,0,1.46201029395,0.205707777627,0.0,0.0,0.0,-0.296656262579,0.954984325459,1e-05,0.05,0.05,1.0,0.0,0.0,1.0,0,0,,,0
1449618014057793629,206,0,/odom,acmd_vector,0,0,0,1.46436583906,0.204051089214,0.0,0.0,0.0,-0.30169825807,0.953403461855,1e-05,0.05,0.05,1.0,0.0,0.0,1.0,0,0,,,0
1449618014080508068,207,0,/odom,acmd_vector,0,0,0,1.46907692928,0.200737712389,0.0,0.0,0.0,-0.30169825807,0.953403461855,1e-05,0.05,0.05,1.0,0.0,0.0,1.0,0,0,,,0
1449618014112209954,208,0,/odom,acmd_vector,0,0,0,1.47378801949,0.197424335564,0.0,0.0,0.0,-0.148032616881,0.988982479288,0.35201,0.05,0.05,1.0,0.0,0.0,1.0,0,0,,,0
1449618014139188230,209,0,/odom,acmd_vector,0,0,0,1.47378801949,0.197424335564,0.0,0.0,0.0,-0.148032616881,0.988982479288,0.35201,0.05,0.05,1.0,0.0,0.0,1.0,0,0,,,0
1449618014225923230,210,0,/odom,acmd_vector,0,0,0,1.47378801949,0.197424335564,0.0,0.0,0.0,-0.148032616881,0.988982479288,0.35201,0.05,0.05,1.0,0.0,0.0,1.0,0,0,,,0
1449618014244851497,211,0,/odom,acmd_vector,0,0,0,1.48321019993,0.190797581913,0.0,0.0,0.0,-0.148032616881,0.988982479288,0.35201,0.05,0.05,1.0,0.0,0.0,1.0,0,0,,,0
1449618014338296870,212,0,/odom,acmd_vector,0,0,0,1.48321019993,0.190797581913,0.0,0.0,0.0,-0.127180667272,0.99187956823,0.35201,0.05,0.05,1.0,0.0,0.0,1.0,0,0,,,0
1449618014446065902,213,0,/odom,acmd_vector,0,0,0,1.49263238036,0.184170828262,0.0,0.0,0.0,-0.127180667272,0.99187956823,0.35201,0.05,0.05,1.0,0.0,0.0,1.0,0,0,,,0
1449618014478827115,214,0,/odom,acmd_vector,0,0,0,1.49971639178,0.179225748588,0.0,0.0,0.0,-0.121937800384,0.992537743785,0.35201,0.05,0.05,1.0,0.0,0.0,1.0,0,0,,,0
1449618014567181592,215,0,/odom,acmd_vector,0,0,0,1.50207193689,0.177569060175,0.0,0.0,0.0,-0.127180667272,0.99187956823,0.35201,0.05,0.05,1.0,0.0,0.0,1.0,0,0,,,0
1449618014595540435,216,0,/odom,acmd_vector,0,0,0,1.50919070052,0.172673951628,0.0,0.0,0.0,-0.121937800384,0.992537743785,0.35201,0.05,0.05,1.0,0.0,0.0,1.0,0,0,,,0
1449618014615550148,217,0,/odom,acmd_vector,0,0,0,1.50919070052,0.172673951628,0.0,0.0,0.0,-0.121937800384,0.992537743785,0.35201,0.05,0.05,1.0,0.0,0.0,1.0,0,0,,,0
1449618014660353605,218,0,/odom,acmd_vector,0,0,0,1.51393654294,0.16941054593,0.0,0.0,0.0,-0.121937800384,0.992537743785,0.35201,0.05,0.05,1.0,0.0,0.0,1.0,0,0,,,0
1449618014682775584,219,0,/odom,acmd_vector,0,0,0,1.51632657524,0.167804010878,0.0,0.0,0.0,-0.116691528889,0.993168206844,0.35201,0.05,0.05,1.0,0.0,0.0,1.0,0,0,,,0
1449618014744180734,220,0,/odom,acmd_vector,0,0,0,1.52354720461,0.163060447376,0.0,0.0,0.0,-0.111441999267,0.993770939804,0.35201,0.05,0.05,1.0,0.0,0.0,1.0,0,0,,,0
1449618014766928035,221,0,/odom,acmd_vector,0,0,0,1.52836095753,0.159898071708,0.0,0.0,0.0,-0.111441999267,0.993770939804,0.35201,0.05,0.05,1.0,0.0,0.0,1.0,0,0,,,0
1449618014799328901,222,0,/odom,acmd_vector,0,0,0,1.53317471045,0.15673569604,0.0,0.0,0.0,-0.111441999267,0.993770939804,0.35201,0.05,0.05,1.0,0.0,0.0,1.0,0,0,,,0
1449618014833019499,223,0,/odom,acmd_vector,0,0,0,1.54044506589,0.152068703967,0.0,0.0,0.0,-0.10618935809,0.994345925837,0.35201,0.05,0.05,1.0,0.0,0.0,1.0,0,0,,,0
1449618014934146715,224,0,/odom,acmd_vector,0,0,0,1.54044506589,0.152068703967,0.0,0.0,0.0,-0.10618935809,0.994345925837,0.35201,0.05,0.05,1.0,0.0,0.0,1.0,0,0,,,0
1449618015049644831,225,0,/odom,acmd_vector,0,0,0,1.56001121465,0.139906577438,0.0,0.0,0.0,-0.0956753277864,0.995412593678,0.35201,0.05,0.05,1.0,0.0,0.0,1.0,0,0,,,0
1449618015095043793,226,0,/odom,acmd_vector,0,0,0,1.58483505495,0.12530937127,0.0,0.0,0.0,-0.0851506122121,0.996368091239,0.35201,0.05,0.05,1.0,0.0,0.0,1.0,0,0,,,0
1449618015129390297,227,0,/odom,acmd_vector,0,0,0,1.58986936991,0.122511423824,0.0,0.0,0.0,-0.074616386795,0.997212311808,0.35201,0.05,0.05,1.0,0.0,0.0,1.0,0,0,,,0
1449618015182468666,228,0,/odom,acmd_vector,0,0,0,1.60252837524,0.11564995055,0.0,0.0,0.0,-0.0903311079761,0.99591178873,0.35201,0.05,0.05,1.0,0.0,0.0,1.0,0,0,,,0
1449618015237060119,229,0,/odom,acmd_vector,0,0,0,1.61016686092,0.111613563575,0.0,0.0,0.0,-0.0850674492711,0.996375194931,0.35201,0.05,0.05,1.0,0.0,0.0,1.0,0,0,,,0
1449618015266837597,230,0,/odom,acmd_vector,0,0,0,1.62046297648,0.106448164034,0.0,0.0,0.0,-0.0745331534271,0.99721853625,0.35201,0.05,0.05,1.0,0.0,0.0,1.0,0,0,,,0
1449618015341931045,231,0,/odom,acmd_vector,0,0,0,1.62822557232,0.102655936579,0.0,0.0,0.0,-0.0692628104146,0.99759844782,0.35201,0.05,0.05,1.0,0.0,0.0,1.0,0,0,,,0
1449618015384511330,232,0,/odom,acmd_vector,0,0,0,1.64907031135,0.0928453120384,0.0,0.0,0.0,-0.0587164699669,0.998274699747,0.35201,0.05,0.05,1.0,0.0,0.0,1.0,0,0,,,0
1449618015431704184,233,0,/odom,acmd_vector,0,0,0,1.65694921541,0.0893010555535,0.0,0.0,0.0,-0.07444991954,0.997224753744,0.302243253062,0.05,0.05,1.0,0.0,0.0,1.0,0,0,,,0
1449618015455555598,234,0,/odom,acmd_vector,0,0,0,1.6675519493,0.0847984582751,0.0,0.0,0.0,-0.0639072385809,0.99795584314,0.302243253062,0.05,0.05,1.0,0.0,0.0,1.0,0,0,,,0
1449618015500695074,235,0,/odom,acmd_vector,0,0,0,1.68086410504,0.0793105861185,0.0,0.0,0.0,-0.0796350151115,0.996824088979,0.295010460112,0.05,0.05,1.0,0.0,0.0,1.0,0,0,,,0
1449618015558418882,236,0,/odom,acmd_vector,0,0,0,1.68888574948,0.0761024552293,0.0,0.0,0.0,-0.0743666851342,0.997230964292,0.295010460112,0.05,0.05,1.0,0.0,0.0,1.0,0,0,,,0
1449618015617041347,237,0,/odom,acmd_vector,0,0,0,1.70778859684,0.0690997057334,0.0,0.0,0.0,-0.0577445824248,0.99833138947,0.288635362913,0.05,0.05,1.0,0.0,0.0,1.0,0,0,,,0
1449618015689454453,238,0,/odom,acmd_vector,0,0,0,1.7159386496,0.0662334323187,0.0,0.0,0.0,-0.0524685934718,0.998622574699,0.288635362913,0.05,0.05,1.0,0.0,0.0,1.0,0,0,,,0
1449618015741566377,239,0,/odom,acmd_vector,0,0,0,1.73778060597,0.0589067385833,0.0,0.0,0.0,-0.0391336228563,0.999233986393,0.284061548799,0.05,0.05,1.0,0.0,0.0,1.0,0,0,,,0
1449618015820502072,240,0,/odom,acmd_vector,0,0,0,1.74879913878,0.0555476787851,0.0,0.0,0.0,-0.0522089601093,0.998636182243,0.274855079236,0.05,0.05,1.0,0.0,0.0,1.0,0,0,,,0
1449618015889694257,241,0,/odom,acmd_vector,0,0,0,1.76540449835,0.0507717777256,0.0,0.0,0.0,-0.041652605347,0.999132153655,0.274855079236,0.05,0.05,1.0,0.0,0.0,1.0,0,0,,,0
1449618015997443219,242,0,/odom,acmd_vector,0,0,0,1.78494056418,0.0458020422317,0.0,0.0,0.0,-0.0258097195151,0.999666873703,0.274855079236,0.05,0.05,1.0,0.0,0.0,1.0,0,0,,,0
1449618016102854444,243,0,/odom,acmd_vector,0,0,0,1.8017612785,0.0418505270894,0.0,0.0,0.0,-0.0151852978394,0.999884696717,0.264656099351,0.05,0.05,1.0,0.0,0.0,1.0,0,0,,,0
1449618016142997047,244,0,/odom,acmd_vector,0,0,0,1.82997250473,0.0360774719502,0.0,0.0,0.0,-0.0108063825005,0.999941609344,0.255309764988,0.05,0.05,1.0,0.0,0.0,1.0,0,0,,,0
1449618016227286823,245,0,/odom,acmd_vector,0,0,0,1.84130627755,0.0340190886273,0.0,0.0,0.0,-0.0108063825005,0.999941609344,0.255309764988,0.05,0.05,1.0,0.0,0.0,1.0,0,0,,,0
1449618016251262035,246,0,/odom,acmd_vector,0,0,0,1.85553832625,0.031836383421,0.0,0.0,0.0,0.0218153063943,0.999762017886,0.35201,0.05,0.05,1.0,0.0,0.0,1.0,0,0,,,0
1449618016310683596,247,0,/odom,acmd_vector,0,0,0,1.86409630206,0.0306531956321,0.0,0.0,0.0,0.0103132896109,0.999946816614,0.35201,0.05,0.05,1.0,0.0,0.0,1.0,0,0,,,0
1449618016338621537,248,0,/odom,acmd_vector,0,0,0,1.86980161927,0.0298644037728,0.0,0.0,0.0,0.0103132896109,0.999946816614,0.35201,0.05,0.05,1.0,0.0,0.0,1.0,0,0,,,0
1449618016370595043,249,0,/odom,acmd_vector,0,0,0,1.87837162094,0.0287717214761,0.0,0.0,0.0,0.0102757375897,0.999947203215,0.35201,0.05,0.05,1.0,0.0,0.0,1.0,0,0,,,0
1449618016485488176,250,0,/odom,acmd_vector,0,0,0,1.88695269136,0.0277696667053,0.0,0.0,0.0,0.0155593149097,0.999878946533,0.35201,0.05,0.05,1.0,0.0,0.0,1.0,0,0,,,0
1449618016538934542,251,0,/odom,acmd_vector,0,0,0,1.91275272598,0.0253083359876,0.0,0.0,0.0,0.0314068502708,0.999506683197,0.35201,0.05,0.05,1.0,0.0,0.0,1.0,0,0,,,0
1449618016568710224,252,0,/odom,acmd_vector,0,0,0,1.92136847706,0.0246698090454,0.0,0.0,0.0,0.0156427705362,0.99987764438,0.35201,0.05,0.05,1.0,0.0,0.0,1.0,0,0,,,0
1449618016604976654,253,0,/odom,acmd_vector,0,0,0,1.92711231111,0.0242441244172,0.0,0.0,0.0,0.0156427705362,0.99987764438,0.35201,0.05,0.05,1.0,0.0,0.0,1.0,0,0,,,0
1449618016684237868,254,0,/odom,acmd_vector,0,0,0,1.93573432893,0.0236966831132,0.0,0.0,0.0,0.0209259053812,0.999781029268,0.35201,0.05,0.05,1.0,0.0,0.0,1.0,0,0,,,0
1449618016707334244,255,0,/odom,acmd_vector,0,0,0,1.94723887121,0.0231186896576,0.0,0.0,0.0,0.0104426602016,0.999945473937,0.35201,0.05,0.05,1.0,0.0,0.0,1.0,0,0,,,0
1449618016736625389,256,0,/odom,acmd_vector,0,0,0,1.94723887121,0.0231186896576,0.0,0.0,0.0,0.0104426602016,0.999945473937,0.35201,0.05,0.05,1.0,0.0,0.0,1.0,0,0,,,0
1449618016843461153,257,0,/odom,acmd_vector,0,0,0,1.95587390942,0.0228448313824,0.0,0.0,0.0,0.0157262260538,0.999876335261,0.35201,0.05,0.05,1.0,0.0,0.0,1.0,0,0,,,0
1449618016888496892,258,0,/odom,acmd_vector,0,0,0,1.97314655861,0.0224188205575,0.0,0.0,0.0,0.0262918929799,0.99965430843,0.35201,0.05,0.05,1.0,0.0,0.0,1.0,0,0,,,0
1449618016953262489,259,0,/odom,acmd_vector,0,0,0,1.99330446823,0.0222970876418,0.0,0.0,0.0,0.0105261213988,0.99994459885,0.35201,0.05,0.05,1.0,0.0,0.0,1.0,0,0,,,0
1449618017099829744,260,0,/odom,acmd_vector,0,0,0,1.99906405476,0.0222970876418,0.0,0.0,0.0,0.0105261213988,0.99994459885,0.35201,0.05,0.05,1.0,0.0,0.0,1.0,0,0,,,0
1449618017132281771,261,0,/odom,acmd_vector,0,0,0,2.0364920406,0.0230882870169,0.0,0.0,0.0,0.0263753298195,0.999652110475,0.35201,0.05,0.05,1.0,0.0,0.0,1.0,0,0,,,0
1449618017150734800,262,0,/odom,acmd_vector,0,0,0,2.05087814381,0.0236967816639,0.0,0.0,0.0,0.0106095825225,0.999943716795,0.35201,0.05,0.05,1.0,0.0,0.0,1.0,0,0,,,0
1449618017189344522,263,0,/odom,acmd_vector,0,0,0,2.05087814381,0.0236967816639,0.0,0.0,0.0,0.0106095825225,0.999943716795,0.35201,0.05,0.05,1.0,0.0,0.0,1.0,0,0,,,0
1449618017276665571,264,0,/odom,acmd_vector,0,0,0,2.05663258509,0.0239401795227,0.0,0.0,0.0,0.0106095825225,0.999943716795,0.35201,0.05,0.05,1.0,0.0,0.0,1.0,0,0,,,0
1449618017281578515,265,0,/odom,acmd_vector,0,0,0,2.08251455,0.0253090631013,0.0,0.0,0.0,0.0158931367596,0.999873696126,0.35201,0.05,0.05,1.0,0.0,0.0,1.0,0,0,,,0
1449618017368607296,266,0,/odom,acmd_vector,0,0,0,2.08251455,0.0253090631013,0.0,0.0,0.0,0.0158931367596,0.999873696126,0.35201,0.05,0.05,1.0,0.0,0.0,1.0,0,0,,,0
1449618017382246837,267,0,/odom,acmd_vector,0,0,0,2.11699217671,0.0276506377145,0.0,0.0,0.0,0.0264587664753,0.999649905555,0.35201,0.05,0.05,1.0,0.0,0.0,1.0,0,0,,,0
1449618017391978285,268,0,/odom,acmd_vector,0,0,0,2.11699217671,0.0276506377145,0.0,0.0,0.0,0.0264587664753,0.999649905555,0.35201,0.05,0.05,1.0,0.0,0.0,1.0,0,0,,,0
1449618017427542532,269,0,/odom,acmd_vector,0,0,0,2.11699217671,0.0276506377145,0.0,0.0,0.0,0.0264587664753,0.999649905555,0.35201,0.05,0.05,1.0,0.0,0.0,1.0,0,0,,,0
1449618017517115412,270,0,/odom,acmd_vector,0,0,0,2.12273601076,0.0280763223427,0.0,0.0,0.0,0.0264587664753,0.999649905555,0.35201,0.05,0.05,1.0,0.0,0.0,1.0,0,0,,,0
1449618017533742555,271,0,/odom,acmd_vector,0,0,0,2.14856157707,0.0302649461468,0.0,0.0,0.0,0.0106930435724,0.999942827775,0.35201,0.05,0.05,1.0,0.0,0.0,1.0,0,0,,,0
1449618017549641571,272,0,/odom,acmd_vector,0,0,0,2.15716190878,0.0310854202636,0.0,0.0,0.0,0.0159765919468,0.99987236611,0.35201,0.05,0.05,1.0,0.0,0.0,1.0,0,0,,,0
1449618017588864083,273,0,/odom,acmd_vector,0,0,0,2.15716190878,0.0310854202636,0.0,0.0,0.0,0.0159765919468,0.99987236611,0.35201,0.05,0.05,1.0,0.0,0.0,1.0,0,0,,,0
1449618017628248473,274,0,/odom,acmd_vector,0,0,0,2.16862901773,0.0321793857526,0.0,0.0,0.0,0.0159765919468,0.99987236611,0.35201,0.05,0.05,1.0,0.0,0.0,1.0,0,0,,,0
1449618017680204602,275,0,/odom,acmd_vector,0,0,0,2.18294765241,0.0336982446407,0.0,0.0,0.0,0.0212596942411,0.999773987159,0.35201,0.05,0.05,1.0,0.0,0.0,1.0,0,0,,,0
1449618017705143653,276,0,/odom,acmd_vector,0,0,0,2.20297689031,0.0359758794806,0.0,0.0,0.0,0.047579981287,0.998867431334,0.227280609938,0.05,0.05,1.0,0.0,0.0,1.0,0,0,,,0
1449618017748537610,277,0,/odom,acmd_vector,0,0,0,2.20297689031,0.0359758794806,0.0,0.0,0.0,0.047579981287,0.998867431334,0.220569117755,0.05,0.05,1.0,0.0,0.0,1.0,0,0,,,0
1449618017800977675,278,0,/odom,acmd_vector,0,0,0,2.21441831753,0.0373119525083,0.0,0.0,0.0,0.047579981287,0.998867431334,0.220569117755,0.05,0.05,1.0,0.0,0.0,1.0,0,0,,,0
1449618017833222116,279,0,/odom,acmd_vector,0,0,0,2.23730117198,0.0399840985638,0.0,0.0,0.0,0.047579981287,0.998867431334,0.220569117755,0.05,0.05,1.0,0.0,0.0,1.0,0,0,,,0
1449618017910950711,280,0,/odom,acmd_vector,0,0,0,2.23730117198,0.0399840985638,0.0,0.0,0.0,0.047579981287,0.998867431334,0.220569117755,0.05,0.05,1.0,0.0,0.0,1.0,0,0,,,0
1449618017922111018,281,0,/odom,acmd_vector,0,0,0,2.25446331282,0.0419882081054,0.0,0.0,0.0,0.0580915451448,0.99831126027,0.213862105568,0.05,0.05,1.0,0.0,0.0,1.0,0,0,,,0
1449618017952268385,282,0,/odom,acmd_vector,0,0,0,2.26874664894,0.0438093452666,0.0,0.0,0.0,0.0318239705716,0.999493489172,0.19758992378,0.05,0.05,1.0,0.0,0.0,1.0,0,0,,,0
1449618018030886621,283,0,/odom,acmd_vector,0,0,0,2.26874664894,0.0438093452666,0.0,0.0,0.0,0.0318239705716,0.999493489172,0.19758992378,0.05,0.05,1.0,0.0,0.0,1.0,0,0,,,0
1449618018050063145,284,0,/odom,acmd_vector,0,0,0,2.28588665228,0.0459947098599,0.0,0.0,0.0,0.0318239705716,0.999493489172,0.19758992378,0.05,0.05,1.0,0.0,0.0,1.0,0,0,,,0
1449618018093126104,285,0,/odom,acmd_vector,0,0,0,2.3001499453,0.0479666895081,0.0,0.0,0.0,0.0371048496442,0.999311377966,0.191848695931,0.05,0.05,1.0,0.0,0.0,1.0,0,0,,,0
1449618018151354787,286,0,/odom,acmd_vector,0,0,0,2.31156057971,0.0495442732267,0.0,0.0,0.0,0.0371048496442,0.999311377966,0.191848695931,0.05,0.05,1.0,0.0,0.0,1.0,0,0,,,0
1449618018217435670,287,0,/odom,acmd_vector,0,0,0,2.32013058138,0.0506369555234,0.0,0.0,0.0,0.0318239705716,0.999493489172,0.18324718959,0.05,0.05,1.0,0.0,0.0,1.0,0,0,,,0
1449618018267218494,288,0,/odom,acmd_vector,0,0,0,2.34580450881,0.0541865188902,0.0,0.0,0.0,0.0371048496442,0.999311377966,0.18324718959,0.05,0.05,1.0,0.0,0.0,1.0,0,0,,,0
1449618018296479421,289,0,/odom,acmd_vector,0,0,0,2.35150982601,0.0549753107495,0.0,0.0,0.0,0.0371048496442,0.999311377966,0.17656503263,0.05,0.05,1.0,0.0,0.0,1.0,0,0,,,0
1449618018350919095,290,0,/odom,acmd_vector,0,0,0,2.36292046043,0.0565528944681,0.0,0.0,0.0,0.0160600470226,0.999871029128,0.165117384714,0.05,0.05,1.0,0.0,0.0,1.0,0,0,,,0
1449618018371338337,291,0,/odom,acmd_vector,0,0,0,2.37716211737,0.0586754963676,0.0,0.0,0.0,0.0213431410873,0.99977220922,0.165117384714,0.05,0.05,1.0,0.0,0.0,1.0,0,0,,,0
1449618018452931773,292,0,/odom,acmd_vector,0,0,0,2.38572009318,0.0598586841565,0.0,0.0,0.0,0.0160600470226,0.999871029128,0.35201,0.05,0.05,1.0,0.0,0.0,1.0,0,0,,,0
1449618018541067356,293,0,/odom,acmd_vector,0,0,0,2.4056584129,0.0628303268158,0.0,0.0,0.0,0.0213431410873,0.99977220922,0.35201,0.05,0.05,1.0,0.0,0.0,1.0,0,0,,,0
1449618018575395312,294,0,/odom,acmd_vector,0,0,0,2.42276138288,0.0652870757444,0.0,0.0,0.0,0.000292130242132,0.99999995733,0.35201,0.05,0.05,1.0,0.0,0.0,1.0,0,0,,,0
1449618018626826906,295,0,/odom,acmd_vector,0,0,0,2.42845804565,0.0661361165042,0.0,0.0,0.0,0.000292130242132,0.99999995733,0.35201,0.05,0.05,1.0,0.0,0.0,1.0,0,0,,,0
1449618018659824867,296,0,/odom,acmd_vector,0,0,0,2.43985137121,0.0678341980238,0.0,0.0,0.0,0.000292130242132,0.99999995733,0.35201,0.05,0.05,1.0,0.0,0.0,1.0,0,0,,,0
1449618018696514787,297,0,/odom,acmd_vector,0,0,0,2.45124469676,0.0695322795434,0.0,0.0,0.0,0.000292130242132,0.99999995733,0.35201,0.05,0.05,1.0,0.0,0.0,1.0,0,0,,,0
1449618018731608828,298,0,/odom,acmd_vector,0,0,0,2.45694135954,0.0703813203032,0.0,0.0,0.0,0.000292130242132,0.99999995733,0.35201,0.05,0.05,1.0,0.0,0.0,1.0,0,0,,,0
1449618018807147812,299,0,/odom,acmd_vector,0,0,0,2.46263802232,0.071230361063,0.0,0.0,0.0,0.000292130242132,0.99999995733,0.35201,0.05,0.05,1.0,0.0,0.0,1.0,0,0,,,0
1449618018870381378,300,0,/odom,acmd_vector,0,0,0,2.47972801065,0.0737774833424,0.0,0.0,0.0,0.000292130242132,0.99999995733,0.35201,0.05,0.05,1.0,0.0,0.0,1.0,0,0,,,0
1449618018931858514,301,0,/odom,acmd_vector,0,0,0,2.48542467343,0.0746265241021,0.0,0.0,0.0,0.000292130242132,0.99999995733,0.35201,0.05,0.05,1.0,0.0,0.0,1.0,0,0,,,0
1449618018959130250,302,0,/odom,acmd_vector,0,0,0,2.50250072579,0.0772638774976,0.0,0.0,0.0,0.000292130242132,0.99999995733,0.35201,0.05,0.05,1.0,0.0,0.0,1.0,0,0,,,0
1449618019015402348,303,0,/odom,acmd_vector,0,0,0,2.50819738857,0.0781129182574,0.0,0.0,0.0,0.000292130242132,0.99999995733,0.35201,0.05,0.05,1.0,0.0,0.0,1.0,0,0,,,0
1449618019095345791,304,0,/odom,acmd_vector,0,0,0,2.51389405135,0.0789619590172,0.0,0.0,0.0,0.000292130242132,0.99999995733,0.35201,0.05,0.05,1.0,0.0,0.0,1.0,0,0,,,0
1449618019139091457,305,0,/odom,acmd_vector,0,0,0,2.53098403968,0.0815090812966,0.0,0.0,0.0,0.000292130242132,0.99999995733,0.35201,0.05,0.05,1.0,0.0,0.0,1.0,0,0,,,0
1449618019164491445,306,0,/odom,acmd_vector,0,0,0,2.53954201549,0.0826922690855,0.0,0.0,0.0,-0.00499187336247,0.999987540523,0.350165155705,0.05,0.05,1.0,0.0,0.0,1.0,0,0,,,0
1449618019213621074,307,0,/odom,acmd_vector,0,0,0,2.54808700966,0.0839658302252,0.0,0.0,0.0,0.000292130242132,0.99999995733,0.350165155705,0.05,0.05,1.0,0.0,0.0,1.0,0,0,,,0
1449618019234084120,308,0,/odom,acmd_vector,0,0,0,2.55378367244,0.084814870985,0.0,0.0,0.0,0.000292130242132,0.99999995733,0.350165155705,0.05,0.05,1.0,0.0,0.0,1.0,0,0,,,0
1449618019270217795,309,0,/odom,acmd_vector,0,0,0,2.55378367244,0.084814870985,0.0,0.0,0.0,0.000292130242132,0.99999995733,0.344570775981,0.05,0.05,1.0,0.0,0.0,1.0,0,0,,,0
1449618019303720222,310,0,/odom,acmd_vector,0,0,0,2.56234164824,0.085998058774,0.0,0.0,0.0,-0.00499187336246,0.999987540523,0.344570775981,0.05,0.05,1.0,0.0,0.0,1.0,0,0,,,0
1449618019343872488,311,0,/odom,acmd_vector,0,0,0,2.57375228266,0.0875756424925,0.0,0.0,0.0,-0.00499187336247,0.999987540523,0.338974548359,0.05,0.05,1.0,0.0,0.0,1.0,0,0,,,0
1449618019383589512,312,0,/odom,acmd_vector,0,0,0,2.58232228433,0.0886683247892,0.0,0.0,0.0,-0.0102757375897,0.999947203215,0.338974548359,0.05,0.05,1.0,0.0,0.0,1.0,0,0,,,0
1449618019439040449,313,0,/odom,acmd_vector,0,0,0,2.58803561878,0.0893967796537,0.0,0.0,0.0,-0.0102757375897,0.999947203215,0.334314122922,0.05,0.05,1.0,0.0,0.0,1.0,0,0,,,0
1449618019496700095,314,0,/odom,acmd_vector,0,0,0,2.59946228768,0.0908536893826,0.0,0.0,0.0,-0.0102757375897,0.999947203215,0.334314122922,0.05,0.05,1.0,0.0,0.0,1.0,0,0,,,0
1449618019518590703,315,0,/odom,acmd_vector,0,0,0,2.61948478532,0.0931918171811,0.0,0.0,0.0,-0.0155593149097,0.999878946533,0.330584717119,0.05,0.05,1.0,0.0,0.0,1.0,0,0,,,0
1449618019556533046,316,0,/odom,acmd_vector,0,0,0,2.62807596612,0.094103132514,0.0,0.0,0.0,-0.0208424578004,0.999782772383,0.330584717119,0.05,0.05,1.0,0.0,0.0,1.0,0,0,,,0
1449618019601022541,317,0,/odom,acmd_vector,0,0,0,2.62807596612,0.094103132514,0.0,0.0,0.0,-0.0208424578004,0.999782772383,0.330584717119,0.05,0.05,1.0,0.0,0.0,1.0,0,0,,,0
1449618019634590015,318,0,/odom,acmd_vector,0,0,0,2.64814340678,0.0960175721198,0.0,0.0,0.0,-0.0261250187519,0.999658683449,0.22250263907,0.05,0.05,1.0,0.0,0.0,1.0,0,0,,,0
1449618019703410520,319,0,/odom,acmd_vector,0,0,0,2.64814340678,0.0960175721198,0.0,0.0,0.0,-0.0261250187519,0.999658683449,0.22250263907,0.05,0.05,1.0,0.0,0.0,1.0,0,0,,,0
1449618019726432705,320,0,/odom,acmd_vector,0,0,0,2.66821903783,0.0978410788769,0.0,0.0,0.0,-0.0314068502708,0.999506683197,0.218732191756,0.05,0.05,1.0,0.0,0.0,1.0,0,0,,,0
1449618019750337239,321,0,/odom,acmd_vector,0,0,0,2.6796970673,0.0988138005676,0.0,0.0,0.0,-0.0314068502708,0.999506683197,0.209284531772,0.05,0.05,1.0,0.0,0.0,1.0,0,0,,,0
1449618019796153074,322,0,/odom,acmd_vector,0,0,0,2.6796970673,0.0988138005676,0.0,0.0,0.0,-0.0314068502708,0.999506683197,0.209284531772,0.05,0.05,1.0,0.0,0.0,1.0,0,0,,,0
1449618019836253708,323,0,/odom,acmd_vector,0,0,0,2.69117509677,0.0997865222584,0.0,0.0,0.0,-0.0314068502708,0.999506683197,0.209284531772,0.05,0.05,1.0,0.0,0.0,1.0,0,0,,,0
1449618019876618247,324,0,/odom,acmd_vector,0,0,0,2.69979084785,0.100425049201,0.0,0.0,0.0,-0.0366878048838,0.999326775871,0.205507064129,0.05,0.05,1.0,0.0,0.0,1.0,0,0,,,0
1449618019911101174,325,0,/odom,acmd_vector,0,0,0,2.71127851595,0.101276418457,0.0,0.0,0.0,-0.0366878048838,0.999326775871,0.195111036199,0.05,0.05,1.0,0.0,0.0,1.0,0,0,,,0
1449618019959758546,326,0,/odom,acmd_vector,0,0,0,2.72276618406,0.102127787713,0.0,0.0,0.0,-0.0366878048838,0.999326775871,0.192273370287,0.05,0.05,1.0,0.0,0.0,1.0,0,0,,,0
1449618019994608084,327,0,/odom,acmd_vector,0,0,0,2.73713203593,0.103100913645,0.0,0.0,0.0,-0.0419677351422,0.999118966493,0.192273370287,0.05,0.05,1.0,0.0,0.0,1.0,0,0,,,0
1449618020057235799,328,0,/odom,acmd_vector,0,0,0,2.73713203593,0.103100913645,0.0,0.0,0.0,-0.0419677351422,0.999118966493,0.188491965102,0.05,0.05,1.0,0.0,0.0,1.0,0,0,,,0
1449618020084586600,329,0,/odom,acmd_vector,0,0,0,2.75437607157,0.104195796254,0.0,0.0,0.0,-0.0419677351422,0.999118966493,0.182824331911,0.05,0.05,1.0,0.0,0.0,1.0,0,0,,,0
1449618020113501425,330,0,/odom,acmd_vector,0,0,0,2.76300339321,0.10465209078,0.0,0.0,0.0,-0.0472464936258,0.998883260867,0.179987222506,0.05,0.05,1.0,0.0,0.0,1.0,0,0,,,0
1449618020147733486,331,0,/odom,acmd_vector,0,0,0,2.76300339321,0.10465209078,0.0,0.0,0.0,-0.0472464936258,0.998883260867,0.176206619793,0.05,0.05,1.0,0.0,0.0,1.0,0,0,,,0
1449618020197664983,332,0,/odom,acmd_vector,0,0,0,2.77450648872,0.105260483481,0.0,0.0,0.0,-0.0472464936258,0.998883260867,0.176206619793,0.05,0.05,1.0,0.0,0.0,1.0,0,0,,,0
1449618020229667203,333,0,/odom,acmd_vector,0,0,0,2.78025803648,0.105564679832,0.0,0.0,0.0,-0.0472464936258,0.998883260867,0.174317287785,0.05,0.05,1.0,0.0,0.0,1.0,0,0,,,0
1449618020274097596,334,0,/odom,acmd_vector,0,0,0,2.7888896984,0.10592977662,0.0,0.0,0.0,-0.0525239329472,0.998619665572,0.167697320968,0.05,0.05,1.0,0.0,0.0,1.0,0,0,,,0
1449618020329043954,335,0,/odom,acmd_vector,0,0,0,2.79751702004,0.106386071147,0.0,0.0,0.0,-0.0472464936258,0.998883260867,0.165807429061,0.05,0.05,1.0,0.0,0.0,1.0,0,0,,,0
1449618020345555061,336,0,/odom,acmd_vector,0,0,0,2.81190312325,0.106994565794,0.0,0.0,0.0,-0.0525239329472,0.998619665572,0.165807429061,0.05,0.05,1.0,0.0,0.0,1.0,0,0,,,0
1449618020415957863,337,0,/odom,acmd_vector,0,0,0,2.81190312325,0.106994565794,0.0,0.0,0.0,-0.0525239329472,0.998619665572,0.160136392499,0.05,0.05,1.0,0.0,0.0,1.0,0,0,,,0
1449618020429340608,338,0,/odom,acmd_vector,0,0,0,2.82341200582,0.107481361511,0.0,0.0,0.0,-0.0525239329472,0.998619665572,0.160136392499,0.05,0.05,1.0,0.0,0.0,1.0,0,0,,,0
1449618020470809829,339,0,/odom,acmd_vector,0,0,0,2.82341200582,0.107481361511,0.0,0.0,0.0,-0.0525239329472,0.998619665572,0.155410873576,0.05,0.05,1.0,0.0,0.0,1.0,0,0,,,0
1449618020532295134,340,0,/odom,acmd_vector,0,0,0,2.8291664471,0.10772475937,0.0,0.0,0.0,-0.0525239329472,0.998619665572,0.155410873576,0.05,0.05,1.0,0.0,0.0,1.0,0,0,,,0
1449618020555564656,341,0,/odom,acmd_vector,0,0,0,2.84355817746,0.108181189829,0.0,0.0,0.0,-0.0577999057558,0.99832818797,0.155410873576,0.05,0.05,1.0,0.0,0.0,1.0,0,0,,,0
1449618020606737233,342,0,/odom,acmd_vector,0,0,0,2.84355817746,0.108181189829,0.0,0.0,0.0,-0.0577999057558,0.99832818797,0.146819626425,0.05,0.05,1.0,0.0,0.0,1.0,0,0,,,0
1449618020647463134,343,0,/odom,acmd_vector,0,0,0,2.85507156174,0.108546334196,0.0,0.0,0.0,-0.0577999057558,0.99832818797,0.146819626425,0.05,0.05,1.0,0.0,0.0,1.0,0,0,,,0
1449618020670239202,344,0,/odom,acmd_vector,0,0,0,2.85507156174,0.108546334196,0.0,0.0,0.0,-0.0577999057558,0.99832818797,0.14153126956,0.05,0.05,1.0,0.0,0.0,1.0,0,0,,,0
1449618020718660604,345,0,/odom,acmd_vector,0,0,0,2.86082825388,0.108728906379,0.0,0.0,0.0,-0.0577999057558,0.99832818797,0.140020091987,0.05,0.05,1.0,0.0,0.0,1.0,0,0,,,0
1449618020757522222,346,0,/odom,acmd_vector,0,0,0,2.86658494602,0.108911478563,0.0,0.0,0.0,-0.0577999057558,0.99832818797,0.140020091987,0.05,0.05,1.0,0.0,0.0,1.0,0,0,,,0
1449618020817132692,347,0,/odom,acmd_vector,0,0,0,2.87234163816,0.109094050746,0.0,0.0,0.0,-0.0788029804216,0.996890209741,0.135490545304,0.05,0.05,1.0,0.0,0.0,1.0,0,0,,,0
1449618020859783214,348,0,/odom,acmd_vector,0,0,0,2.88385502245,0.109459195113,0.0,0.0,0.0,-0.0788029804216,0.996890209741,0.135490545304,0.05,0.05,1.0,0.0,0.0,1.0,0,0,,,0
1449618020882279272,349,0,/odom,acmd_vector,0,0,0,2.88961171459,0.109641767297,0.0,0.0,0.0,-0.0788029804216,0.996890209741,0.133982096953,0.05,0.05,1.0,0.0,0.0,1.0,0,0,,,0
1449618020931038810,350,0,/odom,acmd_vector,0,0,0,2.89536840673,0.10982433948,0.0,0.0,0.0,-0.0788029804216,0.996890209741,0.130967672977,0.05,0.05,1.0,0.0,0.0,1.0,0,0,,,0
1449618020978856037,351,0,/odom,acmd_vector,0,0,0,2.90112509887,0.110006911663,0.0,0.0,0.0,-0.0788029804216,0.996890209741,0.130967672977,0.05,0.05,1.0,0.0,0.0,1.0,0,0,,,0
1449618021003197454,352,0,/odom,acmd_vector,0,0,0,2.90688179101,0.110189483847,0.0,0.0,0.0,-0.0788029804216,0.996890209741,0.12596990669,0.05,0.05,1.0,0.0,0.0,1.0,0,0,,,0
1449618021035784414,353,0,/odom,acmd_vector,0,0,0,2.91263848315,0.11037205603,0.0,0.0,0.0,-0.0788029804216,0.996890209741,0.123231179518,0.05,0.05,1.0,0.0,0.0,1.0,0,0,,,0
1449618021076737518,354,0,/odom,acmd_vector,0,0,0,2.91263848315,0.11037205603,0.0,0.0,0.0,-0.0788029804216,0.996890209741,0.123231179518,0.05,0.05,1.0,0.0,0.0,1.0,0,0,,,0
1449618021137675196,355,0,/odom,acmd_vector,0,0,0,2.91551763319,0.110432919089,0.0,0.0,0.0,-0.0840694479195,0.996459897801,0.12001,0.05,0.05,1.0,0.0,0.0,1.0,0,0,,,0
1449618021160705978,356,0,/odom,acmd_vector,0,0,0,2.92703423335,0.110676371325,0.0,0.0,0.0,-0.0840694479195,0.996459897801,0.12001,0.05,0.05,1.0,0.0,0.0,1.0,0,0,,,0
1449618021189951458,357,0,/odom,acmd_vector,0,0,0,2.92991257942,0.110767657417,0.0,0.0,0.0,-0.0788029804216,0.996890209741,0.12001,0.05,0.05,1.0,0.0,0.0,1.0,0,0,,,0
1449618021246291408,358,0,/odom,acmd_vector,0,0,0,2.92991257942,0.110767657417,0.0,0.0,0.0,-0.0788029804216,0.996890209741,0.12001,0.05,0.05,1.0,0.0,0.0,1.0,0,0,,,0
1449618021287360338,359,0,/odom,acmd_vector,0,0,0,2.9414259637,0.111132801784,0.0,0.0,0.0,-0.0788029804216,0.996890209741,0.12001,0.05,0.05,1.0,0.0,0.0,1.0,0,0,,,0
1449618021312812579,360,0,/odom,acmd_vector,0,0,0,2.94430511374,0.111193664843,0.0,0.0,0.0,-0.0840694479195,0.996459897801,0.12001,0.05,0.05,1.0,0.0,0.0,1.0,0,0,,,0
1449618021386118140,361,0,/odom,acmd_vector,0,0,0,2.94430511374,0.111193664843,0.0,0.0,0.0,-0.0840694479195,0.996459897801,0.12001,0.05,0.05,1.0,0.0,0.0,1.0,0,0,,,0
1449618021413263646,362,0,/odom,acmd_vector,0,0,0,2.95582171389,0.111437117079,0.0,0.0,0.0,-0.0840694479195,0.996459897801,0.12001,0.05,0.05,1.0,0.0,0.0,1.0,0,0,,,0
1449618021453785496,363,0,/odom,acmd_vector,0,0,0,2.95870005996,0.111528403171,0.0,0.0,0.0,-0.0788029804216,0.996890209741,0.12001,0.05,0.05,1.0,0.0,0.0,1.0,0,0,,,0
