%time,field.header.seq,field.header.stamp,field.header.frame_id,field.ns,field.id,field.type,field.action,field.pose.position.x,field.pose.position.y,field.pose.position.z,field.pose.orientation.x,field.pose.orientation.y,field.pose.orientation.z,field.pose.orientation.w,field.scale.x,field.scale.y,field.scale.z,field.color.r,field.color.g,field.color.b,field.color.a,field.lifetime,field.frame_locked,field.text,field.mesh_resource,field.mesh_use_embedded_materials
1449618005707471964,0,0,/odom,bcmd_vector,0,0,0,0.0,0.0,0.0,0.0,0.0,0.0,1.0,0.245851276169,0.05,0.05,0.0,1.0,0.0,1.0,0,0,,,0
1449618005744692195,1,0,/odom,bcmd_vector,0,0,0,0.0,0.0,0.0,0.0,0.0,0.0,1.0,0.245851276169,0.05,0.05,0.0,1.0,0.0,1.0,0,0,,,0
1449618005784555127,2,0,/odom,bcmd_vector,0,0,0,0.0,0.0,0.0,0.0,0.0,0.0,1.0,0.346422698746,0.05,0.05,0.0,1.0,0.0,1.0,0,0,,,0
1449618005845305483,3,0,/odom,bcmd_vector,0,0,0,0.0,0.0,0.0,0.0,0.0,0.0,1.0,0.346422698746,0.05,0.05,0.0,1.0,0.0,1.0,0,0,,,0
1449618005862392851,4,0,/odom,bcmd_vector,0,0,0,0.0,0.0,0.0,0.0,0.0,0.0,1.0,0.189978263626,0.05,0.05,0.0,1.0,0.0,1.0,0,0,,,0
1449618005902877825,5,0,/odom,bcmd_vector,0,0,0,0.0,0.0,0.0,0.0,0.0,0.0,1.0,0.189978263626,0.05,0.05,0.0,1.0,0.0,1.0,0,0,,,0
1449618006010803977,6,0,/odom,bcmd_vector,0,0,0,0.0,0.0,0.0,0.0,0.0,0.0,1.0,0.189978263626,0.05,0.05,0.0,1.0,0.0,1.0,0,0,,,0
1449618006023996386,7,0,/odom,bcmd_vector,0,0,0,0.0,0.0,0.0,0.0,0.0,0.0,1.0,0.189978263626,0.05,0.05,0.0,1.0,0.0,1.0,0,0,,,0
1449618006050171904,8,0,/odom,bcmd_vector,0,0,0,0.0,0.0,0.0,0.0,0.0,0.0,1.0,0.189978263626,0.05,0.05,0.0,1.0,0.0,1.0,0,0,,,0
1449618006066182569,9,0,/odom,bcmd_vector,0,0,0,0.0,0.0,0.0,0.0,0.0,0.0,1.0,0.189978263626,0.05,0.05,0.0,1.0,0.0,1.0,0,0,,,0
1449618006130803644,10,0,/odom,bcmd_vector,0,0,0,0.0,0.0,0.0,0.0,0.0,0.0,1.0,0.189978263626,0.05,0.05,0.0,1.0,0.0,1.0,0,0,,,0
1449618006147697255,11,0,/odom,bcmd_vector,0,0,0,0.0,0.0,0.0,0.0,0.0,0.0,1.0,0.189978263626,0.05,0.05,0.0,1.0,0.0,1.0,0,0,,,0
1449618006189643948,12,0,/odom,bcmd_vector,0,0,0,0.0,0.0,0.0,0.0,0.0,0.0,1.0,0.346422698746,0.05,0.05,0.0,1.0,0.0,1.0,0,0,,,0
1449618006269670163,13,0,/odom,bcmd_vector,0,0,0,0.0,0.0,0.0,0.0,0.0,0.0,1.0,0.346422698746,0.05,0.05,0.0,1.0,0.0,1.0,0,0,,,0
1449618006279259050,14,0,/odom,bcmd_vector,0,0,0,0.0,0.0,0.0,0.0,0.0,0.0,1.0,0.346422698746,0.05,0.05,0.0,1.0,0.0,1.0,0,0,,,0
1449618006303073485,15,0,/odom,bcmd_vector,0,0,0,0.0,0.0,0.0,0.0,0.0,0.0,1.0,0.346422698746,0.05,0.05,0.0,1.0,0.0,1.0,0,0,,,0
1449618006384754886,16,0,/odom,bcmd_vector,0,0,0,0.0,0.0,0.0,0.0,0.0,0.0,1.0,0.346422698746,0.05,0.05,0.0,1.0,0.0,1.0,0,0,,,0
1449618006392668893,17,0,/odom,bcmd_vector,0,0,0,0.0,0.0,0.0,0.0,0.0,0.0,1.0,0.35201,0.05,0.05,0.0,1.0,0.0,1.0,0,0,,,0
1449618006474754196,18,0,/odom,bcmd_vector,0,0,0,0.0,0.0,0.0,0.0,0.0,0.0,1.0,0.346422698746,0.05,0.05,0.0,1.0,0.0,1.0,0,0,,,0
1449618006491931259,19,0,/odom,bcmd_vector,0,0,0,0.00287963245437,3.04332289367e-05,0.0,0.0,0.0,0.0052839997518,0.999986039576,0.346422698746,0.05,0.05,0.0,1.0,0.0,1.0,0,0,,,0
1449618006505014101,20,0,/odom,bcmd_vector,0,0,0,0.00575942572016,3.04332289367e-05,0.0,0.0,0.0,0.0,1.0,0.346422698746,0.05,0.05,0.0,1.0,0.0,1.0,0,0,,,0
1449618006548607531,21,0,/odom,bcmd_vector,0,0,0,0.00575942572016,3.04332289367e-05,0.0,0.0,0.0,0.0452226687398,0.998976931782,0.289806289226,0.05,0.05,0.0,1.0,0.0,1.0,0,0,,,0
1449618006646315104,22,0,/odom,bcmd_vector,0,0,0,0.00575942572016,3.04332289367e-05,0.0,0.0,0.0,0.0452226687398,0.998976931782,0.289806289226,0.05,0.05,0.0,1.0,0.0,1.0,0,0,,,0
1449618006654964447,23,0,/odom,bcmd_vector,0,0,0,0.00575942572016,3.04332289367e-05,0.0,0.0,0.0,0.0452226687398,0.998976931782,0.289566319944,0.05,0.05,0.0,1.0,0.0,1.0,0,0,,,0
1449618006721407434,24,0,/odom,bcmd_vector,0,0,0,0.00575942572016,3.04332289367e-05,0.0,0.0,0.0,0.0840277875015,0.996463411736,0.226642674301,0.05,0.05,0.0,1.0,0.0,1.0,0,0,,,0
1449618006750141624,25,0,/odom,bcmd_vector,0,0,0,0.0115188514403,0.0,0.0,0.0,0.0,0.0840277875015,0.996463411736,0.226642674301,0.05,0.05,0.0,1.0,0.0,1.0,0,0,,,0
1449618006777383448,26,0,/odom,bcmd_vector,0,0,0,0.0115188514403,0.0,0.0,0.0,0.0,0.0713678500387,0.997450063903,0.201499818657,0.05,0.05,0.0,1.0,0.0,1.0,0,0,,,0
1449618006817404552,27,0,/odom,bcmd_vector,0,0,0,0.0115188514403,0.0,0.0,0.0,0.0,0.0713678500387,0.997450063903,0.201499818657,0.05,0.05,0.0,1.0,0.0,1.0,0,0,,,0
1449618006833346634,28,0,/odom,bcmd_vector,0,0,0,0.0143984838947,-3.04332289367e-05,0.0,0.0,0.0,0.0660963278232,0.997813246779,0.201499818657,0.05,0.05,0.0,1.0,0.0,1.0,0,0,,,0
1449618006914447383,29,0,/odom,bcmd_vector,0,0,0,0.0143984838947,-3.04332289367e-05,0.0,0.0,0.0,0.084006994833,0.99646516488,0.223369084809,0.05,0.05,0.0,1.0,0.0,1.0,0,0,,,0
1449618006925710540,30,0,/odom,bcmd_vector,0,0,0,0.0201579096149,-6.08664578733e-05,0.0,0.0,0.0,0.084006994833,0.99646516488,0.223369084809,0.05,0.05,0.0,1.0,0.0,1.0,0,0,,,0
1449618006954417361,31,0,/odom,bcmd_vector,0,0,0,0.0230377028806,-6.08664578733e-05,0.0,0.0,0.0,0.0856093688431,0.996328779052,0.222889119183,0.05,0.05,0.0,1.0,0.0,1.0,0,0,,,0
1449618006992488287,32,0,/odom,bcmd_vector,0,0,0,0.0230377028806,-6.08664578733e-05,0.0,0.0,0.0,0.0856093688431,0.996328779052,0.222889119183,0.05,0.05,0.0,1.0,0.0,1.0,0,0,,,0
1449618007075692404,33,0,/odom,bcmd_vector,0,0,0,0.0287972894122,-6.08664578733e-05,0.0,0.0,0.0,0.0856093688431,0.996328779052,0.222889119183,0.05,0.05,0.0,1.0,0.0,1.0,0,0,,,0
1449618007104028710,34,0,/odom,bcmd_vector,0,0,0,0.0316769218666,-3.04332289367e-05,0.0,0.0,0.0,0.0945328001282,0.995521747477,0.224722865896,0.05,0.05,0.0,1.0,0.0,1.0,0,0,,,0
1449618007121042856,35,0,/odom,bcmd_vector,0,0,0,0.0403143719808,0.000152155948096,0.0,0.0,0.0,0.177870500133,0.984053903596,0.301724288712,0.05,0.05,0.0,1.0,0.0,1.0,0,0,,,0
1449618007150768190,36,0,/odom,bcmd_vector,0,0,0,0.0403143719808,0.000152155948096,0.0,0.0,0.0,0.180993579048,0.983484277629,0.301724288712,0.05,0.05,0.0,1.0,0.0,1.0,0,0,,,0
1449618007203098633,37,0,/odom,bcmd_vector,0,0,0,0.0403143719808,0.000152155948096,0.0,0.0,0.0,0.180993579048,0.983484277629,0.301724288712,0.05,0.05,0.0,1.0,0.0,1.0,0,0,,,0
1449618007228927675,38,0,/odom,bcmd_vector,0,0,0,0.0518243799784,0.000608538828031,0.0,0.0,0.0,0.191376788391,0.981516645231,0.301724288712,0.05,0.05,0.0,1.0,0.0,1.0,0,0,,,0
1449618007276382052,39,0,/odom,bcmd_vector,0,0,0,0.0518243799784,0.000608538828031,0.0,0.0,0.0,0.188259903596,0.982119243625,0.296136987457,0.05,0.05,0.0,1.0,0.0,1.0,0,0,,,0
1449618007315111977,40,0,/odom,bcmd_vector,0,0,0,0.0575741597969,0.000943117438121,0.0,0.0,0.0,0.1986282817,0.98007489801,0.296136987457,0.05,0.05,0.0,1.0,0.0,1.0,0,0,,,0
1449618007344497710,41,0,/odom,bcmd_vector,0,0,0,0.0575741597969,0.000943117438121,0.0,0.0,0.0,0.1986282817,0.98007489801,0.296136987457,0.05,0.05,0.0,1.0,0.0,1.0,0,0,,,0
1449618007384722494,42,0,/odom,bcmd_vector,0,0,0,0.0661899108743,0.00158164438035,0.0,0.0,0.0,0.206911165434,0.978359734259,0.301724288712,0.05,0.05,0.0,1.0,0.0,1.0,0,0,,,0
1449618007462984354,43,0,/odom,bcmd_vector,0,0,0,0.0690594182424,0.00182482480304,0.0,0.0,0.0,0.21207792946,0.977252757395,0.301724288712,0.05,0.05,0.0,1.0,0.0,1.0,0,0,,,0
1449618007471747373,44,0,/odom,bcmd_vector,0,0,0,0.0776469090908,0.00276635268917,0.0,0.0,0.0,0.227542116951,0.973768239888,0.296136987457,0.05,0.05,0.0,1.0,0.0,1.0,0,0,,,0
1449618007508045102,45,0,/odom,bcmd_vector,0,0,0,0.0776469090908,0.00276635268917,0.0,0.0,0.0,0.227542116951,0.973768239888,0.296136987457,0.05,0.05,0.0,1.0,0.0,1.0,0,0,,,0
1449618007560323173,46,0,/odom,bcmd_vector,0,0,0,0.0862169107642,0.00385903498585,0.0,0.0,0.0,0.232684331504,0.97255231318,0.296136987457,0.05,0.05,0.0,1.0,0.0,1.0,0,0,,,0
1449618007586415933,47,0,/odom,bcmd_vector,0,0,0,0.0975910198467,0.005677323119,0.0,0.0,0.0,0.122332432921,0.992489181732,0.335248096237,0.05,0.05,0.0,1.0,0.0,1.0,0,0,,,0
1449618007630692899,48,0,/odom,bcmd_vector,0,0,0,0.0975910198467,0.005677323119,0.0,0.0,0.0,0.122332432921,0.992489181732,0.335248096237,0.05,0.05,0.0,1.0,0.0,1.0,0,0,,,0
1449618007675926976,49,0,/odom,bcmd_vector,0,0,0,0.10042446305,0.00619191894972,0.0,0.0,0.0,0.0928690025766,0.995678335789,0.301724288712,0.05,0.05,0.0,1.0,0.0,1.0,0,0,,,0
1449618007717026477,50,0,/odom,bcmd_vector,0,0,0,0.111712201411,0.00848937640422,0.0,0.0,0.0,0.103385997912,0.994641309938,0.301724288712,0.05,0.05,0.0,1.0,0.0,1.0,0,0,,,0
1449618007742907829,51,0,/odom,bcmd_vector,0,0,0,0.125678550725,0.0119839506524,0.0,0.0,0.0,0.129625404515,0.991563036072,0.301724288712,0.05,0.05,0.0,1.0,0.0,1.0,0,0,,,0
1449618007783099133,52,0,/odom,bcmd_vector,0,0,0,0.125678550725,0.0119839506524,0.0,0.0,0.0,0.126476937269,0.991969548091,0.346422698746,0.05,0.05,0.0,1.0,0.0,1.0,0,0,,,0
1449618007848244294,53,0,/odom,bcmd_vector,0,0,0,0.131253871776,0.0134291607378,0.0,0.0,0.0,0.126476937269,0.991969548091,0.346422698746,0.05,0.05,0.0,1.0,0.0,1.0,0,0,,,0
1449618007866651664,54,0,/odom,bcmd_vector,0,0,0,0.145035143192,0.0175986404617,0.0,0.0,0.0,0.149499537369,0.988761795544,0.346422698746,0.05,0.05,0.0,1.0,0.0,1.0,0,0,,,0
1449618007904549342,55,0,/odom,bcmd_vector,0,0,0,0.145035143192,0.0175986404617,0.0,0.0,0.0,0.149499537369,0.988761795544,0.346422698746,0.05,0.05,0.0,1.0,0.0,1.0,0,0,,,0
1449618007947908887,56,0,/odom,bcmd_vector,0,0,0,0.153243952888,0.0202920261853,0.0,0.0,0.0,0.154722067374,0.987958036491,0.346422698746,0.05,0.05,0.0,1.0,0.0,1.0,0,0,,,0
1449618008030941793,57,0,/odom,bcmd_vector,0,0,0,0.164110689901,0.0241137240715,0.0,0.0,0.0,0.165154021774,0.986267787719,0.346422698746,0.05,0.05,0.0,1.0,0.0,1.0,0,0,,,0
1449618008038361576,58,0,/odom,bcmd_vector,0,0,0,0.177557258401,0.029262044964,0.0,0.0,0.0,0.180767005788,0.983525947608,0.346422698746,0.05,0.05,0.0,1.0,0.0,1.0,0,0,,,0
1449618008073502094,59,0,/odom,bcmd_vector,0,0,0,0.185578902839,0.0324701758532,0.0,0.0,0.0,0.182841272345,0.983142446,0.346422698746,0.05,0.05,0.0,1.0,0.0,1.0,0,0,,,0
1449618008109010057,60,0,/odom,bcmd_vector,0,0,0,0.185578902839,0.0324701758532,0.0,0.0,0.0,0.182841272345,0.983142446,0.346422698746,0.05,0.05,0.0,1.0,0.0,1.0,0,0,,,0
1449618008146000449,61,0,/odom,bcmd_vector,0,0,0,0.190880269781,0.0347214744924,0.0,0.0,0.0,0.193220766084,0.981155306541,0.346422698746,0.05,0.05,0.0,1.0,0.0,1.0,0,0,,,0
1449618008198723715,62,0,/odom,bcmd_vector,0,0,0,0.198796189054,0.0381822699696,0.0,0.0,0.0,0.198402493037,0.980120630717,0.340835397491,0.05,0.05,0.0,1.0,0.0,1.0,0,0,,,0
1449618008239994533,63,0,/odom,bcmd_vector,0,0,0,0.209250867612,0.0430186988508,0.0,0.0,0.0,0.20874918372,0.977969211323,0.340835397491,0.05,0.05,0.0,1.0,0.0,1.0,0,0,,,0
1449618008293797671,64,0,/odom,bcmd_vector,0,0,0,0.22482833468,0.0504932165644,0.0,0.0,0.0,0.215973974697,0.976399120367,0.340835397491,0.05,0.05,0.0,1.0,0.0,1.0,0,0,,,0
1449618008312620766,65,0,/odom,bcmd_vector,0,0,0,0.235178462471,0.0555495198373,0.0,0.0,0.0,0.215973974697,0.976399120367,0.340835397491,0.05,0.05,0.0,1.0,0.0,1.0,0,0,,,0
1449618008347053555,66,0,/odom,bcmd_vector,0,0,0,0.235178462471,0.0555495198373,0.0,0.0,0.0,0.209770303293,0.977750694122,0.340835397491,0.05,0.05,0.0,1.0,0.0,1.0,0,0,,,0
1449618008410642223,67,0,/odom,bcmd_vector,0,0,0,0.242900549141,0.0594235694929,0.0,0.0,0.0,0.214933809236,0.976628618077,0.340835397491,0.05,0.05,0.0,1.0,0.0,1.0,0,0,,,0
1449618008428660248,68,0,/odom,bcmd_vector,0,0,0,0.260708468478,0.0688681873043,0.0,0.0,0.0,0.230387744422,0.973098909269,0.340835397491,0.05,0.05,0.0,1.0,0.0,1.0,0,0,,,0
1449618008466913313,69,0,/odom,bcmd_vector,0,0,0,0.260708468478,0.0688681873043,0.0,0.0,0.0,0.155650209846,0.987812235283,0.318486192474,0.05,0.05,0.0,1.0,0.0,1.0,0,0,,,0
1449618008542459622,70,0,/odom,bcmd_vector,0,0,0,0.268346954157,0.0729045742798,0.0,0.0,0.0,0.150428437297,0.988620900675,0.318486192474,0.05,0.05,0.0,1.0,0.0,1.0,0,0,,,0
1449618008559728667,71,0,/odom,bcmd_vector,0,0,0,0.288484213993,0.084096364063,0.0,0.0,0.0,0.160867636509,0.986975989335,0.318486192474,0.05,0.05,0.0,1.0,0.0,1.0,0,0,,,0
1449618008595313165,72,0,/odom,bcmd_vector,0,0,0,0.295990912306,0.088372853713,0.0,0.0,0.0,0.0873770521936,0.996175311253,0.296136987457,0.05,0.05,0.0,1.0,0.0,1.0,0,0,,,0
1449618008625608117,73,0,/odom,bcmd_vector,0,0,0,0.295990912306,0.088372853713,0.0,0.0,0.0,0.0873770521936,0.996175311253,0.296136987457,0.05,0.05,0.0,1.0,0.0,1.0,0,0,,,0
1449618008699786329,74,0,/odom,bcmd_vector,0,0,0,0.308426055337,0.0956321545827,0.0,0.0,0.0,0.0926396224703,0.995699703901,0.296136987457,0.05,0.05,0.0,1.0,0.0,1.0,0,0,,,0
1449618008718013943,75,0,/odom,bcmd_vector,0,0,0,0.330731903183,0.10882990353,0.0,0.0,0.0,0.0978996061702,0.995196295769,0.296136987457,0.05,0.05,0.0,1.0,0.0,1.0,0,0,,,0
1449618008747524901,76,0,/odom,bcmd_vector,0,0,0,0.335674996552,0.111786026831,0.0,0.0,0.0,0.101058460674,0.994880489067,0.296136987457,0.05,0.05,0.0,1.0,0.0,1.0,0,0,,,0
1449618008818889750,77,0,/odom,bcmd_vector,0,0,0,0.335674996552,0.111786026831,0.0,0.0,0.0,0.101058460674,0.994880489067,0.296136987457,0.05,0.05,0.0,1.0,0.0,1.0,0,0,,,0
1449618008834313356,78,0,/odom,bcmd_vector,0,0,0,0.352865517682,0.122314713201,0.0,0.0,0.0,0.106313998113,0.994332607232,0.296136987457,0.05,0.05,0.0,1.0,0.0,1.0,0,0,,,0
1449618008895524856,79,0,/odom,bcmd_vector,0,0,0,0.352865517682,0.122314713201,0.0,0.0,0.0,0.10315685643,0.994665100912,0.296136987457,0.05,0.05,0.0,1.0,0.0,1.0,0,0,,,0
1449618008907384921,80,0,/odom,bcmd_vector,0,0,0,0.374823326299,0.136084411467,0.0,0.0,0.0,0.108411226463,0.994106134161,0.296136987457,0.05,0.05,0.0,1.0,0.0,1.0,0,0,,,0
1449618008981752338,81,0,/odom,bcmd_vector,0,0,0,0.374823326299,0.136084411467,0.0,0.0,0.0,0.111566567174,0.993756962788,0.301724288712,0.05,0.05,0.0,1.0,0.0,1.0,0,0,,,0
1449618008993554140,82,0,/odom,bcmd_vector,0,0,0,0.39425985491,0.14845263101,0.0,0.0,0.0,0.111566567174,0.993756962788,0.301724288712,0.05,0.05,0.0,1.0,0.0,1.0,0,0,,,0
1449618009024800707,83,0,/odom,bcmd_vector,0,0,0,0.39425985491,0.14845263101,0.0,0.0,0.0,0.111566567174,0.993756962788,0.296136987457,0.05,0.05,0.0,1.0,0.0,1.0,0,0,,,0
1449618009071752615,84,0,/odom,bcmd_vector,0,0,0,0.406377113983,0.156230951131,0.0,0.0,0.0,0.116816021202,0.993153571806,0.296136987457,0.05,0.05,0.0,1.0,0.0,1.0,0,0,,,0
1449618009104485702,85,0,/odom,bcmd_vector,0,0,0,0.411224017612,0.159342279179,0.0,0.0,0.0,0.116816021202,0.993153571806,0.296136987457,0.05,0.05,0.0,1.0,0.0,1.0,0,0,,,0
1449618009154917684,86,0,/odom,bcmd_vector,0,0,0,0.42091782487,0.165564935277,0.0,0.0,0.0,0.116816021202,0.993153571806,0.296136987457,0.05,0.05,0.0,1.0,0.0,1.0,0,0,,,0
1449618009190330419,87,0,/odom,bcmd_vector,0,0,0,0.435458535757,0.174898919422,0.0,0.0,0.0,0.116816021202,0.993153571806,0.301724288712,0.05,0.05,0.0,1.0,0.0,1.0,0,0,,,0
1449618009260666496,88,0,/odom,bcmd_vector,0,0,0,0.440305439386,0.178010247471,0.0,0.0,0.0,0.116816021202,0.993153571806,0.301724288712,0.05,0.05,0.0,1.0,0.0,1.0,0,0,,,0
1449618009272148266,89,0,/odom,bcmd_vector,0,0,0,0.459693053902,0.190455559665,0.0,0.0,0.0,0.113662569562,0.993519411124,0.301724288712,0.05,0.05,0.0,1.0,0.0,1.0,0,0,,,0
1449618009305462748,90,0,/odom,bcmd_vector,0,0,0,0.459693053902,0.190455559665,0.0,0.0,0.0,0.113662569562,0.993519411124,0.301724288712,0.05,0.05,0.0,1.0,0.0,1.0,0,0,,,0
1449618009370055465,91,0,/odom,bcmd_vector,0,0,0,0.46938686116,0.196678215762,0.0,0.0,0.0,0.113662569562,0.993519411124,0.301724288712,0.05,0.05,0.0,1.0,0.0,1.0,0,0,,,0
1449618009383828178,92,0,/odom,bcmd_vector,0,0,0,0.488774475676,0.209123527956,0.0,0.0,0.0,0.138855440566,0.990312661045,0.251438577423,0.05,0.05,0.0,1.0,0.0,1.0,0,0,,,0
1449618009443948133,93,0,/odom,bcmd_vector,0,0,0,0.488774475676,0.209123527956,0.0,0.0,0.0,0.138855440566,0.990312661045,0.251438577423,0.05,0.05,0.0,1.0,0.0,1.0,0,0,,,0
1449618009469446533,94,0,/odom,bcmd_vector,0,0,0,0.505852771267,0.219833293273,0.0,0.0,0.0,0.108411226463,0.994106134161,0.301724288712,0.05,0.05,0.0,1.0,0.0,1.0,0,0,,,0
1449618009512928542,95,0,/odom,bcmd_vector,0,0,0,0.505852771267,0.219833293273,0.0,0.0,0.0,0.108411226463,0.994106134161,0.301724288712,0.05,0.05,0.0,1.0,0.0,1.0,0,0,,,0
1449618009598959726,96,0,/odom,bcmd_vector,0,0,0,0.518131714931,0.227353783538,0.0,0.0,0.0,0.145677591443,0.989332117821,0.226295716534,0.05,0.05,0.0,1.0,0.0,1.0,0,0,,,0
1449618009616355674,97,0,/odom,bcmd_vector,0,0,0,0.545255696652,0.243716607302,0.0,0.0,0.0,0.101058460674,0.994880489067,0.296136987457,0.05,0.05,0.0,1.0,0.0,1.0,0,0,,,0
1449618009632683435,98,0,/odom,bcmd_vector,0,0,0,0.545255696652,0.243716607302,0.0,0.0,0.0,0.101058460674,0.994880489067,0.296136987457,0.05,0.05,0.0,1.0,0.0,1.0,0,0,,,0
1449618009706348828,99,0,/odom,bcmd_vector,0,0,0,0.545255696652,0.243716607302,0.0,0.0,0.0,0.101058460674,0.994880489067,0.296136987457,0.05,0.05,0.0,1.0,0.0,1.0,0,0,,,0
1449618009717334813,100,0,/odom,bcmd_vector,0,0,0,0.565227946325,0.255199670574,0.0,0.0,0.0,0.0905390677016,0.995892904493,0.296136987457,0.05,0.05,0.0,1.0,0.0,1.0,0,0,,,0
1449618009805657127,101,0,/odom,bcmd_vector,0,0,0,0.575236877409,0.260901656774,0.0,0.0,0.0,0.0905390677016,0.995892904493,0.296136987457,0.05,0.05,0.0,1.0,0.0,1.0,0,0,,,0
1449618009814783827,102,0,/odom,bcmd_vector,0,0,0,0.595447355173,0.271960051216,0.0,0.0,0.0,0.0800095630892,0.996794095997,0.296136987457,0.05,0.05,0.0,1.0,0.0,1.0,0,0,,,0
1449618009833797286,103,0,/odom,bcmd_vector,0,0,0,0.595447355173,0.271960051216,0.0,0.0,0.0,0.0800095630892,0.996794095997,0.296136987457,0.05,0.05,0.0,1.0,0.0,1.0,0,0,,,0
1449618009861884017,104,0,/odom,bcmd_vector,0,0,0,0.595447355173,0.271960051216,0.0,0.0,0.0,0.0800095630892,0.996794095997,0.296136987457,0.05,0.05,0.0,1.0,0.0,1.0,0,0,,,0
1449618009927949798,105,0,/odom,bcmd_vector,0,0,0,0.605574559435,0.277449229835,0.0,0.0,0.0,0.0800095630892,0.996794095997,0.296136987457,0.05,0.05,0.0,1.0,0.0,1.0,0,0,,,0
1449618009946683299,106,0,/odom,bcmd_vector,0,0,0,0.626014236907,0.288078015465,0.0,0.0,0.0,0.0694711227997,0.997583962931,0.296136987457,0.05,0.05,0.0,1.0,0.0,1.0,0,0,,,0
1449618009986290038,107,0,/odom,bcmd_vector,0,0,0,0.626014236907,0.288078015465,0.0,0.0,0.0,0.066303845024,0.997799478921,0.296136987457,0.05,0.05,0.0,1.0,0.0,1.0,0,0,,,0
1449618010035976638,108,0,/odom,bcmd_vector,0,0,0,0.636255190342,0.293351934388,0.0,0.0,0.0,0.066303845024,0.997799478921,0.296136987457,0.05,0.05,0.0,1.0,0.0,1.0,0,0,,,0
1449618010065480270,109,0,/odom,bcmd_vector,0,0,0,0.643977277012,0.297225984044,0.0,0.0,0.0,0.0641989195409,0.997937121631,0.296136987457,0.05,0.05,0.0,1.0,0.0,1.0,0,0,,,0
1449618010110624420,110,0,/odom,bcmd_vector,0,0,0,0.654380261102,0.302172626348,0.0,0.0,0.0,0.0536492828127,0.998559840197,0.296136987457,0.05,0.05,0.0,1.0,0.0,1.0,0,0,,,0
1449618010198672308,111,0,/odom,bcmd_vector,0,0,0,0.664783245192,0.307119268652,0.0,0.0,0.0,0.0536492828127,0.998559840197,0.296136987457,0.05,0.05,0.0,1.0,0.0,1.0,0,0,,,0
1449618010206310779,112,0,/odom,bcmd_vector,0,0,0,0.696333231337,0.321211658517,0.0,0.0,0.0,0.0293601320283,0.999568898399,0.296136987457,0.05,0.05,0.0,1.0,0.0,1.0,0,0,,,0
1449618010235643085,113,0,/odom,bcmd_vector,0,0,0,0.696333231337,0.321211658517,0.0,0.0,0.0,0.0293601320283,0.999568898399,0.296136987457,0.05,0.05,0.0,1.0,0.0,1.0,0,0,,,0
1449618010287928403,114,0,/odom,bcmd_vector,0,0,0,0.696333231337,0.321211658517,0.0,0.0,0.0,0.0293601320283,0.999568898399,0.296136987457,0.05,0.05,0.0,1.0,0.0,1.0,0,0,,,0
1449618010301448100,115,0,/odom,bcmd_vector,0,0,0,0.714923258666,0.329006979089,0.0,0.0,0.0,0.0240780003374,0.999710082924,0.296136987457,0.05,0.05,0.0,1.0,0.0,1.0,0,0,,,0
1449618010341481168,116,0,/odom,bcmd_vector,0,0,0,0.714923258666,0.329006979089,0.0,0.0,0.0,0.0272515562902,0.999628607374,0.296136987457,0.05,0.05,0.0,1.0,0.0,1.0,0,0,,,0
1449618010414189378,117,0,/odom,bcmd_vector,0,0,0,0.7256633914,0.333171219345,0.0,0.0,0.0,0.0166861073801,0.999860777219,0.296136987457,0.05,0.05,0.0,1.0,0.0,1.0,0,0,,,0
1449618010427031220,118,0,/odom,bcmd_vector,0,0,0,0.744534586516,0.340259607621,0.0,0.0,0.0,0.0114026103363,0.999934988125,0.296136987457,0.05,0.05,0.0,1.0,0.0,1.0,0,0,,,0
1449618010473800740,119,0,/odom,bcmd_vector,0,0,0,0.744534586516,0.340259607621,0.0,0.0,0.0,0.0114026103363,0.999934988125,0.296136987457,0.05,0.05,0.0,1.0,0.0,1.0,0,0,,,0
1449618010511075388,120,0,/odom,bcmd_vector,0,0,0,0.755401323529,0.344081305508,0.0,0.0,0.0,0.000834808665665,0.999999651547,0.296136987457,0.05,0.05,0.0,1.0,0.0,1.0,0,0,,,0
1449618010590505178,121,0,/odom,bcmd_vector,0,0,0,0.769034470202,0.348714613519,0.0,0.0,0.0,-0.0044492008992,0.999990102257,0.296136987457,0.05,0.05,0.0,1.0,0.0,1.0,0,0,,,0
1449618010609530571,122,0,/odom,bcmd_vector,0,0,0,0.785470148348,0.354043251172,0.0,0.0,0.0,-0.015016699822,0.999887243006,0.301724288712,0.05,0.05,0.0,1.0,0.0,1.0,0,0,,,0
1449618010659858906,123,0,/odom,bcmd_vector,0,0,0,0.799243314363,0.358242075919,0.0,0.0,0.0,0.00827004399485,0.999965802601,0.245851276169,0.05,0.05,0.0,1.0,0.0,1.0,0,0,,,0
1449618010675145065,124,0,/odom,bcmd_vector,0,0,0,0.80753337604,0.36067389842,0.0,0.0,0.0,0.00298610948877,0.999995541565,0.245851276169,0.05,0.05,0.0,1.0,0.0,1.0,0,0,,,0
1449618010710055451,125,0,/odom,bcmd_vector,0,0,0,0.80753337604,0.36067389842,0.0,0.0,0.0,0.00298610948877,0.999995541565,0.245851276169,0.05,0.05,0.0,1.0,0.0,1.0,0,0,,,0
1449618010752681136,126,0,/odom,bcmd_vector,0,0,0,0.818652849943,0.363681995521,0.0,0.0,0.0,-0.00758186211326,0.99997125727,0.245851276169,0.05,0.05,0.0,1.0,0.0,1.0,0,0,,,0
1449618010803981802,127,0,/odom,bcmd_vector,0,0,0,0.829772323847,0.366690092622,0.0,0.0,0.0,-0.0393178273726,0.999226755272,0.301724288712,0.05,0.05,0.0,1.0,0.0,1.0,0,0,,,0
1449618010831662362,128,0,/odom,bcmd_vector,0,0,0,0.849374155281,0.371393941662,0.0,0.0,0.0,-0.0551520395286,0.998477967977,0.301724288712,0.05,0.05,0.0,1.0,0.0,1.0,0,0,,,0
1449618010869552491,129,0,/odom,bcmd_vector,0,0,0,0.849374155281,0.371393941662,0.0,0.0,0.0,-0.0519819958011,0.998648022134,0.301724288712,0.05,0.05,0.0,1.0,0.0,1.0,0,0,,,0
1449618010958465173,130,0,/odom,bcmd_vector,0,0,0,0.857801651386,0.373295570615,0.0,0.0,0.0,-0.0572581260115,0.998359407731,0.301724288712,0.05,0.05,0.0,1.0,0.0,1.0,0,0,,,0
1449618010976878388,131,0,/odom,bcmd_vector,0,0,0,0.886073259778,0.378770347071,0.0,0.0,0.0,-0.0783451874525,0.996926291961,0.301724288712,0.05,0.05,0.0,1.0,0.0,1.0,0,0,,,0
1449618011034832219,132,0,/odom,bcmd_vector,0,0,0,0.886073259778,0.378770347071,0.0,0.0,0.0,-0.053003882752,0.998594306219,0.251438577423,0.05,0.05,0.0,1.0,0.0,1.0,0,0,,,0
1449618011056884966,133,0,/odom,bcmd_vector,0,0,0,0.897448004041,0.380588736746,0.0,0.0,0.0,-0.063553919752,0.997978406221,0.251438577423,0.05,0.05,0.0,1.0,0.0,1.0,0,0,,,0
1449618011066289254,134,0,/odom,bcmd_vector,0,0,0,0.908822748304,0.38240712642,0.0,0.0,0.0,-0.0920377689423,0.995755516725,0.301724288712,0.05,0.05,0.0,1.0,0.0,1.0,0,0,,,0
1449618011138509985,135,0,/odom,bcmd_vector,0,0,0,0.908822748304,0.38240712642,0.0,0.0,0.0,-0.0920377689423,0.995755516725,0.301724288712,0.05,0.05,0.0,1.0,0.0,1.0,0,0,,,0
1449618011158045104,136,0,/odom,bcmd_vector,0,0,0,0.925938699921,0.384773501998,0.0,0.0,0.0,-0.102555626332,0.994727270918,0.301724288712,0.05,0.05,0.0,1.0,0.0,1.0,0,0,,,0
1449618011186323220,137,0,/odom,bcmd_vector,0,0,0,0.937380127146,0.386109575026,0.0,0.0,0.0,-0.113062030041,0.993587931369,0.296136987457,0.05,0.05,0.0,1.0,0.0,1.0,0,0,,,0
1449618011282143055,138,0,/odom,bcmd_vector,0,0,0,0.937380127146,0.386109575026,0.0,0.0,0.0,-0.113062030041,0.993587931369,0.296136987457,0.05,0.05,0.0,1.0,0.0,1.0,0,0,,,0
1449618011291145985,139,0,/odom,bcmd_vector,0,0,0,0.963180161765,0.388570905744,0.0,0.0,0.0,-0.125648788423,0.992074786479,0.296136987457,0.05,0.05,0.0,1.0,0.0,1.0,0,0,,,0
1449618011310505526,140,0,/odom,bcmd_vector,0,0,0,0.963180161765,0.388570905744,0.0,0.0,0.0,-0.125648788423,0.992074786479,0.296136987457,0.05,0.05,0.0,1.0,0.0,1.0,0,0,,,0
1449618011398265513,141,0,/odom,bcmd_vector,0,0,0,0.963180161765,0.388570905744,0.0,0.0,0.0,-0.125648788423,0.992074786479,0.296136987457,0.05,0.05,0.0,1.0,0.0,1.0,0,0,,,0
1449618011413744380,142,0,/odom,bcmd_vector,0,0,0,0.989065343688,0.389818070025,0.0,0.0,0.0,-0.151812625536,0.988409291098,0.296136987457,0.05,0.05,0.0,1.0,0.0,1.0,0,0,,,0
1449618011436117480,143,0,/odom,bcmd_vector,0,0,0,0.989065343688,0.389818070025,0.0,0.0,0.0,-0.151812625536,0.988409291098,0.296136987457,0.05,0.05,0.0,1.0,0.0,1.0,0,0,,,0
1449618011496249930,144,0,/odom,bcmd_vector,0,0,0,1.00058387351,0.38993980294,0.0,0.0,0.0,-0.162249511194,0.986749763677,0.296136987457,0.05,0.05,0.0,1.0,0.0,1.0,0,0,,,0
1449618011520910177,145,0,/odom,bcmd_vector,0,0,0,1.00634313841,0.390000669398,0.0,0.0,0.0,-0.162249511194,0.986749763677,0.296136987457,0.05,0.05,0.0,1.0,0.0,1.0,0,0,,,0
1449618011551201468,146,0,/odom,bcmd_vector,0,0,0,1.01786166823,0.389878936483,0.0,0.0,0.0,-0.175794321622,0.984426917798,0.301724288712,0.05,0.05,0.0,1.0,0.0,1.0,0,0,,,0
1449618011642200840,147,0,/odom,bcmd_vector,0,0,0,1.01786166823,0.389878936483,0.0,0.0,0.0,-0.175794321622,0.984426917798,0.301724288712,0.05,0.05,0.0,1.0,0.0,1.0,0,0,,,0
1449618011657853313,148,0,/odom,bcmd_vector,0,0,0,1.04663725207,0.388814096329,0.0,0.0,0.0,-0.1965604504,0.98049170794,0.301724288712,0.05,0.05,0.0,1.0,0.0,1.0,0,0,,,0
1449618011665826461,149,0,/odom,bcmd_vector,0,0,0,1.04663725207,0.388814096329,0.0,0.0,0.0,-0.193446793247,0.98111076754,0.296136987457,0.05,0.05,0.0,1.0,0.0,1.0,0,0,,,0
1449618011749275840,150,0,/odom,bcmd_vector,0,0,0,1.04663725207,0.388814096329,0.0,0.0,0.0,-0.193446793247,0.98111076754,0.296136987457,0.05,0.05,0.0,1.0,0.0,1.0,0,0,,,0
1449618011762137432,151,0,/odom,bcmd_vector,0,0,0,1.06099828463,0.387780294179,0.0,0.0,0.0,-0.208974476479,0.977921095069,0.296136987457,0.05,0.05,0.0,1.0,0.0,1.0,0,0,,,0
1449618011782861345,152,0,/odom,bcmd_vector,0,0,0,1.07245319237,0.386565207069,0.0,0.0,0.0,-0.222393549228,0.974956978159,0.296136987457,0.05,0.05,0.0,1.0,0.0,1.0,0,0,,,0
1449618011825280939,153,0,/odom,bcmd_vector,0,0,0,1.07245319237,0.386565207069,0.0,0.0,0.0,-0.222393549228,0.974956978159,0.296136987457,0.05,0.05,0.0,1.0,0.0,1.0,0,0,,,0
1449618011865985339,154,0,/odom,bcmd_vector,0,0,0,1.08387986127,0.38510829734,0.0,0.0,0.0,-0.232684331504,0.97255231318,0.296136987457,0.05,0.05,0.0,1.0,0.0,1.0,0,0,,,0
1449618011907950970,155,0,/odom,bcmd_vector,0,0,0,1.09243783708,0.383925109551,0.0,0.0,0.0,-0.237820049313,0.971309231988,0.301724288712,0.05,0.05,0.0,1.0,0.0,1.0,0,0,,,0
1449618011950276323,156,0,/odom,bcmd_vector,0,0,0,1.10098283124,0.382651548411,0.0,0.0,0.0,-0.242949126985,0.970039031017,0.301724288712,0.05,0.05,0.0,1.0,0.0,1.0,0,0,,,0
1449618012011609435,157,0,/odom,bcmd_vector,0,0,0,1.10951388944,0.381287756155,0.0,0.0,0.0,-0.244994805996,0.96952439115,0.296136987457,0.05,0.05,0.0,1.0,0.0,1.0,0,0,,,0
1449618012024600426,158,0,/odom,bcmd_vector,0,0,0,1.12649586267,0.378110792005,0.0,0.0,0.0,-0.26543052042,0.964129990629,0.296136987457,0.05,0.05,0.0,1.0,0.0,1.0,0,0,,,0
1449618012064450113,159,0,/odom,bcmd_vector,0,0,0,1.12649586267,0.378110792005,0.0,0.0,0.0,-0.268489907708,0.963282497224,0.296136987457,0.05,0.05,0.0,1.0,0.0,1.0,0,0,,,0
1449618012123471503,160,0,/odom,bcmd_vector,0,0,0,1.13773252414,0.375575286734,0.0,0.0,0.0,-0.278654741717,0.960391344671,0.296136987457,0.05,0.05,0.0,1.0,0.0,1.0,0,0,,,0
1449618012140684234,161,0,/odom,bcmd_vector,0,0,0,1.15452487724,0.371505388116,0.0,0.0,0.0,-0.288788454836,0.957392933102,0.296136987457,0.05,0.05,0.0,1.0,0.0,1.0,0,0,,,0
1449618012218874973,162,0,/odom,bcmd_vector,0,0,0,1.15452487724,0.371505388116,0.0,0.0,0.0,-0.130681526247,0.991424398882,0.259819524059,0.05,0.05,0.0,1.0,0.0,1.0,0,0,,,0
1449618012244805879,163,0,/odom,bcmd_vector,0,0,0,1.17669776671,0.365254861015,0.0,0.0,0.0,-0.151605619803,0.988441063516,0.259819524059,0.05,0.05,0.0,1.0,0.0,1.0,0,0,,,0
1449618012265850804,164,0,/odom,bcmd_vector,0,0,0,1.17945239991,0.364415096065,0.0,0.0,0.0,-0.149768011863,0.988721165255,0.259819524059,0.05,0.05,0.0,1.0,0.0,1.0,0,0,,,0
1449618012330723097,165,0,/odom,bcmd_vector,0,0,0,1.17945239991,0.364415096065,0.0,0.0,0.0,-0.149768011863,0.988721165255,0.259819524059,0.05,0.05,0.0,1.0,0.0,1.0,0,0,,,0
1449618012366689294,166,0,/odom,bcmd_vector,0,0,0,1.19857736751,0.358043930293,0.0,0.0,0.0,-0.165421818489,0.986222906836,0.259819524059,0.05,0.05,0.0,1.0,0.0,1.0,0,0,,,0
1449618012391848240,167,0,/odom,bcmd_vector,0,0,0,1.20672742027,0.355177656879,0.0,0.0,0.0,-0.168284193326,0.985738520236,0.259819524059,0.05,0.05,0.0,1.0,0.0,1.0,0,0,,,0
1449618012461056798,168,0,/odom,bcmd_vector,0,0,0,1.20672742027,0.355177656879,0.0,0.0,0.0,-0.168284193326,0.985738520236,0.259819524059,0.05,0.05,0.0,1.0,0.0,1.0,0,0,,,0
1449618012478708496,169,0,/odom,bcmd_vector,0,0,0,1.2228587233,0.348988395366,0.0,0.0,0.0,-0.186741181641,0.982409146476,0.259819524059,0.05,0.05,0.0,1.0,0.0,1.0,0,0,,,0
1449618012507971338,170,0,/odom,bcmd_vector,0,0,0,1.23084601674,0.345695672072,0.0,0.0,0.0,-0.191929624341,0.98140869127,0.259819524059,0.05,0.05,0.0,1.0,0.0,1.0,0,0,,,0
1449618012585878387,171,0,/odom,bcmd_vector,0,0,0,1.23084601674,0.345695672072,0.0,0.0,0.0,-0.191929624341,0.98140869127,0.259819524059,0.05,0.05,0.0,1.0,0.0,1.0,0,0,,,0
1449618012606900727,172,0,/odom,bcmd_vector,0,0,0,1.24927947984,0.337537021617,0.0,0.0,0.0,-0.207462220703,0.978243030632,0.259819524059,0.05,0.05,0.0,1.0,0.0,1.0,0,0,,,0
1449618012685255816,173,0,/odom,bcmd_vector,0,0,0,1.25448097188,0.335063700465,0.0,0.0,0.0,-0.210811666534,0.977526695929,0.259819524059,0.05,0.05,0.0,1.0,0.0,1.0,0,0,,,0
1449618012706997002,174,0,/odom,bcmd_vector,0,0,0,1.2699656544,0.327397423355,0.0,0.0,0.0,-0.221130251955,0.975244283075,0.259819524059,0.05,0.05,0.0,1.0,0.0,1.0,0,0,,,0
1449618012730429305,175,0,/odom,bcmd_vector,0,0,0,1.2699656544,0.327397423355,0.0,0.0,0.0,-0.183826635315,0.982958680794,0.247248096237,0.05,0.05,0.0,1.0,0.0,1.0,0,0,,,0
1449618012747091985,176,0,/odom,bcmd_vector,0,0,0,1.27764636947,0.323441984163,0.0,0.0,0.0,-0.189018022442,0.981973618379,0.247248096237,0.05,0.05,0.0,1.0,0.0,1.0,0,0,,,0
1449618012795816371,177,0,/odom,bcmd_vector,0,0,0,1.27764636947,0.323441984163,0.0,0.0,0.0,-0.189018022442,0.981973618379,0.247248096237,0.05,0.05,0.0,1.0,0.0,1.0,0,0,,,0
1449618012884270232,178,0,/odom,bcmd_vector,0,0,0,1.28528485515,0.319405597187,0.0,0.0,0.0,-0.194204132026,0.980961138427,0.247248096237,0.05,0.05,0.0,1.0,0.0,1.0,0,0,,,0
1449618012904905735,179,0,/odom,bcmd_vector,0,0,0,1.30287482697,0.309559891714,0.0,0.0,0.0,-0.166080571612,0.98611218618,0.318486192474,0.05,0.05,0.0,1.0,0.0,1.0,0,0,,,0
1449618012913220797,180,0,/odom,bcmd_vector,0,0,0,1.30287482697,0.309559891714,0.0,0.0,0.0,-0.166080571612,0.98611218618,0.324073493729,0.05,0.05,0.0,1.0,0.0,1.0,0,0,,,0
1449618012990615080,181,0,/odom,bcmd_vector,0,0,0,1.30287482697,0.309559891714,0.0,0.0,0.0,-0.166080571612,0.98611218618,0.324073493729,0.05,0.05,0.0,1.0,0.0,1.0,0,0,,,0
1449618013016430278,182,0,/odom,bcmd_vector,0,0,0,1.31534037833,0.302353318092,0.0,0.0,0.0,-0.171288869603,0.985220849937,0.324073493729,0.05,0.05,0.0,1.0,0.0,1.0,0,0,,,0
1449618013030271448,183,0,/odom,bcmd_vector,0,0,0,1.3202519558,0.299345121986,0.0,0.0,0.0,-0.181690972709,0.983355678499,0.324073493729,0.05,0.05,0.0,1.0,0.0,1.0,0,0,,,0
1449618013063975379,184,0,/odom,bcmd_vector,0,0,0,1.3202519558,0.299345121986,0.0,0.0,0.0,-0.181690972709,0.983355678499,0.324073493729,0.05,0.05,0.0,1.0,0.0,1.0,0,0,,,0
1449618013117311751,185,0,/odom,bcmd_vector,0,0,0,1.32757122533,0.294755222564,0.0,0.0,0.0,-0.209443371266,0.977820778176,0.243057620296,0.05,0.05,0.0,1.0,0.0,1.0,0,0,,,0
1449618013155483208,186,0,/odom,bcmd_vector,0,0,0,1.33245073836,0.291695289616,0.0,0.0,0.0,-0.209443371266,0.977820778176,0.243057620296,0.05,0.05,0.0,1.0,0.0,1.0,0,0,,,0
1449618013234757436,187,0,/odom,bcmd_vector,0,0,0,1.33245073836,0.291695289616,0.0,0.0,0.0,-0.211770919977,0.977319332384,0.238867144356,0.05,0.05,0.0,1.0,0.0,1.0,0,0,,,0
1449618013257578648,188,0,/odom,bcmd_vector,0,0,0,1.34948011986,0.280908431648,0.0,0.0,0.0,-0.216932118675,0.976186691103,0.238867144356,0.05,0.05,0.0,1.0,0.0,1.0,0,0,,,0
1449618013266331672,189,0,/odom,bcmd_vector,0,0,0,1.35432702348,0.277797103599,0.0,0.0,0.0,-0.214607252097,0.976700428662,0.243057620296,0.05,0.05,0.0,1.0,0.0,1.0,0,0,,,0
1449618013303732148,190,0,/odom,bcmd_vector,0,0,0,1.35432702348,0.277797103599,0.0,0.0,0.0,-0.214607252097,0.976700428662,0.243057620296,0.05,0.05,0.0,1.0,0.0,1.0,0,0,,,0
1449618013383433040,191,0,/odom,bcmd_vector,0,0,0,1.36154765286,0.273053540098,0.0,0.0,0.0,-0.219765140911,0.975552808842,0.243057620296,0.05,0.05,0.0,1.0,0.0,1.0,0,0,,,0
1449618013412615578,192,0,/odom,bcmd_vector,0,0,0,1.37598891161,0.263566413094,0.0,0.0,0.0,-0.255993496434,0.966678503838,0.164835397491,0.05,0.05,0.0,1.0,0.0,1.0,0,0,,,0
1449618013478656771,193,0,/odom,bcmd_vector,0,0,0,1.38080266453,0.260404037426,0.0,0.0,0.0,-0.255993496434,0.966678503838,0.164835397491,0.05,0.05,0.0,1.0,0.0,1.0,0,0,,,0
1449618013520983221,194,0,/odom,bcmd_vector,0,0,0,1.38561641745,0.257241661758,0.0,0.0,0.0,-0.255993496434,0.966678503838,0.164835397491,0.05,0.05,0.0,1.0,0.0,1.0,0,0,,,0
1449618013596761156,195,0,/odom,bcmd_vector,0,0,0,1.4000576762,0.247754534754,0.0,0.0,0.0,-0.255993496434,0.966678503838,0.164835397491,0.05,0.05,0.0,1.0,0.0,1.0,0,0,,,0
1449618013626603580,196,0,/odom,bcmd_vector,0,0,0,1.40722777309,0.242934929596,0.0,0.0,0.0,-0.262629763783,0.964896682125,0.167629048119,0.05,0.05,0.0,1.0,0.0,1.0,0,0,,,0
1449618013663882093,197,0,/odom,bcmd_vector,0,0,0,1.41200783768,0.239721859491,0.0,0.0,0.0,-0.261097851631,0.965312339025,0.167629048119,0.05,0.05,0.0,1.0,0.0,1.0,0,0,,,0
1449618013727783541,198,0,/odom,bcmd_vector,0,0,0,1.41678790228,0.236508789386,0.0,0.0,0.0,-0.261097851631,0.965312339025,0.167629048119,0.05,0.05,0.0,1.0,0.0,1.0,0,0,,,0
1449618013766753399,199,0,/odom,bcmd_vector,0,0,0,1.43112809605,0.226869579071,0.0,0.0,0.0,-0.261097851631,0.965312339025,0.167629048119,0.05,0.05,0.0,1.0,0.0,1.0,0,0,,,0
1449618013823188799,200,0,/odom,bcmd_vector,0,0,0,1.43590816065,0.223656508966,0.0,0.0,0.0,-0.208646774788,0.977991065077,0.150867144356,0.05,0.05,0.0,1.0,0.0,1.0,0,0,,,0
1449618013843081167,201,0,/odom,bcmd_vector,0,0,0,1.44302692428,0.218761400419,0.0,0.0,0.0,-0.213811566535,0.976874922401,0.150867144356,0.05,0.05,0.0,1.0,0.0,1.0,0,0,,,0
1449618013863406639,202,0,/odom,bcmd_vector,0,0,0,1.4477727667,0.215497994721,0.0,0.0,0.0,-0.213811566535,0.976874922401,0.150867144356,0.05,0.05,0.0,1.0,0.0,1.0,0,0,,,0
1449618013895071412,203,0,/odom,bcmd_vector,0,0,0,1.4477727667,0.215497994721,0.0,0.0,0.0,-0.213811566535,0.976874922401,0.150867144356,0.05,0.05,0.0,1.0,0.0,1.0,0,0,,,0
1449618013961432936,204,0,/odom,bcmd_vector,0,0,0,1.45251860911,0.212234589023,0.0,0.0,0.0,-0.213811566535,0.976874922401,0.150867144356,0.05,0.05,0.0,1.0,0.0,1.0,0,0,,,0
1449618014005494785,205,0,/odom,bcmd_vector,0,0,0,1.46201029395,0.205707777627,0.0,0.0,0.0,-0.213811566535,0.976874922401,0.150867144356,0.05,0.05,0.0,1.0,0.0,1.0,0,0,,,0
1449618014057779228,206,0,/odom,bcmd_vector,0,0,0,1.46436583906,0.204051089214,0.0,0.0,0.0,-0.218970388483,0.975731504548,0.150867144356,0.05,0.05,0.0,1.0,0.0,1.0,0,0,,,0
1449618014080498749,207,0,/odom,bcmd_vector,0,0,0,1.46907692928,0.200737712389,0.0,0.0,0.0,-0.195678815879,0.980668038133,0.192771909008,0.05,0.05,0.0,1.0,0.0,1.0,0,0,,,0
1449618014112204675,208,0,/odom,bcmd_vector,0,0,0,1.47378801949,0.197424335564,0.0,0.0,0.0,-0.15096503328,0.988539103287,0.328263969669,0.05,0.05,0.0,1.0,0.0,1.0,0,0,,,0
1449618014139116281,209,0,/odom,bcmd_vector,0,0,0,1.47378801949,0.197424335564,0.0,0.0,0.0,-0.14290810393,0.989735961674,0.326867144356,0.05,0.05,0.0,1.0,0.0,1.0,0,0,,,0
1449618014225885539,210,0,/odom,bcmd_vector,0,0,0,1.47378801949,0.197424335564,0.0,0.0,0.0,-0.14290810393,0.989735961674,0.326867144356,0.05,0.05,0.0,1.0,0.0,1.0,0,0,,,0
1449618014244843017,211,0,/odom,bcmd_vector,0,0,0,1.48321019993,0.190797581913,0.0,0.0,0.0,-0.14290810393,0.989735961674,0.326867144356,0.05,0.05,0.0,1.0,0.0,1.0,0,0,,,0
1449618014338287993,212,0,/odom,bcmd_vector,0,0,0,1.48321019993,0.190797581913,0.0,0.0,0.0,-0.127180667272,0.99187956823,0.35201,0.05,0.05,0.0,1.0,0.0,1.0,0,0,,,0
1449618014446060735,213,0,/odom,bcmd_vector,0,0,0,1.49263238036,0.184170828262,0.0,0.0,0.0,-0.127180667272,0.99187956823,0.35201,0.05,0.05,0.0,1.0,0.0,1.0,0,0,,,0
1449618014478823501,214,0,/odom,bcmd_vector,0,0,0,1.49971639178,0.179225748588,0.0,0.0,0.0,-0.121937800384,0.992537743785,0.35201,0.05,0.05,0.0,1.0,0.0,1.0,0,0,,,0
1449618014567077444,215,0,/odom,bcmd_vector,0,0,0,1.50207193689,0.177569060175,0.0,0.0,0.0,-0.129044876349,0.991638754733,0.339438572178,0.05,0.05,0.0,1.0,0.0,1.0,0,0,,,0
1449618014595535997,216,0,/odom,bcmd_vector,0,0,0,1.50919070052,0.172673951628,0.0,0.0,0.0,-0.12459076184,0.992208215076,0.339438572178,0.05,0.05,0.0,1.0,0.0,1.0,0,0,,,0
1449618014615532405,217,0,/odom,bcmd_vector,0,0,0,1.50919070052,0.172673951628,0.0,0.0,0.0,-0.12459076184,0.992208215076,0.339438572178,0.05,0.05,0.0,1.0,0.0,1.0,0,0,,,0
1449618014660351257,218,0,/odom,bcmd_vector,0,0,0,1.51393654294,0.16941054593,0.0,0.0,0.0,-0.123803255894,0.99230678413,0.339438572178,0.05,0.05,0.0,1.0,0.0,1.0,0,0,,,0
1449618014682752406,219,0,/odom,bcmd_vector,0,0,0,1.51632657524,0.167804010878,0.0,0.0,0.0,-0.118558178747,0.99294710748,0.339438572178,0.05,0.05,0.0,1.0,0.0,1.0,0,0,,,0
1449618014744176419,220,0,/odom,bcmd_vector,0,0,0,1.52354720461,0.163060447376,0.0,0.0,0.0,-0.113309791355,0.993559706904,0.339438572178,0.05,0.05,0.0,1.0,0.0,1.0,0,0,,,0
1449618014766923845,221,0,/odom,bcmd_vector,0,0,0,1.52836095753,0.159898071708,0.0,0.0,0.0,-0.114098294989,0.993469465601,0.338041746864,0.05,0.05,0.0,1.0,0.0,1.0,0,0,,,0
1449618014799324423,222,0,/odom,bcmd_vector,0,0,0,1.53317471045,0.15673569604,0.0,0.0,0.0,-0.116753775275,0.993160891275,0.324073493729,0.05,0.05,0.0,1.0,0.0,1.0,0,0,,,0
1449618014833012593,223,0,/odom,bcmd_vector,0,0,0,1.54044506589,0.152068703967,0.0,0.0,0.0,-0.108847209719,0.994058491708,0.338041746864,0.05,0.05,0.0,1.0,0.0,1.0,0,0,,,0
1449618014934135309,224,0,/odom,bcmd_vector,0,0,0,1.54044506589,0.152068703967,0.0,0.0,0.0,-0.108058240257,0.994144565298,0.339438572178,0.05,0.05,0.0,1.0,0.0,1.0,0,0,,,0
1449618015049551665,225,0,/odom,bcmd_vector,0,0,0,1.56001121465,0.139906577438,0.0,0.0,0.0,-0.0975462335414,0.995230994454,0.339438572178,0.05,0.05,0.0,1.0,0.0,1.0,0,0,,,0
1449618015095037684,226,0,/odom,bcmd_vector,0,0,0,1.58483505495,0.12530937127,0.0,0.0,0.0,-0.0931387086899,0.995653142888,0.314295716534,0.05,0.05,0.0,1.0,0.0,1.0,0,0,,,0
1449618015129370981,227,0,/odom,bcmd_vector,0,0,0,1.58986936991,0.122511423824,0.0,0.0,0.0,-0.0764907126795,0.997070293848,0.339438572178,0.05,0.05,0.0,1.0,0.0,1.0,0,0,,,0
1449618015182450525,228,0,/odom,bcmd_vector,0,0,0,1.60252837524,0.11564995055,0.0,0.0,0.0,-0.0825907975364,0.996583543995,0.314295716534,0.05,0.05,0.0,1.0,0.0,1.0,0,0,,,0
1449618015237048807,229,0,/odom,bcmd_vector,0,0,0,1.61016686092,0.111613563575,0.0,0.0,0.0,-0.0773236973347,0.99700604102,0.314295716534,0.05,0.05,0.0,1.0,0.0,1.0,0,0,,,0
1449618015266791326,230,0,/odom,bcmd_vector,0,0,0,1.62046297648,0.106448164034,0.0,0.0,0.0,-0.0677834022463,0.997700060329,0.326867144356,0.05,0.05,0.0,1.0,0.0,1.0,0,0,,,0
1449618015341924083,231,0,/odom,bcmd_vector,0,0,0,1.62822557232,0.102655936579,0.0,0.0,0.0,-0.0625106090901,0.998044299493,0.326867144356,0.05,0.05,0.0,1.0,0.0,1.0,0,0,,,0
1449618015384498579,232,0,/odom,bcmd_vector,0,0,0,1.64907031135,0.0928453120384,0.0,0.0,0.0,-0.0519599339996,0.998649170259,0.326867144356,0.05,0.05,0.0,1.0,0.0,1.0,0,0,,,0
1449618015431699615,233,0,/odom,bcmd_vector,0,0,0,1.65694921541,0.0893010555535,0.0,0.0,0.0,-0.07444991954,0.997224753744,0.302243253062,0.05,0.05,0.0,1.0,0.0,1.0,0,0,,,0
1449618015455542853,234,0,/odom,bcmd_vector,0,0,0,1.6675519493,0.0847984582751,0.0,0.0,0.0,-0.0639072385809,0.99795584314,0.302243253062,0.05,0.05,0.0,1.0,0.0,1.0,0,0,,,0
1449618015500690710,235,0,/odom,bcmd_vector,0,0,0,1.68086410504,0.0793105861185,0.0,0.0,0.0,-0.0796350151115,0.996824088979,0.295010460112,0.05,0.05,0.0,1.0,0.0,1.0,0,0,,,0
1449618015558411821,236,0,/odom,bcmd_vector,0,0,0,1.68888574948,0.0761024552293,0.0,0.0,0.0,-0.0743666851342,0.997230964292,0.295010460112,0.05,0.05,0.0,1.0,0.0,1.0,0,0,,,0
1449618015617004488,237,0,/odom,bcmd_vector,0,0,0,1.70778859684,0.0690997057334,0.0,0.0,0.0,-0.0577445824248,0.99833138947,0.288635362913,0.05,0.05,0.0,1.0,0.0,1.0,0,0,,,0
1449618015689447394,238,0,/odom,bcmd_vector,0,0,0,1.7159386496,0.0662334323187,0.0,0.0,0.0,-0.0524685934718,0.998622574699,0.288635362913,0.05,0.05,0.0,1.0,0.0,1.0,0,0,,,0
1449618015741557239,239,0,/odom,bcmd_vector,0,0,0,1.73778060597,0.0589067385833,0.0,0.0,0.0,-0.0391336228563,0.999233986393,0.284061548799,0.05,0.05,0.0,1.0,0.0,1.0,0,0,,,0
1449618015820466663,240,0,/odom,bcmd_vector,0,0,0,1.74879913878,0.0555476787851,0.0,0.0,0.0,-0.0522089601093,0.998636182243,0.274855079236,0.05,0.05,0.0,1.0,0.0,1.0,0,0,,,0
1449618015889685111,241,0,/odom,bcmd_vector,0,0,0,1.76540449835,0.0507717777256,0.0,0.0,0.0,-0.041652605347,0.999132153655,0.274855079236,0.05,0.05,0.0,1.0,0.0,1.0,0,0,,,0
1449618015997439852,242,0,/odom,bcmd_vector,0,0,0,1.78494056418,0.0458020422317,0.0,0.0,0.0,-0.0258097195151,0.999666873703,0.274855079236,0.05,0.05,0.0,1.0,0.0,1.0,0,0,,,0
1449618016102834120,243,0,/odom,bcmd_vector,0,0,0,1.8017612785,0.0418505270894,0.0,0.0,0.0,-0.0391205535752,0.999234498147,0.286494574513,0.05,0.05,0.0,1.0,0.0,1.0,0,0,,,0
1449618016142992064,244,0,/odom,bcmd_vector,0,0,0,1.82997250473,0.0360774719502,0.0,0.0,0.0,-0.0305572906083,0.999533016959,0.278087998427,0.05,0.05,0.0,1.0,0.0,1.0,0,0,,,0
1449618016227280747,245,0,/odom,bcmd_vector,0,0,0,1.84130627755,0.0340190886273,0.0,0.0,0.0,-0.0305572906083,0.999533016959,0.278087998427,0.05,0.05,0.0,1.0,0.0,1.0,0,0,,,0
1449618016251251984,246,0,/odom,bcmd_vector,0,0,0,1.85553832625,0.031836383421,0.0,0.0,0.0,-0.00213130574712,0.999997728765,0.350613174686,0.05,0.05,0.0,1.0,0.0,1.0,0,0,,,0
1449618016310663923,247,0,/odom,bcmd_vector,0,0,0,1.86409630206,0.0306531956321,0.0,0.0,0.0,-0.0102314470951,0.999947657375,0.343629048119,0.05,0.05,0.0,1.0,0.0,1.0,0,0,,,0
1449618016338704957,248,0,/odom,bcmd_vector,0,0,0,1.86980161927,0.0298644037728,0.0,0.0,0.0,-0.0102314470951,0.999947657375,0.343629048119,0.05,0.05,0.0,1.0,0.0,1.0,0,0,,,0
1449618016370590347,249,0,/odom,bcmd_vector,0,0,0,1.87837162094,0.0287717214761,0.0,0.0,0.0,-0.00973228223253,0.99995264022,0.350613174686,0.05,0.05,0.0,1.0,0.0,1.0,0,0,,,0
1449618016485480082,250,0,/odom,bcmd_vector,0,0,0,1.88695269136,0.0277696667053,0.0,0.0,0.0,-0.004448396863,0.999990105834,0.350613174686,0.05,0.05,0.0,1.0,0.0,1.0,0,0,,,0
1449618016538878255,251,0,/odom,bcmd_vector,0,0,0,1.91275272598,0.0253083359876,0.0,0.0,0.0,0.0114034143282,0.999934978957,0.350613174686,0.05,0.05,0.0,1.0,0.0,1.0,0,0,,,0
1449618016568573993,252,0,/odom,bcmd_vector,0,0,0,1.92136847706,0.0246698090454,0.0,0.0,0.0,-0.000689089479152,0.999999762578,0.350613174686,0.05,0.05,0.0,1.0,0.0,1.0,0,0,,,0
1449618016604970663,253,0,/odom,bcmd_vector,0,0,0,1.92711231111,0.0242441244172,0.0,0.0,0.0,-0.000689089479151,0.999999762578,0.350613174686,0.05,0.05,0.0,1.0,0.0,1.0,0,0,,,0
1449618016684190603,254,0,/odom,bcmd_vector,0,0,0,1.93573432893,0.0236966831132,0.0,0.0,0.0,0.00459491863809,0.999989443306,0.350613174686,0.05,0.05,0.0,1.0,0.0,1.0,0,0,,,0
1449618016707304701,255,0,/odom,bcmd_vector,0,0,0,1.94723887121,0.0231186896576,0.0,0.0,0.0,-0.000626490154215,0.999999803755,0.338041746864,0.05,0.05,0.0,1.0,0.0,1.0,0,0,,,0
1449618016736619151,256,0,/odom,bcmd_vector,0,0,0,1.94723887121,0.0231186896576,0.0,0.0,0.0,0.0104426602016,0.999945473937,0.35201,0.05,0.05,0.0,1.0,0.0,1.0,0,0,,,0
1449618016843421977,257,0,/odom,bcmd_vector,0,0,0,1.95587390942,0.0228448313824,0.0,0.0,0.0,0.0157262260538,0.999876335261,0.35201,0.05,0.05,0.0,1.0,0.0,1.0,0,0,,,0
1449618016888447835,258,0,/odom,bcmd_vector,0,0,0,1.97314655861,0.0224188205575,0.0,0.0,0.0,0.0152249945727,0.999884093053,0.349216349373,0.05,0.05,0.0,1.0,0.0,1.0,0,0,,,0
1449618016953237747,259,0,/odom,bcmd_vector,0,0,0,1.99330446823,0.0222970876418,0.0,0.0,0.0,0.0105261213988,0.99994459885,0.35201,0.05,0.05,0.0,1.0,0.0,1.0,0,0,,,0
1449618017099737867,260,0,/odom,bcmd_vector,0,0,0,1.99906405476,0.0222970876418,0.0,0.0,0.0,-0.00108604860759,0.999999410249,0.346422698746,0.05,0.05,0.0,1.0,0.0,1.0,0,0,,,0
1449618017132269786,261,0,/odom,bcmd_vector,0,0,0,2.0364920406,0.0230882870169,0.0,0.0,0.0,0.00315365436357,0.99999502722,0.340835397491,0.05,0.05,0.0,1.0,0.0,1.0,0,0,,,0
1449618017150616568,262,0,/odom,bcmd_vector,0,0,0,2.05087814381,0.0236967816639,0.0,0.0,0.0,0.00843758381285,0.999964402956,0.340835397491,0.05,0.05,0.0,1.0,0.0,1.0,0,0,,,0
1449618017189335792,263,0,/odom,bcmd_vector,0,0,0,2.05087814381,0.0236967816639,0.0,0.0,0.0,0.00843758381285,0.999964402956,0.340835397491,0.05,0.05,0.0,1.0,0.0,1.0,0,0,,,0
1449618017276656426,264,0,/odom,bcmd_vector,0,0,0,2.05663258509,0.0239401795227,0.0,0.0,0.0,0.00843758381285,0.999964402956,0.340835397491,0.05,0.05,0.0,1.0,0.0,1.0,0,0,,,0
1449618017281566169,265,0,/odom,bcmd_vector,0,0,0,2.08251455,0.0253090631013,0.0,0.0,0.0,0.0168955080732,0.999857260716,0.290549686203,0.05,0.05,0.0,1.0,0.0,1.0,0,0,,,0
1449618017368582863,266,0,/odom,bcmd_vector,0,0,0,2.08251455,0.0253090631013,0.0,0.0,0.0,0.0168955080732,0.999857260716,0.290549686203,0.05,0.05,0.0,1.0,0.0,1.0,0,0,,,0
1449618017382182487,267,0,/odom,bcmd_vector,0,0,0,2.11699217671,0.0276506377145,0.0,0.0,0.0,0.0274609081281,0.999622878152,0.346422698746,0.05,0.05,0.0,1.0,0.0,1.0,0,0,,,0
1449618017391967807,268,0,/odom,bcmd_vector,0,0,0,2.11699217671,0.0276506377145,0.0,0.0,0.0,0.0274609081281,0.999622878152,0.346422698746,0.05,0.05,0.0,1.0,0.0,1.0,0,0,,,0
1449618017427535128,269,0,/odom,bcmd_vector,0,0,0,2.11699217671,0.0276506377145,0.0,0.0,0.0,0.0274609081281,0.999622878152,0.346422698746,0.05,0.05,0.0,1.0,0.0,1.0,0,0,,,0
1449618017517102610,270,0,/odom,bcmd_vector,0,0,0,2.12273601076,0.0280763223427,0.0,0.0,0.0,0.0274609081281,0.999622878152,0.301724288712,0.05,0.05,0.0,1.0,0.0,1.0,0,0,,,0
1449618017533736899,271,0,/odom,bcmd_vector,0,0,0,2.14856157707,0.0302649461468,0.0,0.0,0.0,0.0327425318023,0.999463819561,0.301724288712,0.05,0.05,0.0,1.0,0.0,1.0,0,0,,,0
1449618017549624250,272,0,/odom,bcmd_vector,0,0,0,2.15716190878,0.0310854202636,0.0,0.0,0.0,0.0348507469727,0.999392528207,0.346422698746,0.05,0.05,0.0,1.0,0.0,1.0,0,0,,,0
1449618017588857238,273,0,/odom,bcmd_vector,0,0,0,2.15716190878,0.0310854202636,0.0,0.0,0.0,0.0348507469727,0.999392528207,0.346422698746,0.05,0.05,0.0,1.0,0.0,1.0,0,0,,,0
1449618017628243292,274,0,/odom,bcmd_vector,0,0,0,2.16862901773,0.0321793857526,0.0,0.0,0.0,0.0348507469727,0.999392528207,0.346422698746,0.05,0.05,0.0,1.0,0.0,1.0,0,0,,,0
1449618017680188670,275,0,/odom,bcmd_vector,0,0,0,2.18294765241,0.0336982446407,0.0,0.0,0.0,0.0401310503125,0.999194424925,0.346422698746,0.05,0.05,0.0,1.0,0.0,1.0,0,0,,,0
1449618017705122521,276,0,/odom,bcmd_vector,0,0,0,2.20297689031,0.0359758794806,0.0,0.0,0.0,0.0454102331593,0.998968423287,0.346422698746,0.05,0.05,0.0,1.0,0.0,1.0,0,0,,,0
1449618017748521063,277,0,/odom,bcmd_vector,0,0,0,2.20297689031,0.0359758794806,0.0,0.0,0.0,0.0485813278912,0.998819230181,0.346422698746,0.05,0.05,0.0,1.0,0.0,1.0,0,0,,,0
1449618017800911657,278,0,/odom,bcmd_vector,0,0,0,2.21441831753,0.0373119525083,0.0,0.0,0.0,0.0485813278912,0.998819230181,0.346422698746,0.05,0.05,0.0,1.0,0.0,1.0,0,0,,,0
1449618017833211206,279,0,/odom,bcmd_vector,0,0,0,2.23730117198,0.0399840985638,0.0,0.0,0.0,0.0485813278912,0.998819230181,0.346422698746,0.05,0.05,0.0,1.0,0.0,1.0,0,0,,,0
1449618017912607992,280,0,/odom,bcmd_vector,0,0,0,2.23730117198,0.0399840985638,0.0,0.0,0.0,0.0422386815229,0.999107548657,0.340835397491,0.05,0.05,0.0,1.0,0.0,1.0,0,0,,,0
1449618017922106552,281,0,/odom,bcmd_vector,0,0,0,2.25446331282,0.0419882081054,0.0,0.0,0.0,0.0422386815229,0.999107548657,0.340835397491,0.05,0.05,0.0,1.0,0.0,1.0,0,0,,,0
1449618017952263647,282,0,/odom,bcmd_vector,0,0,0,2.26874664894,0.0438093452666,0.0,0.0,0.0,0.0318239705716,0.999493489172,0.19758992378,0.05,0.05,0.0,1.0,0.0,1.0,0,0,,,0
1449618018030877935,283,0,/odom,bcmd_vector,0,0,0,2.26874664894,0.0438093452666,0.0,0.0,0.0,0.0318239705716,0.999493489172,0.19758992378,0.05,0.05,0.0,1.0,0.0,1.0,0,0,,,0
1449618018050058850,284,0,/odom,bcmd_vector,0,0,0,2.28588665228,0.0459947098599,0.0,0.0,0.0,0.0318239705716,0.999493489172,0.19758992378,0.05,0.05,0.0,1.0,0.0,1.0,0,0,,,0
1449618018093118445,285,0,/odom,bcmd_vector,0,0,0,2.3001499453,0.0479666895081,0.0,0.0,0.0,0.0371048496442,0.999311377966,0.191848695931,0.05,0.05,0.0,1.0,0.0,1.0,0,0,,,0
1449618018151347397,286,0,/odom,bcmd_vector,0,0,0,2.31156057971,0.0495442732267,0.0,0.0,0.0,0.0371048496442,0.999311377966,0.191848695931,0.05,0.05,0.0,1.0,0.0,1.0,0,0,,,0
1449618018217430036,287,0,/odom,bcmd_vector,0,0,0,2.32013058138,0.0506369555234,0.0,0.0,0.0,0.0318239705716,0.999493489172,0.18324718959,0.05,0.05,0.0,1.0,0.0,1.0,0,0,,,0
1449618018267190905,288,0,/odom,bcmd_vector,0,0,0,2.34580450881,0.0541865188902,0.0,0.0,0.0,0.0371048496442,0.999311377966,0.18324718959,0.05,0.05,0.0,1.0,0.0,1.0,0,0,,,0
1449618018296472987,289,0,/odom,bcmd_vector,0,0,0,2.35150982601,0.0549753107495,0.0,0.0,0.0,0.0371048496442,0.999311377966,0.17656503263,0.05,0.05,0.0,1.0,0.0,1.0,0,0,,,0
1449618018350912076,290,0,/odom,bcmd_vector,0,0,0,2.36292046043,0.0565528944681,0.0,0.0,0.0,0.0160600470226,0.999871029128,0.165117384714,0.05,0.05,0.0,1.0,0.0,1.0,0,0,,,0
1449618018371334324,291,0,/odom,bcmd_vector,0,0,0,2.37716211737,0.0586754963676,0.0,0.0,0.0,0.0213431410873,0.99977220922,0.165117384714,0.05,0.05,0.0,1.0,0.0,1.0,0,0,,,0
1449618018452897594,292,0,/odom,bcmd_vector,0,0,0,2.38572009318,0.0598586841565,0.0,0.0,0.0,0.0160600470226,0.999871029128,0.35201,0.05,0.05,0.0,1.0,0.0,1.0,0,0,,,0
1449618018541058528,293,0,/odom,bcmd_vector,0,0,0,2.4056584129,0.0628303268158,0.0,0.0,0.0,0.0213431410873,0.99977220922,0.35201,0.05,0.05,0.0,1.0,0.0,1.0,0,0,,,0
1449618018575390227,294,0,/odom,bcmd_vector,0,0,0,2.42276138288,0.0652870757444,0.0,0.0,0.0,0.000292130242132,0.99999995733,0.35201,0.05,0.05,0.0,1.0,0.0,1.0,0,0,,,0
1449618018626820537,295,0,/odom,bcmd_vector,0,0,0,2.42845804565,0.0661361165042,0.0,0.0,0.0,0.000292130242132,0.99999995733,0.35201,0.05,0.05,0.0,1.0,0.0,1.0,0,0,,,0
1449618018659797214,296,0,/odom,bcmd_vector,0,0,0,2.43985137121,0.0678341980238,0.0,0.0,0.0,0.000292130242132,0.99999995733,0.35201,0.05,0.05,0.0,1.0,0.0,1.0,0,0,,,0
1449618018696506858,297,0,/odom,bcmd_vector,0,0,0,2.45124469676,0.0695322795434,0.0,0.0,0.0,0.000292130242132,0.99999995733,0.35201,0.05,0.05,0.0,1.0,0.0,1.0,0,0,,,0
1449618018731601905,298,0,/odom,bcmd_vector,0,0,0,2.45694135954,0.0703813203032,0.0,0.0,0.0,0.000292130242132,0.99999995733,0.35201,0.05,0.05,0.0,1.0,0.0,1.0,0,0,,,0
1449618018807140315,299,0,/odom,bcmd_vector,0,0,0,2.46263802232,0.071230361063,0.0,0.0,0.0,0.000292130242132,0.99999995733,0.35201,0.05,0.05,0.0,1.0,0.0,1.0,0,0,,,0
1449618018870377484,300,0,/odom,bcmd_vector,0,0,0,2.47972801065,0.0737774833424,0.0,0.0,0.0,0.000292130242132,0.99999995733,0.35201,0.05,0.05,0.0,1.0,0.0,1.0,0,0,,,0
1449618018931852450,301,0,/odom,bcmd_vector,0,0,0,2.48542467343,0.0746265241021,0.0,0.0,0.0,0.000292130242132,0.99999995733,0.35201,0.05,0.05,0.0,1.0,0.0,1.0,0,0,,,0
1449618018959113423,302,0,/odom,bcmd_vector,0,0,0,2.50250072579,0.0772638774976,0.0,0.0,0.0,0.000292130242132,0.99999995733,0.35201,0.05,0.05,0.0,1.0,0.0,1.0,0,0,,,0
1449618019015391623,303,0,/odom,bcmd_vector,0,0,0,2.50819738857,0.0781129182574,0.0,0.0,0.0,0.000292130242132,0.99999995733,0.35201,0.05,0.05,0.0,1.0,0.0,1.0,0,0,,,0
1449618019095273537,304,0,/odom,bcmd_vector,0,0,0,2.51389405135,0.0789619590172,0.0,0.0,0.0,0.000292130242132,0.99999995733,0.35201,0.05,0.05,0.0,1.0,0.0,1.0,0,0,,,0
1449618019139034987,305,0,/odom,bcmd_vector,0,0,0,2.53098403968,0.0815090812966,0.0,0.0,0.0,0.000292130242132,0.99999995733,0.35201,0.05,0.05,0.0,1.0,0.0,1.0,0,0,,,0
1449618019164384679,306,0,/odom,bcmd_vector,0,0,0,2.53954201549,0.0826922690855,0.0,0.0,0.0,-0.00499187336247,0.999987540523,0.350165155705,0.05,0.05,0.0,1.0,0.0,1.0,0,0,,,0
1449618019213856590,307,0,/odom,bcmd_vector,0,0,0,2.54808700966,0.0839658302252,0.0,0.0,0.0,0.000292130242132,0.99999995733,0.350165155705,0.05,0.05,0.0,1.0,0.0,1.0,0,0,,,0
1449618019234041926,308,0,/odom,bcmd_vector,0,0,0,2.55378367244,0.084814870985,0.0,0.0,0.0,0.000292130242132,0.99999995733,0.350165155705,0.05,0.05,0.0,1.0,0.0,1.0,0,0,,,0
1449618019270211638,309,0,/odom,bcmd_vector,0,0,0,2.55378367244,0.084814870985,0.0,0.0,0.0,0.0707425987328,0.997494603857,0.346422698746,0.05,0.05,0.0,1.0,0.0,1.0,0,0,,,0
1449618019303679447,310,0,/odom,bcmd_vector,0,0,0,2.56234164824,0.085998058774,0.0,0.0,0.0,0.0654708498969,0.997854482284,0.346422698746,0.05,0.05,0.0,1.0,0.0,1.0,0,0,,,0
1449618019343868141,311,0,/odom,bcmd_vector,0,0,0,2.57375228266,0.0875756424925,0.0,0.0,0.0,0.0654708498969,0.997854482284,0.346422698746,0.05,0.05,0.0,1.0,0.0,1.0,0,0,,,0
1449618019383559279,312,0,/odom,bcmd_vector,0,0,0,2.58232228433,0.0886683247892,0.0,0.0,0.0,0.126560037663,0.991958949184,0.329660794983,0.05,0.05,0.0,1.0,0.0,1.0,0,0,,,0
1449618019438920823,313,0,/odom,bcmd_vector,0,0,0,2.58803561878,0.0893967796537,0.0,0.0,0.0,0.126560037663,0.991958949184,0.329660794983,0.05,0.05,0.0,1.0,0.0,1.0,0,0,,,0
1449618019496691734,314,0,/odom,bcmd_vector,0,0,0,2.59946228768,0.0908536893826,0.0,0.0,0.0,0.110467256846,0.993879763938,0.318019205817,0.05,0.05,0.0,1.0,0.0,1.0,0,0,,,0
1449618019518584102,315,0,/odom,bcmd_vector,0,0,0,2.61948478532,0.0931918171811,0.0,0.0,0.0,0.10521405425,0.994449597912,0.316154502915,0.05,0.05,0.0,1.0,0.0,1.0,0,0,,,0
1449618019556459575,316,0,/odom,bcmd_vector,0,0,0,2.62807596612,0.094103132514,0.0,0.0,0.0,0.099957913989,0.994991666011,0.313360852288,0.05,0.05,0.0,1.0,0.0,1.0,0,0,,,0
1449618019601015740,317,0,/odom,bcmd_vector,0,0,0,2.62807596612,0.094103132514,0.0,0.0,0.0,0.099957913989,0.994991666011,0.313360852288,0.05,0.05,0.0,1.0,0.0,1.0,0,0,,,0
1449618019634583559,318,0,/odom,bcmd_vector,0,0,0,2.64814340678,0.0960175721198,0.0,0.0,0.0,0.0946989828179,0.995505953098,0.259319813263,0.05,0.05,0.0,1.0,0.0,1.0,0,0,,,0
1449618019703029235,319,0,/odom,bcmd_vector,0,0,0,2.64814340678,0.0960175721198,0.0,0.0,0.0,0.0946989828179,0.995505953098,0.259319813263,0.05,0.05,0.0,1.0,0.0,1.0,0,0,,,0
1449618019726362282,320,0,/odom,bcmd_vector,0,0,0,2.66821903783,0.0978410788769,0.0,0.0,0.0,0.0894374075709,0.995992444814,0.257434589607,0.05,0.05,0.0,1.0,0.0,1.0,0,0,,,0
1449618019750325473,321,0,/odom,bcmd_vector,0,0,0,2.6796970673,0.0988138005676,0.0,0.0,0.0,0.0910182345314,0.995849226029,0.252710759614,0.05,0.05,0.0,1.0,0.0,1.0,0,0,,,0
1449618019796150871,322,0,/odom,bcmd_vector,0,0,0,2.6796970673,0.0988138005676,0.0,0.0,0.0,0.0910182345314,0.995849226029,0.252710759614,0.05,0.05,0.0,1.0,0.0,1.0,0,0,,,0
1449618019836168813,323,0,/odom,bcmd_vector,0,0,0,2.69117509677,0.0997865222584,0.0,0.0,0.0,0.0910182345314,0.995849226029,0.252710759614,0.05,0.05,0.0,1.0,0.0,1.0,0,0,,,0
1449618019876610370,324,0,/odom,bcmd_vector,0,0,0,2.69979084785,0.100425049201,0.0,0.0,0.0,0.0841733351555,0.996451127577,0.25361567642,0.05,0.05,0.0,1.0,0.0,1.0,0,0,,,0
1449618019911081791,325,0,/odom,bcmd_vector,0,0,0,2.71127851595,0.101276418457,0.0,0.0,0.0,0.0841733351555,0.996451127577,0.248417662455,0.05,0.05,0.0,1.0,0.0,1.0,0,0,,,0
1449618019959754799,326,0,/odom,bcmd_vector,0,0,0,2.72276618406,0.102127787713,0.0,0.0,0.0,0.0841733351555,0.996451127577,0.246998829499,0.05,0.05,0.0,1.0,0.0,1.0,0,0,,,0
1449618019994602794,327,0,/odom,bcmd_vector,0,0,0,2.73713203593,0.103100913645,0.0,0.0,0.0,0.0804891647493,0.996755483736,0.246998829499,0.05,0.05,0.0,1.0,0.0,1.0,0,0,,,0
1449618020057241117,328,0,/odom,bcmd_vector,0,0,0,2.73713203593,0.103100913645,0.0,0.0,0.0,0.0804891647493,0.996755483736,0.245108126907,0.05,0.05,0.0,1.0,0.0,1.0,0,0,,,0
1449618020084575154,329,0,/odom,bcmd_vector,0,0,0,2.75437607157,0.104195796254,0.0,0.0,0.0,0.0789069125493,0.996881988578,0.242274310311,0.05,0.05,0.0,1.0,0.0,1.0,0,0,,,0
1449618020113101743,330,0,/odom,bcmd_vector,0,0,0,2.76300339321,0.10465209078,0.0,0.0,0.0,0.0736382867951,0.997285015789,0.240855755609,0.05,0.05,0.0,1.0,0.0,1.0,0,0,,,0
1449618020147728801,331,0,/odom,bcmd_vector,0,0,0,2.76300339321,0.10465209078,0.0,0.0,0.0,0.0752211853578,0.997166873333,0.236171803625,0.05,0.05,0.0,1.0,0.0,1.0,0,0,,,0
1449618020197639117,332,0,/odom,bcmd_vector,0,0,0,2.77450648872,0.105260483481,0.0,0.0,0.0,0.0752211853578,0.997166873333,0.236171803625,0.05,0.05,0.0,1.0,0.0,1.0,0,0,,,0
1449618020229662229,333,0,/odom,bcmd_vector,0,0,0,2.78025803648,0.105564679832,0.0,0.0,0.0,0.0752211853578,0.997166873333,0.235227137621,0.05,0.05,0.0,1.0,0.0,1.0,0,0,,,0
1449618020274066888,334,0,/odom,bcmd_vector,0,0,0,2.7888896984,0.10592977662,0.0,0.0,0.0,0.0588631229565,0.998266063109,0.21515525045,0.05,0.05,0.0,1.0,0.0,1.0,0,0,,,0
1449618020328995069,335,0,/odom,bcmd_vector,0,0,0,2.79751702004,0.106386071147,0.0,0.0,0.0,0.064137138832,0.997941094165,0.214210304496,0.05,0.05,0.0,1.0,0.0,1.0,0,0,,,0
1449618020345551209,336,0,/odom,bcmd_vector,0,0,0,2.81190312325,0.106994565794,0.0,0.0,0.0,0.0588631229565,0.998266063109,0.214210304496,0.05,0.05,0.0,1.0,0.0,1.0,0,0,,,0
1449618020415941743,337,0,/odom,bcmd_vector,0,0,0,2.81190312325,0.106994565794,0.0,0.0,0.0,0.0699511057269,0.997550421186,0.230930340605,0.05,0.05,0.0,1.0,0.0,1.0,0,0,,,0
1449618020429327941,338,0,/odom,bcmd_vector,0,0,0,2.82341200582,0.107481361511,0.0,0.0,0.0,0.0699511057269,0.997550421186,0.230930340605,0.05,0.05,0.0,1.0,0.0,1.0,0,0,,,0
1449618020470508206,339,0,/odom,bcmd_vector,0,0,0,2.82341200582,0.107481361511,0.0,0.0,0.0,0.0683676049974,0.997660197957,0.225773930517,0.05,0.05,0.0,1.0,0.0,1.0,0,0,,,0
1449618020532283552,340,0,/odom,bcmd_vector,0,0,0,2.8291664471,0.10772475937,0.0,0.0,0.0,0.0683676049974,0.997660197957,0.225773930517,0.05,0.05,0.0,1.0,0.0,1.0,0,0,,,0
1449618020555555937,341,0,/odom,bcmd_vector,0,0,0,2.84355817746,0.108181189829,0.0,0.0,0.0,0.0630950143183,0.998007524605,0.225773930517,0.05,0.05,0.0,1.0,0.0,1.0,0,0,,,0
1449618020606730337,342,0,/odom,bcmd_vector,0,0,0,2.84355817746,0.108181189829,0.0,0.0,0.0,0.0630950143183,0.998007524605,0.221478306941,0.05,0.05,0.0,1.0,0.0,1.0,0,0,,,0
1449618020647347947,343,0,/odom,bcmd_vector,0,0,0,2.85507156174,0.108546334196,0.0,0.0,0.0,0.0630950143183,0.998007524605,0.221478306941,0.05,0.05,0.0,1.0,0.0,1.0,0,0,,,0
1449618020669935256,344,0,/odom,bcmd_vector,0,0,0,2.85507156174,0.108546334196,0.0,0.0,0.0,0.0630950143183,0.998007524605,0.218834128508,0.05,0.05,0.0,1.0,0.0,1.0,0,0,,,0
1449618020718595970,345,0,/odom,bcmd_vector,0,0,0,2.86082825388,0.108728906379,0.0,0.0,0.0,0.00265240455444,0.999996482369,0.179049315855,0.05,0.05,0.0,1.0,0.0,1.0,0,0,,,0
1449618020757495768,346,0,/odom,bcmd_vector,0,0,0,2.86658494602,0.108911478563,0.0,0.0,0.0,0.00265240455444,0.999996482369,0.179049315855,0.05,0.05,0.0,1.0,0.0,1.0,0,0,,,0
1449618020817130678,347,0,/odom,bcmd_vector,0,0,0,2.87234163816,0.109094050746,0.0,0.0,0.0,0.0541714087791,0.998531651211,0.218607417008,0.05,0.05,0.0,1.0,0.0,1.0,0,0,,,0
1449618020859783575,348,0,/odom,bcmd_vector,0,0,0,2.88385502245,0.109459195113,0.0,0.0,0.0,0.0541714087791,0.998531651211,0.218607417008,0.05,0.05,0.0,1.0,0.0,1.0,0,0,,,0
1449618020882269632,349,0,/odom,bcmd_vector,0,0,0,2.88961171459,0.109641767297,0.0,0.0,0.0,0.052586370421,0.99861637962,0.215059542205,0.05,0.05,0.0,1.0,0.0,1.0,0,0,,,0
1449618020930950568,350,0,/odom,bcmd_vector,0,0,0,2.89536840673,0.10982433948,0.0,0.0,0.0,0.052586370421,0.99861637962,0.213552330217,0.05,0.05,0.0,1.0,0.0,1.0,0,0,,,0
1449618020978849058,351,0,/odom,bcmd_vector,0,0,0,2.90112509887,0.110006911663,0.0,0.0,0.0,0.0541714087791,0.998531651211,0.216345980844,0.05,0.05,0.0,1.0,0.0,1.0,0,0,,,0
1449618021003192958,352,0,/odom,bcmd_vector,0,0,0,2.90688179101,0.110189483847,0.0,0.0,0.0,0.0541714087791,0.998531651211,0.213847097701,0.05,0.05,0.0,1.0,0.0,1.0,0,0,,,0
