%time,field.robot_pose.position.x,field.robot_pose.position.y,field.robot_pose.position.z,field.robot_pose.orientation.x,field.robot_pose.orientation.y,field.robot_pose.orientation.z,field.robot_pose.orientation.w,field.ctime,field.hasac,field.acmd.linear.x,field.acmd.linear.y,field.acmd.linear.z,field.acmd.angular.x,field.acmd.angular.y,field.acmd.angular.z,field.hasuc,field.ucmd.linear.x,field.ucmd.linear.y,field.ucmd.linear.z,field.ucmd.angular.x,field.ucmd.angular.y,field.ucmd.angular.z,field.bcmd.linear.x,field.bcmd.linear.y,field.bcmd.linear.z,field.bcmd.angular.x,field.bcmd.angular.y,field.bcmd.angular.z,field.blending,field.blendingno,field.controlstate,field.alpha,field.source,field.sxb
1449618002658126788,0.0,0.0,0.0,0.0,0.0,0.0,1.0,1449618002656885974,1,0.0,0.0,0.0,0.0,0.0,0.0,1,-0.0,0.0,0.0,0.0,0.0,-0.0,-0.0,0.0,0.0,0.0,0.0,-0.0,,0,Sharing Zero Relinquish,10.0,user,0
1449618002697741454,0.0,0.0,0.0,0.0,0.0,0.0,1.0,1449618002696868812,1,0.0,0.0,0.0,0.0,0.0,0.0,1,-0.0,0.0,0.0,0.0,0.0,-0.0,-0.0,0.0,0.0,0.0,0.0,-0.0,,0,Sharing Zero Relinquish,10.0,user,0
1449618002737632264,0.0,0.0,0.0,0.0,0.0,0.0,1.0,1449618002736924742,1,0.0,0.0,0.0,0.0,0.0,0.0,1,-0.0,0.0,0.0,0.0,0.0,-0.0,-0.0,0.0,0.0,0.0,0.0,-0.0,,0,Sharing Zero Relinquish,10.0,user,0
1449618002777293285,0.0,0.0,0.0,0.0,0.0,0.0,1.0,1449618002776884626,1,0.0,0.0,0.0,0.0,0.0,0.0,1,-0.0,0.0,0.0,0.0,0.0,-0.0,-0.0,0.0,0.0,0.0,0.0,-0.0,,0,Sharing Zero Relinquish,10.0,user,0
1449618002817489107,0.0,0.0,0.0,0.0,0.0,0.0,1.0,1449618002816867139,1,0.0,0.0,0.0,0.0,0.0,0.0,1,-0.0,0.0,0.0,0.0,0.0,-0.0,-0.0,0.0,0.0,0.0,0.0,-0.0,,0,Sharing Zero Relinquish,10.0,user,0
1449618002857820968,0.0,0.0,0.0,0.0,0.0,0.0,1.0,1449618002856863724,1,0.0,0.0,0.0,0.0,0.0,0.0,1,-0.0,0.0,0.0,0.0,0.0,-0.0,-0.0,0.0,0.0,0.0,0.0,-0.0,,0,Sharing Zero Relinquish,10.0,user,0
1449618002897865017,0.0,0.0,0.0,0.0,0.0,0.0,1.0,1449618002896858647,1,0.0,0.0,0.0,0.0,0.0,0.0,1,-0.0,0.0,0.0,0.0,0.0,-0.0,-0.0,0.0,0.0,0.0,0.0,-0.0,,0,Sharing Zero Relinquish,10.0,user,0
1449618002937998206,0.0,0.0,0.0,0.0,0.0,0.0,1.0,1449618002936920609,1,0.0,0.0,0.0,0.0,0.0,0.0,1,-0.0,0.0,0.0,0.0,0.0,-0.0,-0.0,0.0,0.0,0.0,0.0,-0.0,,0,Sharing Zero Relinquish,10.0,user,0
1449618002978635628,0.0,0.0,0.0,0.0,0.0,0.0,1.0,1449618002976908576,1,0.0,0.0,0.0,0.0,0.0,0.0,1,-0.0,0.0,0.0,0.0,0.0,-0.0,-0.0,0.0,0.0,0.0,0.0,-0.0,,0,Sharing Zero Relinquish,10.0,user,0
1449618003018406104,0.0,0.0,0.0,0.0,0.0,0.0,1.0,1449618003016906887,1,0.0,0.0,0.0,0.0,0.0,0.0,1,-0.0,0.0,0.0,0.0,0.0,-0.0,-0.0,0.0,0.0,0.0,0.0,-0.0,,0,Sharing Zero Relinquish,10.0,user,0
1449618003057862351,0.0,0.0,0.0,0.0,0.0,0.0,1.0,1449618003056885271,1,0.0,0.0,0.0,0.0,0.0,0.0,1,-0.0,0.0,0.0,0.0,0.0,-0.0,-0.0,0.0,0.0,0.0,0.0,-0.0,,0,Sharing Zero Relinquish,10.0,user,0
1449618003098126896,0.0,0.0,0.0,0.0,0.0,0.0,1.0,1449618003097087351,1,0.0,0.0,0.0,0.0,0.0,0.0,1,-0.0,0.0,0.0,0.0,0.0,-0.0,-0.0,0.0,0.0,0.0,0.0,-0.0,,0,Sharing Zero Relinquish,10.0,user,0
1449618003137897890,0.0,0.0,0.0,0.0,0.0,0.0,1.0,1449618003137034737,1,0.0,0.0,0.0,0.0,0.0,0.0,1,-0.0,0.0,0.0,0.0,0.0,-0.0,-0.0,0.0,0.0,0.0,0.0,-0.0,,0,Sharing Zero Relinquish,10.0,user,0
1449618003178496923,0.0,0.0,0.0,0.0,0.0,0.0,1.0,1449618003176884111,1,0.0,0.0,0.0,0.0,0.0,0.0,1,-0.0,0.0,0.0,0.0,0.0,-0.0,-0.0,0.0,0.0,0.0,0.0,-0.0,,0,Sharing Zero Relinquish,10.0,user,0
1449618003218476212,0.0,0.0,0.0,0.0,0.0,0.0,1.0,1449618003216884024,1,0.0,0.0,0.0,0.0,0.0,0.0,1,-0.0,0.0,0.0,0.0,0.0,-0.0,-0.0,0.0,0.0,0.0,0.0,-0.0,,0,Sharing Zero Relinquish,10.0,user,0
1449618003257797874,0.0,0.0,0.0,0.0,0.0,0.0,1.0,1449618003256860205,1,0.0,0.0,0.0,0.0,0.0,0.0,1,-0.0,0.0,0.0,0.0,0.0,-0.0,-0.0,0.0,0.0,0.0,0.0,-0.0,,0,Sharing Zero Relinquish,10.0,user,0
1449618003297465582,0.0,0.0,0.0,0.0,0.0,0.0,1.0,1449618003296875909,1,0.0,0.0,0.0,0.0,0.0,0.0,1,-0.0,0.0,0.0,0.0,0.0,-0.0,-0.0,0.0,0.0,0.0,0.0,-0.0,,0,Sharing Zero Relinquish,10.0,user,0
1449618003337587483,0.0,0.0,0.0,0.0,0.0,0.0,1.0,1449618003336882289,1,0.0,0.0,0.0,0.0,0.0,0.0,1,-0.0,0.0,0.0,0.0,0.0,-0.0,-0.0,0.0,0.0,0.0,0.0,-0.0,,0,Sharing Zero Relinquish,10.0,user,0
1449618003378674040,0.0,0.0,0.0,0.0,0.0,0.0,1.0,1449618003376874300,1,0.0,0.0,0.0,0.0,0.0,0.0,1,-0.0,0.0,0.0,0.0,0.0,-0.0,-0.0,0.0,0.0,0.0,0.0,-0.0,,0,Sharing Zero Relinquish,10.0,user,0
1449618003417138655,0.0,0.0,0.0,0.0,0.0,0.0,1.0,1449618003416861109,1,0.0,0.0,0.0,0.0,0.0,0.0,1,-0.0,0.0,0.0,0.0,0.0,-0.0,-0.0,0.0,0.0,0.0,0.0,-0.0,,0,Sharing Zero Relinquish,10.0,user,0
1449618003457132743,0.0,0.0,0.0,0.0,0.0,0.0,1.0,1449618003456854603,1,0.0,0.0,0.0,0.0,0.0,0.0,1,-0.0,0.0,0.0,0.0,0.0,-0.0,-0.0,0.0,0.0,0.0,0.0,-0.0,,0,Sharing Zero Relinquish,10.0,user,0
1449618003497527983,0.0,0.0,0.0,0.0,0.0,0.0,1.0,1449618003496887745,1,0.0,0.0,0.0,0.0,0.0,0.0,1,-0.0,0.0,0.0,0.0,0.0,-0.0,-0.0,0.0,0.0,0.0,0.0,-0.0,,0,Sharing Zero Relinquish,10.0,user,0
1449618003538191409,0.0,0.0,0.0,0.0,0.0,0.0,1.0,1449618003536872760,1,0.0,0.0,0.0,0.0,0.0,0.0,1,-0.0,0.0,0.0,0.0,0.0,-0.0,-0.0,0.0,0.0,0.0,0.0,-0.0,,0,Sharing Zero Relinquish,10.0,user,0
1449618003578153737,0.0,0.0,0.0,0.0,0.0,0.0,1.0,1449618003576885941,1,0.0,0.0,0.0,0.0,0.0,0.0,1,-0.0,0.0,0.0,0.0,0.0,-0.0,-0.0,0.0,0.0,0.0,0.0,-0.0,,0,Sharing Zero Relinquish,10.0,user,0
1449618003618485983,0.0,0.0,0.0,0.0,0.0,0.0,1.0,1449618003616885126,1,0.0,0.0,0.0,0.0,0.0,0.0,1,-0.0,0.0,0.0,0.0,0.0,-0.0,-0.0,0.0,0.0,0.0,0.0,-0.0,,0,Sharing Zero Relinquish,10.0,user,0
1449618003657416619,0.0,0.0,0.0,0.0,0.0,0.0,1.0,1449618003656876249,1,0.0,0.0,0.0,0.0,0.0,0.0,1,-0.0,0.0,0.0,0.0,0.0,-0.0,-0.0,0.0,0.0,0.0,0.0,-0.0,,0,Sharing Zero Relinquish,10.0,user,0
1449618003697734022,0.0,0.0,0.0,0.0,0.0,0.0,1.0,1449618003696862822,1,0.0,0.0,0.0,0.0,0.0,0.0,1,-0.0,0.0,0.0,0.0,0.0,-0.0,-0.0,0.0,0.0,0.0,0.0,-0.0,,0,Sharing Zero Relinquish,10.0,user,0
1449618003739424372,0.0,0.0,0.0,0.0,0.0,0.0,1.0,1449618003737185456,1,0.0,0.0,0.0,0.0,0.0,0.0,1,-0.0,0.0,0.0,0.0,0.0,-0.0,-0.0,0.0,0.0,0.0,0.0,-0.0,,0,Sharing Zero Relinquish,10.0,user,0
1449618003777600833,0.0,0.0,0.0,0.0,0.0,0.0,1.0,1449618003776884004,1,0.0,0.0,0.0,0.0,0.0,0.0,1,-0.0,0.0,0.0,0.0,0.0,-0.0,-0.0,0.0,0.0,0.0,0.0,-0.0,,0,Sharing Zero Relinquish,10.0,user,0
1449618003818559044,0.0,0.0,0.0,0.0,0.0,0.0,1.0,1449618003817417830,1,0.0,0.0,0.0,0.0,0.0,0.0,1,-0.0,0.0,0.0,0.0,0.0,-0.0,-0.0,0.0,0.0,0.0,0.0,-0.0,,0,Sharing Zero Relinquish,10.0,user,0
1449618003859014991,0.0,0.0,0.0,0.0,0.0,0.0,1.0,1449618003856870426,1,0.0,0.0,0.0,0.0,0.0,0.0,1,-0.0,0.0,0.0,0.0,0.0,-0.0,-0.0,0.0,0.0,0.0,0.0,-0.0,,0,Sharing Zero Relinquish,10.0,user,0
1449618003897267351,0.0,0.0,0.0,0.0,0.0,0.0,1.0,1449618003896864360,1,0.0,0.0,0.0,0.0,0.0,0.0,1,-0.0,0.0,0.0,0.0,0.0,-0.0,-0.0,0.0,0.0,0.0,0.0,-0.0,,0,Sharing Zero Relinquish,10.0,user,0
1449618003938028513,0.0,0.0,0.0,0.0,0.0,0.0,1.0,1449618003936943178,1,0.0,0.0,0.0,0.0,0.0,0.0,1,-0.0,0.0,0.0,0.0,0.0,-0.0,-0.0,0.0,0.0,0.0,0.0,-0.0,,0,Sharing Zero Relinquish,10.0,user,0
1449618003979921337,0.0,0.0,0.0,0.0,0.0,0.0,1.0,1449618003978738652,1,0.0,0.0,0.0,0.0,0.0,0.0,1,-0.0,0.0,0.0,0.0,0.0,-0.0,-0.0,0.0,0.0,0.0,0.0,-0.0,,0,Sharing Zero Relinquish,10.0,user,0
1449618004021844141,0.0,0.0,0.0,0.0,0.0,0.0,1.0,1449618004021614085,1,0.0,0.0,0.0,0.0,0.0,0.0,1,-0.0,0.0,0.0,0.0,0.0,-0.0,-0.0,0.0,0.0,0.0,0.0,-0.0,,0,Sharing Zero Relinquish,10.0,user,0
1449618004059134311,0.0,0.0,0.0,0.0,0.0,0.0,1.0,1449618004056873197,1,0.0,0.0,0.0,0.0,0.0,0.0,1,-0.0,0.0,0.0,0.0,0.0,-0.0,-0.0,0.0,0.0,0.0,0.0,-0.0,,0,Sharing Zero Relinquish,10.0,user,0
1449618004098392148,0.0,0.0,0.0,0.0,0.0,0.0,1.0,1449618004096864298,1,0.0,0.0,0.0,0.0,0.0,0.0,1,-0.0,0.0,0.0,0.0,0.0,-0.0,-0.0,0.0,0.0,0.0,0.0,-0.0,,0,Sharing Zero Relinquish,10.0,user,0
1449618004139828344,0.0,0.0,0.0,0.0,0.0,0.0,1.0,1449618004136885185,1,0.0,0.0,0.0,0.0,0.0,0.0,1,-0.0,0.0,0.0,0.0,0.0,-0.0,-0.0,0.0,0.0,0.0,0.0,-0.0,,0,Sharing Zero Relinquish,10.0,user,0
1449618004177605571,0.0,0.0,0.0,0.0,0.0,0.0,1.0,1449618004176879651,1,0.0,0.0,0.0,0.0,0.0,0.0,1,-0.0,0.0,0.0,0.0,0.0,-0.0,-0.0,0.0,0.0,0.0,0.0,-0.0,,0,Sharing Zero Relinquish,10.0,user,0
1449618004217452688,0.0,0.0,0.0,0.0,0.0,0.0,1.0,1449618004216861551,1,0.0,0.0,0.0,0.0,0.0,0.0,1,-0.0,0.0,0.0,0.0,0.0,-0.0,-0.0,0.0,0.0,0.0,0.0,-0.0,,0,Sharing Zero Relinquish,10.0,user,0
1449618004258855946,0.0,0.0,0.0,0.0,0.0,0.0,1.0,1449618004256866682,1,0.0,0.0,0.0,0.0,0.0,0.0,1,-0.0,0.0,0.0,0.0,0.0,-0.0,-0.0,0.0,0.0,0.0,0.0,-0.0,,0,Sharing Zero Relinquish,10.0,user,0
1449618004297740250,0.0,0.0,0.0,0.0,0.0,0.0,1.0,1449618004296875934,1,0.0,0.0,0.0,0.0,0.0,0.0,1,-0.0,0.0,0.0,0.0,0.0,-0.0,-0.0,0.0,0.0,0.0,0.0,-0.0,,0,Sharing Zero Relinquish,10.0,user,0
1449618004337547146,0.0,0.0,0.0,0.0,0.0,0.0,1.0,1449618004336878218,1,0.0,0.0,0.0,0.0,0.0,0.0,1,-0.0,0.0,0.0,0.0,0.0,-0.0,-0.0,0.0,0.0,0.0,0.0,-0.0,,0,Sharing Zero Relinquish,10.0,user,0
1449618004377895999,0.0,0.0,0.0,0.0,0.0,0.0,1.0,1449618004376875218,1,0.0,0.0,0.0,0.0,0.0,0.0,1,-0.0,0.0,0.0,0.0,0.0,-0.0,-0.0,0.0,0.0,0.0,0.0,-0.0,,0,Sharing Zero Relinquish,10.0,user,0
1449618004417863789,0.0,0.0,0.0,0.0,0.0,0.0,1.0,1449618004416875085,1,0.0,0.0,0.0,0.0,0.0,0.0,1,-0.0,0.0,0.0,0.0,0.0,-0.0,-0.0,0.0,0.0,0.0,0.0,-0.0,,0,Sharing Zero Relinquish,10.0,user,0
1449618004458031250,0.0,0.0,0.0,0.0,0.0,0.0,1.0,1449618004456874124,1,0.0,0.0,0.0,0.0,0.0,0.0,1,-0.0,0.0,0.0,0.0,0.0,-0.0,-0.0,0.0,0.0,0.0,0.0,-0.0,,0,Sharing Zero Relinquish,10.0,user,0
1449618004498834155,0.0,0.0,0.0,0.0,0.0,0.0,1.0,1449618004496902232,1,0.0,0.0,0.0,0.0,0.0,0.0,1,-0.0,0.0,0.0,0.0,0.0,-0.0,-0.0,0.0,0.0,0.0,0.0,-0.0,,0,Sharing Zero Relinquish,10.0,user,0
1449618004537545075,0.0,0.0,0.0,0.0,0.0,0.0,1.0,1449618004536951623,1,0.0,0.0,0.0,0.0,0.0,0.0,1,-0.0,0.0,0.0,0.0,0.0,-0.0,-0.0,0.0,0.0,0.0,0.0,-0.0,,0,Sharing Zero Relinquish,10.0,user,0
1449618004577260372,0.0,0.0,0.0,0.0,0.0,0.0,1.0,1449618004576864638,1,0.0,0.0,0.0,0.0,0.0,0.0,1,-0.0,0.0,0.0,0.0,0.0,-0.0,-0.0,0.0,0.0,0.0,0.0,-0.0,,0,Sharing Zero Relinquish,10.0,user,0
1449618004617732438,0.0,0.0,0.0,0.0,0.0,0.0,1.0,1449618004616894678,1,0.0,0.0,0.0,0.0,0.0,0.0,1,-0.0,0.0,0.0,0.0,0.0,-0.0,-0.0,0.0,0.0,0.0,0.0,-0.0,,0,Sharing Zero Relinquish,10.0,user,0
1449618004660583255,0.0,0.0,0.0,0.0,0.0,0.0,1.0,1449618004660131354,1,0.0,0.0,0.0,0.0,0.0,0.0,1,-0.0,0.0,0.0,0.0,0.0,-0.0,-0.0,0.0,0.0,0.0,0.0,-0.0,,0,Sharing Zero Relinquish,10.0,user,0
1449618004698522863,0.0,0.0,0.0,0.0,0.0,0.0,1.0,1449618004696879411,1,0.0,0.0,0.0,0.0,0.0,0.0,1,-0.0,0.0,0.0,0.0,0.0,-0.0,-0.0,0.0,0.0,0.0,0.0,-0.0,,0,Sharing Zero Relinquish,10.0,user,0
1449618004738719494,0.0,0.0,0.0,0.0,0.0,0.0,1.0,1449618004736880633,1,0.0,0.0,0.0,0.0,0.0,0.0,1,-0.0,0.0,0.0,0.0,0.0,-0.0,-0.0,0.0,0.0,0.0,0.0,-0.0,,0,Sharing Zero Relinquish,10.0,user,0
1449618004778771697,0.0,0.0,0.0,0.0,0.0,0.0,1.0,1449618004776879523,1,0.0,0.0,0.0,0.0,0.0,0.0,1,-0.0,0.0,0.0,0.0,0.0,-0.0,-0.0,0.0,0.0,0.0,0.0,-0.0,,0,Sharing Zero Relinquish,10.0,user,0
1449618004817150977,0.0,0.0,0.0,0.0,0.0,0.0,1.0,1449618004816861161,1,0.0,0.0,0.0,0.0,0.0,0.0,1,-0.0,0.0,0.0,0.0,0.0,-0.0,-0.0,0.0,0.0,0.0,0.0,-0.0,,0,Sharing Zero Relinquish,10.0,user,0
1449618004857315951,0.0,0.0,0.0,0.0,0.0,0.0,1.0,1449618004856864627,1,0.0,0.0,0.0,0.0,0.0,0.0,1,-0.0,0.0,0.0,0.0,0.0,-0.0,-0.0,0.0,0.0,0.0,0.0,-0.0,,0,Sharing Zero Relinquish,10.0,user,0
1449618004897516811,0.0,0.0,0.0,0.0,0.0,0.0,1.0,1449618004896883340,1,0.0,0.0,0.0,0.0,0.0,0.0,1,-0.0,0.0,0.0,0.0,0.0,-0.0,-0.0,0.0,0.0,0.0,0.0,-0.0,,0,Sharing Zero Relinquish,10.0,user,0
1449618004937850999,0.0,0.0,0.0,0.0,0.0,0.0,1.0,1449618004936874944,1,0.0,0.0,0.0,0.0,0.0,0.0,1,-0.0,0.0,0.0,0.0,0.0,-0.0,-0.0,0.0,0.0,0.0,0.0,-0.0,,0,Sharing Zero Relinquish,10.0,user,0
1449618004977409156,0.0,0.0,0.0,0.0,0.0,0.0,1.0,1449618004976883606,1,0.0,0.0,0.0,0.0,0.0,0.0,1,-0.0,0.0,0.0,0.0,0.0,-0.0,-0.0,0.0,0.0,0.0,0.0,-0.0,,0,Sharing Zero Relinquish,10.0,user,0
1449618005017204731,0.0,0.0,0.0,0.0,0.0,0.0,1.0,1449618005016879712,1,0.0,0.0,0.0,0.0,0.0,0.0,1,-0.0,0.0,0.0,0.0,0.0,-0.0,-0.0,0.0,0.0,0.0,0.0,-0.0,,0,Sharing Zero Relinquish,10.0,user,0
1449618005058017769,0.0,0.0,0.0,0.0,0.0,0.0,1.0,1449618005056865941,1,0.0,0.0,0.0,0.0,0.0,0.0,1,-0.0,0.0,0.0,0.0,0.0,-0.0,-0.0,0.0,0.0,0.0,0.0,-0.0,,0,Sharing Zero Relinquish,10.0,user,0
1449618005098591250,0.0,0.0,0.0,0.0,0.0,0.0,1.0,1449618005096873976,1,0.0,0.0,0.0,0.0,0.0,0.0,1,-0.0,0.0,0.0,0.0,0.0,-0.0,-0.0,0.0,0.0,0.0,0.0,-0.0,,0,Sharing Zero Relinquish,10.0,user,0
1449618005137702340,0.0,0.0,0.0,0.0,0.0,0.0,1.0,1449618005136917902,1,0.0,0.0,0.0,0.0,0.0,0.0,1,-0.0,0.0,0.0,0.0,0.0,-0.0,-0.0,0.0,0.0,0.0,0.0,-0.0,,0,Sharing Zero Relinquish,10.0,user,0
1449618005177644781,0.0,0.0,0.0,0.0,0.0,0.0,1.0,1449618005176900758,1,0.0,0.0,0.0,0.0,0.0,0.0,1,-0.0,0.0,0.0,0.0,0.0,-0.0,-0.0,0.0,0.0,0.0,0.0,-0.0,,0,Sharing Zero Relinquish,10.0,user,0
1449618005217656194,0.0,0.0,0.0,0.0,0.0,0.0,1.0,1449618005216860521,1,0.0,0.0,0.0,0.0,0.0,0.0,1,-0.0,0.0,0.0,0.0,0.0,-0.0,-0.0,0.0,0.0,0.0,0.0,-0.0,,0,Sharing Zero Relinquish,10.0,user,0
1449618005258618577,0.0,0.0,0.0,0.0,0.0,0.0,1.0,1449618005256878906,1,0.0,0.0,0.0,0.0,0.0,0.0,1,-0.0,0.0,0.0,0.0,0.0,-0.0,-0.0,0.0,0.0,0.0,0.0,-0.0,,0,Sharing Zero Relinquish,10.0,user,0
1449618005300256001,0.0,0.0,0.0,0.0,0.0,0.0,1.0,1449618005296882020,1,0.0,0.0,0.0,0.0,0.0,0.0,1,-0.0,0.0,0.0,0.0,0.0,-0.0,-0.0,0.0,0.0,0.0,0.0,-0.0,,0,Sharing Zero Relinquish,10.0,user,0
1449618005338358891,0.0,0.0,0.0,0.0,0.0,0.0,1.0,1449618005336870946,1,0.0,0.0,0.0,0.0,0.0,0.0,1,-0.0,0.0,0.0,0.0,0.0,-0.0,-0.0,0.0,0.0,0.0,0.0,-0.0,,0,Sharing Zero Relinquish,10.0,user,0
1449618005378107847,0.0,0.0,0.0,0.0,0.0,0.0,1.0,1449618005376913924,1,0.0,0.0,0.0,0.0,0.0,0.0,1,-0.0,0.0,0.0,0.0,0.0,-0.0,-0.0,0.0,0.0,0.0,0.0,-0.0,,0,Sharing Zero Relinquish,10.0,user,0
1449618005417587758,0.0,0.0,0.0,0.0,0.0,0.0,1.0,1449618005416867363,1,0.0,0.0,0.0,0.0,0.0,0.0,1,-0.0,0.0,0.0,0.0,0.0,-0.0,-0.0,0.0,0.0,0.0,0.0,-0.0,,0,Sharing Zero Relinquish,10.0,user,0
1449618005457242673,0.0,0.0,0.0,0.0,0.0,0.0,1.0,1449618005456861326,1,0.0,0.0,0.0,0.0,0.0,0.0,1,-0.0,0.0,0.0,0.0,0.0,-0.0,-0.0,0.0,0.0,0.0,0.0,-0.0,,0,Sharing Zero Relinquish,10.0,user,0
1449618005498565607,0.0,0.0,0.0,0.0,0.0,0.0,1.0,1449618005496862459,1,0.0,0.0,0.0,0.0,0.0,0.0,1,-0.0,0.0,0.0,0.0,0.0,-0.0,-0.0,0.0,0.0,0.0,0.0,-0.0,,0,Sharing Zero Relinquish,10.0,user,0
1449618005537172378,0.0,0.0,0.0,0.0,0.0,0.0,1.0,1449618005536867272,1,0.0,0.0,0.0,0.0,0.0,0.0,1,-0.0,0.0,0.0,0.0,0.0,-0.0,-0.0,0.0,0.0,0.0,0.0,-0.0,,0,Sharing Zero Relinquish,10.0,user,0
1449618005578040062,0.0,0.0,0.0,0.0,0.0,0.0,1.0,1449618005576893402,1,0.0,0.0,0.0,0.0,0.0,0.0,1,-0.0,0.0,0.0,0.0,0.0,-0.0,-0.0,0.0,0.0,0.0,0.0,-0.0,,0,Sharing Zero Relinquish,10.0,user,0
1449618005618584216,0.0,0.0,0.0,0.0,0.0,0.0,1.0,1449618005616871480,1,0.0,0.0,0.0,0.0,0.0,0.0,1,-0.0,0.0,0.0,0.0,0.0,-0.0,-0.0,0.0,0.0,0.0,0.0,-0.0,,0,Sharing Zero Relinquish,10.0,user,0
1449618005657394112,0.0,0.0,0.0,0.0,0.0,0.0,1.0,1449618005656882452,1,0.0,0.0,0.0,0.0,0.0,0.0,1,-0.0,0.0,0.0,0.0,0.0,-0.0,-0.0,0.0,0.0,0.0,0.0,-0.0,,0,Sharing Zero Relinquish,10.0,user,0
1449618005707513993,0.0,0.0,0.0,0.0,0.0,0.0,1.0,1449618005706150303,1,0.0,0.0,0.0,0.0,0.0,0.0,1,0.245841276169,0.0,0.0,0.0,0.0,0.0,0.245841276169,0.0,0.0,0.0,0.0,0.0,Linear,1,Sharing Zero Relinquish,1.0,user,0
1449618005744699586,0.0,0.0,0.0,0.0,0.0,0.0,1.0,1449618005744280157,1,0.0,0.0,0.0,0.0,0.0,0.0,1,0.245841276169,0.0,0.0,0.0,0.0,0.0,0.245841276169,0.0,0.0,0.0,0.0,0.0,Linear,1,Sharing Zero Relinquish,1.0,user,0
1449618005784701090,0.0,0.0,0.0,0.0,0.0,0.0,1.0,1449618005783277414,1,0.0,0.0,0.0,0.0,0.0,0.0,1,0.346412698746,0.0,0.0,0.0,0.0,0.0,0.346412698746,0.0,0.0,0.0,0.0,0.0,Linear,1,Sharing Zero Relinquish,1.0,user,0
1449618005845472256,0.0,0.0,0.0,0.0,0.0,0.0,1.0,1449618005844928508,1,0.0,0.0,0.0,0.0,0.0,0.0,1,0.346412698746,0.0,0.0,0.0,0.0,0.0,0.346412698746,0.0,0.0,0.0,0.0,0.0,Linear,1,Sharing Zero Relinquish,1.0,user,0
1449618005862407918,0.0,0.0,0.0,0.0,0.0,0.0,1.0,1449618005862066819,1,0.0,0.0,0.0,0.0,0.0,0.0,1,0.189968263626,0.0,0.0,0.0,0.0,0.0,0.189968263626,0.0,0.0,0.0,0.0,0.0,Linear,1,Sharing Zero Relinquish,1.0,user,0
1449618005903049183,0.0,0.0,0.0,0.0,0.0,0.0,1.0,1449618005902590682,1,0.0,0.0,0.0,0.0,0.0,0.0,1,0.189968263626,0.0,0.0,0.0,0.0,0.0,0.189968263626,0.0,0.0,0.0,0.0,0.0,Linear,1,Sharing Zero Relinquish,1.0,user,0
1449618006011013374,0.0,0.0,0.0,0.0,0.0,0.0,1.0,1449618006007945908,1,0.0,0.0,0.0,0.0,0.0,0.0,1,0.189968263626,0.0,0.0,0.0,0.0,0.0,0.189968263626,0.0,0.0,0.0,0.0,0.0,Linear,1,Sharing Zero Relinquish,1.0,user,0
1449618006024030843,0.0,0.0,0.0,0.0,0.0,0.0,1.0,1449618006023584677,1,0.0,0.0,0.0,0.0,0.0,0.0,1,0.189968263626,0.0,0.0,0.0,0.0,0.0,0.189968263626,0.0,0.0,0.0,0.0,0.0,Linear,1,Sharing Zero Relinquish,1.0,user,0
1449618006050241532,0.0,0.0,0.0,0.0,0.0,0.0,1.0,1449618006034580583,1,0.0,0.0,0.0,0.0,0.0,0.0,1,0.189968263626,0.0,0.0,0.0,0.0,0.0,0.189968263626,0.0,0.0,0.0,0.0,0.0,Linear,1,Sharing Zero Relinquish,1.0,user,0
1449618006066251236,0.0,0.0,0.0,0.0,0.0,0.0,1.0,1449618006063330497,1,0.0,0.0,0.0,0.0,0.0,0.0,1,0.189968263626,0.0,0.0,0.0,0.0,0.0,0.189968263626,0.0,0.0,0.0,0.0,0.0,Linear,1,Sharing Zero Relinquish,1.0,user,0
1449618006130815560,0.0,0.0,0.0,0.0,0.0,0.0,1.0,1449618006129817037,1,0.12,0.0,0.0,0.0,0.0,0.0,1,0.189968263626,0.0,0.0,0.0,0.0,0.0,0.189968263626,0.0,0.0,0.0,0.0,0.0,Linear,1,Sharing Zero Relinquish,1.0,user,0
1449618006147714641,0.0,0.0,0.0,0.0,0.0,0.0,1.0,1449618006144503698,1,0.12,0.0,0.0,0.0,0.0,0.0,1,0.189968263626,0.0,0.0,0.0,0.0,0.0,0.189968263626,0.0,0.0,0.0,0.0,0.0,Linear,1,Sharing Zero Relinquish,1.0,user,0
1449618006190146813,0.0,0.0,0.0,0.0,0.0,0.0,1.0,1449618006187963843,1,0.12,0.0,0.0,0.0,0.0,0.0,1,0.346412698746,0.0,0.0,0.0,0.0,0.0,0.346412698746,0.0,0.0,0.0,0.0,0.0,Linear,1,Sharing Zero Relinquish,1.0,user,0
1449618006269688474,0.0,0.0,0.0,0.0,0.0,0.0,1.0,1449618006266945063,1,0.12,0.0,0.0,0.0,0.0,0.0,1,0.346412698746,0.0,0.0,0.0,0.0,0.0,0.346412698746,0.0,0.0,0.0,0.0,0.0,Linear,1,Sharing Zero Relinquish,1.0,user,0
1449618006279360226,0.0,0.0,0.0,0.0,0.0,0.0,1.0,1449618006278929175,1,0.12,0.0,0.0,0.0,0.0,0.0,1,0.346412698746,0.0,0.0,0.0,0.0,0.0,0.346412698746,0.0,0.0,0.0,0.0,0.0,Linear,1,Sharing Zero Relinquish,1.0,user,0
1449618006303148105,0.0,0.0,0.0,0.0,0.0,0.0,1.0,1449618006302684579,1,0.12,0.0,0.0,0.0,0.0,0.0,1,0.346412698746,0.0,0.0,0.0,0.0,0.0,0.346412698746,0.0,0.0,0.0,0.0,0.0,Linear,1,Sharing Zero Relinquish,1.0,user,0
1449618006384828193,0.0,0.0,0.0,0.0,0.0,0.0,1.0,1449618006383776047,1,0.12,0.0,0.0,0.0,0.0,0.0,1,0.346412698746,0.0,0.0,0.0,0.0,0.0,0.346412698746,0.0,0.0,0.0,0.0,0.0,Linear,1,Sharing Zero Relinquish,1.0,user,0
1449618006392709059,0.0,0.0,0.0,0.0,0.0,0.0,1.0,1449618006392297020,1,0.12,0.0,0.0,0.0,0.0,0.0,1,0.352,0.0,0.0,0.0,0.0,0.0,0.352,0.0,0.0,0.0,0.0,0.0,Linear,1,Sharing Zero Relinquish,1.0,user,0
1449618006474800494,0.0,0.0,0.0,0.0,0.0,0.0,1.0,1449618006474122770,1,0.153470868194,0.0,0.0,0.0,0.0,0.0,1,0.346412698746,0.0,0.0,0.0,0.0,0.0,0.346412698746,0.0,0.0,0.0,0.0,0.0,Linear,1,Sharing Zero Relinquish,1.0,user,0
1449618006491956605,0.00287963245437,3.04332289367e-05,0.0,0.0,0.0,0.0052839997518,0.999986039576,1449618006487423532,1,0.153470868194,0.0,0.0,0.0,0.0,0.0,1,0.346412698746,0.0,0.0,0.0,0.0,0.0,0.346412698746,0.0,0.0,0.0,0.0,0.0,Linear,1,Sharing Zero Relinquish,1.0,user,0
1449618006505385968,0.00575942572016,3.04332289367e-05,0.0,0.0,0.0,0.0,1.0,1449618006504405338,1,0.153470868194,0.0,0.0,0.0,0.0,0.0,1,0.346412698746,0.0,0.0,0.0,0.0,0.0,0.346412698746,0.0,0.0,0.0,0.0,0.0,Linear,1,Sharing Zero Relinquish,1.0,user,0
1449618006548637760,0.00575942572016,3.04332289367e-05,0.0,0.0,0.0,0.0,1.0,1449618006548172603,1,0.153470868194,0.0,0.0,0.0,0.0,0.0,1,0.335238096237,0.0,0.0,0.0,0.0,0.120634925365,0.289796289226,0.0,0.0,0.0,0.0,0.0904761940241,Linear,1,Sharing Zero Relinquish,0.75,user,0
1449618006646342714,0.00575942572016,3.04332289367e-05,0.0,0.0,0.0,0.0,1.0,1449618006636650231,1,0.153470868194,0.0,0.0,0.0,0.0,0.0,1,0.335238096237,0.0,0.0,0.0,0.0,0.120634925365,0.289796289226,0.0,0.0,0.0,0.0,0.0904761940241,Linear,1,Sharing Zero Relinquish,0.75,user,0
1449618006654993538,0.00575942572016,3.04332289367e-05,0.0,0.0,0.0,0.0,1.0,1449618006653961068,1,0.152510991063,0.0,0.0,0.0,0.0,0.0,1,0.335238096237,0.0,0.0,0.0,0.0,0.120634925365,0.289556319944,0.0,0.0,0.0,0.0,0.0904761940241,Linear,1,Sharing Zero Relinquish,0.75,user,0
1449618006721501594,0.00575942572016,3.04332289367e-05,0.0,0.0,0.0,0.0,1.0,1449618006720842026,1,0.151551059891,0.0,0.0,0.0,0.0,0.0,1,0.301714288712,0.0,0.0,0.0,0.0,0.336507940292,0.226632674301,0.0,0.0,0.0,0.0,0.168253970146,Linear,1,Sharing Zero Relinquish,0.5,user,0
1449618006750224601,0.0115188514403,0.0,0.0,0.0,0.0,0.0,1.0,1449618006747001176,1,0.151551059891,0.0,0.0,0.0,0.0,0.0,1,0.301714288712,0.0,0.0,0.0,0.0,0.336507940292,0.226632674301,0.0,0.0,0.0,0.0,0.168253970146,Linear,1,Sharing Zero Relinquish,0.5,user,0
1449618006777406417,0.0115188514403,0.0,0.0,0.0,0.0,0.0,1.0,1449618006776562807,1,0.151551059891,0.0,0.0,0.0,0.0,0.0,1,0.251428577423,0.0,0.0,0.0,0.0,0.285714292526,0.201489818657,0.0,0.0,0.0,0.0,0.142857146263,Linear,1,Sharing Zero Relinquish,0.5,user,0
1449618006817441293,0.0115188514403,0.0,0.0,0.0,0.0,0.0,1.0,1449618006814345901,1,0.151551059891,0.0,0.0,0.0,0.0,0.0,1,0.251428577423,0.0,0.0,0.0,0.0,0.285714292526,0.201489818657,0.0,0.0,0.0,0.0,0.142857146263,Linear,1,Sharing Zero Relinquish,0.5,user,0
1449618006833363739,0.0143984838947,-3.04332289367e-05,0.0,0.0,0.0,-0.0052839997518,0.999986039576,1449618006832953787,1,0.151551059891,0.0,0.0,0.0,0.0,0.0,1,0.251428577423,0.0,0.0,0.0,0.0,0.285714292526,0.201489818657,0.0,0.0,0.0,0.0,0.142857146263,Linear,1,Sharing Zero Relinquish,0.5,user,0
1449618006914576348,0.0143984838947,-3.04332289367e-05,0.0,0.0,0.0,-0.0052839997518,0.999986039576,1449618006913411935,1,0.150591182161,0.0,0.0,0.0,0.0,0.0210526315789,1,0.296126987457,0.0,0.0,0.0,0.0,0.336507940292,0.223359084809,0.0,0.0,0.0,0.0,0.178780285936,Linear,1,Sharing Zero Relinquish,0.5,user,0
1449618006925744956,0.0201579096149,-6.08664578733e-05,0.0,0.0,0.0,-0.0052839997518,0.999986039576,1449618006921156954,1,0.150591182161,0.0,0.0,0.0,0.0,0.0210526315789,1,0.296126987457,0.0,0.0,0.0,0.0,0.336507940292,0.223359084809,0.0,0.0,0.0,0.0,0.178780285936,Linear,1,Sharing Zero Relinquish,0.5,user,0
1449618006954746917,0.0230377028806,-6.08664578733e-05,0.0,0.0,0.0,0.0,1.0,1449618006953281910,1,0.149631250909,0.0,0.0,0.0,0.0,0.0,1,0.296126987457,0.0,0.0,0.0,0.0,0.342857146263,0.222879119183,0.0,0.0,0.0,0.0,0.171428573132,Linear,1,Sharing Zero Relinquish,0.5,user,0
1449618006992598130,0.0230377028806,-6.08664578733e-05,0.0,0.0,0.0,0.0,1.0,1449618006991471005,1,0.149631250909,0.0,0.0,0.0,0.0,0.0,1,0.296126987457,0.0,0.0,0.0,0.0,0.342857146263,0.222879119183,0.0,0.0,0.0,0.0,0.171428573132,Linear,1,Sharing Zero Relinquish,0.5,user,0
1449618007075906200,0.0287972894122,-6.08664578733e-05,0.0,0.0,0.0,0.0,1.0,1449618007074676152,1,0.149631250909,0.0,0.0,0.0,0.0,0.0,1,0.296126987457,0.0,0.0,0.0,0.0,0.342857146263,0.222879119183,0.0,0.0,0.0,0.0,0.171428573132,Linear,1,Sharing Zero Relinquish,0.5,user,0
1449618007104081056,0.0316769218666,-3.04332289367e-05,0.0,0.0,0.0,0.0052839997518,0.999986039576,1449618007103327861,1,0.147711443081,0.0,0.0,0.0,0.0,0.0210526315789,1,0.301714288712,0.0,0.0,0.0,0.0,0.336507940292,0.224712865896,0.0,0.0,0.0,0.0,0.178780285936,Linear,1,Sharing Zero Relinquish,0.5,user,0
1449618007121040441,0.0403143719808,0.000152155948096,0.0,0.0,0.0,0.0105678519699,0.999944158693,1449618007120749370,1,0.143871773172,0.0,0.0,0.0,0.0,0.0210526315789,1,0.301714288712,0.0,0.0,0.0,0.0,0.336507940292,0.301714288712,0.0,0.0,0.0,0.0,0.336507940292,Linear,1,Sharing Zero Relinquish,1.0,user,0
1449618007150783829,0.0403143719808,0.000152155948096,0.0,0.0,0.0,0.0105678519699,0.999944158693,1449618007149363909,1,0.143871773172,0.0,0.0,0.0,0.0,0.0210526315789,1,0.301714288712,0.0,0.0,0.0,0.0,0.342857146263,0.301714288712,0.0,0.0,0.0,0.0,0.342857146263,Linear,1,Sharing Zero Relinquish,1.0,user,0
1449618007203445935,0.0403143719808,0.000152155948096,0.0,0.0,0.0,0.0105678519699,0.999944158693,1449618007202150556,1,0.143871773172,0.0,0.0,0.0,0.0,0.0210526315789,1,0.301714288712,0.0,0.0,0.0,0.0,0.342857146263,0.301714288712,0.0,0.0,0.0,0.0,0.342857146263,Linear,1,Sharing Zero Relinquish,1.0,user,0
1449618007228952311,0.0518243799784,0.000608538828031,0.0,0.0,0.0,0.0211345236944,0.999776641009,1449618007228387743,1,0.142911894556,0.0,0.0,0.0,0.0,0.0,1,0.301714288712,0.0,0.0,0.0,0.0,0.342857146263,0.301714288712,0.0,0.0,0.0,0.0,0.342857146263,Linear,1,Sharing Zero Relinquish,1.0,user,0
1449618007276395094,0.0518243799784,0.000608538828031,0.0,0.0,0.0,0.0211345236944,0.999776641009,1449618007275891885,1,0.142911894556,0.0,0.0,0.0,0.0,0.0,1,0.296126987457,0.0,0.0,0.0,0.0,0.336507940292,0.296126987457,0.0,0.0,0.0,0.0,0.336507940292,Linear,1,Sharing Zero Relinquish,1.0,user,0
1449618007315135445,0.0575741597969,0.000943117438121,0.0,0.0,0.0,0.0316988350601,0.999497465658,1449618007313838804,1,0.142911894556,0.0,0.0,0.0,0.0,0.0,1,0.296126987457,0.0,0.0,0.0,0.0,0.336507940292,0.296126987457,0.0,0.0,0.0,0.0,0.336507940292,Linear,1,Sharing Zero Relinquish,1.0,user,0
1449618007344511489,0.0575741597969,0.000943117438121,0.0,0.0,0.0,0.0316988350601,0.999497465658,1449618007343113791,1,0.140032753169,0.0,0.0,0.0,0.0,0.0,1,0.296126987457,0.0,0.0,0.0,0.0,0.336507940292,0.296126987457,0.0,0.0,0.0,0.0,0.336507940292,Linear,1,Sharing Zero Relinquish,1.0,user,0
1449618007384742430,0.0661899108743,0.00158164438035,0.0,0.0,0.0,0.0369797368913,0.999316015612,1449618007383214768,1,0.140032753169,0.0,0.0,0.0,0.0,0.0,1,0.301714288712,0.0,0.0,0.0,0.0,0.342857146263,0.301714288712,0.0,0.0,0.0,0.0,0.342857146263,Linear,1,Sharing Zero Relinquish,1.0,user,0
1449618007462989596,0.0690594182424,0.00182482480304,0.0,0.0,0.0,0.042259606217,0.999106663816,1449618007461907396,1,0.140032753169,0.0,0.0,0.0,0.0,0.0,1,0.301714288712,0.0,0.0,0.0,0.0,0.342857146263,0.301714288712,0.0,0.0,0.0,0.0,0.342857146263,Linear,1,Sharing Zero Relinquish,1.0,user,0
1449618007471778135,0.0776469090908,0.00276635268917,0.0,0.0,0.0,0.0580915451448,0.99831126027,1449618007470775835,1,0.140032753169,0.0,0.0,0.0,0.0,0.0,1,0.296126987457,0.0,0.0,0.0,0.0,0.342857146263,0.296126987457,0.0,0.0,0.0,0.0,0.342857146263,Linear,1,Sharing Zero Relinquish,1.0,user,0
1449618007508086284,0.0776469090908,0.00276635268917,0.0,0.0,0.0,0.0580915451448,0.99831126027,1449618007506425332,1,0.206601361717,0.0,0.0,0.0,0.0,0.147368421053,1,0.296126987457,0.0,0.0,0.0,0.0,0.342857146263,0.296126987457,0.0,0.0,0.0,0.0,0.342857146263,Linear,1,Sharing Zero Relinquish,1.0,user,0
1449618007560383476,0.0862169107642,0.00385903498585,0.0,0.0,0.0,0.0633658106137,0.997990367712,1449618007559933739,1,0.206601361717,0.0,0.0,0.0,0.0,0.147368421053,1,0.296126987457,0.0,0.0,0.0,0.0,0.342857146263,0.296126987457,0.0,0.0,0.0,0.0,0.342857146263,Linear,1,Sharing Zero Relinquish,1.0,user,0
1449618007586460256,0.0975910198467,0.005677323119,0.0,0.0,0.0,0.0844437083633,0.996428251365,1449618007585901686,1,0.187807891692,0.0,0.0,0.0,0.0,0.189473684211,1,0.335238096237,0.0,0.0,0.0,0.0,0.0761904776096,0.335238096237,0.0,0.0,0.0,0.0,0.0761904776096,Linear,1,Sharing Zero Relinquish,1.0,user,0
1449618007630722059,0.0975910198467,0.005677323119,0.0,0.0,0.0,0.0844437083633,0.996428251365,1449618007627687700,1,0.200119411334,0.0,0.0,0.0,0.0,0.147368421053,1,0.335238096237,0.0,0.0,0.0,0.0,0.0761904776096,0.335238096237,0.0,0.0,0.0,0.0,0.0761904776096,Linear,1,Sharing Zero Relinquish,1.0,user,0
1449618007675965589,0.10042446305,0.00619191894972,0.0,0.0,0.0,0.0897076561262,0.99596814027,1449618007675130505,1,0.200119411334,0.0,0.0,0.0,0.0,0.147368421053,1,0.301714288712,0.0,0.0,0.0,0.0,0.00634920671582,0.301714288712,0.0,0.0,0.0,0.0,0.00634920671582,Linear,1,Sharing Zero Relinquish,1.0,user,0
1449618007717073257,0.111712201411,0.00848937640422,0.0,0.0,0.0,0.100227890607,0.994964506877,1449618007715921091,1,0.200119411334,0.0,0.0,0.0,0.0,0.147368421053,1,0.301714288712,0.0,0.0,0.0,0.0,0.00634920671582,0.301714288712,0.0,0.0,0.0,0.0,0.00634920671582,Linear,1,Sharing Zero Relinquish,1.0,user,0
1449618007742952848,0.125678550725,0.0119839506524,0.0,0.0,0.0,0.126476937269,0.991969548091,1449618007742273004,1,0.195439823171,0.0,0.0,0.0,0.0,0.158706156957,1,0.301714288712,0.0,0.0,0.0,0.0,0.00634920671582,0.301714288712,0.0,0.0,0.0,0.0,0.00634920671582,Linear,1,Sharing Zero Relinquish,1.0,user,0
1449618007783157826,0.125678550725,0.0119839506524,0.0,0.0,0.0,0.126476937269,0.991969548091,1449618007782706221,1,0.195439823171,0.0,0.0,0.0,0.0,0.158706156957,1,0.346412698746,0.0,0.0,0.0,0.0,0.0,0.346412698746,0.0,0.0,0.0,0.0,0.0,Linear,1,Sharing Zero Relinquish,1.0,user,0
1449618007848281010,0.131253871776,0.0134291607378,0.0,0.0,0.0,0.126476937269,0.991969548091,1449618007847279772,1,0.195439823171,0.0,0.0,0.0,0.0,0.158706156957,1,0.346412698746,0.0,0.0,0.0,0.0,0.0,0.346412698746,0.0,0.0,0.0,0.0,0.0,Linear,1,Sharing Zero Relinquish,1.0,user,0
1449618007866740144,0.145035143192,0.0175986404617,0.0,0.0,0.0,0.152637705278,0.988282212188,1449618007865455246,1,0.191669431644,0.0,0.0,0.0,0.0,0.128225363493,1,0.346412698746,0.0,0.0,0.0,0.0,-0.00634920671582,0.346412698746,0.0,0.0,0.0,0.0,-0.00634920671582,Linear,1,Sharing Zero Relinquish,1.0,user,0
1449618007904615207,0.145035143192,0.0175986404617,0.0,0.0,0.0,0.152637705278,0.988282212188,1449618007903804887,1,0.185024114844,0.0,0.0,0.0,0.0,0.118569083967,1,0.346412698746,0.0,0.0,0.0,0.0,-0.00634920671582,0.346412698746,0.0,0.0,0.0,0.0,-0.00634920671582,Linear,1,Sharing Zero Relinquish,1.0,user,0
1449618007947961853,0.153243952888,0.0202920261853,0.0,0.0,0.0,0.157857657354,0.987461877753,1449618007945308880,1,0.185024114844,0.0,0.0,0.0,0.0,0.118569083967,1,0.346412698746,0.0,0.0,0.0,0.0,-0.00634920671582,0.346412698746,0.0,0.0,0.0,0.0,-0.00634920671582,Linear,1,Sharing Zero Relinquish,1.0,user,0
1449618008031012460,0.164110689901,0.0241137240715,0.0,0.0,0.0,0.168284193326,0.985738520236,1449618008026635361,1,0.182162951531,0.0,0.0,0.0,0.0,0.108428090058,1,0.346412698746,0.0,0.0,0.0,0.0,-0.00634920671582,0.346412698746,0.0,0.0,0.0,0.0,-0.00634920671582,Linear,1,Sharing Zero Relinquish,1.0,user,0
1449618008038423975,0.177557258401,0.029262044964,0.0,0.0,0.0,0.183888394426,0.982947128993,1449618008036696830,1,0.182162951531,0.0,0.0,0.0,0.0,0.108428090058,1,0.346412698746,0.0,0.0,0.0,0.0,-0.00634920671582,0.346412698746,0.0,0.0,0.0,0.0,-0.00634920671582,Linear,1,Sharing Zero Relinquish,1.0,user,0
1449618008073552674,0.185578902839,0.0324701758532,0.0,0.0,0.0,0.189079719651,0.981961740404,1449618008072950682,1,0.177382101244,0.0,0.0,0.0,0.0,0.0760312111754,1,0.346412698746,0.0,0.0,0.0,0.0,-0.0126984134316,0.346412698746,0.0,0.0,0.0,0.0,-0.0126984134316,Linear,1,Sharing Zero Relinquish,1.0,user,0
1449618008109278096,0.185578902839,0.0324701758532,0.0,0.0,0.0,0.189079719651,0.981961740404,1449618008108559652,1,0.177382101244,0.0,0.0,0.0,0.0,0.0760312111754,1,0.346412698746,0.0,0.0,0.0,0.0,-0.0126984134316,0.346412698746,0.0,0.0,0.0,0.0,-0.0126984134316,Linear,1,Sharing Zero Relinquish,1.0,user,0
1449618008146131179,0.190880269781,0.0347214744924,0.0,0.0,0.0,0.199446387505,0.979908739889,1449618008145437159,1,0.177382101244,0.0,0.0,0.0,0.0,0.0760312111754,1,0.346412698746,0.0,0.0,0.0,0.0,-0.0126984134316,0.346412698746,0.0,0.0,0.0,0.0,-0.0126984134316,Linear,1,Sharing Zero Relinquish,1.0,user,0
1449618008198766365,0.198796189054,0.0381822699696,0.0,0.0,0.0,0.204621440688,0.978841185285,1449618008196129349,1,0.177382101244,0.0,0.0,0.0,0.0,0.0760312111754,1,0.340825397491,0.0,0.0,0.0,0.0,-0.0126984134316,0.340825397491,0.0,0.0,0.0,0.0,-0.0126984134316,Linear,1,Sharing Zero Relinquish,1.0,user,0
1449618008240054819,0.209250867612,0.0430186988508,0.0,0.0,0.0,0.214954263107,0.976624116419,1449618008237001110,1,0.168754580801,0.0,0.0,0.0,0.0,0.0,1,0.340825397491,0.0,0.0,0.0,0.0,-0.0126984134316,0.340825397491,0.0,0.0,0.0,0.0,-0.0126984134316,Linear,1,Sharing Zero Relinquish,1.0,user,0
1449618008293807913,0.22482833468,0.0504932165644,0.0,0.0,0.0,0.225263078873,0.97429797562,1449618008288133265,1,0.168754580801,0.0,0.0,0.0,0.0,0.0,1,0.340825397491,0.0,0.0,0.0,0.0,-0.0190476194024,0.340825397491,0.0,0.0,0.0,0.0,-0.0190476194024,Linear,1,Sharing Zero Relinquish,1.0,user,0
1449618008312625398,0.235178462471,0.0555495198373,0.0,0.0,0.0,0.225263078873,0.97429797562,1449618008311766423,1,0.161076091714,0.0,0.0,0.0,0.0,0.0263295604681,1,0.340825397491,0.0,0.0,0.0,0.0,-0.0190476194024,0.340825397491,0.0,0.0,0.0,0.0,-0.0190476194024,Linear,1,Sharing Zero Relinquish,1.0,user,0
1449618008347093575,0.235178462471,0.0555495198373,0.0,0.0,0.0,0.225263078873,0.97429797562,1449618008346517217,1,0.155318849322,0.0,0.0,0.0,0.0,0.0,1,0.340825397491,0.0,0.0,0.0,0.0,-0.0317460328341,0.340825397491,0.0,0.0,0.0,0.0,-0.0317460328341,Linear,1,Sharing Zero Relinquish,1.0,user,0
1449618008410657304,0.242900549141,0.0594235694929,0.0,0.0,0.0,0.230408124366,0.973094083954,1449618008409235060,1,0.155318849322,0.0,0.0,0.0,0.0,0.0,1,0.340825397491,0.0,0.0,0.0,0.0,-0.0317460328341,0.340825397491,0.0,0.0,0.0,0.0,-0.0317460328341,Linear,1,Sharing Zero Relinquish,1.0,user,0
1449618008428751868,0.260708468478,0.0688681873043,0.0,0.0,0.0,0.24580408799,0.96931952953,1449618008427245061,1,0.155318849322,0.0,0.0,0.0,0.0,0.0,1,0.340825397491,0.0,0.0,0.0,0.0,-0.0317460328341,0.340825397491,0.0,0.0,0.0,0.0,-0.0317460328341,Linear,1,Sharing Zero Relinquish,1.0,user,0
1449618008466970504,0.260708468478,0.0688681873043,0.0,0.0,0.0,0.24580408799,0.96931952953,1449618008465838785,1,0.147649584834,0.0,0.0,0.0,0.0,0.0,1,0.318476192474,0.0,0.0,0.0,0.0,-0.184126985073,0.318476192474,0.0,0.0,0.0,0.0,-0.184126985073,Linear,1,Sharing Zero Relinquish,1.0,user,0
1449618008549684434,0.268346954157,0.0729045742798,0.0,0.0,0.0,0.240678772307,0.970604826158,1449618008542144416,1,0.147649584834,0.0,0.0,0.0,0.0,0.0,1,0.318476192474,0.0,0.0,0.0,0.0,-0.184126985073,0.318476192474,0.0,0.0,0.0,0.0,-0.184126985073,Linear,1,Sharing Zero Relinquish,1.0,user,0
1449618008559856753,0.288484213993,0.084096364063,0.0,0.0,0.0,0.250922540614,0.968007168678,1449618008558129580,1,0.147649584834,0.0,0.0,0.0,0.0,0.0,1,0.318476192474,0.0,0.0,0.0,0.0,-0.184126985073,0.318476192474,0.0,0.0,0.0,0.0,-0.184126985073,Linear,1,Sharing Zero Relinquish,1.0,user,0
1449618008595377752,0.295990912306,0.088372853713,0.0,0.0,0.0,0.256033987268,0.966667780245,1449618008590517179,1,0.137523361621,0.0,0.0,0.0,0.0,-0.0191684961319,1,0.296126987457,0.0,0.0,0.0,0.0,-0.342857146263,0.296126987457,0.0,0.0,0.0,0.0,-0.342857146263,Linear,1,Sharing Zero Relinquish,1.0,user,0
1449618008625686043,0.295990912306,0.088372853713,0.0,0.0,0.0,0.256033987268,0.966667780245,1449618008624007717,1,0.137523361621,0.0,0.0,0.0,0.0,-0.0191684961319,1,0.296126987457,0.0,0.0,0.0,0.0,-0.342857146263,0.296126987457,0.0,0.0,0.0,0.0,-0.342857146263,Linear,1,Sharing Zero Relinquish,1.0,user,0
1449618008699797586,0.308426055337,0.0956321545827,0.0,0.0,0.0,0.261138285236,0.965301401628,1449618008698576221,1,0.126840595686,0.0,0.0,0.0,0.0,-0.0610853457451,1,0.296126987457,0.0,0.0,0.0,0.0,-0.342857146263,0.296126987457,0.0,0.0,0.0,0.0,-0.342857146263,Linear,1,Sharing Zero Relinquish,1.0,user,0
1449618008718027150,0.330731903183,0.10882990353,0.0,0.0,0.0,0.266235292001,0.963908070976,1449618008716743990,1,0.126840595686,0.0,0.0,0.0,0.0,-0.0610853457451,1,0.296126987457,0.0,0.0,0.0,0.0,-0.342857146263,0.296126987457,0.0,0.0,0.0,0.0,-0.342857146263,Linear,1,Sharing Zero Relinquish,1.0,user,0
1449618008747528916,0.335674996552,0.111786026831,0.0,0.0,0.0,0.266235292001,0.963908070976,1449618008745823498,1,0.120946650716,0.0,0.0,0.0,0.0,-0.0631578947368,1,0.296126987457,0.0,0.0,0.0,0.0,-0.336507940292,0.296126987457,0.0,0.0,0.0,0.0,-0.336507940292,Linear,1,Sharing Zero Relinquish,1.0,user,0
1449618008818930239,0.335674996552,0.111786026831,0.0,0.0,0.0,0.266235292001,0.963908070976,1449618008817606857,1,0.120946650716,0.0,0.0,0.0,0.0,-0.0631578947368,1,0.296126987457,0.0,0.0,0.0,0.0,-0.336507940292,0.296126987457,0.0,0.0,0.0,0.0,-0.336507940292,Linear,1,Sharing Zero Relinquish,1.0,user,0
1449618008834354563,0.352865517682,0.122314713201,0.0,0.0,0.0,0.271324865251,0.962487827194,1449618008833949780,1,0.12,0.0,0.0,0.0,0.0,-0.105263157895,1,0.296126987457,0.0,0.0,0.0,0.0,-0.336507940292,0.296126987457,0.0,0.0,0.0,0.0,-0.336507940292,Linear,1,Sharing Zero Relinquish,1.0,user,0
1449618008895563760,0.352865517682,0.122314713201,0.0,0.0,0.0,0.271324865251,0.962487827194,1449618008892775346,1,0.12,0.0,0.0,0.0,0.0,-0.147368421053,1,0.296126987457,0.0,0.0,0.0,0.0,-0.342857146263,0.296126987457,0.0,0.0,0.0,0.0,-0.342857146263,Linear,1,Sharing Zero Relinquish,1.0,user,0
1449618008907399836,0.374823326299,0.136084411467,0.0,0.0,0.0,0.276406862881,0.961040709935,1449618008906605564,1,0.12,0.0,0.0,0.0,0.0,-0.147368421053,1,0.296126987457,0.0,0.0,0.0,0.0,-0.342857146263,0.296126987457,0.0,0.0,0.0,0.0,-0.342857146263,Linear,1,Sharing Zero Relinquish,1.0,user,0
1449618008981807623,0.374823326299,0.136084411467,0.0,0.0,0.0,0.276406862881,0.961040709935,1449618008978648003,1,0.12,0.0,0.0,0.0,0.0,-0.147368421053,1,0.301714288712,0.0,0.0,0.0,0.0,-0.336507940292,0.301714288712,0.0,0.0,0.0,0.0,-0.336507940292,Linear,1,Sharing Zero Relinquish,1.0,user,0
1449618008996527479,0.39425985491,0.14845263101,0.0,0.0,0.0,0.276406862881,0.961040709935,1449618008992297735,1,0.12,0.0,0.0,0.0,0.0,-0.147368421053,1,0.301714288712,0.0,0.0,0.0,0.0,-0.336507940292,0.301714288712,0.0,0.0,0.0,0.0,-0.336507940292,Linear,1,Sharing Zero Relinquish,1.0,user,0
1449618009024845620,0.39425985491,0.14845263101,0.0,0.0,0.0,0.276406862881,0.961040709935,1449618009024243308,1,0.12,0.0,0.0,0.0,0.0,-0.147368421053,1,0.296126987457,0.0,0.0,0.0,0.0,-0.336507940292,0.296126987457,0.0,0.0,0.0,0.0,-0.336507940292,Linear,1,Sharing Zero Relinquish,1.0,user,0
1449618009073737986,0.406377113983,0.156230951131,0.0,0.0,0.0,0.281481142997,0.959566759604,1449618009069737476,1,0.12,0.0,0.0,0.0,0.0,-0.147368421053,1,0.296126987457,0.0,0.0,0.0,0.0,-0.336507940292,0.296126987457,0.0,0.0,0.0,0.0,-0.336507940292,Linear,1,Sharing Zero Relinquish,1.0,user,0
1449618009104519060,0.411224017612,0.159342279179,0.0,0.0,0.0,0.281481142997,0.959566759604,1449618009103739322,1,0.12,0.0,0.0,0.0,0.0,-0.189473684211,1,0.296126987457,0.0,0.0,0.0,0.0,-0.336507940292,0.296126987457,0.0,0.0,0.0,0.0,-0.336507940292,Linear,1,Sharing Zero Relinquish,1.0,user,0
1449618009154970081,0.42091782487,0.165564935277,0.0,0.0,0.0,0.281481142997,0.959566759604,1449618009153453384,1,0.12,0.0,0.0,0.0,0.0,-0.189473684211,1,0.296126987457,0.0,0.0,0.0,0.0,-0.336507940292,0.296126987457,0.0,0.0,0.0,0.0,-0.336507940292,Linear,1,Sharing Zero Relinquish,1.0,user,0
1449618009190362765,0.435458535757,0.174898919422,0.0,0.0,0.0,0.281481142997,0.959566759604,1449618009189411216,1,0.12,0.0,0.0,0.0,0.0,-0.273684210526,1,0.301714288712,0.0,0.0,0.0,0.0,-0.336507940292,0.301714288712,0.0,0.0,0.0,0.0,-0.336507940292,Linear,1,Sharing Zero Relinquish,1.0,user,0
1449618009260770916,0.440305439386,0.178010247471,0.0,0.0,0.0,0.281481142997,0.959566759604,1449618009260050669,1,0.12,0.0,0.0,0.0,0.0,-0.273684210526,1,0.301714288712,0.0,0.0,0.0,0.0,-0.336507940292,0.301714288712,0.0,0.0,0.0,0.0,-0.336507940292,Linear,1,Sharing Zero Relinquish,1.0,user,0
1449618009272172254,0.459693053902,0.190455559665,0.0,0.0,0.0,0.281481142997,0.959566759604,1449618009271791747,1,0.12,0.0,0.0,0.0,0.0,-0.273684210526,1,0.301714288712,0.0,0.0,0.0,0.0,-0.342857146263,0.301714288712,0.0,0.0,0.0,0.0,-0.342857146263,Linear,1,Sharing Zero Relinquish,1.0,user,0
1449618009305476801,0.459693053902,0.190455559665,0.0,0.0,0.0,0.281481142997,0.959566759604,1449618009305073563,1,0.12,0.0,0.0,0.0,0.0,-0.273684210526,1,0.301714288712,0.0,0.0,0.0,0.0,-0.342857146263,0.301714288712,0.0,0.0,0.0,0.0,-0.342857146263,Linear,1,Sharing Zero Relinquish,1.0,user,0
1449618009370104669,0.46938686116,0.196678215762,0.0,0.0,0.0,0.281481142997,0.959566759604,1449618009367506572,1,0.12,0.0,0.0,0.0,0.0,-0.273684210526,1,0.301714288712,0.0,0.0,0.0,0.0,-0.342857146263,0.301714288712,0.0,0.0,0.0,0.0,-0.342857146263,Linear,1,Sharing Zero Relinquish,1.0,user,0
1449618009383846828,0.488774475676,0.209123527956,0.0,0.0,0.0,0.281481142997,0.959566759604,1449618009383366113,1,0.12,0.0,0.0,0.0,0.0,-0.273684210526,1,0.251428577423,0.0,0.0,0.0,0.0,-0.292063498497,0.251428577423,0.0,0.0,0.0,0.0,-0.292063498497,Linear,1,Sharing Zero Relinquish,1.0,user,0
1449618009444052589,0.488774475676,0.209123527956,0.0,0.0,0.0,0.281481142997,0.959566759604,1449618009443114061,1,0.12,0.0,0.0,0.0,0.0,-0.315789473684,1,0.251428577423,0.0,0.0,0.0,0.0,-0.292063498497,0.251428577423,0.0,0.0,0.0,0.0,-0.292063498497,Linear,1,Sharing Zero Relinquish,1.0,user,0
1449618009469503004,0.505852771267,0.219833293273,0.0,0.0,0.0,0.276406862881,0.961040709935,1449618009468825446,1,0.12,0.0,0.0,0.0,0.0,-0.315789473684,1,0.301714288712,0.0,0.0,0.0,0.0,-0.342857146263,0.301714288712,0.0,0.0,0.0,0.0,-0.342857146263,Linear,1,Sharing Zero Relinquish,1.0,user,0
1449618009512972108,0.505852771267,0.219833293273,0.0,0.0,0.0,0.276406862881,0.961040709935,1449618009512543344,1,0.0,0.0,0.0,0.0,0.0,0.0,1,0.301714288712,0.0,0.0,0.0,0.0,-0.342857146263,0.301714288712,0.0,0.0,0.0,0.0,-0.342857146263,Linear,1,Sharing Zero Relinquish,1.0,user,0
1449618009598997065,0.518131714931,0.227353783538,0.0,0.0,0.0,0.271324865251,0.962487827194,1449618009597304938,1,0.0,0.0,0.0,0.0,0.0,0.0,1,0.301714288712,0.0,0.0,0.0,0.0,-0.342857146263,0.226285716534,0.0,0.0,0.0,0.0,-0.257142859697,Linear,1,Sharing Zero Relinquish,0.75,user,0
1449618009616387005,0.545255696652,0.243716607302,0.0,0.0,0.0,0.266235292001,0.963908070976,1449618009615513386,1,0.0,0.0,0.0,0.0,0.0,0.0,1,0.296126987457,0.0,0.0,0.0,0.0,-0.336507940292,0.296126987457,0.0,0.0,0.0,0.0,-0.336507940292,Linear,1,Sharing Zero Relinquish,1.0,user,0
1449618009632706981,0.545255696652,0.243716607302,0.0,0.0,0.0,0.266235292001,0.963908070976,1449618009631899253,1,0.0,0.0,0.0,0.0,0.0,0.0,1,0.296126987457,0.0,0.0,0.0,0.0,-0.336507940292,0.296126987457,0.0,0.0,0.0,0.0,-0.336507940292,Linear,1,Sharing Zero Relinquish,1.0,user,0
1449618009706362128,0.545255696652,0.243716607302,0.0,0.0,0.0,0.266235292001,0.963908070976,1449618009704402660,1,0.0,0.0,0.0,0.0,0.0,0.0,1,0.296126987457,0.0,0.0,0.0,0.0,-0.336507940292,0.296126987457,0.0,0.0,0.0,0.0,-0.336507940292,Linear,1,Sharing Zero Relinquish,1.0,user,0
1449618009717359698,0.565227946325,0.255199670574,0.0,0.0,0.0,0.256033987268,0.966667780245,1449618009716804069,1,0.0,0.0,0.0,0.0,0.0,0.0,1,0.296126987457,0.0,0.0,0.0,0.0,-0.336507940292,0.296126987457,0.0,0.0,0.0,0.0,-0.336507940292,Linear,1,Sharing Zero Relinquish,1.0,user,0
1449618009805696874,0.575236877409,0.260901656774,0.0,0.0,0.0,0.256033987268,0.966667780245,1449618009805068098,1,0.0,0.0,0.0,0.0,0.0,0.0,1,0.296126987457,0.0,0.0,0.0,0.0,-0.336507940292,0.296126987457,0.0,0.0,0.0,0.0,-0.336507940292,Linear,1,Sharing Zero Relinquish,1.0,user,0
1449618009814814937,0.595447355173,0.271960051216,0.0,0.0,0.0,0.24580408799,0.96931952953,1449618009814288486,1,0.0,0.0,0.0,0.0,0.0,0.0,1,0.296126987457,0.0,0.0,0.0,0.0,-0.336507940292,0.296126987457,0.0,0.0,0.0,0.0,-0.336507940292,Linear,1,Sharing Zero Relinquish,1.0,user,0
1449618009833814460,0.595447355173,0.271960051216,0.0,0.0,0.0,0.24580408799,0.96931952953,1449618009832464142,1,0.0,0.0,0.0,0.0,0.0,0.0,1,0.296126987457,0.0,0.0,0.0,0.0,-0.336507940292,0.296126987457,0.0,0.0,0.0,0.0,-0.336507940292,Linear,1,Sharing Zero Relinquish,1.0,user,0
1449618009861940614,0.595447355173,0.271960051216,0.0,0.0,0.0,0.24580408799,0.96931952953,1449618009861577119,1,0.0,0.0,0.0,0.0,0.0,0.0,1,0.296126987457,0.0,0.0,0.0,0.0,-0.336507940292,0.296126987457,0.0,0.0,0.0,0.0,-0.336507940292,Linear,1,Sharing Zero Relinquish,1.0,user,0
1449618009928075031,0.605574559435,0.277449229835,0.0,0.0,0.0,0.24580408799,0.96931952953,1449618009926885772,1,0.0,0.0,0.0,0.0,0.0,0.0,1,0.296126987457,0.0,0.0,0.0,0.0,-0.336507940292,0.296126987457,0.0,0.0,0.0,0.0,-0.336507940292,Linear,1,Sharing Zero Relinquish,1.0,user,0
1449618009946700716,0.626014236907,0.288078015465,0.0,0.0,0.0,0.235546736669,0.971863022676,1449618009946135836,1,0.0,0.0,0.0,0.0,0.0,0.0,1,0.296126987457,0.0,0.0,0.0,0.0,-0.336507940292,0.296126987457,0.0,0.0,0.0,0.0,-0.336507940292,Linear,1,Sharing Zero Relinquish,1.0,user,0
1449618009986606897,0.626014236907,0.288078015465,0.0,0.0,0.0,0.235546736669,0.971863022676,1449618009985406836,1,0.0,0.0,0.0,0.0,0.0,0.0,1,0.296126987457,0.0,0.0,0.0,0.0,-0.342857146263,0.296126987457,0.0,0.0,0.0,0.0,-0.342857146263,Linear,1,Sharing Zero Relinquish,1.0,user,0
1449618010036009438,0.636255190342,0.293351934388,0.0,0.0,0.0,0.235546736669,0.971863022676,1449618010034894485,1,0.0,0.0,0.0,0.0,0.0,0.0,1,0.296126987457,0.0,0.0,0.0,0.0,-0.342857146263,0.296126987457,0.0,0.0,0.0,0.0,-0.342857146263,Linear,1,Sharing Zero Relinquish,1.0,user,0
1449618010065485188,0.643977277012,0.297225984044,0.0,0.0,0.0,0.230408124366,0.973094083954,1449618010064841529,1,0.0,0.0,0.0,0.0,0.0,0.0,1,0.296126987457,0.0,0.0,0.0,0.0,-0.336507940292,0.296126987457,0.0,0.0,0.0,0.0,-0.336507940292,Linear,1,Sharing Zero Relinquish,1.0,user,0
1449618010110866272,0.654380261102,0.302172626348,0.0,0.0,0.0,0.220111743843,0.97547466406,1449618010109052626,1,0.0,0.0,0.0,0.0,0.0,0.0,1,0.296126987457,0.0,0.0,0.0,0.0,-0.336507940292,0.296126987457,0.0,0.0,0.0,0.0,-0.336507940292,Linear,1,Sharing Zero Relinquish,1.0,user,0
1449618010198678225,0.664783245192,0.307119268652,0.0,0.0,0.0,0.220111743843,0.97547466406,1449618010197392346,1,0.0,0.0,0.0,0.0,0.0,0.0,1,0.296126987457,0.0,0.0,0.0,0.0,-0.336507940292,0.296126987457,0.0,0.0,0.0,0.0,-0.336507940292,Linear,1,Sharing Zero Relinquish,1.0,user,0
1449618010206341110,0.696333231337,0.321211658517,0.0,0.0,0.0,0.199446387505,0.979908739889,1449618010205574055,1,0.0,0.0,0.0,0.0,0.0,0.0,1,0.296126987457,0.0,0.0,0.0,0.0,-0.342857146263,0.296126987457,0.0,0.0,0.0,0.0,-0.342857146263,Linear,1,Sharing Zero Relinquish,1.0,user,0
1449618010235662453,0.696333231337,0.321211658517,0.0,0.0,0.0,0.199446387505,0.979908739889,1449618010234733437,1,0.0,0.0,0.0,0.0,0.0,0.0,1,0.296126987457,0.0,0.0,0.0,0.0,-0.342857146263,0.296126987457,0.0,0.0,0.0,0.0,-0.342857146263,Linear,1,Sharing Zero Relinquish,1.0,user,0
1449618010287949765,0.696333231337,0.321211658517,0.0,0.0,0.0,0.199446387505,0.979908739889,1449618010287418325,1,0.0,0.0,0.0,0.0,0.0,0.0,1,0.296126987457,0.0,0.0,0.0,0.0,-0.342857146263,0.296126987457,0.0,0.0,0.0,0.0,-0.342857146263,Linear,1,Sharing Zero Relinquish,1.0,user,0
1449618010301481222,0.714923258666,0.329006979089,0.0,0.0,0.0,0.194265765611,0.98094893461,1449618010301209159,1,0.0,0.0,0.0,0.0,0.0,0.0,1,0.296126987457,0.0,0.0,0.0,0.0,-0.342857146263,0.296126987457,0.0,0.0,0.0,0.0,-0.342857146263,Linear,1,Sharing Zero Relinquish,1.0,user,0
1449618010341668413,0.714923258666,0.329006979089,0.0,0.0,0.0,0.194265765611,0.98094893461,1449618010341288681,1,0.0,0.0,0.0,0.0,0.0,0.0,1,0.296126987457,0.0,0.0,0.0,0.0,-0.336507940292,0.296126987457,0.0,0.0,0.0,0.0,-0.336507940292,Linear,1,Sharing Zero Relinquish,1.0,user,0
1449618010414691140,0.7256633914,0.333171219345,0.0,0.0,0.0,0.183888394426,0.982947128993,1449618010413086162,1,0.0,0.0,0.0,0.0,0.0,0.0,1,0.296126987457,0.0,0.0,0.0,0.0,-0.336507940292,0.296126987457,0.0,0.0,0.0,0.0,-0.336507940292,Linear,1,Sharing Zero Relinquish,1.0,user,0
1449618010427297216,0.744534586516,0.340259607621,0.0,0.0,0.0,0.17869193488,0.983905072865,1449618010425233122,1,0.0,0.0,0.0,0.0,0.0,0.0,1,0.296126987457,0.0,0.0,0.0,0.0,-0.336507940292,0.296126987457,0.0,0.0,0.0,0.0,-0.336507940292,Linear,1,Sharing Zero Relinquish,1.0,user,0
1449618010473842484,0.744534586516,0.340259607621,0.0,0.0,0.0,0.17869193488,0.983905072865,1449618010471923404,1,0.0,0.0,0.0,0.0,0.0,0.0,1,0.296126987457,0.0,0.0,0.0,0.0,-0.336507940292,0.296126987457,0.0,0.0,0.0,0.0,-0.336507940292,Linear,1,Sharing Zero Relinquish,1.0,user,0
1449618010511551892,0.755401323529,0.344081305508,0.0,0.0,0.0,0.168284193326,0.985738520236,1449618010510636640,1,0.0,0.0,0.0,0.0,0.0,0.0,1,0.296126987457,0.0,0.0,0.0,0.0,-0.336507940292,0.296126987457,0.0,0.0,0.0,0.0,-0.336507940292,Linear,1,Sharing Zero Relinquish,1.0,user,0
1449618010590555132,0.769034470202,0.348714613519,0.0,0.0,0.0,0.163073201911,0.986613972544,1449618010589073491,1,0.0,0.0,0.0,0.0,0.0,0.0,1,0.296126987457,0.0,0.0,0.0,0.0,-0.336507940292,0.296126987457,0.0,0.0,0.0,0.0,-0.336507940292,Linear,1,Sharing Zero Relinquish,1.0,user,0
1449618010609550235,0.785470148348,0.354043251172,0.0,0.0,0.0,0.152637705278,0.988282212188,1449618010608844553,1,0.0,0.0,0.0,0.0,0.0,0.0,1,0.301714288712,0.0,0.0,0.0,0.0,-0.336507940292,0.301714288712,0.0,0.0,0.0,0.0,-0.336507940292,Linear,1,Sharing Zero Relinquish,1.0,user,0
1449618010659934095,0.799243314363,0.358242075919,0.0,0.0,0.0,0.147413491427,0.989074952946,1449618010659729355,1,0.0,0.0,0.0,0.0,0.0,0.0,1,0.245841276169,0.0,0.0,0.0,0.0,-0.279365086555,0.245841276169,0.0,0.0,0.0,0.0,-0.279365086555,Linear,1,Sharing Zero Relinquish,1.0,user,0
1449618010675183313,0.80753337604,0.36067389842,0.0,0.0,0.0,0.142185161666,0.989840077892,1449618010673801093,1,0.0,0.0,0.0,0.0,0.0,0.0,1,0.245841276169,0.0,0.0,0.0,0.0,-0.279365086555,0.245841276169,0.0,0.0,0.0,0.0,-0.279365086555,Linear,1,Sharing Zero Relinquish,1.0,user,0
1449618010710106147,0.80753337604,0.36067389842,0.0,0.0,0.0,0.142185161666,0.989840077892,1449618010709575309,1,0.0,0.0,0.0,0.0,0.0,0.0,1,0.245841276169,0.0,0.0,0.0,0.0,-0.279365086555,0.245841276169,0.0,0.0,0.0,0.0,-0.279365086555,Linear,1,Sharing Zero Relinquish,1.0,user,0
1449618010752696079,0.818652849943,0.363681995521,0.0,0.0,0.0,0.131716738444,0.99128739567,1449618010750661517,1,0.0,0.0,0.0,0.0,0.0,0.0,1,0.245841276169,0.0,0.0,0.0,0.0,-0.279365086555,0.245841276169,0.0,0.0,0.0,0.0,-0.279365086555,Linear,1,Sharing Zero Relinquish,1.0,user,0
1449618010804147552,0.829772323847,0.366690092622,0.0,0.0,0.0,0.131716738444,0.99128739567,1449618010803361972,1,0.0,0.0,0.0,0.0,0.0,0.0,1,0.301714288712,0.0,0.0,0.0,0.0,-0.342857146263,0.301714288712,0.0,0.0,0.0,0.0,-0.342857146263,Linear,1,Sharing Zero Relinquish,1.0,user,0
1449618010831678477,0.849374155281,0.371393941662,0.0,0.0,0.0,0.115986887289,0.993250744765,1449618010830501870,1,0.0,0.0,0.0,0.0,0.0,0.0,1,0.301714288712,0.0,0.0,0.0,0.0,-0.342857146263,0.301714288712,0.0,0.0,0.0,0.0,-0.342857146263,Linear,1,Sharing Zero Relinquish,1.0,user,0
1449618010869607597,0.849374155281,0.371393941662,0.0,0.0,0.0,0.115986887289,0.993250744765,1449618010867773099,1,0.0,0.0,0.0,0.0,0.0,0.0,1,0.301714288712,0.0,0.0,0.0,0.0,-0.336507940292,0.301714288712,0.0,0.0,0.0,0.0,-0.336507940292,Linear,1,Sharing Zero Relinquish,1.0,user,0
1449618010958592807,0.857801651386,0.373295570615,0.0,0.0,0.0,0.110736931374,0.993849753247,1449618010957233765,1,0.0,0.0,0.0,0.0,0.0,0.0,1,0.301714288712,0.0,0.0,0.0,0.0,-0.336507940292,0.301714288712,0.0,0.0,0.0,0.0,-0.336507940292,Linear,1,Sharing Zero Relinquish,1.0,user,0
1449618010976895031,0.886073259778,0.378770347071,0.0,0.0,0.0,0.0897076561262,0.99596814027,1449618010976101193,1,0.0,0.0,0.0,0.0,0.0,0.0,1,0.301714288712,0.0,0.0,0.0,0.0,-0.336507940292,0.301714288712,0.0,0.0,0.0,0.0,-0.336507940292,Linear,1,Sharing Zero Relinquish,1.0,user,0
1449618011036935272,0.886073259778,0.378770347071,0.0,0.0,0.0,0.0897076561262,0.99596814027,1449618011033638234,1,0.0,0.0,0.0,0.0,0.0,0.0,1,0.251428577423,0.0,0.0,0.0,0.0,-0.285714292526,0.251428577423,0.0,0.0,0.0,0.0,-0.285714292526,Linear,1,Sharing Zero Relinquish,1.0,user,0
1449618011056938903,0.897448004041,0.380588736746,0.0,0.0,0.0,0.0791774028604,0.996860541338,1449618011055488714,1,0.0,0.0,0.0,0.0,0.0,0.0,1,0.251428577423,0.0,0.0,0.0,0.0,-0.285714292526,0.251428577423,0.0,0.0,0.0,0.0,-0.285714292526,Linear,1,Sharing Zero Relinquish,1.0,user,0
1449618011066363228,0.908822748304,0.38240712642,0.0,0.0,0.0,0.0791774028604,0.996860541338,1449618011066036799,1,0.0,0.0,0.0,0.0,0.0,0.0,1,0.301714288712,0.0,0.0,0.0,0.0,-0.342857146263,0.301714288712,0.0,0.0,0.0,0.0,-0.342857146263,Linear,1,Sharing Zero Relinquish,1.0,user,0
1449618011138558911,0.908822748304,0.38240712642,0.0,0.0,0.0,0.0791774028604,0.996860541338,1449618011134752588,1,0.0,0.0,0.0,0.0,0.0,0.0,1,0.301714288712,0.0,0.0,0.0,0.0,-0.342857146263,0.301714288712,0.0,0.0,0.0,0.0,-0.342857146263,Linear,1,Sharing Zero Relinquish,1.0,user,0
1449618011158096485,0.925938699921,0.384773501998,0.0,0.0,0.0,0.0686383068554,0.997641610415,1449618011157222668,1,0.0,0.0,0.0,0.0,0.0,0.0,1,0.301714288712,0.0,0.0,0.0,0.0,-0.342857146263,0.301714288712,0.0,0.0,0.0,0.0,-0.342857146263,Linear,1,Sharing Zero Relinquish,1.0,user,0
1449618011186363943,0.937380127146,0.386109575026,0.0,0.0,0.0,0.0580915451448,0.99831126027,1449618011184979966,1,0.0,0.0,0.0,0.0,0.0,0.0,1,0.296126987457,0.0,0.0,0.0,0.0,-0.342857146263,0.296126987457,0.0,0.0,0.0,0.0,-0.342857146263,Linear,1,Sharing Zero Relinquish,1.0,user,0
1449618011282209740,0.937380127146,0.386109575026,0.0,0.0,0.0,0.0580915451448,0.99831126027,1449618011278251119,1,0.0,0.0,0.0,0.0,0.0,0.0,1,0.296126987457,0.0,0.0,0.0,0.0,-0.342857146263,0.296126987457,0.0,0.0,0.0,0.0,-0.342857146263,Linear,1,Sharing Zero Relinquish,1.0,user,0
1449618011291164410,0.963180161765,0.388570905744,0.0,0.0,0.0,0.042259606217,0.999106663816,1449618011290454234,1,0.0,0.0,0.0,0.0,0.0,0.0,1,0.296126987457,0.0,0.0,0.0,0.0,-0.336507940292,0.296126987457,0.0,0.0,0.0,0.0,-0.336507940292,Linear,1,Sharing Zero Relinquish,1.0,user,0
1449618011310534517,0.963180161765,0.388570905744,0.0,0.0,0.0,0.042259606217,0.999106663816,1449618011309488235,1,0.0,0.0,0.0,0.0,0.0,0.0,1,0.296126987457,0.0,0.0,0.0,0.0,-0.336507940292,0.296126987457,0.0,0.0,0.0,0.0,-0.336507940292,Linear,1,Sharing Zero Relinquish,1.0,user,0
1449618011398366233,0.963180161765,0.388570905744,0.0,0.0,0.0,0.042259606217,0.999106663816,1449618011396245596,1,0.0,0.0,0.0,0.0,0.0,0.0,1,0.296126987457,0.0,0.0,0.0,0.0,-0.336507940292,0.296126987457,0.0,0.0,0.0,0.0,-0.336507940292,Linear,1,Sharing Zero Relinquish,1.0,user,0
1449618011413886787,0.989065343688,0.389818070025,0.0,0.0,0.0,0.0158514091245,0.999874358521,1449618011411848965,1,0.0,0.0,0.0,0.0,0.0,0.0,1,0.296126987457,0.0,0.0,0.0,0.0,-0.336507940292,0.296126987457,0.0,0.0,0.0,0.0,-0.336507940292,Linear,1,Sharing Zero Relinquish,1.0,user,0
1449618011436130984,0.989065343688,0.389818070025,0.0,0.0,0.0,0.0158514091245,0.999874358521,1449618011435638954,1,0.0,0.0,0.0,0.0,0.0,0.0,1,0.296126987457,0.0,0.0,0.0,0.0,-0.336507940292,0.296126987457,0.0,0.0,0.0,0.0,-0.336507940292,Linear,1,Sharing Zero Relinquish,1.0,user,0
1449618011496360549,1.00058387351,0.38993980294,0.0,0.0,0.0,0.0052839997518,0.999986039576,1449618011495805883,1,0.0,0.0,0.0,0.0,0.0,0.0,1,0.296126987457,0.0,0.0,0.0,0.0,-0.336507940292,0.296126987457,0.0,0.0,0.0,0.0,-0.336507940292,Linear,1,Sharing Zero Relinquish,1.0,user,0
1449618011520983141,1.00634313841,0.390000669398,0.0,0.0,0.0,0.0052839997518,0.999986039576,1449618011520264661,1,0.0,0.0,0.0,0.0,0.0,0.0,1,0.296126987457,0.0,0.0,0.0,0.0,-0.336507940292,0.296126987457,0.0,0.0,0.0,0.0,-0.336507940292,Linear,1,Sharing Zero Relinquish,1.0,user,0
1449618011551230098,1.01786166823,0.389878936483,0.0,0.0,0.0,-0.0052839997518,0.999986039576,1449618011548868717,1,0.0,0.0,0.0,0.0,0.0,0.0,1,0.301714288712,0.0,0.0,0.0,0.0,-0.342857146263,0.301714288712,0.0,0.0,0.0,0.0,-0.342857146263,Linear,1,Sharing Zero Relinquish,1.0,user,0
1449618011642259136,1.01786166823,0.389878936483,0.0,0.0,0.0,-0.0052839997518,0.999986039576,1449618011639459138,1,0.0,0.0,0.0,0.0,0.0,0.0,1,0.301714288712,0.0,0.0,0.0,0.0,-0.342857146263,0.301714288712,0.0,0.0,0.0,0.0,-0.342857146263,Linear,1,Sharing Zero Relinquish,1.0,user,0
1449618011658327071,1.04663725207,0.388814096329,0.0,0.0,0.0,-0.0264170481704,0.999651008886,1449618011656405630,1,0.0,0.0,0.0,0.0,0.0,0.0,1,0.301714288712,0.0,0.0,0.0,0.0,-0.342857146263,0.301714288712,0.0,0.0,0.0,0.0,-0.342857146263,Linear,1,Sharing Zero Relinquish,1.0,user,0
1449618011665888203,1.04663725207,0.388814096329,0.0,0.0,0.0,-0.0264170481704,0.999651008886,1449618011665373042,1,0.0,0.0,0.0,0.0,0.0,0.0,1,0.296126987457,0.0,0.0,0.0,0.0,-0.336507940292,0.296126987457,0.0,0.0,0.0,0.0,-0.336507940292,Linear,1,Sharing Zero Relinquish,1.0,user,0
1449618011749331342,1.04663725207,0.388814096329,0.0,0.0,0.0,-0.0264170481704,0.999651008886,1449618011748928518,1,0.0,0.0,0.0,0.0,0.0,0.0,1,0.296126987457,0.0,0.0,0.0,0.0,-0.336507940292,0.296126987457,0.0,0.0,0.0,0.0,-0.336507940292,Linear,1,Sharing Zero Relinquish,1.0,user,0
1449618011762181638,1.06099828463,0.387780294179,0.0,0.0,0.0,-0.042259606217,0.999106663816,1449618011761149712,1,0.0,0.0,0.0,0.0,0.0,0.0,1,0.296126987457,0.0,0.0,0.0,0.0,-0.336507940292,0.296126987457,0.0,0.0,0.0,0.0,-0.336507940292,Linear,1,Sharing Zero Relinquish,1.0,user,0
1449618011782869301,1.07245319237,0.386565207069,0.0,0.0,0.0,-0.0528156577107,0.998604279132,1449618011782653283,1,0.0,0.0,0.0,0.0,0.0,0.0,1,0.296126987457,0.0,0.0,0.0,0.0,-0.342857146263,0.296126987457,0.0,0.0,0.0,0.0,-0.342857146263,Linear,1,Sharing Zero Relinquish,1.0,user,0
1449618011825649938,1.07245319237,0.386565207069,0.0,0.0,0.0,-0.0528156577107,0.998604279132,1449618011825069510,1,0.0,0.0,0.0,0.0,0.0,0.0,1,0.296126987457,0.0,0.0,0.0,0.0,-0.342857146263,0.296126987457,0.0,0.0,0.0,0.0,-0.342857146263,Linear,1,Sharing Zero Relinquish,1.0,user,0
1449618011866242689,1.08387986127,0.38510829734,0.0,0.0,0.0,-0.0633658106137,0.997990367712,1449618011865535359,1,0.0,0.0,0.0,0.0,0.0,0.0,1,0.296126987457,0.0,0.0,0.0,0.0,-0.342857146263,0.296126987457,0.0,0.0,0.0,0.0,-0.342857146263,Linear,1,Sharing Zero Relinquish,1.0,user,0
1449618011907967868,1.09243783708,0.383925109551,0.0,0.0,0.0,-0.0686383068554,0.997641610415,1449618011906829545,1,0.0,0.0,0.0,0.0,0.0,0.0,1,0.301714288712,0.0,0.0,0.0,0.0,-0.342857146263,0.301714288712,0.0,0.0,0.0,0.0,-0.342857146263,Linear,1,Sharing Zero Relinquish,1.0,user,0
1449618011950320940,1.10098283124,0.382651548411,0.0,0.0,0.0,-0.0739088866573,0.997264998119,1449618011949090403,1,0.0,0.0,0.0,0.0,0.0,0.0,1,0.301714288712,0.0,0.0,0.0,0.0,-0.342857146263,0.301714288712,0.0,0.0,0.0,0.0,-0.342857146263,Linear,1,Sharing Zero Relinquish,1.0,user,0
1449618012011627889,1.10951388944,0.381287756155,0.0,0.0,0.0,-0.0791774028604,0.996860541338,1449618012010986472,1,0.0,0.0,0.0,0.0,0.0,0.0,1,0.296126987457,0.0,0.0,0.0,0.0,-0.336507940292,0.296126987457,0.0,0.0,0.0,0.0,-0.336507940292,Linear,1,Sharing Zero Relinquish,1.0,user,0
1449618012024740865,1.12649586267,0.378110792005,0.0,0.0,0.0,-0.100227890607,0.994964506877,1449618012023833777,1,0.0,0.0,0.0,0.0,0.0,0.0,1,0.296126987457,0.0,0.0,0.0,0.0,-0.336507940292,0.296126987457,0.0,0.0,0.0,0.0,-0.336507940292,Linear,1,Sharing Zero Relinquish,1.0,user,0
1449618012064670795,1.12649586267,0.378110792005,0.0,0.0,0.0,-0.100227890607,0.994964506877,1449618012063471358,1,0.0,0.0,0.0,0.0,0.0,0.0,1,0.296126987457,0.0,0.0,0.0,0.0,-0.342857146263,0.296126987457,0.0,0.0,0.0,0.0,-0.342857146263,Linear,1,Sharing Zero Relinquish,1.0,user,0
1449618012123508421,1.13773252414,0.375575286734,0.0,0.0,0.0,-0.110736931374,0.993849753247,1449618012121272227,1,0.0,0.0,0.0,0.0,0.0,0.0,1,0.296126987457,0.0,0.0,0.0,0.0,-0.342857146263,0.296126987457,0.0,0.0,0.0,0.0,-0.342857146263,Linear,1,Sharing Zero Relinquish,1.0,user,0
1449618012140693338,1.15452487724,0.371505388116,0.0,0.0,0.0,-0.121233604752,0.99262400388,1449618012140532614,1,0.0,0.0,0.0,0.0,0.0,0.0,1,0.296126987457,0.0,0.0,0.0,0.0,-0.342857146263,0.296126987457,0.0,0.0,0.0,0.0,-0.342857146263,Linear,1,Sharing Zero Relinquish,1.0,user,0
1449618012219002658,1.15452487724,0.371505388116,0.0,0.0,0.0,-0.121233604752,0.99262400388,1449618012218479582,1,0.0,0.0,0.0,0.0,0.0,0.0,1,0.346412698746,0.0,0.0,0.0,0.0,-0.0253968268633,0.259809524059,0.0,0.0,0.0,0.0,-0.0190476201475,Linear,1,Sharing Zero Relinquish,0.75,user,0
