%time,field.linear.x,field.linear.y,field.linear.z,field.angular.x,field.angular.y,field.angular.z
1449617999595280457,0.0,0.0,0.0,0.0,0.0,0.0
1449617999635359142,0.0,0.0,0.0,0.0,0.0,0.0
1449617999675225783,0.0,0.0,0.0,0.0,0.0,0.0
1449617999715338216,0.0,0.0,0.0,0.0,0.0,0.0
1449617999755181278,0.0,0.0,0.0,0.0,0.0,0.0
1449617999795228050,0.0,0.0,0.0,0.0,0.0,0.0
1449617999835242689,0.0,0.0,0.0,0.0,0.0,0.0
1449617999875471120,0.0,0.0,0.0,0.0,0.0,0.0
1449617999915182880,0.0,0.0,0.0,0.0,0.0,0.0
1449617999955258685,0.0,0.0,0.0,0.0,0.0,0.0
1449617999995913496,0.0,0.0,0.0,0.0,0.0,0.0
1449618000035326747,0.0,0.0,0.0,0.0,0.0,0.0
1449618000076100365,0.0,0.0,0.0,0.0,0.0,0.0
1449618000115220013,0.0,0.0,0.0,0.0,0.0,0.0
1449618000155401481,0.0,0.0,0.0,0.0,0.0,0.0
1449618000195526611,0.0,0.0,0.0,0.0,0.0,0.0
1449618000235614453,0.0,0.0,0.0,0.0,0.0,0.0
1449618000275795774,0.0,0.0,0.0,0.0,0.0,0.0
1449618000315276003,0.0,0.0,0.0,0.0,0.0,0.0
1449618000355332058,0.0,0.0,0.0,0.0,0.0,0.0
1449618000395521427,0.0,0.0,0.0,0.0,0.0,0.0
1449618000435444194,0.0,0.0,0.0,0.0,0.0,0.0
1449618000477320331,0.0,0.0,0.0,0.0,0.0,0.0
1449618000515427981,0.0,0.0,0.0,0.0,0.0,0.0
1449618000555385975,0.0,0.0,0.0,0.0,0.0,0.0
1449618000595739838,0.0,0.0,0.0,0.0,0.0,0.0
1449618000636827813,0.0,0.0,0.0,0.0,0.0,0.0
1449618000678463891,0.0,0.0,0.0,0.0,0.0,0.0
1449618000715741685,0.0,0.0,0.0,0.0,0.0,0.0
1449618000755707952,0.0,0.0,0.0,0.0,0.0,0.0
1449618000795538624,0.0,0.0,0.0,0.0,0.0,0.0
1449618000835679748,0.0,0.0,0.0,0.0,0.0,0.0
1449618000875503521,0.0,0.0,0.0,0.0,0.0,0.0
1449618000916018067,0.0,0.0,0.0,0.0,0.0,0.0
1449618000955255778,0.0,0.0,0.0,0.0,0.0,0.0
1449618000995462101,0.0,0.0,0.0,0.0,0.0,0.0
1449618001035868371,0.0,0.0,0.0,0.0,0.0,0.0
1449618001075437728,0.0,0.0,0.0,0.0,0.0,0.0
1449618001115455105,0.0,0.0,0.0,0.0,0.0,0.0
1449618001155434489,0.0,0.0,0.0,0.0,0.0,0.0
1449618001195518661,0.0,0.0,0.0,0.0,0.0,0.0
1449618001235385609,0.0,0.0,0.0,0.0,0.0,0.0
1449618001275648645,0.0,0.0,0.0,0.0,0.0,0.0
1449618001315913298,0.0,0.0,0.0,0.0,0.0,0.0
1449618001355557482,0.0,0.0,0.0,0.0,0.0,0.0
1449618001395903626,0.0,0.0,0.0,0.0,0.0,0.0
1449618001436334605,0.0,0.0,0.0,0.0,0.0,0.0
1449618001476046731,0.0,0.0,0.0,0.0,0.0,0.0
1449618001515482659,0.0,0.0,0.0,0.0,0.0,0.0
1449618001555862150,0.0,0.0,0.0,0.0,0.0,0.0
1449618001595932375,0.0,0.0,0.0,0.0,0.0,0.0
1449618001637021875,0.0,0.0,0.0,0.0,0.0,0.0
1449618001676180753,0.0,0.0,0.0,0.0,0.0,0.0
1449618001715685791,0.0,0.0,0.0,0.0,0.0,0.0
1449618001755681053,0.0,0.0,0.0,0.0,0.0,0.0
1449618001796502273,0.0,0.0,0.0,0.0,0.0,0.0
1449618001835447014,0.0,0.0,0.0,0.0,0.0,0.0
1449618001877305949,0.0,0.0,0.0,0.0,0.0,0.0
1449618001916196083,0.0,0.0,0.0,0.0,0.0,0.0
1449618001955654099,0.0,0.0,0.0,0.0,0.0,0.0
1449618001995871021,0.0,0.0,0.0,0.0,0.0,0.0
1449618002036127755,0.0,0.0,0.0,0.0,0.0,0.0
1449618002075341460,0.0,0.0,0.0,0.0,0.0,0.0
1449618002115761434,0.0,0.0,0.0,0.0,0.0,0.0
1449618002157126357,0.0,0.0,0.0,0.0,0.0,0.0
1449618002196208529,0.0,0.0,0.0,0.0,0.0,0.0
1449618002236351823,0.0,0.0,0.0,0.0,0.0,0.0
1449618002275491865,0.0,0.0,0.0,0.0,0.0,0.0
1449618002315919338,0.0,0.0,0.0,0.0,0.0,0.0
1449618002355584764,0.0,0.0,0.0,0.0,0.0,0.0
1449618002396122470,0.0,0.0,0.0,0.0,0.0,0.0
1449618002435576430,0.0,0.0,0.0,0.0,0.0,0.0
1449618002476109466,0.0,0.0,0.0,0.0,0.0,0.0
1449618002515801326,0.0,0.0,0.0,0.0,0.0,0.0
1449618002555405029,0.0,0.0,0.0,0.0,0.0,0.0
1449618002596192596,0.0,0.0,0.0,0.0,0.0,0.0
1449618002635355982,0.0,0.0,0.0,0.0,0.0,0.0
1449618002676299013,0.0,0.0,0.0,0.0,0.0,0.0
1449618002715971746,-0.0,0.0,0.0,0.0,0.0,-0.0
1449618002755628350,-0.0,0.0,0.0,0.0,0.0,-0.0
1449618002797877116,-0.0,0.0,0.0,0.0,0.0,-0.0
1449618002835975363,-0.0,0.0,0.0,0.0,0.0,-0.0
1449618002875666576,-0.0,0.0,0.0,0.0,0.0,-0.0
1449618002915513171,-0.0,0.0,0.0,0.0,0.0,-0.0
1449618002956545720,-0.0,0.0,0.0,0.0,0.0,-0.0
1449618002995755865,-0.0,0.0,0.0,0.0,0.0,-0.0
1449618003035558355,-0.0,0.0,0.0,0.0,0.0,-0.0
1449618003076150519,-0.0,0.0,0.0,0.0,0.0,-0.0
1449618003115844608,-0.0,0.0,0.0,0.0,0.0,-0.0
1449618003155821701,-0.0,0.0,0.0,0.0,0.0,-0.0
1449618003195751539,-0.0,0.0,0.0,0.0,0.0,-0.0
1449618003235625437,-0.0,0.0,0.0,0.0,0.0,-0.0
1449618003275598335,-0.0,0.0,0.0,0.0,0.0,-0.0
1449618003316803468,-0.0,0.0,0.0,0.0,0.0,-0.0
1449618003355767056,-0.0,0.0,0.0,0.0,0.0,-0.0
1449618003396298049,-0.0,0.0,0.0,0.0,0.0,-0.0
1449618003435793842,-0.0,0.0,0.0,0.0,0.0,-0.0
1449618003475585753,-0.0,0.0,0.0,0.0,0.0,-0.0
1449618003515941466,-0.0,0.0,0.0,0.0,0.0,-0.0
1449618003556162191,-0.0,0.0,0.0,0.0,0.0,-0.0
1449618003595617757,-0.0,0.0,0.0,0.0,0.0,-0.0
1449618003635441383,-0.0,0.0,0.0,0.0,0.0,-0.0
1449618003677702438,-0.0,0.0,0.0,0.0,0.0,-0.0
1449618003716251901,-0.0,0.0,0.0,0.0,0.0,-0.0
1449618003756604672,-0.0,0.0,0.0,0.0,0.0,-0.0
1449618003795469710,-0.0,0.0,0.0,0.0,0.0,-0.0
1449618003835413828,-0.0,0.0,0.0,0.0,0.0,-0.0
1449618003875638356,-0.0,0.0,0.0,0.0,0.0,-0.0
1449618003916128654,-0.0,0.0,0.0,0.0,0.0,-0.0
1449618003955904948,-0.0,0.0,0.0,0.0,0.0,-0.0
1449618003995591654,-0.0,0.0,0.0,0.0,0.0,-0.0
1449618004035679733,-0.0,0.0,0.0,0.0,0.0,-0.0
1449618004075618029,-0.0,0.0,0.0,0.0,0.0,-0.0
1449618004117304074,-0.0,0.0,0.0,0.0,0.0,-0.0
1449618004156289776,-0.0,0.0,0.0,0.0,0.0,-0.0
1449618004198540098,-0.0,0.0,0.0,0.0,0.0,-0.0
1449618004235470993,-0.0,0.0,0.0,0.0,0.0,-0.0
1449618004275686412,-0.0,0.0,0.0,0.0,0.0,-0.0
1449618004316794930,-0.0,0.0,0.0,0.0,0.0,-0.0
1449618004356080923,-0.0,0.0,0.0,0.0,0.0,-0.0
1449618004396213896,-0.0,0.0,0.0,0.0,0.0,-0.0
1449618004436059489,-0.0,0.0,0.0,0.0,0.0,-0.0
1449618004475577071,-0.0,0.0,0.0,0.0,0.0,-0.0
1449618004516345209,-0.0,0.0,0.0,0.0,0.0,-0.0
1449618004555717381,-0.0,0.0,0.0,0.0,0.0,-0.0
1449618004596264752,-0.0,0.0,0.0,0.0,0.0,-0.0
1449618004635448515,-0.0,0.0,0.0,0.0,0.0,-0.0
1449618004675612125,-0.0,0.0,0.0,0.0,0.0,-0.0
1449618004715357395,-0.0,0.0,0.0,0.0,0.0,-0.0
1449618004756305155,-0.0,0.0,0.0,0.0,0.0,-0.0
1449618004796077440,-0.0,0.0,0.0,0.0,0.0,-0.0
1449618004835719781,-0.0,0.0,0.0,0.0,0.0,-0.0
1449618004875583943,-0.0,0.0,0.0,0.0,0.0,-0.0
1449618004917366960,-0.0,0.0,0.0,0.0,0.0,-0.0
1449618004956597659,-0.0,0.0,0.0,0.0,0.0,-0.0
1449618004995662126,-0.0,0.0,0.0,0.0,0.0,-0.0
1449618005035453473,-0.0,0.0,0.0,0.0,0.0,-0.0
1449618005075433391,-0.0,0.0,0.0,0.0,0.0,-0.0
1449618005115463560,-0.0,0.0,0.0,0.0,0.0,-0.0
1449618005155964894,-0.0,0.0,0.0,0.0,0.0,-0.0
1449618005195995623,-0.0,0.0,0.0,0.0,0.0,-0.0
1449618005235549948,-0.0,0.0,0.0,0.0,0.0,-0.0
1449618005275659520,-0.0,0.0,0.0,0.0,0.0,-0.0
1449618005315945400,-0.0,0.0,0.0,0.0,0.0,-0.0
1449618005355846198,-0.0,0.0,0.0,0.0,0.0,-0.0
1449618005395980310,-0.0,0.0,0.0,0.0,0.0,-0.0
1449618005435345330,-0.0,0.0,0.0,0.0,0.0,-0.0
1449618005475990391,-0.0,0.0,0.0,0.0,0.0,-0.0
1449618005519644928,-0.0,0.0,0.0,0.0,0.0,-0.0
1449618005556224064,-0.0,0.0,0.0,0.0,0.0,-0.0
1449618005595798272,-0.0,0.0,0.0,0.0,0.0,-0.0
1449618005635658109,-0.0,0.0,0.0,0.0,0.0,-0.0
1449618005675502014,-0.0,0.0,0.0,0.0,0.0,-0.0
1449618005715545001,-0.0,0.0,0.0,0.0,0.0,-0.0
1449618005755467842,0.245841276169,0.0,0.0,0.0,0.0,0.0
1449618005795259900,0.245841276169,0.0,0.0,0.0,0.0,0.0
1449618005835950806,0.346412698746,0.0,0.0,0.0,0.0,0.0
1449618005877957201,0.346412698746,0.0,0.0,0.0,0.0,0.0
1449618005915614748,0.189968263626,0.0,0.0,0.0,0.0,0.0
1449618005956062969,0.189968263626,0.0,0.0,0.0,0.0,0.0
1449618005995603619,0.189968263626,0.0,0.0,0.0,0.0,0.0
1449618006044487653,0.189968263626,0.0,0.0,0.0,0.0,0.0
1449618006077664048,0.189968263626,0.0,0.0,0.0,0.0,0.0
1449618006115947816,0.189968263626,0.0,0.0,0.0,0.0,0.0
1449618006155340865,0.189968263626,0.0,0.0,0.0,0.0,0.0
1449618006195412510,0.189968263626,0.0,0.0,0.0,0.0,0.0
1449618006235908141,0.346412698746,0.0,0.0,0.0,0.0,0.0
1449618006275954128,0.346412698746,0.0,0.0,0.0,0.0,0.0
1449618006315530019,0.346412698746,0.0,0.0,0.0,0.0,0.0
1449618006356915562,0.346412698746,0.0,0.0,0.0,0.0,0.0
1449618006395534073,0.346412698746,0.0,0.0,0.0,0.0,0.0
1449618006439246723,0.352,0.0,0.0,0.0,0.0,0.0
1449618006476190181,0.352,0.0,0.0,0.0,0.0,0.0
1449618006515723859,0.346412698746,0.0,0.0,0.0,0.0,0.0
1449618006555733139,0.346412698746,0.0,0.0,0.0,0.0,0.0
1449618006595672366,0.289796289226,0.0,0.0,0.0,0.0,0.0904761940241
1449618006646125860,0.289796289226,0.0,0.0,0.0,0.0,0.0904761940241
1449618006675490959,0.289796289226,0.0,0.0,0.0,0.0,0.0904761940241
1449618006715574894,0.289556319944,0.0,0.0,0.0,0.0,0.0904761940241
1449618006755873803,0.289556319944,0.0,0.0,0.0,0.0,0.0904761940241
1449618006796045561,0.226632674301,0.0,0.0,0.0,0.0,0.168253970146
1449618006835323238,0.201489818657,0.0,0.0,0.0,0.0,0.142857146263
1449618006875879087,0.201489818657,0.0,0.0,0.0,0.0,0.142857146263
1449618006915787101,0.201489818657,0.0,0.0,0.0,0.0,0.142857146263
1449618006955624047,0.223359084809,0.0,0.0,0.0,0.0,0.178780285936
1449618006995661025,0.222879119183,0.0,0.0,0.0,0.0,0.171428573132
1449618007038730013,0.222879119183,0.0,0.0,0.0,0.0,0.171428573132
1449618007075557618,0.222879119183,0.0,0.0,0.0,0.0,0.171428573132
1449618007118305563,0.222879119183,0.0,0.0,0.0,0.0,0.171428573132
1449618007156525823,0.224712865896,0.0,0.0,0.0,0.0,0.178780285936
1449618007195733779,0.301714288712,0.0,0.0,0.0,0.0,0.342857146263
1449618007236646058,0.301714288712,0.0,0.0,0.0,0.0,0.342857146263
1449618007275322969,0.301714288712,0.0,0.0,0.0,0.0,0.342857146263
1449618007315644840,0.301714288712,0.0,0.0,0.0,0.0,0.342857146263
1449618007355432301,0.296126987457,0.0,0.0,0.0,0.0,0.336507940292
1449618007395390545,0.296126987457,0.0,0.0,0.0,0.0,0.336507940292
1449618007435607610,0.301714288712,0.0,0.0,0.0,0.0,0.342857146263
1449618007479237822,0.301714288712,0.0,0.0,0.0,0.0,0.342857146263
1449618007516019958,0.296126987457,0.0,0.0,0.0,0.0,0.342857146263
1449618007555504111,0.296126987457,0.0,0.0,0.0,0.0,0.342857146263
1449618007595371887,0.296126987457,0.0,0.0,0.0,0.0,0.342857146263
1449618007635335133,0.335238096237,0.0,0.0,0.0,0.0,0.0761904776096
1449618007682168367,0.335238096237,0.0,0.0,0.0,0.0,0.0761904776096
1449618007715981539,0.301714288712,0.0,0.0,0.0,0.0,0.00634920671582
1449618007755446624,0.301714288712,0.0,0.0,0.0,0.0,0.00634920671582
1449618007795829950,0.301714288712,0.0,0.0,0.0,0.0,0.00634920671582
1449618007835406633,0.346412698746,0.0,0.0,0.0,0.0,0.0
1449618007875674944,0.346412698746,0.0,0.0,0.0,0.0,0.0
1449618007915751138,0.346412698746,0.0,0.0,0.0,0.0,-0.00634920671582
1449618007955734875,0.346412698746,0.0,0.0,0.0,0.0,-0.00634920671582
1449618007997752750,0.346412698746,0.0,0.0,0.0,0.0,-0.00634920671582
1449618008038152687,0.346412698746,0.0,0.0,0.0,0.0,-0.00634920671582
1449618008076660174,0.346412698746,0.0,0.0,0.0,0.0,-0.00634920671582
1449618008116101342,0.346412698746,0.0,0.0,0.0,0.0,-0.0126984134316
1449618008157323206,0.346412698746,0.0,0.0,0.0,0.0,-0.0126984134316
1449618008196752923,0.346412698746,0.0,0.0,0.0,0.0,-0.0126984134316
1449618008236407341,0.346412698746,0.0,0.0,0.0,0.0,-0.0126984134316
1449618008275511592,0.340825397491,0.0,0.0,0.0,0.0,-0.0126984134316
1449618008315438361,0.340825397491,0.0,0.0,0.0,0.0,-0.0126984134316
1449618008356100528,0.340825397491,0.0,0.0,0.0,0.0,-0.0190476194024
1449618008395958026,0.340825397491,0.0,0.0,0.0,0.0,-0.0317460328341
1449618008435584755,0.340825397491,0.0,0.0,0.0,0.0,-0.0317460328341
1449618008479074711,0.340825397491,0.0,0.0,0.0,0.0,-0.0317460328341
1449618008518172062,0.318476192474,0.0,0.0,0.0,0.0,-0.184126985073
1449618008555584738,0.318476192474,0.0,0.0,0.0,0.0,-0.184126985073
1449618008595705895,0.318476192474,0.0,0.0,0.0,0.0,-0.184126985073
1449618008638643803,0.296126987457,0.0,0.0,0.0,0.0,-0.342857146263
1449618008675577736,0.296126987457,0.0,0.0,0.0,0.0,-0.342857146263
1449618008715523582,0.296126987457,0.0,0.0,0.0,0.0,-0.342857146263
1449618008755321779,0.296126987457,0.0,0.0,0.0,0.0,-0.342857146263
1449618008795757964,0.296126987457,0.0,0.0,0.0,0.0,-0.336507940292
1449618008835466069,0.296126987457,0.0,0.0,0.0,0.0,-0.336507940292
1449618008875489794,0.296126987457,0.0,0.0,0.0,0.0,-0.336507940292
1449618008919383448,0.296126987457,0.0,0.0,0.0,0.0,-0.336507940292
1449618008955575522,0.296126987457,0.0,0.0,0.0,0.0,-0.342857146263
1449618008997818664,0.296126987457,0.0,0.0,0.0,0.0,-0.342857146263
1449618009035688329,0.301714288712,0.0,0.0,0.0,0.0,-0.336507940292
1449618009075884829,0.296126987457,0.0,0.0,0.0,0.0,-0.336507940292
1449618009115402066,0.296126987457,0.0,0.0,0.0,0.0,-0.336507940292
1449618009155302437,0.296126987457,0.0,0.0,0.0,0.0,-0.336507940292
1449618009202464144,0.296126987457,0.0,0.0,0.0,0.0,-0.336507940292
1449618009235824281,0.301714288712,0.0,0.0,0.0,0.0,-0.336507940292
1449618009275402421,0.301714288712,0.0,0.0,0.0,0.0,-0.336507940292
1449618009316570410,0.301714288712,0.0,0.0,0.0,0.0,-0.342857146263
1449618009355388160,0.301714288712,0.0,0.0,0.0,0.0,-0.342857146263
1449618009396240603,0.301714288712,0.0,0.0,0.0,0.0,-0.342857146263
1449618009435469842,0.251428577423,0.0,0.0,0.0,0.0,-0.292063498497
1449618009476636691,0.251428577423,0.0,0.0,0.0,0.0,-0.292063498497
1449618009516336668,0.301714288712,0.0,0.0,0.0,0.0,-0.342857146263
1449618009556035245,0.301714288712,0.0,0.0,0.0,0.0,-0.342857146263
1449618009595544664,0.301714288712,0.0,0.0,0.0,0.0,-0.342857146263
1449618009636054405,0.301714288712,0.0,0.0,0.0,0.0,-0.342857146263
1449618009675567698,0.296126987457,0.0,0.0,0.0,0.0,-0.336507940292
1449618009715688844,0.296126987457,0.0,0.0,0.0,0.0,-0.336507940292
1449618009757541262,0.296126987457,0.0,0.0,0.0,0.0,-0.336507940292
1449618009795656651,0.296126987457,0.0,0.0,0.0,0.0,-0.336507940292
1449618009835493920,0.296126987457,0.0,0.0,0.0,0.0,-0.336507940292
1449618009875524673,0.296126987457,0.0,0.0,0.0,0.0,-0.336507940292
1449618009915526956,0.296126987457,0.0,0.0,0.0,0.0,-0.336507940292
1449618009955721310,0.296126987457,0.0,0.0,0.0,0.0,-0.336507940292
1449618009995426432,0.296126987457,0.0,0.0,0.0,0.0,-0.336507940292
1449618010035918964,0.296126987457,0.0,0.0,0.0,0.0,-0.342857146263
1449618010075544309,0.296126987457,0.0,0.0,0.0,0.0,-0.342857146263
1449618010116553163,0.296126987457,0.0,0.0,0.0,0.0,-0.336507940292
1449618010155537123,0.296126987457,0.0,0.0,0.0,0.0,-0.336507940292
1449618010196419940,0.296126987457,0.0,0.0,0.0,0.0,-0.336507940292
1449618010235596189,0.296126987457,0.0,0.0,0.0,0.0,-0.336507940292
1449618010275689189,0.296126987457,0.0,0.0,0.0,0.0,-0.342857146263
1449618010315232403,0.296126987457,0.0,0.0,0.0,0.0,-0.342857146263
1449618010355938715,0.296126987457,0.0,0.0,0.0,0.0,-0.342857146263
1449618010395652864,0.296126987457,0.0,0.0,0.0,0.0,-0.336507940292
1449618010435512994,0.296126987457,0.0,0.0,0.0,0.0,-0.336507940292
1449618010475279884,0.296126987457,0.0,0.0,0.0,0.0,-0.336507940292
1449618010515610929,0.296126987457,0.0,0.0,0.0,0.0,-0.336507940292
1449618010556328516,0.296126987457,0.0,0.0,0.0,0.0,-0.336507940292
1449618010596333639,0.296126987457,0.0,0.0,0.0,0.0,-0.336507940292
1449618010637943957,0.296126987457,0.0,0.0,0.0,0.0,-0.336507940292
1449618010675885261,0.301714288712,0.0,0.0,0.0,0.0,-0.336507940292
1449618010715578602,0.245841276169,0.0,0.0,0.0,0.0,-0.279365086555
1449618010755389468,0.245841276169,0.0,0.0,0.0,0.0,-0.279365086555
1449618010796069375,0.245841276169,0.0,0.0,0.0,0.0,-0.279365086555
1449618010836713033,0.245841276169,0.0,0.0,0.0,0.0,-0.279365086555
1449618010878183603,0.301714288712,0.0,0.0,0.0,0.0,-0.342857146263
1449618010916137958,0.301714288712,0.0,0.0,0.0,0.0,-0.336507940292
1449618010955940281,0.301714288712,0.0,0.0,0.0,0.0,-0.336507940292
1449618010996262559,0.301714288712,0.0,0.0,0.0,0.0,-0.336507940292
1449618011037197734,0.301714288712,0.0,0.0,0.0,0.0,-0.336507940292
1449618011075582485,0.301714288712,0.0,0.0,0.0,0.0,-0.336507940292
1449618011115640739,0.301714288712,0.0,0.0,0.0,0.0,-0.342857146263
1449618011157862048,0.301714288712,0.0,0.0,0.0,0.0,-0.342857146263
1449618011195839524,0.301714288712,0.0,0.0,0.0,0.0,-0.342857146263
1449618011235763203,0.296126987457,0.0,0.0,0.0,0.0,-0.342857146263
1449618011275600835,0.296126987457,0.0,0.0,0.0,0.0,-0.342857146263
1449618011315258893,0.296126987457,0.0,0.0,0.0,0.0,-0.342857146263
1449618011356367049,0.296126987457,0.0,0.0,0.0,0.0,-0.336507940292
1449618011395649869,0.296126987457,0.0,0.0,0.0,0.0,-0.336507940292
1449618011435315564,0.296126987457,0.0,0.0,0.0,0.0,-0.336507940292
1449618011477190045,0.296126987457,0.0,0.0,0.0,0.0,-0.336507940292
1449618011516956675,0.296126987457,0.0,0.0,0.0,0.0,-0.336507940292
1449618011555650201,0.296126987457,0.0,0.0,0.0,0.0,-0.336507940292
1449618011595701702,0.301714288712,0.0,0.0,0.0,0.0,-0.342857146263
1449618011635831613,0.301714288712,0.0,0.0,0.0,0.0,-0.342857146263
1449618011675645528,0.301714288712,0.0,0.0,0.0,0.0,-0.342857146263
1449618011715622768,0.296126987457,0.0,0.0,0.0,0.0,-0.336507940292
1449618011755882775,0.296126987457,0.0,0.0,0.0,0.0,-0.336507940292
1449618011795367699,0.296126987457,0.0,0.0,0.0,0.0,-0.336507940292
1449618011838936816,0.296126987457,0.0,0.0,0.0,0.0,-0.342857146263
1449618011875453214,0.296126987457,0.0,0.0,0.0,0.0,-0.342857146263
1449618011915790500,0.296126987457,0.0,0.0,0.0,0.0,-0.342857146263
1449618011956579119,0.301714288712,0.0,0.0,0.0,0.0,-0.342857146263
1449618011995415382,0.301714288712,0.0,0.0,0.0,0.0,-0.342857146263
1449618012035444662,0.301714288712,0.0,0.0,0.0,0.0,-0.342857146263
1449618012075310366,0.296126987457,0.0,0.0,0.0,0.0,-0.336507940292
1449618012119803869,0.296126987457,0.0,0.0,0.0,0.0,-0.342857146263
1449618012156184848,0.296126987457,0.0,0.0,0.0,0.0,-0.342857146263
1449618012195620061,0.296126987457,0.0,0.0,0.0,0.0,-0.342857146263
1449618012235258474,0.296126987457,0.0,0.0,0.0,0.0,-0.342857146263
1449618012275293283,0.259809524059,0.0,0.0,0.0,0.0,-0.0190476201475
1449618012315286429,0.259809524059,0.0,0.0,0.0,0.0,-0.00476190503687
1449618012355711704,0.259809524059,0.0,0.0,0.0,0.0,-0.00476190503687
1449618012395556162,0.259809524059,0.0,0.0,0.0,0.0,-0.00476190503687
1449618012435412182,0.259809524059,0.0,0.0,0.0,0.0,0.0
1449618012475323761,0.259809524059,0.0,0.0,0.0,0.0,0.0
1449618012516189487,0.259809524059,0.0,0.0,0.0,0.0,0.0
1449618012556101759,0.259809524059,0.0,0.0,0.0,0.0,0.00476190503687
1449618012595536309,0.259809524059,0.0,0.0,0.0,0.0,0.00476190503687
1449618012635356102,0.259809524059,0.0,0.0,0.0,0.0,0.00476190503687
1449618012675707379,0.259809524059,0.0,0.0,0.0,0.0,0.00476190503687
1449618012715892183,0.259809524059,0.0,0.0,0.0,0.0,0.00476190503687
1449618012755278379,0.259809524059,0.0,0.0,0.0,0.0,0.0190476201475
1449618012795936585,0.247238096237,0.0,0.0,0.0,0.0,0.0952380985022
1449618012835749079,0.247238096237,0.0,0.0,0.0,0.0,0.0952380985022
1449618012876084841,0.247238096237,0.0,0.0,0.0,0.0,0.0952380985022
1449618012916086487,0.247238096237,0.0,0.0,0.0,0.0,0.0952380985022
1449618012955538500,0.324063493729,0.0,0.0,0.0,0.0,0.184126985073
1449618012995771115,0.324063493729,0.0,0.0,0.0,0.0,0.184126985073
1449618013035744295,0.324063493729,0.0,0.0,0.0,0.0,0.184126985073
1449618013075600693,0.324063493729,0.0,0.0,0.0,0.0,0.184126985073
1449618013116547536,0.324063493729,0.0,0.0,0.0,0.0,0.184126985073
1449618013155386192,0.324063493729,0.0,0.0,0.0,0.0,0.184126985073
1449618013195299227,0.243047620296,0.0,0.0,0.0,0.0,0.138095238805
1449618013236525654,0.243047620296,0.0,0.0,0.0,0.0,0.138095238805
1449618013275981505,0.243047620296,0.0,0.0,0.0,0.0,0.138095238805
1449618013315615020,0.243047620296,0.0,0.0,0.0,0.0,0.138095238805
1449618013355513485,0.243047620296,0.0,0.0,0.0,0.0,0.138095238805
1449618013395391775,0.243047620296,0.0,0.0,0.0,0.0,0.138095238805
1449618013435630518,0.243047620296,0.0,0.0,0.0,0.0,0.138095238805
1449618013476049279,0.164825397491,0.0,0.0,0.0,0.0,0.0634920656681
1449618013515484411,0.164825397491,0.0,0.0,0.0,0.0,0.0634920656681
1449618013556842790,0.164825397491,0.0,0.0,0.0,0.0,0.0634920656681
1449618013595721048,0.164825397491,0.0,0.0,0.0,0.0,0.0634920656681
1449618013635521991,0.164825397491,0.0,0.0,0.0,0.0,0.0634920656681
1449618013675477401,0.167619048119,0.0,0.0,0.0,0.0,0.0603174626827
1449618013715623848,0.167619048119,0.0,0.0,0.0,0.0,0.0634920656681
1449618013755698395,0.167619048119,0.0,0.0,0.0,0.0,0.0634920656681
1449618013795768559,0.167619048119,0.0,0.0,0.0,0.0,0.0634920656681
1449618013835290165,0.167619048119,0.0,0.0,0.0,0.0,0.0634920656681
1449618013875445812,0.150857144356,0.0,0.0,0.0,0.0,0.171428573132
1449618013915971721,0.150857144356,0.0,0.0,0.0,0.0,0.171428573132
1449618013957180439,0.150857144356,0.0,0.0,0.0,0.0,0.171428573132
1449618013995435738,0.150857144356,0.0,0.0,0.0,0.0,0.171428573132
1449618014035892413,0.150857144356,0.0,0.0,0.0,0.0,0.171428573132
1449618014077647327,0.150857144356,0.0,0.0,0.0,0.0,0.171428573132
1449618014115306725,0.150857144356,0.0,0.0,0.0,0.0,0.171428573132
1449618014155408022,0.328253969669,0.0,0.0,0.0,0.0,0.309857979887
1449618014195674186,0.326857144356,0.0,0.0,0.0,0.0,0.326148706988
1449618014235391294,0.326857144356,0.0,0.0,0.0,0.0,0.326148706988
1449618014275785664,0.326857144356,0.0,0.0,0.0,0.0,0.326148706988
1449618014315394745,0.326857144356,0.0,0.0,0.0,0.0,0.326148706988
1449618014355657651,0.326857144356,0.0,0.0,0.0,0.0,0.326148706988
1449618014396097387,0.352,0.0,0.0,0.0,0.0,0.357894736842
1449618014435481594,0.352,0.0,0.0,0.0,0.0,0.357894736842
1449618014476562599,0.352,0.0,0.0,0.0,0.0,0.357894736842
1449618014515642560,0.352,0.0,0.0,0.0,0.0,0.357894736842
1449618014555639440,0.352,0.0,0.0,0.0,0.0,0.357894736842
1449618014595644215,0.352,0.0,0.0,0.0,0.0,0.357894736842
1449618014635734115,0.339428572178,0.0,0.0,0.0,0.0,0.352548037705
1449618014675638332,0.339428572178,0.0,0.0,0.0,0.0,0.352548037705
1449618014719470179,0.339428572178,0.0,0.0,0.0,0.0,0.354135339197
1449618014755468395,0.339428572178,0.0,0.0,0.0,0.0,0.354135339197
1449618014796910704,0.339428572178,0.0,0.0,0.0,0.0,0.354135339197
1449618014835870362,0.338031746864,0.0,0.0,0.0,0.0,0.352548037705
1449618014875535286,0.338031746864,0.0,0.0,0.0,0.0,0.352548037705
1449618014915737686,0.338031746864,0.0,0.0,0.0,0.0,0.352548037705
1449618014955514418,0.338031746864,0.0,0.0,0.0,0.0,0.352548037705
1449618014997656830,0.339428572178,0.0,0.0,0.0,0.0,0.354135339197
1449618015035737275,0.339428572178,0.0,0.0,0.0,0.0,0.354135339197
1449618015075468384,0.339428572178,0.0,0.0,0.0,0.0,0.354135339197
1449618015116862611,0.339428572178,0.0,0.0,0.0,0.0,0.354135339197
1449618015156033740,0.314285716534,0.0,0.0,0.0,0.0,0.34185463943
1449618015197728461,0.339428572178,0.0,0.0,0.0,0.0,0.354135339197
1449618015243159883,0.314285716534,0.0,0.0,0.0,0.0,0.33132832364
1449618015275941238,0.314285716534,0.0,0.0,0.0,0.0,0.33132832364
1449618015316573272,0.326857144356,0.0,0.0,0.0,0.0,0.329323309974
1449618015355431767,0.326857144356,0.0,0.0,0.0,0.0,0.329323309974
1449618015395344337,0.326857144356,0.0,0.0,0.0,0.0,0.329323309974
1449618015435559172,0.326857144356,0.0,0.0,0.0,0.0,0.329323309974
1449618015475896895,0.302233253062,0.0,0.0,0.0,0.0,0.273684210526
1449618015516185791,0.302233253062,0.0,0.0,0.0,0.0,0.273684210526
1449618015556796868,0.295000460112,0.0,0.0,0.0,0.0,0.231578947368
1449618015595937330,0.295000460112,0.0,0.0,0.0,0.0,0.231578947368
1449618015635569213,0.295000460112,0.0,0.0,0.0,0.0,0.231578947368
1449618015675715408,0.288625362913,0.0,0.0,0.0,0.0,0.233192163267
1449618015715609681,0.288625362913,0.0,0.0,0.0,0.0,0.233192163267
1449618015756793793,0.288625362913,0.0,0.0,0.0,0.0,0.233192163267
1449618015796096048,0.284051548799,0.0,0.0,0.0,0.0,0.238754224024
1449618015837763597,0.284051548799,0.0,0.0,0.0,0.0,0.238754224024
1449618015878041372,0.274845079236,0.0,0.0,0.0,0.0,0.191439947956
1449618015918140551,0.274845079236,0.0,0.0,0.0,0.0,0.191439947956
1449618015956035122,0.274845079236,0.0,0.0,0.0,0.0,0.191439947956
1449618015995664984,0.274845079236,0.0,0.0,0.0,0.0,0.191439947956
1449618016035922274,0.274845079236,0.0,0.0,0.0,0.0,0.191439947956
1449618016076061153,0.274845079236,0.0,0.0,0.0,0.0,0.191439947956
1449618016115868898,0.274845079236,0.0,0.0,0.0,0.0,0.191439947956
1449618016155387667,0.286484574513,0.0,0.0,0.0,0.0,0.143667944481
1449618016196142790,0.278077998427,0.0,0.0,0.0,0.0,0.118532731439
1449618016235367746,0.278077998427,0.0,0.0,0.0,0.0,0.118532731439
1449618016275520580,0.278077998427,0.0,0.0,0.0,0.0,0.118532731439
1449618016324886021,0.350603174686,0.0,0.0,0.0,0.0,0.143690066824
1449618016356741696,0.343619048119,0.0,0.0,0.0,0.0,0.116921381639
1449618016396194183,0.343619048119,0.0,0.0,0.0,0.0,0.116921381639
1449618016442893635,0.350603174686,0.0,0.0,0.0,0.0,0.107351712432
1449618016476519760,0.350603174686,0.0,0.0,0.0,0.0,0.107351712432
1449618016515995153,0.350603174686,0.0,0.0,0.0,0.0,0.107351712432
1449618016555449669,0.350603174686,0.0,0.0,0.0,0.0,0.107351712432
1449618016598024429,0.350603174686,0.0,0.0,0.0,0.0,0.107351712432
1449618016635753130,0.350603174686,0.0,0.0,0.0,0.0,0.0725981617052
1449618016675646326,0.350603174686,0.0,0.0,0.0,0.0,0.0725981617052
1449618016715459145,0.350603174686,0.0,0.0,0.0,0.0,0.0725981617052
1449618016756269757,0.338031746864,0.0,0.0,0.0,0.0,0.0410192143368
1449618016796309613,0.352,0.0,0.0,0.0,0.0,0.0631578947368
1449618016836150113,0.352,0.0,0.0,0.0,0.0,0.0631578947368
1449618016875897333,0.352,0.0,0.0,0.0,0.0,0.0631578947368
1449618016915483181,0.352,0.0,0.0,0.0,0.0,0.0631578947368
1449618016961626925,0.349206349373,0.0,0.0,0.0,0.0,0.0410192143368
1449618016997043083,0.352,0.0,0.0,0.0,0.0,0.0210526315789
1449618017036682712,0.352,0.0,0.0,0.0,0.0,0.0210526315789
1449618017076574218,0.352,0.0,0.0,0.0,0.0,0.0210526315789
1449618017116061385,0.352,0.0,0.0,0.0,0.0,0.0210526315789
1449618017163012031,0.346412698746,0.0,0.0,0.0,0.0,-0.00217209764217
1449618017198305815,0.340825397491,0.0,0.0,0.0,0.0,-0.0253968268633
1449618017236207737,0.340825397491,0.0,0.0,0.0,0.0,-0.0253968268633
1449618017277002143,0.340825397491,0.0,0.0,0.0,0.0,-0.0253968268633
1449618017316238443,0.340825397491,0.0,0.0,0.0,0.0,-0.0253968268633
1449618017355490993,0.290539686203,0.0,0.0,0.0,0.0,-0.0190476194024
1449618017395240458,0.290539686203,0.0,0.0,0.0,0.0,-0.0190476194024
1449618017435284297,0.346412698746,0.0,0.0,0.0,0.0,-0.0190476194024
1449618017475960489,0.346412698746,0.0,0.0,0.0,0.0,-0.0190476194024
1449618017515448487,0.346412698746,0.0,0.0,0.0,0.0,-0.0190476194024
1449618017556024166,0.346412698746,0.0,0.0,0.0,0.0,-0.0190476194024
1449618017597984250,0.346412698746,0.0,0.0,0.0,0.0,-0.0253968268633
1449618017635464928,0.346412698746,0.0,0.0,0.0,0.0,-0.0253968268633
1449618017680001594,0.346412698746,0.0,0.0,0.0,0.0,-0.0253968268633
1449618017715370201,0.346412698746,0.0,0.0,0.0,0.0,-0.0253968268633
1449618017756046312,0.346412698746,0.0,0.0,0.0,0.0,-0.0253968268633
1449618017796526261,0.346412698746,0.0,0.0,0.0,0.0,-0.0190476194024
1449618017835397252,0.346412698746,0.0,0.0,0.0,0.0,-0.0190476194024
1449618017876013293,0.346412698746,0.0,0.0,0.0,0.0,-0.0190476194024
1449618017917775619,0.346412698746,0.0,0.0,0.0,0.0,-0.0190476194024
1449618017955363544,0.340825397491,0.0,0.0,0.0,0.0,-0.0317460328341
1449618017996665666,0.19757992378,0.0,0.0,0.0,0.0,-0.0631578947368
1449618018036379548,0.19757992378,0.0,0.0,0.0,0.0,-0.0631578947368
1449618018078213045,0.19757992378,0.0,0.0,0.0,0.0,-0.0631578947368
1449618018115585753,0.19757992378,0.0,0.0,0.0,0.0,-0.0631578947368
1449618018158189115,0.191838695931,0.0,0.0,0.0,0.0,-0.0631578947368
1449618018195928898,0.191838695931,0.0,0.0,0.0,0.0,-0.0631578947368
1449618018236081281,0.191838695931,0.0,0.0,0.0,0.0,-0.0631578947368
1449618018276449404,0.18323718959,0.0,0.0,0.0,0.0,-0.0631578947368
1449618018315643597,0.18323718959,0.0,0.0,0.0,0.0,-0.0631578947368
1449618018355376246,0.17655503263,0.0,0.0,0.0,0.0,-0.0631578947368
1449618018395786780,0.165107384714,0.0,0.0,0.0,0.0,-0.105263157895
1449618018435835428,0.165107384714,0.0,0.0,0.0,0.0,-0.105263157895
1449618018476021514,0.165107384714,0.0,0.0,0.0,0.0,-0.105263157895
1449618018515991298,0.352,0.0,0.0,0.0,0.0,-0.105263157895
1449618018555564841,0.352,0.0,0.0,0.0,0.0,-0.105263157895
1449618018598200317,0.352,0.0,0.0,0.0,0.0,-0.105263157895
1449618018635304347,0.352,0.0,0.0,0.0,0.0,-0.147368421053
1449618018676199435,0.352,0.0,0.0,0.0,0.0,-0.147368421053
1449618018715411880,0.352,0.0,0.0,0.0,0.0,-0.147368421053
1449618018755403539,0.352,0.0,0.0,0.0,0.0,-0.147368421053
1449618018795822199,0.352,0.0,0.0,0.0,0.0,-0.147368421053
1449618018835424497,0.352,0.0,0.0,0.0,0.0,-0.147368421053
1449618018875510878,0.352,0.0,0.0,0.0,0.0,-0.147368421053
1449618018915536834,0.352,0.0,0.0,0.0,0.0,-0.147368421053
1449618018955343467,0.352,0.0,0.0,0.0,0.0,-0.147368421053
1449618018996413622,0.352,0.0,0.0,0.0,0.0,-0.147368421053
1449618019035310719,0.352,0.0,0.0,0.0,0.0,-0.147368421053
1449618019076082988,0.352,0.0,0.0,0.0,0.0,-0.147368421053
1449618019115885729,0.352,0.0,0.0,0.0,0.0,-0.147368421053
1449618019156224398,0.352,0.0,0.0,0.0,0.0,-0.147368421053
1449618019195910448,0.352,0.0,0.0,0.0,0.0,-0.147368421053
1449618019235450327,0.350155155705,0.0,0.0,0.0,0.0,-0.147368421053
1449618019276044467,0.350155155705,0.0,0.0,0.0,0.0,-0.147368421053
1449618019315740844,0.346412698746,0.0,0.0,0.0,0.0,-0.00634920671582
1449618019355362201,0.346412698746,0.0,0.0,0.0,0.0,-0.00634920671582
1449618019395398546,0.346412698746,0.0,0.0,0.0,0.0,-0.00634920671582
1449618019436818642,0.329650794983,0.0,0.0,0.0,0.0,0.126984131336
1449618019475916350,0.329650794983,0.0,0.0,0.0,0.0,0.126984131336
1449618019518556630,0.329650794983,0.0,0.0,0.0,0.0,0.126984131336
1449618019555411617,0.318009205817,0.0,0.0,0.0,0.0,0.0945697596199
1449618019595505311,0.316144502915,0.0,0.0,0.0,0.0,0.0945697596199
1449618019635649330,0.313350852288,0.0,0.0,0.0,0.0,0.0945697596199
1449618019675570214,0.313350852288,0.0,0.0,0.0,0.0,0.0945697596199
1449618019715733777,0.259309813263,0.0,0.0,0.0,0.0,0.0945697596199
1449618019756235922,0.259309813263,0.0,0.0,0.0,0.0,0.0945697596199
1449618019796122008,0.252700759614,0.0,0.0,0.0,0.0,0.0977443626052
1449618019835672428,0.252700759614,0.0,0.0,0.0,0.0,0.0977443626052
1449618019876556847,0.252700759614,0.0,0.0,0.0,0.0,0.0977443626052
1449618019915605473,0.252700759614,0.0,0.0,0.0,0.0,0.0977443626052
1449618019955591803,0.248407662455,0.0,0.0,0.0,0.0,0.0945697596199
1449618019995316622,0.248407662455,0.0,0.0,0.0,0.0,0.0945697596199
1449618020035454402,0.246988829499,0.0,0.0,0.0,0.0,0.0977443626052
1449618020075804693,0.246988829499,0.0,0.0,0.0,0.0,0.0977443626052
1449618020116195179,0.245098126907,0.0,0.0,0.0,0.0,0.0977443626052
1449618020156908523,0.240845755609,0.0,0.0,0.0,0.0,0.0945697596199
1449618020195613229,0.236161803625,0.0,0.0,0.0,0.0,0.0977443626052
1449618020237175212,0.236161803625,0.0,0.0,0.0,0.0,0.0977443626052
1449618020275422912,0.235217137621,0.0,0.0,0.0,0.0,0.0977443626052
1449618020316276064,0.21514525045,0.0,0.0,0.0,0.0,0.0755221417076
1449618020355287614,0.21514525045,0.0,0.0,0.0,0.0,0.0755221417076
1449618020395772672,0.214200304496,0.0,0.0,0.0,0.0,0.0755221417076
1449618020435694901,0.214200304496,0.0,0.0,0.0,0.0,0.0755221417076
1449618020475339156,0.230920340605,0.0,0.0,0.0,0.0,0.0977443626052
1449618020516168907,0.225763930517,0.0,0.0,0.0,0.0,0.0945697596199
1449618020557916200,0.225763930517,0.0,0.0,0.0,0.0,0.0945697596199
1449618020596125195,0.225763930517,0.0,0.0,0.0,0.0,0.0945697596199
1449618020642608944,0.225763930517,0.0,0.0,0.0,0.0,0.0945697596199
1449618020675455438,0.221468306941,0.0,0.0,0.0,0.0,0.0945697596199
1449618020716290705,0.218824128508,0.0,0.0,0.0,0.0,0.0945697596199
1449618020756391979,0.218824128508,0.0,0.0,0.0,0.0,0.0945697596199
1449618020797516202,0.179039315855,0.0,0.0,0.0,0.0,-0.0263993307164
1449618020835900791,0.179039315855,0.0,0.0,0.0,0.0,-0.0263993307164
1449618020875303472,0.218597417008,0.0,0.0,0.0,0.0,0.0766917310263
1449618020925386035,0.218597417008,0.0,0.0,0.0,0.0,0.0766917310263
1449618020955663918,0.215049542205,0.0,0.0,0.0,0.0,0.0735171280409
1449618020996620942,0.213542330217,0.0,0.0,0.0,0.0,0.0735171280409
1449618021035616346,0.216335980844,0.0,0.0,0.0,0.0,0.0766917310263
1449618021075430212,0.213837097701,0.0,0.0,0.0,0.0,0.0766917310263
1449618021116393066,0.209674083488,0.0,0.0,0.0,0.0,0.0766917310263
1449618021159319058,0.209674083488,0.0,0.0,0.0,0.0,0.0766917310263
1449618021195645427,0.208063493729,0.0,0.0,0.0,0.0,0.0766917310263
1449618021236321799,0.210857144356,0.0,0.0,0.0,0.0,0.0766917310263
1449618021275891400,0.210857144356,0.0,0.0,0.0,0.0,0.0766917310263
1449618021315797620,0.210857144356,0.0,0.0,0.0,0.0,0.0766917310263
1449618021355555790,0.210857144356,0.0,0.0,0.0,0.0,0.0766917310263
1449618021396559254,0.210857144356,0.0,0.0,0.0,0.0,0.0766917310263
1449618021435721877,0.210857144356,0.0,0.0,0.0,0.0,0.0766917310263
1449618021475891810,0.210857144356,0.0,0.0,0.0,0.0,0.0766917310263
1449618021515752410,0.208063493729,0.0,0.0,0.0,0.0,0.0735171280409
1449618021568961669,0.208063493729,0.0,0.0,0.0,0.0,0.0735171280409
1449618021595662982,0.210857144356,0.0,0.0,0.0,0.0,0.0345864678684
1449618021635568171,0.210857144356,0.0,0.0,0.0,0.0,0.0345864678684
1449618021675755036,0.210857144356,0.0,0.0,0.0,0.0,0.0345864678684
1449618021715544379,0.210857144356,0.0,0.0,0.0,0.0,0.0345864678684
1449618021755818959,0.208063493729,0.0,0.0,0.0,0.0,0.0766917310263
1449618021795794828,0.208063493729,0.0,0.0,0.0,0.0,0.0766917310263
1449618021835726162,0.210857144356,0.0,0.0,0.0,0.0,-0.00751879528949
1449618021875546875,0.210857144356,0.0,0.0,0.0,0.0,-0.00751879528949
1449618021918591943,0.210857144356,0.0,0.0,0.0,0.0,0.0556390994474
1449618021955502673,0.210857144356,0.0,0.0,0.0,0.0,0.0556390994474
1449618021995789056,0.210857144356,0.0,0.0,0.0,0.0,0.0766917310263
1449618022035415278,0.210857144356,0.0,0.0,0.0,0.0,0.0766917310263
1449618022075859240,0.210857144356,0.0,0.0,0.0,0.0,-0.0106933982749
1449618022115443857,0.210857144356,0.0,0.0,0.0,0.0,-0.00751879528949
1449618022155354314,0.210857144356,0.0,0.0,0.0,0.0,0.0766917310263
1449618022195370674,0.210857144356,0.0,0.0,0.0,0.0,0.0766917310263
1449618022235415587,0.210857144356,0.0,0.0,0.0,0.0,0.0766917310263
1449618022275946191,0.210857144356,0.0,0.0,0.0,0.0,0.0735171280409
1449618022316443938,0.210857144356,0.0,0.0,0.0,0.0,0.0735171280409
1449618022356472507,0.210857144356,0.0,0.0,0.0,0.0,0.0345864678684
1449618022399600801,0.210857144356,0.0,0.0,0.0,0.0,0.0345864678684
1449618022435856880,0.210857144356,0.0,0.0,0.0,0.0,0.031411864883
1449618022475732888,0.210857144356,0.0,0.0,0.0,0.0,0.031411864883
1449618022516023438,0.210857144356,0.0,0.0,0.0,0.0,0.031411864883
1449618022555295126,0.185714288712,0.0,0.0,0.0,0.0,0.0481203041579
1449618022596486272,0.150857144356,0.0,0.0,0.0,0.0,-0.0106933982749
1449618022635897560,0.150857144356,0.0,0.0,0.0,0.0,-0.0106933982749
1449618022679235512,0.150857144356,0.0,0.0,0.0,0.0,-0.0106933982749
1449618022716375659,0.150857144356,0.0,0.0,0.0,0.0,-0.0106933982749
1449618022755649070,0.150857144356,0.0,0.0,0.0,0.0,-0.0106933982749
1449618022799644201,0.150857144356,0.0,0.0,0.0,0.0,-0.0285714268684
1449618022835812768,0.148063493729,0.0,0.0,0.0,0.0,-0.0285714268684
1449618022875530399,0.148063493729,0.0,0.0,0.0,0.0,-0.0285714268684
1449618022915999128,0.148063493729,0.0,0.0,0.0,0.0,-0.0285714268684
1449618022955711358,0.150857144356,0.0,0.0,0.0,0.0,-0.0285714268684
1449618022995764129,0.150857144356,0.0,0.0,0.0,0.0,-0.0285714268684
1449618023035296050,0.150857144356,0.0,0.0,0.0,0.0,-0.0285714268684
1449618023076269844,0.0,0.0,0.0,0.0,0.0,0.0
1449618023115492978,0.0,0.0,0.0,0.0,0.0,0.0
1449618023155371349,0.0,0.0,0.0,0.0,0.0,0.0
1449618023195379740,0.0,0.0,0.0,0.0,0.0,0.0
1449618023241718003,0.0,0.0,0.0,0.0,0.0,0.0
1449618023275796965,0.0,0.0,0.0,0.0,0.0,0.0
1449618023315370916,0.0,0.0,0.0,0.0,0.0,0.0
1449618023355397214,0.0,0.0,0.0,0.0,0.0,0.0
1449618023395421449,0.0,0.0,0.0,0.0,0.0,0.0
1449618023435372754,0.0,0.0,0.0,0.0,0.0,0.0
1449618023475664852,0.0,0.0,0.0,0.0,0.0,0.0
1449618023515387041,0.0,0.0,0.0,0.0,0.0,0.0
1449618023555701619,0.0,0.0,0.0,0.0,0.0,0.0
1449618023595690331,0.0,0.0,0.0,0.0,0.0,0.0
1449618023635545117,0.0,0.0,0.0,0.0,0.0,0.0
1449618023675346039,0.0,0.0,0.0,0.0,0.0,0.0
1449618023715465363,0.0,0.0,0.0,0.0,0.0,0.0
1449618023755620326,0.0,0.0,0.0,0.0,0.0,0.0
1449618023795262455,0.0,0.0,0.0,0.0,0.0,0.0
1449618023835530136,0.0,0.0,0.0,0.0,0.0,0.0
1449618023876003669,0.0,0.0,0.0,0.0,0.0,0.0
1449618023915856051,0.0,0.0,0.0,0.0,0.0,0.0
1449618023955687994,0.0,0.0,0.0,0.0,0.0,0.0
1449618023996855411,0.0,0.0,0.0,0.0,0.0,0.0
1449618024035299720,0.0,0.0,0.0,0.0,0.0,0.0
1449618024075348921,0.0,0.0,0.0,0.0,0.0,0.0
1449618024115902200,0.0,0.0,0.0,0.0,0.0,0.0
1449618024155924172,0.0,0.0,0.0,0.0,0.0,0.0
1449618024195900616,0.0,0.0,0.0,0.0,0.0,0.0
1449618024235404294,0.0,0.0,0.0,0.0,0.0,0.0
1449618024275304057,0.0,0.0,0.0,0.0,0.0,0.0
1449618024315450993,0.0,0.0,0.0,0.0,0.0,0.0
1449618024357518195,0.0,0.0,0.0,0.0,0.0,0.0
1449618024395373546,0.0,0.0,0.0,0.0,0.0,0.0
1449618024435412610,0.0,0.0,0.0,0.0,0.0,0.0
1449618024475730455,0.0,0.0,0.0,0.0,0.0,0.0
1449618024515663812,0.0,0.0,0.0,0.0,0.0,0.0
1449618024555284309,0.0,0.0,0.0,0.0,0.0,0.0
1449618024595590297,0.0,0.0,0.0,0.0,0.0,0.0
1449618024635523937,0.0,0.0,0.0,0.0,0.0,0.0
1449618024675520629,0.0,0.0,0.0,0.0,0.0,0.0
1449618024716568771,0.0,0.0,0.0,0.0,0.0,0.0
1449618024755355430,0.0,0.0,0.0,0.0,0.0,0.0
1449618024795656726,0.0,0.0,0.0,0.0,0.0,0.0
1449618024835438937,0.0,0.0,0.0,0.0,0.0,0.0
1449618024875736520,0.0,0.0,0.0,0.0,0.0,0.0
1449618024915707320,0.0,0.0,0.0,0.0,0.0,0.0
1449618024955268320,0.0,0.0,0.0,0.0,0.0,0.0
1449618024995547145,0.0,0.0,0.0,0.0,0.0,0.0
1449618025035339393,0.0,0.0,0.0,0.0,0.0,0.0
1449618025075411704,0.0,0.0,0.0,0.0,0.0,0.0
1449618025115493777,0.0,0.0,0.0,0.0,0.0,0.0
1449618025156203400,0.0,0.0,0.0,0.0,0.0,0.0
1449618025195553450,0.0,0.0,0.0,0.0,0.0,0.0
1449618025235720464,0.0,0.0,0.0,0.0,0.0,0.0
1449618025276647960,0.126467117484,0.0,0.0,0.0,0.0,0.273684210526
1449618025316255750,0.126467117484,0.0,0.0,0.0,0.0,0.273684210526
1449618025355755213,0.126467117484,0.0,0.0,0.0,0.0,0.273684210526
1449618025395460836,0.126467117484,0.0,0.0,0.0,0.0,0.273684210526
1449618025435393380,0.126467117484,0.0,0.0,0.0,0.0,0.273684210526
1449618025476579941,0.126467117484,0.0,0.0,0.0,0.0,0.273684210526
1449618025515617409,0.126467117484,0.0,0.0,0.0,0.0,0.273684210526
1449618025555806531,0.126467117484,0.0,0.0,0.0,0.0,0.273684210526
1449618025595410689,0.126467117484,0.0,0.0,0.0,0.0,0.273684210526
1449618025635925019,0.126467117484,0.0,0.0,0.0,0.0,0.273684210526
1449618025675268433,0.126467117484,0.0,0.0,0.0,0.0,0.273684210526
1449618025715684827,0.126467117484,0.0,0.0,0.0,0.0,0.273684210526
1449618025756392005,0.126467117484,0.0,0.0,0.0,0.0,0.273684210526
1449618025797148944,0.126467117484,0.0,0.0,0.0,0.0,0.273684210526
1449618025835512017,0.126467117484,0.0,0.0,0.0,0.0,0.273684210526
1449618025880691936,0.126467117484,0.0,0.0,0.0,0.0,0.273684210526
1449618025915605100,0.126467117484,0.0,0.0,0.0,0.0,0.273684210526
1449618025955782678,0.126467117484,0.0,0.0,0.0,0.0,0.273684210526
1449618025996569225,0.126467117484,0.0,0.0,0.0,0.0,0.273684210526
1449618026035284034,0.126467117484,0.0,0.0,0.0,0.0,0.273684210526
1449618026075912391,0.126467117484,0.0,0.0,0.0,0.0,0.273684210526
1449618026115803128,0.126467117484,0.0,0.0,0.0,0.0,0.273684210526
1449618026155926146,0.126467117484,0.0,0.0,0.0,0.0,0.273684210526
1449618026198549985,0.120943785818,0.0,0.0,0.0,0.0,0.189473684211
1449618026235690412,0.120943785818,0.0,0.0,0.0,0.0,0.189473684211
1449618026278406349,0.12,0.0,0.0,0.0,0.0,0.189473684211
1449618026315363315,0.12,0.0,0.0,0.0,0.0,0.189473684211
1449618026356209268,0.12,0.0,0.0,0.0,0.0,0.189473684211
1449618026397981582,0.12,0.0,0.0,0.0,0.0,0.189473684211
1449618026435344352,0.12,0.0,0.0,0.0,0.0,0.189473684211
1449618026475522027,0.12,0.0,0.0,0.0,0.0,0.189473684211
1449618026515461237,0.12,0.0,0.0,0.0,0.0,0.189473684211
1449618026555759043,0.12,0.0,0.0,0.0,0.0,0.189473684211
1449618026596154691,0.120416233897,0.0,0.0,0.0,0.0,0.231578947368
1449618026635622197,0.12,0.0,0.0,0.0,0.0,0.189473684211
1449618026675418220,0.12,0.0,0.0,0.0,0.0,0.189473684211
1449618026715374853,0.12,0.0,0.0,0.0,0.0,0.189473684211
1449618026755745260,0.12,0.0,0.0,0.0,0.0,0.189473684211
1449618026795535948,0.12,0.0,0.0,0.0,0.0,0.189473684211
1449618026835396811,0.12,0.0,0.0,0.0,0.0,0.231578947368
1449618026878515882,0.12,0.0,0.0,0.0,0.0,0.231578947368
1449618026916172229,0.12,0.0,0.0,0.0,0.0,0.231578947368
1449618026955997888,0.12,0.0,0.0,0.0,0.0,0.231578947368
1449618026996733822,0.12,0.0,0.0,0.0,0.0,0.315789473684
1449618027035439659,0.12,0.0,0.0,0.0,0.0,0.315789473684
1449618027076661005,0.12,0.0,0.0,0.0,0.0,0.315789473684
1449618027115398726,0.12,0.0,0.0,0.0,0.0,0.315789473684
1449618027155675412,0.12,0.0,0.0,0.0,0.0,0.315789473684
1449618027196087138,0.12,0.0,0.0,0.0,0.0,0.315789473684
1449618027235930126,0.12,0.0,0.0,0.0,0.0,0.315789473684
1449618027275344970,0.12,0.0,0.0,0.0,0.0,0.315789473684
1449618027315811794,0.12,0.0,0.0,0.0,0.0,0.315789473684
1449618027355927824,0.12,0.0,0.0,0.0,0.0,0.315789473684
1449618027395984437,0.12,0.0,0.0,0.0,0.0,0.273684210526
1449618027436079644,0.12,0.0,0.0,0.0,0.0,0.273684210526
1449618027475428872,0.12,0.0,0.0,0.0,0.0,0.273684210526
1449618027515702570,0.12,0.0,0.0,0.0,0.0,0.315789473684
1449618027555348193,0.12,0.0,0.0,0.0,0.0,0.357894736842
1449618027595503948,0.12,0.0,0.0,0.0,0.0,0.357894736842
1449618027636095217,0.12,0.0,0.0,0.0,0.0,0.357894736842
1449618027675346335,0.12,0.0,0.0,0.0,0.0,0.357894736842
1449618027715513293,0.12,0.0,0.0,0.0,0.0,0.357894736842
1449618027759162827,0.12,0.0,0.0,0.0,0.0,0.357894736842
1449618027795665549,0.12,0.0,0.0,0.0,0.0,0.315789473684
1449618027835242730,0.12,0.0,0.0,0.0,0.0,0.315789473684
1449618027875618152,0.12,0.0,0.0,0.0,0.0,0.315789473684
1449618027916711452,0.12,0.0,0.0,0.0,0.0,0.315789473684
1449618027956435814,0.12,0.0,0.0,0.0,0.0,0.315789473684
1449618027995692874,0.12,0.0,0.0,0.0,0.0,0.315789473684
1449618028039549880,0.12,0.0,0.0,0.0,0.0,0.315789473684
1449618028075517496,0.12,0.0,0.0,0.0,0.0,0.273684210526
1449618028115493052,0.12,0.0,0.0,0.0,0.0,0.273684210526
1449618028155366785,0.12,0.0,0.0,0.0,0.0,0.273684210526
1449618028195360514,0.12,0.0,0.0,0.0,0.0,0.273684210526
1449618028235340139,0.12,0.0,0.0,0.0,0.0,0.273684210526
1449618028275658338,0.12,0.0,0.0,0.0,0.0,0.273684210526
1449618028315423600,0.12,0.0,0.0,0.0,0.0,0.273684210526
1449618028357526213,0.12,0.0,0.0,0.0,0.0,0.273684210526
1449618028395570435,0.12,0.0,0.0,0.0,0.0,0.273684210526
1449618028435303447,0.12,0.0,0.0,0.0,0.0,0.273684210526
1449618028476254581,0.12,0.0,0.0,0.0,0.0,0.231578947368
1449618028515573605,0.12,0.0,0.0,0.0,0.0,0.231578947368
1449618028555606644,0.12,0.0,0.0,0.0,0.0,0.231578947368
1449618028595760202,0.12,0.0,0.0,0.0,0.0,0.231578947368
1449618028635734366,0.12,0.0,0.0,0.0,0.0,0.231578947368
1449618028677876166,0.12,0.0,0.0,0.0,0.0,0.189473684211
1449618028715295182,0.12,0.0,0.0,0.0,0.0,0.189473684211
1449618028755385377,0.12,0.0,0.0,0.0,0.0,0.189473684211
1449618028795413343,0.12,0.0,0.0,0.0,0.0,0.189473684211
1449618028835239625,0.12,0.0,0.0,0.0,0.0,0.189473684211
1449618028875427635,0.12,0.0,0.0,0.0,0.0,0.189473684211
1449618028915729647,0.12,0.0,0.0,0.0,0.0,0.189473684211
1449618028955705655,0.09,0.0,0.0,0.0,0.0,0.208939014297
1449618028995970508,0.09,0.0,0.0,0.0,0.0,0.208939014297
1449618029035427199,0.09,0.0,0.0,0.0,0.0,0.210526315789
1449618029075654322,0.09,0.0,0.0,0.0,0.0,0.178947368421
1449618029115705791,-0.0,0.0,0.0,0.0,0.0,-0.0
1449618029155853763,-0.0,0.0,0.0,0.0,0.0,-0.0
1449618029195453093,-0.0,0.0,0.0,0.0,0.0,-0.0
1449618029237474372,0.062793650955,0.0,0.0,0.0,0.0,0.249456975962
1449618029276216134,0.062793650955,0.0,0.0,0.0,0.0,0.249456975962
1449618029326753172,0.062793650955,0.0,0.0,0.0,0.0,0.249456975962
1449618029355359631,0.0,0.0,0.0,0.0,0.0,0.31
1449618029395794278,0.0,0.0,0.0,0.0,0.0,0.31
1449618029435438004,0.0,0.0,0.0,0.0,0.0,0.31
1449618029475684531,0.0,0.0,0.0,0.0,0.0,0.31
1449618029515808554,0.301714288712,0.0,0.0,0.0,0.0,0.342857146263
1449618029556750643,0.301714288712,0.0,0.0,0.0,0.0,0.342857146263
1449618029595429105,0.301714288712,0.0,0.0,0.0,0.0,0.342857146263
1449618029637435546,0.301714288712,0.0,0.0,0.0,0.0,0.336507940292
1449618029675529380,0.301714288712,0.0,0.0,0.0,0.0,0.336507940292
1449618029715492716,0.301714288712,0.0,0.0,0.0,0.0,0.342857146263
1449618029755696512,0.301714288712,0.0,0.0,0.0,0.0,0.342857146263
1449618029795343151,0.301714288712,0.0,0.0,0.0,0.0,0.342857146263
1449618029836086610,0.296126987457,0.0,0.0,0.0,0.0,0.342857146263
1449618029875455469,0.296126987457,0.0,0.0,0.0,0.0,0.342857146263
1449618029915451185,0.301714288712,0.0,0.0,0.0,0.0,0.336507940292
1449618029956056411,0.301714288712,0.0,0.0,0.0,0.0,0.336507940292
1449618029997400874,0.301714288712,0.0,0.0,0.0,0.0,0.336507940292
1449618030035335423,0.296126987457,0.0,0.0,0.0,0.0,0.336507940292
1449618030075727633,0.296126987457,0.0,0.0,0.0,0.0,0.336507940292
1449618030115880863,0.251428577423,0.0,0.0,0.0,0.0,0.285714292526
1449618030156090556,0.251428577423,0.0,0.0,0.0,0.0,0.285714292526
1449618030195304956,0.251428577423,0.0,0.0,0.0,0.0,0.285714292526
1449618030236397112,0.296126987457,0.0,0.0,0.0,0.0,0.342857146263
1449618030277334405,0.296126987457,0.0,0.0,0.0,0.0,0.342857146263
1449618030315469947,0.301714288712,0.0,0.0,0.0,0.0,0.336507940292
1449618030356478365,0.301714288712,0.0,0.0,0.0,0.0,0.336507940292
1449618030395724475,0.301714288712,0.0,0.0,0.0,0.0,0.336507940292
1449618030435233876,0.245841276169,0.0,0.0,0.0,0.0,0.285714292526
1449618030475302219,0.245841276169,0.0,0.0,0.0,0.0,0.285714292526
1449618030515268050,0.324063493729,0.0,0.0,0.0,0.0,0.177777779102
1449618030555686956,0.324063493729,0.0,0.0,0.0,0.0,0.177777779102
1449618030595819599,0.324063493729,0.0,0.0,0.0,0.0,0.177777779102
1449618030641879708,0.346412698746,0.0,0.0,0.0,0.0,0.0190476194024
1449618030675617460,0.346412698746,0.0,0.0,0.0,0.0,0.0190476194024
1449618030715733267,0.346412698746,0.0,0.0,0.0,0.0,0.0190476194024
1449618030755920971,0.346412698746,0.0,0.0,0.0,0.0,0.00634920671582
1449618030795650343,0.346412698746,0.0,0.0,0.0,0.0,0.00634920671582
1449618030835940847,0.340825397491,0.0,0.0,0.0,0.0,0.0126984134316
1449618030875418686,0.340825397491,0.0,0.0,0.0,0.0,0.0126984134316
1449618030917289970,0.346412698746,0.0,0.0,0.0,0.0,0.00634920671582
1449618030955749477,0.346412698746,0.0,0.0,0.0,0.0,0.00634920671582
1449618030996283805,0.346412698746,0.0,0.0,0.0,0.0,0.00634920671582
1449618031035488621,0.346412698746,0.0,0.0,0.0,0.0,0.00634920671582
1449618031075500804,0.346412698746,0.0,0.0,0.0,0.0,0.0
1449618031115478149,0.346412698746,0.0,0.0,0.0,0.0,0.0
1449618031155817472,0.346412698746,0.0,0.0,0.0,0.0,0.0
1449618031195537826,0.31288889122,0.0,0.0,0.0,0.0,0.0
1449618031235268462,0.31288889122,0.0,0.0,0.0,0.0,0.0
1449618031275430356,0.31288889122,0.0,0.0,0.0,0.0,0.0
1449618031315422049,0.31288889122,0.0,0.0,0.0,0.0,0.0
1449618031355582196,0.346412698746,0.0,0.0,0.0,0.0,-0.00634920671582
1449618031395382263,0.31288889122,0.0,0.0,0.0,0.0,0.0
1449618031435405391,0.31288889122,0.0,0.0,0.0,0.0,0.0
1449618031475955421,0.31288889122,0.0,0.0,0.0,0.0,0.0
1449618031516954486,0.31288889122,0.0,0.0,0.0,0.0,0.0
1449618031555568999,0.346412698746,0.0,0.0,0.0,0.0,-0.00634920671582
1449618031595673731,0.346412698746,0.0,0.0,0.0,0.0,-0.00634920671582
1449618031635906808,0.346412698746,0.0,0.0,0.0,0.0,-0.00634920671582
1449618031675696936,0.346412698746,0.0,0.0,0.0,0.0,-0.00634920671582
1449618031716164978,0.352,0.0,0.0,0.0,0.0,-0.00634920671582
1449618031755359491,0.352,0.0,0.0,0.0,0.0,-0.00634920671582
1449618031795528633,0.352,0.0,0.0,0.0,0.0,-0.00634920671582
1449618031835602060,0.346412698746,0.0,0.0,0.0,0.0,-0.0126984134316
1449618031875534449,0.346412698746,0.0,0.0,0.0,0.0,-0.0126984134316
1449618031917562347,0.346412698746,0.0,0.0,0.0,0.0,-0.0126984134316
1449618031955889829,0.346412698746,0.0,0.0,0.0,0.0,-0.0126984134316
1449618031995596206,0.346412698746,0.0,0.0,0.0,0.0,-0.0126984134316
1449618032035591497,0.340825397491,0.0,0.0,0.0,0.0,-0.0126984134316
1449618032075253277,0.340825397491,0.0,0.0,0.0,0.0,-0.0126984134316
1449618032115704343,0.346412698746,0.0,0.0,0.0,0.0,-0.0190476194024
1449618032155608595,0.346412698746,0.0,0.0,0.0,0.0,-0.0190476194024
1449618032195934815,0.346412698746,0.0,0.0,0.0,0.0,-0.0190476194024
1449618032236051222,0.346412698746,0.0,0.0,0.0,0.0,-0.0190476194024
1449618032275552479,0.346412698746,0.0,0.0,0.0,0.0,-0.0190476194024
1449618032317344009,0.346412698746,0.0,0.0,0.0,0.0,-0.0190476194024
1449618032355307760,0.346412698746,0.0,0.0,0.0,0.0,-0.0190476194024
1449618032395634546,0.346412698746,0.0,0.0,0.0,0.0,-0.0190476194024
1449618032444120162,0.346412698746,0.0,0.0,0.0,0.0,-0.0126984134316
1449618032475375778,0.346412698746,0.0,0.0,0.0,0.0,-0.0126984134316
1449618032515606244,0.346412698746,0.0,0.0,0.0,0.0,-0.0126984134316
1449618032562111309,0.346412698746,0.0,0.0,0.0,0.0,-0.0126984134316
1449618032597217763,0.346412698746,0.0,0.0,0.0,0.0,-0.0126984134316
1449618032635614807,0.346412698746,0.0,0.0,0.0,0.0,-0.00634920671582
1449618032675479445,0.346412698746,0.0,0.0,0.0,0.0,-0.00634920671582
1449618032715877214,0.346412698746,0.0,0.0,0.0,0.0,-0.0126984134316
1449618032755339965,0.346412698746,0.0,0.0,0.0,0.0,-0.0126984134316
1449618032795970793,0.346412698746,0.0,0.0,0.0,0.0,-0.0126984134316
1449618032835670360,0.346412698746,0.0,0.0,0.0,0.0,-0.0126984134316
1449618032876209436,0.346412698746,0.0,0.0,0.0,0.0,-0.0126984134316
1449618032915642430,0.346412698746,0.0,0.0,0.0,0.0,-0.00634920671582
1449618032956345658,0.346412698746,0.0,0.0,0.0,0.0,-0.00634920671582
1449618032996296782,0.346412698746,0.0,0.0,0.0,0.0,-0.00634920671582
1449618033035385830,0.346412698746,0.0,0.0,0.0,0.0,-0.00634920671582
1449618033075239512,0.346412698746,0.0,0.0,0.0,0.0,-0.00634920671582
1449618033116969223,0.346412698746,0.0,0.0,0.0,0.0,-0.00634920671582
1449618033156633480,0.346412698746,0.0,0.0,0.0,0.0,-0.00634920671582
1449618033195493110,0.346412698746,0.0,0.0,0.0,0.0,-0.00634920671582
1449618033235267865,0.346412698746,0.0,0.0,0.0,0.0,-0.00634920671582
1449618033275493498,0.346412698746,0.0,0.0,0.0,0.0,-0.00634920671582
1449618033315602760,0.346412698746,0.0,0.0,0.0,0.0,-0.00634920671582
1449618033357880746,0.346412698746,0.0,0.0,0.0,0.0,-0.00634920671582
1449618033395468974,0.346412698746,0.0,0.0,0.0,0.0,-0.00634920671582
1449618033435679093,0.346412698746,0.0,0.0,0.0,0.0,-0.00634920671582
1449618033475692345,0.346412698746,0.0,0.0,0.0,0.0,-0.00634920671582
1449618033515766097,0.346412698746,0.0,0.0,0.0,0.0,-0.00634920671582
1449618033557863364,0.346412698746,0.0,0.0,0.0,0.0,-0.00634920671582
1449618033597131476,0.346412698746,0.0,0.0,0.0,0.0,-0.00634920671582
1449618033635678381,0.346412698746,0.0,0.0,0.0,0.0,-0.00634920671582
1449618033675598613,0.346412698746,0.0,0.0,0.0,0.0,-0.00634920671582
1449618033715920208,0.335238096237,0.0,0.0,0.0,0.0,-0.00634920671582
1449618033755642384,0.335238096237,0.0,0.0,0.0,0.0,-0.00634920671582
1449618033796241756,0.335238096237,0.0,0.0,0.0,0.0,-0.00634920671582
1449618033835518602,0.346412698746,0.0,0.0,0.0,0.0,-0.00634920671582
1449618033877435522,0.346412698746,0.0,0.0,0.0,0.0,-0.00634920671582
1449618033915567027,0.307301589966,0.0,0.0,0.0,0.0,0.0
1449618033955514035,0.307301589966,0.0,0.0,0.0,0.0,0.0
1449618033995999695,0.307301589966,0.0,0.0,0.0,0.0,0.0
1449618034035531701,0.307301589966,0.0,0.0,0.0,0.0,0.0
1449618034076489885,0.346412698746,0.0,0.0,0.0,0.0,-0.00634920671582
1449618034120924620,0.346412698746,0.0,0.0,0.0,0.0,-0.00634920671582
1449618034155840106,0.307301589966,0.0,0.0,0.0,0.0,-0.00634920671582
1449618034195211289,0.307301589966,0.0,0.0,0.0,0.0,-0.00634920671582
1449618034235649554,0.346412698746,0.0,0.0,0.0,0.0,-0.00634920671582
1449618034277222734,0.346412698746,0.0,0.0,0.0,0.0,-0.00634920671582
1449618034317877731,0.346412698746,0.0,0.0,0.0,0.0,-0.00634920671582
1449618034355397653,0.346412698746,0.0,0.0,0.0,0.0,-0.00634920671582
1449618034395429414,0.346412698746,0.0,0.0,0.0,0.0,-0.00634920671582
1449618034435350021,0.346412698746,0.0,0.0,0.0,0.0,-0.00634920671582
1449618034475573206,0.346412698746,0.0,0.0,0.0,0.0,-0.00634920671582
1449618034515615870,0.346412698746,0.0,0.0,0.0,0.0,-0.00634920671582
1449618034555973527,0.346412698746,0.0,0.0,0.0,0.0,-0.00634920671582
1449618034596576561,0.346412698746,0.0,0.0,0.0,0.0,0.0
1449618034635466256,0.346412698746,0.0,0.0,0.0,0.0,0.0
1449618034675499330,0.346412698746,0.0,0.0,0.0,0.0,0.0
1449618034715570038,0.346412698746,0.0,0.0,0.0,0.0,-0.00634920671582
1449618034755556081,0.346412698746,0.0,0.0,0.0,0.0,-0.00634920671582
1449618034795464932,0.346412698746,0.0,0.0,0.0,0.0,-0.00634920671582
1449618034836797737,0.346412698746,0.0,0.0,0.0,0.0,0.0
1449618034878658826,0.346412698746,0.0,0.0,0.0,0.0,0.0
1449618034915987442,0.346412698746,0.0,0.0,0.0,0.0,-0.00634920671582
1449618034959209772,0.346412698746,0.0,0.0,0.0,0.0,-0.00634920671582
1449618034996651575,0.346412698746,0.0,0.0,0.0,0.0,-0.00634920671582
1449618035035976697,0.346412698746,0.0,0.0,0.0,0.0,-0.00634920671582
1449618035076892810,0.346412698746,0.0,0.0,0.0,0.0,-0.00634920671582
1449618035117697980,0.346412698746,0.0,0.0,0.0,0.0,-0.00634920671582
1449618035155557887,0.346412698746,0.0,0.0,0.0,0.0,-0.00634920671582
1449618035195558729,0.346412698746,0.0,0.0,0.0,0.0,-0.00634920671582
1449618035242331879,0.346412698746,0.0,0.0,0.0,0.0,-0.00634920671582
1449618035275554837,0.346412698746,0.0,0.0,0.0,0.0,-0.00634920671582
1449618035316850926,0.346412698746,0.0,0.0,0.0,0.0,-0.00634920671582
1449618035355985083,0.346412698746,0.0,0.0,0.0,0.0,-0.00634920671582
1449618035397393809,0.346412698746,0.0,0.0,0.0,0.0,-0.00634920671582
1449618035435677616,0.307301589966,0.0,0.0,0.0,0.0,-0.00634920671582
1449618035475617151,0.307301589966,0.0,0.0,0.0,0.0,-0.00634920671582
1449618035515332573,0.346412698746,0.0,0.0,0.0,0.0,-0.00634920671582
1449618035555484711,0.346412698746,0.0,0.0,0.0,0.0,-0.00634920671582
1449618035597006516,0.346412698746,0.0,0.0,0.0,0.0,-0.00634920671582
1449618035638535402,0.307301589966,0.0,0.0,0.0,0.0,-0.00634920671582
1449618035675578451,0.307301589966,0.0,0.0,0.0,0.0,-0.00634920671582
1449618035716191650,0.346412698746,0.0,0.0,0.0,0.0,-0.00634920671582
1449618035755411647,0.346412698746,0.0,0.0,0.0,0.0,-0.00634920671582
1449618035795329661,0.346412698746,0.0,0.0,0.0,0.0,-0.00634920671582
1449618035835337800,0.301714288712,0.0,0.0,0.0,0.0,0.0
1449618035876553212,0.301714288712,0.0,0.0,0.0,0.0,0.0
1449618035918748848,0.346412698746,0.0,0.0,0.0,0.0,-0.00634920671582
1449618035955874346,0.346412698746,0.0,0.0,0.0,0.0,-0.00634920671582
1449618035995789187,0.346412698746,0.0,0.0,0.0,0.0,-0.00634920671582
1449618036035251280,0.346412698746,0.0,0.0,0.0,0.0,-0.00634920671582
1449618036075597278,0.346412698746,0.0,0.0,0.0,0.0,-0.00634920671582
1449618036117135867,0.346412698746,0.0,0.0,0.0,0.0,-0.00634920671582
1449618036155608482,0.346412698746,0.0,0.0,0.0,0.0,-0.00634920671582
1449618036197821887,0.346412698746,0.0,0.0,0.0,0.0,-0.00634920671582
1449618036235816453,0.346412698746,0.0,0.0,0.0,0.0,-0.00634920671582
1449618036275617036,0.346412698746,0.0,0.0,0.0,0.0,-0.00634920671582
1449618036315502319,0.346412698746,0.0,0.0,0.0,0.0,-0.00634920671582
1449618036356267264,0.346412698746,0.0,0.0,0.0,0.0,0.0
1449618036397415493,0.346412698746,0.0,0.0,0.0,0.0,0.0
1449618036435519435,0.346412698746,0.0,0.0,0.0,0.0,0.0
1449618036475811553,0.346412698746,0.0,0.0,0.0,0.0,0.0
1449618036515428032,0.346412698746,0.0,0.0,0.0,0.0,0.0126984134316
1449618036558046868,0.346412698746,0.0,0.0,0.0,0.0,0.0126984134316
1449618036595840940,0.346412698746,0.0,0.0,0.0,0.0,0.0126984134316
1449618036635657239,0.329650794983,0.0,0.0,0.0,0.0,0.126984131336
1449618036675490125,0.329650794983,0.0,0.0,0.0,0.0,0.126984131336
1449618036715634808,0.329650794983,0.0,0.0,0.0,0.0,0.126984131336
1449618036755644792,0.301714288712,0.0,0.0,0.0,0.0,0.336507940292
1449618036795775252,0.301714288712,0.0,0.0,0.0,0.0,0.336507940292
1449618036836517559,0.301714288712,0.0,0.0,0.0,0.0,0.336507940292
1449618036875517083,0.296126987457,0.0,0.0,0.0,0.0,0.342857146263
1449618036915944835,0.296126987457,0.0,0.0,0.0,0.0,0.336507940292
1449618036956104437,0.296126987457,0.0,0.0,0.0,0.0,0.336507940292
1449618036995896133,0.296126987457,0.0,0.0,0.0,0.0,0.336507940292
1449618037035535028,0.296126987457,0.0,0.0,0.0,0.0,0.336507940292
1449618037075585719,0.301714288712,0.0,0.0,0.0,0.0,0.342857146263
1449618037115781267,0.301714288712,0.0,0.0,0.0,0.0,0.336507940292
1449618037161998593,0.301714288712,0.0,0.0,0.0,0.0,0.336507940292
1449618037196161851,0.301714288712,0.0,0.0,0.0,0.0,0.336507940292
1449618037235295270,0.301714288712,0.0,0.0,0.0,0.0,0.336507940292
1449618037276719233,0.301714288712,0.0,0.0,0.0,0.0,0.336507940292
1449618037315711227,0.296126987457,0.0,0.0,0.0,0.0,0.336507940292
1449618037356096892,0.296126987457,0.0,0.0,0.0,0.0,0.336507940292
1449618037395617345,0.296126987457,0.0,0.0,0.0,0.0,0.336507940292
1449618037435359585,0.296126987457,0.0,0.0,0.0,0.0,0.342857146263
1449618037475711788,0.296126987457,0.0,0.0,0.0,0.0,0.342857146263
1449618037515614900,0.296126987457,0.0,0.0,0.0,0.0,0.342857146263
1449618037569853509,0.296126987457,0.0,0.0,0.0,0.0,0.342857146263
1449618037595312642,0.296126987457,0.0,0.0,0.0,0.0,0.342857146263
1449618037635540472,0.301714288712,0.0,0.0,0.0,0.0,0.342857146263
1449618037675698398,0.301714288712,0.0,0.0,0.0,0.0,0.342857146263
1449618037715539977,0.296126987457,0.0,0.0,0.0,0.0,0.336507940292
1449618037762707352,0.296126987457,0.0,0.0,0.0,0.0,0.336507940292
1449618037795372175,0.296126987457,0.0,0.0,0.0,0.0,0.336507940292
1449618037835462017,0.301714288712,0.0,0.0,0.0,0.0,0.342857146263
1449618037875247630,0.301714288712,0.0,0.0,0.0,0.0,0.342857146263
1449618037915691067,0.301714288712,0.0,0.0,0.0,0.0,0.342857146263
1449618037957076728,0.296126987457,0.0,0.0,0.0,0.0,0.342857146263
1449618037996696035,0.301714288712,0.0,0.0,0.0,0.0,0.342857146263
1449618038035787729,0.301714288712,0.0,0.0,0.0,0.0,0.342857146263
1449618038076542018,0.301714288712,0.0,0.0,0.0,0.0,0.342857146263
1449618038118065864,0.251428577423,0.0,0.0,0.0,0.0,0.273015880585
1449618038155572186,0.251428577423,0.0,0.0,0.0,0.0,0.273015880585
1449618038195404869,0.251428577423,0.0,0.0,0.0,0.0,0.273015880585
1449618038235968237,0.335238096237,0.0,0.0,0.0,0.0,0.0825396835804
1449618038275338027,0.335238096237,0.0,0.0,0.0,0.0,0.0825396835804
1449618038315803424,0.329650794983,0.0,0.0,0.0,0.0,0.126984131336
1449618038355509747,0.329650794983,0.0,0.0,0.0,0.0,0.126984131336
1449618038395827358,0.329650794983,0.0,0.0,0.0,0.0,0.126984131336
1449618038435837864,0.329650794983,0.0,0.0,0.0,0.0,0.120634925365
1449618038477235943,0.329650794983,0.0,0.0,0.0,0.0,0.120634925365
1449618038515448185,0.340825397491,0.0,0.0,0.0,0.0,0.0507936537266
1449618038556391479,0.340825397491,0.0,0.0,0.0,0.0,0.0507936537266
1449618038595465383,0.340825397491,0.0,0.0,0.0,0.0,0.0507936537266
1449618038635494798,0.346412698746,0.0,0.0,0.0,0.0,0.0126984134316
1449618038675999012,0.346412698746,0.0,0.0,0.0,0.0,0.0126984134316
1449618038715476962,0.346412698746,0.0,0.0,0.0,0.0,0.00634920671582
1449618038755506964,0.346412698746,0.0,0.0,0.0,0.0,0.00634920671582
1449618038795395189,0.346412698746,0.0,0.0,0.0,0.0,0.00634920671582
1449618038835524235,0.346412698746,0.0,0.0,0.0,0.0,0.0
1449618038875492619,0.346412698746,0.0,0.0,0.0,0.0,0.0
1449618038923975479,0.352,0.0,0.0,0.0,0.0,0.0
1449618038959545150,0.352,0.0,0.0,0.0,0.0,0.0
1449618038995481705,0.352,0.0,0.0,0.0,0.0,0.0
1449618039036700325,0.346412698746,0.0,0.0,0.0,0.0,0.0
1449618039078267945,0.346412698746,0.0,0.0,0.0,0.0,0.0
1449618039118855224,0.318476192474,0.0,0.0,0.0,0.0,0.0
1449618039155551968,0.318476192474,0.0,0.0,0.0,0.0,0.0
1449618039195983597,0.318476192474,0.0,0.0,0.0,0.0,0.0
1449618039235766877,0.346412698746,0.0,0.0,0.0,0.0,0.0
1449618039276825351,0.346412698746,0.0,0.0,0.0,0.0,0.0
