%time,field.header.seq,field.header.stamp,field.header.frame_id,field.polygon.points0.x,field.polygon.points0.y,field.polygon.points0.z,field.polygon.points1.x,field.polygon.points1.y,field.polygon.points1.z,field.polygon.points2.x,field.polygon.points2.y,field.polygon.points2.z,field.polygon.points3.x,field.polygon.points3.y,field.polygon.points3.z,field.polygon.points4.x,field.polygon.points4.y,field.polygon.points4.z
1449618000180920176,2,1449618000180676962,odom,0.569999992847,0.0,0.0,0.469999998808,-0.305000007153,0.0,-0.730000019073,-0.305000007153,0.0,-0.730000019073,0.305000007153,0.0,0.469999998808,0.305000007153,0.0
1449618000381111267,3,1449618000380731300,odom,0.569999992847,0.0,0.0,0.469999998808,-0.305000007153,0.0,-0.730000019073,-0.305000007153,0.0,-0.730000019073,0.305000007153,0.0,0.469999998808,0.305000007153,0.0
1449618000581550359,4,1449618000581178998,odom,0.569999992847,0.0,0.0,0.469999998808,-0.305000007153,0.0,-0.730000019073,-0.305000007153,0.0,-0.730000019073,0.305000007153,0.0,0.469999998808,0.305000007153,0.0
1449618000782154740,5,1449618000781310858,odom,0.569999992847,0.0,0.0,0.469999998808,-0.305000007153,0.0,-0.730000019073,-0.305000007153,0.0,-0.730000019073,0.305000007153,0.0,0.469999998808,0.305000007153,0.0
1449618000987458615,6,1449618000985219913,odom,0.569999992847,0.0,0.0,0.469999998808,-0.305000007153,0.0,-0.730000019073,-0.305000007153,0.0,-0.730000019073,0.305000007153,0.0,0.469999998808,0.305000007153,0.0
1449618001182235735,7,1449618001181170743,odom,0.569999992847,0.0,0.0,0.469999998808,-0.305000007153,0.0,-0.730000019073,-0.305000007153,0.0,-0.730000019073,0.305000007153,0.0,0.469999998808,0.305000007153,0.0
1449618001381523930,8,1449618001381124983,odom,0.569999992847,0.0,0.0,0.469999998808,-0.305000007153,0.0,-0.730000019073,-0.305000007153,0.0,-0.730000019073,0.305000007153,0.0,0.469999998808,0.305000007153,0.0
1449618001581815015,9,1449618001581045109,odom,0.569999992847,0.0,0.0,0.469999998808,-0.305000007153,0.0,-0.730000019073,-0.305000007153,0.0,-0.730000019073,0.305000007153,0.0,0.469999998808,0.305000007153,0.0
1449618001782500516,10,1449618001781865556,odom,0.569999992847,0.0,0.0,0.469999998808,-0.305000007153,0.0,-0.730000019073,-0.305000007153,0.0,-0.730000019073,0.305000007153,0.0,0.469999998808,0.305000007153,0.0
1449618002111375968,11,1449618002111071822,odom,0.569999992847,0.0,0.0,0.469999998808,-0.305000007153,0.0,-0.730000019073,-0.305000007153,0.0,-0.730000019073,0.305000007153,0.0,0.469999998808,0.305000007153,0.0
1449618002374045574,12,1449618002371918982,odom,0.569999992847,0.0,0.0,0.469999998808,-0.305000007153,0.0,-0.730000019073,-0.305000007153,0.0,-0.730000019073,0.305000007153,0.0,0.469999998808,0.305000007153,0.0
1449618002537168049,13,1449618002534316717,odom,0.569999992847,0.0,0.0,0.469999998808,-0.305000007153,0.0,-0.730000019073,-0.305000007153,0.0,-0.730000019073,0.305000007153,0.0,0.469999998808,0.305000007153,0.0
1449618002719881813,14,1449618002719625714,odom,0.569999992847,0.0,0.0,0.469999998808,-0.305000007153,0.0,-0.730000019073,-0.305000007153,0.0,-0.730000019073,0.305000007153,0.0,0.469999998808,0.305000007153,0.0
1449618002881851340,15,1449618002881563917,odom,0.569999992847,0.0,0.0,0.469999998808,-0.305000007153,0.0,-0.730000019073,-0.305000007153,0.0,-0.730000019073,0.305000007153,0.0,0.469999998808,0.305000007153,0.0
1449618003087634289,16,1449618003087403838,odom,0.569999992847,0.0,0.0,0.469999998808,-0.305000007153,0.0,-0.730000019073,-0.305000007153,0.0,-0.730000019073,0.305000007153,0.0,0.469999998808,0.305000007153,0.0
1449618003283781940,17,1449618003283569783,odom,0.569999992847,0.0,0.0,0.469999998808,-0.305000007153,0.0,-0.730000019073,-0.305000007153,0.0,-0.730000019073,0.305000007153,0.0,0.469999998808,0.305000007153,0.0
1449618003472955922,18,1449618003469961022,odom,0.569999992847,0.0,0.0,0.469999998808,-0.305000007153,0.0,-0.730000019073,-0.305000007153,0.0,-0.730000019073,0.305000007153,0.0,0.469999998808,0.305000007153,0.0
1449618003683034949,19,1449618003680538716,odom,0.569999992847,0.0,0.0,0.469999998808,-0.305000007153,0.0,-0.730000019073,-0.305000007153,0.0,-0.730000019073,0.305000007153,0.0,0.469999998808,0.305000007153,0.0
1449618003885367262,20,1449618003884499297,odom,0.569999992847,0.0,0.0,0.469999998808,-0.305000007153,0.0,-0.730000019073,-0.305000007153,0.0,-0.730000019073,0.305000007153,0.0,0.469999998808,0.305000007153,0.0
1449618004069628689,21,1449618004069220776,odom,0.569999992847,0.0,0.0,0.469999998808,-0.305000007153,0.0,-0.730000019073,-0.305000007153,0.0,-0.730000019073,0.305000007153,0.0,0.469999998808,0.305000007153,0.0
1449618004280970137,22,1449618004280372096,odom,0.569999992847,0.0,0.0,0.469999998808,-0.305000007153,0.0,-0.730000019073,-0.305000007153,0.0,-0.730000019073,0.305000007153,0.0,0.469999998808,0.305000007153,0.0
1449618004511890665,23,1449618004507130194,odom,0.569999992847,0.0,0.0,0.469999998808,-0.305000007153,0.0,-0.730000019073,-0.305000007153,0.0,-0.730000019073,0.305000007153,0.0,0.469999998808,0.305000007153,0.0
1449618004676407987,24,1449618004672131207,odom,0.569999992847,0.0,0.0,0.469999998808,-0.305000007153,0.0,-0.730000019073,-0.305000007153,0.0,-0.730000019073,0.305000007153,0.0,0.469999998808,0.305000007153,0.0
1449618004891680492,25,1449618004891443921,odom,0.569999992847,0.0,0.0,0.469999998808,-0.305000007153,0.0,-0.730000019073,-0.305000007153,0.0,-0.730000019073,0.305000007153,0.0,0.469999998808,0.305000007153,0.0
1449618005089308150,26,1449618005088126880,odom,0.569999992847,0.0,0.0,0.469999998808,-0.305000007153,0.0,-0.730000019073,-0.305000007153,0.0,-0.730000019073,0.305000007153,0.0,0.469999998808,0.305000007153,0.0
1449618005275232389,27,1449618005274630636,odom,0.569999992847,0.0,0.0,0.469999998808,-0.305000007153,0.0,-0.730000019073,-0.305000007153,0.0,-0.730000019073,0.305000007153,0.0,0.469999998808,0.305000007153,0.0
1449618005489860825,28,1449618005485635191,odom,0.569999992847,0.0,0.0,0.469999998808,-0.305000007153,0.0,-0.730000019073,-0.305000007153,0.0,-0.730000019073,0.305000007153,0.0,0.469999998808,0.305000007153,0.0
1449618005698395621,29,1449618005698019275,odom,0.569999992847,0.0,0.0,0.469999998808,-0.305000007153,0.0,-0.730000019073,-0.305000007153,0.0,-0.730000019073,0.305000007153,0.0,0.469999998808,0.305000007153,0.0
1449618005870015941,30,1449618005869266871,odom,0.569999992847,0.0,0.0,0.469999998808,-0.305000007153,0.0,-0.730000019073,-0.305000007153,0.0,-0.730000019073,0.305000007153,0.0,0.469999998808,0.305000007153,0.0
1449618006071740584,31,1449618006067815880,odom,0.569999992847,0.0,0.0,0.469999998808,-0.305000007153,0.0,-0.730000019073,-0.305000007153,0.0,-0.730000019073,0.305000007153,0.0,0.469999998808,0.305000007153,0.0
1449618006319626416,32,1449618006318923948,odom,0.569999992847,0.0,0.0,0.469999998808,-0.305000007153,0.0,-0.730000019073,-0.305000007153,0.0,-0.730000019073,0.305000007153,0.0,0.469999998808,0.305000007153,0.0
1449618006521076841,33,1449618006519887896,odom,0.569999992847,0.0,0.0,0.469999998808,-0.305000007153,0.0,-0.730000019073,-0.305000007153,0.0,-0.730000019073,0.305000007153,0.0,0.469999998808,0.305000007153,0.0
1449618006720710465,34,1449618006720179690,odom,0.575759410858,3.04332297674e-05,0.0,0.475759416819,-0.304969578981,0.0,-0.724240601063,-0.304969578981,0.0,-0.724240601063,0.305030435324,0.0,0.475759416819,0.305030435324,0.0
1449618006907394387,35,1449618006906187752,odom,0.581518828869,0.0,0.0,0.481518864632,-0.305000007153,0.0,-0.718481183052,-0.305000007153,0.0,-0.718481183052,0.305000007153,0.0,0.481518864632,0.305000007153,0.0
1449618007097203365,36,1449618007090472631,odom,0.598797261715,-6.08664595347e-05,0.0,0.498797297478,-0.305060863495,0.0,-0.701202750206,-0.305060863495,0.0,-0.701202750206,0.30493915081,0.0,0.498797297478,0.30493915081,0.0
1449618007306694261,37,1449618007306329712,odom,0.61290627718,0.0183117780834,0.0,0.522624671459,-0.289704829454,0.0,-0.676772296429,-0.327743440866,0.0,-0.696108579636,0.281950026751,0.0,0.503288388252,0.319988638163,0.0
1449618007485862403,38,1449618007483325702,odom,0.637023508549,0.0499577373266,0.0,0.563136041164,-0.262397259474,0.0,-0.632577896118,-0.363729715347,0.0,-0.684088528156,0.244091540575,0.0,0.511625349522,0.345423996449,0.0
1449618007670070922,39,1449618007668184181,odom,0.659461975098,0.101599313319,0.0,0.612214803696,-0.215879365802,0.0,-0.570671439171,-0.417820394039,0.0,-0.67332482338,0.183480113745,0.0,0.509561419487,0.385421156883,0.0
1449618007885839612,40,1449618007881939945,odom,0.683017969131,0.156455010176,0.0,0.662748634815,-0.163879439235,0.0,-0.498860001564,-0.464986503124,0.0,-0.651922762394,0.125497892499,0.0,0.509685873985,0.426604956388,0.0
1449618008155189866,41,1449618008150401869,odom,0.702504336834,0.219877749681,0.0,0.712748467922,-0.100933820009,0.0,-0.415014058352,-0.510996878147,0.0,-0.623462796211,0.062282435596,0.0,0.504299759865,0.472345471382,0.0
1449618008328854537,42,1449618008326294108,odom,0.726576805115,0.282338351011,0.0,0.76387488842,-0.0364623069763,0.0,-0.325232356787,-0.540293157101,0.0,-0.581346392632,0.013336347416,0.0,0.507760822773,0.517167210579,0.0
1449618008560090924,43,1449618008559079174,odom,0.757331490517,0.324346840382,0.0,0.80806863308,0.00740719726309,0.0,-0.258773952723,-0.541998803616,0.0,-0.538055360317,0.00031284589204,0.0,0.528787255287,0.549718856812,0.0
1449618008904255874,44,1449618008903776489,odom,0.834030330181,0.417013943195,0.0,0.908053398132,0.104691058397,0.0,-0.115265391767,-0.522061467171,0.0,-0.433864593506,-0.00187441287562,0.0,0.589454174042,0.624878108501,0.0
1449618009089216292,45,1449618009088924682,odom,0.877162992954,0.451280236244,0.0,0.954482495785,0.139757037163,0.0,-0.0621557272971,-0.497774779797,0.0,-0.386234402657,0.0190163254738,0.0,0.6304038167,0.656548142433,0.0
1449618009312476679,46,1449618009309844192,odom,0.919981360435,0.485924184322,0.0,1.00058865547,0.175235494971,0.0,-0.00925541855395,-0.47300440073,0.0,-0.3387773633,0.0403330214322,0.0,0.671066701412,0.688572883606,0.0
1449618009478801067,47,1449618009475739089,odom,0.968450427055,0.517037451267,0.0,1.04905772209,0.206348761916,0.0,0.039213616401,-0.441891103983,0.0,-0.290308326483,0.0714462995529,0.0,0.719535768032,0.719686210155,0.0
1449618009724831419,48,1449618009722375134,odom,1.02456486225,0.530358374119,0.0,1.09528326988,0.217270672321,0.0,0.0653981640935,-0.3986325562,0.0,-0.247685983777,0.12489233911,0.0,0.782199084759,0.740795552731,0.0
1449618009927080979,49,1449618009924484840,odom,1.08101153374,0.541998684406,0.0,1.14176976681,0.22682659328,0.0,0.092878870666,-0.356120973825,0.0,-0.203452810645,0.177065253258,0.0,0.845438122749,0.760012805462,0.0
1449618010083532102,50,1449618010083387203,odom,1.14300537109,0.554319798946,0.0,1.19374251366,0.237380117178,0.0,0.126899972558,-0.312025874853,0.0,-0.152381405234,0.230285778642,0.0,0.914461195469,0.779691755772,0.0
1449618010275668085,51,1449618010274792612,odom,1.20555663109,0.550548315048,0.0,1.23948359489,0.231371313334,0.0,0.145112767816,-0.260921895504,0.0,-0.105136267841,0.295383274555,0.0,0.989234507084,0.78767645359,0.0
1449618010532166952,52,1449618010530923133,odom,1.26734995842,0.536639213562,0.0,1.28098380566,0.215953826904,0.0,0.15761770308,-0.206004336476,0.0,-0.056877695024,0.36504009366,0.0,1.0664883852,0.786998271942,0.0
1449618010718716877,53,1449618010718442966,odom,1.32891011238,0.526011228561,0.0,1.32558774948,0.205053374171,0.0,0.181503579021,-0.156984552741,0.0,-0.00253236782737,0.424591571093,0.0,1.14155185223,0.786629498005,0.0
1449618010912957765,54,1449618010912600969,odom,1.38860738277,0.505263209343,0.0,1.36495387554,0.185160845518,0.0,0.200228095055,-0.103653684258,0.0,0.0534140355885,0.488415271044,0.0,1.21813988686,0.777229785919,0.0
1449618011139091060,55,1449618011134451986,odom,1.44689917564,0.480624735355,0.0,1.40300965309,0.162664502859,0.0,0.222323581576,-0.0517658218741,0.0,0.113321498036,0.548416256905,0.0,1.29400765896,0.762846589088,0.0
1449618011282556962,56,1449618011276954494,odom,1.50353300571,0.452222108841,0.0,1.4395840168,0.137681931257,0.0,0.247683063149,-0.0015023391461,0.0,0.176931068301,0.604380607605,0.0,1.36883199215,0.743564903736,0.0
1449618011485787891,57,1449618011484558879,odom,1.54675638676,0.419557839632,0.0,1.46300470829,0.109701968729,0.0,0.264679580927,0.046323183924,0.0,0.232462033629,0.655471801758,0.0,1.4307872057,0.71885061264,0.0
1449618011740916477,58,1449618011740229757,odom,1.59637176991,0.377649664879,0.0,1.4899481535,0.0748312398791,0.0,0.290216118097,0.100192666054,0.0,0.30310818553,0.710056424141,0.0,1.50284016132,0.684695005417,0.0
1449618011875013907,59,1449618011874676747,odom,1.63927316666,0.326439380646,0.0,1.5076584816,0.0336893647909,0.0,0.314353257418,0.160270035267,0.0,0.378698408604,0.766866862774,0.0,1.57200360298,0.640286207199,0.0
1449618012098159211,60,1449618012075613172,odom,1.67990100384,0.283911883831,0.0,1.53000044823,9.00587110664e-05,0.0,0.347114235163,0.202031090856,0.0,0.449767589569,0.803331613541,0.0,1.63265383244,0.6013905406,0.0
1449618012329175600,61,1449618012327224298,odom,1.71586608887,0.219648465514,0.0,1.53968882561,-0.0486546382308,0.0,0.38132712245,0.2647113204,0.0,0.540621459484,0.853545188904,0.0,1.69898319244,0.540179252625,0.0
1449618012504022753,62,1449618012502313491,odom,1.74444305897,0.16606965661,0.0,1.54891765118,-0.0884785726666,0.0,0.416884601116,0.309643536806,0.0,0.619263350964,0.885093688965,0.0,1.75129640102,0.48697155714,0.0
1449618012756222420,63,1449618012755955167,odom,1.76910555363,0.103697761893,0.0,1.55278348923,-0.13343039155,0.0,0.458412706852,0.358862787485,0.0,0.708661735058,0.915167987347,0.0,1.80303251743,0.422874778509,0.0
1449618012930124831,64,1449618012924443288,odom,1.78924894333,0.0530970655382,0.0,1.5583357811,-0.169847115874,0.0,0.497358769178,0.390802443027,0.0,0.782355606556,0.930132389069,0.0,1.84333264828,0.369482845068,0.0
1449618013118752459,65,1449618013117548225,odom,1.80760014057,0.0149853676558,0.0,1.56747174263,-0.198001354933,0.0,0.531135380268,0.406983822584,0.0,0.838669478893,0.933788120747,0.0,1.87500584126,0.32880294323,0.0
1449618013332788448,66,1449618013331287149,odom,1.82511293888,-0.0172521751374,0.0,1.57835376263,-0.222520068288,0.0,0.56171554327,0.41501173377,0.0,0.88579416275,0.931802809238,0.0,1.90243244171,0.294271022081,0.0
1449618013537091567,67,1449618013536785436,odom,1.85238409042,-0.0493994727731,0.0,1.6013417244,-0.249406382442,0.0,0.598404586315,0.40946918726,0.0,0.933332979679,0.919295608997,0.0,1.93627023697,0.260420024395,0.0
1449618013698748711,68,1449618013698608023,odom,1.88028895855,-0.075047954917,0.0,1.62714707851,-0.272390723228,0.0,0.631228744984,0.39704695344,0.0,0.97152620554,0.903305411339,0.0,1.96744453907,0.233867749572,0.0
1449618013933328500,69,1449618013921136558,odom,1.9089692831,-0.094326376915,0.0,1.65582740307,-0.291669130325,0.0,0.659909129143,0.377768516541,0.0,1.0002065897,0.884027004242,0.0,1.99612486362,0.214589327574,0.0
1449618014105054325,70,1449618014102969179,odom,1.93168461323,-0.117256589234,0.0,1.67647135258,-0.31191316247,0.0,0.687683224678,0.368011832237,0.0,1.03331172466,0.870645821095,0.0,2.02209997177,0.190720811486,0.0
1449618014373745567,71,1449618014346459115,odom,1.94473421574,-0.133798822761,0.0,1.68747806549,-0.325747489929,0.0,0.70593047142,0.364588916302,0.0,1.05685150623,0.863542318344,0.0,2.03839898109,0.173205882311,0.0
1449618014615505202,72,1449618014615207014,odom,1.95886743069,-0.143738955259,0.0,1.70161139965,-0.335687607527,0.0,0.720063745975,0.354648798704,0.0,1.07098472118,0.853602170944,0.0,2.05253243446,0.163265764713,0.0
1449618014765578134,73,1449618014765296169,odom,1.98361086845,-0.153553828597,0.0,1.7283976078,-0.348210394382,0.0,0.739609479904,0.331714600325,0.0,1.08523797989,0.83434855938,0.0,2.07402610779,0.154423579574,0.0
1449618014874694811,74,1449618014869970880,odom,2.00956988335,-0.156230196357,0.0,1.75852751732,-0.356237113476,0.0,0.755590379238,0.302638471127,0.0,1.09051883221,0.812464892864,0.0,2.09345602989,0.153589308262,0.0
1449618015178661275,75,1449618015175220194,odom,2.0566213131,-0.157081633806,0.0,1.814255476,-0.36751884222,0.0,0.784370362759,0.248384416103,0.0,1.09745454788,0.771909296513,0.0,2.12733960152,0.156006082892,0.0
1449618015278325927,76,1449618015275846269,odom,2.11413097382,-0.154694974422,0.0,1.88321769238,-0.377639144659,0.0,0.822240769863,0.183010399342,0.0,1.10723757744,0.722340345383,0.0,2.16821455956,0.161690801382,0.0
1449618015491592848,77,1449618015487354337,odom,2.17677521706,-0.144538208842,0.0,1.96045327187,-0.381666362286,0.0,0.866082429886,0.110626831651,0.0,1.11633145809,0.666931986809,0.0,2.21070218086,0.174638807774,0.0
1449618015689395089,78,1449618015682275525,odom,2.24347567558,-0.125680238008,0.0,2.04527115822,-0.378147959709,0.0,0.917508661747,0.031915076077,0.0,1.1259573698,0.60519438982,0.0,2.25372004509,0.195131331682,0.0
1449618015997761978,79,1449618015997035494,odom,2.30404233932,-0.107328392565,0.0,2.12223386765,-0.371848136187,0.0,0.970753669739,-0.0340707711875,0.0,1.14245724678,0.551264941692,0.0,2.29393744469,0.21348759532,0.0
1449618016094566817,80,1449618016094103932,odom,2.37315511703,-0.0807509869337,0.0,2.21139431,-0.357984542847,0.0,1.0380988121,-0.106235601008,0.0,1.16607117653,0.490189671516,0.0,2.33936667442,0.238440722227,0.0
1449618016325032425,81,1449618016311288250,odom,2.40213227272,-0.067835316062,0.0,2.24924063683,-0.350057184696,0.0,1.06855452061,-0.135626852512,0.0,1.17755663395,0.464555263519,0.0,2.35824275017,0.250124931335,0.0
1449618016545285702,82,1449618016541889079,odom,2.4531056881,-0.038342859596,0.0,2.31840443611,-0.329685658216,0.0,1.12650358677,-0.190501391888,0.0,1.19725561142,0.415381580591,0.0,2.38915657997,0.276197314262,0.0
1449618016706800379,83,1449618016704821878,odom,2.49555325508,-0.0178839396685,0.0,2.37328457832,-0.314658880234,0.0,1.1765666008,-0.225968211889,0.0,1.22165107727,0.382363438606,0.0,2.41836905479,0.293672770262,0.0
1449618016937867411,84,1449618016936840186,odom,2.53710079193,0.00441135140136,0.0,2.4274828434,-0.29726549983,0.0,1.22808599472,-0.259226888418,0.0,1.24742221832,0.350466579199,0.0,2.44681930542,0.312427967787,0.0
1449618017094639717,85,1449618017093329807,odom,2.57767105103,0.0284120626748,0.0,2.48089981079,-0.277627706528,0.0,1.28096687794,-0.290309131145,0.0,1.2745205164,0.319656819105,0.0,2.47445344925,0.332338243723,0.0
1449618017285665696,86,1449618017282383796,odom,2.62612342834,0.0480281561613,0.0,2.53910183907,-0.260925352573,0.0,1.34017384052,-0.311636865139,0.0,1.31439554691,0.297818213701,0.0,2.51332354546,0.348529726267,0.0
1449618017482043954,87,1449618017480306169,odom,2.68543314934,0.0697787031531,0.0,2.60824894905,-0.24177801609,0.0,1.41153097153,-0.330468684435,0.0,1.36644649506,0.277862966061,0.0,2.56316447258,0.366553634405,0.0
1449618017674488069,88,1449618017671969728,odom,2.73605275154,0.0863117724657,0.0,2.66547036171,-0.226806610823,0.0,1.47089397907,-0.340769529343,0.0,1.41296291351,0.266473412514,0.0,2.60753917694,0.380436331034,0.0
1449618017932228642,89,1449618017928478626,odom,2.7920126915,0.104760549963,0.0,2.72806358337,-0.209779620171,0.0,1.53616273403,-0.348963886499,0.0,1.46541070938,0.256919085979,0.0,2.65731167793,0.396103352308,0.0
1449618018092092404,90,1449618018086956581,odom,2.84559583664,0.117358110845,0.0,2.78497457504,-0.197840303183,0.0,1.5946110487,-0.349612623453,0.0,1.5174601078,0.255488812923,0.0,2.70782351494,0.407261133194,0.0
1449618018267175551,91,1449618018263395975,odom,2.89902305603,0.130672067404,0.0,2.84173583984,-0.185149386525,0.0,1.65304291248,-0.349492818117,0.0,1.56950163841,0.254759520292,0.0,2.75819468498,0.419102936983,0.0
1449618018551304943,92,1449618018543068474,odom,2.9503493309,0.13792181015,0.0,2.89306211472,-0.177899628878,0.0,1.70436906815,-0.342243075371,0.0,1.62082779408,0.262009263039,0.0,2.80952095985,0.426352679729,0.0
1449618018672516687,93,1449618018670530856,odom,2.99223065376,0.150161802769,0.0,2.93828439713,-0.166247412562,0.0,1.75139439106,-0.343143612146,0.0,1.66147220135,0.260192126036,0.0,2.84836220741,0.437088310719,0.0
1449618018914404116,94,1449618018894263122,odom,3.03780412674,0.15695412457,0.0,2.98385763168,-0.159455090761,0.0,1.79696774483,-0.336351275444,0.0,1.70704555511,0.266984462738,0.0,2.89393544197,0.443880647421,0.0
1449618019053524679,95,1449618019048769736,odom,3.07196998596,0.162138611078,0.0,3.01802372932,-0.154270604253,0.0,1.83113372326,-0.331166803837,0.0,1.74121153355,0.272168934345,0.0,2.92810153961,0.449065119028,0.0
1449618019256603434,96,1449618019251593172,odom,3.11185979843,0.167991518974,0.0,3.05791330338,-0.148417696357,0.0,1.87102341652,-0.325313895941,0.0,1.7811011076,0.278021842241,0.0,2.96799111366,0.454918026924,0.0
1449618019461691734,97,1449618019459361745,odom,3.15345835686,0.161488637328,0.0,3.09283685684,-0.15370978415,0.0,1.9024733305,-0.305482119322,0.0,1.8253223896,0.299619346857,0.0,3.01568579674,0.451391667128,0.0
1449618019654073930,98,1449618019653685416,odom,3.19489598274,0.154228940606,0.0,3.12762641907,-0.159617856145,0.0,1.93432116508,-0.286198526621,0.0,1.8699760437,0.320398300886,0.0,3.06328129768,0.446978986263,0.0
1449618019865707411,99,1449618019861749279,odom,3.25913929939,0.147919431329,0.0,3.1852517128,-0.164435565472,0.0,1.98953783512,-0.265768021345,0.0,1.93802714348,0.342053234577,0.0,3.13374114037,0.443385690451,0.0
1449618020051428953,100,1449618020044455004,odom,3.30598664284,0.139219418168,0.0,3.22551417351,-0.171504229307,0.0,2.02792572975,-0.24754320085,0.0,1.98927247524,0.361230939627,0.0,3.18686103821,0.437269926071,0.0
1449618020253050885,101,1449618020250367604,odom,3.34946250916,0.135669603944,0.0,3.26571083069,-0.174186274409,0.0,2.06738567352,-0.237565070391,0.0,2.03516817093,0.371583551168,0.0,3.23349332809,0.434962362051,0.0
1449618020457464889,102,1449618020454957137,odom,3.38714838028,0.131325945258,0.0,3.300126791,-0.177627563477,0.0,2.10119891167,-0.228339090943,0.0,2.07542061806,0.381116002798,0.0,3.27434849739,0.431827515364,0.0
1449618020664788689,103,1449618020664566034,odom,3.41902852058,0.126432090998,0.0,3.32874679565,-0.181584522128,0.0,2.12934994698,-0.219623118639,0.0,2.11001348495,0.390070348978,0.0,3.30941057205,0.42810896039,0.0
1449618020886090383,104,1449618020885888009,odom,3.44781184196,0.127344965935,0.0,3.35753035545,-0.180671662092,0.0,2.15813326836,-0.218710258603,0.0,2.13879704475,0.390983194113,0.0,3.33819389343,0.429021805525,0.0
1449618021057120707,105,1449618021054015294,odom,3.47659540176,0.128257825971,0.0,3.38631367683,-0.179758802056,0.0,2.18691682816,-0.217797398567,0.0,2.16758036613,0.39189606905,0.0,3.36697745323,0.429934680462,0.0
1449618021264103911,106,1449618021263112691,odom,3.49962615967,0.128835991025,0.0,3.40934443474,-0.179180622101,0.0,2.20994758606,-0.217219233513,0.0,2.19061136246,0.392474234104,0.0,3.39000821114,0.430512845516,0.0
1449618021472229097,107,1449618021469407717,odom,3.52569437027,0.123483791947,0.0,3.43216276169,-0.183561533689,0.0,2.23243069649,-0.208922967315,0.0,2.21953868866,0.400940805674,0.0,3.41927075386,0.426302224398,0.0
1449618021656062401,108,1449618021650812728,odom,3.54872512817,0.124061971903,0.0,3.45519351959,-0.182983368635,0.0,2.25546145439,-0.208344787359,0.0,2.24256944656,0.401518970728,0.0,3.44230151176,0.426880389452,0.0
1449618021862296280,109,1449618021861998040,odom,3.57175755501,0.124579295516,0.0,3.47822594643,-0.182466045022,0.0,2.27849388123,-0.207827463746,0.0,2.2656018734,0.402036309242,0.0,3.4653339386,0.427397727966,0.0
1449618022072370228,110,1449618022072033013,odom,3.60054898262,0.125187933445,0.0,3.50701737404,-0.181857407093,0.0,2.30728554726,-0.207218840718,0.0,2.29439330101,0.40264493227,0.0,3.49412536621,0.428006350994,0.0
1449618022266244893,111,1449618022256916737,odom,3.62655878067,0.119590975344,0.0,3.52978754044,-0.186448782682,0.0,2.32985472679,-0.1991302073,0.0,2.32340812683,0.41083574295,0.0,3.52334117889,0.423517167568,0.0
1449618022444814878,112,1449618022443201961,odom,3.65237569809,0.12616173923,0.0,3.55884408951,-0.180883586407,0.0,2.35911202431,-0.206245020032,0.0,2.34622001648,0.403618752956,0.0,3.54595208168,0.42898017168,0.0
1449618022653065533,113,1449618022642948804,odom,3.67540884018,0.126648649573,0.0,3.5818772316,-0.180396690965,0.0,2.38214540482,-0.205758109689,0.0,2.36925315857,0.4041056633,0.0,3.56898522377,0.429467082024,0.0
1449618022864541987,114,1449618022863184309,odom,3.70420384407,0.127044275403,0.0,3.61067223549,-0.180001065135,0.0,2.41094017029,-0.20536249876,0.0,2.39804816246,0.404501259327,0.0,3.59777998924,0.429862707853,0.0
1449618023055798853,115,1449618023053083979,odom,3.72445583344,0.121295161545,0.0,3.6276845932,-0.184744596481,0.0,2.42775154114,-0.197426021099,0.0,2.4213051796,0.412539929152,0.0,3.62123823166,0.425221353769,0.0
1449618023258234954,116,1449618023252756973,odom,3.74749279022,0.121538624167,0.0,3.65072154999,-0.18450114131,0.0,2.45078849792,-0.197182565928,0.0,2.44434213638,0.412783384323,0.0,3.64427518845,0.425464808941,0.0
1449618023439115892,117,1449618023438982514,odom,3.75901126862,0.121660359204,0.0,3.66224002838,-0.184379398823,0.0,2.46230721474,-0.197060823441,0.0,2.45586061478,0.41290512681,0.0,3.65579366684,0.425586551428,0.0
1449618023646675793,118,1449618023645568005,odom,3.77052974701,0.12178208679,0.0,3.67375874519,-0.184257671237,0.0,2.47382569313,-0.196939095855,0.0,2.46737933159,0.413026869297,0.0,3.66731214523,0.425708293915,0.0
1449618023844651401,119,1449618023842380259,odom,3.77052974701,0.12178208679,0.0,3.67375874519,-0.184257671237,0.0,2.47382569313,-0.196939095855,0.0,2.46737933159,0.413026869297,0.0,3.66731214523,0.425708293915,0.0
1449618024068655790,120,1449618024068454194,odom,3.77052974701,0.12178208679,0.0,3.67375874519,-0.184257671237,0.0,2.47382569313,-0.196939095855,0.0,2.46737933159,0.413026869297,0.0,3.66731214523,0.425708293915,0.0
1449618024285860336,121,1449618024285178907,odom,3.77052974701,0.12178208679,0.0,3.67375874519,-0.184257671237,0.0,2.47382569313,-0.196939095855,0.0,2.46737933159,0.413026869297,0.0,3.66731214523,0.425708293915,0.0
1449618024456536718,122,1449618024456303640,odom,3.77052974701,0.12178208679,0.0,3.67375874519,-0.184257671237,0.0,2.47382569313,-0.196939095855,0.0,2.46737933159,0.413026869297,0.0,3.66731214523,0.425708293915,0.0
1449618024693107932,123,1449618024692420096,odom,3.77052974701,0.12178208679,0.0,3.67375874519,-0.184257671237,0.0,2.47382569313,-0.196939095855,0.0,2.46737933159,0.413026869297,0.0,3.66731214523,0.425708293915,0.0
1449618024863529347,124,1449618024862490815,odom,3.77052974701,0.12178208679,0.0,3.67375874519,-0.184257671237,0.0,2.47382569313,-0.196939095855,0.0,2.46737933159,0.413026869297,0.0,3.66731214523,0.425708293915,0.0
1449618025071560817,125,1449618025069020956,odom,3.77052974701,0.12178208679,0.0,3.67375874519,-0.184257671237,0.0,2.47382569313,-0.196939095855,0.0,2.46737933159,0.413026869297,0.0,3.66731214523,0.425708293915,0.0
1449618025316610346,126,1449618025313650780,odom,3.77052974701,0.12178208679,0.0,3.67375874519,-0.184257671237,0.0,2.47382569313,-0.196939095855,0.0,2.46737933159,0.413026869297,0.0,3.66731214523,0.425708293915,0.0
1449618025449841223,127,1449618025445401497,odom,3.77052974701,0.12178208679,0.0,3.67375874519,-0.184257671237,0.0,2.47382569313,-0.196939095855,0.0,2.46737933159,0.413026869297,0.0,3.66731214523,0.425708293915,0.0
1449618025698123585,128,1449618025688119276,odom,3.77052974701,0.12178208679,0.0,3.67375874519,-0.184257671237,0.0,2.47382569313,-0.196939095855,0.0,2.46737933159,0.413026869297,0.0,3.66731214523,0.425708293915,0.0
1449618025908170679,129,1449618025907714180,odom,3.77052974701,0.12178208679,0.0,3.67375874519,-0.184257671237,0.0,2.47382569313,-0.196939095855,0.0,2.46737933159,0.413026869297,0.0,3.66731214523,0.425708293915,0.0
1449618026092236100,130,1449618026089737268,odom,3.77628922462,0.121842958033,0.0,3.67951798439,-0.184196799994,0.0,2.47958493233,-0.196878224611,0.0,2.47313857079,0.413087725639,0.0,3.67307162285,0.425769150257,0.0
1449618026275013620,131,1449618026272300278,odom,3.78179192543,0.134039759636,0.0,3.69151043892,-0.17397685349,0.0,2.49211335182,-0.212015450001,0.0,2.47277712822,0.397678017616,0.0,3.67217421532,0.435716629028,0.0
1449618026457280178,132,1449618026453268051,odom,3.79330301285,0.134465739131,0.0,3.70302152634,-0.173550873995,0.0,2.50362467766,-0.211589485407,0.0,2.48428821564,0.39810398221,0.0,3.68368530273,0.436142593622,0.0
1449618026700969643,133,1449618026697844196,odom,3.81005144119,0.147354111075,0.0,3.72630000114,-0.162501767278,0.0,2.52797484398,-0.225880548358,0.0,2.49575710297,0.3832680583,0.0,3.69408226013,0.446646869183,0.0
1449618026882093102,134,1449618026878298554,odom,3.82407879829,0.154158577323,0.0,3.74360632896,-0.156565070152,0.0,2.54601788521,-0.232604041696,0.0,2.50736474991,0.376170098782,0.0,3.70495319366,0.452209055424,0.0
1449618027070073830,135,1449618027068469894,odom,3.83557486534,0.154888495803,0.0,3.75510239601,-0.155835151672,0.0,2.55751371384,-0.231874123216,0.0,2.51886057854,0.376900017262,0.0,3.71644926071,0.452938973904,0.0
1449618027300286390,136,1449618027295452123,odom,3.84952092171,0.161962255836,0.0,3.772336483,-0.149594455957,0.0,2.57561850548,-0.238285124302,0.0,2.53053426743,0.370046526194,0.0,3.72725224495,0.458737194538,0.0
1449618027481742802,137,1449618027477452742,odom,3.85998129845,0.174939274788,0.0,3.78939890862,-0.1381791085,0.0,2.59482264519,-0.252142012119,0.0,2.53689146042,0.355100929737,0.0,3.73146772385,0.469063848257,0.0
1449618027674892964,138,1449618027674328229,odom,3.87370228767,0.182391002774,0.0,3.806432724,-0.131455793977,0.0,2.61312747002,-0.258036464453,0.0,2.54878234863,0.348560363054,0.0,3.74208760262,0.475141018629,0.0
1449618027881817986,139,1449618027877054389,odom,3.88579821587,0.202119201422,0.0,3.82851099968,-0.113702245057,0.0,2.63981795311,-0.278045684099,0.0,2.55627679825,0.32620665431,0.0,3.74496984482,0.490550100803,0.0
1449618028086453170,140,1449618028083459526,odom,3.89727163315,0.222160726786,0.0,3.85002446175,-0.0953179523349,0.0,2.66713833809,-0.297258973122,0.0,2.56448483467,0.304041534662,0.0,3.74737119675,0.505982577801,0.0
1449618028288586072,141,1449618028284957449,odom,3.9081094265,0.24252589047,0.0,3.87094974518,-0.0762909203768,0.0,2.69505906105,-0.315626591444,0.0,2.57339692116,0.282117754221,0.0,3.74928736687,0.521453440189,0.0
1449618028474912291,142,1449618028472498729,odom,3.91828989983,0.263254165649,0.0,3.89125490189,-0.0565803535283,0.0,2.72354197502,-0.333070099354,0.0,2.58299303055,0.260517299175,0.0,3.75070595741,0.537007033825,0.0
1449618028669414834,143,1449618028666614791,odom,3.92655587196,0.277778804302,0.0,3.90628647804,-0.0425556488335,0.0,2.74467802048,-0.343662708998,0.0,2.59161520004,0.246821686625,0.0,3.75322389603,0.547928750515,0.0
1449618028843785111,144,1449618028842239285,odom,3.93005990982,0.297541201115,0.0,3.91995501518,-0.0232747904956,0.0,2.76847481728,-0.361052155495,0.0,2.59677124023,0.224283576012,0.0,3.74825143814,0.562060952187,0.0
1449618029070159888,145,1449618029068584626,odom,3.93755626678,0.312453061342,0.0,3.93423390388,-0.00850481726229,0.0,2.79014968872,-0.370542734861,0.0,2.60611367226,0.211033388972,0.0,3.75019788742,0.573071300983,0.0
1449618029246366073,146,1449618029240544465,odom,3.94472622871,0.327548921108,0.0,3.94818782806,0.00659250328317,0.0,2.81201076508,-0.379544228315,0.0,2.6157245636,0.1980124861,0.0,3.75190162659,0.584149241447,0.0
1449618029491683123,147,1449618029490899130,odom,3.94615244865,0.34085342288,0.0,3.95639657974,0.0200418569148,0.0,2.82863402367,-0.390021175146,0.0,2.62018537521,0.183258116245,0.0,3.74794793129,0.593321144581,0.0
1449618029637326755,148,1449618029626698187,odom,3.94675993919,0.347516238689,0.0,3.96039390564,0.0268308427185,0.0,2.83702778816,-0.39512732625,0.0,2.62253236771,0.175917103887,0.0,3.74589848518,0.59787529707,0.0
1449618029859373526,149,1449618029858825164,odom,3.94675993919,0.347516238689,0.0,3.96039390564,0.0268308427185,0.0,2.83702778816,-0.39512732625,0.0,2.62253236771,0.175917103887,0.0,3.74589848518,0.59787529707,0.0
1449618030043738200,150,1449618030043353974,odom,3.94729709625,0.35418510437,0.0,3.96431922913,0.0336616933346,0.0,2.84547495842,-0.400144487619,0.0,2.62495684624,0.168601304293,0.0,3.74380111694,0.602407455444,0.0
1449618030231792952,151,1449618030231643512,odom,3.94874000549,0.380906134844,0.0,3.97929215431,0.0613884031773,0.0,2.87977981567,-0.419312149286,0.0,2.6354238987,0.139606550336,0.0,3.73493599892,0.620307087898,0.0
1449618030449786851,152,1449618030445274397,odom,3.9542798996,0.410082489252,0.0,3.99830722809,0.0921413078904,0.0,2.92009162903,-0.434594780207,0.0,2.65233397484,0.113498225808,0.0,3.73054981232,0.640234291553,0.0
1449618030648630100,153,1449618030648184627,odom,3.957051754,0.459812402725,0.0,4.02445745468,0.14599481225,0.0,2.98812103271,-0.458990365267,0.0,2.68058681488,0.0678139477968,0.0,3.71692323685,0.672799110413,0.0
1449618030845960348,154,1449618030845697228,odom,3.95613980293,0.509610831738,0.0,4.04655504227,0.201633423567,0.0,3.05776691437,-0.47829157114,0.0,2.71213841438,0.0243424046785,0.0,3.70092654228,0.704267382622,0.0
1449618031056046448,155,1449618031053017940,odom,3.95930504799,0.549319803715,0.0,4.06586027145,0.246547594666,0.0,3.11436271667,-0.48465192318,0.0,2.74266958237,-0.000974076392595,0.0,3.69416713715,0.73022544384,0.0
1449618031281661492,156,1449618031281267641,odom,3.97107553482,0.589857041836,0.0,4.09033060074,0.291858255863,0.0,3.17058324814,-0.478897958994,0.0,2.77878212929,-0.0113597884774,0.0,3.69852948189,0.75939643383,0.0
1449618031438569690,157,1449618031436421609,odom,3.99567914009,0.61873114109,0.0,4.11807632446,0.322009295225,0.0,3.20652580261,-0.458423644304,0.0,2.80980587006,0.00494791613892,0.0,3.72135639191,0.785380840302,0.0
1449618031638636403,158,1449618031638149650,odom,4.01588153839,0.661095321178,0.0,4.14762306213,0.368402451277,0.0,3.26126933098,-0.44053336978,0.0,2.85006046295,0.0100297629833,0.0,3.73641395569,0.818965613842,0.0
1449618031847013567,159,1449618031843499955,odom,4.04537296295,0.705474317074,0.0,4.18327140808,0.415631145239,0.0,3.31421208382,-0.411856651306,0.0,2.89357256889,0.0299151223153,0.0,3.76263165474,0.857402920723,0.0
1449618032041837912,160,1449618032041475145,odom,4.0673532486,0.752948284149,0.0,4.21436977386,0.467621952295,0.0,3.37197756767,-0.386998176575,0.0,2.93754553795,0.0412178263068,0.0,3.77993774414,0.895837962627,0.0
1449618032265092602,161,1449618032263464503,odom,4.10101413727,0.796545922756,0.0,4.25103807449,0.512789189816,0.0,3.41772437096,-0.350685507059,0.0,2.97879123688,0.0729155540466,0.0,3.81210494041,0.936390221119,0.0
1449618032460597871,162,1449618032460051984,odom,4.13161325455,0.846871078014,0.0,4.28760051727,0.56634837389,0.0,3.47272229195,-0.314545124769,0.0,3.02493476868,0.0996847078204,0.0,3.839812994,0.980578184128,0.0
1449618032658851080,163,1449618032656322820,odom,4.16416835785,0.891247868538,0.0,4.32311153412,0.612389326096,0.0,3.51758790016,-0.277066528797,0.0,3.06544780731,0.132408007979,0.0,3.87097144127,1.02186381817,0.0
1449618032818174394,164,1449618032817967618,odom,4.20271778107,0.934040248394,0.0,4.3616604805,0.655181646347,0.0,3.55613684654,-0.234274163842,0.0,3.10399699211,0.175200372934,0.0,3.90952062607,1.06465625763,0.0
1449618033049954318,165,1449618033047608240,odom,4.23855495453,0.983129262924,0.0,4.40043592453,0.705965936184,0.0,3.60435700417,-0.191952899098,0.0,3.14791488647,0.212720617652,0.0,3.94399380684,1.11063945293,0.0
1449618033237918274,166,1449618033236829208,odom,4.2700047493,1.02832460403,0.0,4.43480587006,0.752887547016,0.0,3.648260355,-0.153393983841,0.0,3.18756723404,0.246433332562,0.0,3.9741127491,1.15271484852,0.0
1449618033473863421,167,1449618033471172924,odom,4.30398082733,1.06747317314,0.0,4.46878194809,0.792036116123,0.0,3.68223667145,-0.114245429635,0.0,3.22154355049,0.285581886768,0.0,4.00808906555,1.19186341763,0.0
1449618033629613766,168,1449618033628393657,odom,4.33884191513,1.1172491312,0.0,4.50654459,0.843569040298,0.0,3.72962069511,-0.0709739923477,0.0,3.26472806931,0.323962450027,0.0,4.04165220261,1.23850548267,0.0
1449618033852596091,169,1449618033852206413,odom,4.3762011528,1.16108453274,0.0,4.54390382767,0.887404441833,0.0,3.76697969437,-0.0271385554224,0.0,3.30208683014,0.367797881365,0.0,4.07901096344,1.28234088421,0.0
1449618034041429691,170,1449618034038742670,odom,4.40959882736,1.20072710514,0.0,4.57730150223,0.927046954632,0.0,3.80037713051,0.0125039322302,0.0,3.3354845047,0.407440364361,0.0,4.112408638,1.3219833374,0.0
1449618034234636714,171,1449618034233942713,odom,4.43704128265,1.25281274319,0.0,4.61049079895,0.982738018036,0.0,3.85306859016,0.0519793629646,0.0,3.3799328804,0.437002301216,0.0,4.13735532761,1.36776101589,0.0
1449618034459733004,172,1449618034457846427,odom,4.47001838684,1.29280591011,0.0,4.6434674263,1.02273118496,0.0,3.88604545593,0.0919725820422,0.0,3.41290974617,0.476995527744,0.0,4.17033195496,1.40775418282,0.0
1449618034641868767,173,1449618034638814891,odom,4.50273656845,1.33301186562,0.0,4.67618608475,1.06293714046,0.0,3.91876363754,0.132178470492,0.0,3.4456281662,0.517201423645,0.0,4.20305013657,1.44796001911,0.0
1449618034854728107,174,1449618034853813349,odom,4.53220081329,1.37953412533,0.0,4.70849466324,1.11130750179,0.0,3.96095108986,0.172596439719,0.0,3.48377299309,0.552597880363,0.0,4.23131656647,1.49130892754,0.0
1449618035055325495,175,1449618035042355537,odom,4.55779933929,1.42169010639,0.0,4.73691797256,1.155341506,0.0,3.99933600426,0.208783015609,0.0,3.51816868782,0.583720445633,0.0,4.25575065613,1.53027904034,0.0
1449618035242437444,176,1449618035240820520,odom,4.59319972992,1.46712040901,0.0,4.77231836319,1.20077180862,0.0,4.03473615646,0.254213303328,0.0,3.55356907845,0.629150748253,0.0,4.29115104675,1.57570922375,0.0
1449618035439793287,177,1449618035439415613,odom,4.62509393692,1.51889109612,0.0,4.80701732635,1.25445020199,0.0,4.07947969437,0.3001498878,0.0,3.59437704086,0.669981539249,0.0,4.32191467285,1.62428188324,0.0
1449618035642941149,178,1449618035640635919,odom,4.65651226044,1.57094085217,0.0,4.84121990204,1.30843734741,0.0,4.1238079071,0.34650182724,0.0,3.63482379913,0.711186289787,0.0,4.35223579407,1.67312180996,0.0
1449618035835366376,179,1449618035833634837,odom,4.69094562531,1.6171104908,0.0,4.87565326691,1.35460698605,0.0,4.15824127197,0.392671406269,0.0,3.669257164,0.757355868816,0.0,4.38666915894,1.71929144859,0.0
1449618036061257476,180,1449618036058122450,odom,4.71834421158,1.66489052773,0.0,4.90581560135,1.40435361862,0.0,4.19860935211,0.434890300035,0.0,3.70579862595,0.794386863708,0.0,4.41300487518,1.7638502121,0.0
1449618036248799055,181,1449618036239043553,odom,4.74199008942,1.70819747448,0.0,4.93220424652,1.4496563673,0.0,4.23528242111,0.472773492336,0.0,3.73870038986,0.827042043209,0.0,4.43562221527,1.80392491817,0.0
1449618036451713884,182,1449618036451250879,odom,4.77531576157,1.75517225266,0.0,4.96552991867,1.49663102627,0.0,4.26860809326,0.519748210907,0.0,3.77202582359,0.874016821384,0.0,4.46894788742,1.85089969635,0.0
1449618036643804500,183,1449618036641770246,odom,4.80169820786,1.80352067947,0.0,4.99463415146,1.54700410366,0.0,4.30807495117,0.562810838223,0.0,3.80777645111,0.911811828613,0.0,4.4943356514,1.89600503445,0.0
1449618036857428053,184,1449618036851642982,odom,4.82784414291,1.8519551754,0.0,5.02347993851,1.59749186039,0.0,4.34735965729,0.60609805584,0.0,3.84340143204,0.949792444706,0.0,4.51952171326,1.94118618965,0.0
1449618037076624071,185,1449618037075260664,odom,4.86052083969,1.89938306808,0.0,5.05615711212,1.64491975307,0.0,4.3800368309,0.653526008129,0.0,3.87607836723,0.9972204566,0.0,4.55219841003,1.98861420155,0.0
1449618037247815178,186,1449618037246519338,odom,4.88605260849,1.94815921783,0.0,5.0843667984,1.69577753544,0.0,4.41876125336,0.697293996811,0.0,3.91119885445,1.03564345837,0.0,4.57680416107,2.03412699699,0.0
1449618037433702958,187,1449618037433446449,odom,4.90460157394,1.98766791821,0.0,5.10557174683,1.73739612103,0.0,4.45055532455,0.731934309006,0.0,3.93944573402,1.0649009943,0.0,4.59446191788,2.07036280632,0.0
1449618037650549149,188,1449618037647228927,odom,4.91520690918,2.03883266449,0.0,5.12400960922,1.79505717754,0.0,4.50119400024,0.769337415695,0.0,3.97978663445,1.08593523502,0.0,4.602602005,2.11165499687,0.0
1449618037853199883,189,1449618037852673703,odom,4.91737556458,2.09080839157,0.0,5.13629341125,1.8560744524,0.0,4.55738067627,0.804951071739,0.0,4.02305984497,1.09923160076,0.0,4.60197210312,2.15035486221,0.0
1449618038044718075,190,1449618038042856179,odom,4.91985464096,2.14801621437,0.0,5.14849662781,1.92274332047,0.0,4.61452150345,0.848094344139,0.0,4.06824159622,1.11953175068,0.0,4.60221672058,2.19418072701,0.0
1449618038271634858,191,1449618038271168084,odom,4.90838479996,2.21027159691,0.0,5.15084171295,1.9999396801,0.0,4.68603563309,0.893614590168,0.0,4.1236538887,1.12989103794,0.0,4.58845996857,2.23621606827,0.0
1449618038447597137,192,1449618038447392144,odom,4.90283823013,2.26200795174,0.0,5.15396738052,2.06211018562,0.0,4.73632955551,0.937130749226,0.0,4.16446495056,1.14943003654,0.0,4.58210277557,2.27440953255,0.0
1449618038641574103,193,1449618038641046711,odom,4.88793611526,2.31273770332,0.0,5.14927244186,2.12638235092,0.0,4.79163360596,0.980915307999,0.0,4.20935487747,1.16271495819,0.0,4.56699323654,2.30818200111,0.0
1449618038840576976,194,1449618038839509117,odom,4.87732648849,2.36376571655,0.0,5.14630460739,2.18862080574,0.0,4.83739233017,1.02906346321,0.0,4.24795055389,1.18609380722,0.0,4.55686283112,2.34565114975,0.0
1449618039049101691,195,1449618039046976689,odom,4.86970281601,2.41018342972,0.0,5.14409780502,2.24365282059,0.0,4.87209749222,1.07488584518,0.0,4.27797412872,1.21315264702,0.0,4.54997444153,2.38191962242,0.0
1449618039251439761,196,1449618039247311226,odom,4.86182832718,2.46196722984,0.0,5.1413640976,2.30421805382,0.0,4.9065489769,1.12741661072,0.0,4.30834150314,1.24678087234,0.0,4.54315662384,2.42358255386,0.0
1449618039430866431,197,1449618039429211393,odom,4.84779024124,2.52295517921,0.0,5.1337428093,2.37716007233,0.0,4.94886875153,1.19148671627,0.0,4.34615135193,1.28546440601,0.0,4.5310254097,2.47113776207,0.0
1449618039664709066,198,1449618039664486803,odom,4.84322118759,2.57599568367,0.0,5.13219118118,2.43627667427,0.0,4.97241735458,1.24696075916,0.0,4.3678483963,1.32817935944,0.0,4.5276222229,2.51749515533,0.0
1449618039869436171,199,1449618039857262369,odom,4.83771371841,2.62890481949,0.0,5.12957191467,2.49532437325,0.0,4.99496936798,1.30289745331,0.0,4.38881874084,1.37132060528,0.0,4.52342176437,2.56374764442,0.0
1449618040096010379,200,1449618040087485585,odom,4.83765029907,2.68394255638,0.0,5.13090372086,2.55345392227,0.0,5.00891017914,1.35967099667,0.0,4.40207052231,1.42168450356,0.0,4.52406406403,2.61546730995,0.0
1449618040280416232,201,1449618040275340617,odom,4.83040761948,2.73665714264,0.0,5.12635374069,2.61239528656,0.0,5.02961683273,1.41630089283,0.0,4.42160224915,1.46547532082,0.0,4.5183391571,2.66156983376,0.0
1449618040461656519,202,1449618040461544505,odom,4.83514165878,2.79405784607,0.0,5.13108778,2.66979598999,0.0,5.03435087204,1.47370147705,0.0,4.42633628845,1.52287590504,0.0,4.52307319641,2.71897053719,0.0
1449618040670714484,203,1449618040670380004,odom,4.82648324966,2.84662866592,0.0,5.12498903275,2.7286491394,0.0,5.0535531044,1.53077745438,0.0,4.4446349144,1.56709074974,0.0,4.51607084274,2.76496267319,0.0
1449618040882314870,204,1449618040881494624,odom,4.81689786911,2.89899659157,0.0,5.11783075333,2.78735256195,0.0,5.07172679901,1.58823847771,0.0,4.46217727661,1.6116745472,0.0,4.50828123093,2.81078863144,0.0
1449618041099304081,205,1449618041096702584,odom,4.81282758713,2.9538769722,0.0,5.11492347717,2.84541916847,0.0,5.08149433136,1.64588499069,0.0,4.47173118591,1.66287815571,0.0,4.50516033173,2.8624124527,0.0
1449618041327448378,206,1449618041326542682,odom,4.80783462524,3.00295805931,0.0,5.11105966568,2.89769887924,0.0,5.09030866623,1.69787824154,0.0,4.48040008545,1.70842659473,0.0,4.50115060806,2.90824723244,0.0
1449618041497842490,207,1449618041497376362,odom,4.80244445801,3.05198216438,0.0,5.10676527023,2.94993329048,0.0,5.09869527817,1.74996030331,0.0,4.48870897293,1.75406265259,0.0,4.496778965,2.95403552055,0.0
1449618041698553904,208,1449618041696971777,odom,4.79623270035,3.10094690323,0.0,5.10161495209,3.00211977959,0.0,5.10622644424,1.80212855339,0.0,4.49623060226,1.79978442192,0.0,4.49161911011,2.99977564812,0.0
1449618041895569753,209,1449618041894565881,odom,4.78980827332,3.14984607697,0.0,5.09621763229,3.05425167084,0.0,5.11351013184,1.85437631607,0.0,4.50357341766,1.84558594227,0.0,4.48628091812,3.04546141624,0.0
1449618042075362398,210,1449618042072309425,odom,4.78906106949,3.20167708397,0.0,5.09547042847,3.10608267784,0.0,5.11276292801,1.90620720387,0.0,4.50282621384,1.89741683006,0.0,4.48553371429,3.09729218483,0.0
1449618042347439583,211,1449618042343800965,odom,4.78197622299,3.25626349449,0.0,5.08937883377,3.1639122963,0.0,5.11935043335,1.96428668499,0.0,4.50954055786,1.94905114174,0.0,4.47956895828,3.14867687225,0.0
1449618042524144933,212,1449618042521096853,odom,4.78101634979,3.30808997154,0.0,5.08841848373,3.21573901176,0.0,5.11839056015,2.01611351967,0.0,4.50858068466,2.00087785721,0.0,4.47860908508,3.20050358772,0.0
1449618042718605161,213,1449618042713386604,odom,4.78612852097,3.36291670799,0.0,5.09253787994,3.26732230186,0.0,5.10983037949,2.0674469471,0.0,4.49989366531,2.05865645409,0.0,4.48260116577,3.25853180885,0.0
1449618042921203197,214,1449618042914907670,odom,4.77895259857,3.41750121117,0.0,5.08635473251,3.32515025139,0.0,5.11632680893,2.12552452087,0.0,4.50651693344,2.11028909683,0.0,4.47654533386,3.30991458893,0.0
1449618043085071608,215,1449618043081786493,odom,4.77765750885,3.46932148933,0.0,5.08506011963,3.37697029114,0.0,5.11503171921,2.17734479904,0.0,4.50522232056,2.16210913658,0.0,4.47525024414,3.3617348671,0.0
1449618043290848346,216,1449618043289940531,odom,4.77636289597,3.52114152908,0.0,5.08376550674,3.42879056931,0.0,5.11373710632,2.22916483879,0.0,4.50392770767,2.21392917633,0.0,4.47395563126,3.41355490685,0.0
1449618043558428583,217,1449618043554616952,odom,4.7687625885,3.57565188408,0.0,5.07712364197,3.48655462265,0.0,5.11977148056,2.28731250763,0.0,4.51015663147,2.26563334465,0.0,4.46750926971,3.46487545967,0.0
1449618043710468524,218,1449618043704310302,odom,4.77356052399,3.62477517128,0.0,5.08096313477,3.5324242115,0.0,5.11093473434,2.33279871941,0.0,4.50112533569,2.31756305695,0.0,4.47115325928,3.51718854904,0.0
1449618043896984452,219,1449618043896342590,odom,4.76571655273,3.6792781353,0.0,5.07407808304,3.59018087387,0.0,5.11672544479,2.39093899727,0.0,4.50711107254,2.36925983429,0.0,4.46446323395,3.56850171089,0.0
1449618044162097370,220,1449618044161418689,odom,4.77033233643,3.72839617729,0.0,5.0777349472,3.63604521751,0.0,5.10770654678,2.436419487,0.0,4.49789714813,2.42118382454,0.0,4.46792507172,3.62080955505,0.0
1449618044283857181,221,1449618044283408009,odom,4.76858139038,3.78020238876,0.0,5.07598400116,3.68785142899,0.0,5.10595560074,2.48822569847,0.0,4.49614620209,2.47299003601,0.0,4.46617412567,3.67261576653,0.0
1449618044525775072,222,1449618044521045560,odom,4.76707410812,3.83201599121,0.0,5.07447624207,3.73966503143,0.0,5.10444831848,2.54003953934,0.0,4.49463844299,2.52480387688,0.0,4.46466684341,3.72442936897,0.0
1449618044719677683,223,1449618044716622625,odom,4.76563549042,3.88959407806,0.0,5.0730381012,3.79724311829,0.0,5.10300970078,2.59761738777,0.0,4.49319982529,2.58238172531,0.0,4.46322822571,3.78200745583,0.0
1449618044900155197,224,1449618044896693505,odom,4.76457595825,3.93565821648,0.0,5.07197809219,3.84330701828,0.0,5.10195016861,2.64368152618,0.0,4.49214029312,2.62844586372,0.0,4.46216869354,3.82807159424,0.0
1449618045074813335,225,1449618045072786069,odom,4.76989269257,3.98472809792,0.0,5.07630252838,3.88913369179,0.0,5.09359502792,2.68925833702,0.0,4.48365831375,2.68046784401,0.0,4.46636581421,3.88034343719,0.0
1449618045309073217,226,1449618045308647624,odom,4.76922893524,4.03079986572,0.0,5.07563829422,3.93520569801,0.0,5.09293079376,2.73533010483,0.0,4.48299407959,2.72653985023,0.0,4.46570158005,3.926415205,0.0
1449618045511121515,227,1449618045509022297,odom,4.77485132217,4.07980918884,0.0,5.08023309708,3.9809820652,0.0,5.08484506607,2.780990839,0.0,4.47484922409,2.77864670753,0.0,4.47023773193,3.97863793373,0.0
1449618045745811094,228,1449618045722062882,odom,4.77446126938,4.12588357925,0.0,5.07984304428,4.02705621719,0.0,5.08445453644,2.82706522942,0.0,4.4744591713,2.82472109795,0.0,4.46984767914,4.02471208572,0.0
1449618045897852604,229,1449618045893935044,odom,4.76789283752,4.18054103851,0.0,5.0743021965,4.08494663239,0.0,5.09159469604,2.88507151604,0.0,4.48165798187,2.87628102303,0.0,4.46436548233,4.07615661621,0.0
1449618046125219381,230,1449618046124269588,odom,4.75478935242,4.22630357742,0.0,5.06315088272,4.13720607758,0.0,5.10579824448,2.93796420097,0.0,4.49618387222,2.91628527641,0.0,4.45353603363,4.11552715302,0.0
1449618046368357647,231,1449618046361670348,odom,4.74075269699,4.27177906036,0.0,5.05092811584,4.18921852112,0.0,5.11891126633,2.99114584923,0.0,4.50989103317,2.95658755302,0.0,4.44190788269,4.15466022491,0.0
1449618046708993783,232,1449618046696009879,odom,4.70163965225,4.37543106079,0.0,5.01574277878,4.30936813354,0.0,5.14690828323,3.11655831337,0.0,4.54056310654,3.04988241196,0.0,4.40939760208,4.24269247055,0.0
1449618046885911813,233,1449618046880329378,odom,4.68406820297,4.41972112656,0.0,4.99949741364,4.36031150818,0.0,5.1558432579,3.17054009438,0.0,4.55104255676,3.09106421471,0.0,4.39469671249,4.28083562851,0.0
1449618047155559398,234,1449618047151042759,odom,4.65978002548,4.45980024338,0.0,4.97693395615,4.41041898727,0.0,5.1709151268,3.22620153427,0.0,4.56893777847,3.12759423256,0.0,4.37495660782,4.31181192398,0.0
1449618047283447041,235,1449618047279780935,odom,4.64667797089,4.5013923645,0.0,4.96433591843,4.45536565781,0.0,5.17082118988,3.27326416969,0.0,4.56991958618,3.16830086708,0.0,4.36343431473,4.35040235519,0.0
1449618047537342497,236,1449618047534675608,odom,4.62182807922,4.53475761414,0.0,4.94078540802,4.49882316589,0.0,5.18463850021,3.32386112213,0.0,4.58736610413,3.1999027729,0.0,4.34351301193,4.37486505508,0.0
1449618047706678803,237,1449618047683368364,odom,4.60818004608,4.57012701035,0.0,4.92749929428,4.53756523132,0.0,5.1837553978,3.36524581909,0.0,4.58782625198,3.23498225212,0.0,4.33157062531,4.40730190277,0.0
1449618047881043410,238,1449618047877923064,odom,4.58855438232,4.60107564926,0.0,4.90849065781,4.5752696991,0.0,5.18946552277,3.40862822533,0.0,4.59642267227,3.26579904556,0.0,4.31544780731,4.43244075775,0.0
1449618048096192749,239,1449618048095889712,odom,4.57502269745,4.63036584854,0.0,4.89521360397,4.60794258118,0.0,5.18850183487,3.44433522224,0.0,4.59700155258,3.29524707794,0.0,4.30371332169,4.45885419846,0.0
1449618048285059821,240,1449618048284632037,odom,4.56250143051,4.65390253067,0.0,4.88291120529,4.63486480713,0.0,5.1884803772,3.47442173958,0.0,4.59858846664,3.3190908432,0.0,4.29301977158,4.47953367233,0.0
1449618048548907146,241,1449618048542115360,odom,4.54475355148,4.67291927338,0.0,4.86549425125,4.66065740585,0.0,5.19551992416,3.50693154335,0.0,4.6090426445,3.33916854858,0.0,4.27901697159,4.49289417267,0.0
1449618048689288101,242,1449618048687730172,odom,4.53841733932,4.69506931305,0.0,4.85915803909,4.68280744553,0.0,5.18918418884,3.52908158302,0.0,4.60270690918,3.36131834984,0.0,4.27268075943,4.51504421234,0.0
1449618048868092404,243,1449618048867842866,odom,4.52194309235,4.70819473267,0.0,4.84287118912,4.70271396637,0.0,5.19720697403,3.55622124672,0.0,4.61440610886,3.37610054016,0.0,4.26007080078,4.52259349823,0.0
1449618049163476835,244,1449618049156806614,odom,4.51687002182,4.72471189499,0.0,4.83779811859,4.71923112869,0.0,5.1921339035,3.57273840904,0.0,4.60933351517,3.39261770248,0.0,4.25499773026,4.53911066055,0.0
1449618049363255091,245,1449618049361680892,odom,4.51170969009,4.74120235443,0.0,4.8326382637,4.73572158813,0.0,5.18697404861,3.58922839165,0.0,4.60417318344,3.40910768509,0.0,4.24983739853,4.55560064316,0.0
1449618049537176588,246,1449618049527605327,odom,4.50156736374,4.7531042099,0.0,4.82253551483,4.75101518631,0.0,5.18896770477,3.60833096504,0.0,4.60810279846,3.42206144333,0.0,4.24167108536,4.56474590302,0.0
1449618049710908075,247,1449618049709353220,odom,4.48954105377,4.77038288116,0.0,4.8105134964,4.77168607712,0.0,5.18900060654,3.63293790817,0.0,4.61013650894,3.44054031372,0.0,4.2316493988,4.57928848267,0.0
1449618049997539994,248,1449618049990677198,odom,4.47557353973,4.7930188179,0.0,4.79651403427,4.79771375656,0.0,5.18701410294,3.66302919388,0.0,4.61021614075,3.46452498436,0.0,4.21971607208,4.59920978546,0.0
1449618050145813491,249,1449618050143397449,odom,4.45750427246,4.82635784149,0.0,4.77837753296,4.83444404602,0.0,5.18084669113,3.70394945145,0.0,4.60617876053,3.49936079979,0.0,4.20370912552,4.62985563278,0.0
1449618050282278485,250,1449618050279890704,odom,4.43406486511,4.85455465317,0.0,4.7546954155,4.86942052841,0.0,5.18096733093,3.74768447876,0.0,4.61075162888,3.53099608421,0.0,4.1844792366,4.65273237228,0.0
1449618050506399120,251,1449618050499533878,odom,4.41273164749,4.89262199402,0.0,4.73318719864,4.91087579727,0.0,5.17128944397,3.79370689392,0.0,4.60339546204,3.57100486755,0.0,4.16529273987,4.6881737709,0.0
1449618050687333772,252,1449618050686760164,odom,4.37735176086,4.93101644516,0.0,4.69706773758,4.95941877365,0.0,5.17036294937,3.85669898987,0.0,4.60981369019,3.61610722542,0.0,4.13651847839,4.71882724762,0.0
1449618050898781784,253,1449618050896274525,odom,4.35016441345,4.97885513306,0.0,4.66956233978,5.01063489914,0.0,5.15448474884,3.9129781723,0.0,4.59650945663,3.66647601128,0.0,4.11158704758,4.76413297653,0.0
1449618051099624209,254,1449618051099166404,odom,4.31528425217,5.02626609802,0.0,4.6339392662,5.0647892952,0.0,5.14195156097,3.97762608528,0.0,4.58931064606,3.71938657761,0.0,4.08129787445,4.8065495491,0.0
1449618051279641922,255,1449618051276280736,odom,4.29090213776,5.07844495773,0.0,4.60955715179,5.11696767807,0.0,5.11756944656,4.02980470657,0.0,4.56492853165,3.7715651989,0.0,4.05691576004,4.85872793198,0.0
1449618051538371288,256,1449618051537903072,odom,4.25239706039,5.13023471832,0.0,4.57016658783,5.17548322678,0.0,5.10104227066,4.09929990768,0.0,4.55398225784,3.82943797112,0.0,4.02310657501,4.90562152863,0.0
1449618051709627356,257,1449618051708525033,odom,4.22247600555,5.17644834518,0.0,4.53974962234,5.22505283356,0.0,5.08196878433,4.15453958511,0.0,4.53779125214,3.87891149521,0.0,3.99557209015,4.94942474365,0.0
1449618051881618034,258,1449618051879851539,odom,4.19658756256,5.22789716721,0.0,4.51386117935,5.27650165558,0.0,5.05608034134,4.20598840714,0.0,4.51190280914,3.93036055565,0.0,3.96968364716,5.00087404251,0.0
1449618052077221216,259,1449618052071786371,odom,4.16081237793,5.28398513794,0.0,4.47755479813,5.33593988419,0.0,5.03105640411,4.27121639252,0.0,4.48982191086,3.98985314369,0.0,3.93632030487,5.05457639694,0.0
1449618052265661697,260,1449618052265138412,odom,4.12992143631,5.32955598831,0.0,4.44609689713,5.38485527039,0.0,5.01081991196,4.32604074478,0.0,4.47258901596,4.03897333145,0.0,3.90786623955,5.09778785706,0.0
1449618052472293412,261,1449618052466246691,odom,4.10268306732,5.38030338287,0.0,4.41885852814,5.43560218811,0.0,4.98358106613,4.37678766251,0.0,4.44535017014,4.08972024918,0.0,3.88062763214,5.14853525162,0.0
1449618052677347352,262,1449618052676638135,odom,4.07120513916,5.42548751831,0.0,4.38677835464,5.48412466049,0.0,4.96265888214,4.43133735657,0.0,4.42749214172,4.13859796524,0.0,3.85161137581,5.191385746,0.0
1449618052869870348,263,1449618052867695097,odom,4.04225492477,5.46541643143,0.0,4.35719108582,5.52738523483,0.0,4.9441652298,4.48074245453,0.0,4.41212177277,4.18236398697,0.0,3.82514762878,5.22900676727,0.0
1449618053096054458,264,1449618053092850375,odom,4.01689958572,5.51062774658,0.0,4.33183574677,5.57259702682,0.0,4.91880989075,4.52595376968,0.0,4.38676643372,4.22757530212,0.0,3.79979228973,5.27421855927,0.0
1449618053244864378,265,1449618053244627372,odom,3.98577713966,5.56581163406,0.0,4.30071353912,5.62778043747,0.0,4.88768768311,4.58113765717,0.0,4.35564374924,4.28275918961,0.0,3.76866984367,5.32940196991,0.0
1449618053463118432,266,1449618053457521160,odom,3.95364236832,5.61048555374,0.0,4.26790618896,5.67577934265,0.0,4.8659081459,4.63539791107,0.0,4.3370475769,4.33141374588,0.0,3.73904561996,5.37179517746,0.0
1449618053682067010,267,1449618053679191841,odom,3.92789006233,5.65547227859,0.0,4.24215364456,5.72076559067,0.0,4.8401556015,4.68038415909,0.0,4.3112950325,4.3763999939,0.0,3.71329307556,5.41678142548,0.0
1449618053878250090,268,1449618053877785482,odom,3.89230942726,5.70473623276,0.0,4.20586585999,5.77334737778,0.0,4.81482887268,4.73934364319,0.0,4.28921031952,4.4297876358,0.0,3.68024706841,5.46379137039,0.0
1449618054086687834,269,1449618054086475205,odom,3.87301421165,5.75014925003,0.0,4.18727779388,5.81544303894,0.0,4.78527975082,4.77506113052,0.0,4.25641918182,4.47107696533,0.0,3.65841722488,5.51145839691,0.0
1449618054256084655,270,1449618054255565965,odom,3.84333181381,5.78951835632,0.0,4.15688800812,5.85812950134,0.0,4.76585149765,4.82412576675,0.0,4.24023294449,4.51456928253,0.0,3.63126945496,5.54857301712,0.0
1449618054502554205,271,1449618054502131096,odom,3.82095599174,5.83980178833,0.0,4.13521957397,5.90509557724,0.0,4.73322153091,4.86471414566,0.0,4.20436096191,4.56072998047,0.0,3.60635900497,5.60111141205,0.0
1449618054734790371,272,1449618054728928202,odom,3.79116845131,5.87910985947,0.0,4.10472488403,5.94772100449,0.0,4.71368789673,4.9137172699,0.0,4.18806934357,4.60416126251,0.0,3.57910609245,5.6381649971,0.0
1449618054878426639,273,1449618054875914640,odom,3.77195239067,5.92456769943,0.0,4.08621644974,5.98986148834,0.0,4.68421840668,4.94948005676,0.0,4.15535783768,4.64549541473,0.0,3.55735564232,5.68587732315,0.0
1449618055068500878,274,1449618055060507136,odom,3.74899077415,5.96451568604,0.0,4.06325483322,6.02980947495,0.0,4.66125679016,4.98942756653,0.0,4.13239622116,4.68544340134,0.0,3.5343940258,5.72582483292,0.0
1449618055245632457,275,1449618055244905497,odom,3.73184895515,5.99452161789,0.0,4.04611301422,6.0598154068,0.0,4.64411497116,5.01943349838,0.0,4.11525440216,4.71544933319,0.0,3.5172522068,5.75583076477,0.0
1449618055530949134,276,1449618055527665635,odom,3.71473360062,6.0245423317,0.0,4.02899742126,6.08983612061,0.0,4.6269993782,5.04945468903,0.0,4.0981388092,4.745470047,0.0,3.50013685226,5.78585195541,0.0
1449618055700227661,277,1449618055688728023,odom,3.70721483231,6.05007743835,0.0,4.02215099335,6.11204624176,0.0,4.60912513733,5.06540346146,0.0,4.0770816803,4.7670249939,0.0,3.49010753632,5.8136677742,0.0
1449618055901300523,278,1449618055899659870,odom,3.69206309319,6.06465530396,0.0,4.00632715225,6.12994909286,0.0,4.60432910919,5.08956766129,0.0,4.07546854019,4.78558349609,0.0,3.47746634483,5.82596492767,0.0
1449618056110944283,279,1449618056097093005,odom,3.69025826454,6.08018827438,0.0,4.005194664,6.14215755463,0.0,4.59216880798,5.09551429749,0.0,4.06012487411,4.79713582993,0.0,3.47315096855,5.84377908707,0.0
1449618056296335412,280,1449618056296145979,odom,3.68180632591,6.09525918961,0.0,3.99674272537,6.15722799301,0.0,4.58371686935,5.11058521271,0.0,4.05167341232,4.81220674515,0.0,3.46469926834,5.85884952545,0.0
1449618056473052469,281,1449618056469595644,odom,3.67622518539,6.10533571243,0.0,3.99116134644,6.16730451584,0.0,4.57813549042,5.12066173553,0.0,4.04609203339,4.82228326797,0.0,3.4591178894,5.86892604828,0.0
