%time,field.x,field.y,field.z
1449617998787867673,0.0,0.0,273.0
1449617998804304874,0.0,0.0,274.0
1449617998816552246,0.0,0.0,277.0
1449617998833043742,0.0,0.0,280.0
1449617998849329096,0.0,0.0,284.0
1449617998861633816,0.0,0.0,284.0
1449617998878007294,0.0,0.0,287.0
1449617998894438530,0.0,0.0,281.0
1449617998906739865,0.0,0.0,283.0
1449617998923064181,0.0,0.0,281.0
1449617998939459919,0.0,0.0,280.0
1449617998951754318,0.0,0.0,283.0
1449617998968120805,0.0,0.0,282.0
1449617998984512083,0.0,0.0,280.0
1449617998996859199,0.0,0.0,283.0
1449617999013212879,0.0,0.0,280.0
1449617999025553518,0.0,0.0,281.0
1449617999041919489,0.0,0.0,277.0
1449617999058334169,0.0,0.0,272.0
1449617999070552340,0.0,0.0,276.0
1449617999086981365,0.0,0.0,273.0
1449617999103398998,0.0,0.0,281.0
1449617999115690498,0.0,0.0,275.0
1449617999132311565,0.0,0.0,280.0
1449617999148348179,0.0,0.0,276.0
1449617999160756211,0.0,0.0,282.0
1449617999177101268,0.0,0.0,278.0
1449617999193602742,0.0,0.0,279.0
1449617999205706506,0.0,0.0,278.0
1449617999222457891,0.0,0.0,274.0
1449617999238562748,0.0,0.0,282.0
1449617999250793879,0.0,0.0,276.0
1449617999267399550,0.0,0.0,282.0
1449617999283544623,0.0,0.0,274.0
1449617999302048086,0.0,0.0,278.0
1449617999316346983,0.0,0.0,273.0
1449617999328873806,0.0,0.0,271.0
1449617999345030372,0.0,0.0,274.0
1449617999361525153,0.0,0.0,267.0
1449617999373777218,0.0,0.0,278.0
1449617999390100654,0.0,0.0,274.0
1449617999406508287,0.0,0.0,277.0
1449617999418890094,0.0,0.0,269.0
1449617999435468426,0.0,0.0,277.0
1449617999451613395,0.0,0.0,274.0
1449617999463891383,0.0,0.0,274.0
1449617999480166607,0.0,0.0,276.0
1449617999496715467,0.0,0.0,273.0
1449617999508953861,0.0,0.0,276.0
1449617999525266597,0.0,0.0,274.0
1449617999541748787,0.0,0.0,277.0
1449617999554043476,0.0,0.0,269.0
1449617999570366038,0.0,0.0,279.0
1449617999582673601,0.0,0.0,269.0
1449617999599200099,0.0,0.0,272.0
1449617999615512613,0.0,0.0,269.0
1449617999627720933,0.0,0.0,268.0
1449617999644076221,0.0,0.0,264.0
1449617999660458030,0.0,0.0,268.0
1449617999672943019,0.0,0.0,268.0
1449617999693879612,0.0,0.0,266.0
1449617999705557630,0.0,0.0,272.0
1449617999717797868,0.0,0.0,265.0
1449617999734288589,0.0,0.0,267.0
1449617999750561118,0.0,0.0,263.0
1449617999762927836,0.0,0.0,273.0
1449617999779220884,0.0,0.0,265.0
1449617999796559225,0.0,0.0,264.0
1449617999807940069,0.0,0.0,265.0
1449617999824432731,0.0,0.0,264.0
1449617999840704589,0.0,0.0,272.0
1449617999853075459,0.0,0.0,264.0
1449617999869721683,0.0,0.0,265.0
1449617999885873461,0.0,0.0,265.0
1449617999898181880,0.0,0.0,264.0
1449617999914484219,0.0,0.0,267.0
1449617999930959809,0.0,0.0,261.0
1449617999943365816,0.0,0.0,263.0
1449617999959518103,0.0,0.0,258.0
1449617999971846115,0.0,0.0,258.0
1449617999988200447,0.0,0.0,260.0
1449618000004888038,0.0,0.0,266.0
1449618000016926474,0.0,0.0,260.0
1449618000033546429,0.0,0.0,260.0
1449618000049631775,0.0,0.0,264.0
1449618000062228254,0.0,0.0,256.0
1449618000078441971,0.0,0.0,260.0
1449618000094749058,0.0,0.0,257.0
1449618000107034534,0.0,0.0,259.0
1449618000123392255,0.0,0.0,256.0
1449618000139986050,0.0,0.0,257.0
1449618000152111028,0.0,0.0,255.0
1449618000168599159,0.0,0.0,253.0
1449618000184858615,0.0,0.0,256.0
1449618000197253894,0.0,0.0,255.0
1449618000213607384,0.0,0.0,257.0
1449618000229964633,0.0,0.0,252.0
1449618000242302681,0.0,0.0,253.0
1449618000258687528,0.0,0.0,251.0
1449618000276720066,0.0,0.0,257.0
1449618000287316799,0.0,0.0,253.0
1449618000303790625,0.0,0.0,254.0
1449618000320095538,0.0,0.0,256.0
1449618000332644574,0.0,0.0,254.0
1449618000348827862,0.0,0.0,254.0
1449618000361171605,0.0,0.0,250.0
1449618000377450359,0.0,0.0,260.0
1449618000393954414,0.0,0.0,256.0
1449618000406613979,0.0,0.0,256.0
1449618000422491272,0.0,0.0,251.0
1449618000439016112,0.0,0.0,255.0
1449618000451194317,0.0,0.0,255.0
1449618000467852263,0.0,0.0,256.0
1449618000483998647,0.0,0.0,255.0
1449618000496311194,0.0,0.0,254.0
1449618000512630331,0.0,0.0,252.0
1449618000529007527,0.0,0.0,251.0
1449618000542018906,0.0,0.0,251.0
1449618000557786171,0.0,0.0,250.0
1449618000576432225,0.0,0.0,250.0
1449618000586843042,0.0,0.0,249.0
1449618000603721176,0.0,0.0,251.0
1449618000619777952,0.0,0.0,250.0
1449618000631875143,0.0,0.0,251.0
1449618000648048611,0.0,0.0,251.0
1449618000665149108,0.0,0.0,250.0
1449618000678859484,0.0,0.0,252.0
1449618000693110386,0.0,0.0,253.0
1449618000714337794,0.0,0.0,247.0
1449618000721970804,0.0,0.0,251.0
1449618000738316066,0.0,0.0,252.0
1449618000751823420,0.0,0.0,250.0
1449618000766933232,0.0,0.0,252.0
1449618000783017033,0.0,0.0,251.0
1449618000795437545,0.0,0.0,251.0
1449618000811714945,0.0,0.0,247.0
1449618000828328798,0.0,0.0,256.0
1449618000840637893,0.0,0.0,250.0
1449618000857709286,0.0,0.0,249.0
1449618000873279001,0.0,0.0,248.0
1449618000885551142,0.0,0.0,245.0
1449618000904853000,0.0,0.0,251.0
1449618000918413957,0.0,0.0,251.0
1449618000930630167,0.0,0.0,252.0
1449618000947417601,0.0,0.0,252.0
1449618000964009427,0.0,0.0,251.0
1449618000980816868,0.0,0.0,253.0
1449618000999346079,0.0,0.0,250.0
1449618001008571617,0.0,0.0,252.0
1449618001024890686,0.0,0.0,258.0
1449618001041397758,0.0,0.0,254.0
1449618001053491674,0.0,0.0,252.0
1449618001070668915,0.0,0.0,249.0
1449618001086156465,0.0,0.0,252.0
1449618001098960145,0.0,0.0,250.0
1449618001115037764,0.0,0.0,250.0
1449618001127268839,0.0,0.0,253.0
1449618001143996465,0.0,0.0,251.0
1449618001160652013,0.0,0.0,250.0
1449618001175562884,0.0,0.0,245.0
1449618001188807600,0.0,0.0,253.0
1449618001204903712,0.0,0.0,250.0
1449618001217532642,0.0,0.0,255.0
1449618001233526344,0.0,0.0,248.0
1449618001250387493,0.0,0.0,253.0
1449618001262865064,0.0,0.0,246.0
1449618001279212144,0.0,0.0,250.0
1449618001296445566,0.0,0.0,247.0
1449618001308123439,0.0,0.0,248.0
1449618001325686093,0.0,0.0,249.0
1449618001340495479,0.0,0.0,250.0
1449618001352652168,0.0,0.0,248.0
1449618001368932148,0.0,0.0,237.0
1449618001386207366,0.0,0.0,242.0
1449618001397728971,0.0,0.0,240.0
1449618001413974275,0.0,0.0,239.0
1449618001431968861,0.0,0.0,240.0
1449618001443361537,0.0,0.0,237.0
1449618001459332571,0.0,0.0,236.0
1449618001476077910,0.0,0.0,242.0
1449618001487641886,0.0,0.0,240.0
1449618001505060123,0.0,0.0,237.0
1449618001516769386,0.0,0.0,238.0
1449618001532800513,0.0,0.0,241.0
1449618001551106149,0.0,0.0,239.0
1449618001561727902,0.0,0.0,241.0
1449618001578195319,0.0,0.0,240.0
1449618001594904785,0.0,0.0,240.0
1449618001606520124,0.0,0.0,244.0
1449618001622790295,0.0,0.0,238.0
1449618001639527369,0.0,0.0,237.0
1449618001651674723,0.0,0.0,238.0
1449618001668583434,0.0,0.0,240.0
1449618001685520591,0.0,0.0,237.0
1449618001697127680,0.0,0.0,237.0
1449618001713306618,0.0,0.0,240.0
1449618001729654719,0.0,0.0,238.0
1449618001742461469,0.0,0.0,228.0
1449618001758381924,0.0,0.0,241.0
1449618001775400270,0.0,0.0,239.0
1449618001789395102,0.0,0.0,238.0
1449618001803174845,0.0,0.0,244.0
1449618001819911637,0.0,0.0,242.0
1449618001831896750,0.0,0.0,240.0
1449618001848422573,0.0,0.0,241.0
1449618001867980397,0.0,0.0,240.0
1449618001877397422,0.0,0.0,236.0
1449618001893389144,0.0,0.0,238.0
1449618001905783513,0.0,0.0,237.0
1449618001922023219,0.0,0.0,234.0
1449618001938554341,0.0,0.0,235.0
1449618001951111500,0.0,0.0,237.0
1449618001969640250,0.0,0.0,241.0
1449618001983862789,0.0,0.0,241.0
1449618001995942931,0.0,0.0,243.0
1449618002011893019,0.0,0.0,237.0
1449618002028364246,0.0,0.0,239.0
1449618002041054270,0.0,0.0,232.0
1449618002057220101,0.0,0.0,236.0
1449618002073535709,0.0,0.0,236.0
1449618002086081144,0.0,0.0,235.0
1449618002103327153,0.0,0.0,234.0
1449618002118833594,0.0,0.0,236.0
1449618002148547594,0.0,0.0,233.0
1449618002225277160,0.0,0.0,243.0
1449618002237338931,0.0,0.0,247.0
1449618002254191629,0.0,0.0,246.0
1449618002270249902,0.0,0.0,244.0
1449618002283412325,0.0,0.0,244.0
1449618002299044428,0.0,0.0,247.0
1449618002315768862,0.0,0.0,245.0
1449618002331125005,0.0,0.0,244.0
1449618002344343590,0.0,0.0,243.0
1449618002360677202,0.0,0.0,242.0
1449618002372486317,0.0,0.0,247.0
1449618002389218306,0.0,0.0,250.0
1449618002405488858,0.0,0.0,246.0
1449618002417756523,0.0,0.0,250.0
1449618002434575757,0.0,0.0,255.0
1449618002446225231,0.0,0.0,247.0
1449618002462764577,0.0,0.0,248.0
1449618002479365067,0.0,0.0,247.0
1449618002491204044,0.0,0.0,247.0
1449618002508926930,0.0,0.0,248.0
1449618002525249111,0.0,0.0,245.0
1449618002537154501,0.0,0.0,248.0
1449618002553278786,0.0,0.0,247.0
1449618002573617283,0.0,0.0,247.0
1449618002582101303,0.0,0.0,243.0
1449618002598331556,0.0,0.0,246.0
1449618002614724918,0.0,0.0,247.0
1449618002626512013,0.0,0.0,246.0
1449618002643502137,0.0,0.0,250.0
1449618002659791583,0.0,0.0,245.0
1449618002672359849,0.0,0.0,245.0
1449618002688421763,0.0,0.0,242.0
1449618002704195909,0.0,0.0,239.0
1449618002716644857,0.0,0.0,242.0
1449618002733197996,0.0,0.0,242.0
1449618002749522351,0.0,0.0,244.0
1449618002762059232,0.0,0.0,243.0
1449618002778170196,0.0,0.0,249.0
1449618002795107025,0.0,0.0,243.0
1449618002806907759,0.0,0.0,243.0
1449618002823305228,0.0,0.0,244.0
1449618002835999377,0.0,0.0,248.0
1449618002852990965,0.0,0.0,247.0
1449618002868129534,0.0,0.0,247.0
1449618002880638393,0.0,0.0,247.0
1449618002896721063,0.0,0.0,245.0
1449618002913379249,0.0,0.0,245.0
1449618002925875308,0.0,0.0,244.0
1449618002942111806,0.0,0.0,244.0
1449618002958593905,0.0,0.0,247.0
1449618002972283527,0.0,0.0,244.0
1449618002987240874,0.0,0.0,247.0
1449618003003643970,0.0,0.0,245.0
1449618003015900715,0.0,0.0,238.0
1449618003032304063,0.0,0.0,250.0
1449618003048747726,0.0,0.0,241.0
1449618003061259851,0.0,0.0,238.0
1449618003077364480,0.0,0.0,239.0
1449618003094191941,0.0,0.0,237.0
1449618003107180208,0.0,0.0,241.0
1449618003122244224,0.0,0.0,239.0
1449618003138615584,0.0,0.0,235.0
1449618003151965794,0.0,0.0,242.0
1449618003167904366,0.0,0.0,244.0
1449618003187259596,0.0,0.0,242.0
1449618003198276581,0.0,0.0,244.0
1449618003212461368,0.0,0.0,243.0
1449618003224476308,0.0,0.0,245.0
1449618003240920200,0.0,0.0,243.0
1449618003257680063,0.0,0.0,247.0
1449618003269801007,0.0,0.0,243.0
1449618003286149162,0.0,0.0,246.0
1449618003303556635,0.0,0.0,246.0
1449618003315237595,0.0,0.0,246.0
1449618003331064574,0.0,0.0,247.0
1449618003348024439,0.0,0.0,246.0
1449618003360990803,0.0,0.0,245.0
1449618003376677859,0.0,0.0,246.0
1449618003392943761,0.0,0.0,244.0
1449618003405407471,0.0,0.0,247.0
1449618003421329433,0.0,0.0,247.0
1449618003437561258,0.0,0.0,244.0
1449618003449899424,0.0,0.0,247.0
1449618003467435956,0.0,0.0,244.0
1449618003482993067,0.0,0.0,243.0
1449618003497032157,0.0,0.0,243.0
1449618003511509422,0.0,0.0,245.0
1449618003530128762,0.0,0.0,243.0
1449618003540227198,0.0,0.0,249.0
1449618003558083925,0.0,0.0,243.0
1449618003573170782,0.0,0.0,245.0
1449618003586431734,0.0,0.0,234.0
1449618003602039817,0.0,0.0,247.0
1449618003614047259,0.0,0.0,243.0
1449618003630039711,0.0,0.0,243.0
1449618003646394615,0.0,0.0,245.0
1449618003658806951,0.0,0.0,245.0
1449618003677704444,0.0,0.0,246.0
1449618003691556199,0.0,0.0,243.0
1449618003703704601,0.0,0.0,245.0
1449618003720738348,0.0,0.0,247.0
1449618003739274735,0.0,0.0,243.0
1449618003748898582,0.0,0.0,244.0
1449618003765303465,0.0,0.0,242.0
1449618003783071210,0.0,0.0,240.0
1449618003795490571,0.0,0.0,246.0
1449618003810467684,0.0,0.0,247.0
1449618003826949940,0.0,0.0,247.0
1449618003838969906,0.0,0.0,247.0
1449618003855652940,0.0,0.0,241.0
1449618003873652605,0.0,0.0,247.0
1449618003884160462,0.0,0.0,246.0
1449618003900456173,0.0,0.0,244.0
1449618003917533836,0.0,0.0,247.0
1449618003929513498,0.0,0.0,248.0
1449618003945692522,0.0,0.0,252.0
1449618003962502238,0.0,0.0,248.0
1449618003974601578,0.0,0.0,249.0
1449618003990868603,0.0,0.0,249.0
1449618004005098998,0.0,0.0,246.0
1449618004021831250,0.0,0.0,250.0
1449618004035699188,0.0,0.0,247.0
1449618004048377962,0.0,0.0,243.0
1449618004064940514,0.0,0.0,254.0
1449618004080929110,0.0,0.0,260.0
1449618004093001170,0.0,0.0,252.0
1449618004109824264,0.0,0.0,252.0
1449618004126264292,0.0,0.0,258.0
1449618004138979330,0.0,0.0,255.0
1449618004154760974,0.0,0.0,252.0
1449618004170850299,0.0,0.0,256.0
1449618004183642118,0.0,0.0,254.0
1449618004200044730,0.0,0.0,258.0
1449618004215952471,0.0,0.0,259.0
1449618004228248270,0.0,0.0,257.0
1449618004244731042,0.0,0.0,261.0
1449618004261520191,0.0,0.0,256.0
1449618004273263525,0.0,0.0,256.0
1449618004294330020,0.0,0.0,253.0
1449618004308021384,0.0,0.0,255.0
1449618004318811540,0.0,0.0,259.0
1449618004334882408,0.0,0.0,262.0
1449618004358118778,0.0,0.0,254.0
1449618004367801517,0.0,0.0,252.0
1449618004380580731,0.0,0.0,253.0
1449618004392196721,0.0,0.0,252.0
1449618004412832973,0.0,0.0,251.0
1449618004424929768,0.0,0.0,250.0
1449618004437040224,0.0,0.0,249.0
1449618004453470898,0.0,0.0,249.0
1449618004470913258,0.0,0.0,250.0
1449618004482169522,0.0,0.0,243.0
1449618004500061449,0.0,0.0,244.0
1449618004516746671,0.0,0.0,243.0
1449618004527831433,0.0,0.0,246.0
1449618004543503723,0.0,0.0,243.0
1449618004560270164,0.0,0.0,240.0
1449618004572374799,0.0,0.0,242.0
1449618004588832156,0.0,0.0,239.0
1449618004605492834,0.0,0.0,243.0
1449618004617555047,0.0,0.0,241.0
1449618004633807117,0.0,0.0,248.0
1449618004650201725,0.0,0.0,249.0
1449618004667007921,0.0,0.0,250.0
1449618004683029623,0.0,0.0,250.0
1449618004698738405,0.0,0.0,249.0
1449618004711572045,0.0,0.0,251.0
1449618004728261273,0.0,0.0,255.0
1449618004740440039,0.0,0.0,255.0
1449618004756961702,0.0,0.0,249.0
1449618004769523728,0.0,0.0,255.0
1449618004785738369,0.0,0.0,250.0
1449618004801786230,0.0,0.0,254.0
1449618004814076857,0.0,0.0,255.0
1449618004832901098,0.0,0.0,255.0
1449618004846829136,0.0,0.0,255.0
1449618004859522625,0.0,0.0,253.0
1449618004875512019,0.0,0.0,258.0
1449618004891723293,0.0,0.0,257.0
1449618004904086775,0.0,0.0,261.0
1449618004921834840,0.0,0.0,261.0
1449618004936981674,0.0,0.0,264.0
1449618004949418103,0.0,0.0,261.0
1449618004965930091,0.0,0.0,265.0
1449618004984160417,0.0,0.0,266.0
1449618004994783440,0.0,0.0,261.0
1449618005010832809,0.0,0.0,268.0
1449618005027998579,0.0,0.0,267.0
1449618005039385819,0.0,0.0,270.0
1449618005056218204,0.0,0.0,272.0
1449618005072048859,0.0,0.0,268.0
1449618005085014532,0.0,0.0,272.0
1449618005102209844,0.0,0.0,268.0
1449618005117123177,0.0,0.0,270.0
1449618005133627220,0.0,0.0,270.0
1449618005145822224,0.0,0.0,271.0
1449618005158231890,0.0,0.0,270.0
1449618005175655655,0.0,0.0,268.0
1449618005191349308,0.0,0.0,268.0
1449618005203512766,0.0,0.0,272.0
1449618005219543917,0.0,0.0,269.0
1449618005236268633,0.0,0.0,267.0
1449618005248180687,0.0,0.0,265.0
1449618005264720696,0.0,0.0,266.0
1449618005281090949,0.0,0.0,266.0
1449618005293339838,0.0,0.0,267.0
1449618005310152706,0.0,0.0,265.0
1449618005326111766,0.0,0.0,263.0
1449618005339330244,0.0,0.0,267.0
1449618005355142572,0.0,0.0,263.0
1449618005374355024,0.0,0.0,262.0
1449618005383706819,0.0,0.0,265.0
1449618005401173169,0.0,0.0,262.0
1449618005416193119,0.0,0.0,264.0
1449618005428521210,0.0,0.0,263.0
1449618005444729723,0.0,0.0,263.0
1449618005463448524,0.0,0.0,260.0
1449618005473959483,0.0,0.0,263.0
1449618005489927591,0.0,0.0,263.0
1449618005507088071,0.0,0.0,263.0
1449618005519724422,0.0,0.0,264.0
1449618005534852954,0.0,0.0,260.0
1449618005547529634,0.0,0.0,262.0
1449618005564902642,0.0,0.0,257.0
1449618005580979304,0.0,0.0,256.0
1449618005592503589,0.0,0.0,262.0
1449618005609173860,0.0,0.0,258.0
1449618005625345523,0.0,0.0,257.0
1449618005637493134,0.0,0.0,257.0
1449618005653650899,0.0,0.0,255.0
1449618005670437233,0.0,0.0,254.0
1449618005682637954,0.0,0.0,255.0
1449618005702536785,0.0,0.0,255.0
1449618005715732022,0.0,0.0,252.0
1449618005728129876,0.0,0.0,253.0
1449618005744668348,0.0,0.0,254.0
1449618005760231250,0.0,0.0,257.0
1449618005772604386,0.0,0.0,254.0
1449618005791495838,0.0,0.0,257.0
1449618005811301654,0.0,0.0,258.0
1449618005818215394,0.0,0.0,261.0
1449618005834178984,0.0,0.0,257.0
1449618005850956568,0.0,0.0,253.0
1449618005863682072,0.0,0.0,251.0
1449618005879477976,0.0,0.0,255.0
1449618005895651622,0.0,0.0,254.0
1449618005907747415,0.0,0.0,255.0
1449618005926426572,0.0,0.0,256.0
1449618005941237155,0.0,0.0,255.0
1449618005953053121,0.0,0.0,257.0
1449618005970077496,0.0,0.0,253.0
1449618005982526766,0.0,0.0,253.0
1449618005997981268,0.0,0.0,257.0
1449618006017528783,0.0,0.0,257.0
1449618006026817769,0.0,0.0,261.0
1449618006046211606,0.0,0.0,261.0
1449618006059216923,0.0,0.0,254.0
1449618006071929008,0.0,0.0,255.0
1449618006091906593,0.0,0.0,256.0
1449618006107308786,0.0,0.0,260.0
1449618006117207522,0.0,0.0,255.0
1449618006134965519,0.0,0.0,261.0
1449618006149509984,0.0,0.0,259.0
1449618006163204471,0.0,0.0,259.0
1449618006178761792,0.0,0.0,255.0
1449618006194954110,0.0,0.0,254.0
1449618006206896655,0.0,0.0,252.0
1449618006223866475,0.0,0.0,253.0
1449618006240123035,0.0,0.0,256.0
1449618006252152741,0.0,0.0,256.0
1449618006270067617,0.0,0.0,252.0
1449618006284879139,0.0,0.0,252.0
1449618006297514704,0.0,0.0,254.0
1449618006314427931,0.0,0.0,250.0
1449618006325688358,-2.0,0.0,248.0
1449618006345189045,-2.0,0.0,246.0
1449618006358585440,-2.0,0.0,246.0
1449618006372197890,-2.0,0.0,242.0
1449618006387179207,-2.0,0.0,241.0
1449618006403985811,-2.0,0.0,239.0
1449618006416126014,-2.0,-2.0,241.0
1449618006434057870,-2.0,-2.0,240.0
1449618006448767312,-2.0,-2.0,238.0
1449618006460998277,-2.0,-2.0,245.0
1449618006477344027,-2.0,-2.0,244.0
1449618006493986366,-2.0,-2.0,242.0
1449618006508579768,-2.0,-2.0,238.0
1449618006522433433,-2.0,-2.0,237.0
1449618006538648093,-2.0,-2.0,238.0
1449618006551343878,-2.0,-2.0,236.0
1449618006570058461,-2.0,-2.0,231.0
1449618006584688738,-2.0,-2.0,233.0
1449618006596071027,-2.0,-2.0,235.0
1449618006616775454,-2.0,-4.0,237.0
1449618006630703659,-2.0,-4.0,237.0
1449618006646151227,-4.0,-4.0,241.0
1449618006657615491,-4.0,-4.0,245.0
1449618006674001057,-4.0,-4.0,246.0
1449618006687049841,-4.0,-4.0,245.0
1449618006703033027,-4.0,-4.0,249.0
1449618006714725346,-4.0,-4.0,254.0
1449618006732217151,-4.0,-6.0,256.0
1449618006749665337,-4.0,-6.0,251.0
1449618006761617549,-6.0,-6.0,234.0
1449618006776357957,-6.0,-6.0,243.0
1449618006794375046,-6.0,-6.0,227.0
1449618006805777530,-6.0,-6.0,230.0
1449618006823109126,-6.0,-8.0,237.0
1449618006837806491,-8.0,-8.0,288.0
1449618006850102278,-8.0,-8.0,252.0
1449618006866457907,-8.0,-8.0,292.0
1449618006882835379,-8.0,-8.0,247.0
1449618006895000586,-10.0,-8.0,276.0
1449618006911380536,-10.0,-10.0,227.0
1449618006928067916,-10.0,-10.0,272.0
1449618006941183555,-12.0,-10.0,238.0
1449618006956530248,-12.0,-10.0,245.0
1449618006972824918,-12.0,-10.0,244.0
1449618006985928383,-12.0,-10.0,282.0
1449618007001669972,-14.0,-12.0,224.0
1449618007017994784,-14.0,-12.0,214.0
1449618007033040842,-16.0,-12.0,233.0
1449618007046967280,-16.0,-12.0,282.0
1449618007062953368,-16.0,-12.0,241.0
1449618007075984553,-18.0,-12.0,274.0
1449618007097594322,-18.0,-12.0,224.0
1449618007104005576,-18.0,-12.0,266.0
1449618007120586094,-20.0,-14.0,235.0
1449618007137429109,-20.0,-14.0,288.0
1449618007150626776,-22.0,-14.0,222.0
1449618007174518127,-22.0,-14.0,216.0
1449618007182730285,-24.0,-14.0,227.0
1449618007203087224,-24.0,-14.0,257.0
1449618007215812166,-26.0,-14.0,224.0
1449618007227706253,-26.0,-14.0,213.0
1449618007246640246,-28.0,-14.0,267.0
1449618007260485131,-28.0,-16.0,235.0
1449618007275331677,-30.0,-16.0,263.0
1449618007289623660,-30.0,-16.0,212.0
1449618007304679584,-32.0,-16.0,267.0
1449618007317548178,-32.0,-16.0,233.0
1449618007333259357,-34.0,-16.0,236.0
1449618007350370831,-34.0,-16.0,216.0
1449618007362852723,-36.0,-16.0,274.0
1449618007380734336,-38.0,-16.0,219.0
1449618007394875633,-38.0,-16.0,257.0
1449618007407043786,-40.0,-18.0,225.0
1449618007424451136,-42.0,-18.0,265.0
1449618007440704235,-42.0,-18.0,214.0
1449618007452351118,-44.0,-18.0,276.0
1449618007469077056,-46.0,-18.0,216.0
1449618007482465947,-48.0,-18.0,236.0
1449618007497442099,-48.0,-18.0,228.0
1449618007513987391,-50.0,-18.0,254.0
1449618007527030143,-52.0,-18.0,224.0
1449618007545551784,-52.0,-18.0,258.0
1449618007559321309,-54.0,-20.0,210.0
1449618007571100059,-56.0,-20.0,272.0
1449618007587422425,-58.0,-20.0,215.0
1449618007604342628,-60.0,-20.0,267.0
1449618007616186497,-60.0,-20.0,224.0
1449618007635248364,-62.0,-20.0,255.0
1449618007648654475,-64.0,-20.0,230.0
1449618007661240747,-66.0,-20.0,266.0
1449618007678067445,-68.0,-20.0,235.0
1449618007694339346,-70.0,-22.0,282.0
1449618007707137670,-70.0,-22.0,237.0
1449618007722651486,-72.0,-22.0,304.0
1449618007739383843,-74.0,-22.0,244.0
1449618007753627396,-76.0,-22.0,284.0
1449618007772165037,-78.0,-22.0,259.0
1449618007787675918,-80.0,-22.0,312.0
1449618007796224442,-80.0,-24.0,276.0
1449618007822929379,-82.0,-24.0,308.0
1449618007829274773,-84.0,-24.0,285.0
1449618007842284264,-86.0,-24.0,315.0
1449618007857891329,-88.0,-24.0,284.0
1449618007870114116,-90.0,-26.0,320.0
1449618007886394187,-92.0,-26.0,278.0
1449618007903482023,-92.0,-26.0,335.0
1449618007915918616,-94.0,-26.0,279.0
1449618007931532456,-96.0,-28.0,338.0
1449618007948248617,-98.0,-28.0,287.0
1449618007960275504,-100.0,-28.0,337.0
1449618007977117450,-100.0,-28.0,303.0
1449618007993095835,-102.0,-30.0,334.0
1449618008005976912,-104.0,-30.0,305.0
1449618008021658416,-106.0,-30.0,291.0
1449618008038553301,-108.0,-32.0,304.0
1449618008053512275,-108.0,-32.0,351.0
1449618008067049420,-110.0,-32.0,297.0
1449618008083047408,-112.0,-32.0,363.0
1449618008095513601,-114.0,-34.0,308.0
1449618008112628615,-116.0,-34.0,360.0
1449618008128147344,-116.0,-36.0,321.0
1449618008140408170,-118.0,-36.0,357.0
1449618008157308975,-120.0,-36.0,331.0
1449618008174002342,-122.0,-38.0,344.0
1449618008185706530,-124.0,-38.0,326.0
1449618008209949552,-126.0,-40.0,326.0
1449618008218431599,-126.0,-40.0,319.0
1449618008233618639,-128.0,-42.0,385.0
1449618008248704920,-130.0,-42.0,332.0
1449618008260249774,-132.0,-44.0,378.0
1449618008276142274,-134.0,-44.0,334.0
1449618008293879308,-134.0,-44.0,373.0
1449618008304405222,-136.0,-46.0,346.0
1449618008321626326,-138.0,-48.0,374.0
1449618008338331090,-140.0,-48.0,346.0
1449618008350298049,-142.0,-48.0,382.0
1449618008366742380,-144.0,-50.0,343.0
1449618008382214700,-144.0,-52.0,401.0
1449618008395982256,-146.0,-52.0,339.0
1449618008410815354,-148.0,-54.0,395.0
1449618008427463502,-150.0,-54.0,347.0
1449618008439440119,-152.0,-56.0,395.0
1449618008456041914,-152.0,-56.0,350.0
1449618008472421500,-154.0,-58.0,386.0
1449618008484433035,-156.0,-60.0,359.0
1449618008501315817,-158.0,-60.0,385.0
1449618008518185071,-160.0,-62.0,353.0
1449618008530801454,-162.0,-64.0,390.0
1449618008548456308,-164.0,-64.0,352.0
1449618008563304922,-164.0,-66.0,405.0
1449618008576259338,-166.0,-66.0,342.0
1449618008595103795,-168.0,-68.0,363.0
1449618008607703463,-170.0,-70.0,350.0
1449618008619576967,-172.0,-70.0,399.0
1449618008638620384,-174.0,-72.0,352.0
1449618008648789805,-174.0,-72.0,389.0
1449618008666001168,-176.0,-74.0,358.0
1449618008685529378,-178.0,-76.0,385.0
1449618008694280161,-180.0,-76.0,351.0
1449618008711413071,-182.0,-78.0,392.0
1449618008726754719,-184.0,-80.0,352.0
1449618008738656400,-184.0,-80.0,402.0
1449618008755190850,-186.0,-82.0,334.0
1449618008773972433,-188.0,-84.0,402.0
1449618008786157207,-190.0,-84.0,341.0
1449618008801959135,-192.0,-86.0,391.0
1449618008817155609,-192.0,-88.0,352.0
1449618008829042989,-194.0,-88.0,377.0
1449618008845394391,-196.0,-90.0,349.0
1449618008861610034,-198.0,-92.0,379.0
1449618008875478077,-200.0,-92.0,340.0
1449618008890037062,-200.0,-94.0,391.0
1449618008906550428,-202.0,-96.0,321.0
1449618008919735755,-204.0,-96.0,382.0
1449618008935683327,-206.0,-98.0,323.0
1449618008952304283,-208.0,-100.0,375.0
1449618008966084600,-208.0,-100.0,332.0
1449618008981596016,-210.0,-102.0,354.0
1449618008997834205,-212.0,-104.0,316.0
1449618009010677072,-214.0,-106.0,353.0
1449618009025738842,-214.0,-106.0,299.0
1449618009037386254,-216.0,-108.0,361.0
1449618009053939595,-218.0,-110.0,298.0
1449618009075037350,-220.0,-112.0,342.0
1449618009083336764,-220.0,-112.0,302.0
1449618009099716683,-222.0,-114.0,322.0
1449618009115415993,-224.0,-116.0,285.0
1449618009130239453,-224.0,-116.0,334.0
1449618009144519479,-226.0,-118.0,270.0
1449618009163745519,-228.0,-120.0,326.0
1449618009174839848,-230.0,-120.0,274.0
1449618009190051501,-230.0,-122.0,311.0
1449618009213913693,-232.0,-124.0,278.0
1449618009217954787,-234.0,-126.0,312.0
1449618009234675003,-234.0,-126.0,261.0
1449618009251469565,-236.0,-128.0,282.0
1449618009264207470,-238.0,-130.0,269.0
1449618009279461988,-238.0,-132.0,264.0
1449618009295571960,-240.0,-132.0,288.0
1449618009308288751,-242.0,-134.0,274.0
1449618009324799913,-242.0,-136.0,268.0
1449618009341693777,-244.0,-138.0,292.0
1449618009354501537,-246.0,-140.0,279.0
1449618009369937891,-246.0,-140.0,318.0
1449618009385704919,-248.0,-142.0,292.0
1449618009398898353,-250.0,-144.0,330.0
1449618009416780773,-250.0,-146.0,280.0
1449618009430120431,-252.0,-148.0,294.0
1449618009444568193,-254.0,-150.0,286.0
1449618009460070831,-254.0,-150.0,326.0
1449618009471645079,-256.0,-152.0,295.0
1449618009488088817,-258.0,-154.0,337.0
1449618009507999558,-258.0,-156.0,272.0
1449618009516969025,-260.0,-158.0,343.0
1449618009534266939,-260.0,-160.0,302.0
1449618009552009569,-262.0,-160.0,330.0
1449618009562008755,-264.0,-162.0,300.0
1449618009578553532,-264.0,-164.0,353.0
1449618009595622642,-266.0,-166.0,289.0
1449618009607160577,-268.0,-168.0,345.0
1449618009623415805,-268.0,-170.0,305.0
1449618009639648238,-270.0,-172.0,342.0
1449618009652036460,-270.0,-172.0,295.0
1449618009668353885,-272.0,-174.0,331.0
1449618009687105448,-274.0,-176.0,294.0
1449618009701960465,-274.0,-178.0,319.0
1449618009718429311,-276.0,-180.0,308.0
1449618009729780130,-278.0,-182.0,295.0
1449618009746324268,-278.0,-184.0,289.0
1449618009762743728,-280.0,-186.0,303.0
1449618009776230701,-280.0,-188.0,311.0
1449618009793029360,-282.0,-188.0,300.0
1449618009804035284,-284.0,-190.0,303.0
1449618009820156698,-284.0,-192.0,317.0
1449618009836338578,-286.0,-194.0,300.0
1449618009848894987,-286.0,-196.0,291.0
1449618009864894842,-288.0,-198.0,312.0
1449618009882208893,-288.0,-200.0,312.0
1449618009894105828,-290.0,-202.0,297.0
1449618009910398254,-292.0,-202.0,308.0
1449618009926901995,-292.0,-204.0,337.0
1449618009940516708,-294.0,-206.0,303.0
1449618009956073015,-294.0,-208.0,297.0
1449618009971584469,-296.0,-210.0,309.0
1449618009984378655,-296.0,-212.0,318.0
1449618010000912410,-298.0,-214.0,301.0
1449618010017013838,-298.0,-216.0,298.0
1449618010029727378,-300.0,-216.0,315.0
1449618010045446051,-300.0,-218.0,309.0
1449618010062151286,-302.0,-220.0,296.0
1449618010074224374,-304.0,-222.0,309.0
1449618010090252405,-304.0,-224.0,319.0
1449618010107135976,-306.0,-226.0,306.0
1449618010119726232,-306.0,-228.0,297.0
1449618010136978182,-308.0,-230.0,311.0
1449618010153616012,-308.0,-232.0,321.0
1449618010164067859,-310.0,-232.0,306.0
1449618010182708261,-310.0,-234.0,302.0
1449618010193244965,-312.0,-236.0,333.0
1449618010209013229,-312.0,-238.0,318.0
1449618010226086352,-314.0,-240.0,300.0
1449618010239156011,-314.0,-242.0,297.0
1449618010257622780,-316.0,-244.0,308.0
1449618010272131804,-316.0,-246.0,311.0
1449618010283862115,-318.0,-248.0,296.0
1449618010299767358,-318.0,-250.0,298.0
1449618010316576740,-320.0,-250.0,307.0
1449618010329613405,-320.0,-252.0,306.0
1449618010344357190,-322.0,-254.0,312.0
1449618010365533306,-322.0,-256.0,292.0
1449618010373091429,-324.0,-258.0,303.0
1449618010390282403,-324.0,-260.0,302.0
1449618010406077072,-326.0,-262.0,310.0
1449618010418761736,-326.0,-264.0,284.0
1449618010434750336,-328.0,-266.0,293.0
1449618010450962357,-328.0,-268.0,294.0
1449618010462892885,-330.0,-268.0,299.0
1449618010479623365,-330.0,-270.0,276.0
1449618010495731047,-332.0,-272.0,287.0
1449618010508336345,-332.0,-274.0,293.0
1449618010524642420,-334.0,-276.0,308.0
1449618010540911632,-334.0,-278.0,269.0
1449618010553320692,-336.0,-280.0,285.0
1449618010570887255,-336.0,-282.0,291.0
1449618010585876160,-338.0,-284.0,300.0
1449618010598424252,-338.0,-286.0,271.0
1449618010615005221,-340.0,-288.0,304.0
1449618010627899979,-340.0,-290.0,289.0
1449618010643834947,-342.0,-292.0,299.0
1449618010659815383,-342.0,-292.0,265.0
1449618010671936631,-344.0,-294.0,297.0
1449618010688742485,-344.0,-296.0,287.0
1449618010707318815,-344.0,-298.0,307.0
1449618010716992549,-346.0,-300.0,270.0
1449618010733339668,-346.0,-302.0,286.0
1449618010750322352,-348.0,-304.0,278.0
1449618010764080010,-348.0,-306.0,305.0
1449618010784121567,-350.0,-308.0,268.0
1449618010797598260,-350.0,-310.0,278.0
1449618010811822190,-352.0,-312.0,274.0
1449618010825471953,-352.0,-314.0,297.0
1449618010845796025,-352.0,-314.0,275.0
1449618010852123411,-354.0,-316.0,282.0
1449618010869437027,-354.0,-318.0,251.0
1449618010885550053,-356.0,-320.0,289.0
1449618010901240490,-356.0,-322.0,271.0
1449618010914835431,-358.0,-324.0,280.0
1449618010935330958,-358.0,-326.0,247.0
1449618010942416566,-358.0,-328.0,267.0
1449618010959302290,-360.0,-328.0,259.0
1449618010972608057,-360.0,-330.0,287.0
1449618010993866881,-362.0,-332.0,254.0
1449618011004724668,-362.0,-334.0,267.0
1449618011016349847,-362.0,-336.0,244.0
1449618011034536264,-364.0,-338.0,285.0
1449618011048830632,-364.0,-338.0,258.0
1449618011061343684,-366.0,-340.0,269.0
1449618011077545507,-366.0,-342.0,240.0
1449618011093877375,-366.0,-344.0,261.0
1449618011110023150,-368.0,-346.0,250.0
1449618011122851797,-368.0,-348.0,283.0
1449618011139081743,-368.0,-348.0,259.0
1449618011151478369,-370.0,-350.0,268.0
1449618011170401949,-370.0,-352.0,242.0
1449618011185350897,-372.0,-354.0,272.0
1449618011196691214,-372.0,-356.0,254.0
1449618011212819992,-372.0,-356.0,281.0
1449618011229942652,-374.0,-358.0,245.0
1449618011241256278,-374.0,-360.0,257.0
1449618011257832122,-374.0,-362.0,235.0
1449618011274276678,-376.0,-364.0,272.0
1449618011286437838,-376.0,-366.0,254.0
1449618011304237538,-376.0,-366.0,278.0
1449618011319618964,-378.0,-368.0,244.0
1449618011332817664,-378.0,-370.0,257.0
1449618011348403973,-378.0,-372.0,234.0
1449618011360874831,-380.0,-374.0,262.0
1449618011377068162,-380.0,-376.0,250.0
1449618011393878157,-380.0,-378.0,273.0
1449618011405724237,-382.0,-378.0,240.0
1449618011421756306,-382.0,-380.0,256.0
1449618011437917858,-382.0,-382.0,237.0
1449618011450288919,-384.0,-384.0,243.0
1449618011466661866,-384.0,-386.0,255.0
1449618011485761148,-384.0,-388.0,253.0
1449618011496062306,-386.0,-390.0,240.0
1449618011517554478,-386.0,-392.0,255.0
1449618011529040045,-386.0,-392.0,235.0
1449618011543556483,-388.0,-394.0,247.0
1449618011557126391,-388.0,-396.0,256.0
1449618011573509980,-388.0,-398.0,286.0
1449618011585996831,-390.0,-400.0,244.0
1449618011602156170,-390.0,-402.0,259.0
1449618011618621627,-390.0,-404.0,235.0
1449618011631021652,-392.0,-404.0,270.0
1449618011647001417,-392.0,-406.0,255.0
1449618011663289036,-392.0,-408.0,253.0
1449618011675696013,-394.0,-410.0,238.0
1449618011692012779,-394.0,-412.0,256.0
1449618011708700151,-394.0,-414.0,233.0
1449618011720954991,-396.0,-416.0,266.0
1449618011740916738,-396.0,-418.0,250.0
1449618011749317079,-396.0,-420.0,272.0
1449618011765973435,-398.0,-420.0,234.0
1449618011781981388,-398.0,-422.0,250.0
1449618011794318586,-398.0,-424.0,229.0
1449618011810801407,-400.0,-426.0,262.0
1449618011828219633,-400.0,-428.0,243.0
1449618011841675570,-400.0,-430.0,261.0
1449618011856036041,-402.0,-432.0,229.0
1449618011872901465,-402.0,-432.0,243.0
1449618011886151593,-402.0,-436.0,220.0
1449618011900965062,-404.0,-436.0,256.0
1449618011921945941,-404.0,-438.0,233.0
1449618011929997625,-404.0,-440.0,260.0
1449618011947141018,-404.0,-442.0,230.0
1449618011962886381,-406.0,-444.0,247.0
1449618011975702123,-406.0,-446.0,215.0
1449618011992784894,-406.0,-448.0,238.0
1449618012009415600,-408.0,-448.0,230.0
1449618012021354136,-408.0,-452.0,236.0
1449618012036067116,-408.0,-452.0,234.0
1449618012053062575,-410.0,-454.0,242.0
1449618012065452846,-410.0,-456.0,213.0
1449618012083052994,-410.0,-458.0,235.0
1449618012098176422,-412.0,-460.0,227.0
1449618012110189318,-412.0,-462.0,252.0
1449618012126236508,-412.0,-464.0,234.0
1449618012139606206,-412.0,-464.0,248.0
1449618012154979526,-414.0,-468.0,218.0
1449618012171357033,-414.0,-468.0,239.0
1449618012184255562,-414.0,-470.0,214.0
1449618012210589117,-416.0,-472.0,228.0
1449618012216398629,-416.0,-474.0,256.0
1449618012233047736,-416.0,-476.0,229.0
1449618012249309532,-418.0,-478.0,242.0
1449618012261683197,-418.0,-480.0,207.0
1449618012277768173,-418.0,-482.0,237.0
1449618012294363186,-420.0,-484.0,224.0
1449618012306596649,-420.0,-484.0,238.0
1449618012323196709,-420.0,-486.0,225.0
1449618012342069922,-420.0,-488.0,248.0
1449618012352305270,-422.0,-490.0,215.0
1449618012368443787,-422.0,-492.0,233.0
1449618012385458067,-422.0,-494.0,202.0
1449618012398067166,-424.0,-496.0,257.0
1449618012413051317,-424.0,-498.0,218.0
1449618012431525035,-424.0,-498.0,267.0
1449618012441910914,-424.0,-500.0,219.0
1449618012458288169,-426.0,-502.0,252.0
1449618012474827282,-426.0,-504.0,207.0
1449618012487239881,-426.0,-506.0,246.0
1449618012503321143,-428.0,-508.0,216.0
1449618012516204378,-428.0,-508.0,259.0
1449618012533615109,-428.0,-510.0,220.0
1449618012548553676,-428.0,-512.0,266.0
1449618012561936818,-430.0,-514.0,208.0
1449618012578645131,-430.0,-514.0,250.0
1449618012593419418,-430.0,-516.0,198.0
1449618012606813404,-432.0,-518.0,258.0
1449618012624842500,-432.0,-520.0,219.0
1449618012639095491,-432.0,-520.0,263.0
1449618012650799551,-432.0,-522.0,211.0
1449618012667141273,-434.0,-524.0,250.0
1449618012683413200,-434.0,-526.0,197.0
1449618012695850903,-434.0,-526.0,241.0
1449618012712209867,-436.0,-528.0,210.0
1449618012729396473,-436.0,-530.0,257.0
1449618012740992268,-436.0,-530.0,214.0
1449618012756946591,-438.0,-532.0,244.0
1449618012773440973,-438.0,-534.0,194.0
1449618012788257967,-438.0,-534.0,191.0
1449618012802339706,-440.0,-536.0,195.0
1449618012820265560,-440.0,-536.0,253.0
1449618012831255694,-440.0,-538.0,212.0
1449618012851661974,-440.0,-540.0,257.0
1449618012864466848,-442.0,-540.0,200.0
1449618012876727195,-442.0,-542.0,242.0
1449618012892522218,-442.0,-544.0,194.0
1449618012904884539,-444.0,-544.0,208.0
1449618012920849646,-444.0,-546.0,212.0
1449618012939691869,-444.0,-546.0,259.0
1449618012950107247,-444.0,-548.0,210.0
1449618012965926222,-446.0,-548.0,249.0
1449618012984893637,-446.0,-550.0,194.0
1449618012994933105,-446.0,-552.0,243.0
1449618013029213432,-448.0,-554.0,264.0
1449618013101649310,-452.0,-558.0,219.0
1449618013117968284,-452.0,-560.0,229.0
1449618013134298940,-454.0,-560.0,219.0
1449618013146439744,-454.0,-562.0,217.0
1449618013163209764,-454.0,-562.0,214.0
1449618013179912059,-456.0,-564.0,228.0
1449618013192746722,-456.0,-564.0,233.0
1449618013210144515,-458.0,-566.0,230.0
1449618013224805829,-458.0,-568.0,221.0
1449618013236888716,-458.0,-568.0,223.0
1449618013253920194,-460.0,-570.0,234.0
1449618013269652144,-460.0,-570.0,242.0
1449618013281625350,-462.0,-572.0,230.0
1449618013297667355,-462.0,-572.0,224.0
1449618013314165059,-464.0,-574.0,237.0
1449618013327028371,-464.0,-574.0,269.0
1449618013343328994,-466.0,-576.0,234.0
1449618013359712992,-466.0,-576.0,221.0
1449618013372202754,-468.0,-578.0,240.0
1449618013389561735,-468.0,-578.0,254.0
1449618013406070916,-470.0,-580.0,239.0
1449618013416640871,-470.0,-580.0,232.0
1449618013433679806,-472.0,-582.0,244.0
1449618013451075608,-472.0,-582.0,252.0
1449618013462035529,-474.0,-584.0,245.0
1449618013478932246,-474.0,-586.0,260.0
1449618013494046628,-476.0,-586.0,246.0
1449618013507154204,-476.0,-588.0,256.0
1449618013523116340,-476.0,-588.0,246.0
1449618013537961272,-478.0,-590.0,240.0
1449618013553986840,-478.0,-590.0,242.0
1449618013568519154,-480.0,-592.0,252.0
1449618013582287060,-480.0,-592.0,259.0
1449618013597465232,-482.0,-594.0,272.0
1449618013613679341,-482.0,-594.0,238.0
1449618013625792386,-484.0,-596.0,252.0
1449618013642174731,-484.0,-596.0,259.0
1449618013658298709,-484.0,-598.0,256.0
1449618013670737115,-486.0,-598.0,248.0
1449618013687197752,-486.0,-600.0,241.0
1449618013704549347,-488.0,-600.0,253.0
1449618013715670382,-488.0,-602.0,255.0
1449618013732052982,-490.0,-602.0,251.0
1449618013749934783,-490.0,-604.0,269.0
1449618013761049908,-490.0,-604.0,241.0
1449618013777316143,-492.0,-606.0,255.0
1449618013793858592,-492.0,-606.0,256.0
1449618013806241983,-492.0,-606.0,261.0
1449618013823641379,-494.0,-608.0,247.0
1449618013839127961,-494.0,-608.0,246.0
1449618013853418869,-494.0,-610.0,242.0
1449618013867402605,-496.0,-610.0,272.0
1449618013879402620,-496.0,-610.0,254.0
1449618013896291004,-496.0,-612.0,257.0
1449618013912952550,-498.0,-612.0,248.0
1449618013925582153,-498.0,-612.0,244.0
1449618013941209916,-498.0,-614.0,232.0
1449618013957782920,-500.0,-614.0,246.0
1449618013970260247,-500.0,-614.0,251.0
1449618013986261923,-500.0,-616.0,257.0
1449618014003070132,-500.0,-616.0,252.0
1449618014015117120,-502.0,-616.0,263.0
1449618014031005457,-502.0,-618.0,247.0
1449618014047384599,-502.0,-618.0,235.0
1449618014060074228,-502.0,-618.0,239.0
1449618014077277156,-504.0,-618.0,249.0
1449618014093361107,-504.0,-620.0,246.0
1449618014105040276,-504.0,-620.0,253.0
1449618014121220346,-504.0,-620.0,254.0
1449618014137544663,-506.0,-620.0,244.0
1449618014150088862,-506.0,-622.0,238.0
1449618014167233506,-506.0,-622.0,234.0
1449618014182697786,-506.0,-622.0,233.0
1449618014195109361,-508.0,-622.0,242.0
1449618014211587207,-508.0,-624.0,246.0
1449618014227660060,-508.0,-624.0,248.0
1449618014240904166,-508.0,-624.0,249.0
1449618014256849243,-508.0,-624.0,250.0
1449618014272551097,-510.0,-626.0,238.0
1449618014286038368,-510.0,-626.0,254.0
1449618014301871578,-510.0,-626.0,233.0
1449618014314005026,-510.0,-626.0,237.0
1449618014330235792,-512.0,-626.0,247.0
1449618014349613129,-512.0,-628.0,246.0
1449618014361645947,-512.0,-628.0,254.0
1449618014381660459,-512.0,-628.0,257.0
1449618014396067150,-514.0,-628.0,240.0
1449618014404647507,-514.0,-628.0,241.0
1449618014420862530,-514.0,-630.0,230.0
1449618014436649446,-516.0,-630.0,261.0
1449618014448886188,-516.0,-630.0,245.0
1449618014465380299,-516.0,-630.0,248.0
1449618014481699102,-516.0,-632.0,242.0
1449618014494439233,-518.0,-632.0,240.0
1449618014513364695,-518.0,-632.0,233.0
1449618014527388517,-520.0,-632.0,250.0
1449618014539679586,-520.0,-634.0,256.0
1449618014556120018,-520.0,-634.0,274.0
1449618014572029379,-522.0,-634.0,239.0
1449618014584476321,-522.0,-634.0,235.0
1449618014603353533,-524.0,-636.0,247.0
1449618014620098233,-524.0,-636.0,250.0
1449618014629626295,-526.0,-636.0,246.0
1449618014646310769,-526.0,-638.0,240.0
1449618014659135286,-528.0,-638.0,246.0
1449618014674154941,-528.0,-638.0,249.0
1449618014692682098,-530.0,-640.0,240.0
1449618014703021004,-530.0,-640.0,252.0
1449618014722449923,-532.0,-640.0,242.0
1449618014736603409,-532.0,-642.0,248.0
1449618014747991996,-534.0,-642.0,241.0
1449618014765568027,-536.0,-642.0,241.0
1449618014781222052,-536.0,-644.0,242.0
1449618014796960822,-538.0,-644.0,233.0
1449618014809964324,-538.0,-644.0,227.0
1449618014826142301,-540.0,-646.0,264.0
1449618014839061958,-542.0,-646.0,228.0
1449618014855800239,-544.0,-648.0,231.0
1449618014870992761,-544.0,-648.0,241.0
1449618014883456830,-546.0,-648.0,224.0
1449618014900178322,-548.0,-650.0,230.0
1449618014917503422,-548.0,-650.0,235.0
1449618014928656427,-550.0,-652.0,212.0
1449618014946156671,-552.0,-652.0,230.0
1449618014961575706,-554.0,-654.0,214.0
1449618014975905298,-556.0,-654.0,244.0
1449618014990191039,-556.0,-656.0,229.0
1449618015002519115,-558.0,-656.0,207.0
1449618015018413438,-560.0,-656.0,225.0
1449618015034824406,-562.0,-658.0,209.0
1449618015047106757,-564.0,-658.0,216.0
1449618015063595001,-566.0,-660.0,210.0
1449618015081390044,-568.0,-660.0,214.0
1449618015094935380,-568.0,-662.0,223.0
1449618015108748705,-570.0,-662.0,199.0
1449618015125786309,-572.0,-664.0,217.0
1449618015137169530,-574.0,-664.0,196.0
1449618015154741526,-576.0,-664.0,213.0
1449618015170116429,-578.0,-666.0,195.0
1449618015182320485,-580.0,-666.0,214.0
1449618015204616038,-582.0,-668.0,197.0
1449618015217626881,-584.0,-668.0,210.0
1449618015227654546,-586.0,-670.0,202.0
1449618015243611738,-588.0,-670.0,232.0
1449618015265817536,-588.0,-672.0,210.0
1449618015272651467,-590.0,-672.0,201.0
1449618015289315751,-592.0,-674.0,222.0
1449618015307221666,-594.0,-674.0,204.0
1449618015319147921,-596.0,-676.0,227.0
1449618015333874392,-598.0,-676.0,208.0
1449618015351042144,-600.0,-676.0,230.0
1449618015363230838,-602.0,-678.0,212.0
1449618015379127141,-604.0,-678.0,228.0
1449618015391356157,-606.0,-680.0,265.0
1449618015409529490,-608.0,-680.0,223.0
1449618015423897579,-610.0,-682.0,221.0
1449618015436364094,-612.0,-682.0,224.0
1449618015452626734,-614.0,-684.0,217.0
1449618015468835327,-616.0,-684.0,223.0
1449618015490394219,-618.0,-684.0,219.0
1449618015498041135,-618.0,-686.0,214.0
1449618015515502163,-620.0,-686.0,272.0
1449618015527807554,-622.0,-688.0,208.0
1449618015547204187,-624.0,-688.0,264.0
1449618015559014941,-626.0,-690.0,210.0
1449618015579634492,-628.0,-690.0,225.0
1449618015592008947,-630.0,-692.0,207.0
1449618015606022571,-632.0,-692.0,229.0
1449618015621674627,-634.0,-694.0,207.0
1449618015638291126,-636.0,-694.0,219.0
1449618015649618258,-638.0,-694.0,217.0
1449618015666132445,-640.0,-696.0,225.0
1449618015689410012,-642.0,-696.0,218.0
1449618015694842557,-642.0,-698.0,220.0
1449618015714320496,-644.0,-698.0,230.0
1449618015727139924,-646.0,-700.0,214.0
1449618015741527912,-648.0,-700.0,233.0
1449618015760977326,-650.0,-700.0,214.0
1449618015774537500,-652.0,-702.0,272.0
1449618015785179940,-654.0,-702.0,217.0
1449618015801336705,-656.0,-704.0,221.0
1449618015813527498,-656.0,-704.0,232.0
1449618015831201993,-658.0,-704.0,213.0
1449618015847452171,-660.0,-706.0,237.0
1449618015866478229,-662.0,-706.0,219.0
1449618015878051881,-664.0,-708.0,228.0
1449618015890845649,-664.0,-708.0,229.0
1449618015903290504,-666.0,-708.0,212.0
1449618015920529837,-668.0,-710.0,275.0
1449618015937412274,-670.0,-710.0,216.0
1449618015948641702,-672.0,-712.0,230.0
1449618015965071397,-672.0,-712.0,228.0
1449618015982290633,-674.0,-712.0,215.0
1449618015993295833,-676.0,-714.0,231.0
1449618016009697802,-678.0,-714.0,216.0
1449618016026399228,-680.0,-714.0,220.0
1449618016040875495,-680.0,-716.0,272.0
1449618016059145590,-682.0,-716.0,208.0
1449618016071756740,-684.0,-718.0,219.0
1449618016084264256,-686.0,-718.0,213.0
1449618016102766144,-686.0,-718.0,206.0
1449618016119861298,-688.0,-720.0,224.0
1449618016128584558,-690.0,-720.0,209.0
1449618016146465417,-692.0,-720.0,220.0
1449618016161504906,-692.0,-722.0,226.0
1449618016176016213,-694.0,-722.0,203.0
1449618016192018167,-696.0,-722.0,261.0
1449618016202431182,-696.0,-724.0,225.0
1449618016219006410,-698.0,-724.0,208.0
1449618016235294884,-700.0,-724.0,222.0
1449618016248666751,-702.0,-726.0,217.0
1449618016266257442,-702.0,-726.0,210.0
1449618016281056737,-704.0,-726.0,227.0
1449618016292594627,-706.0,-728.0,210.0
1449618016310226272,-706.0,-728.0,210.0
1449618016325317646,-708.0,-728.0,230.0
1449618016338185552,-710.0,-730.0,222.0
1449618016353893125,-710.0,-730.0,213.0
1449618016370290626,-712.0,-730.0,235.0
1449618016382413030,-714.0,-732.0,219.0
1449618016399574193,-714.0,-732.0,215.0
1449618016415608690,-716.0,-732.0,229.0
1449618016428447605,-718.0,-734.0,224.0
1449618016445266767,-718.0,-734.0,214.0
1449618016460322584,-720.0,-736.0,281.0
1449618016474669467,-722.0,-736.0,223.0
1449618016489359883,-722.0,-736.0,224.0
1449618016505722711,-724.0,-738.0,236.0
1449618016518994132,-726.0,-738.0,226.0
1449618016534129937,-726.0,-738.0,221.0
1449618016546543504,-728.0,-740.0,245.0
1449618016562726712,-730.0,-740.0,217.0
1449618016581630601,-730.0,-740.0,221.0
1449618016591538580,-732.0,-742.0,242.0
1449618016609991383,-734.0,-742.0,230.0
1449618016624934946,-734.0,-742.0,226.0
1449618016638054823,-736.0,-744.0,243.0
1449618016654535355,-738.0,-744.0,233.0
1449618016669756564,-738.0,-744.0,229.0
1449618016682043934,-740.0,-746.0,245.0
1449618016698549612,-742.0,-746.0,232.0
1449618016714361513,-742.0,-748.0,225.0
1449618016727786498,-744.0,-748.0,293.0
1449618016743268356,-746.0,-748.0,233.0
1449618016759593637,-746.0,-750.0,231.0
1449618016774350960,-748.0,-750.0,252.0
1449618016790573537,-750.0,-752.0,240.0
1449618016807719177,-752.0,-752.0,241.0
1449618016817880379,-752.0,-752.0,249.0
1449618016833462839,-754.0,-754.0,232.0
1449618016849865796,-756.0,-754.0,241.0
1449618016867139046,-756.0,-756.0,248.0
1449618016879749359,-758.0,-756.0,233.0
1449618016894641166,-760.0,-758.0,246.0
1449618016909610573,-760.0,-758.0,239.0
1449618016923952215,-762.0,-760.0,232.0
1449618016937707863,-764.0,-760.0,248.0
1449618016961644037,-766.0,-762.0,233.0
1449618016968520793,-766.0,-762.0,231.0
1449618016984638399,-768.0,-764.0,248.0
1449618016998146859,-770.0,-764.0,276.0
1449618017013743201,-772.0,-766.0,243.0
1449618017027331552,-772.0,-766.0,244.0
1449618017042320899,-774.0,-768.0,226.0
1449618017058393542,-776.0,-768.0,234.0
1449618017070630492,-778.0,-770.0,231.0
1449618017087286360,-780.0,-772.0,237.0
1449618017110712401,-780.0,-772.0,247.0
1449618017117260751,-782.0,-774.0,227.0
1449618017132137955,-784.0,-774.0,246.0
1449618017149121831,-786.0,-776.0,277.0
1449618017169365601,-788.0,-776.0,240.0
1449618017179865894,-788.0,-778.0,245.0
1449618017194781828,-790.0,-780.0,226.0
1449618017206042080,-792.0,-780.0,249.0
1449618017223646738,-794.0,-782.0,237.0
1449618017246809720,-796.0,-784.0,240.0
1449618017276268222,-796.0,-784.0,236.0
1449618017276273584,-798.0,-786.0,230.0
1449618017285598724,-800.0,-788.0,245.0
1449618017298949321,-802.0,-788.0,233.0
1449618017312306343,-804.0,-790.0,245.0
1449618017325281697,-806.0,-790.0,235.0
1449618017343588985,-806.0,-792.0,235.0
1449618017358078194,-808.0,-794.0,252.0
1449618017370073219,-810.0,-794.0,236.0
1449618017387174525,-812.0,-796.0,248.0
1449618017405655110,-814.0,-798.0,244.0
1449618017414808117,-816.0,-798.0,287.0
1449618017431072793,-816.0,-800.0,256.0
1449618017448944272,-818.0,-800.0,236.0
1449618017461695832,-820.0,-802.0,253.0
1449618017477392590,-822.0,-804.0,246.0
1449618017494585538,-824.0,-804.0,251.0
1449618017505266161,-824.0,-806.0,263.0
1449618017521485701,-826.0,-808.0,251.0
1449618017537732109,-828.0,-808.0,262.0
1449618017550267770,-830.0,-810.0,259.0
1449618017567149457,-830.0,-812.0,257.0
1449618017583871589,-832.0,-812.0,274.0
1449618017597816018,-834.0,-814.0,262.0
1449618017614666298,-836.0,-816.0,274.0
1449618017628223049,-838.0,-816.0,271.0
1449618017640050362,-838.0,-818.0,261.0
1449618017656632000,-840.0,-820.0,284.0
1449618017673859359,-842.0,-820.0,273.0
1449618017686292278,-844.0,-822.0,324.0
1449618017704692130,-844.0,-824.0,288.0
1449618017714421655,-846.0,-824.0,268.0
1449618017731589969,-848.0,-826.0,286.0
1449618017747564094,-850.0,-828.0,280.0
1449618017760692970,-850.0,-828.0,275.0
1449618017777199025,-852.0,-830.0,297.0
1449618017791732014,-854.0,-832.0,285.0
1449618017806681728,-856.0,-832.0,293.0
1449618017820465622,-856.0,-834.0,303.0
1449618017837884686,-858.0,-834.0,330.0
1449618017850145841,-860.0,-836.0,301.0
1449618017865613989,-862.0,-838.0,296.0
1449618017882756055,-862.0,-838.0,289.0
1449618017895576929,-864.0,-840.0,314.0
1449618017912518425,-866.0,-842.0,302.0
1449618017932082924,-868.0,-842.0,312.0
1449618017939014588,-868.0,-844.0,319.0
1449618017955488110,-870.0,-846.0,348.0
1449618017972869674,-872.0,-846.0,315.0
1449618017987546577,-874.0,-848.0,311.0
1449618018001813219,-874.0,-850.0,307.0
1449618018017149180,-876.0,-850.0,329.0
1449618018033956975,-878.0,-852.0,314.0
1449618018049928837,-880.0,-854.0,367.0
1449618018063606661,-880.0,-856.0,328.0
1449618018078345199,-882.0,-856.0,309.0
1449618018096793247,-884.0,-858.0,368.0
1449618018107696638,-886.0,-860.0,317.0
1449618018124325085,-886.0,-860.0,311.0
1449618018137575625,-888.0,-862.0,325.0
1449618018152265951,-890.0,-864.0,314.0
1449618018168837846,-892.0,-866.0,318.0
1449618018181352157,-892.0,-866.0,327.0
1449618018197942711,-894.0,-868.0,305.0
1449618018213759517,-896.0,-870.0,360.0
1449618018226185746,-896.0,-870.0,312.0
1449618018243875132,-898.0,-872.0,300.0
1449618018264063569,-900.0,-874.0,309.0
1449618018270998669,-902.0,-874.0,301.0
1449618018287664782,-902.0,-876.0,292.0
1449618018304869994,-904.0,-878.0,311.0
1449618018316411692,-906.0,-878.0,296.0
1449618018335929697,-906.0,-880.0,288.0
1449618018350797128,-908.0,-880.0,307.0
1449618018361085977,-910.0,-882.0,293.0
1449618018377846671,-910.0,-884.0,284.0
1449618018394588291,-912.0,-884.0,302.0
1449618018409678584,-914.0,-886.0,287.0
1449618018426162952,-914.0,-888.0,280.0
1449618018441630905,-916.0,-888.0,296.0
1449618018452261732,-918.0,-890.0,279.0
1449618018469659780,-918.0,-890.0,273.0
1449618018482886203,-920.0,-892.0,334.0
1449618018498491606,-920.0,-892.0,291.0
1449618018516303334,-922.0,-894.0,269.0
1449618018536304171,-924.0,-896.0,279.0
1449618018541664365,-924.0,-896.0,289.0
1449618018558464668,-926.0,-898.0,272.0
1449618018572308425,-926.0,-898.0,263.0
1449618018588117745,-928.0,-900.0,274.0
1449618018604466928,-928.0,-900.0,277.0
1449618018615688501,-930.0,-902.0,265.0
1449618018631455658,-930.0,-902.0,304.0
1449618018648032651,-932.0,-904.0,267.0
1449618018660009267,-932.0,-904.0,270.0
1449618018676372789,-934.0,-906.0,254.0
1449618018694804313,-934.0,-906.0,255.0
1449618018705844499,-936.0,-908.0,263.0
1449618018721699571,-936.0,-908.0,268.0
1449618018738706326,-938.0,-910.0,249.0
1449618018751428805,-938.0,-910.0,247.0
1449618018767496096,-940.0,-912.0,253.0
1449618018784030963,-940.0,-912.0,261.0
1449618018795854509,-942.0,-912.0,246.0
1449618018812303213,-942.0,-914.0,239.0
1449618018829686308,-944.0,-914.0,251.0
1449618018841020876,-944.0,-916.0,258.0
1449618018861764475,-946.0,-916.0,243.0
1449618018869980712,-946.0,-918.0,234.0
1449618018885447832,-948.0,-918.0,247.0
1449618018901989057,-948.0,-920.0,300.0
1449618018914221403,-948.0,-920.0,245.0
1449618018930664751,-950.0,-922.0,231.0
1449618018947150557,-950.0,-922.0,233.0
1449618018959040677,-952.0,-924.0,238.0
1449618018976389047,-952.0,-924.0,245.0
1449618018992098466,-954.0,-926.0,237.0
1449618019006081196,-954.0,-926.0,228.0
1449618019021355362,-956.0,-928.0,242.0
1449618019036836038,-956.0,-930.0,247.0
1449618019050734686,-958.0,-930.0,255.0
1449618019069621100,-958.0,-932.0,225.0
1449618019085822947,-960.0,-932.0,244.0
1449618019097048113,-960.0,-934.0,246.0
1449618019113136224,-962.0,-934.0,238.0
1449618019130366821,-962.0,-936.0,231.0
1449618019139972742,-964.0,-936.0,241.0
1449618019156524920,-964.0,-938.0,247.0
1449618019176052477,-966.0,-940.0,283.0
1449618019184496037,-966.0,-940.0,228.0
1449618019200993203,-968.0,-942.0,240.0
1449618019218533044,-968.0,-942.0,249.0
1449618019230038977,-970.0,-944.0,232.0
1449618019250995090,-970.0,-946.0,228.0
1449618019260525490,-972.0,-946.0,243.0
1449618019274863845,-972.0,-948.0,247.0
1449618019292457009,-974.0,-950.0,235.0
1449618019303493636,-974.0,-950.0,225.0
1449618019320080527,-976.0,-952.0,291.0
1449618019336684496,-976.0,-954.0,246.0
1449618019351721348,-978.0,-954.0,236.0
1449618019366017154,-978.0,-956.0,221.0
1449618019381962036,-980.0,-958.0,240.0
1449618019395414848,-980.0,-960.0,249.0
1449618019413648072,-982.0,-960.0,232.0
1449618019426574198,-984.0,-962.0,237.0
1449618019438686613,-984.0,-964.0,293.0
1449618019471372701,-986.0,-966.0,231.0
1449618019546138341,-992.0,-974.0,252.0
1449618019561338373,-994.0,-976.0,239.0
1449618019579428496,-994.0,-976.0,236.0
1449618019590547546,-996.0,-978.0,253.0
1449618019610597978,-998.0,-980.0,244.0
1449618019625615743,-998.0,-982.0,233.0
1449618019636001472,-1000.0,-982.0,242.0
1449618019651555333,-1000.0,-984.0,257.0
1449618019668033690,-1002.0,-986.0,239.0
1449618019680202550,-1004.0,-988.0,249.0
1449618019702723437,-1004.0,-988.0,248.0
1449618019713626437,-1006.0,-990.0,241.0
1449618019725661600,-1006.0,-992.0,240.0
1449618019741783134,-1008.0,-994.0,256.0
1449618019758207383,-1010.0,-994.0,241.0
1449618019770341300,-1010.0,-996.0,234.0
1449618019787259901,-1012.0,-998.0,248.0
1449618019809471308,-1012.0,-998.0,256.0
1449618019815690445,-1014.0,-1000.0,232.0
1449618019835792953,-1016.0,-1002.0,247.0
1449618019844212651,-1016.0,-1004.0,253.0
1449618019860499545,-1018.0,-1004.0,273.0
1449618019876771437,-1018.0,-1006.0,232.0
1449618019889146718,-1020.0,-1008.0,250.0
1449618019906833457,-1020.0,-1008.0,253.0
1449618019921787208,-1022.0,-1010.0,244.0
1449618019934158104,-1022.0,-1012.0,236.0
1449618019952901915,-1024.0,-1012.0,255.0
1449618019966761606,-1024.0,-1014.0,257.0
1449618019980052499,-1026.0,-1014.0,240.0
1449618019996876834,-1028.0,-1016.0,249.0
1449618020017515469,-1028.0,-1018.0,256.0
1449618020027317337,-1028.0,-1018.0,252.0
1449618020040743062,-1030.0,-1020.0,240.0
1449618020057197894,-1032.0,-1020.0,243.0
1449618020069935545,-1032.0,-1022.0,258.0
1449618020085787063,-1032.0,-1024.0,258.0
1449618020103099019,-1034.0,-1024.0,248.0
1449618020116205993,-1034.0,-1026.0,243.0
1449618020131350135,-1036.0,-1026.0,251.0
1449618020150587310,-1036.0,-1028.0,261.0
1449618020160510113,-1038.0,-1028.0,244.0
1449618020176490785,-1038.0,-1030.0,240.0
1449618020192947143,-1040.0,-1030.0,254.0
1449618020204943517,-1040.0,-1032.0,261.0
1449618020224158327,-1042.0,-1032.0,250.0
1449618020233113546,-1042.0,-1034.0,241.0
1449618020249794310,-1042.0,-1034.0,243.0
1449618020266447735,-1044.0,-1036.0,252.0
1449618020280983637,-1044.0,-1036.0,260.0
1449618020296900051,-1046.0,-1038.0,245.0
1449618020315112985,-1046.0,-1038.0,242.0
1449618020323331056,-1048.0,-1040.0,250.0
1449618020339719851,-1048.0,-1040.0,254.0
1449618020355963913,-1048.0,-1040.0,259.0
1449618020369936493,-1050.0,-1042.0,243.0
1449618020386131234,-1050.0,-1042.0,238.0
1449618020401553122,-1052.0,-1044.0,247.0
1449618020413806091,-1052.0,-1044.0,253.0
1449618020430940472,-1052.0,-1046.0,258.0
1449618020446424423,-1054.0,-1046.0,247.0
1449618020458612009,-1054.0,-1048.0,241.0
1449618020475015250,-1054.0,-1048.0,239.0
1449618020500034726,-1056.0,-1048.0,252.0
1449618020505170046,-1056.0,-1050.0,256.0
1449618020520058906,-1056.0,-1050.0,252.0
1449618020536966849,-1058.0,-1052.0,249.0
1449618020553618269,-1058.0,-1052.0,241.0
1449618020565622743,-1060.0,-1052.0,257.0
1449618020581805879,-1060.0,-1054.0,261.0
1449618020593663753,-1060.0,-1054.0,263.0
1449618020610979033,-1062.0,-1056.0,249.0
1449618020623380763,-1062.0,-1056.0,244.0
1449618020646604103,-1062.0,-1056.0,247.0
1449618020655481306,-1064.0,-1058.0,256.0
1449618020667464081,-1064.0,-1058.0,260.0
1449618020687683421,-1066.0,-1058.0,252.0
1449618020705263647,-1066.0,-1060.0,244.0
1449618020720472783,-1066.0,-1060.0,241.0
1449618020730169206,-1068.0,-1062.0,257.0
1449618020746521127,-1068.0,-1062.0,262.0
1449618020759188780,-1068.0,-1062.0,262.0
1449618020779818418,-1070.0,-1064.0,251.0
1449618020793625097,-1070.0,-1064.0,241.0
1449618020804288120,-1070.0,-1064.0,242.0
1449618020821874764,-1072.0,-1066.0,256.0
1449618020839240362,-1072.0,-1066.0,259.0
1449618020850739087,-1072.0,-1068.0,256.0
1449618020867148131,-1074.0,-1068.0,242.0
1449618020880525548,-1074.0,-1068.0,241.0
1449618020893511965,-1074.0,-1070.0,247.0
1449618020910805761,-1076.0,-1070.0,254.0
1449618020925699185,-1076.0,-1070.0,261.0
1449618020939202895,-1076.0,-1072.0,259.0
1449618020954525616,-1078.0,-1072.0,250.0
1449618020972252375,-1078.0,-1072.0,243.0
1449618020983974623,-1078.0,-1074.0,245.0
1449618020999454433,-1080.0,-1074.0,257.0
1449618021012052743,-1080.0,-1074.0,261.0
1449618021031474404,-1080.0,-1076.0,260.0
1449618021048548852,-1082.0,-1076.0,249.0
1449618021056480455,-1082.0,-1076.0,239.0
1449618021073380648,-1082.0,-1078.0,238.0
1449618021091244756,-1084.0,-1078.0,252.0
1449618021101776505,-1084.0,-1078.0,259.0
1449618021118201632,-1084.0,-1080.0,258.0
1449618021135252907,-1084.0,-1080.0,255.0
1449618021153211854,-1086.0,-1080.0,249.0
1449618021164867805,-1086.0,-1082.0,238.0
1449618021179584599,-1086.0,-1082.0,239.0
1449618021192391959,-1088.0,-1082.0,253.0
1449618021208854876,-1088.0,-1084.0,256.0
1449618021224574202,-1088.0,-1084.0,260.0
1449618021238728721,-1090.0,-1084.0,248.0
1449618021253156315,-1090.0,-1086.0,242.0
1449618021269571678,-1090.0,-1086.0,239.0
1449618021282239679,-1092.0,-1086.0,254.0
1449618021298725020,-1092.0,-1088.0,260.0
1449618021315784935,-1092.0,-1088.0,254.0
1449618021327487919,-1092.0,-1088.0,260.0
1449618021343858402,-1094.0,-1088.0,243.0
1449618021359983509,-1094.0,-1090.0,241.0
1449618021373511762,-1094.0,-1090.0,240.0
1449618021388746983,-1096.0,-1090.0,254.0
1449618021401010543,-1096.0,-1092.0,259.0
1449618021418868410,-1096.0,-1092.0,261.0
1449618021434874231,-1098.0,-1092.0,250.0
1449618021445654603,-1098.0,-1094.0,245.0
1449618021464085198,-1098.0,-1094.0,238.0
1449618021478799429,-1100.0,-1094.0,248.0
1449618021491375492,-1100.0,-1096.0,250.0
1449618021507688006,-1100.0,-1096.0,255.0
1449618021523955898,-1100.0,-1096.0,257.0
1449618021536207908,-1102.0,-1098.0,241.0
1449618021569143563,-1102.0,-1098.0,237.0
1449618021569148205,-1102.0,-1098.0,235.0
1449618021581722026,-1104.0,-1100.0,247.0
1449618021597400333,-1104.0,-1100.0,252.0
1449618021615486506,-1104.0,-1100.0,251.0
1449618021626614836,-1106.0,-1100.0,238.0
1449618021643277464,-1106.0,-1102.0,238.0
1449618021659199339,-1106.0,-1102.0,234.0
1449618021675795208,-1108.0,-1104.0,240.0
1449618021689072952,-1108.0,-1104.0,248.0
1449618021704114107,-1108.0,-1104.0,248.0
1449618021716171927,-1110.0,-1104.0,234.0
1449618021732975385,-1110.0,-1106.0,226.0
1449618021748894077,-1110.0,-1106.0,226.0
1449618021761234915,-1112.0,-1108.0,240.0
1449618021781449232,-1112.0,-1108.0,244.0
1449618021790198079,-1112.0,-1108.0,244.0
1449618021807191877,-1114.0,-1110.0,233.0
1449618021823943643,-1114.0,-1110.0,223.0
1449618021835499024,-1114.0,-1110.0,224.0
1449618021851992763,-1116.0,-1112.0,236.0
1449618021869275924,-1116.0,-1112.0,245.0
1449618021879863059,-1116.0,-1112.0,244.0
1449618021897405041,-1118.0,-1114.0,231.0
1449618021912990674,-1118.0,-1114.0,218.0
1449618021925172965,-1118.0,-1114.0,222.0
1449618021943331783,-1120.0,-1116.0,235.0
1449618021957814445,-1120.0,-1116.0,241.0
1449618021970070513,-1120.0,-1116.0,241.0
1449618021990751946,-1122.0,-1118.0,231.0
1449618022004596604,-1122.0,-1118.0,223.0
1449618022019299867,-1122.0,-1120.0,224.0
1449618022037091436,-1124.0,-1120.0,234.0
1449618022049737889,-1124.0,-1120.0,239.0
1449618022064296017,-1124.0,-1120.0,241.0
1449618022081897533,-1126.0,-1122.0,225.0
1449618022093004615,-1126.0,-1122.0,220.0
1449618022109264082,-1126.0,-1124.0,225.0
1449618022125937639,-1128.0,-1124.0,228.0
1449618022143148060,-1128.0,-1124.0,242.0
1449618022154346311,-1128.0,-1124.0,243.0
1449618022168402951,-1130.0,-1126.0,230.0
1449618022189714688,-1130.0,-1126.0,223.0
1449618022202870810,-1130.0,-1128.0,225.0
1449618022211755772,-1132.0,-1128.0,235.0
1449618022230059670,-1132.0,-1128.0,244.0
1449618022244524601,-1132.0,-1130.0,241.0
1449618022265965734,-1134.0,-1130.0,230.0
1449618022276654332,-1134.0,-1130.0,222.0
1449618022290657347,-1136.0,-1132.0,233.0
1449618022301874028,-1136.0,-1132.0,239.0
1449618022319126840,-1136.0,-1132.0,245.0
1449618022335224574,-1136.0,-1134.0,240.0
1449618022347565092,-1138.0,-1134.0,230.0
1449618022365037601,-1138.0,-1136.0,225.0
1449618022382070093,-1140.0,-1136.0,235.0
1449618022391919279,-1140.0,-1136.0,237.0
1449618022408443013,-1140.0,-1136.0,245.0
1449618022426560204,-1142.0,-1138.0,234.0
1449618022437997805,-1142.0,-1138.0,233.0
1449618022457763063,-1142.0,-1140.0,229.0
1449618022470135683,-1144.0,-1140.0,236.0
1449618022486659754,-1144.0,-1140.0,239.0
1449618022502366377,-1144.0,-1140.0,247.0
1449618022515512938,-1146.0,-1142.0,238.0
1449618022530362418,-1146.0,-1142.0,232.0
1449618022543773982,-1146.0,-1144.0,225.0
1449618022556754309,-1148.0,-1144.0,238.0
1449618022576019660,-1148.0,-1144.0,238.0
