%time,field.linear.x,field.linear.y,field.linear.z,field.angular.x,field.angular.y,field.angular.z
1449618002683040085,0.0,0.0,0.0,0.0,0.0,0.0
1449618002782813072,0.0,0.0,0.0,0.0,0.0,0.0
1449618002886314265,0.0,0.0,0.0,0.0,0.0,0.0
1449618002983286578,0.0,0.0,0.0,0.0,0.0,0.0
1449618003133193784,0.0,0.0,0.0,0.0,0.0,0.0
1449618003232570807,0.0,0.0,0.0,0.0,0.0,0.0
1449618003332623880,0.0,0.0,0.0,0.0,0.0,0.0
1449618003385299489,0.0,0.0,0.0,0.0,0.0,0.0
1449618003437686681,0.0,0.0,0.0,0.0,0.0,0.0
1449618003536432074,0.0,0.0,0.0,0.0,0.0,0.0
1449618003586594807,0.0,0.0,0.0,0.0,0.0,0.0
1449618003638685751,0.0,0.0,0.0,0.0,0.0,0.0
1449618003688927172,0.0,0.0,0.0,0.0,0.0,0.0
1449618003739217003,0.0,0.0,0.0,0.0,0.0,0.0
1449618003843025709,0.0,0.0,0.0,0.0,0.0,0.0
1449618003894472187,0.0,0.0,0.0,0.0,0.0,0.0
1449618003943096371,0.0,0.0,0.0,0.0,0.0,0.0
1449618004013912601,0.0,0.0,0.0,0.0,0.0,0.0
1449618004064919586,0.0,0.0,0.0,0.0,0.0,0.0
1449618004133208264,0.0,0.0,0.0,0.0,0.0,0.0
1449618004183123816,0.0,0.0,0.0,0.0,0.0,0.0
1449618004399603840,0.0,0.0,0.0,0.0,0.0,0.0
1449618004448839470,0.0,0.0,0.0,0.0,0.0,0.0
1449618004644862518,0.0,0.0,0.0,0.0,0.0,0.0
1449618004694352726,0.0,0.0,0.0,0.0,0.0,0.0
1449618004763488342,0.0,0.0,0.0,0.0,0.0,0.0
1449618004864004338,0.0,0.0,0.0,0.0,0.0,0.0
1449618004963155800,0.0,0.0,0.0,0.0,0.0,0.0
1449618005069880904,0.0,0.0,0.0,0.0,0.0,0.0
1449618005163541102,0.0,0.0,0.0,0.0,0.0,0.0
1449618005213057607,0.0,0.0,0.0,0.0,0.0,0.0
1449618005217743525,0.0,0.0,0.0,0.0,0.0,0.0
1449618005265865379,0.0,0.0,0.0,0.0,0.0,0.0
1449618005376184192,0.0,0.0,0.0,0.0,0.0,0.0
1449618005475978606,0.0,0.0,0.0,0.0,0.0,0.0
1449618005625634906,0.0,0.0,0.0,0.0,0.0,0.0
1449618005675762984,0.0,0.0,0.0,0.0,0.0,0.0
1449618005808054618,0.0,0.0,0.0,0.0,0.0,0.0
1449618005858116445,0.0,0.0,0.0,0.0,0.0,0.0
1449618006030781737,0.12,0.0,0.0,0.0,0.0,0.0
1449618006134955152,0.12,0.0,0.0,0.0,0.0,0.0
1449618006184198310,0.12,0.0,0.0,0.0,0.0,0.0
1449618006265704852,0.12,0.0,0.0,0.0,0.0,0.0
1449618006339622190,0.153470868194,0.0,0.0,0.0,0.0,0.0
1449618006434985800,0.153470868194,0.0,0.0,0.0,0.0,0.0
1449618006505780838,0.152510991063,0.0,0.0,0.0,0.0,0.0
1449618006627054955,0.151551059891,0.0,0.0,0.0,0.0,0.0
1449618006694601780,0.151551059891,0.0,0.0,0.0,0.0,0.0
1449618006792837860,0.150591182161,0.0,0.0,0.0,0.0,0.0210526315789
1449618006856752522,0.149631250909,0.0,0.0,0.0,0.0,0.0
1449618006968457992,0.147711443081,0.0,0.0,0.0,0.0,0.0210526315789
1449618007043082469,0.143871773172,0.0,0.0,0.0,0.0,0.0210526315789
1449618007138891429,0.142911894556,0.0,0.0,0.0,0.0,0.0
1449618007236609926,0.140032753169,0.0,0.0,0.0,0.0,0.0
1449618007409769466,0.206601361717,0.0,0.0,0.0,0.0,0.147368421053
1449618007479683740,0.187807891692,0.0,0.0,0.0,0.0,0.189473684211
1449618007522749414,0.200119411334,0.0,0.0,0.0,0.0,0.147368421053
1449618007628854263,0.200119411334,0.0,0.0,0.0,0.0,0.147368421053
1449618007675202986,0.195439823171,0.0,0.0,0.0,0.0,0.158706156957
1449618007774041162,0.191669431644,0.0,0.0,0.0,0.0,0.128225363493
1449618007823028953,0.185024114844,0.0,0.0,0.0,0.0,0.118569083967
1449618007885239617,0.182162951531,0.0,0.0,0.0,0.0,0.108428090058
1449618008026420983,0.177382101244,0.0,0.0,0.0,0.0,0.0760312111754
1449618008118537396,0.168754580801,0.0,0.0,0.0,0.0,0.0
1449618008209896730,0.161076091714,0.0,0.0,0.0,0.0,0.0263295604681
1449618008291001411,0.155318849322,0.0,0.0,0.0,0.0,0.0
1449618008378477042,0.147649584834,0.0,0.0,0.0,0.0,0.0
1449618008488553169,0.137523361621,0.0,0.0,0.0,0.0,-0.0191684961319
1449618008595050403,0.126840595686,0.0,0.0,0.0,0.0,-0.0610853457451
1449618008670958461,0.120946650716,0.0,0.0,0.0,0.0,-0.0631578947368
1449618008732396681,0.12,0.0,0.0,0.0,0.0,-0.105263157895
1449618008808917489,0.12,0.0,0.0,0.0,0.0,-0.147368421053
1449618008901306238,0.12,0.0,0.0,0.0,0.0,-0.147368421053
1449618009009649555,0.12,0.0,0.0,0.0,0.0,-0.189473684211
1449618009074192537,0.12,0.0,0.0,0.0,0.0,-0.273684210526
1449618009202452045,0.12,0.0,0.0,0.0,0.0,-0.273684210526
1449618009328611391,0.12,0.0,0.0,0.0,0.0,-0.315789473684
1449618009413501961,0.0,0.0,0.0,0.0,0.0,-0.315789473684
1449618009413514507,0.0,0.0,0.0,0.0,0.0,0.0
1449618009445872696,0.0,0.0,0.0,0.0,0.0,0.0
1449618014035848375,0.352,0.0,0.0,0.0,0.0,0.315789473684
1449618014131939818,0.352,0.0,0.0,0.0,0.0,0.315789473684
1449618014184021042,0.352,0.0,0.0,0.0,0.0,0.357894736842
1449618014259066239,0.352,0.0,0.0,0.0,0.0,0.357894736842
1449618014438579439,0.352,0.0,0.0,0.0,0.0,0.357894736842
1449618014545100660,0.352,0.0,0.0,0.0,0.0,0.357894736842
1449618014648758025,0.352,0.0,0.0,0.0,0.0,0.357894736842
1449618014722430785,0.352,0.0,0.0,0.0,0.0,0.357894736842
1449618014798786044,0.352,0.0,0.0,0.0,0.0,0.357894736842
1449618014855815515,0.352,0.0,0.0,0.0,0.0,0.357894736842
1449618015005153701,0.352,0.0,0.0,0.0,0.0,0.357894736842
1449618015078774560,0.352,0.0,0.0,0.0,0.0,0.315789473684
1449618015154783224,0.352,0.0,0.0,0.0,0.0,0.315789473684
1449618015264759807,0.352,0.0,0.0,0.0,0.0,0.315789473684
1449618015319125867,0.302233253062,0.0,0.0,0.0,0.0,0.273684210526
1449618015417389635,0.295000460112,0.0,0.0,0.0,0.0,0.231578947368
1449618015489545207,0.288625362913,0.0,0.0,0.0,0.0,0.233192163267
1449618015586040907,0.284051548799,0.0,0.0,0.0,0.0,0.238754224024
1449618015685845040,0.274845079236,0.0,0.0,0.0,0.0,0.191439947956
1449618015760952044,0.264646099351,0.0,0.0,0.0,0.0,0.191557259309
1449618015827206062,0.258109291795,0.0,0.0,0.0,0.0,0.191557259309
1449618015938144358,0.255299764988,0.0,0.0,0.0,0.0,0.158043641919
1449618016118898984,0.352,0.0,0.0,0.0,0.0,0.191586755765
1449618016185859523,0.352,0.0,0.0,0.0,0.0,0.158011577757
1449618016262731874,0.352,0.0,0.0,0.0,0.0,0.147368421053
1449618016310167944,0.352,0.0,0.0,0.0,0.0,0.147368421053
1449618016442570589,0.352,0.0,0.0,0.0,0.0,0.105263157895
1449618016603413975,0.352,0.0,0.0,0.0,0.0,0.0631578947368
1449618016751697787,0.352,0.0,0.0,0.0,0.0,0.0210526315789
1449618016850113441,0.352,0.0,0.0,0.0,0.0,0.0210526315789
1449618016927515399,0.352,0.0,0.0,0.0,0.0,0.0210526315789
1449618017018475148,0.352,0.0,0.0,0.0,0.0,0.0
1449618017092508315,0.352,0.0,0.0,0.0,0.0,-0.0210526315789
1449618017169350797,0.352,0.0,0.0,0.0,0.0,-0.0210526315789
1449618017246782101,0.352,0.0,0.0,0.0,0.0,-0.0210526315789
1449618017343340638,0.352,0.0,0.0,0.0,0.0,-0.0210526315789
1449618017424930647,0.352,0.0,0.0,0.0,0.0,-0.0631578947368
1449618017598531169,0.227270609938,0.0,0.0,0.0,0.0,-0.0210526315789
1449618017662376267,0.220559117755,0.0,0.0,0.0,0.0,-0.0210526315789
1449618017809635633,0.213852105568,0.0,0.0,0.0,0.0,0.0
1449618017888530322,0.19757992378,0.0,0.0,0.0,0.0,-0.0631578947368
1449618018007110340,0.191838695931,0.0,0.0,0.0,0.0,-0.0631578947368
1449618018064074948,0.18323718959,0.0,0.0,0.0,0.0,-0.0631578947368
1449618018158173019,0.17655503263,0.0,0.0,0.0,0.0,-0.0631578947368
1449618018263964128,0.165107384714,0.0,0.0,0.0,0.0,-0.105263157895
1449618018333032099,0.352,0.0,0.0,0.0,0.0,-0.105263157895
1449618018418444669,0.352,0.0,0.0,0.0,0.0,-0.147368421053
1449618018520533783,0.352,0.0,0.0,0.0,0.0,-0.147368421053
1449618018591210132,0.352,0.0,0.0,0.0,0.0,-0.147368421053
1449618018666053042,0.352,0.0,0.0,0.0,0.0,-0.147368421053
1449618018746913130,0.352,0.0,0.0,0.0,0.0,-0.147368421053
1449618018846437828,0.352,0.0,0.0,0.0,0.0,-0.147368421053
1449618018943495070,0.352,0.0,0.0,0.0,0.0,-0.147368421053
1449618019006057527,0.352,0.0,0.0,0.0,0.0,-0.147368421053
1449618019081827260,0.350155155705,0.0,0.0,0.0,0.0,-0.147368421053
1449618019177118432,0.344560775981,0.0,0.0,0.0,0.0,-0.147368421053
1449618019259595081,0.338964548359,0.0,0.0,0.0,0.0,-0.147368421053
1449618019327699002,0.334304122922,0.0,0.0,0.0,0.0,-0.147368421053
1449618019436295840,0.330574717119,0.0,0.0,0.0,0.0,-0.147368421053
1449618019522579058,0.22249263907,0.0,0.0,0.0,0.0,-0.147368421053
1449618019610448929,0.218722191756,0.0,0.0,0.0,0.0,-0.147368421053
1449618019688700503,0.209274531772,0.0,0.0,0.0,0.0,-0.147368421053
1449618019758178375,0.205497064129,0.0,0.0,0.0,0.0,-0.147368421053
1449618019808862927,0.195101036199,0.0,0.0,0.0,0.0,-0.147368421053
1449618019867358406,0.192263370287,0.0,0.0,0.0,0.0,-0.147368421053
1449618019942263676,0.188481965102,0.0,0.0,0.0,0.0,-0.147368421053
1449618019975904728,0.182814331911,0.0,0.0,0.0,0.0,-0.147368421053
1449618020017539458,0.179977222506,0.0,0.0,0.0,0.0,-0.147368421053
1449618020063916992,0.176196619793,0.0,0.0,0.0,0.0,-0.147368421053
1449618020116685900,0.174307287785,0.0,0.0,0.0,0.0,-0.147368421053
1449618020164574170,0.167687320968,0.0,0.0,0.0,0.0,-0.147368421053
1449618020218107906,0.165797429061,0.0,0.0,0.0,0.0,-0.147368421053
1449618020278669686,0.16295848636,0.0,0.0,0.0,0.0,-0.147368421053
1449618020325175566,0.160126392499,0.0,0.0,0.0,0.0,-0.147368421053
1449618020377822265,0.155400873576,0.0,0.0,0.0,0.0,-0.147368421053
1449618020475214888,0.146809626425,0.0,0.0,0.0,0.0,-0.147368421053
1449618020556525794,0.14152126956,0.0,0.0,0.0,0.0,-0.147368421053
1449618020639045187,0.140010091987,0.0,0.0,0.0,0.0,-0.147368421053
1449618020693836203,0.135480545304,0.0,0.0,0.0,0.0,-0.189473684211
1449618020768919847,0.133972096953,0.0,0.0,0.0,0.0,-0.189473684211
1449618020850127395,0.130957672977,0.0,0.0,0.0,0.0,-0.189473684211
1449618020901226329,0.12595990669,0.0,0.0,0.0,0.0,-0.189473684211
1449618020969215209,0.123221179518,0.0,0.0,0.0,0.0,-0.189473684211
1449618021020930344,0.12,0.0,0.0,0.0,0.0,-0.189473684211
1449618021091096571,0.12,0.0,0.0,0.0,0.0,-0.189473684211
1449618021153177250,0.12,0.0,0.0,0.0,0.0,-0.189473684211
1449618021206508628,0.12,0.0,0.0,0.0,0.0,-0.189473684211
1449618021314158599,0.12,0.0,0.0,0.0,0.0,-0.189473684211
1449618021417025488,0.12,0.0,0.0,0.0,0.0,-0.189473684211
1449618021466108790,0.12,0.0,0.0,0.0,0.0,-0.273684210526
1449618021568769245,0.12,0.0,0.0,0.0,0.0,-0.273684210526
1449618021615401047,0.12,0.0,0.0,0.0,0.0,-0.189473684211
1449618021664623442,0.12,0.0,0.0,0.0,0.0,-0.357894736842
1449618021743173422,0.12,0.0,0.0,0.0,0.0,-0.231578947368
1449618021810107010,0.12,0.0,0.0,0.0,0.0,-0.189473684211
1449618021921163229,0.12,0.0,0.0,0.0,0.0,-0.357894736842
1449618022016098681,0.12,0.0,0.0,0.0,0.0,-0.189473684211
1449618022134788010,0.12,0.0,0.0,0.0,0.0,-0.189473684211
1449618022190024449,0.12,0.0,0.0,0.0,0.0,-0.189473684211
1449618022245838750,0.12,0.0,0.0,0.0,0.0,-0.273684210526
1449618022308341281,0.12,0.0,0.0,0.0,0.0,-0.273684210526
1449618022385728113,0.12,0.0,0.0,0.0,0.0,-0.189473684211
1449618022429371516,0.0,0.0,0.0,0.0,0.0,-0.357894736842
1449618022530208014,0.0,0.0,0.0,0.0,0.0,-0.357894736842
1449618022578594352,0.0,0.0,0.0,0.0,0.0,-0.4
1449618022641696758,0.0,0.0,0.0,0.0,0.0,-0.4
1449618022738811240,0.0,0.0,0.0,0.0,0.0,-0.4
1449618022805360779,0.0,0.0,0.0,0.0,0.0,-0.4
1449618022875825324,0.0,0.0,0.0,0.0,0.0,-0.4
1449618022883274227,0.0,0.0,0.0,0.0,0.0,0.0
1449618022890830682,0.0,0.0,0.0,0.0,0.0,0.0
1449618025087360620,0.126467117484,0.0,0.0,0.0,0.0,0.273684210526
1449618025150150633,0.126467117484,0.0,0.0,0.0,0.0,0.273684210526
1449618025222625223,0.126467117484,0.0,0.0,0.0,0.0,0.273684210526
1449618025270346266,0.126467117484,0.0,0.0,0.0,0.0,0.273684210526
1449618025366332968,0.126467117484,0.0,0.0,0.0,0.0,0.273684210526
1449618025463130835,0.126467117484,0.0,0.0,0.0,0.0,0.273684210526
1449618025542916553,0.126467117484,0.0,0.0,0.0,0.0,0.273684210526
1449618025623227852,0.126467117484,0.0,0.0,0.0,0.0,0.273684210526
1449618025718270005,0.126467117484,0.0,0.0,0.0,0.0,0.273684210526
1449618025797132889,0.126467117484,0.0,0.0,0.0,0.0,0.273684210526
1449618025878066401,0.126467117484,0.0,0.0,0.0,0.0,0.273684210526
1449618025939172562,0.126467117484,0.0,0.0,0.0,0.0,0.273684210526
1449618025998211324,0.120943785818,0.0,0.0,0.0,0.0,0.189473684211
1449618026040831575,0.120943785818,0.0,0.0,0.0,0.0,0.189473684211
1449618026085723603,0.12,0.0,0.0,0.0,0.0,0.189473684211
1449618026162940162,0.12,0.0,0.0,0.0,0.0,0.189473684211
1449618026256579449,0.12,0.0,0.0,0.0,0.0,0.189473684211
1449618026382566807,0.120416233897,0.0,0.0,0.0,0.0,0.231578947368
1449618026450924890,0.12,0.0,0.0,0.0,0.0,0.189473684211
1449618026559888919,0.12,0.0,0.0,0.0,0.0,0.189473684211
1449618026613841160,0.12,0.0,0.0,0.0,0.0,0.189473684211
1449618026693203046,0.12,0.0,0.0,0.0,0.0,0.231578947368
1449618026744738979,0.12,0.0,0.0,0.0,0.0,0.231578947368
1449618026782965791,0.12,0.0,0.0,0.0,0.0,0.315789473684
1449618026867600793,0.12,0.0,0.0,0.0,0.0,0.315789473684
1449618027025181614,0.12,0.0,0.0,0.0,0.0,0.315789473684
1449618027165659459,0.12,0.0,0.0,0.0,0.0,0.273684210526
1449618027252627069,0.12,0.0,0.0,0.0,0.0,0.315789473684
1449618027332098156,0.12,0.0,0.0,0.0,0.0,0.357894736842
1449618027433460848,0.12,0.0,0.0,0.0,0.0,0.357894736842
1449618027532004455,0.12,0.0,0.0,0.0,0.0,0.357894736842
1449618027618829232,0.12,0.0,0.0,0.0,0.0,0.315789473684
1449618027706258910,0.12,0.0,0.0,0.0,0.0,0.315789473684
1449618027774718048,0.12,0.0,0.0,0.0,0.0,0.315789473684
1449618027851265579,0.12,0.0,0.0,0.0,0.0,0.315789473684
1449618027895986255,0.12,0.0,0.0,0.0,0.0,0.273684210526
1449618028036035107,0.12,0.0,0.0,0.0,0.0,0.273684210526
1449618028144378094,0.12,0.0,0.0,0.0,0.0,0.273684210526
1449618028227421899,0.12,0.0,0.0,0.0,0.0,0.231578947368
1449618028285415701,0.12,0.0,0.0,0.0,0.0,0.231578947368
1449618028337617074,0.12,0.0,0.0,0.0,0.0,0.231578947368
1449618028419197606,0.12,0.0,0.0,0.0,0.0,0.231578947368
1449618028528602339,0.12,0.0,0.0,0.0,0.0,0.189473684211
1449618028632112894,0.12,0.0,0.0,0.0,0.0,0.189473684211
1449618028693118374,0.12,0.0,0.0,0.0,0.0,0.189473684211
1449618028779310842,0.12,0.0,0.0,0.0,0.0,0.147368421053
1449618028863819805,0.12,0.0,0.0,0.0,0.0,0.147368421053
1449618028937100256,0.12,0.0,0.0,0.0,0.0,0.105263157895
1449618028984882779,0.12,0.0,0.0,0.0,0.0,0.105263157895
1449618029086064967,0.12,0.0,0.0,0.0,0.0,0.105263157895
1449618029155832347,0.0,0.0,0.0,0.0,0.0,0.31
1449618029216923531,0.0,0.0,0.0,0.0,0.0,0.31
1449618029291507031,0.0,0.0,0.0,0.0,0.0,0.31
1449618029408044156,0.0,0.0,0.0,0.0,0.0,0.0
1449618029480470774,0.0,0.0,0.0,0.0,0.0,0.0
1449618029555183890,0.0,0.0,0.0,0.0,0.0,0.0
1449618029633178302,0.0,0.0,0.0,0.0,0.0,0.0
1449618029697359369,0.0,0.0,0.0,0.0,0.0,0.0
1449618029788791916,0.0,0.0,0.0,0.0,0.0,0.0
1449618029852877782,0.0,0.0,0.0,0.0,0.0,0.0
1449618029925859075,0.0,0.0,0.0,0.0,0.0,0.421536486688
1449618030004613117,0.0,0.0,0.0,0.0,0.0,0.410968438006
1449618030113419491,0.0,0.0,0.0,0.0,0.0,0.410968438006
1449618030192728731,0.0,0.0,0.0,0.0,0.0,0.4
1449618030257336281,0.0,0.0,0.0,0.0,0.0,0.4
1449618030350339500,0.0,0.0,0.0,0.0,0.0,0.4
1449618030431849445,0.0,0.0,0.0,0.0,0.0,0.4
1449618030515148675,0.121726651035,0.0,0.0,0.0,0.0,0.315789473684
1449618030621954293,0.12,0.0,0.0,0.0,0.0,0.315789473684
1449618030691722295,0.12,0.0,0.0,0.0,0.0,0.273684210526
1449618030739784072,0.12,0.0,0.0,0.0,0.0,0.23290592294
1449618030798772435,0.12,0.0,0.0,0.0,0.0,0.205256516369
1449618030862947405,0.12,0.0,0.0,0.0,0.0,0.244205213095
1449618030917263103,0.12,0.0,0.0,0.0,0.0,0.157961293396
1449618030999369692,0.12,0.0,0.0,0.0,0.0,0.233079146586
1449618031080930786,0.12,0.0,0.0,0.0,0.0,0.233083739281
1449618031153302833,0.12,0.0,0.0,0.0,0.0,0.273684210526
1449618031221800833,0.12,0.0,0.0,0.0,0.0,0.273684210526
1449618031303010101,0.12,0.0,0.0,0.0,0.0,0.315789473684
1449618031383886950,0.12,0.0,0.0,0.0,0.0,0.273684210526
1449618031458826146,0.12,0.0,0.0,0.0,0.0,0.357894736842
1449618031512464165,0.12,0.0,0.0,0.0,0.0,0.357894736842
1449618031560010404,0.12,0.0,0.0,0.0,0.0,0.315789473684
1449618031597136576,0.0,0.0,0.0,0.0,0.0,-0.315789473684
1449618031698450402,0.0,0.0,0.0,0.0,0.0,0.31
1449618031766252555,0.0,0.0,0.0,0.0,0.0,0.357894736842
1449618031825393585,0.0,0.0,0.0,0.0,0.0,0.441300770562
1449618031917354842,0.0,0.0,0.0,0.0,0.0,0.43073272188
1449618031985478558,0.0,0.0,0.0,0.0,0.0,0.409596624517
1449618032023531855,0.0,0.0,0.0,0.0,0.0,0.409596624517
1449618032098896028,0.0,0.0,0.0,0.0,0.0,0.4
1449618032162363256,0.0,0.0,0.0,0.0,0.0,0.4
1449618032252088278,0.0,0.0,0.0,0.0,0.0,0.4
1449618032329862859,0.0,0.0,0.0,0.0,0.0,0.4
1449618032419576553,0.0,0.0,0.0,0.0,0.0,0.4
1449618032534733363,0.0,0.0,0.0,0.0,0.0,0.4
1449618032585577352,0.0,0.0,0.0,0.0,0.0,0.4
1449618032641227012,0.0,0.0,0.0,0.0,0.0,0.4
1449618032725891589,0.0,0.0,0.0,0.0,0.0,0.4
1449618032788493375,0.0,0.0,0.0,0.0,0.0,0.4
1449618032860725492,0.0,0.0,0.0,0.0,0.0,0.4
1449618032941191085,0.0,0.0,0.0,0.0,0.0,0.4
1449618033000625294,0.0,0.0,0.0,0.0,0.0,0.4
1449618033082467543,0.0,0.0,0.0,0.0,0.0,0.4
1449618033138658551,0.0,0.0,0.0,0.0,0.0,0.4
1449618033224456081,0.0,0.0,0.0,0.0,0.0,0.4
1449618033280235265,0.0,0.0,0.0,0.0,0.0,0.4
1449618033357767016,0.0,0.0,0.0,0.0,0.0,0.4
1449618033411571023,0.0,0.0,0.0,0.0,0.0,0.4
1449618033479081596,0.0,0.0,0.0,0.0,0.0,0.4
1449618033579404430,0.0,0.0,0.0,0.0,0.0,0.4
1449618033643928943,0.0,0.0,0.0,0.0,0.0,0.4
1449618033719837322,0.0,0.0,0.0,0.0,0.0,0.4
1449618033809454562,0.0,0.0,0.0,0.0,0.0,0.4
1449618033877421781,0.0,0.0,0.0,0.0,0.0,0.4
1449618033930217184,0.0,0.0,0.0,0.0,0.0,0.4
1449618034022868942,0.0,0.0,0.0,0.0,0.0,0.4
1449618034113840470,0.0,0.0,0.0,0.0,0.0,0.4
1449618034217996539,0.0,0.0,0.0,0.0,0.0,0.4
1449618034317324058,0.0,0.0,0.0,0.0,0.0,0.4
1449618034407040843,0.0,0.0,0.0,0.0,0.0,0.4
1449618034484974074,0.0,0.0,0.0,0.0,0.0,0.4
1449618034570471414,0.0,0.0,0.0,0.0,0.0,0.4
1449618034617510576,0.0,0.0,0.0,0.0,0.0,0.4
1449618034689900830,0.0,0.0,0.0,0.0,0.0,0.4
1449618034763769258,0.0,0.0,0.0,0.0,0.0,0.4
1449618034818882561,0.0,0.0,0.0,0.0,0.0,0.4
1449618034897945371,0.0,0.0,0.0,0.0,0.0,0.4
1449618034984690967,0.0,0.0,0.0,0.0,0.0,0.4
1449618035043028224,0.0,0.0,0.0,0.0,0.0,0.4
1449618035120161915,0.0,0.0,0.0,0.0,0.0,0.4
1449618035176828420,0.0,0.0,0.0,0.0,0.0,0.4
1449618035224867765,0.0,0.0,0.0,0.0,0.0,0.4
1449618035288517231,0.0,0.0,0.0,0.0,0.0,0.4
1449618035393240331,0.0,0.0,0.0,0.0,0.0,0.4
1449618035451296464,0.0,0.0,0.0,0.0,0.0,0.4
1449618035512823506,0.0,0.0,0.0,0.0,0.0,0.4
1449618035569062449,0.0,0.0,0.0,0.0,0.0,0.4
1449618035624123056,0.0,0.0,0.0,0.0,0.0,0.4
1449618035689442771,0.0,0.0,0.0,0.0,0.0,0.4
1449618035776924402,0.0,0.0,0.0,0.0,0.0,0.4
1449618035829581881,0.0,0.0,0.0,0.0,0.0,0.4
1449618035886971077,0.0,0.0,0.0,0.0,0.0,0.4
1449618035898276236,0.0,0.0,0.0,0.0,0.0,0.0
1449618035968924997,0.0,0.0,0.0,0.0,0.0,0.4
1449618036021428471,0.0,0.0,0.0,0.0,0.0,0.4
1449618036066371930,0.0,0.0,0.0,0.0,0.0,0.4
1449618036117118004,0.0,0.0,0.0,0.0,0.0,0.4
1449618036178732966,0.0,0.0,0.0,0.0,0.0,0.4
1449618036241840592,0.0,0.0,0.0,0.0,0.0,0.4
1449618036281397280,0.0,0.0,0.0,0.0,0.0,0.4
1449618036397097088,0.0,0.0,0.0,0.0,0.0,0.4
1449618036487554466,0.0,0.0,0.0,0.0,0.0,0.4
1449618036553662089,0.0,0.0,0.0,0.0,0.0,0.4
1449618036608069136,0.0,0.0,0.0,0.0,0.0,0.4
1449618036675666031,0.0,0.0,0.0,0.0,0.0,0.4
1449618036742278578,0.0,0.0,0.0,0.0,0.0,0.4
1449618036798467870,0.0,0.0,0.0,0.0,0.0,0.4
1449618036857434875,0.0,0.0,0.0,0.0,0.0,0.4
1449618036935438799,0.0,0.0,0.0,0.0,0.0,0.4
1449618037019392772,0.0,0.0,0.0,0.0,0.0,0.4
1449618037080718054,0.0,0.0,0.0,0.0,0.0,0.4
1449618037146012212,0.0,0.0,0.0,0.0,0.0,0.4
1449618037218235911,0.0,0.0,0.0,0.0,0.0,0.4
1449618037281528120,0.0,0.0,0.0,0.0,0.0,0.4
1449618037357622272,0.0,0.0,0.0,0.0,0.0,0.4
1449618037408989492,0.0,0.0,0.0,0.0,0.0,0.4
1449618037471321814,0.0,0.0,0.0,0.0,0.0,0.4
1449618037541966171,0.0,0.0,0.0,0.0,0.0,0.4
1449618037626709443,0.0,0.0,0.0,0.0,0.0,0.4
1449618037688649639,0.0,0.0,0.0,0.0,0.0,0.4
1449618037749745587,0.0,0.0,0.0,0.0,0.0,0.4
1449618037822837336,0.0,0.0,0.0,0.0,0.0,0.4
1449618037909351022,0.0,0.0,0.0,0.0,0.0,0.4
1449618037970281819,0.0,0.0,0.0,0.0,0.0,0.4
1449618038053758558,0.0,0.0,0.0,0.0,0.0,0.4
1449618038101888250,0.0,0.0,0.0,0.0,0.0,0.357894736842
1449618038167326053,0.0,0.0,0.0,0.0,0.0,0.357894736842
1449618038239358712,0.0,0.0,0.0,0.0,0.0,0.357894736842
1449618038309203164,0.0,0.0,0.0,0.0,0.0,0.357894736842
1449618038399950003,0.0,0.0,0.0,0.0,0.0,0.31
1449618038445823402,0.0,0.0,0.0,0.0,0.0,0.31
1449618038503784464,0.0,0.0,0.0,0.0,0.0,0.315789473684
1449618038560689098,0.0,0.0,0.0,0.0,0.0,0.31
1449618038610475135,0.0,0.0,0.0,0.0,0.0,0.31
1449618038674589211,0.0,0.0,0.0,0.0,0.0,0.315789473684
1449618038711358804,0.0,0.0,0.0,0.0,0.0,0.31
1449618038781784503,0.0,0.0,0.0,0.0,0.0,0.31
1449618038836178751,0.0,0.0,0.0,0.0,0.0,0.31
1449618038901557924,0.0,0.0,0.0,0.0,0.0,0.31
1449618038963658418,0.0,0.0,0.0,0.0,0.0,0.31
1449618039007682348,0.0,0.0,0.0,0.0,0.0,0.31
1449618039055946837,0.0,0.0,0.0,0.0,0.0,0.315789473684
1449618039110317595,0.0,0.0,0.0,0.0,0.0,0.31
1449618039167375811,0.0,0.0,0.0,0.0,0.0,0.315789473684
1449618039211617374,0.0,0.0,0.0,0.0,0.0,0.31
1449618039267413717,0.0,0.0,0.0,0.0,0.0,0.31
1449618039343134734,0.0,0.0,0.0,0.0,0.0,0.357894736842
1449618039389060772,0.0,0.0,0.0,0.0,0.0,0.31
1449618039472801123,0.0,0.0,0.0,0.0,0.0,0.31
1449618039545217198,0.0,0.0,0.0,0.0,0.0,0.315789473684
1449618039859668255,0.0,0.0,0.0,0.0,0.0,0.357894736842
1449618039890922268,0.0,0.0,0.0,0.0,0.0,0.0
1449618040006583495,0.0,0.0,0.0,0.0,0.0,0.4
1449618040106988955,0.0,0.0,0.0,0.0,0.0,0.4
1449618040173020598,0.0,0.0,0.0,0.0,0.0,0.4
1449618040216481119,0.0,0.0,0.0,0.0,0.0,0.4
1449618040272813859,0.0,0.0,0.0,0.0,0.0,0.4
1449618040382293868,0.0,0.0,0.0,0.0,0.0,0.31
1449618040442631211,0.0,0.0,0.0,0.0,0.0,0.31
1449618040496719052,0.0,0.0,0.0,0.0,0.0,0.315789473684
1449618040568608757,0.0,0.0,0.0,0.0,0.0,0.31
1449618040632024598,0.0,0.0,0.0,0.0,0.0,0.31
1449618040719317112,0.0,0.0,0.0,0.0,0.0,0.31
1449618040825833824,0.0,0.0,0.0,0.0,0.0,0.31
1449618040900480761,0.0,0.0,0.0,0.0,0.0,0.31
1449618040972737865,0.0,0.0,0.0,0.0,0.0,0.31
1449618041044792279,0.0,0.0,0.0,0.0,0.0,0.315789473684
1449618041099313866,0.0,0.0,0.0,0.0,0.0,0.31
1449618041179730500,0.0,0.0,0.0,0.0,0.0,0.31
1449618041235345801,0.0,0.0,0.0,0.0,0.0,0.315789473684
1449618041287144383,0.0,0.0,0.0,0.0,0.0,0.31
1449618041363354998,0.0,0.0,0.0,0.0,0.0,0.357894736842
1449618041440538550,0.0,0.0,0.0,0.0,0.0,0.357894736842
1449618041515979723,0.0,0.0,0.0,0.0,0.0,0.357894736842
1449618041606603255,0.0,0.0,0.0,0.0,0.0,0.357894736842
1449618041690360574,0.0,0.0,0.0,0.0,0.0,0.4
1449618041758353940,0.0,0.0,0.0,0.0,0.0,0.4
1449618041833272810,0.0,0.0,0.0,0.0,0.0,0.4
1449618041911184398,0.0,0.0,0.0,0.0,0.0,0.4
1449618041968751445,0.0,0.0,0.0,0.0,0.0,0.4
1449618042055837114,0.0,0.0,0.0,0.0,0.0,0.4
1449618042130343109,0.0,0.0,0.0,0.0,0.0,0.4
1449618042213046983,0.0,0.0,0.0,0.0,0.0,0.4
1449618042300237424,0.0,0.0,0.0,0.0,0.0,0.4
1449618042367514535,0.0,0.0,0.0,0.0,0.0,0.4
1449618042437839915,0.0,0.0,0.0,0.0,0.0,0.4
1449618042487996003,0.0,0.0,0.0,0.0,0.0,0.4
1449618042543040206,0.0,0.0,0.0,0.0,0.0,0.4
1449618042650771194,0.0,0.0,0.0,0.0,0.0,0.4
1449618042705892803,0.0,0.0,0.0,0.0,0.0,0.4
1449618042810691963,0.0,0.0,0.0,0.0,0.0,0.4
1449618042862129025,0.0,0.0,0.0,0.0,0.0,0.4
1449618042924560443,0.0,0.0,0.0,0.0,0.0,0.4
1449618043000865904,0.0,0.0,0.0,0.0,0.0,0.4
1449618043047242216,0.0,0.0,0.0,0.0,0.0,0.4
1449618043109586555,0.0,0.0,0.0,0.0,0.0,0.4
1449618043198219056,0.0,0.0,0.0,0.0,0.0,0.4
1449618043270724808,0.0,0.0,0.0,0.0,0.0,0.4
1449618043336329367,0.0,0.0,0.0,0.0,0.0,0.4
1449618043407901169,0.0,0.0,0.0,0.0,0.0,0.4
1449618043492014764,0.0,0.0,0.0,0.0,0.0,0.4
1449618043599804384,0.0,0.0,0.0,0.0,0.0,0.4
1449618043686906297,0.0,0.0,0.0,0.0,0.0,0.4
1449618043692379847,0.0,0.0,0.0,0.0,0.0,0.0
1449618043793926650,0.12,0.0,0.0,0.0,0.0,0.357894736842
1449618043824464045,0.12,0.0,0.0,0.0,0.0,0.357894736842
1449618043924028112,0.12,0.0,0.0,0.0,0.0,0.357894736842
1449618044038357926,0.0,0.0,0.0,0.0,0.0,0.31
1449618044141994172,0.0,0.0,0.0,0.0,0.0,0.31
1449618044217784653,0.0,0.0,0.0,0.0,0.0,0.357894736842
1449618044310847031,0.0,0.0,0.0,0.0,0.0,0.357894736842
1449618044368458731,0.0,0.0,0.0,0.0,0.0,0.4
1449618044422177126,0.0,0.0,0.0,0.0,0.0,0.4
1449618044484236321,0.0,0.0,0.0,0.0,0.0,0.4
1449618044615935421,0.0,0.0,0.0,0.0,0.0,0.4
1449618044684402021,0.0,0.0,0.0,0.0,0.0,0.4
1449618044770732960,0.0,0.0,0.0,0.0,0.0,0.4
1449618044822074804,0.0,0.0,0.0,0.0,0.0,0.4
1449618044899889633,0.0,0.0,0.0,0.0,0.0,0.4
1449618044967102641,0.0,0.0,0.0,0.0,0.0,0.4
1449618045032703007,0.0,0.0,0.0,0.0,0.0,0.4
1449618045103438436,0.0,0.0,0.0,0.0,0.0,0.4
1449618045196359335,0.0,0.0,0.0,0.0,0.0,0.4
1449618045242305885,0.0,0.0,0.0,0.0,0.0,0.4
1449618045337323886,0.0,0.0,0.0,0.0,0.0,0.4
1449618045411276681,0.0,0.0,0.0,0.0,0.0,0.4
1449618045490478778,0.0,0.0,0.0,0.0,0.0,0.4
1449618045579840338,0.0,0.0,0.0,0.0,0.0,0.4
1449618045727786133,0.199576831297,0.0,0.0,0.0,0.0,0.231578947368
1449618045805051578,0.18955462834,0.0,0.0,0.0,0.0,0.273684210526
1449618045867503723,0.182293827591,0.0,0.0,0.0,0.0,0.273684210526
1449618045979819039,0.180484056463,0.0,0.0,0.0,0.0,0.273684210526
1449618046055580969,0.171425611326,0.0,0.0,0.0,0.0,0.273684210526
1449618046154427631,0.164202972263,0.0,0.0,0.0,0.0,0.273684210526
1449618046227893903,0.158785962446,0.0,0.0,0.0,0.0,0.273684210526
1449618046288757944,0.152462867516,0.0,0.0,0.0,0.0,0.273684210526
1449618046382837916,0.146157131345,0.0,0.0,0.0,0.0,0.273684210526
1449618046442613411,0.13589132088,0.0,0.0,0.0,0.0,0.315789473684
1449618046485824753,0.133747365617,0.0,0.0,0.0,0.0,0.315789473684
1449618046540691927,0.126010841739,0.0,0.0,0.0,0.0,0.315789473684
1449618046618187269,0.12129150553,0.0,0.0,0.0,0.0,0.357894736842
1449618046681070515,0.120890782662,0.0,0.0,0.0,0.0,0.315789473684
1449618046776681587,0.12,0.0,0.0,0.0,0.0,0.273684210526
1449618046828452783,0.12,0.0,0.0,0.0,0.0,0.315789473684
1449618046920330636,0.12,0.0,0.0,0.0,0.0,0.315789473684
1449618046961459599,0.12,0.0,0.0,0.0,0.0,0.273684210526
1449618047053516283,0.12,0.0,0.0,0.0,0.0,0.315789473684
1449618047114716976,0.12,0.0,0.0,0.0,0.0,0.273684210526
1449618047195449272,0.12,0.0,0.0,0.0,0.0,0.231578947368
1449618047254155453,0.12,0.0,0.0,0.0,0.0,0.273684210526
1449618047314475799,0.12,0.0,0.0,0.0,0.0,0.231578947368
1449618047418582935,0.12,0.0,0.0,0.0,0.0,0.231578947368
1449618047498160943,0.12,0.0,0.0,0.0,0.0,0.231578947368
1449618047531290034,0.12,0.0,0.0,0.0,0.0,0.189473684211
1449618047582766514,0.12,0.0,0.0,0.0,0.0,0.189473684211
1449618047679886303,0.12,0.0,0.0,0.0,0.0,0.147368421053
1449618047854732494,0.0,0.0,0.0,0.0,0.0,0.357894736842
1449618047970211155,0.0,0.0,0.0,0.0,0.0,0.357894736842
1449618047970222543,0.0,0.0,0.0,0.0,0.0,0.0
1449618048004364745,0.0,0.0,0.0,0.0,0.0,0.0
1449618049055663924,0.352,0.0,0.0,0.0,0.0,0.105263157895
1449618049126289218,0.352,0.0,0.0,0.0,0.0,0.105263157895
1449618049196211940,0.352,0.0,0.0,0.0,0.0,0.105263157895
1449618049304789963,0.352,0.0,0.0,0.0,0.0,0.105263157895
1449618049389136764,0.352,0.0,0.0,0.0,0.0,0.105263157895
1449618049480136114,0.352,0.0,0.0,0.0,0.0,0.105263157895
1449618049576902354,0.352,0.0,0.0,0.0,0.0,0.105263157895
1449618049688198692,0.352,0.0,0.0,0.0,0.0,0.105263157895
1449618049787377518,0.352,0.0,0.0,0.0,0.0,0.105263157895
1449618049934354663,0.352,0.0,0.0,0.0,0.0,0.105263157895
1449618050019298750,0.352,0.0,0.0,0.0,0.0,0.105263157895
1449618050125605989,0.352,0.0,0.0,0.0,0.0,0.105263157895
1449618050179673873,0.352,0.0,0.0,0.0,0.0,0.105263157895
1449618050252126607,0.352,0.0,0.0,0.0,0.0,0.105263157895
1449618050338645686,0.352,0.0,0.0,0.0,0.0,0.0631578947368
1449618050466839890,0.352,0.0,0.0,0.0,0.0,0.0631578947368
1449618050559258579,0.352,0.0,0.0,0.0,0.0,0.0631578947368
1449618050630815665,0.25505160628,0.0,0.0,0.0,0.0,0.0210526315789
1449618050688634610,0.25505160628,0.0,0.0,0.0,0.0,0.0210526315789
1449618050736218054,0.24353249544,0.0,0.0,0.0,0.0,0.0210526315789
1449618050796848661,0.239692843932,0.0,0.0,0.0,0.0,0.0210526315789
1449618050881857510,0.236813040293,0.0,0.0,0.0,0.0,0.0210526315789
1449618050933456354,0.228174325468,0.0,0.0,0.0,0.0,0.0
1449618050986271115,0.221456407961,0.0,0.0,0.0,0.0,0.0
1449618051127951413,0.239081363257,0.0,0.0,0.0,0.0,0.0210526315789
1449618051198346917,0.230442081767,0.0,0.0,0.0,0.0,0.0
1449618051261695120,0.227562377758,0.0,0.0,0.0,0.0,0.0210526315789
1449618051343776822,0.218923127141,0.0,0.0,0.0,0.0,0.0
1449618051415348461,0.211244403111,0.0,0.0,0.0,0.0,0.0
1449618051500811861,0.204525992968,0.0,0.0,0.0,0.0,0.0
1449618051545860737,0.194929943196,0.0,0.0,0.0,0.0,0.0
1449618051638964190,0.19205153844,0.0,0.0,0.0,0.0,0.0
1449618051736638426,0.18341525215,0.0,0.0,0.0,0.0,0.0
1449618051802016808,0.170943244777,0.0,0.0,0.0,0.0,-0.0210526315789
1449618051893964637,0.1642301724,0.0,0.0,0.0,0.0,-0.0210526315789
1449618051960484080,0.156557553291,0.0,0.0,0.0,0.0,-0.0210526315789
1449618052040663025,0.146970602291,0.0,0.0,0.0,0.0,-0.0210526315789
1449618052143550351,0.140263913692,0.0,0.0,0.0,0.0,-0.0210526315789
1449618052259034192,0.132598982841,0.0,0.0,0.0,0.0,-0.0210526315789
1449618052316098104,0.12,0.0,0.0,0.0,0.0,-0.0631578947368
1449618052384756505,0.12,0.0,0.0,0.0,0.0,-0.0631578947368
1449618052423592818,0.12,0.0,0.0,0.0,0.0,-0.0631578947368
1449618052472429621,0.12,0.0,0.0,0.0,0.0,-0.105263157895
1449618052597922284,0.12,0.0,0.0,0.0,0.0,-0.0631578947368
1449618052676924857,0.12,0.0,0.0,0.0,0.0,0.0
1449618052737647686,0.12,0.0,0.0,0.0,0.0,-0.147368421053
1449618052868389634,0.12,0.0,0.0,0.0,0.0,-0.105263157895
1449618053006576759,0.0,0.0,0.0,0.0,0.0,-0.4
1449618053092882068,0.0,0.0,0.0,0.0,0.0,-0.4
1449618053100206568,0.0,0.0,0.0,0.0,0.0,0.0
1449618053106425205,0.0,0.0,0.0,0.0,0.0,0.0
1449618054073816896,0.289803965037,0.0,0.0,0.0,0.0,0.0
1449618054151185834,0.284044679267,0.0,0.0,0.0,0.0,0.0
1449618054215250188,0.276365567292,0.0,0.0,0.0,0.0,0.0
1449618054259409990,0.269647259981,0.0,0.0,0.0,0.0,0.0
1449618054319878746,0.265808428826,0.0,0.0,0.0,0.0,0.0
1449618054444166787,0.259089838933,0.0,0.0,0.0,0.0,0.0
1449618054541238861,0.253330563003,0.0,0.0,0.0,0.0,0.0
1449618054620803654,0.242772303074,0.0,0.0,0.0,0.0,0.0
1449618054684385381,0.235094698666,0.0,0.0,0.0,0.0,0.0
1449618054729369066,0.23221510678,0.0,0.0,0.0,0.0,0.0
1449618054790783169,0.225495899625,0.0,0.0,0.0,0.0,0.0
1449618054837048736,0.222616320147,0.0,0.0,0.0,0.0,0.0
1449618054925768197,0.183060861206,0.0,0.0,0.0,0.0,-0.0631578947368
1449618055011580880,0.154901996216,0.0,0.0,0.0,0.0,-0.0631578947368
1449618055094266327,0.162665882956,0.0,0.0,0.0,0.0,-0.0631578947368
1449618055143797341,0.170918286406,0.0,0.0,0.0,0.0,-0.0631578947368
1449618055233238317,0.1575650092,0.0,0.0,0.0,0.0,-0.0631578947368
1449618055286327149,0.154417220502,0.0,0.0,0.0,0.0,-0.0631578947368
1449618055358898245,0.15193290771,0.0,0.0,0.0,0.0,-0.0631578947368
1449618055446660565,0.156088135351,0.0,0.0,0.0,0.0,-0.105263157895
1449618055536960260,0.153058824473,0.0,0.0,0.0,0.0,-0.0631578947368
1449618055650756103,0.150796872906,0.0,0.0,0.0,0.0,-0.105263157895
1449618055700041704,0.147081217262,0.0,0.0,0.0,0.0,-0.0631578947368
1449618055798094058,0.146344447936,0.0,0.0,0.0,0.0,-0.0631578947368
1449618055853741065,0.143430077977,0.0,0.0,0.0,0.0,-0.105263157895
1449618055907894771,0.13758884182,0.0,0.0,0.0,0.0,-0.105263157895
1449618055937556722,0.13758884182,0.0,0.0,0.0,0.0,-0.105263157895
1449618055998642791,0.136442745518,0.0,0.0,0.0,0.0,-0.0631578947368
1449618056052316834,0.136442745518,0.0,0.0,0.0,0.0,-0.0631578947368
1449618056167317544,0.127653013746,0.0,0.0,0.0,0.0,-0.105263157895
1449618056241239769,0.126530977253,0.0,0.0,0.0,0.0,-0.105263157895
1449618056332869729,0.190776651774,0.0,0.0,0.0,0.0,-0.147368421053
1449618056369631866,0.188957044558,0.0,0.0,0.0,0.0,-0.105263157895
1449618056447233356,0.188049710319,0.0,0.0,0.0,0.0,-0.147368421053
1449618056522020598,0.187139440192,0.0,0.0,0.0,0.0,-0.105263157895
1449618056635788844,0.185323897606,0.0,0.0,0.0,0.0,-0.147368421053
1449618056735527659,0.184418672526,0.0,0.0,0.0,0.0,-0.147368421053
1449618056797966281,0.181695857475,0.0,0.0,0.0,0.0,-0.147368421053
1449618056878094634,0.18079285151,0.0,0.0,0.0,0.0,-0.147368421053
1449618057002436155,0.178076693131,0.0,0.0,0.0,0.0,-0.189473684211
1449618057066593113,0.172660465363,0.0,0.0,0.0,0.0,-0.0631578947368
1449618057128199875,0.170860047068,0.0,0.0,0.0,0.0,-0.0631578947368
1449618057273028079,0.294719431702,0.0,0.0,0.0,0.0,-0.0631578947368
1449618057413787621,0.227624810528,0.0,0.0,0.0,0.0,-0.0210526315789
1449618057455482551,0.222831300549,0.0,0.0,0.0,0.0,-0.0210526315789
1449618057507636037,0.220913526934,0.0,0.0,0.0,0.0,-0.0210526315789
1449618057571866912,0.215162052379,0.0,0.0,0.0,0.0,-0.0210526315789
1449618057620557324,0.214203768798,0.0,0.0,0.0,0.0,-0.0210526315789
1449618057685892177,0.211327353628,0.0,0.0,0.0,0.0,-0.0210526315789
1449618057801837363,0.205574956008,0.0,0.0,0.0,0.0,-0.0210526315789
1449618057886420443,0.201740262008,0.0,0.0,0.0,0.0,-0.0210526315789
1449618057943118375,0.19982297046,0.0,0.0,0.0,0.0,-0.0210526315789
1449618057947662644,0.0,0.0,0.0,0.0,0.0,0.0
1449618058002530438,0.0,0.0,0.0,0.0,0.0,0.0
1449618058048252880,0.0,0.0,0.0,0.0,0.0,0.0
1449618058132786930,0.0,0.0,0.0,0.0,0.0,0.0
1449618058182884666,0.0,0.0,0.0,0.0,0.0,0.0
1449618058221475064,0.0,0.0,0.0,0.0,0.0,0.0
1449618058271567776,0.0,0.0,0.0,0.0,0.0,0.0
1449618058304856465,0.0,0.0,0.0,0.0,0.0,0.0
1449618058353722571,0.0,0.0,0.0,0.0,0.0,0.0
1449618058437222621,0.0,0.0,0.0,0.0,0.0,0.0
1449618058487585503,0.0,0.0,0.0,0.0,0.0,0.0
1449618058557753546,0.0,0.0,0.0,0.0,0.0,0.0
1449618058604904267,0.0,0.0,0.0,0.0,0.0,0.0
1449618058685931048,0.0,0.0,0.0,0.0,0.0,0.0
1449618058785600837,0.0,0.0,0.0,0.0,0.0,0.0
1449618058836354737,0.0,0.0,0.0,0.0,0.0,0.0
1449618058889721037,0.0,0.0,0.0,0.0,0.0,0.0
1449618058994263792,0.0,0.0,0.0,0.0,0.0,0.0
1449618059039907907,0.0,0.0,0.0,0.0,0.0,0.0
1449618059098157826,0.0,0.0,0.0,0.0,0.0,0.0
1449618059194663765,0.0,0.0,0.0,0.0,0.0,0.0
1449618059245558880,0.0,0.0,0.0,0.0,0.0,0.0
1449618059326009844,0.0,0.0,0.0,0.0,0.0,0.0
1449618059476387134,0.0,0.0,0.0,0.0,0.0,0.0
1449618059662303960,0.0,0.0,0.0,0.0,0.0,0.4
1449618059744243536,0.0,0.0,0.0,0.0,0.0,0.4
1449618059812369996,0.0,0.0,0.0,0.0,0.0,0.4
1449618059882025364,0.0,0.0,0.0,0.0,0.0,0.4
1449618059961612445,0.0,0.0,0.0,0.0,0.0,0.4
1449618060058226644,0.0,0.0,0.0,0.0,0.0,0.4
1449618060134511805,0.0,0.0,0.0,0.0,0.0,0.4
1449618060216396107,0.0,0.0,0.0,0.0,0.0,0.4
1449618060256267766,0.0,0.0,0.0,0.0,0.0,0.4
1449618060325104017,0.0,0.0,0.0,0.0,0.0,0.4
1449618060402713333,0.0,0.0,0.0,0.0,0.0,0.4
1449618060451697228,0.0,0.0,0.0,0.0,0.0,0.4
1449618060564983679,0.0,0.0,0.0,0.0,0.0,0.4
1449618060621882681,0.0,0.0,0.0,0.0,0.0,0.4
1449618060672973740,0.0,0.0,0.0,0.0,0.0,0.4
1449618060783639458,0.0,0.0,0.0,0.0,0.0,0.4
1449618060830429184,0.0,0.0,0.0,0.0,0.0,0.4
1449618060886941821,0.0,0.0,0.0,0.0,0.0,0.4
1449618061000765642,0.0,0.0,0.0,0.0,0.0,0.4
1449618061073759668,0.0,0.0,0.0,0.0,0.0,0.4
1449618061159302258,0.0,0.0,0.0,0.0,0.0,0.4
1449618061214046493,0.0,0.0,0.0,0.0,0.0,0.4
1449618061282220321,0.12,0.0,0.0,0.0,0.0,-0.0631578947368
1449618061408248455,0.12,0.0,0.0,0.0,0.0,-0.105263157895
1449618061468368443,0.12,0.0,0.0,0.0,0.0,-0.0631578947368
1449618061535968678,0.12,0.0,0.0,0.0,0.0,0.0
1449618061584221958,0.12,0.0,0.0,0.0,0.0,0.0
1449618061637831251,0.12,0.0,0.0,0.0,0.0,-0.0210526315789
1449618061641706617,0.0,0.0,0.0,0.0,0.0,0.0
1449618061659820955,0.0,0.0,0.0,0.0,0.0,0.0
1449618066933525560,0.0,0.0,0.0,0.0,0.0,-0.315789473684
1449618067009511879,0.0,0.0,0.0,0.0,0.0,-0.4
1449618067081997278,0.0,0.0,0.0,0.0,0.0,-0.4
1449618067156319272,0.0,0.0,0.0,0.0,0.0,-0.4
1449618067209829038,0.0,0.0,0.0,0.0,0.0,-0.4
1449618067300197503,0.0,0.0,0.0,0.0,0.0,-0.4
1449618067355614363,0.0,0.0,0.0,0.0,0.0,-0.4
1449618067444403754,0.0,0.0,0.0,0.0,0.0,-0.4
1449618067487783143,0.0,0.0,0.0,0.0,0.0,-0.4
1449618067559557213,0.0,0.0,0.0,0.0,0.0,-0.4
1449618067629787943,0.0,0.0,0.0,0.0,0.0,-0.4
1449618067703709111,0.0,0.0,0.0,0.0,0.0,-0.4
1449618067761510093,0.0,0.0,0.0,0.0,0.0,-0.4
1449618067866340790,0.0,0.0,0.0,0.0,0.0,-0.4
1449618067957042265,0.0,0.0,0.0,0.0,0.0,-0.4
1449618068032867988,0.0,0.0,0.0,0.0,0.0,-0.4
1449618068126476975,0.0,0.0,0.0,0.0,0.0,-0.4
1449618068183020278,0.0,0.0,0.0,0.0,0.0,-0.4
1449618068247921701,0.0,0.0,0.0,0.0,0.0,-0.4
1449618068303101340,0.0,0.0,0.0,0.0,0.0,-0.4
1449618068357802757,0.0,0.0,0.0,0.0,0.0,-0.4
1449618068436030848,0.0,0.0,0.0,0.0,0.0,-0.4
1449618068477536630,0.0,0.0,0.0,0.0,0.0,-0.392829588652
1449618068559821425,0.0,0.0,0.0,0.0,0.0,-0.392829588652
1449618068641686809,0.0,0.0,0.0,0.0,0.0,-0.4
1449618068699672955,0.0,0.0,0.0,0.0,0.0,-0.393052688837
1449618068808599301,0.0,0.0,0.0,0.0,0.0,-0.4
1449618068879124542,0.0,0.0,0.0,0.0,0.0,-0.4
1449618068921827228,0.0,0.0,0.0,0.0,0.0,-0.392992339134
1449618069014238350,0.0,0.0,0.0,0.0,0.0,-0.4
1449618069122779236,0.0,0.0,0.0,0.0,0.0,-0.357894736842
1449618069181989717,0.0,0.0,0.0,0.0,0.0,-0.4
1449618069240874811,0.0,0.0,0.0,0.0,0.0,-0.31
1449618069300565574,0.0,0.0,0.0,0.0,0.0,-0.326195569666
1449618069400098930,0.0,0.0,0.0,0.0,0.0,-0.31
1449618069469707070,0.0,0.0,0.0,0.0,0.0,-0.31
1449618069563940280,0.0,0.0,0.0,0.0,0.0,-0.31
1449618069628138193,0.12,0.0,0.0,0.0,0.0,0.359654672334
1449618069682688116,0.12,0.0,0.0,0.0,0.0,0.359655066038
1449618069733337429,0.12,0.0,0.0,0.0,0.0,0.357894736842
1449618069829417817,0.12,0.0,0.0,0.0,0.0,0.359653188492
1449618069884500133,0.12,0.0,0.0,0.0,0.0,0.316526582618
1449618069947967363,0.12,0.0,0.0,0.0,0.0,0.358263291309
1449618070057374264,0.12,0.0,0.0,0.0,0.0,0.357894736842
1449618070111424957,0.12,0.0,0.0,0.0,0.0,0.357894736842
1449618070178146436,0.12,0.0,0.0,0.0,0.0,0.357894736842
1449618070236409644,0.12,0.0,0.0,0.0,0.0,0.315789473684
1449618070301877480,0.12,0.0,0.0,0.0,0.0,0.357894736842
1449618070374919034,0.12,0.0,0.0,0.0,0.0,0.357894736842
1449618070440207744,0.12,0.0,0.0,0.0,0.0,0.315789473684
1449618070478970146,0.12,0.0,0.0,0.0,0.0,0.315789473684
1449618070544802947,0.12,0.0,0.0,0.0,0.0,0.357894736842
1449618070647316703,0.0,0.0,0.0,0.0,0.0,-0.4
1449618070708107105,0.0,0.0,0.0,0.0,0.0,-0.4
1449618070775059531,0.0,0.0,0.0,0.0,0.0,-0.4
1449618070848067870,0.0,0.0,0.0,0.0,0.0,-0.4
1449618070918765754,0.0,0.0,0.0,0.0,0.0,-0.4
1449618071010095363,0.0,0.0,0.0,0.0,0.0,-0.4
1449618071085927626,0.0,0.0,0.0,0.0,0.0,-0.4
1449618071148326450,0.0,0.0,0.0,0.0,0.0,-0.4
1449618071215637287,0.0,0.0,0.0,0.0,0.0,-0.4
1449618071267525054,0.0,0.0,0.0,0.0,0.0,-0.4
1449618071317018005,0.0,0.0,0.0,0.0,0.0,-0.4
1449618071385056457,0.0,0.0,0.0,0.0,0.0,-0.4
1449618071456650620,0.0,0.0,0.0,0.0,0.0,-0.4
1449618071505692420,0.0,0.0,0.0,0.0,0.0,-0.31
1449618071552766700,0.0,0.0,0.0,0.0,0.0,-0.391823790073
1449618071599573463,0.0,0.0,0.0,0.0,0.0,-0.338956437111
1449618071691922020,0.0,0.0,0.0,0.0,0.0,-0.363874129057
1449618071762731148,0.0,0.0,0.0,0.0,0.0,-0.364794216156
1449618071831796329,0.0,0.0,0.0,0.0,0.0,-0.364794216156
1449618071904308507,0.0,0.0,0.0,0.0,0.0,-0.311101756096
1449618071993615448,0.0,0.0,0.0,0.0,0.0,-0.342414907217
1449618071993622939,0.0,0.0,0.0,0.0,0.0,0.0
1449618072005891851,0.0,0.0,0.0,0.0,0.0,0.0
1449618072156266343,-0.0,0.0,0.0,0.0,0.0,0.0
1449618072222000267,0.12,0.0,0.0,0.0,0.0,0.0504757597572
1449618072304475656,0.12,0.0,0.0,0.0,0.0,0.100366302289
1449618072369836877,0.130440909402,0.0,0.0,0.0,0.0,0.0636613157548
1449618072410469580,0.134484732422,0.0,0.0,0.0,0.0,0.0494509159264
1449618072447292522,0.136786252313,0.0,0.0,0.0,0.0,0.0494509159264
1449618072535462606,0.138320625808,0.0,0.0,0.0,0.0,0.0631578947368
1449618072645830171,0.14865827158,0.0,0.0,0.0,0.0,0.0210526315789
1449618072721260400,0.154417371433,0.0,0.0,0.0,0.0,0.0
1449618072771206680,0.157297055827,0.0,0.0,0.0,0.0,0.0
1449618072849633207,0.159216821314,0.0,0.0,0.0,0.0,0.0
1449618072905430879,0.162096075229,0.0,0.0,0.0,0.0,0.0
1449618072950232361,0.162096075229,0.0,0.0,0.0,0.0,0.0
1449618073033964266,0.163055463236,0.0,0.0,0.0,0.0,-0.0210526315789
1449618073096551922,0.164015164098,0.0,0.0,0.0,0.0,0.0
1449618073168061785,0.164015164098,0.0,0.0,0.0,0.0,0.0
1449618073211997767,0.164015164098,0.0,0.0,0.0,0.0,0.0
1449618073258288314,0.16305580104,0.0,0.0,0.0,0.0,-0.0210526315789
1449618073308560637,0.16305580104,0.0,0.0,0.0,0.0,-0.0210526315789
1449618073348413075,0.162096075229,0.0,0.0,0.0,0.0,0.0
1449618073440280325,0.162096075229,0.0,0.0,0.0,0.0,0.0
1449618073499355287,0.160176539693,0.0,0.0,0.0,0.0,0.0
1449618073601821977,0.159216655352,0.0,0.0,0.0,0.0,0.0
1449618073645689079,0.157297055827,0.0,0.0,0.0,0.0,0.0
1449618073721682987,0.149069896926,0.0,0.0,0.0,0.0,0.0
1449618073790893836,0.148301992589,0.0,0.0,0.0,0.0,0.0210526315789
1449618073865017736,0.145230380882,0.0,0.0,0.0,0.0,0.0210526315789
1449618073926747931,0.150578074907,0.0,0.0,0.0,0.0,0.0
1449618074000113178,0.146738321751,0.0,0.0,0.0,0.0,0.0
1449618074066336678,0.140622717378,0.0,0.0,0.0,0.0,0.0210526315789
1449618074118907359,0.137551600136,0.0,0.0,0.0,0.0,0.0210526315789
1449618074186737970,0.133712725633,0.0,0.0,0.0,0.0,0.0631578947368
1449618074236738093,0.132177159807,0.0,0.0,0.0,0.0,0.0631578947368
1449618074300133170,0.124169796149,0.0,0.0,0.0,0.0,0.0631578947368
1449618074363793472,0.12,0.0,0.0,0.0,0.0,0.0631578947368
1449618074423843774,0.12,0.0,0.0,0.0,0.0,0.0631578947368
1449618074490516187,0.12,0.0,0.0,0.0,0.0,0.0631578947368
1449618074567438645,0.12,0.0,0.0,0.0,0.0,0.0631578947368
1449618074620056153,0.12,0.0,0.0,0.0,0.0,0.0210526315789
1449618074694842170,0.12,0.0,0.0,0.0,0.0,0.0631578947368
1449618074731101578,0.12,0.0,0.0,0.0,0.0,0.0
1449618074797401718,0.12,0.0,0.0,0.0,0.0,0.0
1449618074887709289,0.12,0.0,0.0,0.0,0.0,0.0631578947368
1449618074951976328,0.12,0.0,0.0,0.0,0.0,-0.0631578947368
1449618075008903873,0.12,0.0,0.0,0.0,0.0,0.0
1449618075048399574,0.12,0.0,0.0,0.0,0.0,-0.105263157895
1449618075094543415,0.0,0.0,0.0,0.0,0.0,0.31
1449618075208820989,0.0,0.0,0.0,0.0,0.0,0.31
1449618075297820889,0.0,0.0,0.0,0.0,0.0,0.31
1449618075305873075,0.0,0.0,0.0,0.0,0.0,0.0
1449618075309823879,0.0,0.0,0.0,0.0,0.0,0.0
1449618075615246638,0.352,0.0,0.0,0.0,0.0,0.357894736842
1449618075749350699,0.231281760491,0.0,0.0,0.0,0.0,0.231578947368
1449618075815081949,0.228575259595,0.0,0.0,0.0,0.0,0.231578947368
1449618075866471965,0.222252589362,0.0,0.0,0.0,0.0,0.231578947368
1449618075945604095,0.218622736224,0.0,0.0,0.0,0.0,0.231578947368
1449618076017410487,0.210425940752,0.0,0.0,0.0,0.0,0.231578947368
1449618076089775237,0.204040218643,0.0,0.0,0.0,0.0,0.231578947368
1449618076197979146,0.196713091349,0.0,0.0,0.0,0.0,0.189473684211
1449618076273929117,0.186602878153,0.0,0.0,0.0,0.0,0.189473684211
1449618076327031320,0.183836480989,0.0,0.0,0.0,0.0,0.189473684211
1449618076390623702,0.177375597522,0.0,0.0,0.0,0.0,0.189473684211
1449618076449909043,0.173670093363,0.0,0.0,0.0,0.0,0.189473684211
1449618076509141895,0.167191775389,0.0,0.0,0.0,0.0,0.189473684211
1449618076580781371,0.164408503431,0.0,0.0,0.0,0.0,0.189473684211
1449618076728146683,0.158820997584,0.0,0.0,0.0,0.0,0.147368421053
1449618076780859992,0.149503782501,0.0,0.0,0.0,0.0,0.147368421053
1449618076838868781,0.143898344966,0.0,0.0,0.0,0.0,0.105263157895
1449618076878398204,0.141089725415,0.0,0.0,0.0,0.0,0.105263157895
1449618076942609755,0.138277204355,0.0,0.0,0.0,0.0,0.105263157895
1449618077024749260,0.130116472241,0.0,0.0,0.0,0.0,0.105263157895
1449618077122256792,0.125893294808,0.0,0.0,0.0,0.0,0.105263157895
1449618077174487379,0.121285002958,0.0,0.0,0.0,0.0,0.0631578947368
1449618077246967631,0.12,0.0,0.0,0.0,0.0,0.0631578947368
1449618077300719469,0.12,0.0,0.0,0.0,0.0,0.0631578947368
1449618077429676616,0.352,0.0,0.0,0.0,0.0,0.231578947368
1449618077499252688,0.352,0.0,0.0,0.0,0.0,0.273684210526
1449618077555627892,0.352,0.0,0.0,0.0,0.0,0.189473684211
1449618077645763009,0.352,0.0,0.0,0.0,0.0,0.231578947368
1449618077691969536,0.352,0.0,0.0,0.0,0.0,0.189473684211
1449618077745612457,0.352,0.0,0.0,0.0,0.0,0.231578947368
1449618077799380699,0.352,0.0,0.0,0.0,0.0,0.189473684211
1449618077955598732,0.352,0.0,0.0,0.0,0.0,0.189473684211
1449618078024045569,0.352,0.0,0.0,0.0,0.0,0.147368421053
1449618078067468068,0.352,0.0,0.0,0.0,0.0,0.147368421053
1449618078138071011,0.352,0.0,0.0,0.0,0.0,0.147368421053
1449618078197832622,0.352,0.0,0.0,0.0,0.0,0.147368421053
1449618078324068990,0.352,0.0,0.0,0.0,0.0,0.189473684211
1449618078395445411,0.352,0.0,0.0,0.0,0.0,0.147368421053
1449618078490944989,0.352,0.0,0.0,0.0,0.0,0.147368421053
1449618078550880355,0.352,0.0,0.0,0.0,0.0,0.147368421053
1449618078616419269,0.352,0.0,0.0,0.0,0.0,0.105263157895
1449618078670752274,0.352,0.0,0.0,0.0,0.0,0.147368421053
1449618078734104347,0.352,0.0,0.0,0.0,0.0,0.147368421053
1449618078836817105,0.352,0.0,0.0,0.0,0.0,0.147368421053
1449618078917035125,0.352,0.0,0.0,0.0,0.0,0.147368421053
1449618079002310627,0.352,0.0,0.0,0.0,0.0,0.189473684211
1449618079114377795,0.3056,0.0,0.0,0.0,0.0,0.189473684211
1449618079200462303,0.3056,0.0,0.0,0.0,0.0,0.147368421053
1449618079248356432,0.3056,0.0,0.0,0.0,0.0,0.189473684211
1449618079316732181,0.3056,0.0,0.0,0.0,0.0,0.189473684211
1449618079377238764,0.2592,0.0,0.0,0.0,0.0,0.189473684211
1449618079431203200,0.2592,0.0,0.0,0.0,0.0,0.273684210526
1449618079513355533,0.2592,0.0,0.0,0.0,0.0,0.231578947368
1449618079547868847,0.2592,0.0,0.0,0.0,0.0,0.231578947368
1449618079639243301,0.2592,0.0,0.0,0.0,0.0,0.189473684211
1449618079741427644,0.2128,0.0,0.0,0.0,0.0,0.189473684211
1449618079825313618,0.2128,0.0,0.0,0.0,0.0,0.231578947368
1449618079926555072,0.1664,0.0,0.0,0.0,0.0,0.231578947368
1449618080003193419,0.12,0.0,0.0,0.0,0.0,0.231578947368
1449618080086400480,0.1664,0.0,0.0,0.0,0.0,0.189473684211
1449618080125384667,0.1664,0.0,0.0,0.0,0.0,0.189473684211
1449618080185354471,0.1664,0.0,0.0,0.0,0.0,0.189473684211
1449618080252175500,0.1664,0.0,0.0,0.0,0.0,0.189473684211
1449618080350073979,-0.1,0.0,0.0,0.0,0.0,0.0
1449618080450282307,-0.1,0.0,0.0,0.0,0.0,0.0
1449618080493531003,-0.1,0.0,0.0,0.0,0.0,0.0
1449618080531351894,-0.1,0.0,0.0,0.0,0.0,0.0
1449618080593350239,-0.1,0.0,0.0,0.0,0.0,0.0
1449618080650044339,0.0,0.0,0.0,0.0,0.0,0.31
1449618080695016911,0.0,0.0,0.0,0.0,0.0,0.31
1449618080752272784,0.0,0.0,0.0,0.0,0.0,0.357894736842
1449618080814102203,0.0,0.0,0.0,0.0,0.0,0.4
1449618080867257937,0.0,0.0,0.0,0.0,0.0,0.357894736842
1449618080922637649,0.0,0.0,0.0,0.0,0.0,0.315789473684
1449618080959382292,0.0,0.0,0.0,0.0,0.0,0.357894736842
1449618081016124722,0.0,0.0,0.0,0.0,0.0,0.31
1449618081123560179,0.0,0.0,0.0,0.0,0.0,0.357894736842
1449618081212998006,-0.1,0.0,0.0,0.0,0.0,0.0
1449618081287876341,-0.1,0.0,0.0,0.0,0.0,0.0
1449618081334818938,0.0,0.0,0.0,0.0,0.0,0.31
1449618081447850791,0.0,0.0,0.0,0.0,0.0,0.31
1449618081489872349,0.0,0.0,0.0,0.0,0.0,0.31
1449618081530273285,0.0,0.0,0.0,0.0,0.0,0.31
1449618081580088979,0.0,0.0,0.0,0.0,0.0,0.31
1449618081632358420,0.0,0.0,0.0,0.0,0.0,0.31
1449618081686181542,0.0,0.0,0.0,0.0,0.0,0.31
1449618081769223281,0.0,0.0,0.0,0.0,0.0,0.31
1449618081815675908,0.0,0.0,0.0,0.0,0.0,0.31
1449618081902773355,0.0,0.0,0.0,0.0,0.0,0.31
1449618081940821158,0.0,0.0,0.0,0.0,0.0,0.31
1449618081987299390,-0.1,0.0,0.0,0.0,0.0,0.0
1449618082031669264,-0.1,0.0,0.0,0.0,0.0,0.0
1449618082072987787,-0.1,0.0,0.0,0.0,0.0,0.0
1449618082125079698,-0.1,0.0,0.0,0.0,0.0,0.0
1449618082194151477,-0.1,0.0,0.0,0.0,0.0,0.0
1449618082240276778,-0.1,0.0,0.0,0.0,0.0,0.0
1449618082301232925,-0.1,0.0,0.0,0.0,0.0,0.0
1449618082345305001,-0.1,0.0,0.0,0.0,0.0,0.0
1449618082432029718,-0.1,0.0,0.0,0.0,0.0,0.0
1449618082504219544,-0.1,0.0,0.0,0.0,0.0,0.0
1449618082545902725,0.0,0.0,0.0,0.0,0.0,0.31
1449618082626544118,0.0,0.0,0.0,0.0,0.0,0.31
1449618082665750450,0.0,0.0,0.0,0.0,0.0,0.31
1449618082749896509,0.0,0.0,0.0,0.0,0.0,0.31
1449618082807734058,0.208211647405,0.0,0.0,0.0,0.0,0.105263157895
1449618082862492585,0.19854039358,0.0,0.0,0.0,0.0,0.105263157895
1449618082910543544,0.195906150329,0.0,0.0,0.0,0.0,0.105263157895
1449618083004965668,-0.1,0.0,0.0,0.0,0.0,0.0
1449618083032849178,-0.1,0.0,0.0,0.0,0.0,0.0
1449618083082134790,-0.1,0.0,0.0,0.0,0.0,0.0
1449618083136130725,-0.1,0.0,0.0,0.0,0.0,0.0
1449618083185735091,-0.1,0.0,0.0,0.0,0.0,0.0
1449618083225638624,-0.1,0.0,0.0,0.0,0.0,0.0
1449618083291807016,0.0,0.0,0.0,0.0,0.0,0.31
1449618083361783814,0.151541280168,0.0,0.0,0.0,0.0,0.357894736842
1449618083472609195,0.139078218325,0.0,0.0,0.0,0.0,0.357894736842
1449618083530203107,0.136203483057,0.0,0.0,0.0,0.0,0.357894736842
1449618083734373943,0.230597613805,0.0,0.0,0.0,0.0,-0.273684210526
1449618083815610211,0.221601732779,0.0,0.0,0.0,0.0,-0.273684210526
1449618083865543354,0.213584580302,0.0,0.0,0.0,0.0,-0.273684210526
1449618083941203325,0.209132619369,0.0,0.0,0.0,0.0,-0.273684210526
1449618084056420435,0.2002768512,0.0,0.0,0.0,0.0,-0.315789473684
1449618084149561319,0.188860515222,0.0,0.0,0.0,0.0,-0.315789473684
1449618084211627706,0.180140801656,0.0,0.0,0.0,0.0,-0.315789473684
1449618084300335119,0.173174424157,0.0,0.0,0.0,0.0,-0.315789473684
1449618084379034688,0.16623499082,0.0,0.0,0.0,0.0,-0.357894736842
1449618084437601332,0.159313306809,0.0,0.0,0.0,0.0,-0.357894736842
1449618084491981179,0.15324794131,0.0,0.0,0.0,0.0,-0.357894736842
1449618084657923602,0.150640709683,0.0,0.0,0.0,0.0,-0.357894736842
1449618084729417961,0.134071226311,0.0,0.0,0.0,0.0,-0.357894736842
1449618084862893086,0.129876683642,0.0,0.0,0.0,0.0,-0.357894736842
1449618084928153452,0.12216062499,0.0,0.0,0.0,0.0,-0.319315352189
1449618085022699688,0.12,0.0,0.0,0.0,0.0,-0.4
1449618085068821735,0.12,0.0,0.0,0.0,0.0,-0.361047116832
1449618085136567843,0.12,0.0,0.0,0.0,0.0,-0.358265074742
1449618085219825427,0.12,0.0,0.0,0.0,0.0,-0.4
1449618085266864625,0.12,0.0,0.0,0.0,0.0,-0.357894736842
1449618085351315560,0.12,0.0,0.0,0.0,0.0,-0.358264486539
1449618085433718732,0.12,0.0,0.0,0.0,0.0,-0.4
1449618085494307489,0.12,0.0,0.0,0.0,0.0,-0.4
1449618085554454206,0.12,0.0,0.0,0.0,0.0,-0.357894736842
1449618085614395060,0.12,0.0,0.0,0.0,0.0,-0.357894736842
1449618085719290172,0.202063520813,0.0,0.0,0.0,0.0,-0.315789473684
1449618085768648220,0.195032397379,0.0,0.0,0.0,0.0,-0.315789473684
1449618085822191767,0.188897873686,0.0,0.0,0.0,0.0,-0.315789473684
1449618085877619371,0.230336075381,0.0,0.0,0.0,0.0,0.0210526315789
1449618085958331427,0.223648794232,0.0,0.0,0.0,0.0,0.0631578947368
1449618086017867515,0.219834681977,0.0,0.0,0.0,0.0,0.0631578947368
1449618086085434932,0.21221969028,0.0,0.0,0.0,0.0,0.0631578947368
1449618086167143093,0.20368506359,0.0,0.0,0.0,0.0,0.105263157895
1449618086231853479,0.19516838453,0.0,0.0,0.0,0.0,0.105263157895
1449618086285925324,0.191405260916,0.0,0.0,0.0,0.0,0.105263157895
1449618086355144840,0.183888552739,0.0,0.0,0.0,0.0,0.105263157895
1449618086414214032,0.179208762665,0.0,0.0,0.0,0.0,0.147368421053
1449618086461089052,0.172685069693,0.0,0.0,0.0,0.0,0.147368421053
1449618086569918861,0.169901593057,0.0,0.0,0.0,0.0,0.147368421053
1449618086631275428,0.157013462329,0.0,0.0,0.0,0.0,0.189473684211
1449618086665101924,0.154260685539,0.0,0.0,0.0,0.0,0.189473684211
1449618086757118020,0.149699076546,0.0,0.0,0.0,0.0,0.189473684211
1449618086810656859,0.143362746741,0.0,0.0,0.0,0.0,0.231578947368
1449618086882174593,0.137073876399,0.0,0.0,0.0,0.0,0.231578947368
1449618086949722245,0.133507691651,0.0,0.0,0.0,0.0,0.231578947368
1449618087087147088,0.123347810926,0.0,0.0,0.0,0.0,0.273684210526
1449618087117417626,0.12,0.0,0.0,0.0,0.0,0.315789473684
1449618087192277046,0.12,0.0,0.0,0.0,0.0,0.357894736842
1449618087266149872,0.12,0.0,0.0,0.0,0.0,0.357894736842
1449618087308137012,0.12,0.0,0.0,0.0,0.0,0.315789473684
1449618087370852925,0.12,0.0,0.0,0.0,0.0,0.357894736842
1449618087422051995,0.12,0.0,0.0,0.0,0.0,0.315789473684
1449618087473336853,0.12,0.0,0.0,0.0,0.0,0.357894736842
1449618087512026714,0.12,0.0,0.0,0.0,0.0,0.357894736842
1449618087575930577,0.12,0.0,0.0,0.0,0.0,0.357894736842
1449618087633669657,0.12,0.0,0.0,0.0,0.0,0.357894736842
1449618087699755058,0.12,0.0,0.0,0.0,0.0,0.357894736842
1449618087755309211,0.12,0.0,0.0,0.0,0.0,0.315789473684
1449618087870799646,0.12,0.0,0.0,0.0,0.0,0.357894736842
1449618087912795412,0.0,0.0,0.0,0.0,0.0,-0.31
1449618088720839242,0.352,0.0,0.0,0.0,0.0,-0.189473684211
1449618088821732119,0.352,0.0,0.0,0.0,0.0,-0.189473684211
1449618088893672557,0.352,0.0,0.0,0.0,0.0,-0.189473684211
1449618088974837184,0.352,0.0,0.0,0.0,0.0,-0.189473684211
1449618089037415849,0.352,0.0,0.0,0.0,0.0,-0.189473684211
1449618089099184649,0.352,0.0,0.0,0.0,0.0,-0.189473684211
1449618089155430394,0.352,0.0,0.0,0.0,0.0,-0.189473684211
1449618089216895604,0.352,0.0,0.0,0.0,0.0,-0.189473684211
1449618089296476887,0.352,0.0,0.0,0.0,0.0,-0.189473684211
1449618089403033228,0.352,0.0,0.0,0.0,0.0,-0.189473684211
1449618089477961634,0.352,0.0,0.0,0.0,0.0,-0.189473684211
1449618089554573837,0.352,0.0,0.0,0.0,0.0,-0.189473684211
1449618089648611381,0.352,0.0,0.0,0.0,0.0,-0.189473684211
1449618089858086202,0.352,0.0,0.0,0.0,0.0,-0.189473684211
1449618089919906814,0.352,0.0,0.0,0.0,0.0,-0.189473684211
1449618089974508037,0.352,0.0,0.0,0.0,0.0,-0.189473684211
1449618090040084717,0.352,0.0,0.0,0.0,0.0,-0.189473684211
1449618090105444084,0.352,0.0,0.0,0.0,0.0,-0.189473684211
1449618090215572849,0.352,0.0,0.0,0.0,0.0,-0.147368421053
1449618090277290130,0.352,0.0,0.0,0.0,0.0,-0.147368421053
1449618090351902720,0.352,0.0,0.0,0.0,0.0,-0.189473684211
1449618090451702135,0.352,0.0,0.0,0.0,0.0,-0.147368421053
1449618090565949973,0.352,0.0,0.0,0.0,0.0,-0.147368421053
1449618090697268879,0.352,0.0,0.0,0.0,0.0,-0.147368421053
1449618090807267046,0.352,0.0,0.0,0.0,0.0,-0.147368421053
1449618090872441431,0.352,0.0,0.0,0.0,0.0,-0.147368421053
1449618091011297207,0.352,0.0,0.0,0.0,0.0,-0.147368421053
1449618091092616201,0.352,0.0,0.0,0.0,0.0,-0.147368421053
1449618091142770196,0.352,0.0,0.0,0.0,0.0,-0.105263157895
1449618091242254586,0.352,0.0,0.0,0.0,0.0,-0.105263157895
1449618091314249930,0.352,0.0,0.0,0.0,0.0,-0.105263157895
1449618091458243523,0.352,0.0,0.0,0.0,0.0,-0.105263157895
1449618091553719515,0.352,0.0,0.0,0.0,0.0,-0.105263157895
1449618091627706140,0.352,0.0,0.0,0.0,0.0,-0.105263157895
1449618091757617699,0.352,0.0,0.0,0.0,0.0,-0.105263157895
1449618091820206418,0.183233911514,0.0,0.0,0.0,0.0,0.0631578947368
1449618091878157229,0.181327129803,0.0,0.0,0.0,0.0,0.0631578947368
1449618091938916608,0.172762027794,0.0,0.0,0.0,0.0,0.0631578947368
1449618092002789598,0.170859746625,0.0,0.0,0.0,0.0,0.0631578947368
1449618092058336224,0.16327443779,0.0,0.0,0.0,0.0,0.105263157895
1449618092110606384,0.161380733687,0.0,0.0,0.0,0.0,0.105263157895
1449618092720828563,0.0,0.0,0.0,0.0,0.0,-0.4
1449618092796096813,0.0,0.0,0.0,0.0,0.0,-0.357894736842
1449618092930335417,0.0,0.0,0.0,0.0,0.0,-0.357894736842
1449618093073814992,0.0,0.0,0.0,0.0,0.0,-0.31
1449618093124468212,0.12,0.0,0.0,0.0,0.0,0.189473684211
1449618093468627419,0.0,0.0,0.0,0.0,0.0,0.0
1449618097760872505,0.255402364983,0.0,0.0,0.0,0.0,-0.0210526315789
1449618097828462624,0.255402364983,0.0,0.0,0.0,0.0,-0.0210526315789
1449618097877002615,0.255402364983,0.0,0.0,0.0,0.0,-0.0210526315789
1449618097958123540,0.255402364983,0.0,0.0,0.0,0.0,-0.0210526315789
1449618098032931060,0.255402364983,0.0,0.0,0.0,0.0,-0.0210526315789
1449618098134192890,0.255402364983,0.0,0.0,0.0,0.0,-0.0210526315789
1449618098227043235,0.255402364983,0.0,0.0,0.0,0.0,-0.0210526315789
1449618098325171841,0.255402364983,0.0,0.0,0.0,0.0,-0.0210526315789
1449618098389796509,0.255402364983,0.0,0.0,0.0,0.0,-0.0210526315789
1449618098456350163,0.255402364983,0.0,0.0,0.0,0.0,-0.0210526315789
1449618098478791349,0.255402364983,0.0,0.0,0.0,0.0,-0.0210526315789
1449618098536257455,0.255402364983,0.0,0.0,0.0,0.0,-0.0210526315789
1449618098593402985,0.254443058909,0.0,0.0,0.0,0.0,-0.0210526315789
1449618098640183288,0.253484135561,0.0,0.0,0.0,0.0,-0.0210526315789
1449618098699414478,0.253484135561,0.0,0.0,0.0,0.0,-0.0210526315789
1449618098769896618,0.253484135561,0.0,0.0,0.0,0.0,-0.0210526315789
1449618098829025462,0.251566312022,0.0,0.0,0.0,0.0,-0.0210526315789
1449618098884521264,0.251566312022,0.0,0.0,0.0,0.0,-0.0210526315789
1449618098935089501,0.249648519953,0.0,0.0,0.0,0.0,-0.0210526315789
1449618099031855159,0.249648519953,0.0,0.0,0.0,0.0,-0.0210526315789
1449618099078986352,0.247730760085,0.0,0.0,0.0,0.0,-0.0210526315789
1449618099129459645,0.245813033171,0.0,0.0,0.0,0.0,-0.0210526315789
1449618099205460112,0.243895339989,0.0,0.0,0.0,0.0,-0.0210526315789
1449618099276387313,0.241977682082,0.0,0.0,0.0,0.0,-0.0210526315789
1449618099329945818,0.240060137382,0.0,0.0,0.0,0.0,-0.0210526315789
1449618099381718524,0.237183281032,0.0,0.0,0.0,0.0,-0.0210526315789
1449618099439200933,0.235264918527,0.0,0.0,0.0,0.0,-0.0210526315789
1449618099512533344,0.23334650036,0.0,0.0,0.0,0.0,-0.0210526315789
1449618099546452493,0.230470304127,0.0,0.0,0.0,0.0,-0.0210526315789
1449618099606359818,0.228552890478,0.0,0.0,0.0,0.0,-0.0631578947368
1449618099658144536,0.224718189051,0.0,0.0,0.0,0.0,-0.0210526315789
1449618099730531751,0.222800903439,0.0,0.0,0.0,0.0,-0.0210526315789
1449618099824046591,0.218966546759,0.0,0.0,0.0,0.0,-0.0631578947368
1449618099878476435,0.215130767241,0.0,0.0,0.0,0.0,-0.0210526315789
1449618099930164424,0.213213782298,0.0,0.0,0.0,0.0,-0.0210526315789
1449618099981709273,0.208419846198,0.0,0.0,0.0,0.0,-0.0210526315789
1449618100018160517,0.207461392009,0.0,0.0,0.0,0.0,-0.0631578947368
1449618100092592004,0.205544525805,0.0,0.0,0.0,0.0,-0.0210526315789
1449618100153442544,0.201710963395,0.0,0.0,0.0,0.0,-0.0631578947368
1449618100212359264,0.199794271181,0.0,0.0,0.0,0.0,-0.0631578947368
1449618100251265143,0.195961073442,0.0,0.0,0.0,0.0,-0.0210526315789
1449618100318774024,0.194044571604,0.0,0.0,0.0,0.0,-0.0631578947368
1449618100398036963,0.190211850494,0.0,0.0,0.0,0.0,-0.0631578947368
1449618100449770354,0.18829555699,0.0,0.0,0.0,0.0,-0.0210526315789
1449618100497408110,0.186379336768,0.0,0.0,0.0,0.0,-0.0631578947368
1449618100559492394,0.184463192461,0.0,0.0,0.0,0.0,-0.0631578947368
1449618100627924861,0.180631141258,0.0,0.0,0.0,0.0,-0.0631578947368
1449618100711627950,0.178715239451,0.0,0.0,0.0,0.0,-0.0631578947368
1449618100801530976,0.175839738248,0.0,0.0,0.0,0.0,-0.0210526315789
1449618100875982867,0.17105065584,0.0,0.0,0.0,0.0,-0.0631578947368
1449618100941271708,0.169135190916,0.0,0.0,0.0,0.0,-0.0631578947368
1449618101035185904,0.166260263812,0.0,0.0,0.0,0.0,-0.0210526315789
1449618101116535639,0.164344412752,0.0,0.0,0.0,0.0,-0.0210526315789
1449618101184396516,0.160511566012,0.0,0.0,0.0,0.0,-0.0631578947368
1449618101244878877,0.158595347082,0.0,0.0,0.0,0.0,-0.0210526315789
1449618101317409395,0.155720454164,0.0,0.0,0.0,0.0,-0.0210526315789
1449618101363520789,0.154762441555,0.0,0.0,0.0,0.0,-0.0210526315789
1449618101430855711,0.152846408569,0.0,0.0,0.0,0.0,-0.0631578947368
1449618101519475677,0.149014718932,0.0,0.0,0.0,0.0,-0.0210526315789
1449618101587987804,0.147098991142,0.0,0.0,0.0,0.0,-0.0210526315789
1449618101666813575,0.146140594361,0.0,0.0,0.0,0.0,-0.0210526315789
1449618101723818782,0.145182755549,0.0,0.0,0.0,0.0,-0.0631578947368
1449618101819235863,0.1432666166,0.0,0.0,0.0,0.0,-0.0631578947368
1449618101883278590,0.141350617387,0.0,0.0,0.0,0.0,-0.0210526315789
1449618101989991520,0.140392318189,0.0,0.0,0.0,0.0,-0.0210526315789
1449618102036249383,0.138475787329,0.0,0.0,0.0,0.0,-0.0210526315789
1449618102146724705,0.136559350085,0.0,0.0,0.0,0.0,-0.0631578947368
1449618102204156566,0.134643010453,0.0,0.0,0.0,0.0,-0.0210526315789
1449618102253189332,0.132726181881,0.0,0.0,0.0,0.0,-0.0210526315789
1449618102302539839,0.132726181881,0.0,0.0,0.0,0.0,-0.0210526315789
1449618102366057316,0.130810041213,0.0,0.0,0.0,0.0,-0.0210526315789
1449618102415652620,0.129851447574,0.0,0.0,0.0,0.0,0.0
1449618102469379373,0.128893441889,0.0,0.0,0.0,0.0,-0.105263157895
1449618102519730725,0.128893441889,0.0,0.0,0.0,0.0,-0.105263157895
1449618102580645967,0.126976900499,0.0,0.0,0.0,0.0,-0.0210526315789
1449618102631598399,0.126976900499,0.0,0.0,0.0,0.0,-0.0210526315789
1449618102729550421,0.126018396196,0.0,0.0,0.0,0.0,-0.0210526315789
1449618102793738949,0.12410141354,0.0,0.0,0.0,0.0,-0.0210526315789
1449618102865323615,0.12174758534,0.0,0.0,0.0,0.0,-0.0210526315789
