%time,field.header.seq,field.header.stamp,field.header.frame_id,field.status.goal_id.stamp,field.status.goal_id.id,field.status.status,field.status.text,field.feedback.base_position.header.seq,field.feedback.base_position.header.stamp,field.feedback.base_position.header.frame_id,field.feedback.base_position.pose.position.x,field.feedback.base_position.pose.position.y,field.feedback.base_position.pose.position.z,field.feedback.base_position.pose.orientation.x,field.feedback.base_position.pose.orientation.y,field.feedback.base_position.pose.orientation.z,field.feedback.base_position.pose.orientation.w
1449618002635074861,0,1449618002632255929,,1449618002632078271,/move_base-2-1449618002.632078271,1,This goal has been accepted by the simple action server,0,1449618002595046269,odom,0.0,0.0,0.0,0.0,0.0,0.0,1.0
1449618002683172124,1,1449618002682300048,,1449618002632078271,/move_base-2-1449618002.632078271,1,This goal has been accepted by the simple action server,0,1449618002675062161,odom,0.0,0.0,0.0,0.0,0.0,0.0,1.0
1449618002733242863,2,1449618002732508766,,1449618002710076627,/move_base-3-1449618002.710076627,1,This goal has been accepted by the simple action server,0,1449618002715038440,odom,0.0,0.0,0.0,0.0,0.0,0.0,1.0
1449618002782820166,3,1449618002782342966,,1449618002710076627,/move_base-3-1449618002.710076627,1,This goal has been accepted by the simple action server,0,1449618002755048738,odom,0.0,0.0,0.0,0.0,0.0,0.0,1.0
1449618002838278268,4,1449618002836120791,,1449618002799819687,/move_base-4-1449618002.799819687,1,This goal has been accepted by the simple action server,0,1449618002795068068,odom,0.0,0.0,0.0,0.0,0.0,0.0,1.0
1449618002886333226,5,1449618002885644431,,1449618002799819687,/move_base-4-1449618002.799819687,1,This goal has been accepted by the simple action server,0,1449618002875040581,odom,0.0,0.0,0.0,0.0,0.0,0.0,1.0
1449618002936674864,6,1449618002933706792,,1449618002918247077,/move_base-5-1449618002.918247077,1,This goal has been accepted by the simple action server,0,1449618002915041989,odom,0.0,0.0,0.0,0.0,0.0,0.0,1.0
1449618002982789615,7,1449618002982308497,,1449618002918247077,/move_base-5-1449618002.918247077,1,This goal has been accepted by the simple action server,0,1449618002955057819,odom,0.0,0.0,0.0,0.0,0.0,0.0,1.0
1449618003032684011,8,1449618003032373445,,1449618003002023750,/move_base-6-1449618003.2023750,1,This goal has been accepted by the simple action server,0,1449618002995051214,odom,0.0,0.0,0.0,0.0,0.0,0.0,1.0
1449618003085585810,9,1449618003082428794,,1449618003080742746,/move_base-7-1449618003.80742746,1,This goal has been accepted by the simple action server,0,1449618003075188962,odom,0.0,0.0,0.0,0.0,0.0,0.0,1.0
1449618003133201396,10,1449618003132319232,,1449618003080742746,/move_base-7-1449618003.80742746,1,This goal has been accepted by the simple action server,0,1449618003115066091,odom,0.0,0.0,0.0,0.0,0.0,0.0,1.0
1449618003183721855,11,1449618003182422347,,1449618003149651206,/move_base-8-1449618003.149651206,1,This goal has been accepted by the simple action server,0,1449618003155041479,odom,0.0,0.0,0.0,0.0,0.0,0.0,1.0
1449618003232582854,12,1449618003232278905,,1449618003149651206,/move_base-8-1449618003.149651206,1,This goal has been accepted by the simple action server,0,1449618003195049906,odom,0.0,0.0,0.0,0.0,0.0,0.0,1.0
1449618003283343045,13,1449618003282840086,,1449618003265054543,/move_base-9-1449618003.265054543,1,This goal has been accepted by the simple action server,0,1449618003275035560,odom,0.0,0.0,0.0,0.0,0.0,0.0,1.0
1449618003332630916,14,1449618003332287888,,1449618003265054543,/move_base-9-1449618003.265054543,1,This goal has been accepted by the simple action server,0,1449618003315067396,odom,0.0,0.0,0.0,0.0,0.0,0.0,1.0
1449618003385474594,15,1449618003384863955,,1449618003265054543,/move_base-9-1449618003.265054543,1,This goal has been accepted by the simple action server,0,1449618003355041699,odom,0.0,0.0,0.0,0.0,0.0,0.0,1.0
1449618003387280360,16,1449618003386067943,,1449618003385963552,/move_base-10-1449618003.385963552,1,This goal has been accepted by the simple action server,0,1449618003355041699,odom,0.0,0.0,0.0,0.0,0.0,0.0,1.0
1449618003437693057,17,1449618003436140257,,1449618003385963552,/move_base-10-1449618003.385963552,1,This goal has been accepted by the simple action server,0,1449618003395039482,odom,0.0,0.0,0.0,0.0,0.0,0.0,1.0
1449618003487246225,18,1449618003486320877,,1449618003470763508,/move_base-11-1449618003.470763508,1,This goal has been accepted by the simple action server,0,1449618003475043562,odom,0.0,0.0,0.0,0.0,0.0,0.0,1.0
1449618003536442158,19,1449618003536136067,,1449618003470763508,/move_base-11-1449618003.470763508,1,This goal has been accepted by the simple action server,0,1449618003515066364,odom,0.0,0.0,0.0,0.0,0.0,0.0,1.0
1449618003586741581,20,1449618003586139720,,1449618003470763508,/move_base-11-1449618003.470763508,1,This goal has been accepted by the simple action server,0,1449618003555054786,odom,0.0,0.0,0.0,0.0,0.0,0.0,1.0
1449618003586748690,21,1449618003586410333,,1449618003586345137,/move_base-12-1449618003.586345137,1,This goal has been accepted by the simple action server,0,1449618003555054786,odom,0.0,0.0,0.0,0.0,0.0,0.0,1.0
1449618003638739145,22,1449618003638381089,,1449618003586345137,/move_base-12-1449618003.586345137,1,This goal has been accepted by the simple action server,0,1449618003595041744,odom,0.0,0.0,0.0,0.0,0.0,0.0,1.0
1449618003688867910,23,1449618003688646422,,1449618003668564503,/move_base-13-1449618003.668564503,1,This goal has been accepted by the simple action server,0,1449618003675898007,odom,0.0,0.0,0.0,0.0,0.0,0.0,1.0
1449618003739405263,24,1449618003736503060,,1449618003668564503,/move_base-13-1449618003.668564503,1,This goal has been accepted by the simple action server,0,1449618003715044871,odom,0.0,0.0,0.0,0.0,0.0,0.0,1.0
1449618003794913575,25,1449618003792592712,,1449618003792478449,/move_base-14-1449618003.792478449,1,This goal has been accepted by the simple action server,0,1449618003755064211,odom,0.0,0.0,0.0,0.0,0.0,0.0,1.0
1449618003843080290,26,1449618003842672801,,1449618003792478449,/move_base-14-1449618003.792478449,1,This goal has been accepted by the simple action server,0,1449618003835035809,odom,0.0,0.0,0.0,0.0,0.0,0.0,1.0
1449618003894486511,27,1449618003894075617,,1449618003874908357,/move_base-15-1449618003.874908357,1,This goal has been accepted by the simple action server,0,1449618003875037099,odom,0.0,0.0,0.0,0.0,0.0,0.0,1.0
1449618003943195035,28,1449618003942709605,,1449618003874908357,/move_base-15-1449618003.874908357,1,This goal has been accepted by the simple action server,0,1449618003915054988,odom,0.0,0.0,0.0,0.0,0.0,0.0,1.0
1449618003964254825,29,1449618003963614730,,1449618003963436629,/move_base-16-1449618003.963436629,1,This goal has been accepted by the simple action server,0,1449618003955039949,odom,0.0,0.0,0.0,0.0,0.0,0.0,1.0
1449618004013873416,30,1449618004013680369,,1449618003963436629,/move_base-16-1449618003.963436629,1,This goal has been accepted by the simple action server,0,1449618003995042172,odom,0.0,0.0,0.0,0.0,0.0,0.0,1.0
1449618004065160979,31,1449618004064244823,,1449618003963436629,/move_base-16-1449618003.963436629,1,This goal has been accepted by the simple action server,0,1449618004035050828,odom,0.0,0.0,0.0,0.0,0.0,0.0,1.0
1449618004082906285,32,1449618004082660265,,1449618004082522034,/move_base-17-1449618004.82522034,1,This goal has been accepted by the simple action server,0,1449618004075041309,odom,0.0,0.0,0.0,0.0,0.0,0.0,1.0
1449618004133221781,33,1449618004132756296,,1449618004082522034,/move_base-17-1449618004.82522034,1,This goal has been accepted by the simple action server,0,1449618004116954463,odom,0.0,0.0,0.0,0.0,0.0,0.0,1.0
1449618004183320696,34,1449618004182742848,,1449618004082522034,/move_base-17-1449618004.82522034,1,This goal has been accepted by the simple action server,0,1449618004155052067,odom,0.0,0.0,0.0,0.0,0.0,0.0,1.0
1449618004248755597,35,1449618004248591031,,1449618004248444409,/move_base-18-1449618004.248444409,1,This goal has been accepted by the simple action server,0,1449618004235080450,odom,0.0,0.0,0.0,0.0,0.0,0.0,1.0
1449618004299158642,36,1449618004298779520,,1449618004268456668,/move_base-19-1449618004.268456668,1,This goal has been accepted by the simple action server,0,1449618004275041810,odom,0.0,0.0,0.0,0.0,0.0,0.0,1.0
1449618004349037883,37,1449618004348726523,,1449618004347107717,/move_base-20-1449618004.347107717,1,This goal has been accepted by the simple action server,0,1449618004315048721,odom,0.0,0.0,0.0,0.0,0.0,0.0,1.0
1449618004399637909,38,1449618004398695519,,1449618004347107717,/move_base-20-1449618004.347107717,1,This goal has been accepted by the simple action server,0,1449618004395048609,odom,0.0,0.0,0.0,0.0,0.0,0.0,1.0
1449618004448854995,39,1449618004448668337,,1449618004347107717,/move_base-20-1449618004.347107717,1,This goal has been accepted by the simple action server,0,1449618004435042161,odom,0.0,0.0,0.0,0.0,0.0,0.0,1.0
1449618004543901631,40,1449618004543709796,,1449618004543644057,/move_base-21-1449618004.543644057,1,This goal has been accepted by the simple action server,0,1449618004515280772,odom,0.0,0.0,0.0,0.0,0.0,0.0,1.0
1449618004596417135,41,1449618004593899165,,1449618004544495303,/move_base-22-1449618004.544495303,1,This goal has been accepted by the simple action server,0,1449618004555041297,odom,0.0,0.0,0.0,0.0,0.0,0.0,1.0
1449618004644877608,42,1449618004644083186,,1449618004544495303,/move_base-22-1449618004.544495303,1,This goal has been accepted by the simple action server,0,1449618004635033023,odom,0.0,0.0,0.0,0.0,0.0,0.0,1.0
1449618004694475960,43,1449618004693808080,,1449618004544495303,/move_base-22-1449618004.544495303,1,This goal has been accepted by the simple action server,0,1449618004675040170,odom,0.0,0.0,0.0,0.0,0.0,0.0,1.0
1449618004712801886,44,1449618004712589879,,1449618004712237451,/move_base-23-1449618004.712237451,1,This goal has been accepted by the simple action server,0,1449618004675040170,odom,0.0,0.0,0.0,0.0,0.0,0.0,1.0
1449618004763652918,45,1449618004762683935,,1449618004712237451,/move_base-23-1449618004.712237451,1,This goal has been accepted by the simple action server,0,1449618004755033716,odom,0.0,0.0,0.0,0.0,0.0,0.0,1.0
1449618004814064606,46,1449618004812803977,,1449618004799776852,/move_base-24-1449618004.799776852,1,This goal has been accepted by the simple action server,0,1449618004795042074,odom,0.0,0.0,0.0,0.0,0.0,0.0,1.0
1449618004864109854,47,1449618004862679294,,1449618004799776852,/move_base-24-1449618004.799776852,1,This goal has been accepted by the simple action server,0,1449618004835038531,odom,0.0,0.0,0.0,0.0,0.0,0.0,1.0
1449618004915247600,48,1449618004912887684,,1449618004907546420,/move_base-25-1449618004.907546420,1,This goal has been accepted by the simple action server,0,1449618004875050611,odom,0.0,0.0,0.0,0.0,0.0,0.0,1.0
1449618004963075522,49,1449618004962679296,,1449618004907546420,/move_base-25-1449618004.907546420,1,This goal has been accepted by the simple action server,0,1449618004955067543,odom,0.0,0.0,0.0,0.0,0.0,0.0,1.0
1449618005013559682,50,1449618005012905170,,1449618004989093933,/move_base-26-1449618004.989093933,1,This goal has been accepted by the simple action server,0,1449618004995043492,odom,0.0,0.0,0.0,0.0,0.0,0.0,1.0
1449618005064028498,51,1449618005063110494,,1449618004989093933,/move_base-26-1449618004.989093933,1,This goal has been accepted by the simple action server,0,1449618005035031999,odom,0.0,0.0,0.0,0.0,0.0,0.0,1.0
1449618005113441886,52,1449618005112911245,,1449618005101888691,/move_base-27-1449618005.101888691,1,This goal has been accepted by the simple action server,0,1449618005075036369,odom,0.0,0.0,0.0,0.0,0.0,0.0,1.0
1449618005163553544,53,1449618005162905215,,1449618005101888691,/move_base-27-1449618005.101888691,1,This goal has been accepted by the simple action server,0,1449618005155041150,odom,0.0,0.0,0.0,0.0,0.0,0.0,1.0
1449618005213128104,54,1449618005212661997,,1449618005101888691,/move_base-27-1449618005.101888691,1,This goal has been accepted by the simple action server,0,1449618005195048623,odom,0.0,0.0,0.0,0.0,0.0,0.0,1.0
1449618005217773495,55,1449618005215578345,,1449618005215471725,/move_base-28-1449618005.215471725,1,This goal has been accepted by the simple action server,0,1449618005195048623,odom,0.0,0.0,0.0,0.0,0.0,0.0,1.0
1449618005265940064,56,1449618005265626468,,1449618005215471725,/move_base-28-1449618005.215471725,1,This goal has been accepted by the simple action server,0,1449618005235038852,odom,0.0,0.0,0.0,0.0,0.0,0.0,1.0
1449618005325299816,57,1449618005325130017,,1449618005325038799,/move_base-29-1449618005.325038799,1,This goal has been accepted by the simple action server,0,1449618005315049182,odom,0.0,0.0,0.0,0.0,0.0,0.0,1.0
1449618005376209785,58,1449618005375195548,,1449618005325038799,/move_base-29-1449618005.325038799,1,This goal has been accepted by the simple action server,0,1449618005355042926,odom,0.0,0.0,0.0,0.0,0.0,0.0,1.0
1449618005425372060,59,1449618005425260873,,1449618005421858322,/move_base-30-1449618005.421858322,1,This goal has been accepted by the simple action server,0,1449618005395050477,odom,0.0,0.0,0.0,0.0,0.0,0.0,1.0
1449618005476034618,60,1449618005475411266,,1449618005421858322,/move_base-30-1449618005.421858322,1,This goal has been accepted by the simple action server,0,1449618005435033138,odom,0.0,0.0,0.0,0.0,0.0,0.0,1.0
1449618005525710798,61,1449618005525293841,,1449618005511906241,/move_base-31-1449618005.511906241,1,This goal has been accepted by the simple action server,0,1449618005515604750,odom,0.0,0.0,0.0,0.0,0.0,0.0,1.0
1449618005576025936,62,1449618005575480442,,1449618005550826524,/move_base-32-1449618005.550826524,1,This goal has been accepted by the simple action server,0,1449618005555135078,odom,0.0,0.0,0.0,0.0,0.0,0.0,1.0
1449618005625644744,63,1449618005625207635,,1449618005550826524,/move_base-32-1449618005.550826524,1,This goal has been accepted by the simple action server,0,1449618005595064945,odom,0.0,0.0,0.0,0.0,0.0,0.0,1.0
1449618005675917894,64,1449618005675591248,,1449618005550826524,/move_base-32-1449618005.550826524,1,This goal has been accepted by the simple action server,0,1449618005635043071,odom,0.0,0.0,0.0,0.0,0.0,0.0,1.0
1449618005757555122,65,1449618005757413478,,1449618005757346724,/move_base-33-1449618005.757346724,1,This goal has been accepted by the simple action server,0,1449618005755041667,odom,0.0,0.0,0.0,0.0,0.0,0.0,1.0
1449618005808058114,66,1449618005807513649,,1449618005757346724,/move_base-33-1449618005.757346724,1,This goal has been accepted by the simple action server,0,1449618005795033457,odom,0.0,0.0,0.0,0.0,0.0,0.0,1.0
1449618005858168127,67,1449618005857737417,,1449618005757346724,/move_base-33-1449618005.757346724,1,This goal has been accepted by the simple action server,0,1449618005835042316,odom,0.0,0.0,0.0,0.0,0.0,0.0,1.0
1449618005884544889,68,1449618005883592031,,1449618005883040534,/move_base-34-1449618005.883040534,1,This goal has been accepted by the simple action server,0,1449618005875043979,odom,0.0,0.0,0.0,0.0,0.0,0.0,1.0
1449618005946886863,69,1449618005936395600,,1449618005883040534,/move_base-34-1449618005.883040534,1,This goal has been accepted by the simple action server,0,1449618005915041443,odom,0.0,0.0,0.0,0.0,0.0,0.0,1.0
1449618006030886090,70,1449618006027921561,,1449618005883040534,/move_base-34-1449618005.883040534,1,This goal has been accepted by the simple action server,0,1449618005995051480,odom,0.0,0.0,0.0,0.0,0.0,0.0,1.0
1449618006135703683,71,1449618006134593965,,1449618005883040534,/move_base-34-1449618005.883040534,1,This goal has been accepted by the simple action server,0,1449618006115050821,odom,0.0,0.0,0.0,0.0,0.0,0.0,1.0
1449618006187923082,72,1449618006185080635,,1449618005883040534,/move_base-34-1449618005.883040534,1,This goal has been accepted by the simple action server,0,1449618006155037334,odom,0.0,0.0,0.0,0.0,0.0,0.0,1.0
1449618006266865513,73,1449618006264473054,,1449618006191026700,/move_base-35-1449618006.191026700,1,This goal has been accepted by the simple action server,0,1449618006235034973,odom,0.0,0.0,0.0,0.0,0.0,0.0,1.0
1449618006284983327,74,1449618006284803721,,1449618006191026700,/move_base-35-1449618006.191026700,1,This goal has been accepted by the simple action server,0,1449618006275041103,odom,0.0,0.0,0.0,0.0,0.0,0.0,1.0
1449618006339871865,75,1449618006337930026,,1449618006191026700,/move_base-35-1449618006.191026700,1,This goal has been accepted by the simple action server,0,1449618006315041998,odom,0.0,0.0,0.0,0.0,0.0,0.0,1.0
1449618006435644087,76,1449618006434710482,,1449618006191026700,/move_base-35-1449618006.191026700,1,This goal has been accepted by the simple action server,0,1449618006395041315,odom,0.00287963245437,3.04332289367e-05,0.0,0.0,0.0,0.0052839997518,0.999986039576
1449618006510017843,77,1449618006508698506,,1449618006191026700,/move_base-35-1449618006.191026700,1,This goal has been accepted by the simple action server,0,1449618006475085358,odom,0.00575942572016,3.04332289367e-05,0.0,0.0,0.0,0.0,1.0
1449618006627074357,78,1449618006624774900,,1449618006191026700,/move_base-35-1449618006.191026700,1,This goal has been accepted by the simple action server,0,1449618006595047872,odom,0.00575942572016,3.04332289367e-05,0.0,0.0,0.0,0.0,1.0
1449618006694645263,79,1449618006692065688,,1449618006191026700,/move_base-35-1449618006.191026700,1,This goal has been accepted by the simple action server,0,1449618006675045214,odom,0.00863905817453,0.0,0.0,0.0,0.0,-0.0052839997518,0.999986039576
1449618006792897561,80,1449618006786575561,,1449618006191026700,/move_base-35-1449618006.191026700,1,This goal has been accepted by the simple action server,0,1449618006755071412,odom,0.0115188514403,0.0,0.0,0.0,0.0,0.0,1.0
1449618006865946259,81,1449618006858595051,,1449618006191026700,/move_base-35-1449618006.191026700,1,This goal has been accepted by the simple action server,0,1449618006835034648,odom,0.0172782771605,-3.04332289367e-05,0.0,0.0,0.0,0.0,1.0
1449618006968469429,82,1449618006968251512,,1449618006191026700,/move_base-35-1449618006.191026700,1,This goal has been accepted by the simple action server,0,1449618006955047505,odom,0.0287972894122,-6.08664578733e-05,0.0,0.0,0.0,0.0,1.0
1449618007044607086,83,1449618007044314306,,1449618006191026700,/move_base-35-1449618006.191026700,1,This goal has been accepted by the simple action server,0,1449618007035324991,odom,0.0316769218666,-3.04332289367e-05,0.0,0.0,0.0,0.0052839997518,0.999986039576
1449618007139416168,84,1449618007133998371,,1449618006191026700,/move_base-35-1449618006.191026700,1,This goal has been accepted by the simple action server,0,1449618007117672180,odom,0.0403143719808,0.000152155948096,0.0,0.0,0.0,0.0105678519699,0.999944158693
1449618007236747705,85,1449618007232436605,,1449618007143499582,/move_base-36-1449618007.143499582,1,This goal has been accepted by the simple action server,0,1449618007195048915,odom,0.0518243799784,0.000608538828031,0.0,0.0,0.0,0.0211345236944,0.999776641009
1449618007246641378,86,1449618007235786532,,1449618007143499582,/move_base-36-1449618007.143499582,1,This goal has been accepted by the simple action server,0,1449618007195048915,odom,0.0518243799784,0.000608538828031,0.0,0.0,0.0,0.0211345236944,0.999776641009
1449618007286039774,87,1449618007284856814,,1449618007270609859,/move_base-37-1449618007.270609859,1,This goal has been accepted by the simple action server,0,1449618007275034861,odom,0.0575741597969,0.000943117438121,0.0,0.0,0.0,0.0316988350601,0.999497465658
1449618007336329358,88,1449618007334287435,,1449618007270609859,/move_base-37-1449618007.270609859,1,This goal has been accepted by the simple action server,0,1449618007315051949,odom,0.0661899108743,0.00158164438035,0.0,0.0,0.0,0.0369797368913,0.999316015612
1449618007414044899,89,1449618007401171325,,1449618007270609859,/move_base-37-1449618007.270609859,1,This goal has been accepted by the simple action server,0,1449618007395039252,odom,0.0719261954788,0.0020983161753,0.0,0.0,0.0,0.0475382956186,0.998869416115
1449618007479859426,90,1449618007479758687,,1449618007270609859,/move_base-37-1449618007.270609859,1,This goal has been accepted by the simple action server,0,1449618007478041912,odom,0.0862169107642,0.00385903498585,0.0,0.0,0.0,0.0633658106137,0.997990367712
1449618007528964205,91,1449618007518902296,,1449618007270609859,/move_base-37-1449618007.270609859,1,This goal has been accepted by the simple action server,0,1449618007478041912,odom,0.0862169107642,0.00385903498585,0.0,0.0,0.0,0.0633658106137,0.997990367712
1449618007631485960,92,1449618007628601541,,1449618007270609859,/move_base-37-1449618007.270609859,1,This goal has been accepted by the simple action server,0,1449618007595034624,odom,0.10042446305,0.00619191894972,0.0,0.0,0.0,0.0897076561262,0.99596814027
1449618007679210586,93,1449618007678663373,,1449618007270609859,/move_base-37-1449618007.270609859,1,This goal has been accepted by the simple action server,0,1449618007635031139,odom,0.111712201411,0.00848937640422,0.0,0.0,0.0,0.100227890607,0.994964506877
1449618007776195840,94,1449618007773883178,,1449618007270609859,/move_base-37-1449618007.270609859,1,This goal has been accepted by the simple action server,0,1449618007755042038,odom,0.131253871776,0.0134291607378,0.0,0.0,0.0,0.126476937269,0.991969548091
1449618007830776800,95,1449618007822685646,,1449618007270609859,/move_base-37-1449618007.270609859,1,This goal has been accepted by the simple action server,0,1449618007795034174,odom,0.139543933453,0.0158609832379,0.0,0.0,0.0,0.142185161666,0.989840077892
1449618007885473903,96,1449618007884824305,,1449618007270609859,/move_base-37-1449618007.270609859,1,This goal has been accepted by the simple action server,0,1449618007875039927,odom,0.153243952888,0.0202920261853,0.0,0.0,0.0,0.157857657354,0.987461877753
1449618008031832267,97,1449618008024477369,,1449618007270609859,/move_base-37-1449618007.270609859,1,This goal has been accepted by the simple action server,0,1449618007996820446,odom,0.177557258401,0.029262044964,0.0,0.0,0.0,0.183888394426,0.982947128993
1449618008118907908,98,1449618008118658382,,1449618007270609859,/move_base-37-1449618007.270609859,1,This goal has been accepted by the simple action server,0,1449618008115217997,odom,0.198796189054,0.0381822699696,0.0,0.0,0.0,0.204621440688,0.978841185285
1449618008209978841,99,1449618008205080458,,1449618007270609859,/move_base-37-1449618007.270609859,1,This goal has been accepted by the simple action server,0,1449618008195285415,odom,0.21447820689,0.0454369132914,0.0,0.0,0.0,0.214954263107,0.976624116419
1449618008294111120,100,1449618008288270692,,1449618007270609859,/move_base-37-1449618007.270609859,1,This goal has been accepted by the simple action server,0,1449618008275131437,odom,0.235178462471,0.0555495198373,0.0,0.0,0.0,0.225263078873,0.97429797562
1449618008381102450,101,1449618008378626676,,1449618007270609859,/move_base-37-1449618007.270609859,1,This goal has been accepted by the simple action server,0,1449618008355135537,odom,0.250581264217,0.0633790086853,0.0,0.0,0.0,0.235546736669,0.971863022676
1449618008491772646,102,1449618008485765373,,1449618007270609859,/move_base-37-1449618007.270609859,1,This goal has been accepted by the simple action server,0,1449618008477619022,odom,0.278415584075,0.0785004691714,0.0,0.0,0.0,0.250922540614,0.968007168678
1449618008595278764,103,1449618008590668846,,1449618007270609859,/move_base-37-1449618007.270609859,1,This goal has been accepted by the simple action server,0,1449618008555107316,odom,0.295990912306,0.088372853713,0.0,0.0,0.0,0.256033987268,0.966667780245
1449618008670982895,104,1449618008663699757,,1449618007270609859,/move_base-37-1449618007.270609859,1,This goal has been accepted by the simple action server,0,1449618008637621489,odom,0.318374169763,0.101439595278,0.0,0.0,0.0,0.261138285236,0.965301401628
1449618008732451844,105,1449618008727129795,,1449618007270609859,/move_base-37-1449618007.270609859,1,This goal has been accepted by the simple action server,0,1449618008715049832,odom,0.335674996552,0.111786026831,0.0,0.0,0.0,0.266235292001,0.963908070976
1449618008809047839,106,1449618008808762641,,1449618007270609859,/move_base-37-1449618007.270609859,1,This goal has been accepted by the simple action server,0,1449618008795048348,odom,0.352865517682,0.122314713201,0.0,0.0,0.0,0.271324865251,0.962487827194
1449618008902946845,107,1449618008901352027,,1449618007270609859,/move_base-37-1449618007.270609859,1,This goal has been accepted by the simple action server,0,1449618008875041594,odom,0.374823326299,0.136084411467,0.0,0.0,0.0,0.276406862881,0.961040709935
1449618009009658106,108,1449618009008917094,,1449618007270609859,/move_base-37-1449618007.270609859,1,This goal has been accepted by the simple action server,0,1449618008995054833,odom,0.406377113983,0.156230951131,0.0,0.0,0.0,0.281481142997,0.959566759604
1449618009074842597,109,1449618009066064801,,1449618007270609859,/move_base-37-1449618007.270609859,1,This goal has been accepted by the simple action server,0,1449618009035057704,odom,0.411224017612,0.159342279179,0.0,0.0,0.0,0.281481142997,0.959566759604
1449618009202587080,110,1449618009196863633,,1449618007270609859,/move_base-37-1449618007.270609859,1,This goal has been accepted by the simple action server,0,1449618009195045662,odom,0.449999246644,0.184232903568,0.0,0.0,0.0,0.281481142997,0.959566759604
1449618009341709070,111,1449618009326152650,,1449618007270609859,/move_base-37-1449618007.270609859,1,This goal has been accepted by the simple action server,0,1449618009316027064,odom,0.479080668418,0.202900871859,0.0,0.0,0.0,0.281481142997,0.959566759604
1449618009413858824,112,1449618009412452673,,1449618007270609859,/move_base-37-1449618007.270609859,1,This goal has been accepted by the simple action server,0,1449618009395043330,odom,0.496093745215,0.213713427378,0.0,0.0,0.0,0.276406862881,0.961040709935
1449618009446007744,113,1449618009429241932,,1449618007270609859,/move_base-37-1449618007.270609859,1,This goal has been accepted by the simple action server,0,1449618009395043330,odom,0.496093745215,0.213713427378,0.0,0.0,0.0,0.276406862881,0.961040709935
1449618013883729564,114,1449618013881519644,,1449618013881419301,/move_base-38-1449618013.881419301,1,This goal has been accepted by the simple action server,0,1449618013835036837,odom,1.4477727667,0.215497994721,0.0,0.0,0.0,-0.296656262579,0.954984325459
1449618013938815050,115,1449618013934760296,,1449618013881419301,/move_base-38-1449618013.881419301,1,This goal has been accepted by the simple action server,0,1449618013915239675,odom,1.45726445153,0.208971183325,0.0,0.0,0.0,-0.296656262579,0.954984325459
1449618014054548267,116,1449618014052526596,,1449618013881419301,/move_base-38-1449618013.881419301,1,This goal has been accepted by the simple action server,0,1449618014035050735,odom,1.46907692928,0.200737712389,0.0,0.0,0.0,-0.30169825807,0.953403461855
1449618014131976386,117,1449618014127828138,,1449618013881419301,/move_base-38-1449618013.881419301,1,This goal has been accepted by the simple action server,0,1449618014115032730,odom,1.47378801949,0.197424335564,0.0,0.0,0.0,-0.30169825807,0.953403461855
1449618014184032803,118,1449618014183809910,,1449618013881419301,/move_base-38-1449618013.881419301,1,This goal has been accepted by the simple action server,0,1449618014155041647,odom,1.47849910971,0.194110958738,0.0,0.0,0.0,-0.30169825807,0.953403461855
1449618014263458385,119,1449618014258060887,,1449618013881419301,/move_base-38-1449618013.881419301,1,This goal has been accepted by the simple action server,0,1449618014235039838,odom,1.48321019993,0.190797581913,0.0,0.0,0.0,-0.30169825807,0.953403461855
1449618014438595344,120,1449618014433044869,,1449618013881419301,/move_base-38-1449618013.881419301,1,This goal has been accepted by the simple action server,0,1449618014395037962,odom,1.49734347058,0.180857451437,0.0,0.0,0.0,-0.30169825807,0.953403461855
1449618014552310066,121,1449618014546945579,,1449618013881419301,/move_base-38-1449618013.881419301,1,This goal has been accepted by the simple action server,0,1449618014515063260,odom,1.5044448581,0.175937357326,0.0,0.0,0.0,-0.296656262579,0.954984325459
1449618014648766678,122,1449618014641746681,,1449618013881419301,/move_base-38-1449618013.881419301,1,This goal has been accepted by the simple action server,0,1449618014635057953,odom,1.51632657524,0.167804010878,0.0,0.0,0.0,-0.291605984193,0.956538525091
1449618014722451847,123,1449618014719512081,,1449618013881419301,/move_base-38-1449618013.881419301,1,This goal has been accepted by the simple action server,0,1449618014715038329,odom,1.52836095753,0.159898071708,0.0,0.0,0.0,-0.28654756392,0.958066017355
1449618014798829210,124,1449618014793717268,,1449618013881419301,/move_base-38-1449618013.881419301,1,This goal has been accepted by the simple action server,0,1449618014755035384,odom,1.53317471045,0.15673569604,0.0,0.0,0.0,-0.28654756392,0.958066017355
1449618014855939024,125,1449618014836634048,,1449618013881419301,/move_base-38-1449618013.881419301,1,This goal has been accepted by the simple action server,0,1449618014795059795,odom,1.54044506589,0.152068703967,0.0,0.0,0.0,-0.281481142997,0.959566759604
1449618015005279992,126,1449618015002998533,,1449618013881419301,/move_base-38-1449618013.881419301,1,This goal has been accepted by the simple action server,0,1449618014995049294,odom,1.57488694053,0.131116811966,0.0,0.0,0.0,-0.261138285236,0.965301401628
1449618015079422851,127,1449618015079245842,,1449618013881419301,/move_base-38-1449618013.881419301,1,This goal has been accepted by the simple action server,0,1449618015035049798,odom,1.58483505495,0.12530937127,0.0,0.0,0.0,-0.261138285236,0.965301401628
1449618015154803605,128,1449618015152624878,,1449618013881419301,/move_base-38-1449618013.881419301,1,This goal has been accepted by the simple action server,0,1449618015116313140,odom,1.60252837524,0.11564995055,0.0,0.0,0.0,-0.24580408799,0.96931952953
1449618015267709081,129,1449618015262697107,,1449618015212233998,/move_base-39-1449618015.212233998,1,This goal has been accepted by the simple action server,0,1449618015239086895,odom,1.62822557232,0.102655936579,0.0,0.0,0.0,-0.225263078873,0.97429797562
1449618015333136053,130,1449618015331843804,,1449618015212233998,/move_base-39-1449618015.212233998,1,This goal has been accepted by the simple action server,0,1449618015315223383,odom,1.64907031135,0.0928453120384,0.0,0.0,0.0,-0.214954263107,0.976624116419
1449618015417408482,131,1449618015416627624,,1449618015212233998,/move_base-39-1449618015.212233998,1,This goal has been accepted by the simple action server,0,1449618015395038014,odom,1.6675519493,0.0847984582751,0.0,0.0,0.0,-0.199446387505,0.979908739889
1449618015490690572,132,1449618015476152869,,1449618015212233998,/move_base-39-1449618015.212233998,1,This goal has been accepted by the simple action server,0,1449618015435038531,odom,1.68086410504,0.0793105861185,0.0,0.0,0.0,-0.194265765611,0.98094893461
1449618015587321821,133,1449618015586067713,,1449618015212233998,/move_base-39-1449618015.212233998,1,This goal has been accepted by the simple action server,0,1449618015556313100,odom,1.70778859684,0.0690997057334,0.0,0.0,0.0,-0.173490486104,0.984835545272
1449618015691704610,134,1449618015691236246,,1449618015212233998,/move_base-39-1449618015.212233998,1,This goal has been accepted by the simple action server,0,1449618015675214164,odom,1.73778060597,0.0589067385833,0.0,0.0,0.0,-0.157857657354,0.987461877753
1449618015760996174,135,1449618015759572086,,1449618015212233998,/move_base-39-1449618015.212233998,1,This goal has been accepted by the simple action server,0,1449618015755049654,odom,1.75708920046,0.053115856285,0.0,0.0,0.0,-0.142185161666,0.989840077892
1449618015839838238,136,1449618015826213952,,1449618015212233998,/move_base-39-1449618015.212233998,1,This goal has been accepted by the simple action server,0,1449618015795087741,odom,1.76540449835,0.0507717777256,0.0,0.0,0.0,-0.136952861975,0.990577565664
1449618015950762219,137,1449618015950459415,,1449618015888690503,/move_base-40-1449618015.888690503,1,This goal has been accepted by the simple action server,0,1449618015915053286,odom,1.79895211313,0.042484403407,0.0,0.0,0.0,-0.115986887289,0.993250744765
1449618016002665144,138,1449618015999722540,,1449618015888690503,/move_base-40-1449618015.888690503,1,This goal has been accepted by the simple action server,0,1449618015995050329,odom,1.81583981456,0.0388297567025,0.0,0.0,0.0,-0.10548388359,0.994421012601
1449618016121635239,139,1449618016119221155,,1449618015888690503,/move_base-40-1449618015.888690503,1,This goal has been accepted by the simple action server,0,1449618016115045018,odom,1.84130627755,0.0340190886273,0.0,0.0,0.0,-0.0897076561262,0.99596814027
1449618016187588574,140,1449618016186131616,,1449618015888690503,/move_base-40-1449618015.888690503,1,This goal has been accepted by the simple action server,0,1449618016155036535,odom,1.8441450007,0.0335344649406,0.0,0.0,0.0,-0.0844437083633,0.996428251365
1449618016264272058,141,1449618016261957099,,1449618015888690503,/move_base-40-1449618015.888690503,1,This goal has been accepted by the simple action server,0,1449618016235039886,odom,1.86409630206,0.0306531956321,0.0,0.0,0.0,-0.0686383068554,0.997641610415
1449618016339708008,142,1449618016338223691,,1449618015888690503,/move_base-40-1449618015.888690503,1,This goal has been accepted by the simple action server,0,1449618016315037868,odom,1.87837162094,0.0287717214761,0.0,0.0,0.0,-0.0633658106137,0.997990367712
1449618016443531333,143,1449618016438389797,,1449618016364156604,/move_base-41-1449618016.364156604,1,This goal has been accepted by the simple action server,0,1449618016435047656,odom,1.90414420388,0.0260378772557,0.0,0.0,0.0,-0.0475382956186,0.998869416115
1449618016489345544,144,1449618016487885087,,1449618016364156604,/move_base-41-1449618016.364156604,1,This goal has been accepted by the simple action server,0,1449618016475554763,odom,1.91275272598,0.0253083359876,0.0,0.0,0.0,-0.042259606217,0.999106663816
1449618016603478106,145,1449618016601454257,,1449618016566928094,/move_base-42-1449618016.566928094,1,This goal has been accepted by the simple action server,0,1449618016597145334,odom,1.93573432893,0.0236966831132,0.0,0.0,0.0,-0.0316988350601,0.999497465658
1449618016654543456,146,1449618016651299730,,1449618016566928094,/move_base-42-1449618016.566928094,1,This goal has been accepted by the simple action server,0,1449618016635194053,odom,1.94436165056,0.023240388587,0.0,0.0,0.0,-0.0264170481704,0.999651008886
1449618016751722244,147,1449618016750790515,,1449618016566928094,/move_base-42-1449618016.566928094,1,This goal has been accepted by the simple action server,0,1449618016715049294,odom,1.95587390942,0.0228448313824,0.0,0.0,0.0,-0.0158514091245,0.999874358521
1449618016850883900,148,1449618016850751683,,1449618016566928094,/move_base-42-1449618016.566928094,1,This goal has been accepted by the simple action server,0,1449618016835562269,odom,1.98466508843,0.0222970876418,0.0,0.0,0.0,-0.0052839997518,0.999986039576
1449618016928681578,149,1449618016921219158,,1449618016566928094,/move_base-42-1449618016.566928094,1,This goal has been accepted by the simple action server,0,1449618016915045826,odom,1.99906405476,0.0222970876418,0.0,0.0,0.0,-2.22044604925e-16,1.0
1449618017018499773,150,1449618016996354290,,1449618016566928094,/move_base-42-1449618016.566928094,1,This goal has been accepted by the simple action server,0,1449618016955230772,odom,2.00770295212,0.0223883873286,0.0,0.0,0.0,0.0052839997518,0.999986039576
1449618017092560449,151,1449618017091849193,,1449618016566928094,/move_base-42-1449618016.566928094,1,This goal has been accepted by the simple action server,0,1449618017075561199,odom,2.0364920406,0.0230882870169,0.0,0.0,0.0,0.0158514091245,0.999874358521
1449618017169421436,152,1449618017166538426,,1449618016566928094,/move_base-42-1449618016.566928094,1,This goal has been accepted by the simple action server,0,1449618017159807594,odom,2.05663258509,0.0239401795227,0.0,0.0,0.0,0.0211345236944,0.999776641009
1449618017246820298,153,1449618017236904763,,1449618016566928094,/move_base-42-1449618016.566928094,1,This goal has been accepted by the simple action server,0,1449618017195332411,odom,2.07101145449,0.0247006703997,0.0,0.0,0.0,0.0264170481704,0.999651008886
1449618017343603072,154,1449618017334277518,,1449618016566928094,/move_base-42-1449618016.566928094,1,This goal has been accepted by the simple action server,0,1449618017315850530,odom,2.10263259158,0.0265864261441,0.0,0.0,0.0,0.0316988350601,0.999497465658
1449618017448792441,155,1449618017445421805,,1449618017393907859,/move_base-43-1449618017.393907859,1,This goal has been accepted by the simple action server,0,1449618017435031327,odom,2.1370835476,0.0292922244561,0.0,0.0,0.0,0.042259606217,0.999106663816
1449618017500212089,156,1449618017495711454,,1449618017393907859,/move_base-43-1449618017.393907859,1,This goal has been accepted by the simple action server,0,1449618017475302638,odom,2.14856157707,0.0302649461468,0.0,0.0,0.0,0.042259606217,0.999106663816
1449618017599006647,157,1449618017598605966,,1449618017393907859,/move_base-43-1449618017.393907859,1,This goal has been accepted by the simple action server,0,1449618017555367507,odom,2.16862901773,0.0321793857526,0.0,0.0,0.0,0.0475382956186,0.998869416115
1449618017673870927,158,1449618017672683198,,1449618017393907859,/move_base-43-1449618017.393907859,1,This goal has been accepted by the simple action server,0,1449618017635089250,odom,2.18867510628,0.0343057881959,0.0,0.0,0.0,0.0528156577107,0.998604279132
1449618017810691409,159,1449618017799039969,,1449618017393907859,/move_base-43-1449618017.393907859,1,This goal has been accepted by the simple action server,0,1449618017795552835,odom,2.23730117198,0.0399840985638,0.0,0.0,0.0,0.0580915451448,0.99831126027
1449618017896602012,160,1449618017888230305,,1449618017393907859,/move_base-43-1449618017.393907859,1,This goal has been accepted by the simple action server,0,1449618017875582119,odom,2.25446331282,0.0419882081054,0.0,0.0,0.0,0.0580915451448,0.99831126027
1449618018007127398,161,1449618017994314241,,1449618017393907859,/move_base-43-1449618017.393907859,1,This goal has been accepted by the simple action server,0,1449618017955033505,odom,2.28017331784,0.0452662549955,0.0,0.0,0.0,0.0633658106137,0.997990367712
1449618018075350318,162,1449618018073715828,,1449618017393907859,/move_base-43-1449618017.393907859,1,This goal has been accepted by the simple action server,0,1449618018035033357,odom,2.3001499453,0.0479666895081,0.0,0.0,0.0,0.0686383068554,0.997641610415
1449618018158390932,163,1449618018155174533,,1449618017393907859,/move_base-43-1449618017.393907859,1,This goal has been accepted by the simple action server,0,1449618018115051378,odom,2.32013058138,0.0506369555234,0.0,0.0,0.0,0.0633658106137,0.997990367712
1449618018267907517,164,1449618018262702581,,1449618018207713019,/move_base-44-1449618018.207713019,1,This goal has been accepted by the simple action server,0,1449618018235224255,odom,2.35150982601,0.0549753107495,0.0,0.0,0.0,0.0686383068554,0.997641610415
1449618018333054673,165,1449618018328195093,,1449618018207713019,/move_base-44-1449618018.207713019,1,This goal has been accepted by the simple action server,0,1449618018315043253,odom,2.37716211737,0.0586754963676,0.0,0.0,0.0,0.0739088866573,0.997264998119
1449618018418461114,166,1449618018413804922,,1449618018207713019,/move_base-44-1449618018.207713019,1,This goal has been accepted by the simple action server,0,1449618018395039933,odom,2.39426508735,0.0611322452962,0.0,0.0,0.0,0.0739088866573,0.997264998119
1449618018541727689,167,1449618018519657532,,1449618018207713019,/move_base-44-1449618018.207713019,1,This goal has been accepted by the simple action server,0,1449618018515290482,odom,2.42276138288,0.0652870757444,0.0,0.0,0.0,0.0739088866573,0.997264998119
1449618018591230230,168,1449618018588401354,,1449618018207713019,/move_base-44-1449618018.207713019,1,This goal has been accepted by the simple action server,0,1449618018555039780,odom,2.42845804565,0.0661361165042,0.0,0.0,0.0,0.0739088866573,0.997264998119
1449618018666066063,169,1449618018665566641,,1449618018207713019,/move_base-44-1449618018.207713019,1,This goal has been accepted by the simple action server,0,1449618018635011051,odom,2.45124469676,0.0695322795434,0.0,0.0,0.0,0.0739088866573,0.997264998119
1449618018746934107,170,1449618018744893686,,1449618018207713019,/move_base-44-1449618018.207713019,1,This goal has been accepted by the simple action server,0,1449618018715040578,odom,2.46263802232,0.071230361063,0.0,0.0,0.0,0.0739088866573,0.997264998119
1449618018846716535,171,1449618018839830498,,1449618018207713019,/move_base-44-1449618018.207713019,1,This goal has been accepted by the simple action server,0,1449618018835037491,odom,2.48542467343,0.0746265241021,0.0,0.0,0.0,0.0739088866573,0.997264998119
1449618018943543845,172,1449618018942140433,,1449618018207713019,/move_base-44-1449618018.207713019,1,This goal has been accepted by the simple action server,0,1449618018915045367,odom,2.50250072579,0.0772638774976,0.0,0.0,0.0,0.0739088866573,0.997264998119
1449618019006148090,173,1449618018999851838,,1449618018207713019,/move_base-44-1449618018.207713019,1,This goal has been accepted by the simple action server,0,1449618018995366198,odom,2.51389405135,0.0789619590172,0.0,0.0,0.0,0.0739088866573,0.997264998119
1449618019085707559,174,1449618019081529814,,1449618018207713019,/move_base-44-1449618018.207713019,1,This goal has been accepted by the simple action server,0,1449618019075066921,odom,2.53098403968,0.0815090812966,0.0,0.0,0.0,0.0739088866573,0.997264998119
1449618019177142514,175,1449618019170428621,,1449618018207713019,/move_base-44-1449618018.207713019,1,This goal has been accepted by the simple action server,0,1449618019155044688,odom,2.54808700966,0.0839658302252,0.0,0.0,0.0,0.0739088866573,0.997264998119
1449618019260536472,176,1449618019258609380,,1449618018207713019,/move_base-44-1449618018.207713019,1,This goal has been accepted by the simple action server,0,1449618019235040985,odom,2.56234164824,0.085998058774,0.0,0.0,0.0,0.0686383068554,0.997641610415
1449618019327727884,177,1449618019319370730,,1449618018207713019,/move_base-44-1449618018.207713019,1,This goal has been accepted by the simple action server,0,1449618019275058350,odom,2.57375228266,0.0875756424925,0.0,0.0,0.0,0.0686383068554,0.997641610415
1449618019440394202,178,1449618019439715634,,1449618019393507020,/move_base-45-1449618019.393507020,1,This goal has been accepted by the simple action server,0,1449618019395047186,odom,2.59946228768,0.0908536893826,0.0,0.0,0.0,0.0633658106137,0.997990367712
1449618019527937134,179,1449618019514586034,,1449618019393507020,/move_base-45-1449618019.393507020,1,This goal has been accepted by the simple action server,0,1449618019475295024,odom,2.61948478532,0.0931918171811,0.0,0.0,0.0,0.0580915451448,0.99831126027
1449618019620220708,180,1449618019606231696,,1449618019393507020,/move_base-45-1449618019.393507020,1,This goal has been accepted by the simple action server,0,1449618019595036828,odom,2.64814340678,0.0960175721198,0.0,0.0,0.0,0.0475382956186,0.998869416115
1449618019692230701,181,1449618019670273510,,1449618019393507020,/move_base-45-1449618019.393507020,1,This goal has been accepted by the simple action server,0,1449618019635046169,odom,2.65961051572,0.0971115376089,0.0,0.0,0.0,0.0475382956186,0.998869416115
1449618019758879253,182,1449618019753948262,,1449618019393507020,/move_base-45-1449618019.393507020,1,This goal has been accepted by the simple action server,0,1449618019715044555,odom,2.6796970673,0.0988138005676,0.0,0.0,0.0,0.042259606217,0.999106663816
1449618019809955824,183,1449618019798309611,,1449618019393507020,/move_base-45-1449618019.393507020,1,This goal has been accepted by the simple action server,0,1449618019795462628,odom,2.69979084785,0.100425049201,0.0,0.0,0.0,0.0369797368913,0.999316015612
1449618019868393923,184,1449618019866991895,,1449618019393507020,/move_base-45-1449618019.393507020,1,This goal has been accepted by the simple action server,0,1449618019835041833,odom,2.71127851595,0.101276418457,0.0,0.0,0.0,0.0369797368913,0.999316015612
1449618019944031849,185,1449618019937193297,,1449618019393507020,/move_base-45-1449618019.393507020,1,This goal has been accepted by the simple action server,0,1449618019915154786,odom,2.72851001811,0.102553472341,0.0,0.0,0.0,0.0369797368913,0.999316015612
1449618019980061415,186,1449618019978840555,,1449618019393507020,/move_base-45-1449618019.393507020,1,This goal has been accepted by the simple action server,0,1449618019955129997,odom,2.73713203593,0.103100913645,0.0,0.0,0.0,0.0316988350601,0.999497465658
1449618020017551164,187,1449618020016976474,,1449618019393507020,/move_base-45-1449618019.393507020,1,This goal has been accepted by the simple action server,0,1449618019995035779,odom,2.74862805969,0.103830835384,0.0,0.0,0.0,0.0316988350601,0.999497465658
1449618020074122669,188,1449618020067014363,,1449618019393507020,/move_base-45-1449618019.393507020,1,This goal has been accepted by the simple action server,0,1449618020035039317,odom,2.75437607157,0.104195796254,0.0,0.0,0.0,0.0316988350601,0.999497465658
1449618020122084683,189,1449618020119388699,,1449618019393507020,/move_base-45-1449618019.393507020,1,This goal has been accepted by the simple action server,0,1449618020115036941,odom,2.77450648872,0.105260483481,0.0,0.0,0.0,0.0264170481704,0.999651008886
1449618020167672558,190,1449618020166949856,,1449618019393507020,/move_base-45-1449618019.393507020,1,This goal has been accepted by the simple action server,0,1449618020155605173,odom,2.78025803648,0.105564679832,0.0,0.0,0.0,0.0264170481704,0.999651008886
1449618020224187104,191,1449618020218161880,,1449618019393507020,/move_base-45-1449618019.393507020,1,This goal has been accepted by the simple action server,0,1449618020195264132,odom,2.7888896984,0.10592977662,0.0,0.0,0.0,0.0211345236944,0.999776641009
1449618020284721575,192,1449618020275793219,,1449618019393507020,/move_base-45-1449618019.393507020,1,This goal has been accepted by the simple action server,0,1449618020235044021,odom,2.79751702004,0.106386071147,0.0,0.0,0.0,0.0264170481704,0.999651008886
1449618020325267459,193,1449618020321107657,,1449618019393507020,/move_base-45-1449618019.393507020,1,This goal has been accepted by the simple action server,0,1449618020315042578,odom,2.81190312325,0.106994565794,0.0,0.0,0.0,0.0211345236944,0.999776641009
1449618020384913841,194,1449618020381731187,,1449618019393507020,/move_base-45-1449618019.393507020,1,This goal has been accepted by the simple action server,0,1449618020355033671,odom,2.81765756453,0.107237963652,0.0,0.0,0.0,0.0211345236944,0.999776641009
1449618020475859689,195,1449618020475669735,,1449618019393507020,/move_base-45-1449618019.393507020,1,This goal has been accepted by the simple action server,0,1449618020475039226,odom,2.83780148531,0.107998617645,0.0,0.0,0.0,0.0158514091245,0.999874358521
1449618020556561690,196,1449618020545707924,,1449618019393507020,/move_base-45-1449618019.393507020,1,This goal has been accepted by the simple action server,0,1449618020515052548,odom,2.84355817746,0.108181189829,0.0,0.0,0.0,0.0158514091245,0.999874358521
1449618020646765767,197,1449618020632120735,,1449618019393507020,/move_base-45-1449618019.393507020,1,This goal has been accepted by the simple action server,0,1449618020595043694,odom,2.85507156174,0.108546334196,0.0,0.0,0.0,0.0158514091245,0.999874358521
1449618020694873975,198,1449618020689904432,,1449618019393507020,/move_base-45-1449618019.393507020,1,This goal has been accepted by the simple action server,0,1449618020675052344,odom,2.86658494602,0.108911478563,0.0,0.0,0.0,0.0158514091245,0.999874358521
1449618020769000604,199,1449618020764120603,,1449618019393507020,/move_base-45-1449618019.393507020,1,This goal has been accepted by the simple action server,0,1449618020755231059,odom,2.87809833031,0.10927662293,0.0,0.0,0.0,0.0158514091245,0.999874358521
1449618020850210022,200,1449618020845807888,,1449618019393507020,/move_base-45-1449618019.393507020,1,This goal has been accepted by the simple action server,0,1449618020835053286,odom,2.88961171459,0.109641767297,0.0,0.0,0.0,0.0158514091245,0.999874358521
1449618020901278229,201,1449618020897539326,,1449618019393507020,/move_base-45-1449618019.393507020,1,This goal has been accepted by the simple action server,0,1449618020875068585,odom,2.89536840673,0.10982433948,0.0,0.0,0.0,0.0158514091245,0.999874358521
1449618020968971134,202,1449618020967219035,,1449618019393507020,/move_base-45-1449618019.393507020,1,This goal has been accepted by the simple action server,0,1449618020955044127,odom,2.90688179101,0.110189483847,0.0,0.0,0.0,0.0158514091245,0.999874358521
1449618021022854180,203,1449618021021075082,,1449618019393507020,/move_base-45-1449618019.393507020,1,This goal has been accepted by the simple action server,0,1449618020995101356,odom,2.91263848315,0.11037205603,0.0,0.0,0.0,0.0158514091245,0.999874358521
1449618021091298331,204,1449618021081292983,,1449618019393507020,/move_base-45-1449618019.393507020,1,This goal has been accepted by the simple action server,0,1449618021075041360,odom,2.92127593327,0.110554645207,0.0,0.0,0.0,0.0105678519699,0.999944158693
1449618021153247801,205,1449618021145613194,,1449618019393507020,/move_base-45-1449618019.393507020,1,This goal has been accepted by the simple action server,0,1449618021115216088,odom,2.92703423335,0.110676371325,0.0,0.0,0.0,0.0105678519699,0.999944158693
1449618021206561649,206,1449618021201275289,,1449618019393507020,/move_base-45-1449618019.393507020,1,This goal has been accepted by the simple action server,0,1449618021195064499,odom,2.93566927156,0.110950229601,0.0,0.0,0.0,0.0158514091245,0.999874358521
1449618021315776632,207,1449618021313947486,,1449618019393507020,/move_base-45-1449618019.393507020,1,This goal has been accepted by the simple action server,0,1449618021275269235,odom,2.94430511374,0.111193664843,0.0,0.0,0.0,0.0105678519699,0.999944158693
1449618021418915054,208,1449618021404633939,,1449618019393507020,/move_base-45-1449618019.393507020,1,This goal has been accepted by the simple action server,0,1449618021395871110,odom,2.95870005996,0.111528403171,0.0,0.0,0.0,0.0158514091245,0.999874358521
1449618021466608427,209,1449618021466176986,,1449618019393507020,/move_base-45-1449618019.393507020,1,This goal has been accepted by the simple action server,0,1449618021435054869,odom,2.9644567521,0.111710975354,0.0,0.0,0.0,0.0158514091245,0.999874358521
1449618021569369844,210,1449618021555313122,,1449618019393507020,/move_base-45-1449618019.393507020,1,This goal has been accepted by the simple action server,0,1449618021515195468,odom,2.97309420222,0.111893564531,0.0,0.0,0.0,0.0105678519699,0.999944158693
1449618021615514044,211,1449618021615176913,,1449618019393507020,/move_base-45-1449618019.393507020,1,This goal has been accepted by the simple action server,0,1449618021595132969,odom,2.98461080237,0.112137016768,0.0,0.0,0.0,0.0105678519699,0.999944158693
1449618021665329616,212,1449618021663863908,,1449618019393507020,/move_base-45-1449618019.393507020,1,This goal has been accepted by the simple action server,0,1449618021635044473,odom,2.99036910244,0.112258742886,0.0,0.0,0.0,0.0105678519699,0.999944158693
1449618021743719126,213,1449618021741245217,,1449618019393507020,/move_base-45-1449618019.393507020,1,This goal has been accepted by the simple action server,0,1449618021715040946,odom,3.00188489863,0.112532618154,0.0,0.0,0.0,0.0105678519699,0.999944158693
1449618021810117252,214,1449618021806435652,,1449618019393507020,/move_base-45-1449618019.393507020,1,This goal has been accepted by the simple action server,0,1449618021795306727,odom,3.00764319871,0.112654344272,0.0,0.0,0.0,0.0105678519699,0.999944158693
1449618021924928275,215,1449618021923426106,,1449618019393507020,/move_base-45-1449618019.393507020,1,This goal has been accepted by the simple action server,0,1449618021875310320,odom,3.01915979886,0.112897796508,0.0,0.0,0.0,0.0105678519699,0.999944158693
1449618022037102116,216,1449618022035566732,,1449618019393507020,/move_base-45-1449618019.393507020,1,This goal has been accepted by the simple action server,0,1449618021995427261,odom,3.03643469909,0.113262974862,0.0,0.0,0.0,0.0105678519699,0.999944158693
1449618022134921744,217,1449618022128279647,,1449618019393507020,/move_base-45-1449618019.393507020,1,This goal has been accepted by the simple action server,0,1449618022115038433,odom,3.04795178166,0.113475997268,0.0,0.0,0.0,0.0105678519699,0.999944158693
1449618022190225616,218,1449618022190025159,,1449618019393507020,/move_base-45-1449618019.393507020,1,This goal has been accepted by the simple action server,0,1449618022155035449,odom,3.05659067902,0.113567296955,0.0,0.0,0.0,0.0052839997518,0.999986039576
1449618022245843360,219,1449618022243522182,,1449618019393507020,/move_base-45-1449618019.393507020,1,This goal has been accepted by the simple action server,0,1449618022235041821,odom,3.06522812913,0.113749886132,0.0,0.0,0.0,0.0105678519699,0.999944158693
1449618022312249851,220,1449618022307992731,,1449618019393507020,/move_base-45-1449618019.393507020,1,This goal has been accepted by the simple action server,0,1449618022275590010,odom,3.07098642921,0.11387161225,0.0,0.0,0.0,0.0105678519699,0.999944158693
1449618022387557402,221,1449618022372708281,,1449618019393507020,/move_base-45-1449618019.393507020,1,This goal has been accepted by the simple action server,0,1449618022355315039,odom,3.08250302936,0.114115064486,0.0,0.0,0.0,0.0105678519699,0.999944158693
1449618022430696486,222,1449618022429862218,,1449618019393507020,/move_base-45-1449618019.393507020,1,This goal has been accepted by the simple action server,0,1449618022395372381,odom,3.08826132944,0.114236790604,0.0,0.0,0.0,0.0105678519699,0.999944158693
1449618022530453614,223,1449618022518780839,,1449618019393507020,/move_base-45-1449618019.393507020,1,This goal has been accepted by the simple action server,0,1449618022475283652,odom,3.09977792959,0.11448024284,0.0,0.0,0.0,0.0105678519699,0.999944158693
1449618022578897578,224,1449618022569882883,,1449618019393507020,/move_base-45-1449618019.393507020,1,This goal has been accepted by the simple action server,0,1449618022555035135,odom,3.10553622967,0.114601968958,0.0,0.0,0.0,0.0105678519699,0.999944158693
1449618022655982453,225,1449618022648386227,,1449618019393507020,/move_base-45-1449618019.393507020,1,This goal has been accepted by the simple action server,0,1449618022635322175,odom,3.11993439194,0.114754135103,0.0,0.0,0.0,0.0052839997518,0.999986039576
1449618022748794130,226,1449618022742158792,,1449618019393507020,/move_base-45-1449618019.393507020,1,This goal has been accepted by the simple action server,0,1449618022715509301,odom,3.12857280688,0.11487586462,0.0,0.0,0.0,0.0105678519699,0.999944158693
1449618022805368007,227,1449618022800671505,,1449618019393507020,/move_base-45-1449618019.393507020,1,This goal has been accepted by the simple action server,0,1449618022797689293,odom,3.14008940704,0.115119316856,0.0,0.0,0.0,0.0105678519699,0.999944158693
1449618022875902093,228,1449618022875728725,,1449618019393507020,/move_base-45-1449618019.393507020,1,This goal has been accepted by the simple action server,0,1449618022875115100,odom,3.1487283044,0.115210616543,0.0,0.0,0.0,0.0052839997518,0.999986039576
1449618022890898567,229,1449618022889267886,,1449618019393507020,/move_base-45-1449618019.393507020,1,This goal has been accepted by the simple action server,0,1449618022875115100,odom,3.1487283044,0.115210616543,0.0,0.0,0.0,0.0052839997518,0.999986039576
1449618024996434993,230,1449618024989485564,,1449618024989418411,/move_base-46-1449618024.989418411,1,This goal has been accepted by the simple action server,0,1449618024955032445,odom,3.20056168858,0.115758414664,0.0,0.0,0.0,0.0052839997518,0.999986039576
1449618025045919128,231,1449618025039569126,,1449618024989418411,/move_base-46-1449618024.989418411,1,This goal has been accepted by the simple action server,0,1449618025035047318,odom,3.20056168858,0.115758414664,0.0,0.0,0.0,0.0052839997518,0.999986039576
1449618025095390116,232,1449618025090219779,,1449618024989418411,/move_base-46-1449618024.989418411,1,This goal has been accepted by the simple action server,0,1449618025075036557,odom,3.20056168858,0.115758414664,0.0,0.0,0.0,0.0052839997518,0.999986039576
1449618025150168008,233,1449618025144938618,,1449618024989418411,/move_base-46-1449618024.989418411,1,This goal has been accepted by the simple action server,0,1449618025115039116,odom,3.20056168858,0.115758414664,0.0,0.0,0.0,0.0052839997518,0.999986039576
1449618025222702970,234,1449618025217479972,,1449618024989418411,/move_base-46-1449618024.989418411,1,This goal has been accepted by the simple action server,0,1449618025195050586,odom,3.20056168858,0.115758414664,0.0,0.0,0.0,0.0052839997518,0.999986039576
1449618025270357728,235,1449618025266504540,,1449618024989418411,/move_base-46-1449618024.989418411,1,This goal has been accepted by the simple action server,0,1449618025235120129,odom,3.20056168858,0.115758414664,0.0,0.0,0.0,0.0052839997518,0.999986039576
1449618025366365426,236,1449618025363660430,,1449618024989418411,/move_base-46-1449618024.989418411,1,This goal has been accepted by the simple action server,0,1449618025355048109,odom,3.20056168858,0.115758414664,0.0,0.0,0.0,0.0052839997518,0.999986039576
1449618025463208913,237,1449618025452961753,,1449618024989418411,/move_base-46-1449618024.989418411,1,This goal has been accepted by the simple action server,0,1449618025435036061,odom,3.20056168858,0.115758414664,0.0,0.0,0.0,0.0052839997518,0.999986039576
1449618025546568626,238,1449618025545310963,,1449618024989418411,/move_base-46-1449618024.989418411,1,This goal has been accepted by the simple action server,0,1449618025515036716,odom,3.20056168858,0.115758414664,0.0,0.0,0.0,0.0052839997518,0.999986039576
1449618025639524714,239,1449618025638840216,,1449618024989418411,/move_base-46-1449618024.989418411,1,This goal has been accepted by the simple action server,0,1449618025635048231,odom,3.20056168858,0.115758414664,0.0,0.0,0.0,0.0052839997518,0.999986039576
1449618025719665833,240,1449618025718977853,,1449618024989418411,/move_base-46-1449618024.989418411,1,This goal has been accepted by the simple action server,0,1449618025715039869,odom,3.20056168858,0.115758414664,0.0,0.0,0.0,0.0052839997518,0.999986039576
1449618025799255947,241,1449618025796802433,,1449618024989418411,/move_base-46-1449618024.989418411,1,This goal has been accepted by the simple action server,0,1449618025795162680,odom,3.20056168858,0.115758414664,0.0,0.0,0.0,0.0052839997518,0.999986039576
1449618025878991845,242,1449618025874383192,,1449618024989418411,/move_base-46-1449618024.989418411,1,This goal has been accepted by the simple action server,0,1449618025835045956,odom,3.20056168858,0.115758414664,0.0,0.0,0.0,0.0052839997518,0.999986039576
1449618025939609225,243,1449618025930093340,,1449618024989418411,/move_base-46-1449618024.989418411,1,This goal has been accepted by the simple action server,0,1449618025915085690,odom,3.20632095349,0.115819281122,0.0,0.0,0.0,0.0052839997518,0.999986039576
