%time,field.header.seq,field.header.stamp,field.header.frame_id,field.goal_id.stamp,field.goal_id.id,field.goal.target_pose.header.seq,field.goal.target_pose.header.stamp,field.goal.target_pose.header.frame_id,field.goal.target_pose.pose.position.x,field.goal.target_pose.pose.position.y,field.goal.target_pose.pose.position.z,field.goal.target_pose.pose.orientation.x,field.goal.target_pose.pose.orientation.y,field.goal.target_pose.pose.orientation.z,field.goal.target_pose.pose.orientation.w
1449618002622978592,0,1449618002622677066,,0,,0,1449618002480636568,/odom,nan,nan,0.0,nan,nan,nan,nan
1449618002632141298,1,1449618002631408264,,0,,1,1449618002536432728,/odom,0.0,0.0,0.0,0.0,0.0,0.0,1.0
1449618002710133530,2,1449618002709972040,,0,,2,1449618002659946389,/odom,0.0,0.0,0.0,0.0,0.0,0.0,1.0
1449618002799611145,3,1449618002799378047,,0,,3,1449618002719179134,/odom,0.0,0.0,0.0,0.0,0.0,0.0,1.0
1449618002918514874,4,1449618002918098901,,0,,4,1449618002821800025,/odom,0.0,0.0,0.0,0.0,0.0,0.0,1.0
1449618003001854479,5,1449618003001615461,,0,,5,1449618002922673516,/odom,0.0,0.0,0.0,0.0,0.0,0.0,1.0
1449618003080354045,6,1449618003080003163,,0,,6,1449618003021487083,/odom,0.0,0.0,0.0,0.0,0.0,0.0,1.0
1449618003149807529,7,1449618003149513173,,0,,7,1449618003121720730,/odom,0.0,0.0,0.0,0.0,0.0,0.0,1.0
1449618003265012676,8,1449618003264899988,,0,,8,1449618003221352698,/odom,0.0,0.0,0.0,0.0,0.0,0.0,1.0
1449618003385968255,9,1449618003385788454,,0,,9,1449618003353245198,/odom,0.0,0.0,0.0,0.0,0.0,0.0,1.0
1449618003470839439,10,1449618003470613372,,0,,10,1449618003427387559,/odom,0.0,0.0,0.0,0.0,0.0,0.0,1.0
1449618003586601886,11,1449618003586194279,,0,,11,1449618003523386792,/odom,0.0,0.0,0.0,0.0,0.0,0.0,1.0
1449618003668617859,12,1449618003668358865,,0,,12,1449618003630712315,/odom,0.0,0.0,0.0,0.0,0.0,0.0,1.0
1449618003792671963,13,1449618003792401187,,0,,13,1449618003756845197,/odom,0.0,0.0,0.0,0.0,0.0,0.0,1.0
1449618003874813305,14,1449618003874200391,,0,,14,1449618003818989901,/odom,0.0,0.0,0.0,0.0,0.0,0.0,1.0
1449618003963564602,15,1449618003962959185,,0,,15,1449618003931635468,/odom,0.0,0.0,0.0,0.0,0.0,0.0,1.0
1449618004082356688,16,1449618004082092702,,0,,16,1449618004046908689,/odom,0.0,0.0,0.0,0.0,0.0,0.0,1.0
1449618004248230735,17,1449618004247954569,,0,,17,1449618004138228175,/odom,0.0,0.0,0.0,0.0,0.0,0.0,1.0
1449618004268805341,18,1449618004268331600,,0,,18,1449618004220368117,/odom,0.0,0.0,0.0,0.0,0.0,0.0,1.0
1449618004347249878,19,1449618004347060147,,0,,19,1449618004320901905,/odom,0.0,0.0,0.0,0.0,0.0,0.0,1.0
1449618004543380710,20,1449618004543220416,,0,,20,1449618004424050273,/odom,0.0,0.0,0.0,0.0,0.0,0.0,1.0
1449618004544655112,21,1449618004544451699,,0,,21,1449618004520394289,/odom,0.0,0.0,0.0,0.0,0.0,0.0,1.0
1449618004711776738,22,1449618004711637646,,0,,22,1449618004621438499,/odom,0.0,0.0,0.0,0.0,0.0,0.0,1.0
1449618004799960081,23,1449618004799596775,,0,,23,1449618004718903176,/odom,0.0,0.0,0.0,0.0,0.0,0.0,1.0
1449618004906854701,24,1449618004906591080,,0,,24,1449618004819712889,/odom,0.0,0.0,0.0,0.0,0.0,0.0,1.0
1449618004989319087,25,1449618004988892635,,0,,25,1449618004921807474,/odom,0.0,0.0,0.0,0.0,0.0,0.0,1.0
1449618005102254636,26,1449618005101119838,,0,,26,1449618005021422629,/odom,0.0,0.0,0.0,0.0,0.0,0.0,1.0
1449618005215266969,27,1449618005214997670,,0,,27,1449618005118533546,/odom,0.0,0.0,0.0,0.0,0.0,0.0,1.0
1449618005324628926,28,1449618005324409494,,0,,28,1449618005223926927,/odom,0.0,0.0,0.0,0.0,0.0,0.0,1.0
1449618005421652335,29,1449618005421536436,,0,,29,1449618005319042482,/odom,0.0,0.0,0.0,0.0,0.0,0.0,1.0
1449618005511390581,30,1449618005510939473,,0,,30,1449618005418475585,/odom,0.0,0.0,0.0,0.0,0.0,0.0,1.0
1449618005551157046,31,1449618005550776274,,0,,31,1449618005522921038,/odom,0.0,0.0,0.0,0.0,0.0,0.0,1.0
1449618005757056613,32,1449618005756875092,,0,,33,1449618005720912156,/odom,0.0,0.0,0.0,0.0,0.0,0.0,1.0
1449618005883268428,33,1449618005882861320,,0,,34,1449618005841355256,/odom,0.242878199724,0.0,0.0,0.0,0.0,0.0,1.0
1449618006071729481,34,1449618006066537498,,0,,35,1449618005920066532,/odom,0.460412604582,0.0,0.0,0.0,0.0,0.0,1.0
1449618007146249948,35,1449618007138710940,,0,,36,1449618007094631263,/odom,0.797626244655,0.355959040702,0.0,0.0,0.0,0.392903210257,0.919579831972
1449618007251979102,36,1449618007246740195,,0,,37,1449618007125031537,/odom,0.642883827254,0.22869665245,0.0,0.0,0.0,0.317890545115,0.948127418297
1449618013881713034,37,1449618013873200498,,0,,38,1449618013730229280,/odom,3.2359616782,0.0868322456521,0.0,0.0,0.0,0.180557428231,0.983564443802
1449618015212336750,38,1449618015212055326,,0,,39,1449618015118260653,/odom,2.53025951453,0.0107907824572,0.0,0.0,0.0,0.117654834861,0.993054550281
1449618015889622899,39,1449618015888544428,,0,,40,1449618015780359984,/odom,3.61712423372,-0.651739930483,0.0,0.0,0.0,-0.170498925422,0.985357862114
1449618016362736075,40,1449618016362000784,,0,,41,1449618016244593891,/odom,3.75888744302,-0.47263933429,0.0,0.0,0.0,-0.119675267784,0.992813089298
1449618016566996315,41,1449618016566741406,,0,,42,1449618016473101292,/odom,3.73815980686,-0.197256469646,0.0,0.0,0.0,-0.0528767987948,0.998601043535
1449618017325291882,42,1449618017323591213,,0,,43,1449618017257405358,/odom,2.82962204052,0.0622630862022,0.0,0.0,0.0,0.0233325992001,0.999727757849
1449618018208789932,43,1449618018207409020,,0,,44,1449618018078954715,/odom,3.56009475113,-0.0155994246557,0.0,0.0,0.0,-0.100956338679,0.99489085717
1449618019393639544,44,1449618019393351511,,0,,45,1449618019294041410,/odom,3.27377382476,0.0435875907085,0.0,0.0,0.0,-0.11451779602,0.993421196872
1449618024989410344,45,1449618024989192533,,0,,46,1449618024867865108,/odom,3.54486545286,0.275133298567,0.0,0.0,0.0,0.382953586131,0.923767584877
1449618029220388402,46,1449618029218825398,,0,,47,1449618029144596834,/odom,3.40231551172,0.143207342139,0.0,0.0,0.0,0.380581532723,0.924747369258
1449618030417585278,47,1449618030417341648,,0,,48,1449618030368656193,/odom,3.68820937584,0.448535780905,0.0,0.0,0.0,0.565550114447,0.824713931039
1449618045505222031,48,1449618045504957058,,0,,49,1449618045456465354,/odom,4.5869047873,4.13528987369,0.0,0.0,0.0,0.863429016832,0.504470348873
1449618048931390086,49,1449618048931254570,,0,,50,1449618048809512682,/odom,4.13265420991,5.8926247928,0.0,0.0,0.0,0.814497597296,0.580166927702
1449618050546462198,50,1449618050546102112,,0,,51,1449618050491061445,/odom,4.29670450653,5.10876140666,0.0,0.0,0.0,0.84225745154,0.539075491304
1449618050893842779,51,1449618050863764576,,0,,52,1449618050719721656,/odom,3.8351545001,6.16536922321,0.0,0.0,0.0,0.840731787135,0.541451809583
1449618050986279181,52,1449618050983960033,,0,,53,1449618050950555445,/odom,4.24120498725,5.179601131,0.0,0.0,0.0,0.845043895734,0.534696936855
1449618053923902073,53,1449618053922204685,,0,,54,1449618053865787713,/odom,3.73022494939,6.01338785026,0.0,0.0,0.0,0.859455129633,0.51121118938
1449618054795712743,54,1449618054793696471,,0,,55,1449618054699118138,/odom,4.0618520715,5.99435906423,0.0,0.0,0.0,0.540191728633,0.841541975374
1449618056213313773,55,1449618056213030125,,0,,56,1449618056189907554,/odom,3.85515061882,6.16341583973,0.0,0.0,0.0,0.673255630762,0.739409802239
1449618057126389914,56,1449618057125968638,,0,,57,1449618057029797406,/odom,3.57021438081,6.47377654379,0.0,0.0,0.0,0.816812330545,0.576903472576
1449618057214263067,57,1449618057214131655,,0,,58,1449618057178677401,/odom,3.62390628859,6.30872683138,0.0,0.0,0.0,0.831376772006,0.555709153216
1449618057886674935,58,1449618057881780216,,0,,59,1449618057773641864,/odom,3.82126940632,5.86322050263,0.0,0.0,0.0,0.852143269136,0.523308559901
1449618057947658095,59,1449618057947345724,,0,,60,1449618057864995762,/odom,3.83527889445,5.83531530956,0.0,0.0,0.0,0.853047148371,0.521833845832
1449618057984456590,60,1449618057984226175,,0,,61,1449618057966714593,/odom,3.84907997116,5.80826075523,0.0,0.0,0.0,0.853825757406,0.52055890732
1449618058130009445,61,1449618058126043796,,0,,62,1449618058065294708,/odom,3.8558320557,5.79582780011,0.0,0.0,0.0,0.851489534332,0.524371598128
1449618058219639336,62,1449618058219341138,,0,,63,1449618058165998220,/odom,3.85434437278,5.79852840089,0.0,0.0,0.0,0.851647274289,0.524115369167
1449618058300913618,63,1449618058300626671,,0,,64,1449618058264593365,/odom,3.85434253684,5.79844799364,0.0,0.0,0.0,0.851756230421,0.523938282566
1449618058386723688,64,1449618058386530973,,0,,65,1449618058366299208,/odom,3.85451009568,5.79803851094,0.0,0.0,0.0,0.851872062596,0.523749929803
1449618058504598908,65,1449618058504352930,,0,,66,1449618058477672319,/odom,3.85340111417,5.80015726972,0.0,0.0,0.0,0.851934967491,0.523647602082
1449618058635560877,66,1449618058634646950,,0,,67,1449618058565810500,/odom,3.85395611283,5.79906078146,0.0,0.0,0.0,0.851957916375,0.523610264152
1449618058698957842,67,1449618058698794681,,0,,68,1449618058671945068,/odom,3.85435185222,5.79827909413,0.0,0.0,0.0,0.851974276332,0.523583644196
1449618058839313358,68,1449618058838936223,,0,,69,1449618058765521280,/odom,3.85476606797,5.79746105285,0.0,0.0,0.0,0.851991396855,0.523555784692
1449618058904026111,69,1449618058903859783,,0,,70,1449618058879888016,/odom,3.85491593742,5.79716510897,0.0,0.0,0.0,0.851997590498,0.523545705537
1449618059043519362,70,1449618059043044394,,0,,71,1449618058968226593,/odom,3.85507362651,5.79685374426,0.0,0.0,0.0,0.852004106833,0.523535100963
1449618059117212125,71,1449618059116916624,,0,,72,1449618059066140294,/odom,3.85513185027,5.79673878394,0.0,0.0,0.0,0.852006512746,0.523531185545
1449618059219912005,72,1449618059218154961,,0,,73,1449618059171649311,/odom,3.8551923614,5.79661931035,0.0,0.0,0.0,0.852009013108,0.523527116377
1449618059326020727,73,1449618059325581969,,0,,74,1449618059264811873,/odom,3.85521469902,5.79657520757,0.0,0.0,0.0,0.852009936097,0.523525614266
1449618059419268570,74,1449618059418438974,,0,,75,1449618059365265792,/odom,3.86274336397,5.78171113047,0.0,0.0,0.0,0.852010898865,0.523524047408
1449618059518678369,75,1449618059518566425,,0,,76,1449618059465519679,/odom,3.95199238766,5.60441304002,0.0,0.0,0.0,0.850908918349,0.525313251951
1449618059635243614,76,1449618059627153159,,0,,77,1449618059567361903,/odom,4.05897051054,5.38957898481,0.0,0.0,0.0,0.849756288682,0.527175729568
1449618066749512385,77,1449618066749405911,,0,,78,1449618066680080874,/odom,4.63172951119,4.10252940082,0.0,0.0,0.0,0.956832512856,0.290639884294
1449618067092469621,78,1449618067090897611,,0,,79,1449618066883608324,/odom,4.76342440508,3.71213091025,0.0,0.0,0.0,0.867731479054,0.497033278824
1449618070514177587,79,1449618070513579663,,0,,80,1449618070467070501,/odom,5.57132077648,3.85812583785,0.0,0.0,0.0,-0.975739734499,0.218933712616
1449618072023608724,80,1449618072023429832,,0,,81,1449618071967090118,/odom,5.49717426161,3.83162561578,0.0,0.0,0.0,-0.910178752969,0.414215689761
1449618072124942385,81,1449618072123741161,,0,,82,1449618072068821652,/odom,5.17577913924,3.66468607862,0.0,0.0,0.0,-0.946173273186,0.323660527571
1449618075528455372,82,1449618075527116298,,0,,83,1449618075468763438,/odom,4.58524477236,1.96975974907,0.0,0.0,0.0,-0.596444741465,0.802654141196
1449618075585258534,83,1449618075585035672,,0,,84,1449618075534465107,/odom,4.5558520247,2.65100065992,0.0,0.0,0.0,-0.761982636222,0.647597453745
1449618075625213928,84,1449618075624531690,,0,,85,1449618075577199800,/odom,4.7729639427,3.10489396752,0.0,0.0,0.0,-0.825086870122,0.5650058909
1449618077253525865,85,1449618077252984052,,0,,86,1449618077168499962,/odom,4.44532980087,1.71845104103,0.0,0.0,0.0,-0.668797151841,0.743444933865
1449618077761807599,86,1449618077760296550,,0,,87,1449618077671854103,/odom,4.00825929823,1.63905722319,0.0,0.0,0.0,-0.817191900274,0.576365680907
1449618079402339026,87,1449618079401483720,,0,,88,1449618079363267479,/odom,3.57649224049,1.33829811206,0.0,0.0,0.0,-0.894626065726,0.446815624753
1449618079606390657,88,1449618079606049636,,0,,89,1449618079532449881,/odom,3.83749712085,1.32360938255,0.0,0.0,0.0,-0.830434633135,0.557116074162
1449618079746811616,89,1449618079734764931,,0,,90,1449618079666302099,/odom,4.25717056728,1.48545749223,0.0,0.0,0.0,-0.70140526405,0.71276269232
1449618080229338622,90,1449618080228344883,,0,,91,1449618080170812024,/odom,4.44400211859,2.12754077692,0.0,0.0,0.0,-0.636966487613,0.770891492791
1449618080686157774,91,1449618080685768529,,0,,92,1449618080640221871,/odom,4.7527412989,1.79173279582,0.0,0.0,0.0,-0.259670999071,0.965697143126
1449618081037402199,92,1449618081037264574,,0,,93,1449618080970736698,/odom,4.30553666808,1.84397164352,0.0,0.0,0.0,-0.671444339858,0.741054990181
1449618081296507387,93,1449618081296332955,,0,,94,1449618081198164744,/odom,4.35329024734,1.44468904343,0.0,0.0,0.0,-0.58682906636,0.80971084152
1449618083513027931,94,1449618083512508857,,0,,95,1449618083449552783,/odom,2.69555243346,0.750988283091,0.0,0.0,0.0,0.999500192264,0.0316127452921
1449618083595138126,95,1449618083594111458,,0,,96,1449618083490974679,/odom,3.89231574665,1.1253427674,0.0,0.0,0.0,-0.899612556739,0.436688959968
1449618085587674339,96,1449618085587296894,,0,,97,1449618085559419899,/odom,3.55713285104,0.860331517317,0.0,0.0,0.0,-0.990638914986,0.136508388444
1449618085793622906,97,1449618085793361320,,0,,98,1449618085652903586,/odom,3.69506192061,0.553842259202,0.0,0.0,0.0,-0.858976294351,0.512015356941
1449618087900024095,98,1449618087899826403,,0,,99,1449618087827528997,/odom,2.10367399175,-0.506988967879,0.0,0.0,0.0,-0.955925566602,0.293609112795
1449618088549026715,99,1449618088548643251,,0,,100,1449618088388942597,/odom,1.82704640232,-0.245605979659,0.0,0.0,0.0,-0.993349547648,0.115137640184
1449618089453772195,100,1449618089449980406,,0,,101,1449618089332938495,/odom,2.69925196248,0.147831786726,0.0,0.0,0.0,-0.988141839072,0.153543823959
1449618089702218686,101,1449618089701265807,,0,,102,1449618089669407506,/odom,1.62946731143,0.696113672122,0.0,0.0,0.0,0.922322560503,0.386420877266
1449618091484088844,102,1449618091483019273,,0,,103,1449618091337991527,/odom,1.49902070561,0.237098205556,0.0,0.0,0.0,0.992299254648,0.123863591202
1449618091595230968,103,1449618091595010243,,0,,104,1449618091478148094,/odom,2.47543878645,0.0769671629741,0.0,0.0,0.0,-0.974712872778,0.223460993557
1449618092071000966,104,1449618092070634616,,0,,105,1449618091921585149,/odom,3.07168604938,-0.656375277457,0.0,0.0,0.0,-0.201197822515,0.979550629736
1449618092594647673,105,1449618092594413909,,0,,106,1449618092514956279,/odom,2.4319150481,-0.937354112529,0.0,0.0,0.0,-0.473747639601,0.880660646317
1449618092810826584,106,1449618092809912164,,0,,107,1449618092724279759,/odom,2.15788793138,-0.982162953714,0.0,0.0,0.0,-0.586024556639,0.810293291973
1449618093124517279,107,1449618093122542286,,0,,108,1449618093016349574,/odom,1.95529514562,-0.997704897983,0.0,0.0,0.0,-0.6534516803,0.756968230188
1449618094524861666,108,1449618094524677505,,0,,109,1449618094441811361,/odom,1.71445764369,-1.0195406566,0.0,0.0,0.0,-0.664513266364,0.747276467464
1449618096361657880,109,1449618096361419192,,0,,110,1449618096277692839,/odom,0.455902937117,-0.552057359397,0.0,0.0,0.0,-0.967416446982,0.253190477918
1449618096776395270,110,1449618096776263470,,0,,111,1449618096587034263,/odom,0.318277425409,-0.141951858942,0.0,0.0,0.0,-0.998584673688,0.0531850493573
1449618097512219192,111,1449618097511994506,,0,,112,1449618097281457621,/odom,1.57290782486,0.0456479925369,0.0,0.0,0.0,-0.998372507524,0.0570292575728
1449618104093282366,112,1449618104092407492,,0,,113,1449618103989518926,/odom,1.6820358187,0.156216655194,0.0,0.0,0.0,0.935126376645,0.354314351533
1449618104495074233,113,1449618104484806305,,0,,114,1449618104322518530,/odom,1.86946680042,0.148278468006,0.0,0.0,0.0,0.442707181266,0.896666243178
1449618105366553971,114,1449618105364847639,,0,,116,1449618105257285113,/odom,1.55802084056,0.188857440747,0.0,0.0,0.0,0.931329822734,0.364176826948
1449618108007718361,115,1449618108007342395,,0,,117,1449618107939164284,/odom,-0.0746178780936,-0.602807460329,0.0,0.0,0.0,-0.796448536639,0.604706315898
1449618108110079728,116,1449618108109768034,,0,,118,1449618107988378370,/odom,0.762791378968,0.283399524539,0.0,0.0,0.0,-0.996377061493,0.0850455838412
1449618108304090284,117,1449618108303786455,,0,,119,1449618108190159317,/odom,0.228373326996,-0.727541781064,0.0,0.0,0.0,-0.66311422879,0.748518215929
1449618108388486968,118,1449618108386836742,,0,,120,1449618108285792505,/odom,0.73695616615,0.271485234734,0.0,0.0,0.0,-0.987282742492,0.158974168903
1449618110102449964,119,1449618110102217996,,0,,121,1449618110039104563,/odom,-0.343270646104,1.84615324435,0.0,0.0,0.0,0.807910740678,0.58930487449
1449618111205273317,120,1449618111205068941,,0,,122,1449618111079778101,/odom,-0.690938834244,1.95071161033,0.0,0.0,0.0,0.811175068317,0.584803393065
1449618111344055145,121,1449618111343657585,,0,,123,1449618111215254321,/odom,-0.90529358384,1.79111249834,0.0,0.0,0.0,0.881736124,0.471742946565
1449618111446830269,122,1449618111445938088,,0,,124,1449618111389851089,/odom,-1.13744278809,0.956509510552,0.0,0.0,0.0,0.998862087639,0.0476920315826
1449618111650283659,123,1449618111650068251,,0,,125,1449618111553916304,/odom,-1.05633620443,0.754022320911,0.0,0.0,0.0,-0.996988704201,0.077546912872
1449618111728387106,124,1449618111728151431,,0,,126,1449618111700046227,/odom,0.247198309804,0.568084338861,0.0,0.0,0.0,-0.977749471953,0.20977599981
1449618115340450483,125,1449618115340192089,,0,,127,1449618115190905149,/odom,-1.50811664227,-0.105553613646,0.0,0.0,0.0,-0.963201039434,0.268781989042
1449618116342888875,126,1449618116342688481,,0,,128,1449618116264891004,/odom,-1.43087981166,-0.347874028175,0.0,0.0,0.0,-0.936387318389,0.35096836034
1449618116468250152,127,1449618116468121113,,0,,129,1449618116319631820,/odom,0.0780964197314,0.468291302475,0.0,0.0,0.0,-0.875599882392,0.483037106189
1449618117664387648,128,1449618117663974246,,0,,130,1449618117509193497,/odom,0.0154278955036,0.49529129587,0.0,0.0,0.0,-0.19659712751,0.980484354518
1449618120829351699,129,1449618120826369096,,0,,131,1449618120734493268,/odom,0.0634990480717,0.293217194798,0.0,0.0,0.0,-0.426280266376,0.904591142173
1449618121026160897,130,1449618121025701483,,0,,132,1449618120938158140,/odom,-0.791867950526,-1.40291155898,0.0,0.0,0.0,-0.833664812195,0.55227074964
1449618122769967498,131,1449618122769721307,,0,,133,1449618122626506045,/odom,-0.546604135104,-0.775210155094,0.0,0.0,0.0,-0.860258341522,0.509858397833
1449618123082392753,132,1449618123080455639,,0,,134,1449618122990313876,/odom,-0.0653333639012,-0.54652378391,0.0,0.0,0.0,-0.654668288466,0.755916286422
1449618123396655476,133,1449618123396523122,,0,,135,1449618123275019016,/odom,0.060242823773,-0.296471515246,0.0,0.0,0.0,-0.535816949437,0.844334173592
1449618123736536713,134,1449618123733545027,,0,,137,1449618123684630870,/odom,-0.339411094731,0.697154401648,0.0,0.0,0.0,0.00295213972935,0.999995642426
1449618124121531143,135,1449618124121116655,,0,,138,1449618124007924125,/odom,-0.623375508744,0.839612401812,0.0,0.0,0.0,0.134797761529,0.990873131883
1449618124544481085,136,1449618124544244472,,0,,139,1449618124415335377,/odom,-0.563516126795,0.703036046718,0.0,0.0,0.0,0.215277009718,0.976553024207
1449618124705042901,137,1449618124704746174,,0,,140,1449618124520468143,/odom,0.0462059202186,0.216941150653,0.0,0.0,0.0,-0.401557101287,0.915833988453
1449618124829522421,138,1449618124827449776,,0,,141,1449618124758973769,/odom,1.48501327071,-0.611010437863,0.0,0.0,0.0,0.154057139002,0.988061940327
1449618126374941586,139,1449618126374810185,,0,,142,1449618126307093940,/odom,1.7443603668,0.307911597579,0.0,0.0,0.0,0.42890231201,0.903350876876
1449618126518571551,140,1449618126515481411,,0,,143,1449618126448344488,/odom,1.30325422348,0.443191629306,0.0,0.0,0.0,0.501068499136,0.86540762602
1449618126528630632,141,1449618126528391784,,0,,144,1449618126476576303,/odom,-0.131618364519,0.376204836164,0.0,0.0,0.0,-0.00222352024281,0.999997527976
1449618126638104761,142,1449618126637913336,,0,,145,1449618126565029375,/odom,-0.392060880101,0.43656898046,0.0,0.0,0.0,0.074893715599,0.997191521907
1449618127079358662,143,1449618127078071238,,0,,147,1449618126949015994,/odom,-0.349388303245,0.339498276443,0.0,0.0,0.0,0.108011865562,0.994149604887
1449618127275768019,144,1449618127275472746,,0,,148,1449618127137939558,/odom,-1.10300259592,-0.365630942657,0.0,0.0,0.0,0.699450313371,0.714681229028
1449618128489237296,145,1449618128489113187,,0,,149,1449618128465078285,/odom,-0.349092824676,0.271784645008,0.0,0.0,0.0,0.0975180897119,0.995233752532
1449618128571605106,146,1449618128571462907,,0,,150,1449618128534630768,/odom,0.111418663381,0.25854215231,0.0,0.0,0.0,-0.0978378689566,0.995202367058
1449618128725838336,147,1449618128725336184,,0,,151,1449618128674957370,/odom,0.13429780163,0.255330860096,0.0,0.0,0.0,-0.0925778540379,0.995705448886
1449618128821823316,148,1449618128821055581,,0,,152,1449618128732751271,/odom,0.161505571201,0.253744694203,0.0,0.0,0.0,-0.0820502165802,0.99662819645
1449618128883596536,149,1449618128883240024,,0,,153,1449618128829988440,/odom,0.388578144495,0.206889342496,0.0,0.0,0.0,-0.102656291916,0.994716887225
1449618129495601458,150,1449618129495379677,,0,,154,1449618129429813878,/odom,0.136735908298,0.255704721656,0.0,0.0,0.0,-0.0950991248856,0.99546780784
1449618129633968381,151,1449618129633418469,,0,,155,1449618129548733634,/odom,0.0960745933052,0.262407100852,0.0,0.0,0.0,-0.0964222295999,0.995340521449
1449618129702232795,152,1449618129701776150,,0,,156,1449618129631658930,/odom,0.0716556019593,0.267217632567,0.0,0.0,0.0,-0.0936854029414,0.99560185078
1449618129757674056,153,1449618129757488165,,0,,157,1449618129741819575,/odom,0.0430954694496,0.272159483102,0.0,0.0,0.0,-0.096100226792,0.995371662451
1449618129924772147,154,1449618129924645169,,0,,158,1449618129830188663,/odom,0.0256104932299,0.275547543583,0.0,0.0,0.0,-0.0945097957091,0.995523931664
1449618130009638238,155,1449618130008015895,,0,,159,1449618129928799267,/odom,0.0191966719923,0.276774504407,0.0,0.0,0.0,-0.0939266021988,0.99557912463
1449618130155666852,156,1449618130155265795,,0,,160,1449618130033637525,/odom,0.0153523988553,0.277390868322,0.0,0.0,0.0,-0.0985814889479,0.995128981608
1449618130259378734,157,1449618130259258755,,0,,161,1449618130131976599,/odom,0.0128919971917,0.277882893597,0.0,0.0,0.0,-0.098357496943,0.995151145704
1449618130319955426,158,1449618130319686688,,0,,162,1449618130249244780,/odom,0.0111885643708,0.278222805958,0.0,0.0,0.0,-0.0982024284204,0.995166459972
1449618130548089541,159,1449618130547834441,,0,,163,1449618130498827818,/odom,0.0132038701512,0.277820793765,0.0,0.0,0.0,-0.0983858850848,0.995148339503
1449618130621550401,160,1449618130621266548,,0,,164,1449618130558016919,/odom,0.0101219993333,0.278435351002,0.0,0.0,0.0,-0.0981053395844,0.995176035857
1449618130637310462,161,1449618130637210293,,0,,165,1449618130566926562,/odom,0.00829454819018,0.278798913474,0.0,0.0,0.0,-0.0979389961943,0.9951924201
1449618130724454913,162,1449618130724213003,,0,,166,1449618130629384043,/odom,0.00755249451449,0.278946353127,0.0,0.0,0.0,-0.0978714533976,0.995199064816
1449618130825809082,163,1449618130825336169,,0,,167,1449618130729793563,/odom,0.00730736357932,0.278995033428,0.0,0.0,0.0,-0.0978491415635,0.995201258789
1449618130937730353,164,1449618130937555060,,0,,168,1449618130829688107,/odom,0.00725095523191,0.27900623374,0.0,0.0,0.0,-0.0978440072957,0.995201763582
1449618131031137430,165,1449618131030889754,,0,,169,1449618130929856702,/odom,0.00723066064945,0.279010263224,0.0,0.0,0.0,-0.0978421600922,0.995201945189
1449618131134496679,166,1449618131134249496,,0,,170,1449618131031613391,/odom,0.00720960405699,0.279014443915,0.0,0.0,0.0,-0.097840243532,0.995202133612
1449618131160957851,167,1449618131160733316,,0,,171,1449618131130637714,/odom,0.00720171663791,0.279016009902,0.0,0.0,0.0,-0.0978395256235,0.995202204191
1449618131275875227,168,1449618131275489014,,0,,172,1449618131229670144,/odom,0.00719358180648,0.279017624998,0.0,0.0,0.0,-0.0978387851959,0.995202276983
1449618131403670675,169,1449618131403497520,,0,,173,1449618131354107046,/odom,0.00719053194881,0.279018230516,0.0,0.0,0.0,-0.0978385075997,0.995202304273
1449618131499802804,170,1449618131499559391,,0,,174,1449618131450647726,/odom,0.00718842232468,0.279018649359,0.0,0.0,0.0,-0.097838315583,0.99520232315
1449618131571358918,171,1449618131570367463,,0,,175,1449618131534041269,/odom,0.00718621592754,0.279019087414,0.0,0.0,0.0,-0.097838114758,0.995202342893
1449618131724975451,172,1449618131724515638,,0,,176,1449618131631338942,/odom,0.00718501462343,0.279019325919,0.0,0.0,0.0,-0.0978380054161,0.995202353643
1449618131760889363,173,1449618131760352611,,0,,177,1449618131729081722,/odom,0.00718455701753,0.279019416771,0.0,0.0,0.0,-0.0978379637651,0.995202357738
1449618131878256841,174,1449618131877814458,,0,,178,1449618131833115864,/odom,0.00718409027999,0.279019509436,0.0,0.0,0.0,-0.0978379212829,0.995202361914
1449618131981221222,175,1449618131980994390,,0,,179,1449618131931784607,/odom,0.00718391726351,0.279019543786,0.0,0.0,0.0,-0.0978379055351,0.995202363462
1449618132082483526,176,1449618132082391702,,0,,180,1449618132032195482,/odom,0.00718373712427,0.279019579551,0.0,0.0,0.0,-0.0978378891389,0.995202365074
1449618132202622042,177,1449618132199222510,,0,,181,1449618132145301773,/odom,0.00718366984583,0.279019592908,0.0,0.0,0.0,-0.0978378830153,0.995202365676
1449618132275026638,178,1449618132274747731,,0,,182,1449618132229072681,/odom,0.00718360056165,0.279019606664,0.0,0.0,0.0,-0.0978378767091,0.995202366296
1449618132383151288,179,1449618132382859732,,0,,183,1449618132329731521,/odom,0.00718357485549,0.279019611767,0.0,0.0,0.0,-0.0978378743693,0.995202366526
1449618132540818126,180,1449618132540695380,,0,,184,1449618132456555698,/odom,0.00718354814129,0.279019617071,0.0,0.0,0.0,-0.0978378719378,0.995202366765
1449618132559694457,181,1449618132559283884,,0,,185,1449618132531322704,/odom,0.00718353831805,0.279019619021,0.0,0.0,0.0,-0.0978378710437,0.995202366853
1449618132684358382,182,1449618132684258200,,0,,186,1449618132630947693,/odom,0.00718352803284,0.279019621063,0.0,0.0,0.0,-0.0978378701075,0.995202366945
1449618132869566555,183,1449618132869320632,,0,,187,1449618132779900113,/odom,0.00718352430224,0.279019621804,0.0,0.0,0.0,-0.097837869768,0.995202366978
1449618132877952179,184,1449618132877264664,,0,,188,1449618132835758982,/odom,0.00435309175254,0.279550542678,0.0,0.0,0.0,-0.0925778545994,0.995705448834
1449618132963826357,185,1449618132963374811,,0,,189,1449618132930189032,/odom,0.00435308899355,0.279550543195,0.0,0.0,0.0,-0.0925778543486,0.995705448857
1449618133076471052,186,1449618133076223291,,0,,190,1449618133030389605,/odom,0.00717774851195,0.278989741287,0.0,0.0,0.0,-0.0978378691264,0.995202367041
1449618133268440688,187,1449618133268052982,,0,,191,1449618133133036531,/odom,0.00717774795224,0.278989741399,0.0,0.0,0.0,-0.0978378690755,0.995202367046
1449618133280070642,188,1449618133279356438,,0,,192,1449618133232057581,/odom,0.0071777473652,0.278989741515,0.0,0.0,0.0,-0.097837869022,0.995202367052
1449618133420786450,189,1449618133417963464,,0,,193,1449618133331716611,/odom,0.00717774714883,0.278989741558,0.0,0.0,0.0,-0.0978378690023,0.995202367054
1449618133477899814,190,1449618133477677748,,0,,194,1449618133444298574,/odom,0.00717774692996,0.278989741602,0.0,0.0,0.0,-0.0978378689824,0.995202367056
1449618133602951690,191,1449618133602365439,,0,,195,1449618133551448356,/odom,0.00717774684167,0.278989741619,0.0,0.0,0.0,-0.0978378689744,0.995202367056
1449618133685685308,192,1449618133685453410,,0,,196,1449618133642709216,/odom,0.00717774678282,0.278989741631,0.0,0.0,0.0,-0.097837868969,0.995202367057
1449618133793616916,193,1449618133792895767,,0,,197,1449618133730463089,/odom,0.00717774672197,0.278989741643,0.0,0.0,0.0,-0.0978378689635,0.995202367057
1449618133903645684,194,1449618133903394542,,0,,198,1449618133829287335,/odom,0.00717774668782,0.27898974165,0.0,0.0,0.0,-0.0978378689604,0.995202367058
1449618134011593184,195,1449618134010587824,,0,,199,1449618133928497739,/odom,0.00717774667534,0.278989741652,0.0,0.0,0.0,-0.0978378689592,0.995202367058
1449618134129398276,196,1449618134128910999,,0,,200,1449618134029768263,/odom,0.00717774666256,0.278989741655,0.0,0.0,0.0,-0.0978378689581,0.995202367058
1449618134218245044,197,1449618134217935219,,0,,201,1449618134129644340,/odom,0.00717774665779,0.278989741656,0.0,0.0,0.0,-0.0978378689576,0.995202367058
1449618134326580679,198,1449618134326276142,,0,,202,1449618134229234235,/odom,0.00717774665257,0.278989741657,0.0,0.0,0.0,-0.0978378689572,0.995202367058
1449618134436377745,199,1449618134436163894,,0,,203,1449618134329544389,/odom,0.00434731683743,0.27952066192,0.0,0.0,0.0,-0.0925778540383,0.995705448886
1449618134543044345,200,1449618134542613835,,0,,204,1449618134435011473,/odom,0.00434731683548,0.27952066192,0.0,0.0,0.0,-0.0925778540382,0.995705448886
1449618134648395551,201,1449618134647899625,,0,,205,1449618134533672287,/odom,0.00434731683478,0.27952066192,0.0,0.0,0.0,-0.0925778540381,0.995705448886
1449618134744859990,202,1449618134744638460,,0,,206,1449618134630644681,/odom,0.00717197790595,0.278959859742,0.0,0.0,0.0,-0.0978378689567,0.995202367058
1449618134806413194,203,1449618134803619134,,0,,207,1449618134730694649,/odom,0.00717197790543,0.278959859742,0.0,0.0,0.0,-0.0978378689567,0.995202367058
1449618134932903656,204,1449618134932677162,,0,,208,1449618134829915868,/odom,0.00717197790515,0.278959859742,0.0,0.0,0.0,-0.0978378689566,0.995202367058
1449618135025434080,205,1449618135024332687,,0,,209,1449618134930610967,/odom,0.00434154809174,0.279490780005,0.0,0.0,0.0,-0.092577854038,0.995705448886
1449618135160544482,206,1449618135158451445,,0,,210,1449618135031114792,/odom,0.00434154809163,0.279490780005,0.0,0.0,0.0,-0.092577854038,0.995705448886
1449618135218225385,207,1449618135218038216,,0,,211,1449618135132385714,/odom,0.00716620916325,0.278929977826,0.0,0.0,0.0,-0.0978378689566,0.995202367058
1449618135286792179,208,1449618135286506067,,0,,212,1449618135233359104,/odom,0.00716620916321,0.278929977826,0.0,0.0,0.0,-0.0978378689566,0.995202367058
1449618135358781479,209,1449618135358044270,,0,,213,1449618135331949565,/odom,0.00716620916319,0.278929977826,0.0,0.0,0.0,-0.0978378689566,0.995202367058
1449618135488461274,210,1449618135485949018,,0,,214,1449618135463735524,/odom,0.00716620916318,0.278929977826,0.0,0.0,0.0,-0.0978378689566,0.995202367058
1449618135639216668,211,1449618135638832040,,0,,215,1449618135558030409,/odom,0.00716620916317,0.278929977826,0.0,0.0,0.0,-0.0978378689566,0.995202367058
1449618135680695518,212,1449618135679898987,,0,,216,1449618135632531957,/odom,0.00716620916317,0.278929977826,0.0,0.0,0.0,-0.0978378689566,0.995202367058
1449618135791053284,213,1449618135789769341,,0,,217,1449618135734988872,/odom,0.00716620916316,0.278929977826,0.0,0.0,0.0,-0.0978378689566,0.995202367058
1449618135880982036,214,1449618135880003105,,0,,218,1449618135831234959,/odom,0.00716620916316,0.278929977826,0.0,0.0,0.0,-0.0978378689566,0.995202367058
1449618136004743133,215,1449618136004477980,,0,,219,1449618135964758181,/odom,0.00716620916316,0.278929977826,0.0,0.0,0.0,-0.0978378689566,0.995202367058
1449618136174352366,216,1449618136174071920,,0,,220,1449618136063909843,/odom,0.00716620916316,0.278929977826,0.0,0.0,0.0,-0.0978378689566,0.995202367058
1449618136255436025,217,1449618136255176396,,0,,221,1449618136160150851,/odom,0.00716620916316,0.278929977826,0.0,0.0,0.0,-0.0978378689566,0.995202367058
1449618136318388763,218,1449618136318117435,,0,,222,1449618136232812587,/odom,0.00716620916316,0.278929977826,0.0,0.0,0.0,-0.0978378689566,0.995202367058
1449618136443247444,219,1449618136443011754,,0,,223,1449618136329067677,/odom,0.00716620916316,0.278929977826,0.0,0.0,0.0,-0.0978378689566,0.995202367058
1449618136479523221,220,1449618136479365391,,0,,224,1449618136433219721,/odom,0.00716620916316,0.278929977826,0.0,0.0,0.0,-0.0978378689566,0.995202367058
1449618136673840001,221,1449618136673584270,,0,,225,1449618136544250187,/odom,0.00716620916316,0.278929977826,0.0,0.0,0.0,-0.0978378689566,0.995202367058
1449618136679274792,222,1449618136678707045,,0,,226,1449618136631632506,/odom,0.00716620916316,0.278929977826,0.0,0.0,0.0,-0.0978378689566,0.995202367058
1449618136775752602,223,1449618136774152812,,0,,227,1449618136730767474,/odom,0.00716620916316,0.278929977826,0.0,0.0,0.0,-0.0978378689566,0.995202367058
1449618136879450125,224,1449618136879268584,,0,,228,1449618136831219572,/odom,0.00716620916316,0.278929977826,0.0,0.0,0.0,-0.0978378689566,0.995202367058
1449618137087172889,225,1449618137086855917,,0,,230,1449618137032178268,/odom,0.00716620916316,0.278929977826,0.0,0.0,0.0,-0.0978378689566,0.995202367058
1449618137273311817,226,1449618137272162738,,0,,231,1449618137131962441,/odom,0.00716620916316,0.278929977826,0.0,0.0,0.0,-0.0978378689566,0.995202367058
1449618137366786761,227,1449618137366210254,,0,,232,1449618137231542925,/odom,0.00716620916316,0.278929977826,0.0,0.0,0.0,-0.0978378689566,0.995202367058
1449618137428214210,228,1449618137428063387,,0,,233,1449618137340324870,/odom,0.00716620916316,0.278929977826,0.0,0.0,0.0,-0.0978378689566,0.995202367058
1449618137529603486,229,1449618137529251590,,0,,234,1449618137429496127,/odom,0.00716620916316,0.278929977826,0.0,0.0,0.0,-0.0978378689566,0.995202367058
1449618137561983171,230,1449618137561818179,,0,,235,1449618137529242980,/odom,0.00716620916316,0.278929977826,0.0,0.0,0.0,-0.0978378689566,0.995202367058
1449618137686677264,231,1449618137685628777,,0,,236,1449618137634420992,/odom,0.00716620916316,0.278929977826,0.0,0.0,0.0,-0.0978378689566,0.995202367058
1449618137907551751,232,1449618137907259437,,0,,238,1449618137836143991,/odom,0.00716620916316,0.278929977826,0.0,0.0,0.0,-0.0978378689566,0.995202367058
1449618138068231690,233,1449618138068065471,,0,,239,1449618137940498501,/odom,0.00716620916316,0.278929977826,0.0,0.0,0.0,-0.0978378689566,0.995202367058
1449618138135051655,234,1449618138134539143,,0,,240,1449618138030330216,/odom,0.00716620916316,0.278929977826,0.0,0.0,0.0,-0.0978378689566,0.995202367058
1449618138249647841,235,1449618138249440204,,0,,241,1449618138130602101,/odom,0.00716620916316,0.278929977826,0.0,0.0,0.0,-0.0978378689566,0.995202367058
1449618138339352260,236,1449618138339082712,,0,,242,1449618138231839699,/odom,0.00716620916316,0.278929977826,0.0,0.0,0.0,-0.0978378689566,0.995202367058
1449618138359250212,237,1449618138358662141,,0,,243,1449618138333654143,/odom,0.00716620916316,0.278929977826,0.0,0.0,0.0,-0.0978378689566,0.995202367058
1449618138538390181,238,1449618138538199079,,0,,244,1449618138436924912,/odom,0.00716620916316,0.278929977826,0.0,0.0,0.0,-0.0978378689566,0.995202367058
1449618138604441483,239,1449618138604187919,,0,,245,1449618138529726686,/odom,0.00716620916316,0.278929977826,0.0,0.0,0.0,-0.0978378689566,0.995202367058
1449618138708326936,240,1449618138707780927,,0,,246,1449618138629069717,/odom,0.00716620916316,0.278929977826,0.0,0.0,0.0,-0.0978378689566,0.995202367058
1449618138800998033,241,1449618138800799935,,0,,247,1449618138729282817,/odom,0.00716620916316,0.278929977826,0.0,0.0,0.0,-0.0978378689566,0.995202367058
1449618138923101354,242,1449618138922912884,,0,,248,1449618138858862417,/odom,0.00716620916316,0.278929977826,0.0,0.0,0.0,-0.0978378689566,0.995202367058
1449618139038701459,243,1449618139037837714,,0,,249,1449618138935759032,/odom,0.00716620916316,0.278929977826,0.0,0.0,0.0,-0.0978378689566,0.995202367058
1449618139109515583,244,1449618139109334107,,0,,250,1449618139046003957,/odom,0.00716620916316,0.278929977826,0.0,0.0,0.0,-0.0978378689566,0.995202367058
1449618139217339978,245,1449618139216911556,,0,,251,1449618139129553557,/odom,0.00716620916316,0.278929977826,0.0,0.0,0.0,-0.0978378689566,0.995202367058
1449618139328461241,246,1449618139328245874,,0,,252,1449618139230503757,/odom,0.00716620916316,0.278929977826,0.0,0.0,0.0,-0.0978378689566,0.995202367058
1449618139419114232,247,1449618139418919588,,0,,253,1449618139329558989,/odom,0.00716620916316,0.278929977826,0.0,0.0,0.0,-0.0978378689566,0.995202367058
1449618139524455097,248,1449618139523991902,,0,,254,1449618139430743158,/odom,0.00716620916316,0.278929977826,0.0,0.0,0.0,-0.0978378689566,0.995202367058
1449618139617661452,249,1449618139615437727,,0,,255,1449618139534434950,/odom,0.00716620916316,0.278929977826,0.0,0.0,0.0,-0.0978378689566,0.995202367058
1449618139680932105,250,1449618139680748061,,0,,256,1449618139653722929,/odom,0.00716620916316,0.278929977826,0.0,0.0,0.0,-0.0978378689566,0.995202367058
1449618139768933233,251,1449618139768361550,,0,,257,1449618139731750939,/odom,0.00716620916316,0.278929977826,0.0,0.0,0.0,-0.0978378689566,0.995202367058
1449618139884120626,252,1449618139883803813,,0,,258,1449618139857526789,/odom,0.00716620916316,0.278929977826,0.0,0.0,0.0,-0.0978378689566,0.995202367058
1449618140000447900,253,1449618140000267438,,0,,259,1449618139935595518,/odom,0.00716620916316,0.278929977826,0.0,0.0,0.0,-0.0978378689566,0.995202367058
1449618140092476191,254,1449618140092336988,,0,,260,1449618140029377165,/odom,0.00716620916316,0.278929977826,0.0,0.0,0.0,-0.0978378689566,0.995202367058
1449618140204939286,255,1449618140204765391,,0,,261,1449618140142438090,/odom,0.00716620916316,0.278929977826,0.0,0.0,0.0,-0.0978378689566,0.995202367058
1449618140401700907,256,1449618140401417282,,0,,263,1449618140334895395,/odom,0.00716620916316,0.278929977826,0.0,0.0,0.0,-0.0978378689566,0.995202367058
1449618140524845327,257,1449618140524097681,,0,,264,1449618140450569431,/odom,0.00716620916316,0.278929977826,0.0,0.0,0.0,-0.0978378689566,0.995202367058
1449618140607001162,258,1449618140605508850,,0,,265,1449618140532234836,/odom,0.00716620916316,0.278929977826,0.0,0.0,0.0,-0.0978378689566,0.995202367058
1449618140735345820,259,1449618140734813135,,0,,266,1449618140628751898,/odom,0.00716620916316,0.278929977826,0.0,0.0,0.0,-0.0978378689566,0.995202367058
1449618140822093865,260,1449618140808248682,,0,,267,1449618140734081848,/odom,0.00716620916316,0.278929977826,0.0,0.0,0.0,-0.0978378689566,0.995202367058
1449618140966854214,261,1449618140966541964,,0,,269,1449618140937226699,/odom,0.00716620916316,0.278929977826,0.0,0.0,0.0,-0.0978378689566,0.995202367058
1449618141164998022,262,1449618141164605257,,0,,271,1449618141130053065,/odom,0.00716620916316,0.278929977826,0.0,0.0,0.0,-0.0978378689566,0.995202367058
1449618141284368574,263,1449618141284051752,,0,,272,1449618141246648592,/odom,0.00716620916316,0.278929977826,0.0,0.0,0.0,-0.0978378689566,0.995202367058
1449618141459852558,264,1449618141459454617,,0,,273,1449618141358517422,/odom,0.00716620916316,0.278929977826,0.0,0.0,0.0,-0.0978378689566,0.995202367058
1449618141489999333,265,1449618141489632642,,0,,274,1449618141433164352,/odom,0.00716620916316,0.278929977826,0.0,0.0,0.0,-0.0978378689566,0.995202367058
1449618141607040680,266,1449618141606778173,,0,,275,1449618141559655362,/odom,0.00716620916316,0.278929977826,0.0,0.0,0.0,-0.0978378689566,0.995202367058
1449618141703069058,267,1449618141702547129,,0,,276,1449618141653576963,/odom,0.00716620916316,0.278929977826,0.0,0.0,0.0,-0.0978378689566,0.995202367058
1449618141869900488,268,1449618141869714105,,0,,277,1449618141728830924,/odom,0.00716620916316,0.278929977826,0.0,0.0,0.0,-0.0978378689566,0.995202367058
1449618141915912069,269,1449618141915158501,,0,,278,1449618141836145088,/odom,0.00716620916316,0.278929977826,0.0,0.0,0.0,-0.0978378689566,0.995202367058
1449618142108778270,270,1449618142108571012,,0,,280,1449618142037040248,/odom,0.00716620916316,0.278929977826,0.0,0.0,0.0,-0.0978378689566,0.995202367058
1449618142186118182,271,1449618142182588194,,0,,281,1449618142137604954,/odom,0.00716620916316,0.278929977826,0.0,0.0,0.0,-0.0978378689566,0.995202367058
1449618142303200431,272,1449618142302886152,,0,,282,1449618142263484994,/odom,0.00716620916316,0.278929977826,0.0,0.0,0.0,-0.0978378689566,0.995202367058
1449618142461355572,273,1449618142461151744,,0,,283,1449618142357749510,/odom,0.00716620916316,0.278929977826,0.0,0.0,0.0,-0.0978378689566,0.995202367058
1449618142486323416,274,1449618142486024294,,0,,284,1449618142437509994,/odom,0.00716620916316,0.278929977826,0.0,0.0,0.0,-0.0978378689566,0.995202367058
1449618142590922568,275,1449618142590129729,,0,,285,1449618142530262448,/odom,0.00716620916316,0.278929977826,0.0,0.0,0.0,-0.0978378689566,0.995202367058
1449618142752865966,276,1449618142752362314,,0,,286,1449618142652495324,/odom,0.00716620916316,0.278929977826,0.0,0.0,0.0,-0.0978378689566,0.995202367058
1449618142757957988,277,1449618142757613183,,0,,287,1449618142731520165,/odom,0.00716620916316,0.278929977826,0.0,0.0,0.0,-0.0978378689566,0.995202367058
1449618142930653905,278,1449618142930336642,,0,,288,1449618142830158574,/odom,0.023187952376,0.275749055132,0.0,0.0,0.0,-0.0978378689566,0.995202367058
1449618142958041446,279,1449618142957691011,,0,,289,1449618142930732506,/odom,0.0290914849158,0.274576980385,0.0,0.0,0.0,-0.0978378689566,0.995202367058
1449618143149311526,280,1449618143146644302,,0,,290,1449618143030952192,/odom,0.035024175228,0.273399116716,0.0,0.0,0.0,-0.0978378689566,0.995202367058
1449618143222574622,281,1449618143222037869,,0,,291,1449618143129961618,/odom,0.0373773997071,0.272931912552,0.0,0.0,0.0,-0.0978378689566,0.995202367058
1449618143337597079,282,1449618143337298486,,0,,292,1449618143229745272,/odom,0.0398241561276,0.272446138755,0.0,0.0,0.0,-0.0978378689566,0.995202367058
1449618143415678074,283,1449618143413821895,,0,,293,1449618143330140380,/odom,0.0407142575793,0.272269419913,0.0,0.0,0.0,-0.0978378689566,0.995202367058
1449618143555768497,284,1449618143555606048,,0,,294,1449618143434247090,/odom,0.0416317747721,0.272087258009,0.0,0.0,0.0,-0.0978378689566,0.995202367058
1449618143633952838,285,1449618143633672547,,0,,295,1449618143530803822,/odom,0.04197038493,0.272020031071,0.0,0.0,0.0,-0.0978378689566,0.995202367058
1449618143725915072,286,1449618143725718244,,0,,296,1449618143629556970,/odom,0.0395681308519,0.272852159997,0.0,0.0,0.0,-0.0925778540379,0.995705448886
1449618143759701145,287,1449618143759303672,,0,,297,1449618143728830294,/odom,0.0396984132977,0.272827722157,0.0,0.0,0.0,-0.0925778540379,0.995705448886
1449618143910329428,288,1449618143908659043,,0,,298,1449618143833875222,/odom,0.0425871981157,0.271866543068,0.0,0.0,0.0,-0.0978378689566,0.995202367058
1449618144040388377,289,1449618144040206404,,0,,299,1449618143930140609,/odom,0.0426372726202,0.271856601383,0.0,0.0,0.0,-0.0978378689566,0.995202367058
1449618144080309291,290,1449618144079963972,,0,,300,1449618144038119724,/odom,0.0426886891958,0.271846393246,0.0,0.0,0.0,-0.0978378689566,0.995202367058
1449618144242593034,291,1449618144242110642,,0,,301,1449618144129375263,/odom,0.0427081968913,0.271842520229,0.0,0.0,0.0,-0.0978378689566,0.995202367058
1449618144303467437,292,1449618144302386955,,0,,302,1449618144237066637,/odom,0.0427285306897,0.2718384832,0.0,0.0,0.0,-0.0978378689566,0.995202367058
1449618144422511818,293,1449618144421816408,,0,,303,1449618144331749620,/odom,0.0427359135853,0.271837017416,0.0,0.0,0.0,-0.0978378689566,0.995202367058
1449618144515699449,294,1449618144515464998,,0,,304,1449618144430797757,/odom,0.0427436813044,0.27183547523,0.0,0.0,0.0,-0.0978378689566,0.995202367058
1449618144613791353,295,1449618144613631256,,0,,305,1449618144531931815,/odom,0.0427465396971,0.271834907731,0.0,0.0,0.0,-0.0978378689566,0.995202367058
1449618144744970245,296,1449618144744769186,,0,,306,1449618144629637366,/odom,0.0268072098866,0.274999468243,0.0,0.0,0.0,-0.0978378689566,0.995202367058
1449618144760680511,297,1449618144760213070,,0,,307,1449618144731006755,/odom,0.0208626309267,0.276179692259,0.0,0.0,0.0,-0.0978378689566,0.995202367058
1449618144927885017,298,1449618144927610333,,0,,308,1449618144835540746,/odom,0.0118861805088,0.278013661221,0.0,0.0,0.0,-0.0925778540379,0.995705448886
1449618145027867366,299,1449618145027517154,,0,,309,1449618144930149271,/odom,0.0124266921399,0.277823518307,0.0,0.0,0.0,-0.0978378689566,0.995202367058
1449618145226709596,300,1449618145226377883,,0,,311,1449618145132146569,/odom,0.00951706309886,0.278401189845,0.0,0.0,0.0,-0.0978378689566,0.995202367058
1449618145281757939,301,1449618145278487005,,0,,312,1449618145244263865,/odom,0.00782531959532,0.278737064988,0.0,0.0,0.0,-0.0978378689566,0.995202367058
1449618145368568964,302,1449618145367631014,,0,,313,1449618145336277355,/odom,0.00762285256902,0.27877726236,0.0,0.0,0.0,-0.0978378689566,0.995202367058
1449618145481497435,303,1449618145481204119,,0,,314,1449618145435997850,/odom,0.00741130874711,0.278819261818,0.0,0.0,0.0,-0.0978378689566,0.995202367058
1449618145607502045,304,1449618145607289142,,0,,315,1449618145531636950,/odom,0.00733400700784,0.278834609141,0.0,0.0,0.0,-0.0978378689566,0.995202367058
1449618145809234503,305,1449618145809016293,,0,,317,1449618145753817993,/odom,0.00723373762552,0.27885451641,0.0,0.0,0.0,-0.0978378689566,0.995202367058
1449618145876796149,306,1449618145876406041,,0,,318,1449618145831562477,/odom,0.00719831239073,0.27886154966,0.0,0.0,0.0,-0.0978378689566,0.995202367058
1449618145986932712,307,1449618145986208068,,0,,319,1449618145929965115,/odom,0.00717862759592,0.278865457837,0.0,0.0,0.0,-0.0978378689566,0.995202367058
1449618146077114267,308,1449618146076951355,,0,,320,1449618146047639984,/odom,0.00716787934861,0.278867591771,0.0,0.0,0.0,-0.0978378689566,0.995202367058
1449618146192964218,309,1449618146192836274,,0,,321,1449618146135733240,/odom,0.00716389866188,0.278868382089,0.0,0.0,0.0,-0.0978378689566,0.995202367058
1449618146289161352,310,1449618146288980567,,0,,322,1449618146241556457,/odom,0.00715974979131,0.278869205796,0.0,0.0,0.0,-0.0978378689566,0.995202367058
1449618146370637673,311,1449618146370363462,,0,,323,1449618146340511639,/odom,0.00715822127977,0.278869509264,0.0,0.0,0.0,-0.0978378689566,0.995202367058
1449618146519640799,312,1449618146519397774,,0,,324,1449618146432092615,/odom,0.00715662496334,0.278869826193,0.0,0.0,0.0,-0.0978378689566,0.995202367058
1449618146607532416,313,1449618146602150363,,0,,325,1449618146530979354,/odom,0.00715603647945,0.278869943029,0.0,0.0,0.0,-0.0978378689566,0.995202367058
1449618146699407580,314,1449618146699153132,,0,,326,1449618146631814824,/odom,0.00715562525925,0.278870024672,0.0,0.0,0.0,-0.0978378689566,0.995202367058
1449618146802206406,315,1449618146801567448,,0,,327,1449618146730010285,/odom,0.0071551970322,0.278870109692,0.0,0.0,0.0,-0.0978378689566,0.995202367058
1449618146911158585,316,1449618146909072518,,0,,328,1449618146833679504,/odom,0.00715496136794,0.27887015648,0.0,0.0,0.0,-0.0978378689566,0.995202367058
1449618147025709629,317,1449618147024638587,,0,,329,1449618146968021119,/odom,0.00715487444375,0.278870173738,0.0,0.0,0.0,-0.0978378689566,0.995202367058
1449618147095913323,318,1449618147095693247,,0,,330,1449618147028855184,/odom,0.00715481310767,0.278870185915,0.0,0.0,0.0,-0.0978378689566,0.995202367058
1449618147216211198,319,1449618147215068343,,0,,331,1449618147131743143,/odom,0.00715472017417,0.278870204366,0.0,0.0,0.0,-0.0978378689566,0.995202367058
1449618147312370043,320,1449618147312161769,,0,,332,1449618147230257156,/odom,0.00715470533144,0.278870207313,0.0,0.0,0.0,-0.0978378689566,0.995202367058
1449618147415611101,321,1449618147415393691,,0,,333,1449618147329031895,/odom,0.00715469522957,0.278870209318,0.0,0.0,0.0,-0.0978378689566,0.995202367058
1449618147502529841,322,1449618147501395474,,0,,334,1449618147428922836,/odom,0.00715468456452,0.278870211436,0.0,0.0,0.0,-0.0978378689566,0.995202367058
1449618147598130118,323,1449618147597904662,,0,,335,1449618147549951805,/odom,0.0071546806912,0.278870212205,0.0,0.0,0.0,-0.0978378689566,0.995202367058
1449618147688611392,324,1449618147688381613,,0,,336,1449618147631990750,/odom,0.00715467796933,0.278870212745,0.0,0.0,0.0,-0.0978378689566,0.995202367058
1449618147763106569,325,1449618147762937595,,0,,337,1449618147730980969,/odom,0.00715467514983,0.278870213305,0.0,0.0,0.0,-0.0978378689566,0.995202367058
1449618147899723187,326,1449618147899312813,,0,,338,1449618147828830365,/odom,0.00715467358963,0.278870213615,0.0,0.0,0.0,-0.0978378689566,0.995202367058
1449618148044876948,327,1449618148044612528,,0,,339,1449618147930459800,/odom,0.00715467301453,0.278870213729,0.0,0.0,0.0,-0.0978378689566,0.995202367058
1449618148125037964,328,1449618148124629979,,0,,340,1449618148030105324,/odom,0.00715467241539,0.278870213848,0.0,0.0,0.0,-0.0978378689566,0.995202367058
1449618148212745766,329,1449618148212355038,,0,,341,1449618148129129860,/odom,0.00715467219351,0.278870213892,0.0,0.0,0.0,-0.0978378689566,0.995202367058
1449618148275035312,330,1449618148274793804,,0,,342,1449618148229451630,/odom,0.00715467196316,0.278870213938,0.0,0.0,0.0,-0.0978378689566,0.995202367058
1449618148356492864,331,1449618148356246206,,0,,343,1449618148330905683,/odom,0.00715467187801,0.278870213954,0.0,0.0,0.0,-0.0978378689566,0.995202367058
1449618148488913869,332,1449618148488482301,,0,,344,1449618148432937708,/odom,0.0071546717884,0.278870213972,0.0,0.0,0.0,-0.0978378689566,0.995202367058
1449618148568369561,333,1449618148568116719,,0,,345,1449618148538404124,/odom,0.00715467175572,0.278870213979,0.0,0.0,0.0,-0.0978378689566,0.995202367058
1449618148679400692,334,1449618148678976325,,0,,346,1449618148635873771,/odom,0.00715467172181,0.278870213986,0.0,0.0,0.0,-0.0978378689566,0.995202367058
1449618148787396596,335,1449618148785648026,,0,,347,1449618148744630354,/odom,0.00715467170915,0.278870213988,0.0,0.0,0.0,-0.0978378689566,0.995202367058
1449618148952572470,336,1449618148952139532,,0,,348,1449618148829262505,/odom,0.00715467169599,0.278870213991,0.0,0.0,0.0,-0.0978378689566,0.995202367058
1449618148973275627,337,1449618148972714457,,0,,349,1449618148933672581,/odom,0.00715467169115,0.278870213992,0.0,0.0,0.0,-0.0978378689566,0.995202367058
1449618149077423393,338,1449618149077164039,,0,,350,1449618149029279837,/odom,0.00715467168606,0.278870213993,0.0,0.0,0.0,-0.0978378689566,0.995202367058
1449618149205338988,339,1449618149205035784,,0,,351,1449618149142987840,/odom,0.0071546716842,0.278870213993,0.0,0.0,0.0,-0.0978378689566,0.995202367058
1449618149293906231,340,1449618149293720855,,0,,352,1449618149229816911,/odom,0.00715467168289,0.278870213993,0.0,0.0,0.0,-0.0978378689566,0.995202367058
1449618149415508785,341,1449618149415310880,,0,,353,1449618149330412447,/odom,0.00715467168154,0.278870213994,0.0,0.0,0.0,-0.0978378689566,0.995202367058
1449618149538894160,342,1449618149534066510,,0,,354,1449618149433353850,/odom,0.00715467168103,0.278870213994,0.0,0.0,0.0,-0.0978378689566,0.995202367058
1449618149613855452,343,1449618149610584171,,0,,355,1449618149531535485,/odom,0.00715467168051,0.278870213994,0.0,0.0,0.0,-0.0978378689566,0.995202367058
1449618149719178268,344,1449618149718376004,,0,,356,1449618149632133298,/odom,0.00715467168032,0.278870213994,0.0,0.0,0.0,-0.0978378689566,0.995202367058
1449618149843113362,345,1449618149842883697,,0,,357,1449618149729759338,/odom,0.00715467168011,0.278870213994,0.0,0.0,0.0,-0.0978378689566,0.995202367058
1449618150013013721,346,1449618150012768154,,0,,359,1449618149953437039,/odom,0.00715467167997,0.278870213994,0.0,0.0,0.0,-0.0978378689566,0.995202367058
1449618150165540745,347,1449618150165301163,,0,,361,1449618150132597331,/odom,0.00715467167991,0.278870213994,0.0,0.0,0.0,-0.0978378689566,0.995202367058
1449618150339149018,348,1449618150338939436,,0,,362,1449618150234913116,/odom,0.00715467167988,0.278870213994,0.0,0.0,0.0,-0.0978378689566,0.995202367058
1449618150433074996,349,1449618150432844816,,0,,363,1449618150329879008,/odom,0.00715467167988,0.278870213994,0.0,0.0,0.0,-0.0978378689566,0.995202367058
1449618150516553856,350,1449618150516365685,,0,,364,1449618150432200099,/odom,0.00715467167987,0.278870213994,0.0,0.0,0.0,-0.0978378689566,0.995202367058
1449618150602041472,351,1449618150601617168,,0,,365,1449618150545884096,/odom,0.00715467167987,0.278870213994,0.0,0.0,0.0,-0.0978378689566,0.995202367058
1449618150682200091,352,1449618150682087150,,0,,366,1449618150655751757,/odom,0.00715467167987,0.278870213994,0.0,0.0,0.0,-0.0978378689566,0.995202367058
1449618150836659623,353,1449618150836225463,,0,,367,1449618150733892704,/odom,0.00715467167987,0.278870213994,0.0,0.0,0.0,-0.0978378689566,0.995202367058
1449618150908146832,354,1449618150907804090,,0,,368,1449618150830500050,/odom,0.00715467167987,0.278870213994,0.0,0.0,0.0,-0.0978378689566,0.995202367058
1449618150999952075,355,1449618150999446589,,0,,369,1449618150935151134,/odom,0.00715467167987,0.278870213994,0.0,0.0,0.0,-0.0978378689566,0.995202367058
1449618151079752196,356,1449618151079607309,,0,,370,1449618151038506597,/odom,0.00715467167987,0.278870213994,0.0,0.0,0.0,-0.0978378689566,0.995202367058
1449618151194391000,357,1449618151194150374,,0,,371,1449618151141398251,/odom,0.00715467167987,0.278870213994,0.0,0.0,0.0,-0.0978378689566,0.995202367058
1449618151283624669,358,1449618151283350786,,0,,372,1449618151233207220,/odom,0.00715467167987,0.278870213994,0.0,0.0,0.0,-0.0978378689566,0.995202367058
1449618151442167344,359,1449618151442013901,,0,,373,1449618151332077907,/odom,0.00715467167987,0.278870213994,0.0,0.0,0.0,-0.0978378689566,0.995202367058
1449618151512365842,360,1449618151511103726,,0,,374,1449618151429745660,/odom,0.00715467167987,0.278870213994,0.0,0.0,0.0,-0.0978378689566,0.995202367058
1449618151634351997,361,1449618151634193572,,0,,375,1449618151529703151,/odom,0.00715467167987,0.278870213994,0.0,0.0,0.0,-0.0978378689566,0.995202367058
1449618151765996947,362,1449618151764789514,,0,,376,1449618151630849742,/odom,0.00715467167987,0.278870213994,0.0,0.0,0.0,-0.0978378689566,0.995202367058
1449618151857246228,363,1449618151856909676,,0,,377,1449618151731177979,/odom,0.00715467167987,0.278870213994,0.0,0.0,0.0,-0.0978378689566,0.995202367058
1449618151975958625,364,1449618151975326784,,0,,379,1449618151931045517,/odom,0.00715467167987,0.278870213994,0.0,0.0,0.0,-0.0978378689566,0.995202367058
1449618152087027078,365,1449618152086265479,,0,,380,1449618152036283513,/odom,0.00715467167987,0.278870213994,0.0,0.0,0.0,-0.0978378689566,0.995202367058
1449618152203198446,366,1449618152202769015,,0,,381,1449618152133632598,/odom,0.00715467167987,0.278870213994,0.0,0.0,0.0,-0.0978378689566,0.995202367058
1449618152280723863,367,1449618152280337235,,0,,382,1449618152238371566,/odom,0.00715467167987,0.278870213994,0.0,0.0,0.0,-0.0978378689566,0.995202367058
1449618152401165016,368,1449618152400689581,,0,,383,1449618152364247449,/odom,0.00715467167987,0.278870213994,0.0,0.0,0.0,-0.0978378689566,0.995202367058
1449618152508261472,369,1449618152507988286,,0,,384,1449618152429954784,/odom,0.00715467167987,0.278870213994,0.0,0.0,0.0,-0.0978378689566,0.995202367058
1449618152562874682,370,1449618152562460507,,0,,385,1449618152529428687,/odom,0.00715467167987,0.278870213994,0.0,0.0,0.0,-0.0978378689566,0.995202367058
1449618152725906492,371,1449618152725541991,,0,,386,1449618152630201700,/odom,0.00715467167987,0.278870213994,0.0,0.0,0.0,-0.0978378689566,0.995202367058
1449618152852863665,372,1449618152852438820,,0,,387,1449618152730751481,/odom,0.00715467167987,0.278870213994,0.0,0.0,0.0,-0.0978378689566,0.995202367058
1449618152948213264,373,1449618152946510807,,0,,388,1449618152830178052,/odom,0.00715467167987,0.278870213994,0.0,0.0,0.0,-0.0978378689566,0.995202367058
1449618152958051572,374,1449618152957500064,,0,,389,1449618152936432100,/odom,0.00715467167987,0.278870213994,0.0,0.0,0.0,-0.0978378689566,0.995202367058
1449618153147739706,375,1449618153147536439,,0,,390,1449618153031375520,/odom,0.00715467167987,0.278870213994,0.0,0.0,0.0,-0.0978378689566,0.995202367058
1449618153160914560,376,1449618153160588003,,0,,391,1449618153133438587,/odom,0.00715467167987,0.278870213994,0.0,0.0,0.0,-0.0978378689566,0.995202367058
1449618153280231308,377,1449618153279829210,,0,,392,1449618153235169183,/odom,0.00715467167987,0.278870213994,0.0,0.0,0.0,-0.0978378689566,0.995202367058
1449618153365274063,378,1449618153364838088,,0,,393,1449618153332626891,/odom,0.00715467167987,0.278870213994,0.0,0.0,0.0,-0.0978378689566,0.995202367058
1449618153489024166,379,1449618153488815183,,0,,394,1449618153431249013,/odom,0.00715467167987,0.278870213994,0.0,0.0,0.0,-0.0978378689566,0.995202367058
1449618153667683291,380,1449618153667485804,,0,,395,1449618153544789808,/odom,0.00715467167987,0.278870213994,0.0,0.0,0.0,-0.0978378689566,0.995202367058
1449618153688145557,381,1449618153682112291,,0,,396,1449618153629811923,/odom,0.00715467167987,0.278870213994,0.0,0.0,0.0,-0.0978378689566,0.995202367058
1449618153759004634,382,1449618153758797376,,0,,397,1449618153731678034,/odom,0.00715467167987,0.278870213994,0.0,0.0,0.0,-0.0978378689566,0.995202367058
1449618153963923804,383,1449618153963749063,,0,,399,1449618153931932160,/odom,0.00715467167987,0.278870213994,0.0,0.0,0.0,-0.0978378689566,0.995202367058
1449618154082590168,384,1449618154082256424,,0,,400,1449618154030185835,/odom,0.00715467167987,0.278870213994,0.0,0.0,0.0,-0.0978378689566,0.995202367058
1449618154199457267,385,1449618154199265654,,0,,401,1449618154144521964,/odom,0.00432424186655,0.279401134257,0.0,0.0,0.0,-0.0925778540379,0.995705448886
1449618154360442296,386,1449618154360286595,,0,,402,1449618154238659602,/odom,0.00714890293822,0.278840332078,0.0,0.0,0.0,-0.0978378689566,0.995202367058
1449618154365638272,387,1449618154364841116,,0,,403,1449618154334723588,/odom,0.00714890293822,0.278840332078,0.0,0.0,0.0,-0.0978378689566,0.995202367058
1449618154551031466,388,1449618154550778237,,0,,404,1449618154448567787,/odom,0.00714890293822,0.278840332078,0.0,0.0,0.0,-0.0978378689566,0.995202367058
1449618154558248657,389,1449618154557991135,,0,,405,1449618154530896662,/odom,0.00714890293822,0.278840332078,0.0,0.0,0.0,-0.0978378689566,0.995202367058
1449618154693025698,390,1449618154692604827,,0,,406,1449618154648752878,/odom,0.00714890293822,0.278840332078,0.0,0.0,0.0,-0.0978378689566,0.995202367058
1449618154826898839,391,1449618154826293406,,0,,407,1449618154729617676,/odom,0.00714890293822,0.278840332078,0.0,0.0,0.0,-0.0978378689566,0.995202367058
1449618155200636911,392,1449618155199873891,,0,,408,1449618155127832830,/odom,0.00714890293822,0.278840332078,0.0,0.0,0.0,-0.0978378689566,0.995202367058
1449618155285078170,393,1449618155284893450,,0,,409,1449618155241135585,/odom,0.00714890293822,0.278840332078,0.0,0.0,0.0,-0.0978378689566,0.995202367058
1449618155406205303,394,1449618155404922521,,0,,410,1449618155312962912,/odom,0.00714890293822,0.278840332078,0.0,0.0,0.0,-0.0978378689566,0.995202367058
1449618155517726316,395,1449618155517580561,,0,,411,1449618155413054136,/odom,0.00714890293822,0.278840332078,0.0,0.0,0.0,-0.0978378689566,0.995202367058
1449618155617959825,396,1449618155617805119,,0,,412,1449618155515385454,/odom,0.00714890293822,0.278840332078,0.0,0.0,0.0,-0.0978378689566,0.995202367058
1449618155635950974,397,1449618155635772370,,0,,413,1449618155616810895,/odom,0.00714890293822,0.278840332078,0.0,0.0,0.0,-0.0978378689566,0.995202367058
1449618155812761294,398,1449618155812580860,,0,,414,1449618155719245487,/odom,0.00714890293822,0.278840332078,0.0,0.0,0.0,-0.0978378689566,0.995202367058
1449618155949729768,399,1449618155948942385,,0,,415,1449618155813537002,/odom,0.00714890293822,0.278840332078,0.0,0.0,0.0,-0.0978378689566,0.995202367058
1449618156033646595,400,1449618156032931182,,0,,416,1449618155958709729,/odom,0.00714890293822,0.278840332078,0.0,0.0,0.0,-0.0978378689566,0.995202367058
1449618156098856219,401,1449618156098386898,,0,,417,1449618156013724795,/odom,0.00714890293822,0.278840332078,0.0,0.0,0.0,-0.0978378689566,0.995202367058
