%time,field.header.seq,field.header.stamp,field.header.frame_id,field.poses0.header.seq,field.poses0.header.stamp,field.poses0.header.frame_id,field.poses0.pose.position.x,field.poses0.pose.position.y,field.poses0.pose.position.z,field.poses0.pose.orientation.x,field.poses0.pose.orientation.y,field.poses0.pose.orientation.z,field.poses0.pose.orientation.w,field.poses1.header.seq,field.poses1.header.stamp,field.poses1.header.frame_id,field.poses1.pose.position.x,field.poses1.pose.position.y,field.poses1.pose.position.z,field.poses1.pose.orientation.x,field.poses1.pose.orientation.y,field.poses1.pose.orientation.z,field.poses1.pose.orientation.w,field.poses2.header.seq,field.poses2.header.stamp,field.poses2.header.frame_id,field.poses2.pose.position.x,field.poses2.pose.position.y,field.poses2.pose.position.z,field.poses2.pose.orientation.x,field.poses2.pose.orientation.y,field.poses2.pose.orientation.z,field.poses2.pose.orientation.w,field.poses3.header.seq,field.poses3.header.stamp,field.poses3.header.frame_id,field.poses3.pose.position.x,field.poses3.pose.position.y,field.poses3.pose.position.z,field.poses3.pose.orientation.x,field.poses3.pose.orientation.y,field.poses3.pose.orientation.z,field.poses3.pose.orientation.w,field.poses4.header.seq,field.poses4.header.stamp,field.poses4.header.frame_id,field.poses4.pose.position.x,field.poses4.pose.position.y,field.poses4.pose.position.z,field.poses4.pose.orientation.x,field.poses4.pose.orientation.y,field.poses4.pose.orientation.z,field.poses4.pose.orientation.w,field.poses5.header.seq,field.poses5.header.stamp,field.poses5.header.frame_id,field.poses5.pose.position.x,field.poses5.pose.position.y,field.poses5.pose.position.z,field.poses5.pose.orientation.x,field.poses5.pose.orientation.y,field.poses5.pose.orientation.z,field.poses5.pose.orientation.w,field.poses6.header.seq,field.poses6.header.stamp,field.poses6.header.frame_id,field.poses6.pose.position.x,field.poses6.pose.position.y,field.poses6.pose.position.z,field.poses6.pose.orientation.x,field.poses6.pose.orientation.y,field.poses6.pose.orientation.z,field.poses6.pose.orientation.w,field.poses7.header.seq,field.poses7.header.stamp,field.poses7.header.frame_id,field.poses7.pose.position.x,field.poses7.pose.position.y,field.poses7.pose.position.z,field.poses7.pose.orientation.x,field.poses7.pose.orientation.y,field.poses7.pose.orientation.z,field.poses7.pose.orientation.w,field.poses8.header.seq,field.poses8.header.stamp,field.poses8.header.frame_id,field.poses8.pose.position.x,field.poses8.pose.position.y,field.poses8.pose.position.z,field.poses8.pose.orientation.x,field.poses8.pose.orientation.y,field.poses8.pose.orientation.z,field.poses8.pose.orientation.w,field.poses9.header.seq,field.poses9.header.stamp,field.poses9.header.frame_id,field.poses9.pose.position.x,field.poses9.pose.position.y,field.poses9.pose.position.z,field.poses9.pose.orientation.x,field.poses9.pose.orientation.y,field.poses9.pose.orientation.z,field.poses9.pose.orientation.w,field.poses10.header.seq,field.poses10.header.stamp,field.poses10.header.frame_id,field.poses10.pose.position.x,field.poses10.pose.position.y,field.poses10.pose.position.z,field.poses10.pose.orientation.x,field.poses10.pose.orientation.y,field.poses10.pose.orientation.z,field.poses10.pose.orientation.w,field.poses11.header.seq,field.poses11.header.stamp,field.poses11.header.frame_id,field.poses11.pose.position.x,field.poses11.pose.position.y,field.poses11.pose.position.z,field.poses11.pose.orientation.x,field.poses11.pose.orientation.y,field.poses11.pose.orientation.z,field.poses11.pose.orientation.w,field.poses12.header.seq,field.poses12.header.stamp,field.poses12.header.frame_id,field.poses12.pose.position.x,field.poses12.pose.position.y,field.poses12.pose.position.z,field.poses12.pose.orientation.x,field.poses12.pose.orientation.y,field.poses12.pose.orientation.z,field.poses12.pose.orientation.w,field.poses13.header.seq,field.poses13.header.stamp,field.poses13.header.frame_id,field.poses13.pose.position.x,field.poses13.pose.position.y,field.poses13.pose.position.z,field.poses13.pose.orientation.x,field.poses13.pose.orientation.y,field.poses13.pose.orientation.z,field.poses13.pose.orientation.w
1449618006031828889,0,1449618006027443768,odom,0,1449618006027443768,odom,0.0,0.0,0.0,0.0,0.0,0.0,1.0,0,1449618006027450864,odom,0.0257142857143,0.0,0.0,0.0,0.0,0.0,1.0,0,1449618006027451550,odom,0.0514285714286,0.0,0.0,0.0,0.0,0.0,1.0,0,1449618006027452738,odom,0.0771428571429,0.0,0.0,0.0,0.0,0.0,1.0,0,1449618006027452917,odom,0.102857142857,0.0,0.0,0.0,0.0,0.0,1.0,0,1449618006027453820,odom,0.128571428571,0.0,0.0,0.0,0.0,0.0,1.0,0,1449618006027453986,odom,0.154285714286,0.0,0.0,0.0,0.0,0.0,1.0,0,1449618006027454146,odom,0.18,0.0,0.0,0.0,0.0,0.0,1.0,0,1449618006027454342,odom,0.205714285714,0.0,0.0,0.0,0.0,0.0,1.0,0,1449618006027456418,odom,0.231428571429,0.0,0.0,0.0,0.0,0.0,1.0,0,1449618006027456592,odom,0.257142857143,0.0,0.0,0.0,0.0,0.0,1.0,0,1449618006027456725,odom,0.282857142857,0.0,0.0,0.0,0.0,0.0,1.0,0,1449618006027456841,odom,0.308571428571,0.0,0.0,0.0,0.0,0.0,1.0,0,1449618006027456976,odom,0.334285714286,0.0,0.0,0.0,0.0,0.0,1.0
1449618006135644850,1,1449618006134397701,odom,0,1449618006134397701,odom,0.0,0.0,0.0,0.0,0.0,0.0,1.0,0,1449618006134403404,odom,0.0257142857143,0.0,0.0,0.0,0.0,0.0,1.0,0,1449618006134404406,odom,0.0514285714286,0.0,0.0,0.0,0.0,0.0,1.0,0,1449618006134404903,odom,0.0771428571429,0.0,0.0,0.0,0.0,0.0,1.0,0,1449618006134404999,odom,0.102857142857,0.0,0.0,0.0,0.0,0.0,1.0,0,1449618006134405665,odom,0.128571428571,0.0,0.0,0.0,0.0,0.0,1.0,0,1449618006134405970,odom,0.154285714286,0.0,0.0,0.0,0.0,0.0,1.0,0,1449618006134406077,odom,0.18,0.0,0.0,0.0,0.0,0.0,1.0,0,1449618006134406175,odom,0.205714285714,0.0,0.0,0.0,0.0,0.0,1.0,0,1449618006134407509,odom,0.231428571429,0.0,0.0,0.0,0.0,0.0,1.0,0,1449618006134407608,odom,0.257142857143,0.0,0.0,0.0,0.0,0.0,1.0,0,1449618006134407709,odom,0.282857142857,0.0,0.0,0.0,0.0,0.0,1.0,0,1449618006134407809,odom,0.308571428571,0.0,0.0,0.0,0.0,0.0,1.0,0,1449618006134407905,odom,0.334285714286,0.0,0.0,0.0,0.0,0.0,1.0
1449618006187931968,2,1449618006181927690,odom,0,1449618006181927690,odom,0.0,0.0,0.0,0.0,0.0,0.0,1.0,0,1449618006181934384,odom,0.0257142857143,0.0,0.0,0.0,0.0,0.0,1.0,0,1449618006181936246,odom,0.0514285714286,0.0,0.0,0.0,0.0,0.0,1.0,0,1449618006181937430,odom,0.0771428571429,0.0,0.0,0.0,0.0,0.0,1.0,0,1449618006181937632,odom,0.102857142857,0.0,0.0,0.0,0.0,0.0,1.0,0,1449618006181938248,odom,0.128571428571,0.0,0.0,0.0,0.0,0.0,1.0,0,1449618006181938470,odom,0.154285714286,0.0,0.0,0.0,0.0,0.0,1.0,0,1449618006181938709,odom,0.18,0.0,0.0,0.0,0.0,0.0,1.0,0,1449618006181938867,odom,0.205714285714,0.0,0.0,0.0,0.0,0.0,1.0,0,1449618006181940378,odom,0.231428571429,0.0,0.0,0.0,0.0,0.0,1.0,0,1449618006181940552,odom,0.257142857143,0.0,0.0,0.0,0.0,0.0,1.0,0,1449618006181940692,odom,0.282857142857,0.0,0.0,0.0,0.0,0.0,1.0,0,1449618006181940879,odom,0.308571428571,0.0,0.0,0.0,0.0,0.0,1.0,0,1449618006181941041,odom,0.334285714286,0.0,0.0,0.0,0.0,0.0,1.0
1449618006274903850,3,1449618006264169892,odom,0,1449618006264169892,odom,0.0,0.0,0.0,0.0,0.0,0.0,1.0,0,1449618006264176629,odom,0.0257142857143,0.0,0.0,0.0,0.0,0.0,1.0,0,1449618006264177476,odom,0.0514285714286,0.0,0.0,0.0,0.0,0.0,1.0,0,1449618006264177958,odom,0.0771428571429,0.0,0.0,0.0,0.0,0.0,1.0,0,1449618006264178137,odom,0.102857142857,0.0,0.0,0.0,0.0,0.0,1.0,0,1449618006264178862,odom,0.128571428571,0.0,0.0,0.0,0.0,0.0,1.0,0,1449618006264179123,odom,0.154285714286,0.0,0.0,0.0,0.0,0.0,1.0,0,1449618006264179304,odom,0.18,0.0,0.0,0.0,0.0,0.0,1.0,0,1449618006264179483,odom,0.205714285714,0.0,0.0,0.0,0.0,0.0,1.0,0,1449618006264181932,odom,0.231428571429,0.0,0.0,0.0,0.0,0.0,1.0,0,1449618006264182149,odom,0.257142857143,0.0,0.0,0.0,0.0,0.0,1.0,0,1449618006264182324,odom,0.282857142857,0.0,0.0,0.0,0.0,0.0,1.0,0,1449618006264182510,odom,0.308571428571,0.0,0.0,0.0,0.0,0.0,1.0,0,1449618006264182672,odom,0.334285714286,0.0,0.0,0.0,0.0,0.0,1.0
1449618006344791423,4,1449618006337205215,odom,0,1449618006337205215,odom,0.0,0.0,0.0,0.0,0.0,0.0,1.0,0,1449618006337211733,odom,0.0255784780323,0.0,0.0,0.0,0.0,0.0,1.0,0,1449618006337212957,odom,0.0511569560647,0.0,0.0,0.0,0.0,0.0,1.0,0,1449618006337213528,odom,0.076735434097,0.0,0.0,0.0,0.0,0.0,1.0,0,1449618006337213687,odom,0.102313912129,0.0,0.0,0.0,0.0,0.0,1.0,0,1449618006337214660,odom,0.127892390162,0.0,0.0,0.0,0.0,0.0,1.0,0,1449618006337215042,odom,0.153470868194,0.0,0.0,0.0,0.0,0.0,1.0,0,1449618006337215182,odom,0.179049346226,0.0,0.0,0.0,0.0,0.0,1.0,0,1449618006337215309,odom,0.204627824259,0.0,0.0,0.0,0.0,0.0,1.0,0,1449618006337219072,odom,0.230206302291,0.0,0.0,0.0,0.0,0.0,1.0,0,1449618006337219512,odom,0.255784780323,0.0,0.0,0.0,0.0,0.0,1.0,0,1449618006337219941,odom,0.281363258356,0.0,0.0,0.0,0.0,0.0,1.0,0,1449618006337220074,odom,0.306941736388,0.0,0.0,0.0,0.0,0.0,1.0,0,1449618006337220280,odom,0.33252021442,0.0,0.0,0.0,0.0,0.0,1.0,0,1449618006337220588,odom,0.358098692453,0.0,0.0,0.0,0.0,0.0,1.0,0,1449618006337220856,odom,0.383677170485,0.0,0.0,0.0,0.0,0.0,1.0,0,1449618006337220984,odom,0.409255648517,0.0,0.0,0.0,0.0,0.0,1.0,0,1449618006337223287,odom,0.43483412655,0.0,0.0,0.0,0.0,0.0,1.0
1449618006438412537,5,1449618006434578497,odom,0,1449618006434578497,odom,0.0,0.0,0.0,0.0,0.0,0.0,1.0,0,1449618006434582325,odom,0.0255784780323,0.0,0.0,0.0,0.0,0.0,1.0,0,1449618006434583417,odom,0.0511569560647,0.0,0.0,0.0,0.0,0.0,1.0,0,1449618006434583998,odom,0.076735434097,0.0,0.0,0.0,0.0,0.0,1.0,0,1449618006434584179,odom,0.102313912129,0.0,0.0,0.0,0.0,0.0,1.0,0,1449618006434584722,odom,0.127892390162,0.0,0.0,0.0,0.0,0.0,1.0,0,1449618006434584937,odom,0.153470868194,0.0,0.0,0.0,0.0,0.0,1.0,0,1449618006434585094,odom,0.179049346226,0.0,0.0,0.0,0.0,0.0,1.0,0,1449618006434585242,odom,0.204627824259,0.0,0.0,0.0,0.0,0.0,1.0,0,1449618006434586781,odom,0.230206302291,0.0,0.0,0.0,0.0,0.0,1.0,0,1449618006434586940,odom,0.255784780323,0.0,0.0,0.0,0.0,0.0,1.0,0,1449618006434587115,odom,0.281363258356,0.0,0.0,0.0,0.0,0.0,1.0,0,1449618006434587276,odom,0.306941736388,0.0,0.0,0.0,0.0,0.0,1.0,0,1449618006434587440,odom,0.33252021442,0.0,0.0,0.0,0.0,0.0,1.0,0,1449618006434587597,odom,0.358098692453,0.0,0.0,0.0,0.0,0.0,1.0,0,1449618006434587764,odom,0.383677170485,0.0,0.0,0.0,0.0,0.0,1.0,0,1449618006434587916,odom,0.409255648517,0.0,0.0,0.0,0.0,0.0,1.0,0,1449618006434588862,odom,0.43483412655,0.0,0.0,0.0,0.0,0.0,1.0
1449618006505836268,6,1449618006504735334,odom,0,1449618006504735334,odom,0.00287963240407,3.04332297674e-05,0.0,0.0,0.0,0.0052839998134,0.999986039576,0,1449618006504738578,odom,0.0282967115124,0.000299052162454,0.0,0.0,0.0,0.0052839998134,0.999986039576,0,1449618006504739299,odom,0.0537137906208,0.000567671095141,0.0,0.0,0.0,0.0052839998134,0.999986039576,0,1449618006504739926,odom,0.0791308697291,0.000836290027828,0.0,0.0,0.0,0.0052839998134,0.999986039576,0,1449618006504740195,odom,0.104547948837,0.00110490896051,0.0,0.0,0.0,0.0052839998134,0.999986039576,0,1449618006504740808,odom,0.129965027946,0.0013735278932,0.0,0.0,0.0,0.0052839998134,0.999986039576,0,1449618006504741024,odom,0.155382107054,0.00164214682589,0.0,0.0,0.0,0.0052839998134,0.999986039576,0,1449618006504741204,odom,0.180799186163,0.00191076575858,0.0,0.0,0.0,0.0052839998134,0.999986039576,0,1449618006504741417,odom,0.206216265271,0.00217938469126,0.0,0.0,0.0,0.0052839998134,0.999986039576,0,1449618006504743145,odom,0.231633344379,0.00244800362395,0.0,0.0,0.0,0.0052839998134,0.999986039576,0,1449618006504743332,odom,0.257050423488,0.00271662255664,0.0,0.0,0.0,0.0052839998134,0.999986039576,0,1449618006504743509,odom,0.282467502596,0.00298524148932,0.0,0.0,0.0,0.0052839998134,0.999986039576,0,1449618006504743683,odom,0.307884581704,0.00325386042201,0.0,0.0,0.0,0.0052839998134,0.999986039576,0,1449618006504743861,odom,0.333301660813,0.0035224793547,0.0,0.0,0.0,0.0052839998134,0.999986039576,0,1449618006504744031,odom,0.358718739921,0.00379109828738,0.0,0.0,0.0,0.0052839998134,0.999986039576,0,1449618006504744202,odom,0.384135819029,0.00405971722007,0.0,0.0,0.0,0.0052839998134,0.999986039576,0,1449618006504744355,odom,0.409552898138,0.00432833615276,0.0,0.0,0.0,0.0052839998134,0.999986039576,0,1449618006504745766,odom,0.434969977246,0.00459695508544,0.0,0.0,0.0,0.0052839998134,0.999986039576
1449618006646288973,7,1449618006624599497,odom,0,1449618006624599497,odom,0.00575942592695,3.04332297674e-05,0.0,0.0,0.0,0.0,1.0,0,1449618006624605238,odom,0.0310179359088,3.04332297674e-05,0.0,0.0,0.0,0.0,1.0,0,1449618006624606449,odom,0.0562764458907,3.04332297674e-05,0.0,0.0,0.0,0.0,1.0,0,1449618006624606968,odom,0.0815349558726,3.04332297674e-05,0.0,0.0,0.0,0.0,1.0,0,1449618006624607484,odom,0.106793465854,3.04332297674e-05,0.0,0.0,0.0,0.0,1.0,0,1449618006624608919,odom,0.132051975836,3.04332297674e-05,0.0,0.0,0.0,0.0,1.0,0,1449618006624609352,odom,0.157310485818,3.04332297674e-05,0.0,0.0,0.0,0.0,1.0,0,1449618006624609931,odom,0.1825689958,3.04332297674e-05,0.0,0.0,0.0,0.0,1.0,0,1449618006624610137,odom,0.207827505782,3.04332297674e-05,0.0,0.0,0.0,0.0,1.0,0,1449618006624613102,odom,0.233086015764,3.04332297674e-05,0.0,0.0,0.0,0.0,1.0,0,1449618006624613289,odom,0.258344525746,3.04332297674e-05,0.0,0.0,0.0,0.0,1.0,0,1449618006624613486,odom,0.283603035727,3.04332297674e-05,0.0,0.0,0.0,0.0,1.0,0,1449618006624613666,odom,0.308861545709,3.04332297674e-05,0.0,0.0,0.0,0.0,1.0,0,1449618006624613895,odom,0.334120055691,3.04332297674e-05,0.0,0.0,0.0,0.0,1.0,0,1449618006624614064,odom,0.359378565673,3.04332297674e-05,0.0,0.0,0.0,0.0,1.0,0,1449618006624614604,odom,0.384637075655,3.04332297674e-05,0.0,0.0,0.0,0.0,1.0,0,1449618006624614750,odom,0.409895585637,3.04332297674e-05,0.0,0.0,0.0,0.0,1.0,0,1449618006624615896,odom,0.435154095619,3.04332297674e-05,0.0,0.0,0.0,0.0,1.0
1449618006709006050,8,1449618006691876618,odom,0,1449618006691876618,odom,0.00575942592695,3.04332297674e-05,0.0,0.0,0.0,0.0,1.0,0,1449618006691880629,odom,0.0310179359088,3.04332297674e-05,0.0,0.0,0.0,0.0,1.0,0,1449618006691881346,odom,0.0562764458907,3.04332297674e-05,0.0,0.0,0.0,0.0,1.0,0,1449618006691881949,odom,0.0815349558726,3.04332297674e-05,0.0,0.0,0.0,0.0,1.0,0,1449618006691882135,odom,0.106793465854,3.04332297674e-05,0.0,0.0,0.0,0.0,1.0,0,1449618006691882698,odom,0.132051975836,3.04332297674e-05,0.0,0.0,0.0,0.0,1.0,0,1449618006691883242,odom,0.157310485818,3.04332297674e-05,0.0,0.0,0.0,0.0,1.0,0,1449618006691883418,odom,0.1825689958,3.04332297674e-05,0.0,0.0,0.0,0.0,1.0,0,1449618006691883552,odom,0.207827505782,3.04332297674e-05,0.0,0.0,0.0,0.0,1.0,0,1449618006691886548,odom,0.233086015764,3.04332297674e-05,0.0,0.0,0.0,0.0,1.0,0,1449618006691886687,odom,0.258344525746,3.04332297674e-05,0.0,0.0,0.0,0.0,1.0,0,1449618006691886820,odom,0.283603035727,3.04332297674e-05,0.0,0.0,0.0,0.0,1.0,0,1449618006691886941,odom,0.308861545709,3.04332297674e-05,0.0,0.0,0.0,0.0,1.0,0,1449618006691887066,odom,0.334120055691,3.04332297674e-05,0.0,0.0,0.0,0.0,1.0,0,1449618006691887192,odom,0.359378565673,3.04332297674e-05,0.0,0.0,0.0,0.0,1.0,0,1449618006691887323,odom,0.384637075655,3.04332297674e-05,0.0,0.0,0.0,0.0,1.0,0,1449618006691887441,odom,0.409895585637,3.04332297674e-05,0.0,0.0,0.0,0.0,1.0,0,1449618006691888613,odom,0.435154095619,3.04332297674e-05,0.0,0.0,0.0,0.0,1.0
1449618006815036106,9,1449618006786393390,odom,0,1449618006786393390,odom,0.0086390580982,0.0,0.0,0.0,0.0,-0.0052839998134,0.999986039576,0,1449618006786397103,odom,0.0337361869236,-0.000265237556599,0.0,0.0,0.0,-0.00352963110868,0.999993770833,0,1449618006786398239,odom,0.058834091914,-0.000442413560017,0.0,0.0,0.0,-0.00177525154022,0.99999842424,0,1449618006786399030,odom,0.0839324640773,-0.000531525828955,0.0,0.0,0.0,-2.08665077608e-05,0.999999999782,0,1449618006786399482,odom,0.109030994416,-0.000532573266312,0.0,0.0,0.0,0.00173351858892,0.999998497456,0,1449618006786400252,odom,0.134129373929,-0.000445555859192,0.0,0.0,0.0,0.00348789835006,0.999993917264,0,1449618006786400524,odom,0.15922729362,-0.000270474678907,0.0,0.0,0.0,0.0052422673759,0.999986259222,0,1449618006786400812,odom,0.184324444497,-7.3318809623e-06,0.0,0.0,0.0,0.00699662026673,0.999975523353,0,1449618006786400993,odom,0.209420517576,0.000343869294967,0.0,0.0,0.0,0.00875095162287,0.99996170969,0,1449618006786402918,odom,0.234515203887,0.000783124525078,0.0,0.0,0.0,0.0105052560447,0.999944818275,0,1449618006786403317,odom,0.25960819448,0.0013104284015,0.0,0.0,0.0,0.0122595281328,0.999924849161,0,1449618006786403491,odom,0.284699180421,0.00192577443234,0.0,0.0,0.0,0.0140137624876,0.999901802409,0,1449618006786403679,odom,0.309787852804,0.00262915504178,0.0,0.0,0.0,0.0157679537099,0.99987567809,0,1449618006786403848,odom,0.334873902751,0.00342056157019,0.0,0.0,0.0,0.0175220964005,0.999846476284,0,1449618006786404018,odom,0.359957021416,0.00429998427418,0.0,0.0,0.0,0.0192761851604,0.999814197081,0,1449618006786404202,odom,0.385036899989,0.00526741232678,0.0,0.0,0.0,0.0210302145907,0.999778840581,0,1449618006786404368,odom,0.410113229698,0.00632283381751,0.0,0.0,0.0,0.0227841792927,0.999740406893,0,1449618006786405544,odom,0.435185701819,0.0074662357526,0.0,0.0,0.0,0.024538073868,0.999698896134
1449618006856776640,10,1449618006856187426,odom,0,1449618006856187426,odom,0.0115188518539,0.0,0.0,0.0,0.0,0.0,1.0,0,1449618006856194365,odom,0.0364573936721,0.0,0.0,0.0,0.0,0.0,1.0,0,1449618006856196233,odom,0.0613959354904,0.0,0.0,0.0,0.0,0.0,1.0,0,1449618006856197097,odom,0.0863344773086,0.0,0.0,0.0,0.0,0.0,1.0,0,1449618006856197375,odom,0.111273019127,0.0,0.0,0.0,0.0,0.0,1.0,0,1449618006856198028,odom,0.136211560945,0.0,0.0,0.0,0.0,0.0,1.0,0,1449618006856198271,odom,0.161150102763,0.0,0.0,0.0,0.0,0.0,1.0,0,1449618006856198573,odom,0.186088644582,0.0,0.0,0.0,0.0,0.0,1.0,0,1449618006856198990,odom,0.2110271864,0.0,0.0,0.0,0.0,0.0,1.0,0,1449618006856201199,odom,0.235965728218,0.0,0.0,0.0,0.0,0.0,1.0,0,1449618006856201358,odom,0.260904270036,0.0,0.0,0.0,0.0,0.0,1.0,0,1449618006856201543,odom,0.285842811854,0.0,0.0,0.0,0.0,0.0,1.0,0,1449618006856201737,odom,0.310781353673,0.0,0.0,0.0,0.0,0.0,1.0,0,1449618006856202071,odom,0.335719895491,0.0,0.0,0.0,0.0,0.0,1.0,0,1449618006856202232,odom,0.360658437309,0.0,0.0,0.0,0.0,0.0,1.0,0,1449618006856202407,odom,0.385596979127,0.0,0.0,0.0,0.0,0.0,1.0,0,1449618006856202578,odom,0.410535520946,0.0,0.0,0.0,0.0,0.0,1.0,0,1449618006856203897,odom,0.435474062764,0.0,0.0,0.0,0.0,0.0,1.0
1449618006968447871,11,1449618006967796313,odom,0,1449618006967796313,odom,0.0172782763839,-3.04332297674e-05,0.0,0.0,0.0,0.0,1.0,0,1449618006967800590,odom,0.0418968502307,-3.04332297674e-05,0.0,0.0,0.0,0.00175438506495,0.999998461065,0,1449618006967801374,odom,0.0665152725322,5.59475538526e-05,0.0,0.0,0.0,0.00350876473013,0.999993844266,0,1449618006967802296,odom,0.0911332401993,0.000228708057618,0.0,0.0,0.0,0.0052631335958,0.999986149616,0,1449618006967802619,odom,0.115750450149,0.000487846154594,0.0,0.0,0.0,0.00701748626222,0.99997537714,0,1449618006967803543,odom,0.140366599307,0.00083335865441,0.0,0.0,0.0,0.00877181732974,0.99996152687,0,1449618006967803899,odom,0.164981384612,0.0012652413033,0.0,0.0,0.0,0.0105261213988,0.99994459885,0,1449618006967804091,odom,0.189594503021,0.00178348878416,0.0,0.0,0.0,0.0122803930697,0.99992459313,0,1449618006967804345,odom,0.214205651509,0.00238809471659,0.0,0.0,0.0,0.0140346269433,0.999901509773,0,1449618006967806302,odom,0.238814527078,0.00307905165701,0.0,0.0,0.0,0.0157888176201,0.99987534885,0,1449618006967806531,odom,0.263420826756,0.00385635109873,0.0,0.0,0.0,0.017542959701,0.999846110441,0,1449618006967806735,odom,0.288024247603,0.00471998347205,0.0,0.0,0.0,0.0192970477869,0.999813794637,0,1449618006967806935,odom,0.312624486715,0.00566993814439,0.0,0.0,0.0,0.021051076479,0.999778401537,0,1449618006967807145,odom,0.337221241227,0.00670620342041,0.0,0.0,0.0,0.0228050403787,0.999739931249,0,1449618006967807377,odom,0.361814208317,0.00782876654216,0.0,0.0,0.0,0.0245589340875,0.999698383892,0,1449618006967807591,odom,0.386403085209,0.00903761368925,0.0,0.0,0.0,0.026312752207,0.999653759594,0,1449618006967807787,odom,0.410987569179,0.010332729979,0.0,0.0,0.0,0.0280664893394,0.999606058493,0,1449618006967808856,odom,0.435567357555,0.0117140994666,0.0,0.0,0.0,0.0298201400867,0.999555280735
1449618007042957478,12,1449618007042470611,odom,0,1449618007042470611,odom,0.0287972893566,-6.08664595347e-05,0.0,0.0,0.0,0.0,1.0,0,1449618007042477118,odom,0.0541864257988,-6.08664595347e-05,0.0,0.0,0.0,0.00185758407101,0.999998274689,0,1449618007042478634,odom,0.0795753870245,3.34582885891e-05,0.0,0.0,0.0,0.00371516173221,0.999993098763,0,1449618007042479785,odom,0.104963822603,0.000222106482922,0.0,0.0,0.0,0.00557272657379,0.999984472239,0,1449618007042480449,odom,0.130351382112,0.000505075519652,0.0,0.0,0.0,0.007430272186,0.999972395147,0,1449618007042481197,odom,0.155737715139,0.000882361493106,0.0,0.0,0.0,0.00928779215915,0.999956867528,0,1449618007042481406,odom,0.181122471291,0.0013539591958,0.0,0.0,0.0,0.0111452800836,0.999937889437,0,1449618007042481590,odom,0.206505300195,0.00191986211853,0.0,0.0,0.0,0.01300272955,0.999915460939,0,1449618007042481804,odom,0.231885851505,0.00258006245043,0.0,0.0,0.0,0.0148601341488,0.99988958211,0,1449618007042484687,odom,0.257263774907,0.00333455107909,0.0,0.0,0.0,0.016717487471,0.999860253042,0,1449618007042484894,odom,0.282638720122,0.00418331759072,0.0,0.0,0.0,0.0185747831074,0.999827473834,0,1449618007042485116,odom,0.308010336914,0.00512635027023,0.0,0.0,0.0,0.0204320146493,0.999791244599,0,1449618007042485426,odom,0.333378275092,0.00616363610144,0.0,0.0,0.0,0.022289175688,0.999751565464,0,1449618007042485755,odom,0.358742184515,0.00729516076723,0.0,0.0,0.0,0.0241462598153,0.999708436564,0,1449618007042485931,odom,0.384101715098,0.00852090864977,0.0,0.0,0.0,0.0260032606229,0.999661858048,0,1449618007042486134,odom,0.409456516818,0.00984086283071,0.0,0.0,0.0,0.0278601717031,0.999611830078,0,1449618007042486396,odom,0.434806239715,0.0112550050914,0.0,0.0,0.0,0.0297169866484,0.999558352826
1449618007143302189,13,1449618007133725785,odom,0,1449618007133725785,odom,0.0316769219935,-3.04332297674e-05,0.0,0.0,0.0,0.0052839998134,0.999986039576,0,1449618007133733596,odom,0.056895259788,0.000236085316822,0.0,0.0,0.0,0.0052839998134,0.999986039576,0,1449618007133735159,odom,0.0821135975826,0.000502603863411,0.0,0.0,0.0,0.0052839998134,0.999986039576,0,1449618007133736174,odom,0.107331935377,0.000769122410001,0.0,0.0,0.0,0.0052839998134,0.999986039576,0,1449618007133736855,odom,0.132550273172,0.00103564095659,0.0,0.0,0.0,0.0052839998134,0.999986039576,0,1449618007133737536,odom,0.157768610966,0.00130215950318,0.0,0.0,0.0,0.0052839998134,0.999986039576,0,1449618007133738023,odom,0.182986948761,0.00156867804977,0.0,0.0,0.0,0.0052839998134,0.999986039576,0,1449618007133738299,odom,0.208205286555,0.00183519659636,0.0,0.0,0.0,0.0052839998134,0.999986039576,0,1449618007133738705,odom,0.23342362435,0.00210171514295,0.0,0.0,0.0,0.0052839998134,0.999986039576,0,1449618007133740938,odom,0.258641962144,0.00236823368954,0.0,0.0,0.0,0.0052839998134,0.999986039576,0,1449618007133741135,odom,0.283860299939,0.00263475223613,0.0,0.0,0.0,0.0052839998134,0.999986039576,0,1449618007133741339,odom,0.309078637733,0.00290127078272,0.0,0.0,0.0,0.0052839998134,0.999986039576,0,1449618007133741618,odom,0.334296975528,0.00316778932931,0.0,0.0,0.0,0.0052839998134,0.999986039576,0,1449618007133741888,odom,0.359515313323,0.00343430787589,0.0,0.0,0.0,0.0052839998134,0.999986039576,0,1449618007133742141,odom,0.384733651117,0.00370082642248,0.0,0.0,0.0,0.0052839998134,0.999986039576,0,1449618007133742458,odom,0.409951988912,0.00396734496907,0.0,0.0,0.0,0.0052839998134,0.999986039576,0,1449618007133742625,odom,0.435170326706,0.00423386351566,0.0,0.0,0.0,0.0052839998134,0.999986039576
1449618007241663870,14,1449618007232189102,odom,0,1449618007232189102,odom,0.0403143726289,0.000152155946125,0.0,0.0,0.0,0.010567852093,0.999944158692,0,1449618007232194583,odom,0.0650205153808,0.000674425165127,0.0,0.0,0.0,0.010567852093,0.999944158692,0,1449618007232195460,odom,0.0897266581328,0.00119669438413,0.0,0.0,0.0,0.010567852093,0.999944158692,0,1449618007232196023,odom,0.114432800885,0.00171896360313,0.0,0.0,0.0,0.010567852093,0.999944158692,0,1449618007232196281,odom,0.139138943637,0.00224123282213,0.0,0.0,0.0,0.010567852093,0.999944158692,0,1449618007232197380,odom,0.163845086388,0.00276350204113,0.0,0.0,0.0,0.010567852093,0.999944158692,0,1449618007232197619,odom,0.18855122914,0.00328577126013,0.0,0.0,0.0,0.010567852093,0.999944158692,0,1449618007232197787,odom,0.213257371892,0.00380804047913,0.0,0.0,0.0,0.010567852093,0.999944158692,0,1449618007232198149,odom,0.237963514644,0.00433030969814,0.0,0.0,0.0,0.010567852093,0.999944158692,0,1449618007232200275,odom,0.262669657396,0.00485257891714,0.0,0.0,0.0,0.010567852093,0.999944158692,0,1449618007232200466,odom,0.287375800148,0.00537484813614,0.0,0.0,0.0,0.010567852093,0.999944158692,0,1449618007232200658,odom,0.3120819429,0.00589711735514,0.0,0.0,0.0,0.010567852093,0.999944158692,0,1449618007232201005,odom,0.336788085652,0.00641938657414,0.0,0.0,0.0,0.010567852093,0.999944158692,0,1449618007232201185,odom,0.361494228404,0.00694165579314,0.0,0.0,0.0,0.010567852093,0.999944158692,0,1449618007232201515,odom,0.386200371156,0.00746392501214,0.0,0.0,0.0,0.010567852093,0.999944158692,0,1449618007232201690,odom,0.410906513908,0.00798619423115,0.0,0.0,0.0,0.010567852093,0.999944158692,0,1449618007232201853,odom,0.43561265666,0.00850846345015,0.0,0.0,0.0,0.010567852093,0.999944158692
1449618007419967433,15,1449618007400996241,odom,0,1449618007400996241,odom,0.0661899074912,0.00158164440654,0.0,0.0,0.0,0.0369797354609,0.999316015665,0,1449618007401001128,odom,0.090914264289,0.00341400553093,0.0,0.0,0.0,0.0458142321443,0.998949976792,0,1449618007401002128,odom,0.115602352976,0.00568328808624,0.0,0.0,0.0,0.054645146965,0.998505837696,0,1449618007401002886,odom,0.140246453016,0.0083887824153,0.0,0.0,0.0,0.0634717895015,0.997983633101,0,1449618007401003369,odom,0.164838857629,0.0115296424474,0.0,0.0,0.0,0.0722934696665,0.997383403834,0,1449618007401004163,odom,0.189371876199,0.0151048859628,0.0,0.0,0.0,0.0811094977606,0.996705196823,0,1449618007401004655,odom,0.213837836684,0.0191133949003,0.0,0.0,0.0,0.0899191845263,0.99594906509,0,1449618007401004857,odom,0.238229088011,0.0235539157061,0.0,0.0,0.0,0.0987218412019,0.995115067753,0,1449618007401005105,odom,0.262538002473,0.0284250597266,0.0,0.0,0.0,0.107516779575,0.994203270016,0,1449618007401007347,odom,0.286756978107,0.0337253036424,0.0,0.0,0.0,0.116303312038,0.993213743164,0,1449618007401007585,odom,0.31087844108,0.0394529899445,0.0,0.0,0.0,0.125080751638,0.992146564561,0,1449618007401007777,odom,0.334894848053,0.0456063274526,0.0,0.0,0.0,0.133848412136,0.991001817642,0,1449618007401008273,odom,0.358798688538,0.0521833918759,0.0,0.0,0.0,0.142605608054,0.989779591905,0,1449618007401008463,odom,0.382582487251,0.0591821264138,0.0,0.0,0.0,0.151351654736,0.988479982907,0,1449618007401008720,odom,0.406238806447,0.0666003424001,0.0,0.0,0.0,0.160085868395,0.987103092255,0,1449618007401008909,odom,0.429760248249,0.0744357199869,0.0,0.0,0.0,0.16880756617,0.985649027597,0,1449618007401009241,odom,0.453139456956,0.0826858088703,0.0,0.0,0.0,0.177516066178,0.984117902616,0,1449618007401011809,odom,0.476369121349,0.0913480290564,0.0,0.0,0.0,0.186210687569,0.982509837017,0,1449618007401012021,odom,0.499441976973,0.100419671668,0.0,0.0,0.0,0.194890750578,0.980824956523,0,1449618007401012199,odom,0.522350808414,0.109897899794,0.0,0.0,0.0,0.203555576576,0.979063392863,0,1449618007401012403,odom,0.545088451547,0.119779749371,0.0,0.0,0.0,0.212204488127,0.977225283759,0,1449618007401012594,odom,0.567647795788,0.130062130117,0.0,0.0,0.0,0.220836809041,0.975310772919,0,1449618007401012787,odom,0.590021786305,0.140741826493,0.0,0.0,0.0,0.229451864421,0.973320010024,0,1449618007401012965,odom,0.612203426234,0.151815498711,0.0,0.0,0.0,0.238048980723,0.971253150717,0,1449618007401013372,odom,0.634185778864,0.163279683777,0.0,0.0,0.0,0.246627485804,0.969110356588
1449618007479678324,16,1449618007479321204,odom,0,1449618007479321204,odom,0.0719261988997,0.00209831609391,0.0,0.0,0.0,0.0475382943118,0.998869416177,0,1449618007479326889,odom,0.0963121608417,0.00442474380732,0.0,0.0,0.0,0.0598773596168,0.99820574122,0,1449618007479327733,odom,0.120633186551,0.00735307340012,0.0,0.0,0.0,0.0722072820682,0.997389647237,0,1449618007479328681,odom,0.144874421993,0.0108815163989,0.0,0.0,0.0,0.0845261789733,0.99642125884,0,1449618007479329024,odom,0.169021061865,0.0150079178118,0.0,0.0,0.0,0.0968321693229,0.995300723894,0,1449618007479329926,odom,0.193058358639,0.0197297574445,0.0,0.0,0.0,0.109123374078,0.994028213498,0,1449618007479330292,odom,0.216971631569,0.0250441514399,0.0,0.0,0.0,0.121397916459,0.992603921955,0,1449618007479330528,odom,0.240746275654,0.0309478540389,0.0,0.0,0.0,0.133653922227,0.991028066743,0,1449618007479330974,odom,0.264367770562,0.0374372595628,0.0,0.0,0.0,0.145889519978,0.989300888487,0,1449618007479334666,odom,0.287821689496,0.0445084046159,0.0,0.0,0.0,0.158102841421,0.987422650912,0,1449618007479334996,odom,0.311093708007,0.0521569705058,0.0,0.0,0.0,0.170292021667,0.985393640814,0,1449618007479335479,odom,0.33416961274,0.0603782858809,0.0,0.0,0.0,0.182455199513,0.983214168007,0,1449618007479335750,odom,0.357035310117,0.0691673295839,0.0,0.0,0.0,0.194590517729,0.980884565283,0,1449618007479335989,odom,0.379676834943,0.0785187337179,0.0,0.0,0.0,0.206696123335,0.978405188354,0,1449618007479336344,odom,0.402080358938,0.0884267869252,0.0,0.0,0.0,0.218770167891,0.975776415805,0,1449618007479336578,odom,0.424232199178,0.0988854378756,0.0,0.0,0.0,0.230810807774,0.97299864903,0,1449618007479336785,odom,0.446118826457,0.109888298962,0.0,0.0,0.0,0.242816204463,0.970072312176,0,1449618007479338683,odom,0.467726873547,0.121428650201,0.0,0.0,0.0,0.254784524818,0.966997852073,0,1449618007479339458,odom,0.48904314336,0.133499443339,0.0,0.0,0.0,0.26671394136,0.963775738169,0,1449618007479339862,odom,0.510054617014,0.146093306155,0.0,0.0,0.0,0.278602632552,0.96040646246,0,1449618007479340062,odom,0.530748461779,0.159202546964,0.0,0.0,0.0,0.290448783072,0.95689053941,0,1449618007479340290,odom,0.551112038917,0.172819159314,0.0,0.0,0.0,0.302250584097,0.953228505875,0,1449618007479340891,odom,0.571132911399,0.186934826878,0.0,0.0,0.0,0.314006233575,0.949420921023
1449618007545567248,17,1449618007518697744,odom,0,1449618007518697744,odom,0.0862169116735,0.00385903497227,0.0,0.0,0.0,0.0633658113514,0.997990367665,0,1449618007518704571,odom,0.111030956922,0.00702284628816,0.0,0.0,0.0,0.0725550101685,0.997364412088,0,1449618007518706133,odom,0.135782514712,0.0106431958052,0.0,0.0,0.0,0.0817380539122,0.996653846901,0,1449618007518706958,odom,0.160463186206,0.0147188550463,0.0,0.0,0.0,0.0909141635557,0.995858732384,0,1449618007518707247,odom,0.18506459662,0.0192484410358,0.0,0.0,0.0,0.10008256066,0.994979135988,0,1449618007518708613,odom,0.209578398068,0.0242304167694,0.0,0.0,0.0,0.109242467441,0.994015132333,0,1449618007518709025,odom,0.233996272389,0.0296630917352,0.0,0.0,0.0,0.118393106835,0.992966803198,0,1449618007518709443,odom,0.258309933974,0.0355446224878,0.0,0.0,0.0,0.127533702563,0.991834237517,0,1449618007518709725,odom,0.282511132574,0.0418730132731,0.0,0.0,0.0,0.136663479199,0.990617531368,0,1449618007518712630,odom,0.306591656105,0.0486461167063,0.0,0.0,0.0,0.145781662236,0.989316787968,0,1449618007518712854,odom,0.330543333429,0.0558616345001,0.0,0.0,0.0,0.154887478148,0.987932117664,0,1449618007518713093,odom,0.354358037128,0.0635171182447,0.0,0.0,0.0,0.163980154461,0.986463637922,0,1449618007518713374,odom,0.378027686264,0.0716099702386,0.0,0.0,0.0,0.173058919814,0.984911473318,0,1449618007518713580,odom,0.40154424912,0.0801374443702,0.0,0.0,0.0,0.182123004025,0.983275755526,0,1449618007518713770,odom,0.424899745925,0.0890966470491,0.0,0.0,0.0,0.19117163816,0.98155662331,0,1449618007518714042,odom,0.448086251561,0.0984845381888,0.0,0.0,0.0,0.200204054594,0.979754222509,0,1449618007518714277,odom,0.471095898252,0.108297932238,0.0,0.0,0.0,0.209219487079,0.977868706027,0,1449618007518715698,odom,0.493920878239,0.11853349926,0.0,0.0,0.0,0.218217170805,0.975900233818,0,1449618007518716001,odom,0.51655344642,0.129187766066,0.0,0.0,0.0,0.227196342472,0.973848972874,0,1449618007518716233,odom,0.538985922986,0.14025711739,0.0,0.0,0.0,0.236156240347,0.97171509721,0,1449618007518716418,odom,0.561210696024,0.151737797119,0.0,0.0,0.0,0.245096104334,0.969498787849,0,1449618007518716608,odom,0.583220224101,0.163625909563,0.0,0.0,0.0,0.254015176035,0.967200232808,0,1449618007518717179,odom,0.605007038819,0.175917420783,0.0,0.0,0.0,0.262912698817,0.964819627081,0,1449618007518717475,odom,0.626563747356,0.188608159954,0.0,0.0,0.0,0.271787917875,0.962357172622
1449618007631594268,18,1449618007628492722,odom,0,1449618007628492722,odom,0.0862169116735,0.00385903497227,0.0,0.0,0.0,0.0633658113514,0.997990367665,0,1449618007628496047,odom,0.111030956922,0.00702284628816,0.0,0.0,0.0,0.0725550101685,0.997364412088,0,1449618007628496859,odom,0.135782514712,0.0106431958052,0.0,0.0,0.0,0.0817380539122,0.996653846901,0,1449618007628497263,odom,0.160463186206,0.0147188550463,0.0,0.0,0.0,0.0909141635557,0.995858732384,0,1449618007628497547,odom,0.18506459662,0.0192484410358,0.0,0.0,0.0,0.10008256066,0.994979135988,0,1449618007628498127,odom,0.209578398068,0.0242304167694,0.0,0.0,0.0,0.109242467441,0.994015132333,0,1449618007628498451,odom,0.233996272389,0.0296630917352,0.0,0.0,0.0,0.118393106835,0.992966803198,0,1449618007628498826,odom,0.258309933974,0.0355446224878,0.0,0.0,0.0,0.127533702563,0.991834237517,0,1449618007628499100,odom,0.282511132574,0.0418730132731,0.0,0.0,0.0,0.136663479199,0.990617531368,0,1449618007628500574,odom,0.306591656105,0.0486461167063,0.0,0.0,0.0,0.145781662236,0.989316787968,0,1449618007628500750,odom,0.330543333429,0.0558616345001,0.0,0.0,0.0,0.154887478148,0.987932117664,0,1449618007628500996,odom,0.354358037128,0.0635171182447,0.0,0.0,0.0,0.163980154461,0.986463637922,0,1449618007628501266,odom,0.378027686264,0.0716099702386,0.0,0.0,0.0,0.173058919814,0.984911473318,0,1449618007628501461,odom,0.40154424912,0.0801374443702,0.0,0.0,0.0,0.182123004025,0.983275755526,0,1449618007628501674,odom,0.424899745925,0.0890966470491,0.0,0.0,0.0,0.19117163816,0.98155662331,0,1449618007628501856,odom,0.448086251561,0.0984845381888,0.0,0.0,0.0,0.200204054594,0.979754222509,0,1449618007628502022,odom,0.471095898252,0.108297932238,0.0,0.0,0.0,0.209219487079,0.977868706027,0,1449618007628503443,odom,0.493920878239,0.11853349926,0.0,0.0,0.0,0.218217170805,0.975900233818,0,1449618007628503645,odom,0.51655344642,0.129187766066,0.0,0.0,0.0,0.227196342472,0.973848972874,0,1449618007628503834,odom,0.538985922986,0.14025711739,0.0,0.0,0.0,0.236156240347,0.97171509721,0,1449618007628504042,odom,0.561210696024,0.151737797119,0.0,0.0,0.0,0.245096104334,0.969498787849,0,1449618007628504222,odom,0.583220224101,0.163625909563,0.0,0.0,0.0,0.254015176035,0.967200232808,0,1449618007628504472,odom,0.605007038819,0.175917420783,0.0,0.0,0.0,0.262912698817,0.964819627081,0,1449618007628504674,odom,0.626563747356,0.188608159954,0.0,0.0,0.0,0.271787917875,0.962357172622
1449618007675742869,19,1449618007669250744,odom,0,1449618007669250744,odom,0.100424461067,0.00619191909209,0.0,0.0,0.0,0.0897076590243,0.995968140009,0,1449618007669261238,odom,0.125506317578,0.0107471609974,0.0,0.0,0.0,0.100011339949,0.994986297334,0,1449618007669262279,odom,0.150488509771,0.0158206044148,0.0,0.0,0.0,0.110304306673,0.99389786192,0,1449618007669263771,odom,0.175360332578,0.0214100753335,0.0,0.0,0.0,0.120585456513,0.992702950372,0,1449618007669263982,odom,0.200111128225,0.0275131786208,0.0,0.0,0.0,0.130853688051,0.9914016907,0,1449618007669265209,odom,0.224730290799,0.0341272990484,0.0,0.0,0.0,0.141107901251,0.989994222309,0,1449618007669265938,odom,0.249207270793,0.0412496024131,0.0,0.0,0.0,0.151346997583,0.988480695979,0,1449618007669266648,odom,0.273531579628,0.0488770367515,0.0,0.0,0.0,0.161569880133,0.986861273855,0,1449618007669267115,odom,0.297692794144,0.0570063336472,0.0,0.0,0.0,0.171775453724,0.985136129425,0,1449618007669271155,odom,0.321680561067,0.0656340096319,0.0,0.0,0.0,0.181962625036,0.983305447503,0,1449618007669271510,odom,0.34548460145,0.074756367678,0.0,0.0,0.0,0.192130302719,0.981369424212,0,1449618007669271700,odom,0.369094715073,0.0843694987825,0.0,0.0,0.0,0.202277397509,0.979328266955,0,1449618007669271847,odom,0.392500784812,0.0944692836423,0.0,0.0,0.0,0.212402822352,0.977182194402,0,1449618007669272037,odom,0.415692780983,0.105051394419,0.0,0.0,0.0,0.22250549251,0.974931436462,0,1449618007669272551,odom,0.43866076563,0.116111296595,0.0,0.0,0.0,0.232584325688,0.972576234258,0,1449618007669272769,odom,0.461394896789,0.127644250914,0.0,0.0,0.0,0.24263824214,0.970116840103,0,1449618007669272930,odom,0.483885432705,0.139645315413,0.0,0.0,0.0,0.252666164792,0.96755351747,0,1449618007669276211,odom,0.506122736003,0.152109347541,0.0,0.0,0.0,0.262667019355,0.964886540969,0,1449618007669276653,odom,0.528097277824,0.16503100636,0.0,0.0,0.0,0.272639734437,0.962116196312,0,1449618007669276886,odom,0.549799641901,0.178404754838,0.0,0.0,0.0,0.282583241664,0.959242780286,0,1449618007669277052,odom,0.571220528599,0.192224862217,0.0,0.0,0.0,0.29249647579,0.956266600719,0,1449618007669277213,odom,0.592350758897,0.206485406472,0.0,0.0,0.0,0.30237837481,0.953187976449,0,1449618007669277393,odom,0.613181278324,0.221180276844,0.0,0.0,0.0,0.312227880078,0.950007237289
1449618007775381037,20,1449618007773731591,odom,0,1449618007773731591,odom,0.11171220243,0.00848937686533,0.0,0.0,0.0,0.100227889918,0.994964506946,0,1449618007773735028,odom,0.136210274337,0.0134756084492,0.0,0.0,0.0,0.108544702679,0.994091568982,0,1449618007773735670,odom,0.160621528864,0.0188708549693,0.0,0.0,0.0,0.116853924758,0.993149112807,0,1449618007773736188,odom,0.184939137677,0.0246736072635,0.0,0.0,0.0,0.125154975079,0.992137204329,0,1449618007773736495,odom,0.209156298639,0.0308822421818,0.0,0.0,0.0,0.133447273138,0.991055914312,0,1449618007773737019,odom,0.233266237708,0.0374950230408,0.0,0.0,0.0,0.141730239043,0.989905318372,0,1449618007773737211,odom,0.257262210835,0.0445101001087,0.0,0.0,0.0,0.150003293554,0.988685496972,0,1449618007773737377,odom,0.28113750585,0.0519255111234,0.0,0.0,0.0,0.158265858126,0.987396535416,0,1449618007773737559,odom,0.30488544434,0.0597391818409,0.0,0.0,0.0,0.166517354945,0.986038523843,0,1449618007773739149,odom,0.328499383514,0.067948926616,0.0,0.0,0.0,0.174757206974,0.98461155722,0,1449618007773739325,odom,0.351972718065,0.076552449013,0.0,0.0,0.0,0.182984837987,0.983115735337,0,1449618007773739604,odom,0.375298882016,0.0855473424489,0.0,0.0,0.0,0.191199672616,0.981551162799,0,1449618007773739793,odom,0.398471350556,0.0949310908657,0.0,0.0,0.0,0.199401136384,0.979917949019,0,1449618007773739977,odom,0.421483641866,0.104701069435,0.0,0.0,0.0,0.207588655753,0.978216208209,0,1449618007773740147,odom,0.444329318933,0.114854545291,0.0,0.0,0.0,0.215761658158,0.976446059375,0,1449618007773742269,odom,0.467001991347,0.125388678298,0.0,0.0,0.0,0.223919572048,0.974607626306,0,1449618007773742404,odom,0.489495317093,0.136300521839,0.0,0.0,0.0,0.232061826931,0.972701037566,0,1449618007773743019,odom,0.511803004322,0.147587023647,0.0,0.0,0.0,0.240187853406,0.970726426485,0,1449618007773743171,odom,0.533918813113,0.159245026654,0.0,0.0,0.0,0.24829708321,0.968683931151,0,1449618007773743422,odom,0.555836557217,0.171271269875,0.0,0.0,0.0,0.256388949252,0.966573694398,0,1449618007773743617,odom,0.577550105786,0.18366238932,0.0,0.0,0.0,0.264462885657,0.964395863798,0,1449618007773743776,odom,0.599053385093,0.196414918938,0.0,0.0,0.0,0.272518327804,0.962150591649,0,1449618007773743929,odom,0.620340380224,0.209525291581,0.0,0.0,0.0,0.280554712363,0.959838034968
1449618007830491880,21,1449618007822232537,odom,0,1449618007822232537,odom,0.131253868341,0.0134291611612,0.0,0.0,0.0,0.126476938736,0.991969547904,0,1449618007822241436,odom,0.155677232352,0.0197600777295,0.0,0.0,0.0,0.134492053942,0.990914672122,0,1449618007822243192,odom,0.179995047007,0.0264850390348,0.0,0.0,0.0,0.142498379443,0.989795035276,0,1449618007822244089,odom,0.204200955265,0.0336022870709,0.0,0.0,0.0,0.150495391985,0.988610710538,0,1449618007822244663,odom,0.228288629335,0.0411099612819,0.0,0.0,0.0,0.158482568926,0.987361775312,0,1449618007822246136,odom,0.252251772338,0.0490060990487,0.0,0.0,0.0,0.166459388265,0.986048311219,0,1449618007822247496,odom,0.276084119945,0.0572886362018,0.0,0.0,0.0,0.174425328678,0.984670404103,0,1449618007822247745,odom,0.299779442023,0.0659554075613,0.0,0.0,0.0,0.182379869552,0.983228144014,0,1449618007822248003,odom,0.323331544258,0.0750041475025,0.0,0.0,0.0,0.190322491021,0.981721625213,0,1449618007822251340,odom,0.346734269774,0.0844324905485,0.0,0.0,0.0,0.198252673994,0.980150946158,0,1449618007822252113,odom,0.369981500747,0.0942379719883,0.0,0.0,0.0,0.206169900197,0.978516209499,0,1449618007822252861,odom,0.39306716,0.104418028521,0.0,0.0,0.0,0.214073652199,0.976817522076,0,1449618007822253315,odom,0.415985212595,0.114969998928,0.0,0.0,0.0,0.221963413454,0.975054994904,0,1449618007822253569,odom,0.438729667406,0.125891124763,0.0,0.0,0.0,0.229838668327,0.973228743175,0,1449618007822254041,odom,0.461294578691,0.13717855108,0.0,0.0,0.0,0.237698902131,0.971338886242,0,1449618007822254251,odom,0.483674047643,0.148829327176,0.0,0.0,0.0,0.245543601163,0.969385547617,0,1449618007822254447,odom,0.505862223929,0.160840407363,0.0,0.0,0.0,0.253372252733,0.967368854959,0,1449618007822256765,odom,0.527853307228,0.173208651763,0.0,0.0,0.0,0.261184345202,0.96528894007,0,1449618007822257013,odom,0.549641548738,0.18593082713,0.0,0.0,0.0,0.268979368011,0.963145938882,0,1449618007822257653,odom,0.571221252685,0.199003607697,0.0,0.0,0.0,0.276756811718,0.96093999145,0,1449618007822257896,odom,0.592586777809,0.212423576041,0.0,0.0,0.0,0.284516168029,0.958671241944,0,1449618007822258108,odom,0.613732538839,0.226187223981,0.0,0.0,0.0,0.292256929833,0.956339838637
1449618007885819756,22,1449618007884160634,odom,0,1449618007884160634,odom,0.139543935657,0.0158609841019,0.0,0.0,0.0,0.142185168843,0.989840076861,0,1449618007884163838,odom,0.163379960072,0.0228530893306,0.0,0.0,0.0,0.149498930516,0.988761887299,0,1449618007884164460,odom,0.187110000029,0.0301968485233,0.0,0.0,0.0,0.156804521533,0.987629658337,0,1449618007884165262,odom,0.21072886787,0.0378906562504,0.0,0.0,0.0,0.164101542619,0.986443451856,0,1449618007884165548,odom,0.234231400241,0.0459328305576,0.0,0.0,0.0,0.171389594964,0.985203332687,0,1449618007884166212,odom,0.25761245922,0.0543216133338,0.0,0.0,0.0,0.17866828025,0.983909368607,0,1449618007884166811,odom,0.28086693344,0.0630551706952,0.0,0.0,0.0,0.185937200672,0.982561630335,0,1449618007884167014,odom,0.303989739208,0.0721315933864,0.0,0.0,0.0,0.193195958955,0.98116019153,0,1449618007884167238,odom,0.326975821614,0.0815488971978,0.0,0.0,0.0,0.200444158383,0.979705128786,0,1449618007884169412,odom,0.349820155638,0.0913050233991,0.0,0.0,0.0,0.207681402816,0.978196521628,0,1449618007884169641,odom,0.372517747247,0.10139783919,0.0,0.0,0.0,0.214907296711,0.976634452505,0,1449618007884169872,odom,0.395063634489,0.111825138165,0.0,0.0,0.0,0.222121445149,0.975019006792,0,1449618007884170131,odom,0.417452888575,0.122584640798,0.0,0.0,0.0,0.22932345385,0.973350272777,0,1449618007884170356,odom,0.439680614959,0.133673994938,0.0,0.0,0.0,0.236512929198,0.971628341663,0,1449618007884170547,odom,0.461741954405,0.145090776327,0.0,0.0,0.0,0.243689478262,0.96985330756,0,1449618007884170732,odom,0.483632084053,0.156832489125,0.0,0.0,0.0,0.250852708818,0.968025267479,0,1449618007884171109,odom,0.505346218471,0.16889656646,0.0,0.0,0.0,0.258002229371,0.966144321331,0,1449618007884172602,odom,0.5268796107,0.181280370986,0.0,0.0,0.0,0.265137649171,0.964210571915,0,1449618007884172859,odom,0.548227553295,0.193981195463,0.0,0.0,0.0,0.272258578244,0.962224124917,0,1449618007884173046,odom,0.569385379352,0.206996263346,0.0,0.0,0.0,0.279364627405,0.960185088905,0,1449618007884173244,odom,0.590348463529,0.22032272939,0.0,0.0,0.0,0.286455408283,0.958093575318,0,1449618007884173450,odom,0.611112223055,0.23395768028,0.0,0.0,0.0,0.293530533341,0.955949698466
1449618008037964251,23,1449618008024200613,odom,0,1449618008024200613,odom,0.15324395895,0.0202920269221,0.0,0.0,0.0,0.157857655501,0.987461878049,0,1449618008024209266,odom,0.177321347251,0.0281920386763,0.0,0.0,0.0,0.163218010006,0.986590026916,0,1449618008024210362,odom,0.201311510214,0.0363530982927,0.0,0.0,0.0,0.168573550637,0.985689077765,0,1449618008024210889,odom,0.225211617645,0.0447742429848,0.0,0.0,0.0,0.173924119439,0.984759057169,0,1449618008024211338,odom,0.249018849968,0.0534544792829,0.0,0.0,0.0,0.179269558607,0.983799992558,0,1449618008024212581,odom,0.272730398569,0.0623927831514,0.0,0.0,0.0,0.184609710483,0.982811912217,0,1449618008024213197,odom,0.296343466119,0.0715881001099,0.0,0.0,0.0,0.189944417568,0.981794845288,0,1449618008024213767,odom,0.319855266909,0.081039345357,0.0,0.0,0.0,0.195273522523,0.980748821769,0,1449618008024214202,odom,0.343263027175,0.0907454038989,0.0,0.0,0.0,0.200596868173,0.97967387251,0,1449618008024216276,odom,0.366563985428,0.100705130681,0.0,0.0,0.0,0.205914297514,0.978570029216,0,1449618008024216723,odom,0.38975539278,0.110917350721,0.0,0.0,0.0,0.211225653718,0.977437324442,0,1449618008024216932,odom,0.412834513264,0.121380859251,0.0,0.0,0.0,0.216530780132,0.976275791596,0,1449618008024217195,odom,0.435798624163,0.132094421857,0.0,0.0,0.0,0.22182952029,0.975085464935,0,1449618008024217409,odom,0.458645016326,0.143056774626,0.0,0.0,0.0,0.227121717913,0.973866379568,0,1449618008024217659,odom,0.481370994491,0.154266624293,0.0,0.0,0.0,0.232407216917,0.972618571448,0,1449618008024218015,odom,0.5039738776,0.165722648396,0.0,0.0,0.0,0.237685861412,0.971342077378,0,1449618008024218402,odom,0.526450999118,0.177423495431,0.0,0.0,0.0,0.242957495714,0.970036935006,0,1449618008024220715,odom,0.548799707347,0.189367785012,0.0,0.0,0.0,0.248221964343,0.968703182826,0,1449618008024220989,odom,0.571017365738,0.201554108032,0.0,0.0,0.0,0.253479112031,0.967340860175,0,1449618008024221313,odom,0.593101353201,0.21398102683,0.0,0.0,0.0,0.258728783727,0.965950007232,0,1449618008024221599,odom,0.615049064417,0.226647075364,0.0,0.0,0.0,0.263970824598,0.964530665018
1449618008118373884,24,1449618008118055582,odom,0,1449618008118055582,odom,0.177557259798,0.0292620453984,0.0,0.0,0.0,0.18388838739,0.982947130309,0,1449618008118062848,odom,0.201158519161,0.0384128922816,0.0,0.0,0.0,0.18388838739,0.982947130309,0,1449618008118064774,odom,0.224759778523,0.0475637391648,0.0,0.0,0.0,0.18388838739,0.982947130309,0,1449618008118066194,odom,0.248361037886,0.0567145860481,0.0,0.0,0.0,0.18388838739,0.982947130309,0,1449618008118066632,odom,0.271962297248,0.0658654329313,0.0,0.0,0.0,0.18388838739,0.982947130309,0,1449618008118067652,odom,0.295563556611,0.0750162798145,0.0,0.0,0.0,0.18388838739,0.982947130309,0,1449618008118067983,odom,0.319164815973,0.0841671266978,0.0,0.0,0.0,0.18388838739,0.982947130309,0,1449618008118068178,odom,0.342766075336,0.093317973581,0.0,0.0,0.0,0.18388838739,0.982947130309,0,1449618008118068994,odom,0.366367334698,0.102468820464,0.0,0.0,0.0,0.18388838739,0.982947130309,0,1449618008118072132,odom,0.389968594061,0.111619667347,0.0,0.0,0.0,0.18388838739,0.982947130309,0,1449618008118072511,odom,0.413569853423,0.120770514231,0.0,0.0,0.0,0.18388838739,0.982947130309,0,1449618008118072716,odom,0.437171112785,0.129921361114,0.0,0.0,0.0,0.18388838739,0.982947130309,0,1449618008118072898,odom,0.460772372148,0.139072207997,0.0,0.0,0.0,0.18388838739,0.982947130309,0,1449618008118073107,odom,0.48437363151,0.14822305488,0.0,0.0,0.0,0.18388838739,0.982947130309,0,1449618008118073294,odom,0.507974890873,0.157373901764,0.0,0.0,0.0,0.18388838739,0.982947130309,0,1449618008118073666,odom,0.531576150235,0.166524748647,0.0,0.0,0.0,0.18388838739,0.982947130309,0,1449618008118073987,odom,0.555177409598,0.17567559553,0.0,0.0,0.0,0.18388838739,0.982947130309,0,1449618008118076248,odom,0.57877866896,0.184826442413,0.0,0.0,0.0,0.18388838739,0.982947130309,0,1449618008118076629,odom,0.602379928323,0.193977289297,0.0,0.0,0.0,0.18388838739,0.982947130309,0,1449618008118076815,odom,0.625981187685,0.20312813618,0.0,0.0,0.0,0.18388838739,0.982947130309
1449618008211297891,25,1449618008204807334,odom,0,1449618008204807334,odom,0.198796182871,0.0381822697818,0.0,0.0,0.0,0.204621441216,0.978841185175,0,1449618008204813878,odom,0.22209948829,0.0483703441479,0.0,0.0,0.0,0.206655665439,0.978413734543,0,1449618008204814646,odom,0.245360237583,0.058655209003,0.0,0.0,0.0,0.208688996748,0.977982056398,0,1449618008204815435,odom,0.268578028732,0.0690366865926,0.0,0.0,0.0,0.210721426357,0.977546152606,0,1449618008204816231,odom,0.291752460461,0.0795145974924,0.0,0.0,0.0,0.212752945485,0.977106025049,0,1449618008204816834,odom,0.314883132243,0.0900887606116,0.0,0.0,0.0,0.214783545353,0.976661675631,0,1449618008204816971,odom,0.337969644308,0.100758993196,0.0,0.0,0.0,0.216813217189,0.976213106269,0,1449618008204817464,odom,0.361011597651,0.11152511083,0.0,0.0,0.0,0.218841952222,0.975760318904,0,1449618008204818207,odom,0.384008594034,0.122386927443,0.0,0.0,0.0,0.220869741686,0.975303315491,0,1449618008204820159,odom,0.406960235998,0.133344255307,0.0,0.0,0.0,0.222896576821,0.974842098004,0,1449618008204820408,odom,0.429866126866,0.144396905047,0.0,0.0,0.0,0.224922448868,0.974376668437,0,1449618008204820679,odom,0.452725870755,0.155544685639,0.0,0.0,0.0,0.226947349074,0.973907028801,0,1449618008204820831,odom,0.475539072576,0.166787404413,0.0,0.0,0.0,0.22897126869,0.973433181125,0,1449618008204820981,odom,0.498305338046,0.178124867061,0.0,0.0,0.0,0.230994198971,0.972955127455,0,1449618008204821115,odom,0.521024273694,0.189556877637,0.0,0.0,0.0,0.233016131176,0.972472869859,0,1449618008204821261,odom,0.543695486865,0.201083238559,0.0,0.0,0.0,0.235037056569,0.971986410419,0,1449618008204821423,odom,0.566318585731,0.212703750616,0.0,0.0,0.0,0.237056966419,0.971495751237,0,1449618008204824000,odom,0.588893179294,0.224418212969,0.0,0.0,0.0,0.239075851997,0.971000894434,0,1449618008204824347,odom,0.611418877395,0.236226423157,0.0,0.0,0.0,0.24109370458,0.970501842148
1449618008293780204,26,1449618008288049344,odom,0,1449618008288049344,odom,0.214478209615,0.0454369150102,0.0,0.0,0.0,0.214954267393,0.976624115476,0,1449618008288055407,odom,0.236735956417,0.0557335502778,0.0,0.0,0.0,0.214954267393,0.976624115476,0,1449618008288056510,odom,0.25899370322,0.0660301855454,0.0,0.0,0.0,0.214954267393,0.976624115476,0,1449618008288057010,odom,0.281251450022,0.0763268208131,0.0,0.0,0.0,0.214954267393,0.976624115476,0,1449618008288057477,odom,0.303509196825,0.0866234560807,0.0,0.0,0.0,0.214954267393,0.976624115476,0,1449618008288059549,odom,0.325766943627,0.0969200913483,0.0,0.0,0.0,0.214954267393,0.976624115476,0,1449618008288059885,odom,0.34802469043,0.107216726616,0.0,0.0,0.0,0.214954267393,0.976624115476,0,1449618008288060058,odom,0.370282437232,0.117513361884,0.0,0.0,0.0,0.214954267393,0.976624115476,0,1449618008288060379,odom,0.392540184035,0.127809997151,0.0,0.0,0.0,0.214954267393,0.976624115476,0,1449618008288062591,odom,0.414797930837,0.138106632419,0.0,0.0,0.0,0.214954267393,0.976624115476,0,1449618008288062774,odom,0.43705567764,0.148403267686,0.0,0.0,0.0,0.214954267393,0.976624115476,0,1449618008288063584,odom,0.459313424442,0.158699902954,0.0,0.0,0.0,0.214954267393,0.976624115476,0,1449618008288064002,odom,0.481571171245,0.168996538222,0.0,0.0,0.0,0.214954267393,0.976624115476,0,1449618008288064352,odom,0.503828918047,0.179293173489,0.0,0.0,0.0,0.214954267393,0.976624115476,0,1449618008288064592,odom,0.52608666485,0.189589808757,0.0,0.0,0.0,0.214954267393,0.976624115476,0,1449618008288065111,odom,0.548344411652,0.199886444024,0.0,0.0,0.0,0.214954267393,0.976624115476,0,1449618008288065518,odom,0.570602158455,0.210183079292,0.0,0.0,0.0,0.214954267393,0.976624115476,0,1449618008288067411,odom,0.592859905257,0.22047971456,0.0,0.0,0.0,0.214954267393,0.976624115476,0,1449618008288067574,odom,0.61511765206,0.230776349827,0.0,0.0,0.0,0.214954267393,0.976624115476
1449618008378470846,27,1449618008377346899,odom,0,1449618008377346899,odom,0.23517845571,0.0555495209992,0.0,0.0,0.0,0.225263072379,0.974297977121,0,1449618008377358443,odom,0.25728930332,0.0663512376182,0.0,0.0,0.0,0.225263072379,0.974297977121,0,1449618008377359968,odom,0.27940015093,0.0771529542372,0.0,0.0,0.0,0.225263072379,0.974297977121,0,1449618008377360570,odom,0.301510998539,0.0879546708563,0.0,0.0,0.0,0.225263072379,0.974297977121,0,1449618008377361157,odom,0.323621846149,0.0987563874753,0.0,0.0,0.0,0.225263072379,0.974297977121,0,1449618008377364144,odom,0.345732693759,0.109558104094,0.0,0.0,0.0,0.225263072379,0.974297977121,0,1449618008377364777,odom,0.367843541369,0.120359820713,0.0,0.0,0.0,0.225263072379,0.974297977121,0,1449618008377365004,odom,0.389954388978,0.131161537332,0.0,0.0,0.0,0.225263072379,0.974297977121,0,1449618008377365549,odom,0.412065236588,0.141963253951,0.0,0.0,0.0,0.225263072379,0.974297977121,0,1449618008377370511,odom,0.434176084198,0.15276497057,0.0,0.0,0.0,0.225263072379,0.974297977121,0,1449618008377370702,odom,0.456286931807,0.163566687189,0.0,0.0,0.0,0.225263072379,0.974297977121,0,1449618008377370932,odom,0.478397779417,0.174368403808,0.0,0.0,0.0,0.225263072379,0.974297977121,0,1449618008377371399,odom,0.500508627027,0.185170120427,0.0,0.0,0.0,0.225263072379,0.974297977121,0,1449618008377371712,odom,0.522619474636,0.195971837047,0.0,0.0,0.0,0.225263072379,0.974297977121,0,1449618008377371889,odom,0.544730322246,0.206773553666,0.0,0.0,0.0,0.225263072379,0.974297977121,0,1449618008377372089,odom,0.566841169856,0.217575270285,0.0,0.0,0.0,0.225263072379,0.974297977121,0,1449618008377372262,odom,0.588952017465,0.228376986904,0.0,0.0,0.0,0.225263072379,0.974297977121,0,1449618008377375356,odom,0.611062865075,0.239178703523,0.0,0.0,0.0,0.225263072379,0.974297977121
1449618008493471186,28,1449618008485560088,odom,0,1449618008485560088,odom,0.250581264496,0.0633790120482,0.0,0.0,0.0,0.235546733932,0.971863023339,0,1449618008485568062,odom,0.272157113922,0.0744902117743,0.0,0.0,0.0,0.233902649051,0.972260022199,0,1449618008485569511,odom,0.293770425422,0.0855283639661,0.0,0.0,0.0,0.232257895063,0.97265423979,0,1449618008485570158,odom,0.315420951685,0.09649334232,0.0,0.0,0.0,0.230612476673,0.973045674983,0,1449618008485570480,odom,0.337108444977,0.107385021369,0.0,0.0,0.0,0.228966398587,0.973434326659,0,1449618008485572219,odom,0.358832657139,0.118203276486,0.0,0.0,0.0,0.227319665515,0.973820193706,0,1449618008485572656,odom,0.38059333959,0.128947983882,0.0,0.0,0.0,0.225672282167,0.974203275021,0,1449618008485572905,odom,0.402390243336,0.139619020613,0.0,0.0,0.0,0.224024253255,0.974583569507,0,1449618008485573175,odom,0.424223118965,0.150216264573,0.0,0.0,0.0,0.222375583494,0.974961076077,0,1449618008485575538,odom,0.446091716655,0.160739594506,0.0,0.0,0.0,0.220726277601,0.975335793651,0,1449618008485575886,odom,0.467995786176,0.171188889997,0.0,0.0,0.0,0.219076340293,0.975707721156,0,1449618008485576109,odom,0.489935076889,0.18156403148,0.0,0.0,0.0,0.21742577629,0.976076857529,0,1449618008485576426,odom,0.511909337755,0.191864900239,0.0,0.0,0.0,0.215774590314,0.976443201715,0,1449618008485576809,odom,0.533918317334,0.202091378406,0.0,0.0,0.0,0.214122787088,0.976806752664,0,1449618008485576981,odom,0.555961763788,0.212243348964,0.0,0.0,0.0,0.212470371338,0.977167509337,0,1449618008485577223,odom,0.578039424886,0.22232069575,0.0,0.0,0.0,0.21081734779,0.977525470702,0,1449618008485577693,odom,0.600151048004,0.232323303454,0.0,0.0,0.0,0.209163721172,0.977880635735
1449618008595290713,29,1449618008584782108,odom,0,1449618008584782108,odom,0.278415590525,0.0785004720092,0.0,0.0,0.0,0.250922543476,0.968007167936,0,1449618008584788847,odom,0.300589248396,0.0908240415069,0.0,0.0,0.0,0.245004793524,0.969521867288,0,1449618008584790459,odom,0.322911805659,0.102875800955,0.0,0.0,0.0,0.239077901444,0.971000389825,0,1449618008584791133,odom,0.345379930562,0.11465395157,0.0,0.0,0.0,0.233142088393,0.972442680378,0,1449618008584791827,odom,0.367990269627,0.126156735404,0.0,0.0,0.0,0.227197575859,0.973848685127,0,1449618008584792981,odom,0.39073944815,0.13738243561,0.0,0.0,0.0,0.221244585657,0.97521835161,0,1449618008584793242,odom,0.413624070703,0.148329376697,0.0,0.0,0.0,0.215283339918,0.976551628719,0,1449618008584793565,odom,0.436640721644,0.15899592478,0.0,0.0,0.0,0.209314061078,0.977848466704,0,1449618008584793831,odom,0.459785965625,0.169380487825,0.0,0.0,0.0,0.203336971878,0.979108817174,0,1449618008584796458,odom,0.483056348103,0.179481515884,0.0,0.0,0.0,0.197352295345,0.980332633101,0,1449618008584796733,odom,0.506448395861,0.189297501329,0.0,0.0,0.0,0.191360254794,0.981519868818,0,1449618008584797197,odom,0.529958617519,0.198826979077,0.0,0.0,0.0,0.185361073811,0.982670480027,0,1449618008584797643,odom,0.553583504062,0.208068526805,0.0,0.0,0.0,0.17935497625,0.983784423791,0,1449618008584798000,odom,0.577319529358,0.217020765167,0.0,0.0,0.0,0.173342186224,0.984861658547,0,1449618008584798207,odom,0.60116315069,0.225682357997,0.0,0.0,0.0,0.167322928094,0.985902144097
1449618008671360671,30,1449618008663385131,odom,0,1449618008663385131,odom,0.295990914106,0.0883728563786,0.0,0.0,0.0,0.256033977582,0.96666778281,0,1449618008663392725,odom,0.317008858693,0.100346565,0.0,0.0,0.0,0.249923641486,0.968265549024,0,1449618008663393840,odom,0.338176369347,0.112053835624,0.0,0.0,0.0,0.243803336169,0.969824692031,0,1449618008663394312,odom,0.359490068695,0.123492800301,0.0,0.0,0.0,0.237673305766,0.971345149638,0,1449618008663394660,odom,0.380946556035,0.134661633892,0.0,0.0,0.0,0.231533794797,0.972826861197,0,1449618008663396538,odom,0.402542407886,0.145558554357,0.0,0.0,0.0,0.225385048162,0.974269767603,0,1449618008663396884,odom,0.424274178528,0.156181823041,0.0,0.0,0.0,0.219227311128,0.975673811299,0,1449618008663397055,odom,0.446138400556,0.166529744953,0.0,0.0,0.0,0.213060829322,0.977038936281,0,1449618008663397249,odom,0.468131585431,0.176600669032,0.0,0.0,0.0,0.206885848719,0.978365088093,0,1449618008663399473,odom,0.490250224039,0.186392988417,0.0,0.0,0.0,0.200702615633,0.979652213838,0,1449618008663399652,odom,0.512490787246,0.195905140696,0.0,0.0,0.0,0.194511376707,0.980900262173,0,1449618008663399854,odom,0.534849726468,0.205135608163,0.0,0.0,0.0,0.188312378905,0.982109183315,0,1449618008663400043,odom,0.557323474232,0.214082918051,0.0,0.0,0.0,0.182105869498,0.98327892904,0,1449618008663400230,odom,0.579908444745,0.222745642777,0.0,0.0,0.0,0.175892096058,0.984409452689,0,1449618008663400394,odom,0.602601034471,0.231122400163,0.0,0.0,0.0,0.169671306447,0.985500709167
