%time,field.header.seq,field.header.stamp,field.header.frame_id,field.polygon.points0.x,field.polygon.points0.y,field.polygon.points0.z,field.polygon.points1.x,field.polygon.points1.y,field.polygon.points1.z,field.polygon.points2.x,field.polygon.points2.y,field.polygon.points2.z,field.polygon.points3.x,field.polygon.points3.y,field.polygon.points3.z,field.polygon.points4.x,field.polygon.points4.y,field.polygon.points4.z
1449618000170790784,1,1449618000169840153,odom,0.479999989271,0.0,0.0,0.329999983311,-0.264999985695,0.0,-0.539999961853,-0.264999985695,0.0,-0.539999961853,0.264999985695,0.0,0.329999983311,0.264999985695,0.0
1449618000369609628,2,1449618000369184452,odom,0.479999989271,0.0,0.0,0.329999983311,-0.264999985695,0.0,-0.539999961853,-0.264999985695,0.0,-0.539999961853,0.264999985695,0.0,0.329999983311,0.264999985695,0.0
1449618000682034000,3,1449618000679420168,odom,0.479999989271,0.0,0.0,0.329999983311,-0.264999985695,0.0,-0.539999961853,-0.264999985695,0.0,-0.539999961853,0.264999985695,0.0,0.329999983311,0.264999985695,0.0
1449618000870349834,4,1449618000868723509,odom,0.479999989271,0.0,0.0,0.329999983311,-0.264999985695,0.0,-0.539999961853,-0.264999985695,0.0,-0.539999961853,0.264999985695,0.0,0.329999983311,0.264999985695,0.0
1449618001072206454,5,1449618001060294779,odom,0.479999989271,0.0,0.0,0.329999983311,-0.264999985695,0.0,-0.539999961853,-0.264999985695,0.0,-0.539999961853,0.264999985695,0.0,0.329999983311,0.264999985695,0.0
1449618001279229125,6,1449618001278773436,odom,0.479999989271,0.0,0.0,0.329999983311,-0.264999985695,0.0,-0.539999961853,-0.264999985695,0.0,-0.539999961853,0.264999985695,0.0,0.329999983311,0.264999985695,0.0
1449618001503248805,7,1449618001503035931,odom,0.479999989271,0.0,0.0,0.329999983311,-0.264999985695,0.0,-0.539999961853,-0.264999985695,0.0,-0.539999961853,0.264999985695,0.0,0.329999983311,0.264999985695,0.0
1449618001662400091,8,1449618001661800893,odom,0.479999989271,0.0,0.0,0.329999983311,-0.264999985695,0.0,-0.539999961853,-0.264999985695,0.0,-0.539999961853,0.264999985695,0.0,0.329999983311,0.264999985695,0.0
1449618001895881837,9,1449618001895601793,odom,0.479999989271,0.0,0.0,0.329999983311,-0.264999985695,0.0,-0.539999961853,-0.264999985695,0.0,-0.539999961853,0.264999985695,0.0,0.329999983311,0.264999985695,0.0
1449618002104634246,10,1449618002104224993,odom,0.479999989271,0.0,0.0,0.329999983311,-0.264999985695,0.0,-0.539999961853,-0.264999985695,0.0,-0.539999961853,0.264999985695,0.0,0.329999983311,0.264999985695,0.0
1449618002299059506,11,1449618002298281759,odom,0.479999989271,0.0,0.0,0.329999983311,-0.264999985695,0.0,-0.539999961853,-0.264999985695,0.0,-0.539999961853,0.264999985695,0.0,0.329999983311,0.264999985695,0.0
1449618002530119685,12,1449618002529710486,odom,0.479999989271,0.0,0.0,0.329999983311,-0.264999985695,0.0,-0.539999961853,-0.264999985695,0.0,-0.539999961853,0.264999985695,0.0,0.329999983311,0.264999985695,0.0
1449618002691079603,13,1449618002690249649,odom,0.479999989271,0.0,0.0,0.329999983311,-0.264999985695,0.0,-0.539999961853,-0.264999985695,0.0,-0.539999961853,0.264999985695,0.0,0.329999983311,0.264999985695,0.0
1449618002878722256,14,1449618002878405582,odom,0.479999989271,0.0,0.0,0.329999983311,-0.264999985695,0.0,-0.539999961853,-0.264999985695,0.0,-0.539999961853,0.264999985695,0.0,0.329999983311,0.264999985695,0.0
1449618003096125092,15,1449618003094498553,odom,0.479999989271,0.0,0.0,0.329999983311,-0.264999985695,0.0,-0.539999961853,-0.264999985695,0.0,-0.539999961853,0.264999985695,0.0,0.329999983311,0.264999985695,0.0
1449618003279814118,16,1449618003279456097,odom,0.479999989271,0.0,0.0,0.329999983311,-0.264999985695,0.0,-0.539999961853,-0.264999985695,0.0,-0.539999961853,0.264999985695,0.0,0.329999983311,0.264999985695,0.0
1449618003466146256,17,1449618003464992961,odom,0.479999989271,0.0,0.0,0.329999983311,-0.264999985695,0.0,-0.539999961853,-0.264999985695,0.0,-0.539999961853,0.264999985695,0.0,0.329999983311,0.264999985695,0.0
1449618003665841743,18,1449618003663351472,odom,0.479999989271,0.0,0.0,0.329999983311,-0.264999985695,0.0,-0.539999961853,-0.264999985695,0.0,-0.539999961853,0.264999985695,0.0,0.329999983311,0.264999985695,0.0
1449618003865982220,19,1449618003865275239,odom,0.479999989271,0.0,0.0,0.329999983311,-0.264999985695,0.0,-0.539999961853,-0.264999985695,0.0,-0.539999961853,0.264999985695,0.0,0.329999983311,0.264999985695,0.0
1449618004071061276,20,1449618004070583845,odom,0.479999989271,0.0,0.0,0.329999983311,-0.264999985695,0.0,-0.539999961853,-0.264999985695,0.0,-0.539999961853,0.264999985695,0.0,0.329999983311,0.264999985695,0.0
1449618004261133600,21,1449618004260740106,odom,0.479999989271,0.0,0.0,0.329999983311,-0.264999985695,0.0,-0.539999961853,-0.264999985695,0.0,-0.539999961853,0.264999985695,0.0,0.329999983311,0.264999985695,0.0
1449618004521666114,22,1449618004521177678,odom,0.479999989271,0.0,0.0,0.329999983311,-0.264999985695,0.0,-0.539999961853,-0.264999985695,0.0,-0.539999961853,0.264999985695,0.0,0.329999983311,0.264999985695,0.0
1449618004730138408,23,1449618004728646696,odom,0.479999989271,0.0,0.0,0.329999983311,-0.264999985695,0.0,-0.539999961853,-0.264999985695,0.0,-0.539999961853,0.264999985695,0.0,0.329999983311,0.264999985695,0.0
1449618004898508848,24,1449618004898237626,odom,0.479999989271,0.0,0.0,0.329999983311,-0.264999985695,0.0,-0.539999961853,-0.264999985695,0.0,-0.539999961853,0.264999985695,0.0,0.329999983311,0.264999985695,0.0
1449618005087318991,25,1449618005087099052,odom,0.479999989271,0.0,0.0,0.329999983311,-0.264999985695,0.0,-0.539999961853,-0.264999985695,0.0,-0.539999961853,0.264999985695,0.0,0.329999983311,0.264999985695,0.0
1449618005285478555,26,1449618005284887574,odom,0.479999989271,0.0,0.0,0.329999983311,-0.264999985695,0.0,-0.539999961853,-0.264999985695,0.0,-0.539999961853,0.264999985695,0.0,0.329999983311,0.264999985695,0.0
1449618005483221741,27,1449618005482877748,odom,0.479999989271,0.0,0.0,0.329999983311,-0.264999985695,0.0,-0.539999961853,-0.264999985695,0.0,-0.539999961853,0.264999985695,0.0,0.329999983311,0.264999985695,0.0
1449618005709530180,28,1449618005708797766,odom,0.479999989271,0.0,0.0,0.329999983311,-0.264999985695,0.0,-0.539999961853,-0.264999985695,0.0,-0.539999961853,0.264999985695,0.0,0.329999983311,0.264999985695,0.0
1449618005869994086,29,1449618005869120992,odom,0.479999989271,0.0,0.0,0.329999983311,-0.264999985695,0.0,-0.539999961853,-0.264999985695,0.0,-0.539999961853,0.264999985695,0.0,0.329999983311,0.264999985695,0.0
1449618006136581906,30,1449618006134710379,odom,0.479999989271,0.0,0.0,0.329999983311,-0.264999985695,0.0,-0.539999961853,-0.264999985695,0.0,-0.539999961853,0.264999985695,0.0,0.329999983311,0.264999985695,0.0
1449618006268346106,31,1449618006264150286,odom,0.479999989271,0.0,0.0,0.329999983311,-0.264999985695,0.0,-0.539999961853,-0.264999985695,0.0,-0.539999961853,0.264999985695,0.0,0.329999983311,0.264999985695,0.0
1449618006498405836,32,1449618006498166142,odom,0.479999989271,0.0,0.0,0.329999983311,-0.264999985695,0.0,-0.539999961853,-0.264999985695,0.0,-0.539999961853,0.264999985695,0.0,0.329999983311,0.264999985695,0.0
1449618006729830558,33,1449618006725242512,odom,0.485759437084,3.04332297674e-05,0.0,0.335759431124,-0.264969557524,0.0,-0.534240543842,-0.264969557524,0.0,-0.534240543842,0.265030413866,0.0,0.335759431124,0.265030413866,0.0
1449618006952635251,34,1449618006951639232,odom,0.491518855095,0.0,0.0,0.341518849134,-0.264999985695,0.0,-0.528481125832,-0.264999985695,0.0,-0.528481125832,0.264999985695,0.0,0.341518849134,0.264999985695,0.0
1449618007063581489,35,1449618007063353236,odom,0.508797287941,-6.08664595347e-05,0.0,0.358797281981,-0.26506087184,0.0,-0.511202692986,-0.26506087184,0.0,-0.511202692986,0.264939129353,0.0,0.358797281981,0.264939129353,0.0
1449618007336342242,36,1449618007333713352,odom,0.522951483727,0.0154588827863,0.0,0.381427079439,-0.254162758589,0.0,-0.488135695457,-0.281740754843,0.0,-0.504936099052,0.247992888093,0.0,0.364626675844,0.275570869446,0.0
1449618007457836474,37,1449618007457446588,odom,0.547344982624,0.0423578061163,0.0,0.420258313417,-0.234362229705,0.0,-0.446634232998,-0.307828247547,0.0,-0.491389393806,0.220278710127,0.0,0.375503152609,0.29374474287,0.0
1449618007711778814,38,1449618007709404343,odom,0.570745527744,0.0864537358284,0.0,0.467480033636,-0.200009599328,0.0,-0.390112429857,-0.346416831017,0.0,-0.479303061962,0.176024571061,0.0,0.378289401531,0.32243180275,0.0
1449618007917275669,39,1449618007916123172,odom,0.595897316933,0.133871972561,0.0,0.517190694809,-0.16028830409,0.0,-0.32497549057,-0.378590911627,0.0,-0.457964450121,0.13445289433,0.0,0.38420176506,0.352755486965,0.0
1449618008171252363,40,1449618008168845288,odom,0.617922127247,0.189123019576,0.0,0.567507386208,-0.111182413995,0.0,-0.250120401382,-0.408478111029,0.0,-0.431231558323,0.0896169990301,0.0,0.386396229267,0.386912703514,0.0
1449618008335297067,41,1449618008332641256,odom,0.64489376545,0.244551032782,0.0,0.620018005371,-0.0589389912784,0.0,-0.169584706426,-0.424216330051,0.0,-0.39210999012,0.0568060018122,0.0,0.397492706776,0.422083348036,0.0
1449618008521643283,42,1449618008519146780,odom,0.677318274975,0.28314140439,0.0,0.665290117264,-0.0211287420243,0.0,-0.108170710504,-0.419448077679,0.0,-0.35082501173,0.0517407208681,0.0,0.422635793686,0.450060039759,0.0
1449618008698601334,43,1449618008696091865,odom,0.713059663773,0.325972676277,0.0,0.713900566101,0.0214660298079,0.0,-0.0420364923775,-0.409183621407,0.0,-0.304386287928,0.0513297691941,0.0,0.451550751925,0.48197939992,0.0
1449618008953288753,44,1449618008952603812,odom,0.757281422615,0.370007514954,0.0,0.7677744627,0.0656805634499,0.0,0.0258683655411,-0.38871499896,0.0,-0.250947326422,0.0632507875562,0.0,0.490958750248,0.517646372318,0.0
1449618009096210479,45,1449618009095931780,odom,0.800915122032,0.403465360403,0.0,0.814623594284,0.0992662757635,0.0,0.0775609612465,-0.362944245338,0.0,-0.204015567899,0.0860709324479,0.0,0.53304708004,0.548281490803,0.0
1449618009289752890,46,1449618009288911055,odom,0.844243049622,0.437306195498,0.0,0.861165523529,0.133268982172,0.0,0.129028603435,-0.336704909801,0.0,-0.157277345657,0.109309546649,0.0,0.574859559536,0.579283416271,0.0
1449618009482339951,47,1449618009482077482,odom,0.892712116241,0.468419492245,0.0,0.909634590149,0.164382264018,0.0,0.177497640252,-0.305591642857,0.0,-0.10880830884,0.140422835946,0.0,0.623328626156,0.610396742821,0.0
1449618009680406070,48,1449618009679380733,odom,0.94732350111,0.484165638685,0.0,0.95459985733,0.179744794965,0.0,0.207933232188,-0.266785025597,0.0,-0.0640906989574,0.188080862164,0.0,0.682575941086,0.634610712528,0.0
1449618009924684180,49,1449618009924405043,odom,1.00234472752,0.49827760458,0.0,0.999967575073,0.193779081106,0.0,0.239521712065,-0.228857889771,0.0,-0.0179467853159,0.234402254224,0.0,0.742499113083,0.657039225101,0.0
1449618010080337296,50,1449618010079855998,odom,1.06299221516,0.513114333153,0.0,1.05096399784,0.208844184875,0.0,0.277503222227,-0.189475148916,0.0,0.0348489098251,0.281713634729,0.0,0.808309733868,0.680032968521,0.0
1449618010272204780,51,1449618010271629309,odom,1.12347877026,0.513626337051,0.0,1.09539723396,0.210416138172,0.0,0.30197840929,-0.146496400237,0.0,0.0845489278436,0.33685067296,0.0,0.877967715263,0.693763256073,0.0
1449618010503629098,52,1449618010501792160,odom,1.18309748173,0.504992365837,0.0,1.13585913181,0.204170927405,0.0,0.321418762207,-0.101748727262,0.0,0.135053917766,0.39440459013,0.0,0.949494302273,0.700324237347,0.0
1449618010684846913,53,1449618010684608860,odom,1.24310386181,0.498858422041,0.0,1.18004333973,0.200951755047,0.0,0.350582331419,-0.0615257136524,0.0,0.190682262182,0.443778127432,0.0,1.02014327049,0.706255614758,0.0
1449618010960289363,54,1449618010959103304,odom,1.30125296116,0.483602106571,0.0,1.21944200993,0.190290018916,0.0,0.37501591444,-0.0191005021334,0.0,0.247456148267,0.495320051908,0.0,1.09188234806,0.704710543156,0.0
1449618011096117118,55,1449618011095724944,odom,1.35834765434,0.464542478323,0.0,1.2581152916,0.177003845572,0.0,0.402117908001,0.0215418674052,0.0,0.307411193848,0.543011546135,0.0,1.16340851784,0.698473513126,0.0
1449618011297735920,56,1449618011297251690,odom,1.41414046288,0.441783279181,0.0,1.29588937759,0.161173805594,0.0,0.431761264801,0.0602652169764,0.0,0.370288223028,0.586688101292,0.0,1.23441636562,0.687596678734,0.0
1449618011485767434,57,1449618011485167182,odom,1.45688199997,0.414804428816,0.0,1.32108747959,0.142251968384,0.0,0.452301830053,0.0963023453951,0.0,0.424309521914,0.625562608242,0.0,1.29309523106,0.671512246132,0.0
1449618011692024991,58,1449618011691757865,odom,1.5063918829,0.379551768303,0.0,1.35082471371,0.117781147361,0.0,0.481019109488,0.136168181896,0.0,0.492220401764,0.666049778461,0.0,1.36202609539,0.647662758827,0.0
1449618011860075444,59,1449618011859878879,odom,1.54977524281,0.335932940245,0.0,1.37265884876,0.0882339626551,0.0,0.507512629032,0.180004939437,0.0,0.563419103622,0.70704805851,0.0,1.42856538296,0.61527711153,0.0
1449618012083044424,60,1449618012082629536,odom,1.59118449688,0.299057483673,0.0,1.39872848988,0.0630794018507,0.0,0.541135966778,0.20948664844,0.0,0.63032656908,0.731928050518,0.0,1.48791909218,0.585520803928,0.0
1449618012342859862,61,1449618012342068794,odom,1.62898898125,0.243150919676,0.0,1.41499221325,0.0265167914331,0.0,0.575179994106,0.253707081079,0.0,0.713583290577,0.765316843987,0.0,1.55339550972,0.538126528263,0.0
1449618012469211434,62,1449618012468607980,odom,1.65954065323,0.195928812027,0.0,1.43011784554,-0.0042965435423,0.0,0.609393954277,0.284341961145,0.0,0.785231232643,0.784323215485,0.0,1.6059551239,0.495684713125,0.0
1449618012756410457,63,1449618012756094376,odom,1.687027812,0.140619754791,0.0,1.4415166378,-0.0395171456039,0.0,0.648097932339,0.31739538908,0.0,0.865527391434,0.800742506981,0.0,1.6589461565,0.443829953671,0.0
1449618012955959834,64,1449618012955730688,odom,1.70967566967,0.0951457768679,0.0,1.45324337482,-0.0690720975399,0.0,0.684035122395,0.337398797274,0.0,0.931655347347,0.805996954441,0.0,1.70086359978,0.399526059628,0.0
1449618013068218524,65,1449618013067231424,odom,1.72987484932,0.0603592507541,0.0,1.46673202515,-0.0928751975298,0.0,0.715388178825,0.345739036798,0.0,0.982589960098,0.803454220295,0.0,1.73393368721,0.364840000868,0.0
1449618013315262649,66,1449618013313648102,odom,1.74886500835,0.0305627062917,0.0,1.48099696636,-0.114253409207,0.0,0.743934333324,0.347957134247,0.0,1.02551090717,0.796972334385,0.0,1.76257348061,0.334761768579,0.0
1449618013465189303,67,1449618013464847091,odom,1.77716374397,1.61898569786e-05,0.0,1.50629496574,-0.139106318355,0.0,0.779165506363,0.338578432798,0.0,1.07016885281,0.781542360783,0.0,1.79729831219,0.303857594728,0.0
1449618013708649417,68,1449618013708318589,odom,1.80559504032,-0.0248401332647,0.0,1.5332711935,-0.161092370749,0.0,0.811230421066,0.324249923229,0.0,1.10689866543,0.764113783836,0.0,1.82893943787,0.278771519661,0.0
1449618013921769252,69,1449618013921040514,odom,1.83427548409,-0.0441185534,0.0,1.56195151806,-0.180370792747,0.0,0.839910805225,0.30497148633,0.0,1.13557910919,0.74483537674,0.0,1.85761988163,0.259493112564,0.0
1449618014067615325,70,1449618014063211542,odom,1.85752558708,-0.0662622228265,0.0,1.58377695084,-0.199628964067,0.0,0.86690557003,0.293316632509,0.0,1.16720569134,0.730031371117,0.0,1.88407707214,0.237085789442,0.0
1449618014311371665,71,1449618014307859817,odom,1.8711181879,-0.0820235982537,0.0,1.59597539902,-0.212489962578,0.0,0.884353458881,0.288003891706,0.0,1.18925201893,0.721520721912,0.0,1.90087401867,0.221026882529,0.0
1449618014506414229,72,1449618014503189657,odom,1.88525140285,-0.0919637307525,0.0,1.61010873318,-0.222430095077,0.0,0.898486733437,0.278063774109,0.0,1.20338523388,0.711580634117,0.0,1.91500723362,0.211086750031,0.0
1449618014670641768,73,1449618014670270936,odom,1.90470600128,-0.0992960482836,0.0,1.63095736504,-0.232662796974,0.0,0.91408598423,0.260282814503,0.0,1.21438610554,0.696997582912,0.0,1.93125748634,0.204051956534,0.0
1449618014910854270,74,1449618014910429286,odom,1.9343495369,-0.106814526021,0.0,1.66348075867,-0.245937034488,0.0,0.936351299286,0.231747731566,0.0,1.22735464573,0.67471164465,0.0,1.95448410511,0.197026878595,0.0
1449618015116644829,75,1449618015116343524,odom,1.97937989235,-0.110888898373,0.0,1.71463227272,-0.261333942413,0.0,0.967965662479,0.185195893049,0.0,1.23998951912,0.640061795712,0.0,1.98665618896,0.193531945348,0.0
1449618015292793113,76,1449618015290575880,odom,2.03455758095,-0.112646251917,0.0,1.77812540531,-0.276864141226,0.0,1.00891721249,0.129606768489,0.0,1.25653731823,0.598204910755,0.0,2.02574563026,0.191734015942,0.0
1449618015500603495,77,1449618015500144078,odom,2.09469747543,-0.107616215944,0.0,1.84918642044,-0.287753105164,0.0,1.05576765537,0.0691594332457,0.0,1.27319717407,0.552506506443,0.0,2.06661581993,0.195593982935,0.0
1449618015728890938,78,1449618015728501590,odom,2.15889358521,-0.0949255079031,0.0,1.92736768723,-0.292715191841,0.0,1.10973989964,0.00458050891757,0.0,1.29085111618,0.502675592899,0.0,2.10847878456,0.205379933119,0.0
1449618015938173436,79,1449618015937431761,odom,2.21768116951,-0.0819950923324,0.0,1.99915373325,-0.29405811429,0.0,1.1643307209,-0.0491695217788,0.0,1.31351566315,0.459400862455,0.0,2.14833879471,0.214512273669,0.0
1449618016089226906,80,1449618016088899944,odom,2.26998901367,-0.0638031065464,0.0,2.06533837318,-0.289287120104,0.0,1.21667540073,-0.0977899208665,0.0,1.33333456516,0.419211655855,0.0,2.18199753761,0.227714434266,0.0
1449618016310603670,81,1449618016304853427,odom,2.31729960442,-0.047241948545,0.0,2.12484335899,-0.283220022917,0.0,1.2672508955,-0.136812776327,0.0,1.3564414978,0.385628640652,0.0,2.21403408051,0.239221379161,0.0
1449618016485655703,82,1449618016485305780,odom,2.36371302605,-0.0279040392488,0.0,2.18398880959,-0.273717433214,0.0,1.319860816,-0.172808855772,0.0,1.38133382797,0.353614032269,0.0,2.24546194077,0.252705425024,0.0
1449618016682036299,83,1449618016681641603,odom,2.4057996273,-0.0112321414053,0.0,2.23662400246,-0.264421015978,0.0,1.36900341511,-0.200120300055,0.0,1.40817511082,0.328430145979,0.0,2.27579569817,0.264129400253,0.0
1449618016881923215,84,1449618016880695366,odom,2.44714617729,0.00726424623281,0.0,2.2888212204,-0.252847760916,0.0,1.4192584753,-0.225269764662,0.0,1.4360588789,0.304463893175,0.0,2.30562162399,0.276885896921,0.0
1449618017117273339,85,1449618017115806835,odom,2.48767614365,0.027460956946,0.0,2.34048509598,-0.239109411836,0.0,1.47053360939,-0.248303443193,0.0,1.46493268013,0.28166693449,0.0,2.3348839283,0.290860980749,0.0
1449618017276497880,86,1449618017234282685,odom,2.53620386124,0.0442247912288,0.0,2.39753651619,-0.22687740624,0.0,1.52831375599,-0.263643264771,0.0,1.50591623783,0.265883266926,0.0,2.37513899803,0.302649110556,0.0
1449618017450249384,87,1449618017449999217,odom,2.59567928314,0.0631269067526,0.0,2.46567559242,-0.212234646082,0.0,1.59805500507,-0.276535391808,0.0,1.55888330936,0.252015054226,0.0,2.42650365829,0.316315799952,0.0
1449618017673906501,88,1449618017656973713,odom,2.64645957947,0.0777645558119,0.0,2.52230429649,-0.200283065438,0.0,1.65623652935,-0.28290617466,0.0,1.60590291023,0.24469833076,0.0,2.47197055817,0.327321439981,0.0
1449618017853472828,89,1449618017852449254,odom,2.70262002945,0.0943217277527,0.0,2.58436894417,-0.186287745833,0.0,1.72024095058,-0.287196338177,0.0,1.6587678194,0.239226549864,0.0,2.52289605141,0.340135127306,0.0
1449618018053500550,90,1449618018052372508,odom,2.7563188076,0.105975188315,0.0,2.64103960991,-0.175868287683,0.0,1.77802622318,-0.285903215408,0.0,1.71099340916,0.239840641618,0.0,2.57400679588,0.349875569344,0.0
1449618018287682330,91,1449618018285952773,odom,2.80987119675,0.118346311152,0.0,2.69757699966,-0.164699673653,0.0,1.8357745409,-0.283848643303,0.0,1.76318955421,0.241157442331,0.0,2.62499189377,0.360306441784,0.0
1449618018501905599,92,1449618018498669069,odom,2.8611972332,0.125596061349,0.0,2.74890327454,-0.157449916005,0.0,1.88710069656,-0.276598900557,0.0,1.81451570988,0.248407199979,0.0,2.67631816864,0.36755618453,0.0
1449618018633300807,93,1449618018632028947,odom,2.90321397781,0.136894598603,0.0,2.79391741753,-0.147322297096,0.0,1.93342220783,-0.275572031736,0.0,1.85529303551,0.24863769114,0.0,2.71578812599,0.376887410879,0.0
1449618018871552938,94,1449618018871306734,odom,2.94878721237,0.143686920404,0.0,2.83949065208,-0.140529960394,0.0,1.97899544239,-0.268779695034,0.0,1.90086627007,0.255430012941,0.0,2.76136159897,0.383679747581,0.0
1449618019038158373,95,1449618019037755176,odom,2.98295331001,0.148871392012,0.0,2.87365674973,-0.135345488787,0.0,2.01316142082,-0.263595223427,0.0,1.93503236771,0.260614484549,0.0,2.79552745819,0.388864219189,0.0
1449618019298276009,96,1449618019298100589,odom,3.02284288406,0.154724299908,0.0,2.91354632378,-0.129492580891,0.0,2.05305123329,-0.257742315531,0.0,1.97492194176,0.266467392445,0.0,2.83541727066,0.394717127085,0.0
1449618019445997767,97,1449618019444636026,odom,3.0641810894,0.150105714798,0.0,2.94890189171,-0.131737753749,0.0,2.08588838577,-0.241772681475,0.0,2.01885581017,0.28397116065,0.0,2.88186907768,0.394006103277,0.0
1449618019627368529,98,1449618019626475829,odom,3.10539793968,0.144735395908,0.0,2.98418807983,-0.134608745575,0.0,2.11904191971,-0.226379722357,0.0,2.06313538551,0.300663411617,0.0,2.92828154564,0.392434388399,0.0
1449618019876593506,99,1449618019872968474,odom,3.16946077347,0.140319496393,0.0,3.04237389565,-0.136400535703,0.0,2.17548155785,-0.209866553545,0.0,2.13072633743,0.318240404129,0.0,2.99761891365,0.391706436872,0.0
1449618020042819638,100,1449618020040233671,odom,3.21616744995,0.133516505361,0.0,3.08326077461,-0.140455812216,0.0,2.21500921249,-0.195584058762,0.0,2.18142533302,0.333350807428,0.0,3.04967689514,0.388479083776,0.0
1449618020237197246,101,1449618020235603073,odom,3.25958800316,0.130916193128,0.0,3.12379360199,-0.141636282206,0.0,2.25500798225,-0.187585905194,0.0,2.2270154953,0.341674357653,0.0,3.09580135345,0.38762396574,0.0
1449618020474947774,102,1449618020471003017,odom,3.29722881317,0.127522572875,0.0,3.15856146812,-0.143579632044,0.0,2.28933882713,-0.180345490575,0.0,2.26694130898,0.34918102622,0.0,3.13616394997,0.385946899652,0.0
1449618020655437149,103,1449618020655179992,odom,3.32907366753,0.123579204082,0.0,3.18754911423,-0.146042451262,0.0,2.31798648834,-0.173620432615,0.0,2.30118608475,0.356113225222,0.0,3.17074894905,0.383691191673,0.0
1449618020858041263,104,1449618020856797420,odom,3.35785722733,0.124492064118,0.0,3.21633267403,-0.145129591227,0.0,2.34676980972,-0.172707572579,0.0,2.32996964455,0.357026070356,0.0,3.19953227043,0.38460406661,0.0
1449618021074386642,105,1449618021074095452,odom,3.38664054871,0.125404924154,0.0,3.24511623383,-0.144216731191,0.0,2.37555336952,-0.171794712543,0.0,2.35875296593,0.357938945293,0.0,3.22831583023,0.385516911745,0.0
1449618021260284534,106,1449618021260038743,odom,3.40967130661,0.12598310411,0.0,3.26814699173,-0.143638551235,0.0,2.39858412743,-0.171216532588,0.0,2.38178372383,0.358517110348,0.0,3.25134658813,0.386095106602,0.0
1449618021494105329,107,1449618021493757451,odom,3.43571448326,0.121581688523,0.0,3.29134869576,-0.146529302001,0.0,2.42154312134,-0.164916336536,0.0,2.41034173965,0.364965289831,0.0,3.28014731407,0.383352309465,0.0
1449618021634404280,108,1449618021634059084,odom,3.45874524117,0.122159861028,0.0,3.31437945366,-0.145951122046,0.0,2.44457387924,-0.164338156581,0.0,2.43337249756,0.365543454885,0.0,3.30317807198,0.38393047452,0.0
1449618021847886463,109,1449618021847597937,odom,3.481777668,0.122677192092,0.0,3.33741188049,-0.145433798432,0.0,2.46760630608,-0.163820832968,0.0,2.45640492439,0.3660607934,0.0,3.32621049881,0.384447813034,0.0
1449618022049760882,110,1449618022049317887,odom,3.51056909561,0.12328582257,0.0,3.36620330811,-0.144825160503,0.0,2.49639773369,-0.163212195039,0.0,2.48519635201,0.366669416428,0.0,3.35500192642,0.385056436062,0.0
1449618022279501701,111,1449618022278760389,odom,3.53656387329,0.118639864028,0.0,3.38937282562,-0.147930502892,0.0,2.51942133904,-0.157124534249,0.0,2.51382040977,0.372845858335,0.0,3.38377165794,0.382039874792,0.0
1449618022456370352,112,1449618022454869033,odom,3.56239581108,0.124259635806,0.0,3.41803002357,-0.143851354718,0.0,2.54822421074,-0.162238389254,0.0,2.53702306747,0.367643237114,0.0,3.40682864189,0.386030256748,0.0
1449618022684031596,113,1449618022681674010,odom,3.58542895317,0.124746538699,0.0,3.44106316566,-0.143364444375,0.0,2.57125759125,-0.16175147891,0.0,2.56005620956,0.368130117655,0.0,3.42986178398,0.386517167091,0.0
1449618022898546475,114,1449618022898166315,odom,3.61422395706,0.125142157078,0.0,3.46985793114,-0.142968818545,0.0,2.60005235672,-0.161355853081,0.0,2.58885121346,0.368525743484,0.0,3.45865678787,0.386912792921,0.0
1449618023045519539,115,1449618023045266838,odom,3.63446068764,0.120344050229,0.0,3.48726963997,-0.14622631669,0.0,2.61731815338,-0.155420348048,0.0,2.61171722412,0.374550044537,0.0,3.48166871071,0.383744060993,0.0
1449618023248330904,116,1449618023247480921,odom,3.65749788284,0.120587520301,0.0,3.51030659676,-0.145982861519,0.0,2.64035534859,-0.155176892877,0.0,2.63475441933,0.374793499708,0.0,3.5047056675,0.383987545967,0.0
1449618023441369955,117,1449618023441254959,odom,3.66901636124,0.120709247887,0.0,3.52182531357,-0.145861119032,0.0,2.65187382698,-0.15505515039,0.0,2.64627289772,0.374915242195,0.0,3.51622414589,0.384109258652,0.0
1449618023646181328,118,1449618023645778066,odom,3.68053483963,0.120830982924,0.0,3.53334379196,-0.145739391446,0.0,2.66339230537,-0.154933422804,0.0,2.65779137611,0.375036984682,0.0,3.5277428627,0.384231001139,0.0
1449618023847589314,119,1449618023847311020,odom,3.68053483963,0.120830982924,0.0,3.53334379196,-0.145739391446,0.0,2.66339230537,-0.154933422804,0.0,2.65779137611,0.375036984682,0.0,3.5277428627,0.384231001139,0.0
1449618024062992190,120,1449618024062196644,odom,3.68053483963,0.120830982924,0.0,3.53334379196,-0.145739391446,0.0,2.66339230537,-0.154933422804,0.0,2.65779137611,0.375036984682,0.0,3.5277428627,0.384231001139,0.0
1449618024255471378,121,1449618024254840750,odom,3.68053483963,0.120830982924,0.0,3.53334379196,-0.145739391446,0.0,2.66339230537,-0.154933422804,0.0,2.65779137611,0.375036984682,0.0,3.5277428627,0.384231001139,0.0
1449618024428948796,122,1449618024428685532,odom,3.68053483963,0.120830982924,0.0,3.53334379196,-0.145739391446,0.0,2.66339230537,-0.154933422804,0.0,2.65779137611,0.375036984682,0.0,3.5277428627,0.384231001139,0.0
1449618024692890686,123,1449618024692170691,odom,3.68053483963,0.120830982924,0.0,3.53334379196,-0.145739391446,0.0,2.66339230537,-0.154933422804,0.0,2.65779137611,0.375036984682,0.0,3.5277428627,0.384231001139,0.0
1449618024853274364,124,1449618024848192387,odom,3.68053483963,0.120830982924,0.0,3.53334379196,-0.145739391446,0.0,2.66339230537,-0.154933422804,0.0,2.65779137611,0.375036984682,0.0,3.5277428627,0.384231001139,0.0
1449618025039402123,125,1449618025039240765,odom,3.68053483963,0.120830982924,0.0,3.53334379196,-0.145739391446,0.0,2.66339230537,-0.154933422804,0.0,2.65779137611,0.375036984682,0.0,3.5277428627,0.384231001139,0.0
1449618025284359019,126,1449618025282421904,odom,3.68053483963,0.120830982924,0.0,3.53334379196,-0.145739391446,0.0,2.66339230537,-0.154933422804,0.0,2.65779137611,0.375036984682,0.0,3.5277428627,0.384231001139,0.0
1449618025473501291,127,1449618025467136191,odom,3.68053483963,0.120830982924,0.0,3.53334379196,-0.145739391446,0.0,2.66339230537,-0.154933422804,0.0,2.65779137611,0.375036984682,0.0,3.5277428627,0.384231001139,0.0
1449618025683697824,128,1449618025683461013,odom,3.68053483963,0.120830982924,0.0,3.53334379196,-0.145739391446,0.0,2.66339230537,-0.154933422804,0.0,2.65779137611,0.375036984682,0.0,3.5277428627,0.384231001139,0.0
1449618025857582593,129,1449618025857325978,odom,3.68053483963,0.120830982924,0.0,3.53334379196,-0.145739391446,0.0,2.66339230537,-0.154933422804,0.0,2.65779137611,0.375036984682,0.0,3.5277428627,0.384231001139,0.0
1449618026101466545,130,1449618026100982283,odom,3.68629407883,0.120891846716,0.0,3.53910303116,-0.145678520203,0.0,2.66915154457,-0.15487255156,0.0,2.66355061531,0.375097841024,0.0,3.5335021019,0.384291857481,0.0
1449618026257910475,131,1449618026255724652,odom,3.69183731079,0.131186872721,0.0,3.55031275749,-0.138434782624,0.0,2.68075013161,-0.166012763977,0.0,2.66394972801,0.36372089386,0.0,3.5335123539,0.391298860312,0.0
1449618026468864838,132,1449618026465415702,odom,3.70334839821,0.131612837315,0.0,3.56182384491,-0.138008803129,0.0,2.69226121902,-0.165586799383,0.0,2.67546081543,0.364146858454,0.0,3.54502344131,0.391724824905,0.0
1449618026683035299,133,1449618026682145285,odom,3.72017717361,0.142600700259,0.0,3.58438277245,-0.129951775074,0.0,2.71559691429,-0.175901398063,0.0,2.68760466576,0.353358864784,0.0,3.55639028549,0.399308472872,0.0
1449618026878974968,134,1449618026875455917,odom,3.73425960541,0.148455649614,0.0,3.60135293007,-0.125516667962,0.0,2.73310136795,-0.180644914508,0.0,2.69951748848,0.348289966583,0.0,3.5677690506,0.403418213129,0.0
1449618027069854767,135,1449618027068347320,odom,3.74575567245,0.149185568094,0.0,3.61284899712,-0.124786742032,0.0,2.744597435,-0.179914996028,0.0,2.71101355553,0.349019885063,0.0,3.57926511765,0.404148131609,0.0
1449618027310280662,136,1449618027308136257,odom,3.75976705551,0.155310466886,0.0,3.62976312637,-0.1200510934,0.0,2.76214265823,-0.184351816773,0.0,2.72297096252,0.344198614359,0.0,3.59059143066,0.408499360085,0.0
1449618027461732458,137,1449618027459995835,odom,3.77038812637,0.166392058134,0.0,3.6462328434,-0.111655563116,0.0,2.78016495705,-0.194278672338,0.0,2.72983145714,0.333325833082,0.0,3.59589910507,0.415948957205,0.0
1449618027696430379,138,1449618027693564062,odom,3.78420424461,0.172897458076,0.0,3.66299438477,-0.106446690857,0.0,2.79784822464,-0.198217660189,0.0,2.74194169044,0.328825473785,0.0,3.60708808899,0.420596420765,0.0
1449618027854530157,139,1449618027854152604,odom,3.79664611816,0.189793452621,0.0,3.6843521595,-0.0932525321841,0.0,2.82254958153,-0.212401509285,0.0,2.74996471405,0.312604576349,0.0,3.6117670536,0.431753575802,0.0
1449618028065178929,140,1449618028063040165,odom,3.80855512619,0.207015141845,0.0,3.7052898407,-0.0794481858611,0.0,2.847697258,-0.225855425,0.0,2.75850653648,0.296585977077,0.0,3.61609911919,0.442993223667,0.0
1449618028257650864,141,1449618028255544512,odom,3.81991767883,0.224575713277,0.0,3.72578454018,-0.0650170519948,0.0,2.87326407433,-0.238535404205,0.0,2.76755738258,0.280816227198,0.0,3.62007808685,0.454334557056,0.0
1449618028447032499,142,1449618028446668712,odom,3.83071136475,0.24251742661,0.0,3.74580550194,-0.0499137192965,0.0,2.89921355247,-0.250368773937,0.0,2.77709722519,0.265371084213,0.0,3.62368917465,0.465826123953,0.0
1449618028658380005,143,1449618028658019018,odom,3.83943533897,0.255195766687,0.0,3.76072859764,-0.038964509964,0.0,2.91856241226,-0.2572671175,0.0,2.78557348251,0.255776673555,0.0,3.62773966789,0.474079281092,0.0
1449618028842188008,144,1449618028841609423,odom,3.84369874001,0.272207885981,0.0,3.7743563652,-0.0242994707078,0.0,2.93953323364,-0.269188046455,0.0,2.7903482914,0.239382311702,0.0,3.62517142296,0.484270900488,0.0
1449618029086316719,145,1449618029079422988,odom,3.851749897,0.285300225019,0.0,3.78868937492,-0.0126064252108,0.0,2.95922851562,-0.275083899498,0.0,2.79932832718,0.23021993041,0.0,3.6287894249,0.492697387934,0.0
1449618029262514924,146,1449618029262285338,odom,3.85951304436,0.29858866334,0.0,3.80276274681,-0.000584200839512,0.0,2.97903418541,-0.280533313751,0.0,2.80849051476,0.221278235316,0.0,3.63221883774,0.501227319241,0.0
1449618029441633758,147,1449618029440755256,odom,3.86157011986,0.310098707676,0.0,3.81115555763,0.00979326292872,0.0,2.99352765083,-0.28750243783,0.0,2.8124165535,0.21059268713,0.0,3.63004422188,0.507888376713,0.0
1449618029637307039,148,1449618029622877927,odom,3.86250758171,0.315869361162,0.0,3.8152692318,0.015047935769,0.0,3.00082874298,-0.290871709585,0.0,2.81446409225,0.205281615257,0.0,3.62890434265,0.511201262474,0.0
1449618029853052312,149,1449618029852160267,odom,3.86250758171,0.315869361162,0.0,3.8152692318,0.015047935769,0.0,3.00082874298,-0.290871709585,0.0,2.81446409225,0.205281615257,0.0,3.62890434265,0.511201262474,0.0
1449618030047086183,150,1449618030045731558,odom,3.86338376999,0.321649640799,0.0,3.81932711601,0.0203457865864,0.0,3.00816512108,-0.294163674116,0.0,2.81656742096,0.199992477894,0.0,3.62772941589,0.514501929283,0.0
1449618030273962903,151,1449618030272108010,odom,3.86627674103,0.344853579998,0.0,3.83499240875,0.0419570878148,0.0,3.03784608841,-0.3065508008,0.0,2.82553672791,0.179067060351,0.0,3.62268280983,0.527574956417,0.0
1449618030437796121,152,1449618030437369474,odom,3.87341356277,0.370577275753,0.0,3.85495758057,0.0666292980313,0.0,3.07325124741,-0.315254330635,0.0,2.84060955048,0.160957589746,0.0,3.62231588364,0.542841255665,0.0
1449618030631787363,153,1449618030631197787,odom,3.87932634354,0.414438515902,0.0,3.88338518143,0.109957762063,0.0,3.13204145432,-0.328656464815,0.0,2.86483979225,0.129058733582,0.0,3.61618351936,0.567672967911,0.0
1449618030863077942,154,1449618030855039414,odom,3.881980896,0.45861646533,0.0,3.90853238106,0.155268445611,0.0,3.19166088104,-0.337677150965,0.0,2.89136075974,0.0990376099944,0.0,3.60823225975,0.59198319912,0.0
1449618031069689447,155,1449618031068755496,odom,3.88794279099,0.494479835033,0.0,3.93047881126,0.192957565188,0.0,3.24064326286,-0.337162047625,0.0,2.9176967144,0.0830826163292,0.0,3.6075322628,0.613202214241,0.0
1449618031220832731,156,1449618031219883169,odom,3.90209460258,0.532050311565,0.0,3.95733475685,0.232594951987,0.0,3.29051804543,-0.326203256845,0.0,2.95010066032,0.0800183936954,0.0,3.61691737175,0.638816595078,0.0
1449618031433435329,157,1449618031433213262,odom,3.92731261253,0.560198664665,0.0,3.98571443558,0.261343806982,0.0,3.32484030724,-0.304470032454,0.0,2.9801492691,0.0981314629316,0.0,3.64102339745,0.663945317268,0.0
1449618031622286451,158,1449618031621999777,odom,3.94940495491,0.600425124168,0.0,4.01725053787,0.303571730852,0.0,3.37464427948,-0.282906711102,0.0,3.01736426353,0.10856616497,0.0,3.65997076035,0.695044577122,0.0
1449618031838683669,159,1449618031838321156,odom,3.98019385338,0.643412768841,0.0,4.05429840088,0.348059535027,0.0,3.42423033714,-0.251869082451,0.0,3.05875658989,0.13196541369,0.0,3.68882441521,0.731894016266,0.0
1449618032060478749,160,1449618032060177093,odom,4.00417375565,0.688851773739,0.0,4.08760309219,0.395996034145,0.0,3.47686886787,-0.223603531718,0.0,3.099411726,0.148452967405,0.0,3.71014595032,0.768052518368,0.0
1449618032270026644,161,1449618032269614287,odom,4.03851556778,0.731785297394,0.0,4.12503528595,0.439827591181,0.0,3.52088308334,-0.186191529036,0.0,3.13951516151,0.181855291128,0.0,3.74366760254,0.807874381542,0.0
1449618032458874572,162,1449618032458166516,odom,4.07049751282,0.780804097652,0.0,4.16316843033,0.490740090609,0.0,3.57238149643,-0.147907659411,0.0,3.18332028389,0.211996927857,0.0,3.77410697937,0.850644648075,0.0
1449618032634233562,163,1449618032633748870,odom,4.10375404358,0.824538707733,0.0,4.19948530197,0.535470247269,0.0,3.61548066139,-0.109385184944,0.0,3.22263765335,0.24638774991,0.0,3.80664229393,0.891243219376,0.0
1449618032825992969,164,1449618032823479820,odom,4.1423034668,0.867331087589,0.0,4.23803424835,0.578262627125,0.0,3.65402960777,-0.0665928199887,0.0,3.26118659973,0.289180129766,0.0,3.84519124031,0.934035539627,0.0
1449618033038252357,165,1449618033037797892,odom,4.17884874344,0.915785312653,0.0,4.27762937546,0.627744674683,0.0,3.70047211647,-0.0232464075089,0.0,3.30389142036,0.328355163336,0.0,3.88104867935,0.97934627533,0.0
1449618033241750372,166,1449618033241488717,odom,4.21101379395,0.960353553295,0.0,4.31283283234,0.673372864723,0.0,3.74258732796,0.0163188204169,0.0,3.34231305122,0.363709747791,0.0,3.9125585556,1.02076375484,0.0
1449618033444216395,167,1449618033443352999,odom,4.24499034882,0.999502062798,0.0,4.34680891037,0.71252143383,0.0,3.77656364441,0.0554673708975,0.0,3.37628936768,0.402858287096,0.0,3.94653487206,1.05991232395,0.0
1449618033653407986,168,1449618033651719600,odom,4.28057289124,1.04865837097,0.0,4.38541889191,0.762769818306,0.0,3.8221487999,0.0997261628509,0.0,3.41822576523,0.442867666483,0.0,3.98149585724,1.10591125488,0.0
1449618033854229197,169,1449618033853758626,odom,4.31793165207,1.09249389172,0.0,4.42277765274,0.806605219841,0.0,3.85950779915,0.143561601639,0.0,3.45558476448,0.48670309782,0.0,4.01885461807,1.14974677563,0.0
1449618034022807965,170,1449618034020601730,odom,4.35132932663,1.13213634491,0.0,4.4561753273,0.846247732639,0.0,3.89290547371,0.183204084635,0.0,3.48898243904,0.526345551014,0.0,4.05225229263,1.18938922882,0.0
1449618034251710745,171,1449618034249430681,odom,4.38023471832,1.18300580978,0.0,4.4910993576,0.899396896362,0.0,3.94196844101,0.22459693253,0.0,3.53088355064,0.559125065804,0.0,4.08001470566,1.23392498493,0.0
1449618034439319294,172,1449618034437914513,odom,4.41321182251,1.22299897671,0.0,4.52407646179,0.93939012289,0.0,3.97494530678,0.264590144157,0.0,3.56386041641,0.599118292332,0.0,4.11299133301,1.27391827106,0.0
1449618034621462766,173,1449618034621232734,odom,4.44593000412,1.26320493221,0.0,4.5567946434,0.979596018791,0.0,4.00766372681,0.304796040058,0.0,3.59657859802,0.639324128628,0.0,4.14570951462,1.31412410736,0.0
1449618034851262588,174,1449618034846981323,odom,4.47613525391,1.30913078785,0.0,4.58999109268,1.02670931816,0.0,4.04802179337,0.346143841743,0.0,3.63342452049,0.676308989525,0.0,4.17539358139,1.35687446594,0.0
1449618035058123315,175,1449618035050276953,odom,4.50248098373,1.35069823265,0.0,4.61931467056,1.06949579716,0.0,4.08456802368,0.383240878582,0.0,3.66650462151,0.7090061903,0.0,4.20125150681,1.39526104927,0.0
1449618035242420219,176,1449618035233549575,odom,4.53788137436,1.39612853527,0.0,4.65471506119,1.11492609978,0.0,4.11996841431,0.4286711514,0.0,3.70190501213,0.75443649292,0.0,4.23665189743,1.44069135189,0.0
1449618035419214275,177,1449618035413755988,odom,4.57052850723,1.44731855392,0.0,4.69032764435,1.16736638546,0.0,4.16286325455,0.475498735905,0.0,3.74138045311,0.796827852726,0.0,4.26884508133,1.48869550228,0.0
1449618035626691411,178,1449618035619414868,odom,4.60270643234,1.49879574776,0.0,4.72545719147,1.22012531757,0.0,4.20533370972,0.522722065449,0.0,3.7804787159,0.839579045773,0.0,4.30060243607,1.5369822979,0.0
1449618035829312395,179,1449618035824750291,odom,4.63713979721,1.54496526718,0.0,4.75989055634,1.266294837,0.0,4.23976707458,0.568891644478,0.0,3.81491208076,0.885748624802,0.0,4.33503580093,1.58315181732,0.0
1449618036068607425,180,1449618036068356761,odom,4.66530370712,1.59218072891,0.0,4.79099273682,1.31482315063,0.0,4.27826786041,0.611962258816,0.0,3.85008835793,0.924311697483,0.0,4.36281299591,1.6271725893,0.0
1449618036248947031,181,1449618036248025931,odom,4.68972110748,1.63493132591,0.0,4.81833410263,1.35891735554,0.0,4.31306552887,0.650677382946,0.0,3.88160920143,0.958484470844,0.0,4.38687753677,1.66672456264,0.0
1449618036469608778,182,1449618036467828938,odom,4.7230463028,1.68190610409,0.0,4.85165929794,1.40589213371,0.0,4.34639120102,0.697652101517,0.0,3.91493463516,1.00545918941,0.0,4.42020273209,1.71369922161,0.0
1449618036653837130,183,1449618036652229507,odom,4.75020647049,1.72970616817,0.0,4.88172912598,1.45506691933,0.0,4.38397359848,0.741526782513,0.0,3.94928836823,1.04475712776,0.0,4.44704389572,1.75829720497,0.0
1449618036829328823,184,1449618036828728550,odom,4.77713489532,1.77760064602,0.0,4.91155290604,1.50436651707,0.0,4.42136573792,0.785606086254,0.0,3.98350024223,1.08422589302,0.0,4.47368717194,1.80298626423,0.0
1449618037060064104,185,1449618037059766748,odom,4.80981206894,1.8250285387,0.0,4.94422960281,1.55179452896,0.0,4.45404243469,0.833034098148,0.0,4.01617717743,1.13165378571,0.0,4.50636434555,1.85041427612,0.0
1449618037241609290,186,1449618037238879496,odom,4.83613204956,1.87327301502,0.0,4.97343015671,1.60147464275,0.0,4.49086618423,0.877574145794,0.0,4.04986906052,1.17154991627,0.0,4.53243303299,1.89545047283,0.0
1449618037449482763,187,1449618037448899972,odom,4.85547542572,1.9122582674,0.0,4.99563789368,1.6419261694,0.0,4.52075099945,0.912966370583,0.0,4.07667207718,1.2022652626,0.0,4.55155897141,1.93122506142,0.0
1449618037642362574,188,1449618037640924998,odom,4.86849594116,1.9619038105,0.0,5.01715707779,1.6961504221,0.0,4.56561613083,0.952503621578,0.0,4.11258983612,1.22758042812,0.0,4.56413078308,1.97122716904,0.0
1449618037822824838,189,1449618037819752854,odom,4.87395715714,2.0119740963,0.0,5.03371620178,1.75274050236,0.0,4.61400461197,0.990676045418,0.0,4.14975833893,1.24636244774,0.0,4.56946992874,2.00842690468,0.0
1449618038037267228,190,1449618038036752504,odom,4.87980651855,2.06741738319,0.0,5.05037784576,1.81516683102,0.0,4.66324615479,1.03604638577,0.0,4.18860960007,1.27188539505,0.0,4.57574129105,2.0510058403,0.0
1449618038288660614,191,1449618038288243365,odom,4.873524189,2.12729740143,0.0,5.05973720551,1.8863619566,0.0,4.72275257111,1.08427631855,0.0,4.23412561417,1.28956568241,0.0,4.57111024857,2.09165143967,0.0
1449618038434440717,192,1449618038434185567,odom,4.87151575089,2.17763447762,0.0,5.06774377823,1.9447838068,0.0,4.76495599747,1.12917375565,0.0,4.26809024811,1.3136305809,0.0,4.57087802887,2.12924051285,0.0
1449618038679522992,193,1449618038676330946,odom,4.86111307144,2.22682762146,0.0,5.0693655014,2.00466585159,0.0,4.81007766724,1.17420232296,0.0,4.30416297913,1.33215928078,0.0,4.56345129013,2.16262292862,0.0
1449618038858356071,194,1449618038857993354,odom,4.85415792465,2.27679896355,0.0,5.07161283493,2.06363606453,0.0,4.84765148163,1.22295713425,0.0,4.33551359177,1.35939335823,0.0,4.55947494507,2.20007228851,0.0
1449618039065981608,195,1449618039061554183,odom,4.84930276871,2.32252573967,0.0,5.07340526581,2.11636328697,0.0,4.8762049675,1.26900732517,0.0,4.35999965668,1.38914084435,0.0,4.55719995499,2.23649668694,0.0
1449618039270913729,196,1449618039261507289,odom,4.84421730042,2.37370705605,0.0,5.0747423172,2.17475175858,0.0,4.90450143814,1.32157075405,0.0,4.38474750519,1.42528069019,0.0,4.55498838425,2.27846169472,0.0
1449618039447621825,197,1449618039445406037,odom,4.83392477036,2.43402957916,0.0,5.07265138626,2.24499416351,0.0,4.9386177063,1.38538086414,0.0,4.41494560242,1.46703362465,0.0,4.54897928238,2.32664680481,0.0
1449618039638319686,198,1449618039637791458,odom,4.83123826981,2.48679685593,0.0,5.07390737534,2.30284905434,0.0,4.958070755,1.44059503078,0.0,4.43278980255,1.51116192341,0.0,4.54862594604,2.37341594696,0.0
1449618039829485739,199,1449618039828944221,odom,4.82761859894,2.53947281837,0.0,5.07412099838,2.36069464684,0.0,4.97653388977,1.49618518353,0.0,4.44987869263,1.55563485622,0.0,4.54746580124,2.42014431953,0.0
1449618040043517988,200,1449618040037145955,odom,4.82850074768,2.59440875053,0.0,5.07687854767,2.41824555397,0.0,4.98843288422,1.55275309086,0.0,4.4611787796,1.60663378239,0.0,4.54962444305,2.4721262455,0.0
1449618040230930390,201,1449618040230484215,odom,4.82315254211,2.64695000648,0.0,5.07519817352,2.47607564926,0.0,5.00506401062,1.60890710354,0.0,4.47678899765,1.65163242817,0.0,4.54692268372,2.51880097389,0.0
1449618040511604140,202,1449618040489580547,odom,4.82788658142,2.70435070992,0.0,5.07993173599,2.53347611427,0.0,5.00979804993,1.66630768776,0.0,4.48152256012,1.70903301239,0.0,4.55165672302,2.5762014389,0.0
1449618040680692865,203,1449618040680224661,odom,4.82112550735,2.75678825378,0.0,5.07672595978,2.59127879143,0.0,5.02493476868,1.72282171249,0.0,4.49587488174,1.75437271595,0.0,4.54766607285,2.62282967567,0.0
1449618040877615815,204,1449618040877214818,odom,4.81344032288,2.80906319618,0.0,5.07248163223,2.64899253845,0.0,5.03905630112,1.77963495255,0.0,4.50944757462,1.79999744892,0.0,4.54287290573,2.66935515404,0.0
1449618041117274375,205,1449618041115517092,odom,4.81032037735,2.86391186714,0.0,5.07103872299,2.70658779144,0.0,5.04680252075,1.8369256258,0.0,4.5170083046,1.85169005394,0.0,4.54124450684,2.72135233879,0.0
1449618041301396605,206,1449618041301119383,odom,4.80627822876,2.91297149658,0.0,5.06864452362,2.75841140747,0.0,5.05360031128,1.88854157925,0.0,4.52367973328,1.89770650864,0.0,4.53872394562,2.76757645607,0.0
1449618041539552153,207,1449618041537397252,odom,4.80183935165,2.96198415756,0.0,5.06582450867,2.81020545959,0.0,5.05997371674,1.94022512436,0.0,4.52998590469,1.94378936291,0.0,4.53583669662,2.81376957893,0.0
1449618041693158148,208,1449618041692453618,odom,4.79657840729,3.0109474659,0.0,5.06215286255,2.86196708679,0.0,5.0654964447,1.99197351933,0.0,4.53550052643,1.98993682861,0.0,4.53215694427,2.85993027687,0.0
1449618041939119039,209,1449618041938579716,odom,4.79110479355,3.05985546112,0.0,5.05823898315,2.91368985176,0.0,5.07077598572,2.04378008842,0.0,4.54083108902,2.03614258766,0.0,4.52829408646,2.906052351,0.0
1449618042081611982,210,1449618042080784252,odom,4.79035806656,3.11168646812,0.0,5.05749225616,2.96552062035,0.0,5.07002925873,2.09561109543,0.0,4.54008436203,2.08797359467,0.0,4.52754735947,2.95788311958,0.0
1449618042355370586,211,1449618042352969508,odom,4.78422403336,3.1662914753,0.0,5.05288791656,3.02295708656,0.0,5.07461738586,2.15322852135,0.0,4.54478263855,2.139991045,0.0,4.52305316925,3.00971961021,0.0
1449618042479508672,212,1449618042479102043,odom,4.78326416016,3.21811819077,0.0,5.05192804337,3.07478380203,0.0,5.07365751266,2.20505523682,0.0,4.54382276535,2.19181752205,0.0,4.52209329605,3.06154608727,0.0
1449618042742994041,213,1449618042740428502,odom,4.78742551804,3.27292609215,0.0,5.05455970764,3.12676048279,0.0,5.06709671021,2.25685071945,0.0,4.53715181351,2.24921321869,0.0,4.52461481094,3.11912274361,0.0
1449618042894547073,214,1449618042893087133,odom,4.78120040894,3.32752943039,0.0,5.04986381531,3.18419480324,0.0,5.07159376144,2.31446623802,0.0,4.54175901413,2.30122876167,0.0,4.52002954483,3.17095732689,0.0
1449618043130297480,215,1449618043129844597,odom,4.77990579605,3.37934947014,0.0,5.04856920242,3.23601508141,0.0,5.07029867172,2.36628651619,0.0,4.54046440125,2.35304903984,0.0,4.51873493195,3.22277760506,0.0
1449618043287370576,216,1449618043286881299,odom,4.77861070633,3.43116950989,0.0,5.04727458954,3.28783512115,0.0,5.06900405884,2.41810655594,0.0,4.53916931152,2.40486907959,0.0,4.51743984222,3.27459764481,0.0
1449618043542787282,217,1449618043541034848,odom,4.77196121216,3.48570871353,0.0,5.04212474823,3.34522128105,0.0,5.07304382324,2.47577095032,0.0,4.54337882996,2.45693492889,0.0,4.51245927811,3.32638549805,0.0
1449618043772965287,218,1449618043771387605,odom,4.77580881119,3.5348033905,0.0,5.04447221756,3.39146876335,0.0,5.06620168686,2.52174043655,0.0,4.53636741638,2.50850272179,0.0,4.51463794708,3.378231287,0.0
1449618043897834793,219,1449618043897303414,odom,4.76891517639,3.58933496475,0.0,5.03907871246,3.44884777069,0.0,5.06999826431,2.57939743996,0.0,4.54033327103,2.56056141853,0.0,4.50941371918,3.43001174927,0.0
1449618044154558600,220,1449618044151835646,odom,4.77258062363,3.6384241581,0.0,5.04124403,3.49508976936,0.0,5.0629734993,2.62536120415,0.0,4.53313922882,2.6121237278,0.0,4.51140975952,3.48185229301,0.0
1449618044280767384,221,1449618044280135572,odom,4.77082920074,3.69023060799,0.0,5.03949308395,3.54689598083,0.0,5.06122255325,2.67716741562,0.0,4.53138780594,2.66392993927,0.0,4.50965833664,3.53365850449,0.0
1449618044484743539,222,1449618044482912557,odom,4.76932191849,3.74204421043,0.0,5.0379858017,3.5987098217,0.0,5.059715271,2.72898125648,0.0,4.52988052368,2.71574354172,0.0,4.50815105438,3.58547210693,0.0
1449618044705486983,223,1449618044683318452,odom,4.76788330078,3.79962205887,0.0,5.03654718399,3.65628767014,0.0,5.05827665329,2.78655910492,0.0,4.52844190598,2.77332162857,0.0,4.50671243668,3.64305019379,0.0
1449618044898927090,224,1449618044890531357,odom,4.76682376862,3.84568619728,0.0,5.03548765182,3.70235180855,0.0,5.05721712112,2.83262324333,0.0,4.52738237381,2.81938576698,0.0,4.50565290451,3.6891143322,0.0
1449618045118696222,225,1449618045107141325,odom,4.77118968964,3.89473748207,0.0,5.03832387924,3.74857187271,0.0,5.05086088181,2.87866210938,0.0,4.52091598511,2.87102460861,0.0,4.50837898254,3.74093437195,0.0
1449618045279012108,226,1449618045277259305,odom,4.77052593231,3.9408094883,0.0,5.03766012192,3.79464364052,0.0,5.05019712448,2.9247341156,0.0,4.52025222778,2.91709661484,0.0,4.50771474838,3.78700613976,0.0
1449618045472610020,227,1449618045472195653,odom,4.77519702911,3.98980998993,0.0,5.04077148438,3.84082937241,0.0,5.04411506653,2.97083592415,0.0,4.51411867142,2.96879911423,0.0,4.5107755661,3.83879256248,0.0
1449618045681198686,228,1449618045680754126,odom,4.77480697632,4.03588438034,0.0,5.04038143158,3.88690376282,0.0,5.04372501373,3.01691031456,0.0,4.51372861862,3.01487350464,0.0,4.51038551331,3.8848669529,0.0
1449618045906474095,229,1449618045903129864,odom,4.76918983459,4.09055042267,0.0,5.03632354736,3.94438505173,0.0,5.04886054993,3.07447528839,0.0,4.51891565323,3.06683778763,0.0,4.50637865067,3.93674731255,0.0
1449618046074397235,230,1449618046072990073,odom,4.75798797607,4.13636016846,0.0,5.02815151215,3.99587321281,0.0,5.059071064,3.12642264366,0.0,4.52940607071,3.10758686066,0.0,4.49848651886,3.97703719139,0.0
1449618046335577929,231,1449618046334903996,odom,4.74585151672,4.18192338943,0.0,5.01892375946,4.04717731476,0.0,5.06821155548,3.17857456207,0.0,4.53906297684,3.14854860306,0.0,4.48977470398,4.01715135574,0.0
1449618046490022381,232,1449618046488031483,odom,4.72660255432,4.23538351059,0.0,5.00380897522,4.10936117172,0.0,5.08060598373,3.2427573204,0.0,4.55267477036,3.19597291946,0.0,4.47587776184,4.06257677078,0.0
1449618046695635896,233,1449618046695201921,odom,4.71147727966,4.28597021103,0.0,4.99128484726,4.16583490372,0.0,5.08638000488,3.30104756355,0.0,4.55955553055,3.24311614037,0.0,4.46446037292,4.10790348053,0.0
1449618046907028343,234,1449618046902361475,odom,4.69579410553,4.33048820496,0.0,4.97807884216,4.21629333496,0.0,5.09142923355,3.35370898247,0.0,4.56594705582,3.28465628624,0.0,4.45259618759,4.14724063873,0.0
1449618047157896645,235,1449618047154256124,odom,4.67432880402,4.37098360062,0.0,4.96009111404,4.26579427719,0.0,5.10072755814,3.40723657608,0.0,4.57769823074,3.32156133652,0.0,4.43706178665,4.18011903763,0.0
1449618047322687581,236,1449618047319880222,odom,4.66216421127,4.41273450851,0.0,4.94902229309,4.31057071686,0.0,5.09872436523,3.45354747772,0.0,4.57662963867,3.36234974861,0.0,4.42692756653,4.21937322617,0.0
1449618047554443512,237,1449618047554175534,odom,4.64011716843,4.44663524628,0.0,4.93006944656,4.3536157608,0.0,5.10686302185,3.50176858902,0.0,4.58792114258,3.39406681061,0.0,4.41112804413,4.24591445923,0.0
1449618047710836367,238,1449618047698988723,odom,4.62739944458,4.48220300674,0.0,4.91831874847,4.39225292206,0.0,5.10410404205,3.54232120514,0.0,4.58632993698,3.42914152145,0.0,4.40054416656,4.27907323837,0.0
1449618047893838807,239,1449618047890439953,odom,4.60962772369,4.51357746124,0.0,4.90238285065,4.42979574203,0.0,5.10609006882,3.5839805603,0.0,4.59082317352,3.45988321304,0.0,4.38711595535,4.30569839478,0.0
1449618048070804519,240,1449618048070346120,odom,4.59701919556,4.54309511185,0.0,4.89064359665,4.46241235733,0.0,5.10327768326,3.61879682541,0.0,4.58935117722,3.48926115036,0.0,4.37671709061,4.33287668228,0.0
1449618048272109793,241,1449618048271696257,odom,4.58541917801,4.56686973572,0.0,4.87987947464,4.48929405212,0.0,5.10141706467,3.64797282219,0.0,4.58888816833,3.51301336288,0.0,4.36735057831,4.3543343544,0.0
1449618048535158434,242,1449618048534815103,odom,4.56950521469,4.58639001846,0.0,4.86553955078,4.5150551796,0.0,5.10480833054,3.67860412598,0.0,4.595246315,3.53284263611,0.0,4.35597753525,4.36929368973,0.0
1449618048675897230,243,1449618048675425275,odom,4.56316947937,4.60854005814,0.0,4.85920381546,4.53720521927,0.0,5.09847259521,3.70075392723,0.0,4.58891010284,3.55499243736,0.0,4.34964132309,4.3914437294,0.0
1449618048887613856,244,1449618048887263775,odom,4.54851818085,4.62220811844,0.0,4.84599399567,4.55714559555,0.0,5.10288715363,3.72593808174,0.0,4.59651947021,3.569439888,0.0,4.33962631226,4.40064716339,0.0
1449618049126232590,245,1449618049121893646,odom,4.54344511032,4.63872528076,0.0,4.84092092514,4.57366275787,0.0,5.09781455994,3.74245524406,0.0,4.59144639969,3.58595705032,0.0,4.33455324173,4.41716432571,0.0
1449618049352482823,246,1449618049346163901,odom,4.53828525543,4.65521526337,0.0,4.83576107025,4.59015274048,0.0,5.09265422821,3.75894522667,0.0,4.5862865448,3.60244703293,0.0,4.32939338684,4.43365430832,0.0
1449618049493693027,247,1449618049493282131,odom,4.52904987335,4.66740274429,0.0,4.82719659805,4.60548782349,0.0,5.09285974503,3.77704167366,0.0,4.58817386627,3.61520075798,0.0,4.3225107193,4.44364690781,0.0
1449618049689466929,248,1449618049681040337,odom,4.5179271698,4.6849770546,0.0,4.81671190262,4.62621593475,0.0,5.09111499786,3.80062365532,0.0,4.58816766739,3.63345837593,0.0,4.31376457214,4.45905065536,0.0
1449618049859709315,249,1449618049859069873,odom,4.50486087799,4.70791769028,0.0,4.80424976349,4.65231752396,0.0,5.08736228943,3.82967090607,0.0,4.58620977402,3.65720009804,0.0,4.30309724808,4.47984647751,0.0
1449618050089293722,250,1449618050088909420,odom,4.48962116241,4.73614454269,0.0,4.78958082199,4.68371152878,0.0,5.08137083054,3.86410284042,0.0,4.58206939697,3.68634557724,0.0,4.29027891159,4.50595426559,0.0
1449618050313622529,251,1449618050312043805,odom,4.46603536606,4.770424366,0.0,4.76703596115,4.72434234619,0.0,5.07608318329,3.91108369827,0.0,4.58064985275,3.72281360626,0.0,4.27160263062,4.53607225418,0.0
1449618050506520096,252,1449618050504641523,odom,4.44558906555,4.80883455276,0.0,4.74706029892,4.76593589783,0.0,5.06468439102,3.95598864555,0.0,4.57126808167,3.76249337196,0.0,4.25364398956,4.57244062424,0.0
1449618050677347673,253,1449618050676398163,odom,4.41284894943,4.84831237793,0.0,4.71552801132,4.81499195099,0.0,5.05866718292,4.01551961899,0.0,4.57163238525,3.80648112297,0.0,4.22849369049,4.60595321655,0.0
1449618050927269928,254,1449618050923292070,odom,4.38653373718,4.89653110504,0.0,4.68954801559,4.86641120911,0.0,5.04111671448,4.07061004639,0.0,4.55631828308,3.85643577576,0.0,4.2047495842,4.65223693848,0.0
1449618051139641712,255,1449618051130091607,odom,4.35338497162,4.94472885132,0.0,4.6569685936,4.92101955414,0.0,5.02527761459,4.13282680511,0.0,4.54511404037,3.90845441818,0.0,4.17680501938,4.69664764404,0.0
1449618051263878639,256,1449618051262886030,odom,4.32900285721,4.99690771103,0.0,4.63258647919,4.97319841385,0.0,5.00089550018,4.18500518799,0.0,4.52073192596,3.96063303947,0.0,4.15242290497,4.74882602692,0.0
1449618051506418716,257,1449618051506195273,odom,4.29221248627,5.04952096939,0.0,4.59622907639,5.03223276138,0.0,4.98111391068,4.25199985504,0.0,4.50579977036,4.01752948761,0.0,4.12091493607,4.79776287079,0.0
1449618051672158888,258,1449618051670672692,odom,4.26314258575,5.096159935,0.0,4.56732463837,5.08208560944,0.0,4.96043348312,4.30596351624,0.0,4.48762369156,4.06648349762,0.0,4.0945148468,4.84260559082,0.0
1449618051893555722,259,1449618051889911317,odom,4.23725366592,5.14760875702,0.0,4.54143619537,5.13353443146,0.0,4.93454504013,4.35741233826,0.0,4.46173477173,4.11793231964,0.0,4.06862640381,4.89405441284,0.0
1449618052085925360,260,1449618052082916647,odom,4.20232486725,5.20413064957,0.0,4.50663900375,5.1932721138,0.0,4.90792798996,4.4213476181,0.0,4.43767499924,4.17688417435,0.0,4.03638648987,4.94880867004,0.0
1449618052282384709,261,1449618052282152683,odom,4.17227554321,5.2501449585,0.0,4.47668743134,5.24250268936,0.0,4.88611125946,4.47486209869,0.0,4.41846847534,4.22544288635,0.0,4.00904464722,4.99308347702,0.0
1449618052480407656,262,1449618052480111992,odom,4.14503717422,5.30089235306,0.0,4.44944906235,5.29325008392,0.0,4.85887289047,4.52560949326,0.0,4.39122962952,4.27619028091,0.0,3.98180580139,5.04383087158,0.0
1449618052656545823,263,1449618052656364347,odom,4.11439609528,5.34652853012,0.0,4.41887140274,5.34210348129,0.0,4.83638477325,4.57883262634,0.0,4.37140369415,4.32448530197,0.0,3.95389056206,5.08775615692,0.0
1449618052880529879,264,1449618052878999614,odom,4.08627796173,5.38691806793,0.0,4.39078330994,5.38571119308,0.0,4.8163394928,4.62689495087,0.0,4.35407209396,4.36764812469,0.0,3.92851614952,5.12646436691,0.0
1449618053095920164,265,1449618053088951051,odom,4.06092262268,5.43212985992,0.0,4.36542797089,5.43092298508,0.0,4.79098415375,4.67210674286,0.0,4.32871675491,4.41285991669,0.0,3.90316057205,5.17167568207,0.0
1449618053243209399,266,1449618053241658533,odom,4.0297999382,5.48731327057,0.0,4.33430576324,5.48610639572,0.0,4.75986194611,4.7272901535,0.0,4.29759454727,4.46804332733,0.0,3.87203836441,5.22685956955,0.0
1449618053453893305,267,1449618053447986044,odom,3.99849247932,5.53245735168,0.0,4.30299377441,5.53446817398,0.0,4.73654508591,4.78019189835,0.0,4.27704334259,4.5160741806,0.0,3.8434920311,5.27035045624,0.0
1449618053647359355,268,1449618053646474920,odom,3.97274017334,5.5774435997,0.0,4.27724123001,5.579454422,0.0,4.7107925415,4.82517814636,0.0,4.25129079819,4.56106042862,0.0,3.81773948669,5.31533718109,0.0
1449618053848473935,269,1449618053847227201,odom,3.93798184395,5.62718629837,0.0,4.24244451523,5.63241481781,0.0,4.6839427948,4.8827624321,0.0,4.22725820541,4.61380338669,0.0,3.78575968742,5.36345624924,0.0
1449618054036297346,270,1449618054036063270,odom,3.91786432266,5.67212057114,0.0,4.22236537933,5.67413139343,0.0,4.65591669083,4.9198551178,0.0,4.19641494751,4.65573740005,0.0,3.76286363602,5.41001415253,0.0
1449618054276026762,271,1449618054274772074,odom,3.8890042305,5.7119679451,0.0,4.1934671402,5.71719694138,0.0,4.63496541977,4.96754407883,0.0,4.17828035355,4.69858551025,0.0,3.73678207397,5.44823789597,0.0
1449618054500433588,272,1449618054496184639,odom,3.86580610275,5.76177358627,0.0,4.17030715942,5.76378440857,0.0,4.60385847092,5.00950813293,0.0,4.1443567276,4.74539041519,0.0,3.71080541611,5.49966669083,0.0
1449618054669873176,273,1449618054669578459,odom,3.83684062958,5.80155944824,0.0,4.14130353928,5.80678844452,0.0,4.58280181885,5.05713605881,0.0,4.12611675262,4.7881770134,0.0,3.68461871147,5.53782987595,0.0
1449618054854746190,274,1449618054854391732,odom,3.81680250168,5.84653902054,0.0,4.12130355835,5.84855031967,0.0,4.55485534668,5.0942735672,0.0,4.09535360336,4.83015632629,0.0,3.66180205345,5.58443260193,0.0
1449618055094295595,275,1449618055063843611,odom,3.79384088516,5.88648700714,0.0,4.09834194183,5.88849782944,0.0,4.53189373016,5.1342215538,0.0,4.07239198685,4.87010383606,0.0,3.63884043694,5.62438058853,0.0
1449618055286497257,276,1449618055280616450,odom,3.77669906616,5.916492939,0.0,4.08120012283,5.91850376129,0.0,4.51475191116,5.16422748566,0.0,4.05525016785,4.90010976791,0.0,3.62169861794,5.65438652039,0.0
1449618055495395330,277,1449618055492427952,odom,3.75958371162,5.9465136528,0.0,4.06408500671,5.94852495193,0.0,4.49763631821,5.19424819946,0.0,4.03813457489,4.93013095856,0.0,3.6045832634,5.68440723419,0.0
1449618055661384644,278,1449618055659899194,odom,3.75123786926,5.97157907486,0.0,4.05574321747,5.97037220001,0.0,4.48129940033,5.21155595779,0.0,4.0190320015,4.95230913162,0.0,3.59347605705,5.71112537384,0.0
1449618055887591372,279,1449618055885191341,odom,3.73691320419,5.98662662506,0.0,4.04141426086,5.98863792419,0.0,4.47496604919,5.23436164856,0.0,4.01546430588,4.97024393082,0.0,3.58191275597,5.72452020645,0.0
1449618056099774837,280,1449618056099504015,odom,3.7342813015,6.00169038773,0.0,4.03878688812,6.00048351288,0.0,4.46434307098,5.24166727066,0.0,4.00207567215,4.98242044449,0.0,3.57651948929,5.74123668671,0.0
