%time,field.header.seq,field.header.stamp,field.header.frame_id,field.pose.position.x,field.pose.position.y,field.pose.position.z,field.pose.orientation.x,field.pose.orientation.y,field.pose.orientation.z,field.pose.orientation.w
1449618002566482707,0,1449618002480636568,/odom,nan,nan,0.0,nan,nan,nan,nan
1449618002631731999,1,1449618002536432728,/odom,0.0,0.0,0.0,0.0,0.0,0.0,1.0
1449618002710088512,2,1449618002659946389,/odom,0.0,0.0,0.0,0.0,0.0,0.0,1.0
1449618002755535400,3,1449618002719179134,/odom,0.0,0.0,0.0,0.0,0.0,0.0,1.0
1449618002905334951,4,1449618002821800025,/odom,0.0,0.0,0.0,0.0,0.0,0.0,1.0
1449618002958723296,5,1449618002922673516,/odom,0.0,0.0,0.0,0.0,0.0,0.0,1.0
1449618003070490106,6,1449618003021487083,/odom,0.0,0.0,0.0,0.0,0.0,0.0,1.0
1449618003148959657,7,1449618003121720730,/odom,0.0,0.0,0.0,0.0,0.0,0.0,1.0
1449618003264575708,8,1449618003221352698,/odom,0.0,0.0,0.0,0.0,0.0,0.0,1.0
1449618003385333056,9,1449618003353245198,/odom,0.0,0.0,0.0,0.0,0.0,0.0,1.0
1449618003469552308,10,1449618003427387559,/odom,0.0,0.0,0.0,0.0,0.0,0.0,1.0
1449618003549034109,11,1449618003523386792,/odom,0.0,0.0,0.0,0.0,0.0,0.0,1.0
1449618003668393742,12,1449618003630712315,/odom,0.0,0.0,0.0,0.0,0.0,0.0,1.0
1449618003792294370,13,1449618003756845197,/odom,0.0,0.0,0.0,0.0,0.0,0.0,1.0
1449618003868872617,14,1449618003818989901,/odom,0.0,0.0,0.0,0.0,0.0,0.0,1.0
1449618003946389390,15,1449618003931635468,/odom,0.0,0.0,0.0,0.0,0.0,0.0,1.0
1449618004065076657,16,1449618004046908689,/odom,0.0,0.0,0.0,0.0,0.0,0.0,1.0
1449618004194714367,17,1449618004138228175,/odom,0.0,0.0,0.0,0.0,0.0,0.0,1.0
1449618004268309599,18,1449618004220368117,/odom,0.0,0.0,0.0,0.0,0.0,0.0,1.0
1449618004346102257,19,1449618004320901905,/odom,0.0,0.0,0.0,0.0,0.0,0.0,1.0
1449618004466202947,20,1449618004424050273,/odom,0.0,0.0,0.0,0.0,0.0,0.0,1.0
1449618004544608626,21,1449618004520394289,/odom,0.0,0.0,0.0,0.0,0.0,0.0,1.0
1449618004669849066,22,1449618004621438499,/odom,0.0,0.0,0.0,0.0,0.0,0.0,1.0
1449618004757132569,23,1449618004718903176,/odom,0.0,0.0,0.0,0.0,0.0,0.0,1.0
1449618004866715825,24,1449618004819712889,/odom,0.0,0.0,0.0,0.0,0.0,0.0,1.0
1449618004988785951,25,1449618004921807474,/odom,0.0,0.0,0.0,0.0,0.0,0.0,1.0
1449618005070746655,26,1449618005021422629,/odom,0.0,0.0,0.0,0.0,0.0,0.0,1.0
1449618005154240054,27,1449618005118533546,/odom,0.0,0.0,0.0,0.0,0.0,0.0,1.0
1449618005264746386,28,1449618005223926927,/odom,0.0,0.0,0.0,0.0,0.0,0.0,1.0
1449618005347947115,29,1449618005319042482,/odom,0.0,0.0,0.0,0.0,0.0,0.0,1.0
1449618005466884705,30,1449618005418475585,/odom,0.0,0.0,0.0,0.0,0.0,0.0,1.0
1449618005551335173,31,1449618005522921038,/odom,0.0,0.0,0.0,0.0,0.0,0.0,1.0
1449618005666864300,32,1449618005623034780,/odom,0.0,0.0,0.0,0.0,0.0,0.0,1.0
1449618005751128982,33,1449618005720912156,/odom,0.0,0.0,0.0,0.0,0.0,0.0,1.0
1449618005871627569,34,1449618005841355256,/odom,0.242878199724,0.0,0.0,0.0,0.0,0.0,1.0
1449618006023919517,35,1449618005920066532,/odom,0.460412604582,0.0,0.0,0.0,0.0,0.0,1.0
1449618007135324579,36,1449618007094631263,/odom,0.797626244655,0.355959040702,0.0,0.0,0.0,0.392903210257,0.919579831972
1449618007180645602,37,1449618007125031537,/odom,0.642883827254,0.22869665245,0.0,0.0,0.0,0.317890545115,0.948127418297
1449618013795602844,38,1449618013730229280,/odom,3.2359616782,0.0868322456521,0.0,0.0,0.0,0.180557428231,0.983564443802
1449618015149699404,39,1449618015118260653,/odom,2.53025951453,0.0107907824572,0.0,0.0,0.0,0.117654834861,0.993054550281
1449618015888494039,40,1449618015780359984,/odom,3.61712423372,-0.651739930483,0.0,0.0,0.0,-0.170498925422,0.985357862114
1449618016272633387,41,1449618016244593891,/odom,3.75888744302,-0.47263933429,0.0,0.0,0.0,-0.119675267784,0.992813089298
1449618016523590079,42,1449618016473101292,/odom,3.73815980686,-0.197256469646,0.0,0.0,0.0,-0.0528767987948,0.998601043535
1449618017311253025,43,1449618017257405358,/odom,2.82962204052,0.0622630862022,0.0,0.0,0.0,0.0233325992001,0.999727757849
1449618018191575580,44,1449618018078954715,/odom,3.56009475113,-0.0155994246557,0.0,0.0,0.0,-0.100956338679,0.99489085717
1449618019372963098,45,1449618019294041410,/odom,3.27377382476,0.0435875907085,0.0,0.0,0.0,-0.11451779602,0.993421196872
1449618024958295500,46,1449618024867865108,/odom,3.54486545286,0.275133298567,0.0,0.0,0.0,0.382953586131,0.923767584877
1449618029218160581,47,1449618029144596834,/odom,3.40231551172,0.143207342139,0.0,0.0,0.0,0.380581532723,0.924747369258
1449618030407690933,48,1449618030368656193,/odom,3.68820937584,0.448535780905,0.0,0.0,0.0,0.565550114447,0.824713931039
1449618045503389885,49,1449618045456465354,/odom,4.5869047873,4.13528987369,0.0,0.0,0.0,0.863429016832,0.504470348873
1449618048881745557,50,1449618048809512682,/odom,4.13265420991,5.8926247928,0.0,0.0,0.0,0.814497597296,0.580166927702
1449618050546549665,51,1449618050491061445,/odom,4.29670450653,5.10876140666,0.0,0.0,0.0,0.84225745154,0.539075491304
1449618050770835904,52,1449618050719721656,/odom,3.8351545001,6.16536922321,0.0,0.0,0.0,0.840731787135,0.541451809583
1449618050984398644,53,1449618050950555445,/odom,4.24120498725,5.179601131,0.0,0.0,0.0,0.845043895734,0.534696936855
1449618053907497284,54,1449618053865787713,/odom,3.73022494939,6.01338785026,0.0,0.0,0.0,0.859455129633,0.51121118938
1449618054754107540,55,1449618054699118138,/odom,4.0618520715,5.99435906423,0.0,0.0,0.0,0.540191728633,0.841541975374
1449618056213660861,56,1449618056189907554,/odom,3.85515061882,6.16341583973,0.0,0.0,0.0,0.673255630762,0.739409802239
1449618057127821479,57,1449618057029797406,/odom,3.57021438081,6.47377654379,0.0,0.0,0.0,0.816812330545,0.576903472576
1449618057213614443,58,1449618057178677401,/odom,3.62390628859,6.30872683138,0.0,0.0,0.0,0.831376772006,0.555709153216
1449618057821888022,59,1449618057773641864,/odom,3.82126940632,5.86322050263,0.0,0.0,0.0,0.852143269136,0.523308559901
1449618057915101871,60,1449618057864995762,/odom,3.83527889445,5.83531530956,0.0,0.0,0.0,0.853047148371,0.521833845832
1449618057984314543,61,1449618057966714593,/odom,3.84907997116,5.80826075523,0.0,0.0,0.0,0.853825757406,0.52055890732
1449618058100723068,62,1449618058065294708,/odom,3.8558320557,5.79582780011,0.0,0.0,0.0,0.851489534332,0.524371598128
1449618058219287585,63,1449618058165998220,/odom,3.85434437278,5.79852840089,0.0,0.0,0.0,0.851647274289,0.524115369167
1449618058301091572,64,1449618058264593365,/odom,3.85434253684,5.79844799364,0.0,0.0,0.0,0.851756230421,0.523938282566
1449618058387393232,65,1449618058366299208,/odom,3.85451009568,5.79803851094,0.0,0.0,0.0,0.851872062596,0.523749929803
1449618058504187778,66,1449618058477672319,/odom,3.85340111417,5.80015726972,0.0,0.0,0.0,0.851934967491,0.523647602082
1449618058621732977,67,1449618058565810500,/odom,3.85395611283,5.79906078146,0.0,0.0,0.0,0.851957916375,0.523610264152
1449618058698653258,68,1449618058671945068,/odom,3.85435185222,5.79827909413,0.0,0.0,0.0,0.851974276332,0.523583644196
1449618058818456246,69,1449618058765521280,/odom,3.85476606797,5.79746105285,0.0,0.0,0.0,0.851991396855,0.523555784692
1449618058903957277,70,1449618058879888016,/odom,3.85491593742,5.79716510897,0.0,0.0,0.0,0.851997590498,0.523545705537
1449618059022614671,71,1449618058968226593,/odom,3.85507362651,5.79685374426,0.0,0.0,0.0,0.852004106833,0.523535100963
1449618059103695815,72,1449618059066140294,/odom,3.85513185027,5.79673878394,0.0,0.0,0.0,0.852006512746,0.523531185545
1449618059218103323,73,1449618059171649311,/odom,3.8551923614,5.79661931035,0.0,0.0,0.0,0.852009013108,0.523527116377
1449618059300811747,74,1449618059264811873,/odom,3.85521469902,5.79657520757,0.0,0.0,0.0,0.852009936097,0.523525614266
1449618059418260203,75,1449618059365265792,/odom,3.86274336397,5.78171113047,0.0,0.0,0.0,0.852010898865,0.523524047408
1449618059507753301,76,1449618059465519679,/odom,3.95199238766,5.60441304002,0.0,0.0,0.0,0.850908918349,0.525313251951
1449618059627065411,77,1449618059567361903,/odom,4.05897051054,5.38957898481,0.0,0.0,0.0,0.849756288682,0.527175729568
1449618066749470146,78,1449618066680080874,/odom,4.63172951119,4.10252940082,0.0,0.0,0.0,0.956832512856,0.290639884294
1449618066911155350,79,1449618066883608324,/odom,4.76342440508,3.71213091025,0.0,0.0,0.0,0.867731479054,0.497033278824
1449618070511352061,80,1449618070467070501,/odom,5.57132077648,3.85812583785,0.0,0.0,0.0,-0.975739734499,0.218933712616
1449618072023565291,81,1449618071967090118,/odom,5.49717426161,3.83162561578,0.0,0.0,0.0,-0.910178752969,0.414215689761
1449618072106105783,82,1449618072068821652,/odom,5.17577913924,3.66468607862,0.0,0.0,0.0,-0.946173273186,0.323660527571
1449618075525986751,83,1449618075468763438,/odom,4.58524477236,1.96975974907,0.0,0.0,0.0,-0.596444741465,0.802654141196
1449618075584944883,84,1449618075534465107,/odom,4.5558520247,2.65100065992,0.0,0.0,0.0,-0.761982636222,0.647597453745
1449618075623794053,85,1449618075577199800,/odom,4.7729639427,3.10489396752,0.0,0.0,0.0,-0.825086870122,0.5650058909
1449618077246243267,86,1449618077168499962,/odom,4.44532980087,1.71845104103,0.0,0.0,0.0,-0.668797151841,0.743444933865
1449618077724022202,87,1449618077671854103,/odom,4.00825929823,1.63905722319,0.0,0.0,0.0,-0.817191900274,0.576365680907
1449618079401154694,88,1449618079363267479,/odom,3.57649224049,1.33829811206,0.0,0.0,0.0,-0.894626065726,0.446815624753
1449618079592929222,89,1449618079532449881,/odom,3.83749712085,1.32360938255,0.0,0.0,0.0,-0.830434633135,0.557116074162
1449618079734618669,90,1449618079666302099,/odom,4.25717056728,1.48545749223,0.0,0.0,0.0,-0.70140526405,0.71276269232
1449618080227709463,91,1449618080170812024,/odom,4.44400211859,2.12754077692,0.0,0.0,0.0,-0.636966487613,0.770891492791
1449618080685738890,92,1449618080640221871,/odom,4.7527412989,1.79173279582,0.0,0.0,0.0,-0.259670999071,0.965697143126
1449618081037179907,93,1449618080970736698,/odom,4.30553666808,1.84397164352,0.0,0.0,0.0,-0.671444339858,0.741054990181
1449618081235111916,94,1449618081198164744,/odom,4.35329024734,1.44468904343,0.0,0.0,0.0,-0.58682906636,0.80971084152
1449618083512189991,95,1449618083449552783,/odom,2.69555243346,0.750988283091,0.0,0.0,0.0,0.999500192264,0.0316127452921
1449618083552448212,96,1449618083490974679,/odom,3.89231574665,1.1253427674,0.0,0.0,0.0,-0.899612556739,0.436688959968
1449618085586860156,97,1449618085559419899,/odom,3.55713285104,0.860331517317,0.0,0.0,0.0,-0.990638914986,0.136508388444
1449618085707597538,98,1449618085652903586,/odom,3.69506192061,0.553842259202,0.0,0.0,0.0,-0.858976294351,0.512015356941
1449618087899684284,99,1449618087827528997,/odom,2.10367399175,-0.506988967879,0.0,0.0,0.0,-0.955925566602,0.293609112795
1449618088448589936,100,1449618088388942597,/odom,1.82704640232,-0.245605979659,0.0,0.0,0.0,-0.993349547648,0.115137640184
1449618089412582282,101,1449618089332938495,/odom,2.69925196248,0.147831786726,0.0,0.0,0.0,-0.988141839072,0.153543823959
1449618089702301646,102,1449618089669407506,/odom,1.62946731143,0.696113672122,0.0,0.0,0.0,0.922322560503,0.386420877266
1449618091391159362,103,1449618091337991527,/odom,1.49902070561,0.237098205556,0.0,0.0,0.0,0.992299254648,0.123863591202
1449618091519432266,104,1449618091478148094,/odom,2.47543878645,0.0769671629741,0.0,0.0,0.0,-0.974712872778,0.223460993557
1449618092017690236,105,1449618091921585149,/odom,3.07168604938,-0.656375277457,0.0,0.0,0.0,-0.201197822515,0.979550629736
1449618092563841541,106,1449618092514956279,/odom,2.4319150481,-0.937354112529,0.0,0.0,0.0,-0.473747639601,0.880660646317
1449618092803563137,107,1449618092724279759,/odom,2.15788793138,-0.982162953714,0.0,0.0,0.0,-0.586024556639,0.810293291973
1449618093124542634,108,1449618093016349574,/odom,1.95529514562,-0.997704897983,0.0,0.0,0.0,-0.6534516803,0.756968230188
1449618094468059371,109,1449618094441811361,/odom,1.71445764369,-1.0195406566,0.0,0.0,0.0,-0.664513266364,0.747276467464
1449618096361005604,110,1449618096277692839,/odom,0.455902937117,-0.552057359397,0.0,0.0,0.0,-0.967416446982,0.253190477918
1449618096707985620,111,1449618096587034263,/odom,0.318277425409,-0.141951858942,0.0,0.0,0.0,-0.998584673688,0.0531850493573
1449618097365721914,112,1449618097281457621,/odom,1.57290782486,0.0456479925369,0.0,0.0,0.0,-0.998372507524,0.0570292575728
1449618104040685585,113,1449618103989518926,/odom,1.6820358187,0.156216655194,0.0,0.0,0.0,0.935126376645,0.354314351533
1449618104447831237,114,1449618104322518530,/odom,1.86946680042,0.148278468006,0.0,0.0,0.0,0.442707181266,0.896666243178
1449618105244030880,115,1449618105207018166,/odom,1.76994668349,0.118370745092,0.0,0.0,0.0,0.91196465174,0.410268782601
1449618105295209831,116,1449618105257285113,/odom,1.55802084056,0.188857440747,0.0,0.0,0.0,0.931329822734,0.364176826948
1449618108006980597,117,1449618107939164284,/odom,-0.0746178780936,-0.602807460329,0.0,0.0,0.0,-0.796448536639,0.604706315898
1449618108041805130,118,1449618107988378370,/odom,0.762791378968,0.283399524539,0.0,0.0,0.0,-0.996377061493,0.0850455838412
1449618108257082704,119,1449618108190159317,/odom,0.228373326996,-0.727541781064,0.0,0.0,0.0,-0.66311422879,0.748518215929
1449618108338268819,120,1449618108285792505,/odom,0.73695616615,0.271485234734,0.0,0.0,0.0,-0.987282742492,0.158974168903
1449618110102346381,121,1449618110039104563,/odom,-0.343270646104,1.84615324435,0.0,0.0,0.0,0.807910740678,0.58930487449
1449618111131296975,122,1449618111079778101,/odom,-0.690938834244,1.95071161033,0.0,0.0,0.0,0.811175068317,0.584803393065
1449618111245864052,123,1449618111215254321,/odom,-0.90529358384,1.79111249834,0.0,0.0,0.0,0.881736124,0.471742946565
1449618111445760578,124,1449618111389851089,/odom,-1.13744278809,0.956509510552,0.0,0.0,0.0,0.998862087639,0.0476920315826
1449618111633787268,125,1449618111553916304,/odom,-1.05633620443,0.754022320911,0.0,0.0,0.0,-0.996988704201,0.077546912872
1449618111728426364,126,1449618111700046227,/odom,0.247198309804,0.568084338861,0.0,0.0,0.0,-0.977749471953,0.20977599981
1449618115251372195,127,1449618115190905149,/odom,-1.50811664227,-0.105553613646,0.0,0.0,0.0,-0.963201039434,0.268781989042
1449618116311839715,128,1449618116264891004,/odom,-1.43087981166,-0.347874028175,0.0,0.0,0.0,-0.936387318389,0.35096836034
1449618116394236421,129,1449618116319631820,/odom,0.0780964197314,0.468291302475,0.0,0.0,0.0,-0.875599882392,0.483037106189
1449618117590538932,130,1449618117509193497,/odom,0.0154278955036,0.49529129587,0.0,0.0,0.0,-0.19659712751,0.980484354518
1449618120772735416,131,1449618120734493268,/odom,0.0634990480717,0.293217194798,0.0,0.0,0.0,-0.426280266376,0.904591142173
1449618121025661404,132,1449618120938158140,/odom,-0.791867950526,-1.40291155898,0.0,0.0,0.0,-0.833664812195,0.55227074964
1449618122710067070,133,1449618122626506045,/odom,-0.546604135104,-0.775210155094,0.0,0.0,0.0,-0.860258341522,0.509858397833
1449618123076277284,134,1449618122990313876,/odom,-0.0653333639012,-0.54652378391,0.0,0.0,0.0,-0.654668288466,0.755916286422
1449618123341481549,135,1449618123275019016,/odom,0.060242823773,-0.296471515246,0.0,0.0,0.0,-0.535816949437,0.844334173592
1449618123542305924,136,1449618123482562192,/odom,-0.0228412083987,0.322055236791,0.0,0.0,0.0,-0.541159702905,0.840919839195
1449618123729928050,137,1449618123684630870,/odom,-0.339411094731,0.697154401648,0.0,0.0,0.0,0.00295213972935,0.999995642426
1449618124054532789,138,1449618124007924125,/odom,-0.623375508744,0.839612401812,0.0,0.0,0.0,0.134797761529,0.990873131883
1449618124453119200,139,1449618124415335377,/odom,-0.563516126795,0.703036046718,0.0,0.0,0.0,0.215277009718,0.976553024207
1449618124587954879,140,1449618124520468143,/odom,0.0462059202186,0.216941150653,0.0,0.0,0.0,-0.401557101287,0.915833988453
1449618124826101519,141,1449618124758973769,/odom,1.48501327071,-0.611010437863,0.0,0.0,0.0,0.154057139002,0.988061940327
1449618126374869072,142,1449618126307093940,/odom,1.7443603668,0.307911597579,0.0,0.0,0.0,0.42890231201,0.903350876876
1449618126484721552,143,1449618126448344488,/odom,1.30325422348,0.443191629306,0.0,0.0,0.0,0.501068499136,0.86540762602
1449618126527560804,144,1449618126476576303,/odom,-0.131618364519,0.376204836164,0.0,0.0,0.0,-0.00222352024281,0.999997527976
1449618126626549769,145,1449618126565029375,/odom,-0.392060880101,0.43656898046,0.0,0.0,0.0,0.074893715599,0.997191521907
1449618126972563285,146,1449618126933980211,/odom,-0.820604856463,-0.112682665869,0.0,0.0,0.0,0.710927384464,0.703265422169
1449618127007771179,147,1449618126949015994,/odom,-0.349388303245,0.339498276443,0.0,0.0,0.0,0.108011865562,0.994149604887
1449618127186495697,148,1449618127137939558,/odom,-1.10300259592,-0.365630942657,0.0,0.0,0.0,0.699450313371,0.714681229028
1449618128489000319,149,1449618128465078285,/odom,-0.349092824676,0.271784645008,0.0,0.0,0.0,0.0975180897119,0.995233752532
1449618128571456831,150,1449618128534630768,/odom,0.111418663381,0.25854215231,0.0,0.0,0.0,-0.0978378689566,0.995202367058
1449618128720316951,151,1449618128674957370,/odom,0.13429780163,0.255330860096,0.0,0.0,0.0,-0.0925778540379,0.995705448886
1449618128758740727,152,1449618128732751271,/odom,0.161505571201,0.253744694203,0.0,0.0,0.0,-0.0820502165802,0.99662819645
1449618128883083484,153,1449618128829988440,/odom,0.388578144495,0.206889342496,0.0,0.0,0.0,-0.102656291916,0.994716887225
1449618129494298894,154,1449618129429813878,/odom,0.136735908298,0.255704721656,0.0,0.0,0.0,-0.0950991248856,0.99546780784
1449618129606229686,155,1449618129548733634,/odom,0.0960745933052,0.262407100852,0.0,0.0,0.0,-0.0964222295999,0.995340521449
1449618129685402016,156,1449618129631658930,/odom,0.0716556019593,0.267217632567,0.0,0.0,0.0,-0.0936854029414,0.99560185078
1449618129757265436,157,1449618129741819575,/odom,0.0430954694496,0.272159483102,0.0,0.0,0.0,-0.096100226792,0.995371662451
1449618129881841883,158,1449618129830188663,/odom,0.0256104932299,0.275547543583,0.0,0.0,0.0,-0.0945097957091,0.995523931664
1449618129967168822,159,1449618129928799267,/odom,0.0191966719923,0.276774504407,0.0,0.0,0.0,-0.0939266021988,0.99557912463
1449618130083518390,160,1449618130033637525,/odom,0.0153523988553,0.277390868322,0.0,0.0,0.0,-0.0985814889479,0.995128981608
1449618130204657945,161,1449618130131976599,/odom,0.0128919971917,0.277882893597,0.0,0.0,0.0,-0.098357496943,0.995151145704
1449618130282249172,162,1449618130249244780,/odom,0.0111885643708,0.278222805958,0.0,0.0,0.0,-0.0982024284204,0.995166459972
1449618130539286014,163,1449618130498827818,/odom,0.0132038701512,0.277820793765,0.0,0.0,0.0,-0.0983858850848,0.995148339503
1449618130609672846,164,1449618130558016919,/odom,0.0101219993333,0.278435351002,0.0,0.0,0.0,-0.0981053395844,0.995176035857
1449618130637211256,165,1449618130566926562,/odom,0.00829454819018,0.278798913474,0.0,0.0,0.0,-0.0979389961943,0.9951924201
1449618130677932067,166,1449618130629384043,/odom,0.00755249451449,0.278946353127,0.0,0.0,0.0,-0.0978714533976,0.995199064816
1449618130762496749,167,1449618130729793563,/odom,0.00730736357932,0.278995033428,0.0,0.0,0.0,-0.0978491415635,0.995201258789
1449618130880593616,168,1449618130829688107,/odom,0.00725095523191,0.27900623374,0.0,0.0,0.0,-0.0978440072957,0.995201763582
1449618130960014481,169,1449618130929856702,/odom,0.00723066064945,0.279010263224,0.0,0.0,0.0,-0.0978421600922,0.995201945189
1449618131080945723,170,1449618131031613391,/odom,0.00720960405699,0.279014443915,0.0,0.0,0.0,-0.097840243532,0.995202133612
1449618131159620051,171,1449618131130637714,/odom,0.00720171663791,0.279016009902,0.0,0.0,0.0,-0.0978395256235,0.995202204191
1449618131275769057,172,1449618131229670144,/odom,0.00719358180648,0.279017624998,0.0,0.0,0.0,-0.0978387851959,0.995202276983
1449618131403393923,173,1449618131354107046,/odom,0.00719053194881,0.279018230516,0.0,0.0,0.0,-0.0978385075997,0.995202304273
1449618131477252647,174,1449618131450647726,/odom,0.00718842232468,0.279018649359,0.0,0.0,0.0,-0.097838315583,0.99520232315
1449618131562350295,175,1449618131534041269,/odom,0.00718621592754,0.279019087414,0.0,0.0,0.0,-0.097838114758,0.995202342893
1449618131681461936,176,1449618131631338942,/odom,0.00718501462343,0.279019325919,0.0,0.0,0.0,-0.0978380054161,0.995202353643
1449618131760830117,177,1449618131729081722,/odom,0.00718455701753,0.279019416771,0.0,0.0,0.0,-0.0978379637651,0.995202357738
1449618131878676700,178,1449618131833115864,/odom,0.00718409027999,0.279019509436,0.0,0.0,0.0,-0.0978379212829,0.995202361914
1449618131960492740,179,1449618131931784607,/odom,0.00718391726351,0.279019543786,0.0,0.0,0.0,-0.0978379055351,0.995202363462
1449618132075452710,180,1449618132032195482,/odom,0.00718373712427,0.279019579551,0.0,0.0,0.0,-0.0978378891389,0.995202365074
1449618132156365429,181,1449618132145301773,/odom,0.00718366984583,0.279019592908,0.0,0.0,0.0,-0.0978378830153,0.995202365676
1449618132275820206,182,1449618132229072681,/odom,0.00718360056165,0.279019606664,0.0,0.0,0.0,-0.0978378767091,0.995202366296
1449618132364086380,183,1449618132329731521,/odom,0.00718357485549,0.279019611767,0.0,0.0,0.0,-0.0978378743693,0.995202366526
1449618132476992402,184,1449618132456555698,/odom,0.00718354814129,0.279019617071,0.0,0.0,0.0,-0.0978378719378,0.995202366765
1449618132559799287,185,1449618132531322704,/odom,0.00718353831805,0.279019619021,0.0,0.0,0.0,-0.0978378710437,0.995202366853
1449618132684351710,186,1449618132630947693,/odom,0.00718352803284,0.279019621063,0.0,0.0,0.0,-0.0978378701075,0.995202366945
1449618132800847114,187,1449618132779900113,/odom,0.00718352430224,0.279019621804,0.0,0.0,0.0,-0.097837869768,0.995202366978
1449618132876884853,188,1449618132835758982,/odom,0.00435309175254,0.279550542678,0.0,0.0,0.0,-0.0925778545994,0.995705448834
1449618132966303140,189,1449618132930189032,/odom,0.00435308899355,0.279550543195,0.0,0.0,0.0,-0.0925778543486,0.995705448857
1449618133076066502,190,1449618133030389605,/odom,0.00717774851195,0.278989741287,0.0,0.0,0.0,-0.0978378691264,0.995202367041
1449618133166493558,191,1449618133133036531,/odom,0.00717774795224,0.278989741399,0.0,0.0,0.0,-0.0978378690755,0.995202367046
1449618133279190266,192,1449618133232057581,/odom,0.0071777473652,0.278989741515,0.0,0.0,0.0,-0.097837869022,0.995202367052
1449618133356617138,193,1449618133331716611,/odom,0.00717774714883,0.278989741558,0.0,0.0,0.0,-0.0978378690023,0.995202367054
1449618133477163336,194,1449618133444298574,/odom,0.00717774692996,0.278989741602,0.0,0.0,0.0,-0.0978378689824,0.995202367056
1449618133602569903,195,1449618133551448356,/odom,0.00717774684167,0.278989741619,0.0,0.0,0.0,-0.0978378689744,0.995202367056
1449618133678369917,196,1449618133642709216,/odom,0.00717774678282,0.278989741631,0.0,0.0,0.0,-0.097837868969,0.995202367057
1449618133763638151,197,1449618133730463089,/odom,0.00717774672197,0.278989741643,0.0,0.0,0.0,-0.0978378689635,0.995202367057
1449618133882547158,198,1449618133829287335,/odom,0.00717774668782,0.27898974165,0.0,0.0,0.0,-0.0978378689604,0.995202367058
1449618133973462272,199,1449618133928497739,/odom,0.00717774667534,0.278989741652,0.0,0.0,0.0,-0.0978378689592,0.995202367058
1449618134081083622,200,1449618134029768263,/odom,0.00717774666256,0.278989741655,0.0,0.0,0.0,-0.0978378689581,0.995202367058
1449618134164544374,201,1449618134129644340,/odom,0.00717774665779,0.278989741656,0.0,0.0,0.0,-0.0978378689576,0.995202367058
1449618134280090069,202,1449618134229234235,/odom,0.00717774665257,0.278989741657,0.0,0.0,0.0,-0.0978378689572,0.995202367058
1449618134363814753,203,1449618134329544389,/odom,0.00434731683743,0.27952066192,0.0,0.0,0.0,-0.0925778540383,0.995705448886
1449618134481379137,204,1449618134435011473,/odom,0.00434731683548,0.27952066192,0.0,0.0,0.0,-0.0925778540382,0.995705448886
1449618134601269209,205,1449618134533672287,/odom,0.00434731683478,0.27952066192,0.0,0.0,0.0,-0.0925778540381,0.995705448886
1449618134690310493,206,1449618134630644681,/odom,0.00717197790595,0.278959859742,0.0,0.0,0.0,-0.0978378689567,0.995202367058
1449618134763368543,207,1449618134730694649,/odom,0.00717197790543,0.278959859742,0.0,0.0,0.0,-0.0978378689567,0.995202367058
1449618134896058197,208,1449618134829915868,/odom,0.00717197790515,0.278959859742,0.0,0.0,0.0,-0.0978378689566,0.995202367058
1449618134960215826,209,1449618134930610967,/odom,0.00434154809174,0.279490780005,0.0,0.0,0.0,-0.092577854038,0.995705448886
1449618135081447341,210,1449618135031114792,/odom,0.00434154809163,0.279490780005,0.0,0.0,0.0,-0.092577854038,0.995705448886
1449618135160692976,211,1449618135132385714,/odom,0.00716620916325,0.278929977826,0.0,0.0,0.0,-0.0978378689566,0.995202367058
1449618135277928197,212,1449618135233359104,/odom,0.00716620916321,0.278929977826,0.0,0.0,0.0,-0.0978378689566,0.995202367058
1449618135358179330,213,1449618135331949565,/odom,0.00716620916319,0.278929977826,0.0,0.0,0.0,-0.0978378689566,0.995202367058
1449618135485931323,214,1449618135463735524,/odom,0.00716620916318,0.278929977826,0.0,0.0,0.0,-0.0978378689566,0.995202367058
1449618135601049626,215,1449618135558030409,/odom,0.00716620916317,0.278929977826,0.0,0.0,0.0,-0.0978378689566,0.995202367058
1449618135680783471,216,1449618135632531957,/odom,0.00716620916317,0.278929977826,0.0,0.0,0.0,-0.0978378689566,0.995202367058
1449618135760493430,217,1449618135734988872,/odom,0.00716620916316,0.278929977826,0.0,0.0,0.0,-0.0978378689566,0.995202367058
1449618135879058565,218,1449618135831234959,/odom,0.00716620916316,0.278929977826,0.0,0.0,0.0,-0.0978378689566,0.995202367058
1449618135999974825,219,1449618135964758181,/odom,0.00716620916316,0.278929977826,0.0,0.0,0.0,-0.0978378689566,0.995202367058
1449618136120081873,220,1449618136063909843,/odom,0.00716620916316,0.278929977826,0.0,0.0,0.0,-0.0978378689566,0.995202367058
1449618136201312121,221,1449618136160150851,/odom,0.00716620916316,0.278929977826,0.0,0.0,0.0,-0.0978378689566,0.995202367058
1449618136284511262,222,1449618136232812587,/odom,0.00716620916316,0.278929977826,0.0,0.0,0.0,-0.0978378689566,0.995202367058
1449618136360227845,223,1449618136329067677,/odom,0.00716620916316,0.278929977826,0.0,0.0,0.0,-0.0978378689566,0.995202367058
1449618136479258854,224,1449618136433219721,/odom,0.00716620916316,0.278929977826,0.0,0.0,0.0,-0.0978378689566,0.995202367058
1449618136605540605,225,1449618136544250187,/odom,0.00716620916316,0.278929977826,0.0,0.0,0.0,-0.0978378689566,0.995202367058
1449618136678130998,226,1449618136631632506,/odom,0.00716620916316,0.278929977826,0.0,0.0,0.0,-0.0978378689566,0.995202367058
1449618136764516198,227,1449618136730767474,/odom,0.00716620916316,0.278929977826,0.0,0.0,0.0,-0.0978378689566,0.995202367058
1449618136877740320,228,1449618136831219572,/odom,0.00716620916316,0.278929977826,0.0,0.0,0.0,-0.0978378689566,0.995202367058
1449618136999527385,229,1449618136948160133,/odom,0.00716620916316,0.278929977826,0.0,0.0,0.0,-0.0978378689566,0.995202367058
1449618137077958092,230,1449618137032178268,/odom,0.00716620916316,0.278929977826,0.0,0.0,0.0,-0.0978378689566,0.995202367058
1449618137163143819,231,1449618137131962441,/odom,0.00716620916316,0.278929977826,0.0,0.0,0.0,-0.0978378689566,0.995202367058
1449618137278782885,232,1449618137231542925,/odom,0.00716620916316,0.278929977826,0.0,0.0,0.0,-0.0978378689566,0.995202367058
1449618137403968528,233,1449618137340324870,/odom,0.00716620916316,0.278929977826,0.0,0.0,0.0,-0.0978378689566,0.995202367058
1449618137480789794,234,1449618137429496127,/odom,0.00716620916316,0.278929977826,0.0,0.0,0.0,-0.0978378689566,0.995202367058
1449618137560436421,235,1449618137529242980,/odom,0.00716620916316,0.278929977826,0.0,0.0,0.0,-0.0978378689566,0.995202367058
1449618137683326186,236,1449618137634420992,/odom,0.00716620916316,0.278929977826,0.0,0.0,0.0,-0.0978378689566,0.995202367058
1449618137770363685,237,1449618137735222787,/odom,0.00716620916316,0.278929977826,0.0,0.0,0.0,-0.0978378689566,0.995202367058
1449618137885560390,238,1449618137836143991,/odom,0.00716620916316,0.278929977826,0.0,0.0,0.0,-0.0978378689566,0.995202367058
1449618138002097888,239,1449618137940498501,/odom,0.00716620916316,0.278929977826,0.0,0.0,0.0,-0.0978378689566,0.995202367058
1449618138077446184,240,1449618138030330216,/odom,0.00716620916316,0.278929977826,0.0,0.0,0.0,-0.0978378689566,0.995202367058
1449618138159649877,241,1449618138130602101,/odom,0.00716620916316,0.278929977826,0.0,0.0,0.0,-0.0978378689566,0.995202367058
1449618138279941754,242,1449618138231839699,/odom,0.00716620916316,0.278929977826,0.0,0.0,0.0,-0.0978378689566,0.995202367058
1449618138359385922,243,1449618138333654143,/odom,0.00716620916316,0.278929977826,0.0,0.0,0.0,-0.0978378689566,0.995202367058
1449618138484075171,244,1449618138436924912,/odom,0.00716620916316,0.278929977826,0.0,0.0,0.0,-0.0978378689566,0.995202367058
1449618138562876464,245,1449618138529726686,/odom,0.00716620916316,0.278929977826,0.0,0.0,0.0,-0.0978378689566,0.995202367058
1449618138683267913,246,1449618138629069717,/odom,0.00716620916316,0.278929977826,0.0,0.0,0.0,-0.0978378689566,0.995202367058
1449618138763881900,247,1449618138729282817,/odom,0.00716620916316,0.278929977826,0.0,0.0,0.0,-0.0978378689566,0.995202367058
1449618138922101942,248,1449618138858862417,/odom,0.00716620916316,0.278929977826,0.0,0.0,0.0,-0.0978378689566,0.995202367058
1449618139008399632,249,1449618138935759032,/odom,0.00716620916316,0.278929977826,0.0,0.0,0.0,-0.0978378689566,0.995202367058
1449618139080410453,250,1449618139046003957,/odom,0.00716620916316,0.278929977826,0.0,0.0,0.0,-0.0978378689566,0.995202367058
1449618139159654018,251,1449618139129553557,/odom,0.00716620916316,0.278929977826,0.0,0.0,0.0,-0.0978378689566,0.995202367058
1449618139278670892,252,1449618139230503757,/odom,0.00716620916316,0.278929977826,0.0,0.0,0.0,-0.0978378689566,0.995202367058
1449618139360893773,253,1449618139329558989,/odom,0.00716620916316,0.278929977826,0.0,0.0,0.0,-0.0978378689566,0.995202367058
1449618139487735750,254,1449618139430743158,/odom,0.00716620916316,0.278929977826,0.0,0.0,0.0,-0.0978378689566,0.995202367058
1449618139563774470,255,1449618139534434950,/odom,0.00716620916316,0.278929977826,0.0,0.0,0.0,-0.0978378689566,0.995202367058
1449618139679006969,256,1449618139653722929,/odom,0.00716620916316,0.278929977826,0.0,0.0,0.0,-0.0978378689566,0.995202367058
1449618139757904954,257,1449618139731750939,/odom,0.00716620916316,0.278929977826,0.0,0.0,0.0,-0.0978378689566,0.995202367058
1449618139880322690,258,1449618139857526789,/odom,0.00716620916316,0.278929977826,0.0,0.0,0.0,-0.0978378689566,0.995202367058
1449618140000168781,259,1449618139935595518,/odom,0.00716620916316,0.278929977826,0.0,0.0,0.0,-0.0978378689566,0.995202367058
1449618140087254899,260,1449618140029377165,/odom,0.00716620916316,0.278929977826,0.0,0.0,0.0,-0.0978378689566,0.995202367058
1449618140200169825,261,1449618140142438090,/odom,0.00716620916316,0.278929977826,0.0,0.0,0.0,-0.0978378689566,0.995202367058
1449618140317058122,262,1449618140283448704,/odom,0.00716620916316,0.278929977826,0.0,0.0,0.0,-0.0978378689566,0.995202367058
1449618140400706814,263,1449618140334895395,/odom,0.00716620916316,0.278929977826,0.0,0.0,0.0,-0.0978378689566,0.995202367058
1449618140477056851,264,1449618140450569431,/odom,0.00716620916316,0.278929977826,0.0,0.0,0.0,-0.0978378689566,0.995202367058
1449618140563763202,265,1449618140532234836,/odom,0.00716620916316,0.278929977826,0.0,0.0,0.0,-0.0978378689566,0.995202367058
1449618140678958956,266,1449618140628751898,/odom,0.00716620916316,0.278929977826,0.0,0.0,0.0,-0.0978378689566,0.995202367058
1449618140770304173,267,1449618140734081848,/odom,0.00716620916316,0.278929977826,0.0,0.0,0.0,-0.0978378689566,0.995202367058
1449618140920098635,268,1449618140872352444,/odom,0.00716620916316,0.278929977826,0.0,0.0,0.0,-0.0978378689566,0.995202367058
1449618140959105634,269,1449618140937226699,/odom,0.00716620916316,0.278929977826,0.0,0.0,0.0,-0.0978378689566,0.995202367058
1449618141079283936,270,1449618141039399098,/odom,0.00716620916316,0.278929977826,0.0,0.0,0.0,-0.0978378689566,0.995202367058
1449618141158253869,271,1449618141130053065,/odom,0.00716620916316,0.278929977826,0.0,0.0,0.0,-0.0978378689566,0.995202367058
1449618141278450678,272,1449618141246648592,/odom,0.00716620916316,0.278929977826,0.0,0.0,0.0,-0.0978378689566,0.995202367058
1449618141406975553,273,1449618141358517422,/odom,0.00716620916316,0.278929977826,0.0,0.0,0.0,-0.0978378689566,0.995202367058
1449618141489078867,274,1449618141433164352,/odom,0.00716620916316,0.278929977826,0.0,0.0,0.0,-0.0978378689566,0.995202367058
1449618141597256582,275,1449618141559655362,/odom,0.00716620916316,0.278929977826,0.0,0.0,0.0,-0.0978378689566,0.995202367058
1449618141691399842,276,1449618141653576963,/odom,0.00716620916316,0.278929977826,0.0,0.0,0.0,-0.0978378689566,0.995202367058
1449618141762279720,277,1449618141728830924,/odom,0.00716620916316,0.278929977826,0.0,0.0,0.0,-0.0978378689566,0.995202367058
1449618141880049236,278,1449618141836145088,/odom,0.00716620916316,0.278929977826,0.0,0.0,0.0,-0.0978378689566,0.995202367058
1449618142004081759,279,1449618141931844277,/odom,0.00716620916316,0.278929977826,0.0,0.0,0.0,-0.0978378689566,0.995202367058
1449618142077797990,280,1449618142037040248,/odom,0.00716620916316,0.278929977826,0.0,0.0,0.0,-0.0978378689566,0.995202367058
1449618142169807067,281,1449618142137604954,/odom,0.00716620916316,0.278929977826,0.0,0.0,0.0,-0.0978378689566,0.995202367058
1449618142283629687,282,1449618142263484994,/odom,0.00716620916316,0.278929977826,0.0,0.0,0.0,-0.0978378689566,0.995202367058
1449618142403109792,283,1449618142357749510,/odom,0.00716620916316,0.278929977826,0.0,0.0,0.0,-0.0978378689566,0.995202367058
1449618142484281533,284,1449618142437509994,/odom,0.00716620916316,0.278929977826,0.0,0.0,0.0,-0.0978378689566,0.995202367058
1449618142558630665,285,1449618142530262448,/odom,0.00716620916316,0.278929977826,0.0,0.0,0.0,-0.0978378689566,0.995202367058
1449618142681427369,286,1449618142652495324,/odom,0.00716620916316,0.278929977826,0.0,0.0,0.0,-0.0978378689566,0.995202367058
1449618142757429249,287,1449618142731520165,/odom,0.00716620916316,0.278929977826,0.0,0.0,0.0,-0.0978378689566,0.995202367058
1449618142885962186,288,1449618142830158574,/odom,0.023187952376,0.275749055132,0.0,0.0,0.0,-0.0978378689566,0.995202367058
1449618142958024571,289,1449618142930732506,/odom,0.0290914849158,0.274576980385,0.0,0.0,0.0,-0.0978378689566,0.995202367058
1449618143083945203,290,1449618143030952192,/odom,0.035024175228,0.273399116716,0.0,0.0,0.0,-0.0978378689566,0.995202367058
1449618143168935820,291,1449618143129961618,/odom,0.0373773997071,0.272931912552,0.0,0.0,0.0,-0.0978378689566,0.995202367058
1449618143283569279,292,1449618143229745272,/odom,0.0398241561276,0.272446138755,0.0,0.0,0.0,-0.0978378689566,0.995202367058
1449618143366593082,293,1449618143330140380,/odom,0.0407142575793,0.272269419913,0.0,0.0,0.0,-0.0978378689566,0.995202367058
1449618143479760206,294,1449618143434247090,/odom,0.0416317747721,0.272087258009,0.0,0.0,0.0,-0.0978378689566,0.995202367058
1449618143565712354,295,1449618143530803822,/odom,0.04197038493,0.272020031071,0.0,0.0,0.0,-0.0978378689566,0.995202367058
1449618143678992443,296,1449618143629556970,/odom,0.0395681308519,0.272852159997,0.0,0.0,0.0,-0.0925778540379,0.995705448886
1449618143759780836,297,1449618143728830294,/odom,0.0396984132977,0.272827722157,0.0,0.0,0.0,-0.0925778540379,0.995705448886
1449618143882300507,298,1449618143833875222,/odom,0.0425871981157,0.271866543068,0.0,0.0,0.0,-0.0978378689566,0.995202367058
1449618143964934865,299,1449618143930140609,/odom,0.0426372726202,0.271856601383,0.0,0.0,0.0,-0.0978378689566,0.995202367058
1449618144079418143,300,1449618144038119724,/odom,0.0426886891958,0.271846393246,0.0,0.0,0.0,-0.0978378689566,0.995202367058
1449618144161975554,301,1449618144129375263,/odom,0.0427081968913,0.271842520229,0.0,0.0,0.0,-0.0978378689566,0.995202367058
1449618144278303921,302,1449618144237066637,/odom,0.0427285306897,0.2718384832,0.0,0.0,0.0,-0.0978378689566,0.995202367058
1449618144362196599,303,1449618144331749620,/odom,0.0427359135853,0.271837017416,0.0,0.0,0.0,-0.0978378689566,0.995202367058
1449618144485927754,304,1449618144430797757,/odom,0.0427436813044,0.27183547523,0.0,0.0,0.0,-0.0978378689566,0.995202367058
1449618144559886049,305,1449618144531931815,/odom,0.0427465396971,0.271834907731,0.0,0.0,0.0,-0.0978378689566,0.995202367058
1449618144676516750,306,1449618144629637366,/odom,0.0268072098866,0.274999468243,0.0,0.0,0.0,-0.0978378689566,0.995202367058
1449618144761113746,307,1449618144731006755,/odom,0.0208626309267,0.276179692259,0.0,0.0,0.0,-0.0978378689566,0.995202367058
1449618144884355618,308,1449618144835540746,/odom,0.0118861805088,0.278013661221,0.0,0.0,0.0,-0.0925778540379,0.995705448886
1449618144975414111,309,1449618144930149271,/odom,0.0124266921399,0.277823518307,0.0,0.0,0.0,-0.0978378689566,0.995202367058
1449618145120241715,310,1449618145079978778,/odom,0.0100645695409,0.278292489085,0.0,0.0,0.0,-0.0978378689566,0.995202367058
1449618145168207803,311,1449618145132146569,/odom,0.00951706309886,0.278401189845,0.0,0.0,0.0,-0.0978378689566,0.995202367058
1449618145277849921,312,1449618145244263865,/odom,0.00782531959532,0.278737064988,0.0,0.0,0.0,-0.0978378689566,0.995202367058
1449618145363495034,313,1449618145336277355,/odom,0.00762285256902,0.27877726236,0.0,0.0,0.0,-0.0978378689566,0.995202367058
1449618145480789355,314,1449618145435997850,/odom,0.00741130874711,0.278819261818,0.0,0.0,0.0,-0.0978378689566,0.995202367058
1449618145561238938,315,1449618145531636950,/odom,0.00733400700784,0.278834609141,0.0,0.0,0.0,-0.0978378689566,0.995202367058
1449618145719227159,316,1449618145657645616,/odom,0.00725385616889,0.278850522117,0.0,0.0,0.0,-0.0978378689566,0.995202367058
1449618145797676923,317,1449618145753817993,/odom,0.00723373762552,0.27885451641,0.0,0.0,0.0,-0.0978378689566,0.995202367058
1449618145877646320,318,1449618145831562477,/odom,0.00719831239073,0.27886154966,0.0,0.0,0.0,-0.0978378689566,0.995202367058
1449618145966356629,319,1449618145929965115,/odom,0.00717862759592,0.278865457837,0.0,0.0,0.0,-0.0978378689566,0.995202367058
1449618146076465899,320,1449618146047639984,/odom,0.00716787934861,0.278867591771,0.0,0.0,0.0,-0.0978378689566,0.995202367058
1449618146165817985,321,1449618146135733240,/odom,0.00716389866188,0.278868382089,0.0,0.0,0.0,-0.0978378689566,0.995202367058
1449618146287188351,322,1449618146241556457,/odom,0.00715974979131,0.278869205796,0.0,0.0,0.0,-0.0978378689566,0.995202367058
1449618146370741800,323,1449618146340511639,/odom,0.00715822127977,0.278869509264,0.0,0.0,0.0,-0.0978378689566,0.995202367058
1449618146484364789,324,1449618146432092615,/odom,0.00715662496334,0.278869826193,0.0,0.0,0.0,-0.0978378689566,0.995202367058
1449618146601148613,325,1449618146530979354,/odom,0.00715603647945,0.278869943029,0.0,0.0,0.0,-0.0978378689566,0.995202367058
1449618146679062122,326,1449618146631814824,/odom,0.00715562525925,0.278870024672,0.0,0.0,0.0,-0.0978378689566,0.995202367058
1449618146761699465,327,1449618146730010285,/odom,0.0071551970322,0.278870109692,0.0,0.0,0.0,-0.0978378689566,0.995202367058
1449618146880615960,328,1449618146833679504,/odom,0.00715496136794,0.27887015648,0.0,0.0,0.0,-0.0978378689566,0.995202367058
1449618146999668630,329,1449618146968021119,/odom,0.00715487444375,0.278870173738,0.0,0.0,0.0,-0.0978378689566,0.995202367058
1449618147092134317,330,1449618147028855184,/odom,0.00715481310767,0.278870185915,0.0,0.0,0.0,-0.0978378689566,0.995202367058
1449618147164284973,331,1449618147131743143,/odom,0.00715472017417,0.278870204366,0.0,0.0,0.0,-0.0978378689566,0.995202367058
1449618147277547377,332,1449618147230257156,/odom,0.00715470533144,0.278870207313,0.0,0.0,0.0,-0.0978378689566,0.995202367058
1449618147365602505,333,1449618147329031895,/odom,0.00715469522957,0.278870209318,0.0,0.0,0.0,-0.0978378689566,0.995202367058
1449618147487317827,334,1449618147428922836,/odom,0.00715468456452,0.278870211436,0.0,0.0,0.0,-0.0978378689566,0.995202367058
1449618147598190398,335,1449618147549951805,/odom,0.0071546806912,0.278870212205,0.0,0.0,0.0,-0.0978378689566,0.995202367058
1449618147681557481,336,1449618147631990750,/odom,0.00715467796933,0.278870212745,0.0,0.0,0.0,-0.0978378689566,0.995202367058
1449618147757995454,337,1449618147730980969,/odom,0.00715467514983,0.278870213305,0.0,0.0,0.0,-0.0978378689566,0.995202367058
1449618147884294859,338,1449618147828830365,/odom,0.00715467358963,0.278870213615,0.0,0.0,0.0,-0.0978378689566,0.995202367058
1449618147965662685,339,1449618147930459800,/odom,0.00715467301453,0.278870213729,0.0,0.0,0.0,-0.0978378689566,0.995202367058
1449618148081228604,340,1449618148030105324,/odom,0.00715467241539,0.278870213848,0.0,0.0,0.0,-0.0978378689566,0.995202367058
1449618148165534250,341,1449618148129129860,/odom,0.00715467219351,0.278870213892,0.0,0.0,0.0,-0.0978378689566,0.995202367058
1449618148274965069,342,1449618148229451630,/odom,0.00715467196316,0.278870213938,0.0,0.0,0.0,-0.0978378689566,0.995202367058
1449618148356361929,343,1449618148330905683,/odom,0.00715467187801,0.278870213954,0.0,0.0,0.0,-0.0978378689566,0.995202367058
1449618148487763439,344,1449618148432937708,/odom,0.0071546717884,0.278870213972,0.0,0.0,0.0,-0.0978378689566,0.995202367058
1449618148567604000,345,1449618148538404124,/odom,0.00715467175572,0.278870213979,0.0,0.0,0.0,-0.0978378689566,0.995202367058
1449618148679574599,346,1449618148635873771,/odom,0.00715467172181,0.278870213986,0.0,0.0,0.0,-0.0978378689566,0.995202367058
1449618148762898655,347,1449618148744630354,/odom,0.00715467170915,0.278870213988,0.0,0.0,0.0,-0.0978378689566,0.995202367058
1449618148887622872,348,1449618148829262505,/odom,0.00715467169599,0.278870213991,0.0,0.0,0.0,-0.0978378689566,0.995202367058
1449618148972272389,349,1449618148933672581,/odom,0.00715467169115,0.278870213992,0.0,0.0,0.0,-0.0978378689566,0.995202367058
1449618149076606189,350,1449618149029279837,/odom,0.00715467168606,0.278870213993,0.0,0.0,0.0,-0.0978378689566,0.995202367058
1449618149205432775,351,1449618149142987840,/odom,0.0071546716842,0.278870213993,0.0,0.0,0.0,-0.0978378689566,0.995202367058
1449618149285765179,352,1449618149229816911,/odom,0.00715467168289,0.278870213993,0.0,0.0,0.0,-0.0978378689566,0.995202367058
1449618149406082464,353,1449618149330412447,/odom,0.00715467168154,0.278870213994,0.0,0.0,0.0,-0.0978378689566,0.995202367058
1449618149483573077,354,1449618149433353850,/odom,0.00715467168103,0.278870213994,0.0,0.0,0.0,-0.0978378689566,0.995202367058
1449618149606293330,355,1449618149531535485,/odom,0.00715467168051,0.278870213994,0.0,0.0,0.0,-0.0978378689566,0.995202367058
1449618149679899641,356,1449618149632133298,/odom,0.00715467168032,0.278870213994,0.0,0.0,0.0,-0.0978378689566,0.995202367058
1449618149758912208,357,1449618149729759338,/odom,0.00715467168011,0.278870213994,0.0,0.0,0.0,-0.0978378689566,0.995202367058
1449618149930145663,358,1449618149831914579,/odom,0.00715467168,0.278870213994,0.0,0.0,0.0,-0.0978378689566,0.995202367058
1449618150010284965,359,1449618149953437039,/odom,0.00715467167997,0.278870213994,0.0,0.0,0.0,-0.0978378689566,0.995202367058
1449618150124383394,360,1449618150071218564,/odom,0.00715467167993,0.278870213994,0.0,0.0,0.0,-0.0978378689566,0.995202367058
1449618150161703715,361,1449618150132597331,/odom,0.00715467167991,0.278870213994,0.0,0.0,0.0,-0.0978378689566,0.995202367058
1449618150285557824,362,1449618150234913116,/odom,0.00715467167988,0.278870213994,0.0,0.0,0.0,-0.0978378689566,0.995202367058
1449618150358219749,363,1449618150329879008,/odom,0.00715467167988,0.278870213994,0.0,0.0,0.0,-0.0978378689566,0.995202367058
1449618150476813900,364,1449618150432200099,/odom,0.00715467167987,0.278870213994,0.0,0.0,0.0,-0.0978378689566,0.995202367058
1449618150599239695,365,1449618150545884096,/odom,0.00715467167987,0.278870213994,0.0,0.0,0.0,-0.0978378689566,0.995202367058
1449618150681662276,366,1449618150655751757,/odom,0.00715467167987,0.278870213994,0.0,0.0,0.0,-0.0978378689566,0.995202367058
1449618150769378870,367,1449618150733892704,/odom,0.00715467167987,0.278870213994,0.0,0.0,0.0,-0.0978378689566,0.995202367058
1449618150876091083,368,1449618150830500050,/odom,0.00715467167987,0.278870213994,0.0,0.0,0.0,-0.0978378689566,0.995202367058
1449618150970083571,369,1449618150935151134,/odom,0.00715467167987,0.278870213994,0.0,0.0,0.0,-0.0978378689566,0.995202367058
1449618151078262561,370,1449618151038506597,/odom,0.00715467167987,0.278870213994,0.0,0.0,0.0,-0.0978378689566,0.995202367058
1449618151160837886,371,1449618151141398251,/odom,0.00715467167987,0.278870213994,0.0,0.0,0.0,-0.0978378689566,0.995202367058
1449618151283103624,372,1449618151233207220,/odom,0.00715467167987,0.278870213994,0.0,0.0,0.0,-0.0978378689566,0.995202367058
1449618151359760937,373,1449618151332077907,/odom,0.00715467167987,0.278870213994,0.0,0.0,0.0,-0.0978378689566,0.995202367058
1449618151478247867,374,1449618151429745660,/odom,0.00715467167987,0.278870213994,0.0,0.0,0.0,-0.0978378689566,0.995202367058
1449618151563394086,375,1449618151529703151,/odom,0.00715467167987,0.278870213994,0.0,0.0,0.0,-0.0978378689566,0.995202367058
1449618151686414571,376,1449618151630849742,/odom,0.00715467167987,0.278870213994,0.0,0.0,0.0,-0.0978378689566,0.995202367058
1449618151765645413,377,1449618151731177979,/odom,0.00715467167987,0.278870213994,0.0,0.0,0.0,-0.0978378689566,0.995202367058
1449618151883585099,378,1449618151830693016,/odom,0.00715467167987,0.278870213994,0.0,0.0,0.0,-0.0978378689566,0.995202367058
1449618151964330323,379,1449618151931045517,/odom,0.00715467167987,0.278870213994,0.0,0.0,0.0,-0.0978378689566,0.995202367058
1449618152085799980,380,1449618152036283513,/odom,0.00715467167987,0.278870213994,0.0,0.0,0.0,-0.0978378689566,0.995202367058
1449618152202926548,381,1449618152133632598,/odom,0.00715467167987,0.278870213994,0.0,0.0,0.0,-0.0978378689566,0.995202367058
1449618152280615029,382,1449618152238371566,/odom,0.00715467167987,0.278870213994,0.0,0.0,0.0,-0.0978378689566,0.995202367058
1449618152400547674,383,1449618152364247449,/odom,0.00715467167987,0.278870213994,0.0,0.0,0.0,-0.0978378689566,0.995202367058
1449618152487471840,384,1449618152429954784,/odom,0.00715467167987,0.278870213994,0.0,0.0,0.0,-0.0978378689566,0.995202367058
1449618152562942075,385,1449618152529428687,/odom,0.00715467167987,0.278870213994,0.0,0.0,0.0,-0.0978378689566,0.995202367058
1449618152697380409,386,1449618152630201700,/odom,0.00715467167987,0.278870213994,0.0,0.0,0.0,-0.0978378689566,0.995202367058
1449618152771338454,387,1449618152730751481,/odom,0.00715467167987,0.278870213994,0.0,0.0,0.0,-0.0978378689566,0.995202367058
1449618152879536330,388,1449618152830178052,/odom,0.00715467167987,0.278870213994,0.0,0.0,0.0,-0.0978378689566,0.995202367058
1449618152958352979,389,1449618152936432100,/odom,0.00715467167987,0.278870213994,0.0,0.0,0.0,-0.0978378689566,0.995202367058
1449618153123787116,390,1449618153031375520,/odom,0.00715467167987,0.278870213994,0.0,0.0,0.0,-0.0978378689566,0.995202367058
1449618153160814822,391,1449618153133438587,/odom,0.00715467167987,0.278870213994,0.0,0.0,0.0,-0.0978378689566,0.995202367058
1449618153280611963,392,1449618153235169183,/odom,0.00715467167987,0.278870213994,0.0,0.0,0.0,-0.0978378689566,0.995202367058
1449618153357670227,393,1449618153332626891,/odom,0.00715467167987,0.278870213994,0.0,0.0,0.0,-0.0978378689566,0.995202367058
1449618153488128417,394,1449618153431249013,/odom,0.00715467167987,0.278870213994,0.0,0.0,0.0,-0.0978378689566,0.995202367058
1449618153602131380,395,1449618153544789808,/odom,0.00715467167987,0.278870213994,0.0,0.0,0.0,-0.0978378689566,0.995202367058
1449618153682214622,396,1449618153629811923,/odom,0.00715467167987,0.278870213994,0.0,0.0,0.0,-0.0978378689566,0.995202367058
1449618153758898130,397,1449618153731678034,/odom,0.00715467167987,0.278870213994,0.0,0.0,0.0,-0.0978378689566,0.995202367058
1449618153885331038,398,1449618153832193335,/odom,0.00715467167987,0.278870213994,0.0,0.0,0.0,-0.0978378689566,0.995202367058
1449618153962691812,399,1449618153931932160,/odom,0.00715467167987,0.278870213994,0.0,0.0,0.0,-0.0978378689566,0.995202367058
1449618154082777306,400,1449618154030185835,/odom,0.00715467167987,0.278870213994,0.0,0.0,0.0,-0.0978378689566,0.995202367058
1449618154199379062,401,1449618154144521964,/odom,0.00432424186655,0.279401134257,0.0,0.0,0.0,-0.0925778540379,0.995705448886
1449618154281284775,402,1449618154238659602,/odom,0.00714890293822,0.278840332078,0.0,0.0,0.0,-0.0978378689566,0.995202367058
1449618154363430552,403,1449618154334723588,/odom,0.00714890293822,0.278840332078,0.0,0.0,0.0,-0.0978378689566,0.995202367058
1449618154477012058,404,1449618154448567787,/odom,0.00714890293822,0.278840332078,0.0,0.0,0.0,-0.0978378689566,0.995202367058
1449618154556811518,405,1449618154530896662,/odom,0.00714890293822,0.278840332078,0.0,0.0,0.0,-0.0978378689566,0.995202367058
1449618154687512712,406,1449618154648752878,/odom,0.00714890293822,0.278840332078,0.0,0.0,0.0,-0.0978378689566,0.995202367058
1449618154764703398,407,1449618154729617676,/odom,0.00714890293822,0.278840332078,0.0,0.0,0.0,-0.0978378689566,0.995202367058
1449618155162006487,408,1449618155127832830,/odom,0.00714890293822,0.278840332078,0.0,0.0,0.0,-0.0978378689566,0.995202367058
1449618155284781315,409,1449618155241135585,/odom,0.00714890293822,0.278840332078,0.0,0.0,0.0,-0.0978378689566,0.995202367058
1449618155367207815,410,1449618155312962912,/odom,0.00714890293822,0.278840332078,0.0,0.0,0.0,-0.0978378689566,0.995202367058
1449618155481839516,411,1449618155413054136,/odom,0.00714890293822,0.278840332078,0.0,0.0,0.0,-0.0978378689566,0.995202367058
1449618155564569272,412,1449618155515385454,/odom,0.00714890293822,0.278840332078,0.0,0.0,0.0,-0.0978378689566,0.995202367058
1449618155635589955,413,1449618155616810895,/odom,0.00714890293822,0.278840332078,0.0,0.0,0.0,-0.0978378689566,0.995202367058
1449618155769539823,414,1449618155719245487,/odom,0.00714890293822,0.278840332078,0.0,0.0,0.0,-0.0978378689566,0.995202367058
1449618155845046615,415,1449618155813537002,/odom,0.00714890293822,0.278840332078,0.0,0.0,0.0,-0.0978378689566,0.995202367058
1449618156003507329,416,1449618155958709729,/odom,0.00714890293822,0.278840332078,0.0,0.0,0.0,-0.0978378689566,0.995202367058
1449618156048023146,417,1449618156013724795,/odom,0.00714890293822,0.278840332078,0.0,0.0,0.0,-0.0978378689566,0.995202367058
1449618156172306332,418,1449618156114238108,/odom,0.00714890293822,0.278840332078,0.0,0.0,0.0,-0.0978378689566,0.995202367058
1449618156241519127,419,1449618156214544909,/odom,0.00714890293822,0.278840332078,0.0,0.0,0.0,-0.0978378689566,0.995202367058
1449618156364237706,420,1449618156332808235,/odom,0.00714890293822,0.278840332078,0.0,0.0,0.0,-0.0978378689566,0.995202367058
1449618156494643192,421,1449618156438223932,/odom,0.00714890293822,0.278840332078,0.0,0.0,0.0,-0.0978378689566,0.995202367058
1449618156569230404,422,1449618156526073877,/odom,0.00714890293822,0.278840332078,0.0,0.0,0.0,-0.0978378689566,0.995202367058
1449618156680771879,423,1449618156652605033,/odom,0.00714890293822,0.278840332078,0.0,0.0,0.0,-0.0978378689566,0.995202367058
1449618156759714578,424,1449618156721288225,/odom,0.00714890293822,0.278840332078,0.0,0.0,0.0,-0.0978378689566,0.995202367058
1449618156838341755,425,1449618156812862953,/odom,0.00714890293822,0.278840332078,0.0,0.0,0.0,-0.0978378689566,0.995202367058
1449618156961062149,426,1449618156914057960,/odom,0.00714890293822,0.278840332078,0.0,0.0,0.0,-0.0978378689566,0.995202367058
1449618157037969004,427,1449618157015806886,/odom,0.00714890293822,0.278840332078,0.0,0.0,0.0,-0.0978378689566,0.995202367058
1449618157161219127,428,1449618157114306893,/odom,0.00714890293822,0.278840332078,0.0,0.0,0.0,-0.0978378689566,0.995202367058
1449618157285943984,429,1449618157222962843,/odom,0.00714890293822,0.278840332078,0.0,0.0,0.0,-0.0978378689566,0.995202367058
1449618157366879297,430,1449618157320351759,/odom,0.00714890293822,0.278840332078,0.0,0.0,0.0,-0.0978378689566,0.995202367058
1449618157440022995,431,1449618157415370953,/odom,0.00714890293822,0.278840332078,0.0,0.0,0.0,-0.0978378689566,0.995202367058
1449618157563799678,432,1449618157521688063,/odom,0.00714890293822,0.278840332078,0.0,0.0,0.0,-0.0978378689566,0.995202367058
1449618157680235752,433,1449618157644057963,/odom,0.00714890293822,0.278840332078,0.0,0.0,0.0,-0.0978378689566,0.995202367058
1449618157762215344,434,1449618157739106446,/odom,0.00714890293822,0.278840332078,0.0,0.0,0.0,-0.0978378689566,0.995202367058
1449618157839521819,435,1449618157813586789,/odom,0.00714890293822,0.278840332078,0.0,0.0,0.0,-0.0978378689566,0.995202367058
1449618157966111662,436,1449618157914615692,/odom,0.00714890293822,0.278840332078,0.0,0.0,0.0,-0.0978378689566,0.995202367058
1449618158038634751,437,1449618158015657402,/odom,0.00714890293822,0.278840332078,0.0,0.0,0.0,-0.0978378689566,0.995202367058
1449618158164861142,438,1449618158115483598,/odom,0.00714890293822,0.278840332078,0.0,0.0,0.0,-0.0978378689566,0.995202367058
1449618158237380162,439,1449618158221561158,/odom,0.00714890293822,0.278840332078,0.0,0.0,0.0,-0.0978378689566,0.995202367058
1449618158357512430,440,1449618158318143312,/odom,0.00714890293822,0.278840332078,0.0,0.0,0.0,-0.0978378689566,0.995202367058
1449618158492566279,441,1449618158462858780,/odom,0.00714890293822,0.278840332078,0.0,0.0,0.0,-0.0978378689566,0.995202367058
1449618158603040831,442,1449618158535080849,/odom,0.00714890293822,0.278840332078,0.0,0.0,0.0,-0.0978378689566,0.995202367058
1449618158637902090,443,1449618158616757745,/odom,0.00714890293822,0.278840332078,0.0,0.0,0.0,-0.0978378689566,0.995202367058
1449618158763374087,444,1449618158727936715,/odom,0.00714890293822,0.278840332078,0.0,0.0,0.0,-0.0978378689566,0.995202367058
1449618158883950972,445,1449618158816738586,/odom,0.00714890293822,0.278840332078,0.0,0.0,0.0,-0.0978378689566,0.995202367058
1449618158970402891,446,1449618158921680367,/odom,0.00714890293822,0.278840332078,0.0,0.0,0.0,-0.0978378689566,0.995202367058
1449618159079401807,447,1449618159022116854,/odom,0.00714890293822,0.278840332078,0.0,0.0,0.0,-0.0978378689566,0.995202367058
1449618159158733955,448,1449618159119599920,/odom,0.00714890293822,0.278840332078,0.0,0.0,0.0,-0.0978378689566,0.995202367058
1449618159280741747,449,1449618159219500620,/odom,0.00714890293822,0.278840332078,0.0,0.0,0.0,-0.0978378689566,0.995202367058
1449618159356663662,450,1449618159319997650,/odom,0.00714890293822,0.278840332078,0.0,0.0,0.0,-0.0978378689566,0.995202367058
1449618159453454148,451,1449618159414470812,/odom,0.00714890293822,0.278840332078,0.0,0.0,0.0,-0.0978378689566,0.995202367058
1449618159562078473,452,1449618159515095904,/odom,0.00714890293822,0.278840332078,0.0,0.0,0.0,-0.0978378689566,0.995202367058
1449618159679548276,453,1449618159634765473,/odom,0.00714890293822,0.278840332078,0.0,0.0,0.0,-0.0978378689566,0.995202367058
1449618159762274897,454,1449618159714077180,/odom,0.00714890293822,0.278840332078,0.0,0.0,0.0,-0.0978378689566,0.995202367058
1449618159835667704,455,1449618159814298053,/odom,0.00714890293822,0.278840332078,0.0,0.0,0.0,-0.0978378689566,0.995202367058
1449618159982457842,456,1449618159917374917,/odom,0.00714890293822,0.278840332078,0.0,0.0,0.0,-0.0978378689566,0.995202367058
1449618160078692814,457,1449618160045284339,/odom,0.00714890293822,0.278840332078,0.0,0.0,0.0,-0.0978378689566,0.995202367058
1449618160158303384,458,1449618160116515181,/odom,0.00714890293822,0.278840332078,0.0,0.0,0.0,-0.0978378689566,0.995202367058
1449618160275816674,459,1449618160217541044,/odom,0.00714890293822,0.278840332078,0.0,0.0,0.0,-0.0978378689566,0.995202367058
1449618160358008084,460,1449618160330827361,/odom,0.00714890293822,0.278840332078,0.0,0.0,0.0,-0.0978378689566,0.995202367058
1449618160439388041,461,1449618160412500372,/odom,0.00714890293822,0.278840332078,0.0,0.0,0.0,-0.0978378689566,0.995202367058
1449618160564582371,462,1449618160517708452,/odom,0.00714890293822,0.278840332078,0.0,0.0,0.0,-0.0978378689566,0.995202367058
1449618160639986261,463,1449618160615019100,/odom,0.00714890293822,0.278840332078,0.0,0.0,0.0,-0.0978378689566,0.995202367058
1449618160760020582,464,1449618160717809488,/odom,0.00714890293822,0.278840332078,0.0,0.0,0.0,-0.0978378689566,0.995202367058
1449618160839269154,465,1449618160816652940,/odom,0.00714890293822,0.278840332078,0.0,0.0,0.0,-0.0978378689566,0.995202367058
1449618160963526557,466,1449618160917790608,/odom,0.00714890293822,0.278840332078,0.0,0.0,0.0,-0.0978378689566,0.995202367058
1449618161044711581,467,1449618161012922548,/odom,0.00714890293822,0.278840332078,0.0,0.0,0.0,-0.0978378689566,0.995202367058
1449618161164460824,468,1449618161115955543,/odom,0.00714890293822,0.278840332078,0.0,0.0,0.0,-0.0978378689566,0.995202367058
1449618161247800518,469,1449618161214479657,/odom,0.00714890293822,0.278840332078,0.0,0.0,0.0,-0.0978378689566,0.995202367058
1449618161363767250,470,1449618161320354483,/odom,0.00714890293822,0.278840332078,0.0,0.0,0.0,-0.0978378689566,0.995202367058
1449618161482899227,471,1449618161429759243,/odom,0.00714890293822,0.278840332078,0.0,0.0,0.0,-0.0978378689566,0.995202367058
1449618161560340682,472,1449618161517761587,/odom,0.00714890293822,0.278840332078,0.0,0.0,0.0,-0.0978378689566,0.995202367058
1449618161643138403,473,1449618161614888813,/odom,0.00714890293822,0.278840332078,0.0,0.0,0.0,-0.0978378689566,0.995202367058
1449618161766362863,474,1449618161717974347,/odom,0.00714890293822,0.278840332078,0.0,0.0,0.0,-0.0978378689566,0.995202367058
1449618161837573917,475,1449618161816245501,/odom,0.00714890293822,0.278840332078,0.0,0.0,0.0,-0.0978378689566,0.995202367058
1449618161963532656,476,1449618161916463932,/odom,0.00714890293822,0.278840332078,0.0,0.0,0.0,-0.0978378689566,0.995202367058
1449618162036289714,477,1449618162013896561,/odom,0.00714890293822,0.278840332078,0.0,0.0,0.0,-0.0978378689566,0.995202367058
1449618162170025721,478,1449618162117547659,/odom,0.00714890293822,0.278840332078,0.0,0.0,0.0,-0.0978378689566,0.995202367058
1449618162276848002,479,1449618162230130776,/odom,0.00714890293822,0.278840332078,0.0,0.0,0.0,-0.0978378689566,0.995202367058
1449618162363091441,480,1449618162332943595,/odom,0.00714890293822,0.278840332078,0.0,0.0,0.0,-0.0978378689566,0.995202367058
1449618162484147991,481,1449618162433398018,/odom,0.00714890293822,0.278840332078,0.0,0.0,0.0,-0.0978378689566,0.995202367058
1449618162567137208,482,1449618162525319478,/odom,0.00714890293822,0.278840332078,0.0,0.0,0.0,-0.0978378689566,0.995202367058
1449618162637316558,483,1449618162620512420,/odom,0.00714890293822,0.278840332078,0.0,0.0,0.0,-0.0978378689566,0.995202367058
1449618162767143066,484,1449618162714974108,/odom,0.00714890293822,0.278840332078,0.0,0.0,0.0,-0.0978378689566,0.995202367058
1449618162836392968,485,1449618162814008964,/odom,0.00714890293822,0.278840332078,0.0,0.0,0.0,-0.0978378689566,0.995202367058
1449618162961203374,486,1449618162915048478,/odom,0.00714890293822,0.278840332078,0.0,0.0,0.0,-0.0978378689566,0.995202367058
1449618163076837467,487,1449618163014890828,/odom,0.00714890293822,0.278840332078,0.0,0.0,0.0,-0.0978378689566,0.995202367058
1449618163162989798,488,1449618163121334803,/odom,0.00714890293822,0.278840332078,0.0,0.0,0.0,-0.0978378689566,0.995202367058
1449618163275604908,489,1449618163236559995,/odom,0.00714890293822,0.278840332078,0.0,0.0,0.0,-0.0978378689566,0.995202367058
1449618163413914613,490,1449618163367217841,/odom,0.00714890293822,0.278840332078,0.0,0.0,0.0,-0.0978378689566,0.995202367058
1449618163447301205,491,1449618163413605851,/odom,0.00714890293822,0.278840332078,0.0,0.0,0.0,-0.0978378689566,0.995202367058
1449618163566700638,492,1449618163515421684,/odom,0.00714890293822,0.278840332078,0.0,0.0,0.0,-0.0978378689566,0.995202367058
