%time,field.header.seq,field.header.stamp,field.header.frame_id,field.ns,field.id,field.type,field.action,field.pose.position.x,field.pose.position.y,field.pose.position.z,field.pose.orientation.x,field.pose.orientation.y,field.pose.orientation.z,field.pose.orientation.w,field.scale.x,field.scale.y,field.scale.z,field.color.r,field.color.g,field.color.b,field.color.a,field.lifetime,field.frame_locked,field.text,field.mesh_resource,field.mesh_use_embedded_materials
1449618005707457966,0,0,/odom,ucmd_vector,0,0,0,0.0,0.0,0.0,0.0,0.0,0.0,1.0,0.245851276169,0.05,0.05,0.0,0.0,1.0,1.0,0,0,,,0
1449618005744683455,1,0,/odom,ucmd_vector,0,0,0,0.0,0.0,0.0,0.0,0.0,0.0,1.0,0.245851276169,0.05,0.05,0.0,0.0,1.0,1.0,0,0,,,0
1449618005784547773,2,0,/odom,ucmd_vector,0,0,0,0.0,0.0,0.0,0.0,0.0,0.0,1.0,0.346422698746,0.05,0.05,0.0,0.0,1.0,1.0,0,0,,,0
1449618005845300712,3,0,/odom,ucmd_vector,0,0,0,0.0,0.0,0.0,0.0,0.0,0.0,1.0,0.346422698746,0.05,0.05,0.0,0.0,1.0,1.0,0,0,,,0
1449618005862370999,4,0,/odom,ucmd_vector,0,0,0,0.0,0.0,0.0,0.0,0.0,0.0,1.0,0.189978263626,0.05,0.05,0.0,0.0,1.0,1.0,0,0,,,0
1449618005902821169,5,0,/odom,ucmd_vector,0,0,0,0.0,0.0,0.0,0.0,0.0,0.0,1.0,0.189978263626,0.05,0.05,0.0,0.0,1.0,1.0,0,0,,,0
1449618006010525111,6,0,/odom,ucmd_vector,0,0,0,0.0,0.0,0.0,0.0,0.0,0.0,1.0,0.189978263626,0.05,0.05,0.0,0.0,1.0,1.0,0,0,,,0
1449618006023982776,7,0,/odom,ucmd_vector,0,0,0,0.0,0.0,0.0,0.0,0.0,0.0,1.0,0.189978263626,0.05,0.05,0.0,0.0,1.0,1.0,0,0,,,0
1449618006050167318,8,0,/odom,ucmd_vector,0,0,0,0.0,0.0,0.0,0.0,0.0,0.0,1.0,0.189978263626,0.05,0.05,0.0,0.0,1.0,1.0,0,0,,,0
1449618006065683897,9,0,/odom,ucmd_vector,0,0,0,0.0,0.0,0.0,0.0,0.0,0.0,1.0,0.189978263626,0.05,0.05,0.0,0.0,1.0,1.0,0,0,,,0
1449618006130789347,10,0,/odom,ucmd_vector,0,0,0,0.0,0.0,0.0,0.0,0.0,0.0,1.0,0.189978263626,0.05,0.05,0.0,0.0,1.0,1.0,0,0,,,0
1449618006147690972,11,0,/odom,ucmd_vector,0,0,0,0.0,0.0,0.0,0.0,0.0,0.0,1.0,0.189978263626,0.05,0.05,0.0,0.0,1.0,1.0,0,0,,,0
1449618006189619321,12,0,/odom,ucmd_vector,0,0,0,0.0,0.0,0.0,0.0,0.0,0.0,1.0,0.346422698746,0.05,0.05,0.0,0.0,1.0,1.0,0,0,,,0
1449618006269285919,13,0,/odom,ucmd_vector,0,0,0,0.0,0.0,0.0,0.0,0.0,0.0,1.0,0.346422698746,0.05,0.05,0.0,0.0,1.0,1.0,0,0,,,0
1449618006279256049,14,0,/odom,ucmd_vector,0,0,0,0.0,0.0,0.0,0.0,0.0,0.0,1.0,0.346422698746,0.05,0.05,0.0,0.0,1.0,1.0,0,0,,,0
1449618006303064170,15,0,/odom,ucmd_vector,0,0,0,0.0,0.0,0.0,0.0,0.0,0.0,1.0,0.346422698746,0.05,0.05,0.0,0.0,1.0,1.0,0,0,,,0
1449618006384708357,16,0,/odom,ucmd_vector,0,0,0,0.0,0.0,0.0,0.0,0.0,0.0,1.0,0.346422698746,0.05,0.05,0.0,0.0,1.0,1.0,0,0,,,0
1449618006392595915,17,0,/odom,ucmd_vector,0,0,0,0.0,0.0,0.0,0.0,0.0,0.0,1.0,0.35201,0.05,0.05,0.0,0.0,1.0,1.0,0,0,,,0
1449618006474748464,18,0,/odom,ucmd_vector,0,0,0,0.0,0.0,0.0,0.0,0.0,0.0,1.0,0.346422698746,0.05,0.05,0.0,0.0,1.0,1.0,0,0,,,0
1449618006491368306,19,0,/odom,ucmd_vector,0,0,0,0.00287963245437,3.04332289367e-05,0.0,0.0,0.0,0.0052839997518,0.999986039576,0.346422698746,0.05,0.05,0.0,0.0,1.0,1.0,0,0,,,0
1449618006505008005,20,0,/odom,ucmd_vector,0,0,0,0.00575942572016,3.04332289367e-05,0.0,0.0,0.0,0.0,1.0,0.346422698746,0.05,0.05,0.0,0.0,1.0,1.0,0,0,,,0
1449618006548602412,21,0,/odom,ucmd_vector,0,0,0,0.00575942572016,3.04332289367e-05,0.0,0.0,0.0,0.0602808948738,0.998181453301,0.335248096237,0.05,0.05,0.0,0.0,1.0,1.0,0,0,,,0
1449618006646311107,22,0,/odom,ucmd_vector,0,0,0,0.00575942572016,3.04332289367e-05,0.0,0.0,0.0,0.0602808948738,0.998181453301,0.335248096237,0.05,0.05,0.0,0.0,1.0,1.0,0,0,,,0
1449618006654959505,23,0,/odom,ucmd_vector,0,0,0,0.00575942572016,3.04332289367e-05,0.0,0.0,0.0,0.0602808948738,0.998181453301,0.335248096237,0.05,0.05,0.0,0.0,1.0,1.0,0,0,,,0
1449618006721337832,24,0,/odom,ucmd_vector,0,0,0,0.00575942572016,3.04332289367e-05,0.0,0.0,0.0,0.167461231629,0.985878661855,0.301724288712,0.05,0.05,0.0,0.0,1.0,1.0,0,0,,,0
1449618006750144212,25,0,/odom,ucmd_vector,0,0,0,0.0115188514403,0.0,0.0,0.0,0.0,0.167461231629,0.985878661855,0.301724288712,0.05,0.05,0.0,0.0,1.0,1.0,0,0,,,0
1449618006777336889,26,0,/odom,ucmd_vector,0,0,0,0.0115188514403,0.0,0.0,0.0,0.0,0.142371733164,0.989813259962,0.251438577423,0.05,0.05,0.0,0.0,1.0,1.0,0,0,,,0
1449618006817398854,27,0,/odom,ucmd_vector,0,0,0,0.0115188514403,0.0,0.0,0.0,0.0,0.142371733164,0.989813259962,0.251438577423,0.05,0.05,0.0,0.0,1.0,1.0,0,0,,,0
1449618006833341889,28,0,/odom,ucmd_vector,0,0,0,0.0143984838947,-3.04332289367e-05,0.0,0.0,0.0,0.137139572574,0.990551733951,0.251438577423,0.05,0.05,0.0,0.0,1.0,1.0,0,0,,,0
1449618006913483826,29,0,/odom,ucmd_vector,0,0,0,0.0143984838947,-3.04332289367e-05,0.0,0.0,0.0,0.162249511194,0.986749763677,0.296136987457,0.05,0.05,0.0,0.0,1.0,1.0,0,0,,,0
1449618006925689251,30,0,/odom,ucmd_vector,0,0,0,0.0201579096149,-6.08664578733e-05,0.0,0.0,0.0,0.162249511194,0.986749763677,0.296136987457,0.05,0.05,0.0,0.0,1.0,1.0,0,0,,,0
1449618006954406562,31,0,/odom,ucmd_vector,0,0,0,0.0230377028806,-6.08664578733e-05,0.0,0.0,0.0,0.17059015587,0.985342071933,0.296136987457,0.05,0.05,0.0,0.0,1.0,1.0,0,0,,,0
1449618006992493354,32,0,/odom,ucmd_vector,0,0,0,0.0230377028806,-6.08664578733e-05,0.0,0.0,0.0,0.17059015587,0.985342071933,0.296136987457,0.05,0.05,0.0,0.0,1.0,1.0,0,0,,,0
1449618007075687318,33,0,/odom,ucmd_vector,0,0,0,0.0287972894122,-6.08664578733e-05,0.0,0.0,0.0,0.17059015587,0.985342071933,0.296136987457,0.05,0.05,0.0,0.0,1.0,1.0,0,0,,,0
1449618007104028539,34,0,/odom,ucmd_vector,0,0,0,0.0316769218666,-3.04332289367e-05,0.0,0.0,0.0,0.172668276403,0.984980033465,0.301724288712,0.05,0.05,0.0,0.0,1.0,1.0,0,0,,,0
1449618007121026328,35,0,/odom,ucmd_vector,0,0,0,0.0403143719808,0.000152155948096,0.0,0.0,0.0,0.177870500133,0.984053903596,0.301724288712,0.05,0.05,0.0,0.0,1.0,1.0,0,0,,,0
1449618007150764923,36,0,/odom,ucmd_vector,0,0,0,0.0403143719808,0.000152155948096,0.0,0.0,0.0,0.180993579048,0.983484277629,0.301724288712,0.05,0.05,0.0,0.0,1.0,1.0,0,0,,,0
1449618007203090427,37,0,/odom,ucmd_vector,0,0,0,0.0403143719808,0.000152155948096,0.0,0.0,0.0,0.180993579048,0.983484277629,0.301724288712,0.05,0.05,0.0,0.0,1.0,1.0,0,0,,,0
1449618007228919644,38,0,/odom,ucmd_vector,0,0,0,0.0518243799784,0.000608538828031,0.0,0.0,0.0,0.191376788391,0.981516645231,0.301724288712,0.05,0.05,0.0,0.0,1.0,1.0,0,0,,,0
1449618007276376889,39,0,/odom,ucmd_vector,0,0,0,0.0518243799784,0.000608538828031,0.0,0.0,0.0,0.188259903596,0.982119243625,0.296136987457,0.05,0.05,0.0,0.0,1.0,1.0,0,0,,,0
1449618007315090975,40,0,/odom,ucmd_vector,0,0,0,0.0575741597969,0.000943117438121,0.0,0.0,0.0,0.1986282817,0.98007489801,0.296136987457,0.05,0.05,0.0,0.0,1.0,1.0,0,0,,,0
1449618007344485386,41,0,/odom,ucmd_vector,0,0,0,0.0575741597969,0.000943117438121,0.0,0.0,0.0,0.1986282817,0.98007489801,0.296136987457,0.05,0.05,0.0,0.0,1.0,1.0,0,0,,,0
1449618007384710351,42,0,/odom,ucmd_vector,0,0,0,0.0661899108743,0.00158164438035,0.0,0.0,0.0,0.206911165434,0.978359734259,0.301724288712,0.05,0.05,0.0,0.0,1.0,1.0,0,0,,,0
1449618007462979174,43,0,/odom,ucmd_vector,0,0,0,0.0690594182424,0.00182482480304,0.0,0.0,0.0,0.21207792946,0.977252757395,0.301724288712,0.05,0.05,0.0,0.0,1.0,1.0,0,0,,,0
1449618007471740720,44,0,/odom,ucmd_vector,0,0,0,0.0776469090908,0.00276635268917,0.0,0.0,0.0,0.227542116951,0.973768239888,0.296136987457,0.05,0.05,0.0,0.0,1.0,1.0,0,0,,,0
1449618007508036083,45,0,/odom,ucmd_vector,0,0,0,0.0776469090908,0.00276635268917,0.0,0.0,0.0,0.227542116951,0.973768239888,0.296136987457,0.05,0.05,0.0,0.0,1.0,1.0,0,0,,,0
1449618007560303993,46,0,/odom,ucmd_vector,0,0,0,0.0862169107642,0.00385903498585,0.0,0.0,0.0,0.232684331504,0.97255231318,0.296136987457,0.05,0.05,0.0,0.0,1.0,1.0,0,0,,,0
1449618007586123917,47,0,/odom,ucmd_vector,0,0,0,0.0975910198467,0.005677323119,0.0,0.0,0.0,0.122332432921,0.992489181732,0.335248096237,0.05,0.05,0.0,0.0,1.0,1.0,0,0,,,0
1449618007630684050,48,0,/odom,ucmd_vector,0,0,0,0.0975910198467,0.005677323119,0.0,0.0,0.0,0.122332432921,0.992489181732,0.335248096237,0.05,0.05,0.0,0.0,1.0,1.0,0,0,,,0
1449618007675920368,49,0,/odom,ucmd_vector,0,0,0,0.10042446305,0.00619191894972,0.0,0.0,0.0,0.0928690025766,0.995678335789,0.301724288712,0.05,0.05,0.0,0.0,1.0,1.0,0,0,,,0
1449618007717020422,50,0,/odom,ucmd_vector,0,0,0,0.111712201411,0.00848937640422,0.0,0.0,0.0,0.103385997912,0.994641309938,0.301724288712,0.05,0.05,0.0,0.0,1.0,1.0,0,0,,,0
1449618007742907996,51,0,/odom,ucmd_vector,0,0,0,0.125678550725,0.0119839506524,0.0,0.0,0.0,0.129625404515,0.991563036072,0.301724288712,0.05,0.05,0.0,0.0,1.0,1.0,0,0,,,0
1449618007783092689,52,0,/odom,ucmd_vector,0,0,0,0.125678550725,0.0119839506524,0.0,0.0,0.0,0.126476937269,0.991969548091,0.346422698746,0.05,0.05,0.0,0.0,1.0,1.0,0,0,,,0
1449618007848239030,53,0,/odom,ucmd_vector,0,0,0,0.131253871776,0.0134291607378,0.0,0.0,0.0,0.126476937269,0.991969548091,0.346422698746,0.05,0.05,0.0,0.0,1.0,1.0,0,0,,,0
1449618007866646578,54,0,/odom,ucmd_vector,0,0,0,0.145035143192,0.0175986404617,0.0,0.0,0.0,0.149499537369,0.988761795544,0.346422698746,0.05,0.05,0.0,0.0,1.0,1.0,0,0,,,0
1449618007904543327,55,0,/odom,ucmd_vector,0,0,0,0.145035143192,0.0175986404617,0.0,0.0,0.0,0.149499537369,0.988761795544,0.346422698746,0.05,0.05,0.0,0.0,1.0,1.0,0,0,,,0
1449618007947898239,56,0,/odom,ucmd_vector,0,0,0,0.153243952888,0.0202920261853,0.0,0.0,0.0,0.154722067374,0.987958036491,0.346422698746,0.05,0.05,0.0,0.0,1.0,1.0,0,0,,,0
1449618008030916534,57,0,/odom,ucmd_vector,0,0,0,0.164110689901,0.0241137240715,0.0,0.0,0.0,0.165154021774,0.986267787719,0.346422698746,0.05,0.05,0.0,0.0,1.0,1.0,0,0,,,0
1449618008038347157,58,0,/odom,ucmd_vector,0,0,0,0.177557258401,0.029262044964,0.0,0.0,0.0,0.180767005788,0.983525947608,0.346422698746,0.05,0.05,0.0,0.0,1.0,1.0,0,0,,,0
1449618008073497001,59,0,/odom,ucmd_vector,0,0,0,0.185578902839,0.0324701758532,0.0,0.0,0.0,0.182841272345,0.983142446,0.346422698746,0.05,0.05,0.0,0.0,1.0,1.0,0,0,,,0
1449618008109003453,60,0,/odom,ucmd_vector,0,0,0,0.185578902839,0.0324701758532,0.0,0.0,0.0,0.182841272345,0.983142446,0.346422698746,0.05,0.05,0.0,0.0,1.0,1.0,0,0,,,0
1449618008145995033,61,0,/odom,ucmd_vector,0,0,0,0.190880269781,0.0347214744924,0.0,0.0,0.0,0.193220766084,0.981155306541,0.346422698746,0.05,0.05,0.0,0.0,1.0,1.0,0,0,,,0
1449618008198641529,62,0,/odom,ucmd_vector,0,0,0,0.198796189054,0.0381822699696,0.0,0.0,0.0,0.198402493037,0.980120630717,0.340835397491,0.05,0.05,0.0,0.0,1.0,1.0,0,0,,,0
1449618008239942713,63,0,/odom,ucmd_vector,0,0,0,0.209250867612,0.0430186988508,0.0,0.0,0.0,0.20874918372,0.977969211323,0.340835397491,0.05,0.05,0.0,0.0,1.0,1.0,0,0,,,0
1449618008293797046,64,0,/odom,ucmd_vector,0,0,0,0.22482833468,0.0504932165644,0.0,0.0,0.0,0.215973974697,0.976399120367,0.340835397491,0.05,0.05,0.0,0.0,1.0,1.0,0,0,,,0
1449618008312608642,65,0,/odom,ucmd_vector,0,0,0,0.235178462471,0.0555495198373,0.0,0.0,0.0,0.215973974697,0.976399120367,0.340835397491,0.05,0.05,0.0,0.0,1.0,1.0,0,0,,,0
1449618008347042476,66,0,/odom,ucmd_vector,0,0,0,0.235178462471,0.0555495198373,0.0,0.0,0.0,0.209770303293,0.977750694122,0.340835397491,0.05,0.05,0.0,0.0,1.0,1.0,0,0,,,0
1449618008410634431,67,0,/odom,ucmd_vector,0,0,0,0.242900549141,0.0594235694929,0.0,0.0,0.0,0.214933809236,0.976628618077,0.340835397491,0.05,0.05,0.0,0.0,1.0,1.0,0,0,,,0
1449618008428533033,68,0,/odom,ucmd_vector,0,0,0,0.260708468478,0.0688681873043,0.0,0.0,0.0,0.230387744422,0.973098909269,0.340835397491,0.05,0.05,0.0,0.0,1.0,1.0,0,0,,,0
1449618008466908017,69,0,/odom,ucmd_vector,0,0,0,0.260708468478,0.0688681873043,0.0,0.0,0.0,0.155650209846,0.987812235283,0.318486192474,0.05,0.05,0.0,0.0,1.0,1.0,0,0,,,0
1449618008542448015,70,0,/odom,ucmd_vector,0,0,0,0.268346954157,0.0729045742798,0.0,0.0,0.0,0.150428437297,0.988620900675,0.318486192474,0.05,0.05,0.0,0.0,1.0,1.0,0,0,,,0
1449618008559715966,71,0,/odom,ucmd_vector,0,0,0,0.288484213993,0.084096364063,0.0,0.0,0.0,0.160867636509,0.986975989335,0.318486192474,0.05,0.05,0.0,0.0,1.0,1.0,0,0,,,0
1449618008595305878,72,0,/odom,ucmd_vector,0,0,0,0.295990912306,0.088372853713,0.0,0.0,0.0,0.0873770521936,0.996175311253,0.296136987457,0.05,0.05,0.0,0.0,1.0,1.0,0,0,,,0
1449618008625569993,73,0,/odom,ucmd_vector,0,0,0,0.295990912306,0.088372853713,0.0,0.0,0.0,0.0873770521936,0.996175311253,0.296136987457,0.05,0.05,0.0,0.0,1.0,1.0,0,0,,,0
1449618008699778992,74,0,/odom,ucmd_vector,0,0,0,0.308426055337,0.0956321545827,0.0,0.0,0.0,0.0926396224703,0.995699703901,0.296136987457,0.05,0.05,0.0,0.0,1.0,1.0,0,0,,,0
1449618008718004668,75,0,/odom,ucmd_vector,0,0,0,0.330731903183,0.10882990353,0.0,0.0,0.0,0.0978996061702,0.995196295769,0.296136987457,0.05,0.05,0.0,0.0,1.0,1.0,0,0,,,0
1449618008747519372,76,0,/odom,ucmd_vector,0,0,0,0.335674996552,0.111786026831,0.0,0.0,0.0,0.101058460674,0.994880489067,0.296136987457,0.05,0.05,0.0,0.0,1.0,1.0,0,0,,,0
1449618008818882292,77,0,/odom,ucmd_vector,0,0,0,0.335674996552,0.111786026831,0.0,0.0,0.0,0.101058460674,0.994880489067,0.296136987457,0.05,0.05,0.0,0.0,1.0,1.0,0,0,,,0
1449618008834293872,78,0,/odom,ucmd_vector,0,0,0,0.352865517682,0.122314713201,0.0,0.0,0.0,0.106313998113,0.994332607232,0.296136987457,0.05,0.05,0.0,0.0,1.0,1.0,0,0,,,0
1449618008895511479,79,0,/odom,ucmd_vector,0,0,0,0.352865517682,0.122314713201,0.0,0.0,0.0,0.10315685643,0.994665100912,0.296136987457,0.05,0.05,0.0,0.0,1.0,1.0,0,0,,,0
1449618008907241342,80,0,/odom,ucmd_vector,0,0,0,0.374823326299,0.136084411467,0.0,0.0,0.0,0.108411226463,0.994106134161,0.296136987457,0.05,0.05,0.0,0.0,1.0,1.0,0,0,,,0
1449618008981727677,81,0,/odom,ucmd_vector,0,0,0,0.374823326299,0.136084411467,0.0,0.0,0.0,0.111566567174,0.993756962788,0.301724288712,0.05,0.05,0.0,0.0,1.0,1.0,0,0,,,0
1449618008993547154,82,0,/odom,ucmd_vector,0,0,0,0.39425985491,0.14845263101,0.0,0.0,0.0,0.111566567174,0.993756962788,0.301724288712,0.05,0.05,0.0,0.0,1.0,1.0,0,0,,,0
1449618009024748160,83,0,/odom,ucmd_vector,0,0,0,0.39425985491,0.14845263101,0.0,0.0,0.0,0.111566567174,0.993756962788,0.296136987457,0.05,0.05,0.0,0.0,1.0,1.0,0,0,,,0
1449618009071731286,84,0,/odom,ucmd_vector,0,0,0,0.406377113983,0.156230951131,0.0,0.0,0.0,0.116816021202,0.993153571806,0.296136987457,0.05,0.05,0.0,0.0,1.0,1.0,0,0,,,0
1449618009104480469,85,0,/odom,ucmd_vector,0,0,0,0.411224017612,0.159342279179,0.0,0.0,0.0,0.116816021202,0.993153571806,0.296136987457,0.05,0.05,0.0,0.0,1.0,1.0,0,0,,,0
1449618009154906803,86,0,/odom,ucmd_vector,0,0,0,0.42091782487,0.165564935277,0.0,0.0,0.0,0.116816021202,0.993153571806,0.296136987457,0.05,0.05,0.0,0.0,1.0,1.0,0,0,,,0
1449618009190324756,87,0,/odom,ucmd_vector,0,0,0,0.435458535757,0.174898919422,0.0,0.0,0.0,0.116816021202,0.993153571806,0.301724288712,0.05,0.05,0.0,0.0,1.0,1.0,0,0,,,0
1449618009260621636,88,0,/odom,ucmd_vector,0,0,0,0.440305439386,0.178010247471,0.0,0.0,0.0,0.116816021202,0.993153571806,0.301724288712,0.05,0.05,0.0,0.0,1.0,1.0,0,0,,,0
1449618009272144091,89,0,/odom,ucmd_vector,0,0,0,0.459693053902,0.190455559665,0.0,0.0,0.0,0.113662569562,0.993519411124,0.301724288712,0.05,0.05,0.0,0.0,1.0,1.0,0,0,,,0
1449618009305472198,90,0,/odom,ucmd_vector,0,0,0,0.459693053902,0.190455559665,0.0,0.0,0.0,0.113662569562,0.993519411124,0.301724288712,0.05,0.05,0.0,0.0,1.0,1.0,0,0,,,0
1449618009370049999,91,0,/odom,ucmd_vector,0,0,0,0.46938686116,0.196678215762,0.0,0.0,0.0,0.113662569562,0.993519411124,0.301724288712,0.05,0.05,0.0,0.0,1.0,1.0,0,0,,,0
1449618009383821740,92,0,/odom,ucmd_vector,0,0,0,0.488774475676,0.209123527956,0.0,0.0,0.0,0.138855440566,0.990312661045,0.251438577423,0.05,0.05,0.0,0.0,1.0,1.0,0,0,,,0
1449618009443939144,93,0,/odom,ucmd_vector,0,0,0,0.488774475676,0.209123527956,0.0,0.0,0.0,0.138855440566,0.990312661045,0.251438577423,0.05,0.05,0.0,0.0,1.0,1.0,0,0,,,0
1449618009469432584,94,0,/odom,ucmd_vector,0,0,0,0.505852771267,0.219833293273,0.0,0.0,0.0,0.108411226463,0.994106134161,0.301724288712,0.05,0.05,0.0,0.0,1.0,1.0,0,0,,,0
1449618009512762085,95,0,/odom,ucmd_vector,0,0,0,0.505852771267,0.219833293273,0.0,0.0,0.0,0.108411226463,0.994106134161,0.301724288712,0.05,0.05,0.0,0.0,1.0,1.0,0,0,,,0
1449618009598949496,96,0,/odom,ucmd_vector,0,0,0,0.518131714931,0.227353783538,0.0,0.0,0.0,0.10315685643,0.994665100912,0.301724288712,0.05,0.05,0.0,0.0,1.0,1.0,0,0,,,0
1449618009616358235,97,0,/odom,ucmd_vector,0,0,0,0.545255696652,0.243716607302,0.0,0.0,0.0,0.101058460674,0.994880489067,0.296136987457,0.05,0.05,0.0,0.0,1.0,1.0,0,0,,,0
1449618009632677510,98,0,/odom,ucmd_vector,0,0,0,0.545255696652,0.243716607302,0.0,0.0,0.0,0.101058460674,0.994880489067,0.296136987457,0.05,0.05,0.0,0.0,1.0,1.0,0,0,,,0
1449618009706353825,99,0,/odom,ucmd_vector,0,0,0,0.545255696652,0.243716607302,0.0,0.0,0.0,0.101058460674,0.994880489067,0.296136987457,0.05,0.05,0.0,0.0,1.0,1.0,0,0,,,0
1449618009717270927,100,0,/odom,ucmd_vector,0,0,0,0.565227946325,0.255199670574,0.0,0.0,0.0,0.0905390677016,0.995892904493,0.296136987457,0.05,0.05,0.0,0.0,1.0,1.0,0,0,,,0
1449618009805645796,101,0,/odom,ucmd_vector,0,0,0,0.575236877409,0.260901656774,0.0,0.0,0.0,0.0905390677016,0.995892904493,0.296136987457,0.05,0.05,0.0,0.0,1.0,1.0,0,0,,,0
1449618009814786975,102,0,/odom,ucmd_vector,0,0,0,0.595447355173,0.271960051216,0.0,0.0,0.0,0.0800095630892,0.996794095997,0.296136987457,0.05,0.05,0.0,0.0,1.0,1.0,0,0,,,0
1449618009833487477,103,0,/odom,ucmd_vector,0,0,0,0.595447355173,0.271960051216,0.0,0.0,0.0,0.0800095630892,0.996794095997,0.296136987457,0.05,0.05,0.0,0.0,1.0,1.0,0,0,,,0
1449618009861877694,104,0,/odom,ucmd_vector,0,0,0,0.595447355173,0.271960051216,0.0,0.0,0.0,0.0800095630892,0.996794095997,0.296136987457,0.05,0.05,0.0,0.0,1.0,1.0,0,0,,,0
1449618009927944041,105,0,/odom,ucmd_vector,0,0,0,0.605574559435,0.277449229835,0.0,0.0,0.0,0.0800095630892,0.996794095997,0.296136987457,0.05,0.05,0.0,0.0,1.0,1.0,0,0,,,0
1449618009946675041,106,0,/odom,ucmd_vector,0,0,0,0.626014236907,0.288078015465,0.0,0.0,0.0,0.0694711227997,0.997583962931,0.296136987457,0.05,0.05,0.0,0.0,1.0,1.0,0,0,,,0
1449618009986150799,107,0,/odom,ucmd_vector,0,0,0,0.626014236907,0.288078015465,0.0,0.0,0.0,0.066303845024,0.997799478921,0.296136987457,0.05,0.05,0.0,0.0,1.0,1.0,0,0,,,0
1449618010035966511,108,0,/odom,ucmd_vector,0,0,0,0.636255190342,0.293351934388,0.0,0.0,0.0,0.066303845024,0.997799478921,0.296136987457,0.05,0.05,0.0,0.0,1.0,1.0,0,0,,,0
1449618010065467362,109,0,/odom,ucmd_vector,0,0,0,0.643977277012,0.297225984044,0.0,0.0,0.0,0.0641989195409,0.997937121631,0.296136987457,0.05,0.05,0.0,0.0,1.0,1.0,0,0,,,0
1449618010110618160,110,0,/odom,ucmd_vector,0,0,0,0.654380261102,0.302172626348,0.0,0.0,0.0,0.0536492828127,0.998559840197,0.296136987457,0.05,0.05,0.0,0.0,1.0,1.0,0,0,,,0
1449618010198393421,111,0,/odom,ucmd_vector,0,0,0,0.664783245192,0.307119268652,0.0,0.0,0.0,0.0536492828127,0.998559840197,0.296136987457,0.05,0.05,0.0,0.0,1.0,1.0,0,0,,,0
1449618010206303824,112,0,/odom,ucmd_vector,0,0,0,0.696333231337,0.321211658517,0.0,0.0,0.0,0.0293601320283,0.999568898399,0.296136987457,0.05,0.05,0.0,0.0,1.0,1.0,0,0,,,0
1449618010235636630,113,0,/odom,ucmd_vector,0,0,0,0.696333231337,0.321211658517,0.0,0.0,0.0,0.0293601320283,0.999568898399,0.296136987457,0.05,0.05,0.0,0.0,1.0,1.0,0,0,,,0
1449618010287919721,114,0,/odom,ucmd_vector,0,0,0,0.696333231337,0.321211658517,0.0,0.0,0.0,0.0293601320283,0.999568898399,0.296136987457,0.05,0.05,0.0,0.0,1.0,1.0,0,0,,,0
1449618010301441469,115,0,/odom,ucmd_vector,0,0,0,0.714923258666,0.329006979089,0.0,0.0,0.0,0.0240780003374,0.999710082924,0.296136987457,0.05,0.05,0.0,0.0,1.0,1.0,0,0,,,0
1449618010341469642,116,0,/odom,ucmd_vector,0,0,0,0.714923258666,0.329006979089,0.0,0.0,0.0,0.0272515562902,0.999628607374,0.296136987457,0.05,0.05,0.0,0.0,1.0,1.0,0,0,,,0
1449618010414179250,117,0,/odom,ucmd_vector,0,0,0,0.7256633914,0.333171219345,0.0,0.0,0.0,0.0166861073801,0.999860777219,0.296136987457,0.05,0.05,0.0,0.0,1.0,1.0,0,0,,,0
1449618010427015576,118,0,/odom,ucmd_vector,0,0,0,0.744534586516,0.340259607621,0.0,0.0,0.0,0.0114026103363,0.999934988125,0.296136987457,0.05,0.05,0.0,0.0,1.0,1.0,0,0,,,0
1449618010473790887,119,0,/odom,ucmd_vector,0,0,0,0.744534586516,0.340259607621,0.0,0.0,0.0,0.0114026103363,0.999934988125,0.296136987457,0.05,0.05,0.0,0.0,1.0,1.0,0,0,,,0
1449618010511072310,120,0,/odom,ucmd_vector,0,0,0,0.755401323529,0.344081305508,0.0,0.0,0.0,0.000834808665665,0.999999651547,0.296136987457,0.05,0.05,0.0,0.0,1.0,1.0,0,0,,,0
1449618010590495853,121,0,/odom,ucmd_vector,0,0,0,0.769034470202,0.348714613519,0.0,0.0,0.0,-0.0044492008992,0.999990102257,0.296136987457,0.05,0.05,0.0,0.0,1.0,1.0,0,0,,,0
1449618010609462646,122,0,/odom,ucmd_vector,0,0,0,0.785470148348,0.354043251172,0.0,0.0,0.0,-0.015016699822,0.999887243006,0.301724288712,0.05,0.05,0.0,0.0,1.0,1.0,0,0,,,0
1449618010659851901,123,0,/odom,ucmd_vector,0,0,0,0.799243314363,0.358242075919,0.0,0.0,0.0,0.00827004399485,0.999965802601,0.245851276169,0.05,0.05,0.0,0.0,1.0,1.0,0,0,,,0
1449618010675127294,124,0,/odom,ucmd_vector,0,0,0,0.80753337604,0.36067389842,0.0,0.0,0.0,0.00298610948877,0.999995541565,0.245851276169,0.05,0.05,0.0,0.0,1.0,1.0,0,0,,,0
1449618010710042021,125,0,/odom,ucmd_vector,0,0,0,0.80753337604,0.36067389842,0.0,0.0,0.0,0.00298610948877,0.999995541565,0.245851276169,0.05,0.05,0.0,0.0,1.0,1.0,0,0,,,0
1449618010752667930,126,0,/odom,ucmd_vector,0,0,0,0.818652849943,0.363681995521,0.0,0.0,0.0,-0.00758186211326,0.99997125727,0.245851276169,0.05,0.05,0.0,0.0,1.0,1.0,0,0,,,0
1449618010803921480,127,0,/odom,ucmd_vector,0,0,0,0.829772323847,0.366690092622,0.0,0.0,0.0,-0.0393178273726,0.999226755272,0.301724288712,0.05,0.05,0.0,0.0,1.0,1.0,0,0,,,0
1449618010831672764,128,0,/odom,ucmd_vector,0,0,0,0.849374155281,0.371393941662,0.0,0.0,0.0,-0.0551520395286,0.998477967977,0.301724288712,0.05,0.05,0.0,0.0,1.0,1.0,0,0,,,0
1449618010869542527,129,0,/odom,ucmd_vector,0,0,0,0.849374155281,0.371393941662,0.0,0.0,0.0,-0.0519819958011,0.998648022134,0.301724288712,0.05,0.05,0.0,0.0,1.0,1.0,0,0,,,0
1449618010958250874,130,0,/odom,ucmd_vector,0,0,0,0.857801651386,0.373295570615,0.0,0.0,0.0,-0.0572581260115,0.998359407731,0.301724288712,0.05,0.05,0.0,0.0,1.0,1.0,0,0,,,0
1449618010976859511,131,0,/odom,ucmd_vector,0,0,0,0.886073259778,0.378770347071,0.0,0.0,0.0,-0.0783451874525,0.996926291961,0.301724288712,0.05,0.05,0.0,0.0,1.0,1.0,0,0,,,0
1449618011034793613,132,0,/odom,ucmd_vector,0,0,0,0.886073259778,0.378770347071,0.0,0.0,0.0,-0.053003882752,0.998594306219,0.251438577423,0.05,0.05,0.0,0.0,1.0,1.0,0,0,,,0
1449618011056840918,133,0,/odom,ucmd_vector,0,0,0,0.897448004041,0.380588736746,0.0,0.0,0.0,-0.063553919752,0.997978406221,0.251438577423,0.05,0.05,0.0,0.0,1.0,1.0,0,0,,,0
1449618011066291880,134,0,/odom,ucmd_vector,0,0,0,0.908822748304,0.38240712642,0.0,0.0,0.0,-0.0920377689423,0.995755516725,0.301724288712,0.05,0.05,0.0,0.0,1.0,1.0,0,0,,,0
1449618011138487044,135,0,/odom,ucmd_vector,0,0,0,0.908822748304,0.38240712642,0.0,0.0,0.0,-0.0920377689423,0.995755516725,0.301724288712,0.05,0.05,0.0,0.0,1.0,1.0,0,0,,,0
1449618011158039158,136,0,/odom,ucmd_vector,0,0,0,0.925938699921,0.384773501998,0.0,0.0,0.0,-0.102555626332,0.994727270918,0.301724288712,0.05,0.05,0.0,0.0,1.0,1.0,0,0,,,0
1449618011186246722,137,0,/odom,ucmd_vector,0,0,0,0.937380127146,0.386109575026,0.0,0.0,0.0,-0.113062030041,0.993587931369,0.296136987457,0.05,0.05,0.0,0.0,1.0,1.0,0,0,,,0
1449618011282144786,138,0,/odom,ucmd_vector,0,0,0,0.937380127146,0.386109575026,0.0,0.0,0.0,-0.113062030041,0.993587931369,0.296136987457,0.05,0.05,0.0,0.0,1.0,1.0,0,0,,,0
1449618011291137543,139,0,/odom,ucmd_vector,0,0,0,0.963180161765,0.388570905744,0.0,0.0,0.0,-0.125648788423,0.992074786479,0.296136987457,0.05,0.05,0.0,0.0,1.0,1.0,0,0,,,0
1449618011310494686,140,0,/odom,ucmd_vector,0,0,0,0.963180161765,0.388570905744,0.0,0.0,0.0,-0.125648788423,0.992074786479,0.296136987457,0.05,0.05,0.0,0.0,1.0,1.0,0,0,,,0
1449618011398238156,141,0,/odom,ucmd_vector,0,0,0,0.963180161765,0.388570905744,0.0,0.0,0.0,-0.125648788423,0.992074786479,0.296136987457,0.05,0.05,0.0,0.0,1.0,1.0,0,0,,,0
1449618011413715219,142,0,/odom,ucmd_vector,0,0,0,0.989065343688,0.389818070025,0.0,0.0,0.0,-0.151812625536,0.988409291098,0.296136987457,0.05,0.05,0.0,0.0,1.0,1.0,0,0,,,0
1449618011436122202,143,0,/odom,ucmd_vector,0,0,0,0.989065343688,0.389818070025,0.0,0.0,0.0,-0.151812625536,0.988409291098,0.296136987457,0.05,0.05,0.0,0.0,1.0,1.0,0,0,,,0
1449618011496242386,144,0,/odom,ucmd_vector,0,0,0,1.00058387351,0.38993980294,0.0,0.0,0.0,-0.162249511194,0.986749763677,0.296136987457,0.05,0.05,0.0,0.0,1.0,1.0,0,0,,,0
1449618011520905665,145,0,/odom,ucmd_vector,0,0,0,1.00634313841,0.390000669398,0.0,0.0,0.0,-0.162249511194,0.986749763677,0.296136987457,0.05,0.05,0.0,0.0,1.0,1.0,0,0,,,0
1449618011551174535,146,0,/odom,ucmd_vector,0,0,0,1.01786166823,0.389878936483,0.0,0.0,0.0,-0.175794321622,0.984426917798,0.301724288712,0.05,0.05,0.0,0.0,1.0,1.0,0,0,,,0
1449618011642177234,147,0,/odom,ucmd_vector,0,0,0,1.01786166823,0.389878936483,0.0,0.0,0.0,-0.175794321622,0.984426917798,0.301724288712,0.05,0.05,0.0,0.0,1.0,1.0,0,0,,,0
1449618011657877308,148,0,/odom,ucmd_vector,0,0,0,1.04663725207,0.388814096329,0.0,0.0,0.0,-0.1965604504,0.98049170794,0.301724288712,0.05,0.05,0.0,0.0,1.0,1.0,0,0,,,0
1449618011665790763,149,0,/odom,ucmd_vector,0,0,0,1.04663725207,0.388814096329,0.0,0.0,0.0,-0.193446793247,0.98111076754,0.296136987457,0.05,0.05,0.0,0.0,1.0,1.0,0,0,,,0
1449618011749270963,150,0,/odom,ucmd_vector,0,0,0,1.04663725207,0.388814096329,0.0,0.0,0.0,-0.193446793247,0.98111076754,0.296136987457,0.05,0.05,0.0,0.0,1.0,1.0,0,0,,,0
1449618011762127660,151,0,/odom,ucmd_vector,0,0,0,1.06099828463,0.387780294179,0.0,0.0,0.0,-0.208974476479,0.977921095069,0.296136987457,0.05,0.05,0.0,0.0,1.0,1.0,0,0,,,0
1449618011782857259,152,0,/odom,ucmd_vector,0,0,0,1.07245319237,0.386565207069,0.0,0.0,0.0,-0.222393549228,0.974956978159,0.296136987457,0.05,0.05,0.0,0.0,1.0,1.0,0,0,,,0
1449618011825258065,153,0,/odom,ucmd_vector,0,0,0,1.07245319237,0.386565207069,0.0,0.0,0.0,-0.222393549228,0.974956978159,0.296136987457,0.05,0.05,0.0,0.0,1.0,1.0,0,0,,,0
1449618011865973731,154,0,/odom,ucmd_vector,0,0,0,1.08387986127,0.38510829734,0.0,0.0,0.0,-0.232684331504,0.97255231318,0.296136987457,0.05,0.05,0.0,0.0,1.0,1.0,0,0,,,0
1449618011907946627,155,0,/odom,ucmd_vector,0,0,0,1.09243783708,0.383925109551,0.0,0.0,0.0,-0.237820049313,0.971309231988,0.301724288712,0.05,0.05,0.0,0.0,1.0,1.0,0,0,,,0
1449618011950155199,156,0,/odom,ucmd_vector,0,0,0,1.10098283124,0.382651548411,0.0,0.0,0.0,-0.242949126985,0.970039031017,0.301724288712,0.05,0.05,0.0,0.0,1.0,1.0,0,0,,,0
1449618012011599409,157,0,/odom,ucmd_vector,0,0,0,1.10951388944,0.381287756155,0.0,0.0,0.0,-0.244994805996,0.96952439115,0.296136987457,0.05,0.05,0.0,0.0,1.0,1.0,0,0,,,0
1449618012024470709,158,0,/odom,ucmd_vector,0,0,0,1.12649586267,0.378110792005,0.0,0.0,0.0,-0.26543052042,0.964129990629,0.296136987457,0.05,0.05,0.0,0.0,1.0,1.0,0,0,,,0
1449618012064444328,159,0,/odom,ucmd_vector,0,0,0,1.12649586267,0.378110792005,0.0,0.0,0.0,-0.268489907708,0.963282497224,0.296136987457,0.05,0.05,0.0,0.0,1.0,1.0,0,0,,,0
1449618012123458844,160,0,/odom,ucmd_vector,0,0,0,1.13773252414,0.375575286734,0.0,0.0,0.0,-0.278654741717,0.960391344671,0.296136987457,0.05,0.05,0.0,0.0,1.0,1.0,0,0,,,0
1449618012140678831,161,0,/odom,ucmd_vector,0,0,0,1.15452487724,0.371505388116,0.0,0.0,0.0,-0.288788454836,0.957392933102,0.296136987457,0.05,0.05,0.0,0.0,1.0,1.0,0,0,,,0
1449618012218864147,162,0,/odom,ucmd_vector,0,0,0,1.15452487724,0.371505388116,0.0,0.0,0.0,-0.133828241676,0.99100454173,0.346422698746,0.05,0.05,0.0,0.0,1.0,1.0,0,0,,,0
1449618012244742640,163,0,/odom,ucmd_vector,0,0,0,1.17669776671,0.365254861015,0.0,0.0,0.0,-0.154742758903,0.987954795812,0.346422698746,0.05,0.05,0.0,0.0,1.0,1.0,0,0,,,0
1449618012265835894,164,0,/odom,ucmd_vector,0,0,0,1.17945239991,0.364415096065,0.0,0.0,0.0,-0.150552663995,0.98860199037,0.346422698746,0.05,0.05,0.0,0.0,1.0,1.0,0,0,,,0
1449618012330659956,165,0,/odom,ucmd_vector,0,0,0,1.17945239991,0.364415096065,0.0,0.0,0.0,-0.150552663995,0.98860199037,0.346422698746,0.05,0.05,0.0,0.0,1.0,1.0,0,0,,,0
1449618012366661660,166,0,/odom,ucmd_vector,0,0,0,1.19857736751,0.358043930293,0.0,0.0,0.0,-0.166204482947,0.986091309083,0.346422698746,0.05,0.05,0.0,0.0,1.0,1.0,0,0,,,0
1449618012391836157,167,0,/odom,ucmd_vector,0,0,0,1.20672742027,0.355177656879,0.0,0.0,0.0,-0.168284193326,0.985738520236,0.346422698746,0.05,0.05,0.0,0.0,1.0,1.0,0,0,,,0
1449618012461046889,168,0,/odom,ucmd_vector,0,0,0,1.20672742027,0.355177656879,0.0,0.0,0.0,-0.168284193326,0.985738520236,0.346422698746,0.05,0.05,0.0,0.0,1.0,1.0,0,0,,,0
1449618012478703615,169,0,/odom,ucmd_vector,0,0,0,1.2228587233,0.348988395366,0.0,0.0,0.0,-0.185961433067,0.982557044355,0.346422698746,0.05,0.05,0.0,0.0,1.0,1.0,0,0,,,0
1449618012507876829,170,0,/odom,ucmd_vector,0,0,0,1.23084601674,0.345695672072,0.0,0.0,0.0,-0.191150668145,0.981560707276,0.346422698746,0.05,0.05,0.0,0.0,1.0,1.0,0,0,,,0
1449618012585872724,171,0,/odom,ucmd_vector,0,0,0,1.23084601674,0.345695672072,0.0,0.0,0.0,-0.191150668145,0.981560707276,0.346422698746,0.05,0.05,0.0,0.0,1.0,1.0,0,0,,,0
1449618012606835969,172,0,/odom,ucmd_vector,0,0,0,1.24927947984,0.337537021617,0.0,0.0,0.0,-0.206685772044,0.978407375092,0.346422698746,0.05,0.05,0.0,0.0,1.0,1.0,0,0,,,0
1449618012685235033,173,0,/odom,ucmd_vector,0,0,0,1.25448097188,0.335063700465,0.0,0.0,0.0,-0.207707349925,0.978191012424,0.346422698746,0.05,0.05,0.0,0.0,1.0,1.0,0,0,,,0
1449618012706983372,174,0,/odom,ucmd_vector,0,0,0,1.2699656544,0.327397423355,0.0,0.0,0.0,-0.218033129093,0.975941368433,0.346422698746,0.05,0.05,0.0,0.0,1.0,1.0,0,0,,,0
1449618012730423763,175,0,/odom,ucmd_vector,0,0,0,1.2699656544,0.327397423355,0.0,0.0,0.0,-0.168201613894,0.985752614546,0.329660794983,0.05,0.05,0.0,0.0,1.0,1.0,0,0,,,0
1449618012747085248,176,0,/odom,ucmd_vector,0,0,0,1.27764636947,0.323441984163,0.0,0.0,0.0,-0.173407982299,0.984850075735,0.329660794983,0.05,0.05,0.0,0.0,1.0,1.0,0,0,,,0
1449618012795746421,177,0,/odom,ucmd_vector,0,0,0,1.27764636947,0.323441984163,0.0,0.0,0.0,-0.173407982299,0.984850075735,0.329660794983,0.05,0.05,0.0,0.0,1.0,1.0,0,0,,,0
1449618012884274177,178,0,/odom,ucmd_vector,0,0,0,1.28528485515,0.319405597187,0.0,0.0,0.0,-0.178609509005,0.983920039075,0.329660794983,0.05,0.05,0.0,0.0,1.0,1.0,0,0,,,0
1449618012904898876,179,0,/odom,ucmd_vector,0,0,0,1.30287482697,0.309559891714,0.0,0.0,0.0,-0.166080571612,0.98611218618,0.318486192474,0.05,0.05,0.0,0.0,1.0,1.0,0,0,,,0
1449618012913222430,180,0,/odom,ucmd_vector,0,0,0,1.30287482697,0.309559891714,0.0,0.0,0.0,-0.166080571612,0.98611218618,0.324073493729,0.05,0.05,0.0,0.0,1.0,1.0,0,0,,,0
1449618012990596791,181,0,/odom,ucmd_vector,0,0,0,1.30287482697,0.309559891714,0.0,0.0,0.0,-0.166080571612,0.98611218618,0.324073493729,0.05,0.05,0.0,0.0,1.0,1.0,0,0,,,0
1449618013016425012,182,0,/odom,ucmd_vector,0,0,0,1.31534037833,0.302353318092,0.0,0.0,0.0,-0.171288869603,0.985220849937,0.324073493729,0.05,0.05,0.0,0.0,1.0,1.0,0,0,,,0
1449618013030019862,183,0,/odom,ucmd_vector,0,0,0,1.3202519558,0.299345121986,0.0,0.0,0.0,-0.181690972709,0.983355678499,0.324073493729,0.05,0.05,0.0,0.0,1.0,1.0,0,0,,,0
1449618013063947720,184,0,/odom,ucmd_vector,0,0,0,1.3202519558,0.299345121986,0.0,0.0,0.0,-0.181690972709,0.983355678499,0.324073493729,0.05,0.05,0.0,0.0,1.0,1.0,0,0,,,0
1449618013117305529,185,0,/odom,ucmd_vector,0,0,0,1.32757122533,0.294755222564,0.0,0.0,0.0,-0.186884487387,0.982381895382,0.324073493729,0.05,0.05,0.0,0.0,1.0,1.0,0,0,,,0
1449618013155473307,186,0,/odom,ucmd_vector,0,0,0,1.33245073836,0.291695289616,0.0,0.0,0.0,-0.186884487387,0.982381895382,0.324073493729,0.05,0.05,0.0,0.0,1.0,1.0,0,0,,,0
1449618013234748046,187,0,/odom,ucmd_vector,0,0,0,1.33245073836,0.291695289616,0.0,0.0,0.0,-0.190002212927,0.981783662057,0.318486192474,0.05,0.05,0.0,0.0,1.0,1.0,0,0,,,0
1449618013257571886,188,0,/odom,ucmd_vector,0,0,0,1.34948011986,0.280908431648,0.0,0.0,0.0,-0.195187305042,0.980765984295,0.318486192474,0.05,0.05,0.0,0.0,1.0,1.0,0,0,,,0
1449618013266253250,189,0,/odom,ucmd_vector,0,0,0,1.35432702348,0.277797103599,0.0,0.0,0.0,-0.192072784092,0.981380683329,0.324073493729,0.05,0.05,0.0,0.0,1.0,1.0,0,0,,,0
1449618013303727444,190,0,/odom,ucmd_vector,0,0,0,1.35432702348,0.277797103599,0.0,0.0,0.0,-0.192072784092,0.981380683329,0.324073493729,0.05,0.05,0.0,0.0,1.0,1.0,0,0,,,0
1449618013383417340,191,0,/odom,ucmd_vector,0,0,0,1.36154765286,0.273053540098,0.0,0.0,0.0,-0.197255717961,0.980352070295,0.324073493729,0.05,0.05,0.0,0.0,1.0,1.0,0,0,,,0
1449618013412609508,192,0,/odom,ucmd_vector,0,0,0,1.37598891161,0.263566413094,0.0,0.0,0.0,-0.225181457655,0.974316843295,0.329660794983,0.05,0.05,0.0,0.0,1.0,1.0,0,0,,,0
1449618013478638872,193,0,/odom,ucmd_vector,0,0,0,1.38080266453,0.260404037426,0.0,0.0,0.0,-0.225181457655,0.974316843295,0.329660794983,0.05,0.05,0.0,0.0,1.0,1.0,0,0,,,0
1449618013520975502,194,0,/odom,ucmd_vector,0,0,0,1.38561641745,0.257241661758,0.0,0.0,0.0,-0.225181457655,0.974316843295,0.329660794983,0.05,0.05,0.0,0.0,1.0,1.0,0,0,,,0
1449618013596754148,195,0,/odom,ucmd_vector,0,0,0,1.4000576762,0.247754534754,0.0,0.0,0.0,-0.225181457655,0.974316843295,0.329660794983,0.05,0.05,0.0,0.0,1.0,1.0,0,0,,,0
1449618013626595631,196,0,/odom,ucmd_vector,0,0,0,1.40722777309,0.242934929596,0.0,0.0,0.0,-0.233414686819,0.972377284791,0.335248096237,0.05,0.05,0.0,0.0,1.0,1.0,0,0,,,0
1449618013663876387,197,0,/odom,ucmd_vector,0,0,0,1.41200783768,0.239721859491,0.0,0.0,0.0,-0.230326603985,0.973113382652,0.335248096237,0.05,0.05,0.0,0.0,1.0,1.0,0,0,,,0
1449618013727773578,198,0,/odom,ucmd_vector,0,0,0,1.41678790228,0.236508789386,0.0,0.0,0.0,-0.230326603985,0.973113382652,0.335248096237,0.05,0.05,0.0,0.0,1.0,1.0,0,0,,,0
1449618013766747455,199,0,/odom,ucmd_vector,0,0,0,1.43112809605,0.226869579071,0.0,0.0,0.0,-0.230326603985,0.973113382652,0.335248096237,0.05,0.05,0.0,0.0,1.0,1.0,0,0,,,0
1449618013823162595,200,0,/odom,ucmd_vector,0,0,0,1.43590816065,0.223656508966,0.0,0.0,0.0,-0.124155588562,0.992262762492,0.301724288712,0.05,0.05,0.0,0.0,1.0,1.0,0,0,,,0
1449618013843067732,201,0,/odom,ucmd_vector,0,0,0,1.44302692428,0.218761400419,0.0,0.0,0.0,-0.129396971488,0.991592871984,0.301724288712,0.05,0.05,0.0,0.0,1.0,1.0,0,0,,,0
1449618013863385865,202,0,/odom,ucmd_vector,0,0,0,1.4477727667,0.215497994721,0.0,0.0,0.0,-0.129396971488,0.991592871984,0.301724288712,0.05,0.05,0.0,0.0,1.0,1.0,0,0,,,0
1449618013895055673,203,0,/odom,ucmd_vector,0,0,0,1.4477727667,0.215497994721,0.0,0.0,0.0,-0.129396971488,0.991592871984,0.301724288712,0.05,0.05,0.0,0.0,1.0,1.0,0,0,,,0
1449618013961277543,204,0,/odom,ucmd_vector,0,0,0,1.45251860911,0.212234589023,0.0,0.0,0.0,-0.129396971488,0.991592871984,0.301724288712,0.05,0.05,0.0,0.0,1.0,1.0,0,0,,,0
1449618014005487796,205,0,/odom,ucmd_vector,0,0,0,1.46201029395,0.205707777627,0.0,0.0,0.0,-0.129396971488,0.991592871984,0.301724288712,0.05,0.05,0.0,0.0,1.0,1.0,0,0,,,0
1449618014056787325,206,0,/odom,ucmd_vector,0,0,0,1.46436583906,0.204051089214,0.0,0.0,0.0,-0.134634741541,0.990895295362,0.301724288712,0.05,0.05,0.0,0.0,1.0,1.0,0,0,,,0
1449618014080493166,207,0,/odom,ucmd_vector,0,0,0,1.46907692928,0.200737712389,0.0,0.0,0.0,-0.159754212355,0.98715682221,0.257025878677,0.05,0.05,0.0,0.0,1.0,1.0,0,0,,,0
1449618014112190892,208,0,/odom,ucmd_vector,0,0,0,1.47378801949,0.197424335564,0.0,0.0,0.0,-0.159754212355,0.98715682221,0.257025878677,0.05,0.05,0.0,0.0,1.0,1.0,0,0,,,0
1449618014139104195,209,0,/odom,ucmd_vector,0,0,0,1.47378801949,0.197424335564,0.0,0.0,0.0,-0.137779756989,0.990462891059,0.301724288712,0.05,0.05,0.0,0.0,1.0,1.0,0,0,,,0
1449618014225678744,210,0,/odom,ucmd_vector,0,0,0,1.47378801949,0.197424335564,0.0,0.0,0.0,-0.137779756989,0.990462891059,0.301724288712,0.05,0.05,0.0,0.0,1.0,1.0,0,0,,,0
1449618014244820409,211,0,/odom,ucmd_vector,0,0,0,1.48321019993,0.190797581913,0.0,0.0,0.0,-0.137779756989,0.990462891059,0.301724288712,0.05,0.05,0.0,0.0,1.0,1.0,0,0,,,0
1449618014338264460,212,0,/odom,ucmd_vector,0,0,0,1.48321019993,0.190797581913,0.0,0.0,0.0,-0.134634741541,0.990895295362,0.296136987457,0.05,0.05,0.0,0.0,1.0,1.0,0,0,,,0
1449618014446055400,213,0,/odom,ucmd_vector,0,0,0,1.49263238036,0.184170828262,0.0,0.0,0.0,-0.134634741541,0.990895295362,0.296136987457,0.05,0.05,0.0,0.0,1.0,1.0,0,0,,,0
1449618014478814799,214,0,/odom,ucmd_vector,0,0,0,1.49971639178,0.179225748588,0.0,0.0,0.0,-0.157671528791,0.987491614652,0.251438577423,0.05,0.05,0.0,0.0,1.0,1.0,0,0,,,0
1449618014567062024,215,0,/odom,ucmd_vector,0,0,0,1.50207193689,0.177569060175,0.0,0.0,0.0,-0.134634741541,0.990895295362,0.301724288712,0.05,0.05,0.0,0.0,1.0,1.0,0,0,,,0
1449618014595529170,216,0,/odom,ucmd_vector,0,0,0,1.50919070052,0.172673951628,0.0,0.0,0.0,-0.132544227855,0.991177091978,0.301724288712,0.05,0.05,0.0,0.0,1.0,1.0,0,0,,,0
1449618014615525837,217,0,/odom,ucmd_vector,0,0,0,1.50919070052,0.172673951628,0.0,0.0,0.0,-0.132544227855,0.991177091978,0.301724288712,0.05,0.05,0.0,0.0,1.0,1.0,0,0,,,0
1449618014660347339,218,0,/odom,ucmd_vector,0,0,0,1.51393654294,0.16941054593,0.0,0.0,0.0,-0.129396971488,0.991592871984,0.301724288712,0.05,0.05,0.0,0.0,1.0,1.0,0,0,,,0
1449618014682721759,219,0,/odom,ucmd_vector,0,0,0,1.51632657524,0.167804010878,0.0,0.0,0.0,-0.124155588562,0.992262762492,0.301724288712,0.05,0.05,0.0,0.0,1.0,1.0,0,0,,,0
1449618014744170763,220,0,/odom,ucmd_vector,0,0,0,1.52354720461,0.163060447376,0.0,0.0,0.0,-0.118910739106,0.992904948182,0.301724288712,0.05,0.05,0.0,0.0,1.0,1.0,0,0,,,0
1449618014766918756,221,0,/odom,ucmd_vector,0,0,0,1.52836095753,0.159898071708,0.0,0.0,0.0,-0.122062213628,0.992522451134,0.296136987457,0.05,0.05,0.0,0.0,1.0,1.0,0,0,,,0
1449618014799317753,222,0,/odom,ucmd_vector,0,0,0,1.53317471045,0.15673569604,0.0,0.0,0.0,-0.122062213628,0.992522451134,0.296136987457,0.05,0.05,0.0,0.0,1.0,1.0,0,0,,,0
1449618014833004795,223,0,/odom,ucmd_vector,0,0,0,1.54044506589,0.152068703967,0.0,0.0,0.0,-0.116816021202,0.993153571806,0.296136987457,0.05,0.05,0.0,0.0,1.0,1.0,0,0,,,0
1449618014934125562,224,0,/odom,ucmd_vector,0,0,0,1.54044506589,0.152068703967,0.0,0.0,0.0,-0.113662569562,0.993519411124,0.301724288712,0.05,0.05,0.0,0.0,1.0,1.0,0,0,,,0
1449618015049446784,225,0,/odom,ucmd_vector,0,0,0,1.56001121465,0.139906577438,0.0,0.0,0.0,-0.10315685643,0.994665100912,0.301724288712,0.05,0.05,0.0,0.0,1.0,1.0,0,0,,,0
1449618015094996896,226,0,/odom,ucmd_vector,0,0,0,1.58483505495,0.12530937127,0.0,0.0,0.0,-0.095800101598,0.995400592995,0.301724288712,0.05,0.05,0.0,0.0,1.0,1.0,0,0,,,0
1449618015129362250,227,0,/odom,ucmd_vector,0,0,0,1.58986936991,0.122511423824,0.0,0.0,0.0,-0.0821120422755,0.996623104545,0.301724288712,0.05,0.05,0.0,0.0,1.0,1.0,0,0,,,0
1449618015182431774,228,0,/odom,ucmd_vector,0,0,0,1.60252837524,0.11564995055,0.0,0.0,0.0,-0.0800095630892,0.996794095997,0.301724288712,0.05,0.05,0.0,0.0,1.0,1.0,0,0,,,0
1449618015237026761,229,0,/odom,ucmd_vector,0,0,0,1.61016686092,0.111613563575,0.0,0.0,0.0,-0.0747413863659,0.99720295084,0.301724288712,0.05,0.05,0.0,0.0,1.0,1.0,0,0,,,0
1449618015266750220,230,0,/odom,ucmd_vector,0,0,0,1.62046297648,0.106448164034,0.0,0.0,0.0,-0.0610305471952,0.998135898718,0.301724288712,0.05,0.05,0.0,0.0,1.0,1.0,0,0,,,0
1449618015341917814,231,0,/odom,ucmd_vector,0,0,0,1.62822557232,0.102655936579,0.0,0.0,0.0,-0.0557555453418,0.998444449713,0.301724288712,0.05,0.05,0.0,0.0,1.0,1.0,0,0,,,0
1449618015384492181,232,0,/odom,ucmd_vector,0,0,0,1.64907031135,0.0928453120384,0.0,0.0,0.0,-0.0452010187346,0.99897791162,0.301724288712,0.05,0.05,0.0,0.0,1.0,1.0,0,0,,,0
1449618015431695185,233,0,/odom,ucmd_vector,0,0,0,1.65694921541,0.0893010555535,0.0,0.0,0.0,-0.206685772044,0.978407375092,0.346422698746,0.05,0.05,0.0,0.0,1.0,1.0,0,0,,,0
1449618015455532509,234,0,/odom,ucmd_vector,0,0,0,1.6675519493,0.0847984582751,0.0,0.0,0.0,-0.196334566134,0.980536964189,0.346422698746,0.05,0.05,0.0,0.0,1.0,1.0,0,0,,,0
1449618015500684543,235,0,/odom,ucmd_vector,0,0,0,1.68086410504,0.0793105861185,0.0,0.0,0.0,-0.191150668145,0.981560707276,0.346422698746,0.05,0.05,0.0,0.0,1.0,1.0,0,0,,,0
1449618015558404179,236,0,/odom,ucmd_vector,0,0,0,1.68888574948,0.0761024552293,0.0,0.0,0.0,-0.185961433067,0.982557044355,0.346422698746,0.05,0.05,0.0,0.0,1.0,1.0,0,0,,,0
1449618015616985992,237,0,/odom,ucmd_vector,0,0,0,1.70778859684,0.0690997057334,0.0,0.0,0.0,-0.173490486104,0.984835545272,0.346422698746,0.05,0.05,0.0,0.0,1.0,1.0,0,0,,,0
1449618015689440371,238,0,/odom,ucmd_vector,0,0,0,1.7159386496,0.0662334323187,0.0,0.0,0.0,-0.168284193326,0.985738520236,0.346422698746,0.05,0.05,0.0,0.0,1.0,1.0,0,0,,,0
1449618015741544256,239,0,/odom,ucmd_vector,0,0,0,1.73778060597,0.0589067385833,0.0,0.0,0.0,-0.157857657354,0.987461877753,0.346422698746,0.05,0.05,0.0,0.0,1.0,1.0,0,0,,,0
1449618015820435808,240,0,/odom,ucmd_vector,0,0,0,1.74879913878,0.0555476787851,0.0,0.0,0.0,-0.147413491427,0.989074952946,0.346422698746,0.05,0.05,0.0,0.0,1.0,1.0,0,0,,,0
1449618015889639904,241,0,/odom,ucmd_vector,0,0,0,1.76540449835,0.0507717777256,0.0,0.0,0.0,-0.136952861975,0.990577565664,0.346422698746,0.05,0.05,0.0,0.0,1.0,1.0,0,0,,,0
1449618015997438063,242,0,/odom,ucmd_vector,0,0,0,1.78494056418,0.0458020422317,0.0,0.0,0.0,-0.121233604752,0.99262400388,0.346422698746,0.05,0.05,0.0,0.0,1.0,1.0,0,0,,,0
1449618016102823683,243,0,/odom,ucmd_vector,0,0,0,1.8017612785,0.0418505270894,0.0,0.0,0.0,-0.110736931374,0.993849753247,0.35201,0.05,0.05,0.0,0.0,1.0,1.0,0,0,,,0
1449618016142975969,244,0,/odom,ucmd_vector,0,0,0,1.82997250473,0.0360774719502,0.0,0.0,0.0,-0.0897076561262,0.99596814027,0.346422698746,0.05,0.05,0.0,0.0,1.0,1.0,0,0,,,0
1449618016227273003,245,0,/odom,ucmd_vector,0,0,0,1.84130627755,0.0340190886273,0.0,0.0,0.0,-0.0897076561262,0.99596814027,0.346422698746,0.05,0.05,0.0,0.0,1.0,1.0,0,0,,,0
1449618016251242123,246,0,/odom,ucmd_vector,0,0,0,1.85553832625,0.031836383421,0.0,0.0,0.0,-0.0739088866573,0.997264998119,0.346422698746,0.05,0.05,0.0,0.0,1.0,1.0,0,0,,,0
1449618016310656734,247,0,/odom,ucmd_vector,0,0,0,1.86409630206,0.0306531956321,0.0,0.0,0.0,-0.0718050720702,0.997418684217,0.318486192474,0.05,0.05,0.0,0.0,1.0,1.0,0,0,,,0
1449618016338562299,248,0,/odom,ucmd_vector,0,0,0,1.86980161927,0.0298644037728,0.0,0.0,0.0,-0.0718050720702,0.997418684217,0.318486192474,0.05,0.05,0.0,0.0,1.0,1.0,0,0,,,0
1449618016370584251,249,0,/odom,ucmd_vector,0,0,0,1.87837162094,0.0287717214761,0.0,0.0,0.0,-0.0697009379753,0.997567932146,0.346422698746,0.05,0.05,0.0,0.0,1.0,1.0,0,0,,,0
1449618016485423679,250,0,/odom,ucmd_vector,0,0,0,1.88695269136,0.0277696667053,0.0,0.0,0.0,-0.0644288162148,0.997922305413,0.346422698746,0.05,0.05,0.0,0.0,1.0,1.0,0,0,,,0
1449618016538862920,251,0,/odom,ucmd_vector,0,0,0,1.91275272598,0.0253083359876,0.0,0.0,0.0,-0.0486022465455,0.998818212505,0.346422698746,0.05,0.05,0.0,0.0,1.0,1.0,0,0,,,0
1449618016568564562,252,0,/odom,ucmd_vector,0,0,0,1.92136847706,0.0246698090454,0.0,0.0,0.0,-0.0496661423276,0.998765875622,0.346422698746,0.05,0.05,0.0,0.0,1.0,1.0,0,0,,,0
1449618016604962951,253,0,/odom,ucmd_vector,0,0,0,1.92711231111,0.0242441244172,0.0,0.0,0.0,-0.0496661423276,0.998765875622,0.346422698746,0.05,0.05,0.0,0.0,1.0,1.0,0,0,,,0
1449618016684181878,254,0,/odom,ucmd_vector,0,0,0,1.93573432893,0.0236966831132,0.0,0.0,0.0,-0.0443879703283,0.99901436831,0.346422698746,0.05,0.05,0.0,0.0,1.0,1.0,0,0,,,0
1449618016707277395,255,0,/odom,ucmd_vector,0,0,0,1.94723887121,0.0231186896576,0.0,0.0,0.0,-0.033828055686,0.999427667542,0.296136987457,0.05,0.05,0.0,0.0,1.0,1.0,0,0,,,0
1449618016736569378,256,0,/odom,ucmd_vector,0,0,0,1.94723887121,0.0231186896576,0.0,0.0,0.0,-0.033828055686,0.999427667542,0.340835397491,0.05,0.05,0.0,0.0,1.0,1.0,0,0,,,0
1449618016843408672,257,0,/odom,ucmd_vector,0,0,0,1.95587390942,0.0228448313824,0.0,0.0,0.0,-0.0285466078848,0.999592462546,0.340835397491,0.05,0.05,0.0,0.0,1.0,1.0,0,0,,,0
1449618016888419895,258,0,/odom,ucmd_vector,0,0,0,1.97314655861,0.0224188205575,0.0,0.0,0.0,-0.0179814686305,0.999838320323,0.340835397491,0.05,0.05,0.0,0.0,1.0,1.0,0,0,,,0
1449618016953211408,259,0,/odom,ucmd_vector,0,0,0,1.99330446823,0.0222970876418,0.0,0.0,0.0,-0.00952366572892,0.999954648867,0.296136987457,0.05,0.05,0.0,0.0,1.0,1.0,0,0,,,0
1449618017099732581,260,0,/odom,ucmd_vector,0,0,0,1.99906405476,0.0222970876418,0.0,0.0,0.0,-0.0126980721652,0.999919376232,0.340835397491,0.05,0.05,0.0,0.0,1.0,1.0,0,0,,,0
1449618017132230428,261,0,/odom,ucmd_vector,0,0,0,2.0364920406,0.0230882870169,0.0,0.0,0.0,0.00315365436357,0.99999502722,0.340835397491,0.05,0.05,0.0,0.0,1.0,1.0,0,0,,,0
1449618017150606257,262,0,/odom,ucmd_vector,0,0,0,2.05087814381,0.0236967816639,0.0,0.0,0.0,0.00843758381285,0.999964402956,0.340835397491,0.05,0.05,0.0,0.0,1.0,1.0,0,0,,,0
1449618017189312510,263,0,/odom,ucmd_vector,0,0,0,2.05087814381,0.0236967816639,0.0,0.0,0.0,0.00843758381285,0.999964402956,0.340835397491,0.05,0.05,0.0,0.0,1.0,1.0,0,0,,,0
1449618017276562741,264,0,/odom,ucmd_vector,0,0,0,2.05663258509,0.0239401795227,0.0,0.0,0.0,0.00843758381285,0.999964402956,0.340835397491,0.05,0.05,0.0,0.0,1.0,1.0,0,0,,,0
1449618017281551495,265,0,/odom,ucmd_vector,0,0,0,2.08251455,0.0253090631013,0.0,0.0,0.0,0.0168955080732,0.999857260716,0.290549686203,0.05,0.05,0.0,0.0,1.0,1.0,0,0,,,0
1449618017368574521,266,0,/odom,ucmd_vector,0,0,0,2.08251455,0.0253090631013,0.0,0.0,0.0,0.0168955080732,0.999857260716,0.290549686203,0.05,0.05,0.0,0.0,1.0,1.0,0,0,,,0
1449618017382174426,267,0,/odom,ucmd_vector,0,0,0,2.11699217671,0.0276506377145,0.0,0.0,0.0,0.0274609081281,0.999622878152,0.346422698746,0.05,0.05,0.0,0.0,1.0,1.0,0,0,,,0
1449618017391953282,268,0,/odom,ucmd_vector,0,0,0,2.11699217671,0.0276506377145,0.0,0.0,0.0,0.0274609081281,0.999622878152,0.346422698746,0.05,0.05,0.0,0.0,1.0,1.0,0,0,,,0
1449618017427528133,269,0,/odom,ucmd_vector,0,0,0,2.11699217671,0.0276506377145,0.0,0.0,0.0,0.0274609081281,0.999622878152,0.346422698746,0.05,0.05,0.0,0.0,1.0,1.0,0,0,,,0
1449618017517079487,270,0,/odom,ucmd_vector,0,0,0,2.12273601076,0.0280763223427,0.0,0.0,0.0,0.0274609081281,0.999622878152,0.301724288712,0.05,0.05,0.0,0.0,1.0,1.0,0,0,,,0
1449618017533726300,271,0,/odom,ucmd_vector,0,0,0,2.14856157707,0.0302649461468,0.0,0.0,0.0,0.0327425318023,0.999463819561,0.301724288712,0.05,0.05,0.0,0.0,1.0,1.0,0,0,,,0
1449618017549579510,272,0,/odom,ucmd_vector,0,0,0,2.15716190878,0.0310854202636,0.0,0.0,0.0,0.0348507469727,0.999392528207,0.346422698746,0.05,0.05,0.0,0.0,1.0,1.0,0,0,,,0
1449618017588846317,273,0,/odom,ucmd_vector,0,0,0,2.15716190878,0.0310854202636,0.0,0.0,0.0,0.0348507469727,0.999392528207,0.346422698746,0.05,0.05,0.0,0.0,1.0,1.0,0,0,,,0
1449618017628231600,274,0,/odom,ucmd_vector,0,0,0,2.16862901773,0.0321793857526,0.0,0.0,0.0,0.0348507469727,0.999392528207,0.346422698746,0.05,0.05,0.0,0.0,1.0,1.0,0,0,,,0
1449618017680161015,275,0,/odom,ucmd_vector,0,0,0,2.18294765241,0.0336982446407,0.0,0.0,0.0,0.0401310503125,0.999194424925,0.346422698746,0.05,0.05,0.0,0.0,1.0,1.0,0,0,,,0
1449618017705117227,276,0,/odom,ucmd_vector,0,0,0,2.20297689031,0.0359758794806,0.0,0.0,0.0,0.0454102331593,0.998968423287,0.346422698746,0.05,0.05,0.0,0.0,1.0,1.0,0,0,,,0
1449618017748510425,277,0,/odom,ucmd_vector,0,0,0,2.20297689031,0.0359758794806,0.0,0.0,0.0,0.0485813278912,0.998819230181,0.346422698746,0.05,0.05,0.0,0.0,1.0,1.0,0,0,,,0
1449618017800859239,278,0,/odom,ucmd_vector,0,0,0,2.21441831753,0.0373119525083,0.0,0.0,0.0,0.0485813278912,0.998819230181,0.346422698746,0.05,0.05,0.0,0.0,1.0,1.0,0,0,,,0
1449618017832526221,279,0,/odom,ucmd_vector,0,0,0,2.23730117198,0.0399840985638,0.0,0.0,0.0,0.0485813278912,0.998819230181,0.346422698746,0.05,0.05,0.0,0.0,1.0,1.0,0,0,,,0
1449618017910939329,280,0,/odom,ucmd_vector,0,0,0,2.23730117198,0.0399840985638,0.0,0.0,0.0,0.0422386815229,0.999107548657,0.340835397491,0.05,0.05,0.0,0.0,1.0,1.0,0,0,,,0
1449618017922100602,281,0,/odom,ucmd_vector,0,0,0,2.25446331282,0.0419882081054,0.0,0.0,0.0,0.0422386815229,0.999107548657,0.340835397491,0.05,0.05,0.0,0.0,1.0,1.0,0,0,,,0
1449618017952256469,282,0,/odom,ucmd_vector,0,0,0,2.26874664894,0.0438093452666,0.0,0.0,0.0,-0.107810333264,0.994171480199,0.301724288712,0.05,0.05,0.0,0.0,1.0,1.0,0,0,,,0
1449618018030867473,283,0,/odom,ucmd_vector,0,0,0,2.26874664894,0.0438093452666,0.0,0.0,0.0,-0.107810333264,0.994171480199,0.301724288712,0.05,0.05,0.0,0.0,1.0,1.0,0,0,,,0
1449618018050053243,284,0,/odom,ucmd_vector,0,0,0,2.28588665228,0.0459947098599,0.0,0.0,0.0,-0.107810333264,0.994171480199,0.301724288712,0.05,0.05,0.0,0.0,1.0,1.0,0,0,,,0
1449618018093086374,285,0,/odom,ucmd_vector,0,0,0,2.3001499453,0.0479666895081,0.0,0.0,0.0,-0.102555626332,0.994727270918,0.301724288712,0.05,0.05,0.0,0.0,1.0,1.0,0,0,,,0
1449618018151339780,286,0,/odom,ucmd_vector,0,0,0,2.31156057971,0.0495442732267,0.0,0.0,0.0,-0.102555626332,0.994727270918,0.301724288712,0.05,0.05,0.0,0.0,1.0,1.0,0,0,,,0
1449618018217419942,287,0,/odom,ucmd_vector,0,0,0,2.32013058138,0.0506369555234,0.0,0.0,0.0,-0.107810333264,0.994171480199,0.296136987457,0.05,0.05,0.0,0.0,1.0,1.0,0,0,,,0
1449618018267189944,288,0,/odom,ucmd_vector,0,0,0,2.34580450881,0.0541865188902,0.0,0.0,0.0,-0.102555626332,0.994727270918,0.296136987457,0.05,0.05,0.0,0.0,1.0,1.0,0,0,,,0
1449618018296461829,289,0,/odom,ucmd_vector,0,0,0,2.35150982601,0.0549753107495,0.0,0.0,0.0,-0.102555626332,0.994727270918,0.296136987457,0.05,0.05,0.0,0.0,1.0,1.0,0,0,,,0
1449618018350904640,290,0,/odom,ucmd_vector,0,0,0,2.36292046043,0.0565528944681,0.0,0.0,0.0,-0.102555626332,0.994727270918,0.296136987457,0.05,0.05,0.0,0.0,1.0,1.0,0,0,,,0
1449618018371334630,291,0,/odom,ucmd_vector,0,0,0,2.37716211737,0.0586754963676,0.0,0.0,0.0,-0.0941380305681,0.995559155048,0.296136987457,0.05,0.05,0.0,0.0,1.0,1.0,0,0,,,0
1449618018452852294,292,0,/odom,ucmd_vector,0,0,0,2.38572009318,0.0598586841565,0.0,0.0,0.0,-0.0993972506895,0.99504783129,0.296136987457,0.05,0.05,0.0,0.0,1.0,1.0,0,0,,,0
1449618018541029437,293,0,/odom,ucmd_vector,0,0,0,2.4056584129,0.0628303268158,0.0,0.0,0.0,-0.0941380305681,0.995559155048,0.296136987457,0.05,0.05,0.0,0.0,1.0,1.0,0,0,,,0
1449618018575384453,294,0,/odom,ucmd_vector,0,0,0,2.42276138288,0.0652870757444,0.0,0.0,0.0,-0.0941380305681,0.995559155048,0.290549686203,0.05,0.05,0.0,0.0,1.0,1.0,0,0,,,0
1449618018626776184,295,0,/odom,ucmd_vector,0,0,0,2.42845804565,0.0661361165042,0.0,0.0,0.0,-0.0941380305681,0.995559155048,0.301724288712,0.05,0.05,0.0,0.0,1.0,1.0,0,0,,,0
1449618018659788974,296,0,/odom,ucmd_vector,0,0,0,2.43985137121,0.0678341980238,0.0,0.0,0.0,-0.0941380305681,0.995559155048,0.301724288712,0.05,0.05,0.0,0.0,1.0,1.0,0,0,,,0
1449618018696500912,297,0,/odom,ucmd_vector,0,0,0,2.45124469676,0.0695322795434,0.0,0.0,0.0,-0.0941380305681,0.995559155048,0.296136987457,0.05,0.05,0.0,0.0,1.0,1.0,0,0,,,0
1449618018731595002,298,0,/odom,ucmd_vector,0,0,0,2.45694135954,0.0703813203032,0.0,0.0,0.0,-0.0941380305681,0.995559155048,0.296136987457,0.05,0.05,0.0,0.0,1.0,1.0,0,0,,,0
1449618018807075782,299,0,/odom,ucmd_vector,0,0,0,2.46263802232,0.071230361063,0.0,0.0,0.0,-0.0688263501631,0.997628655123,0.251438577423,0.05,0.05,0.0,0.0,1.0,1.0,0,0,,,0
1449618018870371575,300,0,/odom,ucmd_vector,0,0,0,2.47972801065,0.0737774833424,0.0,0.0,0.0,-0.0688263501631,0.997628655123,0.251438577423,0.05,0.05,0.0,0.0,1.0,1.0,0,0,,,0
1449618018931811586,301,0,/odom,ucmd_vector,0,0,0,2.48542467343,0.0746265241021,0.0,0.0,0.0,-0.0941380305681,0.995559155048,0.301724288712,0.05,0.05,0.0,0.0,1.0,1.0,0,0,,,0
1449618018959109041,302,0,/odom,ucmd_vector,0,0,0,2.50250072579,0.0772638774976,0.0,0.0,0.0,-0.0941380305681,0.995559155048,0.301724288712,0.05,0.05,0.0,0.0,1.0,1.0,0,0,,,0
1449618019015386808,303,0,/odom,ucmd_vector,0,0,0,2.50819738857,0.0781129182574,0.0,0.0,0.0,-0.0972980559592,0.995255288007,0.296136987457,0.05,0.05,0.0,0.0,1.0,1.0,0,0,,,0
1449618019095268393,304,0,/odom,ucmd_vector,0,0,0,2.51389405135,0.0789619590172,0.0,0.0,0.0,-0.0972980559592,0.995255288007,0.296136987457,0.05,0.05,0.0,0.0,1.0,1.0,0,0,,,0
1449618019138969069,305,0,/odom,ucmd_vector,0,0,0,2.53098403968,0.0815090812966,0.0,0.0,0.0,-0.0972980559592,0.995255288007,0.296136987457,0.05,0.05,0.0,0.0,1.0,1.0,0,0,,,0
1449618019164377278,306,0,/odom,ucmd_vector,0,0,0,2.53954201549,0.0826922690855,0.0,0.0,0.0,-0.0993972506895,0.99504783129,0.296136987457,0.05,0.05,0.0,0.0,1.0,1.0,0,0,,,0
1449618019213608695,307,0,/odom,ucmd_vector,0,0,0,2.54808700966,0.0839658302252,0.0,0.0,0.0,-0.0941380305681,0.995559155048,0.296136987457,0.05,0.05,0.0,0.0,1.0,1.0,0,0,,,0
1449618019234037348,308,0,/odom,ucmd_vector,0,0,0,2.55378367244,0.084814870985,0.0,0.0,0.0,-0.0941380305681,0.995559155048,0.296136987457,0.05,0.05,0.0,0.0,1.0,1.0,0,0,,,0
1449618019269811106,309,0,/odom,ucmd_vector,0,0,0,2.55378367244,0.084814870985,0.0,0.0,0.0,0.0707425987328,0.997494603857,0.346422698746,0.05,0.05,0.0,0.0,1.0,1.0,0,0,,,0
1449618019303673588,310,0,/odom,ucmd_vector,0,0,0,2.56234164824,0.085998058774,0.0,0.0,0.0,0.0654708498969,0.997854482284,0.346422698746,0.05,0.05,0.0,0.0,1.0,1.0,0,0,,,0
1449618019343863925,311,0,/odom,ucmd_vector,0,0,0,2.57375228266,0.0875756424925,0.0,0.0,0.0,0.0654708498969,0.997854482284,0.346422698746,0.05,0.05,0.0,0.0,1.0,1.0,0,0,,,0
1449618019383548558,312,0,/odom,ucmd_vector,0,0,0,2.58232228433,0.0886683247892,0.0,0.0,0.0,0.126560037663,0.991958949184,0.329660794983,0.05,0.05,0.0,0.0,1.0,1.0,0,0,,,0
1449618019438910190,313,0,/odom,ucmd_vector,0,0,0,2.58803561878,0.0893967796537,0.0,0.0,0.0,0.126560037663,0.991958949184,0.329660794983,0.05,0.05,0.0,0.0,1.0,1.0,0,0,,,0
1449618019496684120,314,0,/odom,ucmd_vector,0,0,0,2.59946228768,0.0908536893826,0.0,0.0,0.0,0.229595696706,0.973286091575,0.301724288712,0.05,0.05,0.0,0.0,1.0,1.0,0,0,,,0
1449618019518578271,315,0,/odom,ucmd_vector,0,0,0,2.61948478532,0.0931918171811,0.0,0.0,0.0,0.224449647986,0.974485687693,0.301724288712,0.05,0.05,0.0,0.0,1.0,1.0,0,0,,,0
1449618019556448331,316,0,/odom,ucmd_vector,0,0,0,2.62807596612,0.094103132514,0.0,0.0,0.0,0.219297332442,0.975658075344,0.296136987457,0.05,0.05,0.0,0.0,1.0,1.0,0,0,,,0
1449618019601007352,317,0,/odom,ucmd_vector,0,0,0,2.62807596612,0.094103132514,0.0,0.0,0.0,0.219297332442,0.975658075344,0.296136987457,0.05,0.05,0.0,0.0,1.0,1.0,0,0,,,0
1449618019634556608,318,0,/odom,ucmd_vector,0,0,0,2.64814340678,0.0960175721198,0.0,0.0,0.0,0.21413889393,0.976803221794,0.296136987457,0.05,0.05,0.0,0.0,1.0,1.0,0,0,,,0
1449618019702980925,319,0,/odom,ucmd_vector,0,0,0,2.64814340678,0.0960175721198,0.0,0.0,0.0,0.21413889393,0.976803221794,0.296136987457,0.05,0.05,0.0,0.0,1.0,1.0,0,0,,,0
1449618019726354953,320,0,/odom,ucmd_vector,0,0,0,2.66821903783,0.0978410788769,0.0,0.0,0.0,0.208974476479,0.977921095069,0.296136987457,0.05,0.05,0.0,0.0,1.0,1.0,0,0,,,0
1449618019750318814,321,0,/odom,ucmd_vector,0,0,0,2.6796970673,0.0988138005676,0.0,0.0,0.0,0.21207792946,0.977252757395,0.296136987457,0.05,0.05,0.0,0.0,1.0,1.0,0,0,,,0
1449618019796147413,322,0,/odom,ucmd_vector,0,0,0,2.6796970673,0.0988138005676,0.0,0.0,0.0,0.21207792946,0.977252757395,0.296136987457,0.05,0.05,0.0,0.0,1.0,1.0,0,0,,,0
1449618019836110122,323,0,/odom,ucmd_vector,0,0,0,2.69117509677,0.0997865222584,0.0,0.0,0.0,0.21207792946,0.977252757395,0.296136987457,0.05,0.05,0.0,0.0,1.0,1.0,0,0,,,0
1449618019876604876,324,0,/odom,ucmd_vector,0,0,0,2.69979084785,0.100425049201,0.0,0.0,0.0,0.203804224283,0.979011663957,0.301724288712,0.05,0.05,0.0,0.0,1.0,1.0,0,0,,,0
1449618019911033027,325,0,/odom,ucmd_vector,0,0,0,2.71127851595,0.101276418457,0.0,0.0,0.0,0.203804224283,0.979011663957,0.301724288712,0.05,0.05,0.0,0.0,1.0,1.0,0,0,,,0
1449618019959752904,326,0,/odom,ucmd_vector,0,0,0,2.72276618406,0.102127787713,0.0,0.0,0.0,0.203804224283,0.979011663957,0.301724288712,0.05,0.05,0.0,0.0,1.0,1.0,0,0,,,0
1449618019994591760,327,0,/odom,ucmd_vector,0,0,0,2.73713203593,0.103100913645,0.0,0.0,0.0,0.201738624274,0.979439394489,0.301724288712,0.05,0.05,0.0,0.0,1.0,1.0,0,0,,,0
1449618020057225432,328,0,/odom,ucmd_vector,0,0,0,2.73713203593,0.103100913645,0.0,0.0,0.0,0.201738624274,0.979439394489,0.301724288712,0.05,0.05,0.0,0.0,1.0,1.0,0,0,,,0
1449618020084563383,329,0,/odom,ucmd_vector,0,0,0,2.75437607157,0.104195796254,0.0,0.0,0.0,0.1986282817,0.98007489801,0.301724288712,0.05,0.05,0.0,0.0,1.0,1.0,0,0,,,0
1449618020113079209,330,0,/odom,ucmd_vector,0,0,0,2.76300339321,0.10465209078,0.0,0.0,0.0,0.193446793247,0.98111076754,0.301724288712,0.05,0.05,0.0,0.0,1.0,1.0,0,0,,,0
1449618020147718660,331,0,/odom,ucmd_vector,0,0,0,2.76300339321,0.10465209078,0.0,0.0,0.0,0.1965604504,0.98049170794,0.296136987457,0.05,0.05,0.0,0.0,1.0,1.0,0,0,,,0
1449618020197612573,332,0,/odom,ucmd_vector,0,0,0,2.77450648872,0.105260483481,0.0,0.0,0.0,0.1965604504,0.98049170794,0.296136987457,0.05,0.05,0.0,0.0,1.0,1.0,0,0,,,0
1449618020229660921,333,0,/odom,ucmd_vector,0,0,0,2.78025803648,0.105564679832,0.0,0.0,0.0,0.1965604504,0.98049170794,0.296136987457,0.05,0.05,0.0,0.0,1.0,1.0,0,0,,,0
1449618020274060403,334,0,/odom,ucmd_vector,0,0,0,2.7888896984,0.10592977662,0.0,0.0,0.0,0.169519852247,0.985526772693,0.262613179932,0.05,0.05,0.0,0.0,1.0,1.0,0,0,,,0
1449618020328982533,335,0,/odom,ucmd_vector,0,0,0,2.79751702004,0.106386071147,0.0,0.0,0.0,0.1747250089,0.984617271464,0.262613179932,0.05,0.05,0.0,0.0,1.0,1.0,0,0,,,0
1449618020345547305,336,0,/odom,ucmd_vector,0,0,0,2.81190312325,0.106994565794,0.0,0.0,0.0,0.169519852247,0.985526772693,0.262613179932,0.05,0.05,0.0,0.0,1.0,1.0,0,0,,,0
1449618020415935140,337,0,/odom,ucmd_vector,0,0,0,2.81190312325,0.106994565794,0.0,0.0,0.0,0.191376788391,0.981516645231,0.301724288712,0.05,0.05,0.0,0.0,1.0,1.0,0,0,,,0
1449618020429316620,338,0,/odom,ucmd_vector,0,0,0,2.82341200582,0.107481361511,0.0,0.0,0.0,0.191376788391,0.981516645231,0.301724288712,0.05,0.05,0.0,0.0,1.0,1.0,0,0,,,0
1449618020470503197,339,0,/odom,ucmd_vector,0,0,0,2.82341200582,0.107481361511,0.0,0.0,0.0,0.188259903596,0.982119243625,0.296136987457,0.05,0.05,0.0,0.0,1.0,1.0,0,0,,,0
1449618020532278859,340,0,/odom,ucmd_vector,0,0,0,2.8291664471,0.10772475937,0.0,0.0,0.0,0.188259903596,0.982119243625,0.296136987457,0.05,0.05,0.0,0.0,1.0,1.0,0,0,,,0
1449618020555519594,341,0,/odom,ucmd_vector,0,0,0,2.84355817746,0.108181189829,0.0,0.0,0.0,0.183067757568,0.983100298107,0.296136987457,0.05,0.05,0.0,0.0,1.0,1.0,0,0,,,0
1449618020606721685,342,0,/odom,ucmd_vector,0,0,0,2.84355817746,0.108181189829,0.0,0.0,0.0,0.183067757568,0.983100298107,0.296136987457,0.05,0.05,0.0,0.0,1.0,1.0,0,0,,,0
1449618020647336616,343,0,/odom,ucmd_vector,0,0,0,2.85507156174,0.108546334196,0.0,0.0,0.0,0.183067757568,0.983100298107,0.296136987457,0.05,0.05,0.0,0.0,1.0,1.0,0,0,,,0
1449618020669929678,344,0,/odom,ucmd_vector,0,0,0,2.85507156174,0.108546334196,0.0,0.0,0.0,0.183067757568,0.983100298107,0.296136987457,0.05,0.05,0.0,0.0,1.0,1.0,0,0,,,0
1449618020718595544,345,0,/odom,ucmd_vector,0,0,0,2.86082825388,0.108728906379,0.0,0.0,0.0,0.183067757568,0.983100298107,0.296136987457,0.05,0.05,0.0,0.0,1.0,1.0,0,0,,,0
1449618020757485103,346,0,/odom,ucmd_vector,0,0,0,2.86658494602,0.108911478563,0.0,0.0,0.0,0.183067757568,0.983100298107,0.296136987457,0.05,0.05,0.0,0.0,1.0,1.0,0,0,,,0
1449618020817127344,347,0,/odom,ucmd_vector,0,0,0,2.87234163816,0.109094050746,0.0,0.0,0.0,0.18618778298,0.982514177745,0.301724288712,0.05,0.05,0.0,0.0,1.0,1.0,0,0,,,0
1449618020859667725,348,0,/odom,ucmd_vector,0,0,0,2.88385502245,0.109459195113,0.0,0.0,0.0,0.18618778298,0.982514177745,0.301724288712,0.05,0.05,0.0,0.0,1.0,1.0,0,0,,,0
1449618020881934465,349,0,/odom,ucmd_vector,0,0,0,2.88961171459,0.109641767297,0.0,0.0,0.0,0.183067757568,0.983100298107,0.296136987457,0.05,0.05,0.0,0.0,1.0,1.0,0,0,,,0
1449618020930877200,350,0,/odom,ucmd_vector,0,0,0,2.89536840673,0.10982433948,0.0,0.0,0.0,0.183067757568,0.983100298107,0.296136987457,0.05,0.05,0.0,0.0,1.0,1.0,0,0,,,0
1449618020978613940,351,0,/odom,ucmd_vector,0,0,0,2.90112509887,0.110006911663,0.0,0.0,0.0,0.18618778298,0.982514177745,0.301724288712,0.05,0.05,0.0,0.0,1.0,1.0,0,0,,,0
1449618021003176260,352,0,/odom,ucmd_vector,0,0,0,2.90688179101,0.110189483847,0.0,0.0,0.0,0.18618778298,0.982514177745,0.301724288712,0.05,0.05,0.0,0.0,1.0,1.0,0,0,,,0
