%time,field.header.seq,field.header.stamp,field.header.frame_id,field.command.linear.x,field.command.linear.y,field.command.linear.z,field.command.angular.x,field.command.angular.y,field.command.angular.z,field.goal_source
1449617998702422971,9,1449617998701799824,base_footprint,0.0,0.0,0.0,0.0,0.0,0.0,teleoperation
1449617998735652272,10,1449617998735132331,base_footprint,0.0,0.0,0.0,0.0,0.0,0.0,teleoperation
1449617998769122069,11,1449617998768465706,base_footprint,0.0,0.0,0.0,0.0,0.0,0.0,teleoperation
1449617998802269041,12,1449617998801814161,base_footprint,0.0,0.0,0.0,0.0,0.0,0.0,teleoperation
1449617998835726414,13,1449617998835157289,base_footprint,-0.0,0.0,0.0,0.0,0.0,-0.0,teleoperation
1449617998869001490,14,1449617998868463271,base_footprint,-0.0,0.0,0.0,0.0,0.0,-0.0,teleoperation
1449617998902329367,15,1449617998901798479,base_footprint,-0.0,0.0,0.0,0.0,0.0,-0.0,teleoperation
1449617998935716882,16,1449617998935162380,base_footprint,-0.0,0.0,0.0,0.0,0.0,-0.0,teleoperation
1449617998968984140,17,1449617998968465436,base_footprint,-0.0,0.0,0.0,0.0,0.0,-0.0,teleoperation
1449617999002454122,18,1449617999001800953,base_footprint,-0.0,0.0,0.0,0.0,0.0,-0.0,teleoperation
1449617999035865237,19,1449617999035145713,base_footprint,-0.0,0.0,0.0,0.0,0.0,-0.0,teleoperation
1449617999069110278,20,1449617999068485260,base_footprint,-0.0,0.0,0.0,0.0,0.0,-0.0,teleoperation
1449617999102438855,21,1449617999101797644,base_footprint,-0.0,0.0,0.0,0.0,0.0,-0.0,teleoperation
1449617999135949995,22,1449617999135175970,base_footprint,-0.0,0.0,0.0,0.0,0.0,-0.0,teleoperation
1449617999169216073,23,1449617999168464765,base_footprint,-0.0,0.0,0.0,0.0,0.0,-0.0,teleoperation
1449617999202400421,24,1449617999201797886,base_footprint,-0.0,0.0,0.0,0.0,0.0,-0.0,teleoperation
1449617999235828973,25,1449617999235160543,base_footprint,-0.0,0.0,0.0,0.0,0.0,-0.0,teleoperation
1449617999269167364,26,1449617999268465039,base_footprint,-0.0,0.0,0.0,0.0,0.0,-0.0,teleoperation
1449617999302657679,27,1449617999301931939,base_footprint,-0.0,0.0,0.0,0.0,0.0,-0.0,teleoperation
1449617999335781642,28,1449617999335147175,base_footprint,-0.0,0.0,0.0,0.0,0.0,-0.0,teleoperation
1449617999369206482,29,1449617999368475388,base_footprint,-0.0,0.0,0.0,0.0,0.0,-0.0,teleoperation
1449617999402549721,30,1449617999401812876,base_footprint,-0.0,0.0,0.0,0.0,0.0,-0.0,teleoperation
1449617999436211550,31,1449617999435133400,base_footprint,-0.0,0.0,0.0,0.0,0.0,-0.0,teleoperation
1449617999469377887,32,1449617999468486417,base_footprint,-0.0,0.0,0.0,0.0,0.0,-0.0,teleoperation
1449617999502392779,33,1449617999501802763,base_footprint,-0.0,0.0,0.0,0.0,0.0,-0.0,teleoperation
1449617999536104255,34,1449617999535148988,base_footprint,-0.0,0.0,0.0,0.0,0.0,-0.0,teleoperation
1449617999569322868,35,1449617999568477605,base_footprint,-0.0,0.0,0.0,0.0,0.0,-0.0,teleoperation
1449617999603442920,36,1449617999601806378,base_footprint,-0.0,0.0,0.0,0.0,0.0,-0.0,teleoperation
1449617999636454777,37,1449617999635135941,base_footprint,-0.0,0.0,0.0,0.0,0.0,-0.0,teleoperation
1449617999669735531,38,1449617999668472683,base_footprint,-0.0,0.0,0.0,0.0,0.0,-0.0,teleoperation
1449617999703510205,39,1449617999701916955,base_footprint,-0.0,0.0,0.0,0.0,0.0,-0.0,teleoperation
1449617999735855265,40,1449617999735132890,base_footprint,-0.0,0.0,0.0,0.0,0.0,-0.0,teleoperation
1449617999769104148,41,1449617999768467001,base_footprint,-0.0,0.0,0.0,0.0,0.0,-0.0,teleoperation
1449617999802663935,42,1449617999801799709,base_footprint,-0.0,0.0,0.0,0.0,0.0,-0.0,teleoperation
1449617999836537076,43,1449617999835135785,base_footprint,-0.0,0.0,0.0,0.0,0.0,-0.0,teleoperation
1449617999872714009,44,1449617999868498463,base_footprint,-0.0,0.0,0.0,0.0,0.0,-0.0,teleoperation
1449617999902814076,45,1449617999901809606,base_footprint,-0.0,0.0,0.0,0.0,0.0,-0.0,teleoperation
1449617999936909986,46,1449617999935143721,base_footprint,-0.0,0.0,0.0,0.0,0.0,-0.0,teleoperation
1449617999969709779,47,1449617999968475988,base_footprint,-0.0,0.0,0.0,0.0,0.0,-0.0,teleoperation
1449618000002618468,48,1449618000001757095,base_footprint,-0.0,0.0,0.0,0.0,0.0,-0.0,teleoperation
1449618000036468780,49,1449618000035146227,base_footprint,-0.0,0.0,0.0,0.0,0.0,-0.0,teleoperation
1449618000070290814,50,1449618000068483222,base_footprint,-0.0,0.0,0.0,0.0,0.0,-0.0,teleoperation
1449618000102721384,51,1449618000101804168,base_footprint,-0.0,0.0,0.0,0.0,0.0,-0.0,teleoperation
1449618000138292129,52,1449618000135160308,base_footprint,-0.0,0.0,0.0,0.0,0.0,-0.0,teleoperation
1449618000169351522,53,1449618000168478800,base_footprint,-0.0,0.0,0.0,0.0,0.0,-0.0,teleoperation
1449618000203185112,54,1449618000201816138,base_footprint,-0.0,0.0,0.0,0.0,0.0,-0.0,teleoperation
1449618000236369921,55,1449618000235158784,base_footprint,-0.0,0.0,0.0,0.0,0.0,-0.0,teleoperation
1449618000269785726,56,1449618000268493161,base_footprint,-0.0,0.0,0.0,0.0,0.0,-0.0,teleoperation
1449618000303056950,57,1449618000302089392,base_footprint,-0.0,0.0,0.0,0.0,0.0,-0.0,teleoperation
1449618000336062291,58,1449618000335139863,base_footprint,-0.0,0.0,0.0,0.0,0.0,-0.0,teleoperation
1449618000370084237,59,1449618000368483685,base_footprint,-0.0,0.0,0.0,0.0,0.0,-0.0,teleoperation
1449618000404426159,60,1449618000401887622,base_footprint,-0.0,0.0,0.0,0.0,0.0,-0.0,teleoperation
1449618000436110896,61,1449618000435144072,base_footprint,-0.0,0.0,0.0,0.0,0.0,-0.0,teleoperation
1449618000469662161,62,1449618000468476213,base_footprint,-0.0,0.0,0.0,0.0,0.0,-0.0,teleoperation
1449618000503550012,63,1449618000501826203,base_footprint,-0.0,0.0,0.0,0.0,0.0,-0.0,teleoperation
1449618000538322732,64,1449618000535153761,base_footprint,-0.0,0.0,0.0,0.0,0.0,-0.0,teleoperation
1449618000570776994,65,1449618000568475634,base_footprint,-0.0,0.0,0.0,0.0,0.0,-0.0,teleoperation
1449618000603814311,66,1449618000601809702,base_footprint,-0.0,0.0,0.0,0.0,0.0,-0.0,teleoperation
1449618000636818087,67,1449618000635144093,base_footprint,-0.0,0.0,0.0,0.0,0.0,-0.0,teleoperation
1449618000673939312,68,1449618000668485095,base_footprint,-0.0,0.0,0.0,0.0,0.0,-0.0,teleoperation
1449618000703145050,69,1449618000701809007,base_footprint,-0.0,0.0,0.0,0.0,0.0,-0.0,teleoperation
1449618000736741481,70,1449618000735152616,base_footprint,-0.0,0.0,0.0,0.0,0.0,-0.0,teleoperation
1449618000770745439,71,1449618000768479423,base_footprint,-0.0,0.0,0.0,0.0,0.0,-0.0,teleoperation
1449618000803838786,72,1449618000801822370,base_footprint,-0.0,0.0,0.0,0.0,0.0,-0.0,teleoperation
1449618000836552636,73,1449618000835144005,base_footprint,-0.0,0.0,0.0,0.0,0.0,-0.0,teleoperation
1449618000869744078,74,1449618000868477689,base_footprint,-0.0,0.0,0.0,0.0,0.0,-0.0,teleoperation
1449618000904706111,75,1449618000901818786,base_footprint,-0.0,0.0,0.0,0.0,0.0,-0.0,teleoperation
1449618000939649130,76,1449618000935150754,base_footprint,-0.0,0.0,0.0,0.0,0.0,-0.0,teleoperation
1449618000973981281,77,1449618000968477128,base_footprint,-0.0,0.0,0.0,0.0,0.0,-0.0,teleoperation
1449618001003850667,78,1449618001001818058,base_footprint,-0.0,0.0,0.0,0.0,0.0,-0.0,teleoperation
1449618001037049901,79,1449618001035156713,base_footprint,-0.0,0.0,0.0,0.0,0.0,-0.0,teleoperation
1449618001071216753,80,1449618001068483408,base_footprint,-0.0,0.0,0.0,0.0,0.0,-0.0,teleoperation
1449618001103908355,81,1449618001101822895,base_footprint,-0.0,0.0,0.0,0.0,0.0,-0.0,teleoperation
1449618001137916793,82,1449618001135247599,base_footprint,-0.0,0.0,0.0,0.0,0.0,-0.0,teleoperation
1449618001174203390,83,1449618001168479943,base_footprint,-0.0,0.0,0.0,0.0,0.0,-0.0,teleoperation
1449618001203134345,84,1449618001201965587,base_footprint,-0.0,0.0,0.0,0.0,0.0,-0.0,teleoperation
1449618001236362462,85,1449618001235135405,base_footprint,-0.0,0.0,0.0,0.0,0.0,-0.0,teleoperation
1449618001269879210,86,1449618001268524341,base_footprint,-0.0,0.0,0.0,0.0,0.0,-0.0,teleoperation
1449618001305002231,87,1449618001301811215,base_footprint,-0.0,0.0,0.0,0.0,0.0,-0.0,teleoperation
1449618001336485930,88,1449618001335140533,base_footprint,-0.0,0.0,0.0,0.0,0.0,-0.0,teleoperation
1449618001370409797,89,1449618001368472781,base_footprint,-0.0,0.0,0.0,0.0,0.0,-0.0,teleoperation
1449618001403529014,90,1449618001401806924,base_footprint,-0.0,0.0,0.0,0.0,0.0,-0.0,teleoperation
1449618001437924603,91,1449618001435145829,base_footprint,-0.0,0.0,0.0,0.0,0.0,-0.0,teleoperation
1449618001472482511,92,1449618001468482921,base_footprint,-0.0,0.0,0.0,0.0,0.0,-0.0,teleoperation
1449618001506167564,93,1449618001501806269,base_footprint,-0.0,0.0,0.0,0.0,0.0,-0.0,teleoperation
1449618001536594750,94,1449618001535159473,base_footprint,-0.0,0.0,0.0,0.0,0.0,-0.0,teleoperation
1449618001574414273,95,1449618001568486644,base_footprint,-0.0,0.0,0.0,0.0,0.0,-0.0,teleoperation
1449618001605619784,96,1449618001602186394,base_footprint,-0.0,0.0,0.0,0.0,0.0,-0.0,teleoperation
1449618001637518411,97,1449618001636524875,base_footprint,-0.0,0.0,0.0,0.0,0.0,-0.0,teleoperation
1449618001670341870,98,1449618001668490151,base_footprint,-0.0,0.0,0.0,0.0,0.0,-0.0,teleoperation
1449618001703293682,99,1449618001701805919,base_footprint,-0.0,0.0,0.0,0.0,0.0,-0.0,teleoperation
1449618001737098409,100,1449618001735147118,base_footprint,-0.0,0.0,0.0,0.0,0.0,-0.0,teleoperation
1449618001770361366,101,1449618001768491431,base_footprint,-0.0,0.0,0.0,0.0,0.0,-0.0,teleoperation
1449618001805146969,102,1449618001801803965,base_footprint,-0.0,0.0,0.0,0.0,0.0,-0.0,teleoperation
1449618001836381927,103,1449618001835136111,base_footprint,-0.0,0.0,0.0,0.0,0.0,-0.0,teleoperation
1449618001870201948,104,1449618001868527742,base_footprint,-0.0,0.0,0.0,0.0,0.0,-0.0,teleoperation
1449618001910994715,105,1449618001902224149,base_footprint,-0.0,0.0,0.0,0.0,0.0,-0.0,teleoperation
1449618001936591738,106,1449618001935148178,base_footprint,-0.0,0.0,0.0,0.0,0.0,-0.0,teleoperation
1449618001971767975,107,1449618001968480689,base_footprint,-0.0,0.0,0.0,0.0,0.0,-0.0,teleoperation
1449618002004225269,108,1449618002001817737,base_footprint,-0.0,0.0,0.0,0.0,0.0,-0.0,teleoperation
1449618002036548720,109,1449618002035149160,base_footprint,-0.0,0.0,0.0,0.0,0.0,-0.0,teleoperation
1449618002069409401,110,1449618002068469731,base_footprint,-0.0,0.0,0.0,0.0,0.0,-0.0,teleoperation
1449618002106883050,111,1449618002101808679,base_footprint,-0.0,0.0,0.0,0.0,0.0,-0.0,teleoperation
1449618002139392426,112,1449618002135243967,base_footprint,-0.0,0.0,0.0,0.0,0.0,-0.0,teleoperation
1449618002174569038,113,1449618002168506925,base_footprint,-0.0,0.0,0.0,0.0,0.0,-0.0,teleoperation
1449618002210006813,114,1449618002201824644,base_footprint,-0.0,0.0,0.0,0.0,0.0,-0.0,teleoperation
1449618002247272530,115,1449618002235152621,base_footprint,-0.0,0.0,0.0,0.0,0.0,-0.0,teleoperation
1449618002286799294,116,1449618002268478989,base_footprint,-0.0,0.0,0.0,0.0,0.0,-0.0,teleoperation
1449618002311742198,117,1449618002301814435,base_footprint,-0.0,0.0,0.0,0.0,0.0,-0.0,teleoperation
1449618002339893237,118,1449618002335144294,base_footprint,-0.0,0.0,0.0,0.0,0.0,-0.0,teleoperation
1449618002374705691,119,1449618002368471867,base_footprint,-0.0,0.0,0.0,0.0,0.0,-0.0,teleoperation
1449618002407095267,120,1449618002401817955,base_footprint,-0.0,0.0,0.0,0.0,0.0,-0.0,teleoperation
1449618002497908905,121,1449618002435467919,base_footprint,-0.0,0.0,0.0,0.0,0.0,-0.0,teleoperation
1449618002538038641,122,1449618002497545100,base_footprint,-0.0,0.0,0.0,0.0,0.0,-0.0,teleoperation
1449618002579955743,123,1449618002537587715,base_footprint,-0.0,0.0,0.0,0.0,0.0,-0.0,teleoperation
1449618002619560938,124,1449618002578825614,base_footprint,-0.0,0.0,0.0,0.0,0.0,-0.0,teleoperation
1449618002658109195,125,1449618002617453411,base_footprint,-0.0,0.0,0.0,0.0,0.0,-0.0,teleoperation
1449618002697705344,126,1449618002657473587,base_footprint,-0.0,0.0,0.0,0.0,0.0,-0.0,teleoperation
1449618002740240722,127,1449618002697248737,base_footprint,-0.0,0.0,0.0,0.0,0.0,-0.0,teleoperation
1449618002778809500,128,1449618002739316545,base_footprint,-0.0,0.0,0.0,0.0,0.0,-0.0,teleoperation
1449618002817474465,129,1449618002777989968,base_footprint,-0.0,0.0,0.0,0.0,0.0,-0.0,teleoperation
1449618002857990857,130,1449618002817142452,base_footprint,-0.0,0.0,0.0,0.0,0.0,-0.0,teleoperation
1449618002897850362,131,1449618002857485034,base_footprint,-0.0,0.0,0.0,0.0,0.0,-0.0,teleoperation
1449618002938251627,132,1449618002897417626,base_footprint,-0.0,0.0,0.0,0.0,0.0,-0.0,teleoperation
1449618002978623639,133,1449618002937731823,base_footprint,-0.0,0.0,0.0,0.0,0.0,-0.0,teleoperation
1449618003018616278,134,1449618002977811231,base_footprint,-0.0,0.0,0.0,0.0,0.0,-0.0,teleoperation
1449618003058073801,135,1449618003018291794,base_footprint,-0.0,0.0,0.0,0.0,0.0,-0.0,teleoperation
1449618003098057086,136,1449618003057565127,base_footprint,-0.0,0.0,0.0,0.0,0.0,-0.0,teleoperation
1449618003138465462,137,1449618003097609335,base_footprint,-0.0,0.0,0.0,0.0,0.0,-0.0,teleoperation
1449618003178237936,138,1449618003137918322,base_footprint,-0.0,0.0,0.0,0.0,0.0,-0.0,teleoperation
1449618003218137401,139,1449618003177237145,base_footprint,-0.0,0.0,0.0,0.0,0.0,-0.0,teleoperation
1449618003257679523,140,1449618003217436096,base_footprint,-0.0,0.0,0.0,0.0,0.0,-0.0,teleoperation
1449618003297916250,141,1449618003257121813,base_footprint,-0.0,0.0,0.0,0.0,0.0,-0.0,teleoperation
1449618003338134656,142,1449618003297652997,base_footprint,-0.0,0.0,0.0,0.0,0.0,-0.0,teleoperation
1449618003378618013,143,1449618003337569791,base_footprint,-0.0,0.0,0.0,0.0,0.0,-0.0,teleoperation
1449618003417430733,144,1449618003377837725,base_footprint,-0.0,0.0,0.0,0.0,0.0,-0.0,teleoperation
1449618003457385480,145,1449618003417202941,base_footprint,-0.0,0.0,0.0,0.0,0.0,-0.0,teleoperation
1449618003497509665,146,1449618003457142359,base_footprint,-0.0,0.0,0.0,0.0,0.0,-0.0,teleoperation
1449618003538133278,147,1449618003497253830,base_footprint,-0.0,0.0,0.0,0.0,0.0,-0.0,teleoperation
1449618003578136733,148,1449618003537562684,base_footprint,-0.0,0.0,0.0,0.0,0.0,-0.0,teleoperation
1449618003618300904,149,1449618003577472091,base_footprint,-0.0,0.0,0.0,0.0,0.0,-0.0,teleoperation
1449618003657820081,150,1449618003617420651,base_footprint,-0.0,0.0,0.0,0.0,0.0,-0.0,teleoperation
1449618003697724987,151,1449618003657363769,base_footprint,-0.0,0.0,0.0,0.0,0.0,-0.0,teleoperation
1449618003739256362,152,1449618003697259512,base_footprint,-0.0,0.0,0.0,0.0,0.0,-0.0,teleoperation
1449618003777579828,153,1449618003737900143,base_footprint,-0.0,0.0,0.0,0.0,0.0,-0.0,teleoperation
1449618003818658389,154,1449618003777062498,base_footprint,-0.0,0.0,0.0,0.0,0.0,-0.0,teleoperation
1449618003858641090,155,1449618003818052262,base_footprint,-0.0,0.0,0.0,0.0,0.0,-0.0,teleoperation
1449618003897250563,156,1449618003857846894,base_footprint,-0.0,0.0,0.0,0.0,0.0,-0.0,teleoperation
1449618003938013998,157,1449618003897009559,base_footprint,-0.0,0.0,0.0,0.0,0.0,-0.0,teleoperation
1449618003981133900,158,1449618003937334552,base_footprint,-0.0,0.0,0.0,0.0,0.0,-0.0,teleoperation
1449618004023310995,159,1449618003979918541,base_footprint,-0.0,0.0,0.0,0.0,0.0,-0.0,teleoperation
1449618004059020938,160,1449618004022867998,base_footprint,-0.0,0.0,0.0,0.0,0.0,-0.0,teleoperation
1449618004098266455,161,1449618004058231884,base_footprint,-0.0,0.0,0.0,0.0,0.0,-0.0,teleoperation
1449618004138965569,162,1449618004097274082,base_footprint,-0.0,0.0,0.0,0.0,0.0,-0.0,teleoperation
1449618004177674738,163,1449618004137722380,base_footprint,-0.0,0.0,0.0,0.0,0.0,-0.0,teleoperation
1449618004218220607,164,1449618004177388516,base_footprint,-0.0,0.0,0.0,0.0,0.0,-0.0,teleoperation
1449618004258369896,165,1449618004217840934,base_footprint,-0.0,0.0,0.0,0.0,0.0,-0.0,teleoperation
1449618004299051592,166,1449618004257429772,base_footprint,-0.0,0.0,0.0,0.0,0.0,-0.0,teleoperation
1449618004337978203,167,1449618004297790567,base_footprint,-0.0,0.0,0.0,0.0,0.0,-0.0,teleoperation
1449618004377815867,168,1449618004337676512,base_footprint,-0.0,0.0,0.0,0.0,0.0,-0.0,teleoperation
1449618004418177815,169,1449618004377238928,base_footprint,-0.0,0.0,0.0,0.0,0.0,-0.0,teleoperation
1449618004457998484,170,1449618004417822599,base_footprint,-0.0,0.0,0.0,0.0,0.0,-0.0,teleoperation
1449618004498814424,171,1449618004457640417,base_footprint,-0.0,0.0,0.0,0.0,0.0,-0.0,teleoperation
1449618004538551816,172,1449618004497917144,base_footprint,-0.0,0.0,0.0,0.0,0.0,-0.0,teleoperation
1449618004577666372,173,1449618004537742158,base_footprint,-0.0,0.0,0.0,0.0,0.0,-0.0,teleoperation
1449618004618055531,174,1449618004577271910,base_footprint,-0.0,0.0,0.0,0.0,0.0,-0.0,teleoperation
1449618004660726554,175,1449618004617690922,base_footprint,-0.0,0.0,0.0,0.0,0.0,-0.0,teleoperation
1449618004698140051,176,1449618004660585885,base_footprint,-0.0,0.0,0.0,0.0,0.0,-0.0,teleoperation
1449618004740165337,177,1449618004697485342,base_footprint,-0.0,0.0,0.0,0.0,0.0,-0.0,teleoperation
1449618004778544240,178,1449618004739246809,base_footprint,-0.0,0.0,0.0,0.0,0.0,-0.0,teleoperation
1449618004817315167,179,1449618004777692978,base_footprint,-0.0,0.0,0.0,0.0,0.0,-0.0,teleoperation
1449618004857388897,180,1449618004817140246,base_footprint,-0.0,0.0,0.0,0.0,0.0,-0.0,teleoperation
1449618004897578884,181,1449618004857304065,base_footprint,-0.0,0.0,0.0,0.0,0.0,-0.0,teleoperation
1449618004938080517,182,1449618004897512903,base_footprint,-0.0,0.0,0.0,0.0,0.0,-0.0,teleoperation
1449618004981360611,183,1449618004937657426,base_footprint,-0.0,0.0,0.0,0.0,0.0,-0.0,teleoperation
1449618005017541015,184,1449618004980943003,base_footprint,-0.0,0.0,0.0,0.0,0.0,-0.0,teleoperation
1449618005057970865,185,1449618005017242582,base_footprint,-0.0,0.0,0.0,0.0,0.0,-0.0,teleoperation
1449618005098461863,186,1449618005057784094,base_footprint,-0.0,0.0,0.0,0.0,0.0,-0.0,teleoperation
1449618005138318438,187,1449618005097199120,base_footprint,-0.0,0.0,0.0,0.0,0.0,-0.0,teleoperation
1449618005178551902,188,1449618005138183574,base_footprint,-0.0,0.0,0.0,0.0,0.0,-0.0,teleoperation
1449618005217573251,189,1449618005177897752,base_footprint,-0.0,0.0,0.0,0.0,0.0,-0.0,teleoperation
1449618005258411815,190,1449618005217117818,base_footprint,-0.0,0.0,0.0,0.0,0.0,-0.0,teleoperation
1449618005300063135,191,1449618005257487785,base_footprint,-0.0,0.0,0.0,0.0,0.0,-0.0,teleoperation
1449618005339316345,192,1449618005297669301,base_footprint,-0.0,0.0,0.0,0.0,0.0,-0.0,teleoperation
1449618005379081346,193,1449618005338573437,base_footprint,-0.0,0.0,0.0,0.0,0.0,-0.0,teleoperation
1449618005417554785,194,1449618005378201180,base_footprint,-0.0,0.0,0.0,0.0,0.0,-0.0,teleoperation
1449618005457420253,195,1449618005417366569,base_footprint,-0.0,0.0,0.0,0.0,0.0,-0.0,teleoperation
1449618005498533052,196,1449618005457320926,base_footprint,-0.0,0.0,0.0,0.0,0.0,-0.0,teleoperation
1449618005537305505,197,1449618005497427987,base_footprint,-0.0,0.0,0.0,0.0,0.0,-0.0,teleoperation
1449618005578158801,198,1449618005537213198,base_footprint,-0.0,0.0,0.0,0.0,0.0,-0.0,teleoperation
1449618005618526296,199,1449618005577404662,base_footprint,-0.0,0.0,0.0,0.0,0.0,-0.0,teleoperation
1449618005657932441,200,1449618005617661558,base_footprint,0.245841276169,0.0,0.0,0.0,0.0,0.0,teleoperation
1449618005707427939,201,1449618005657463145,base_footprint,0.245841276169,0.0,0.0,0.0,0.0,0.0,teleoperation
1449618005744812536,202,1449618005706855976,base_footprint,0.346412698746,0.0,0.0,0.0,0.0,0.0,teleoperation
1449618005784336041,203,1449618005744461957,base_footprint,0.346412698746,0.0,0.0,0.0,0.0,0.0,teleoperation
1449618005846099735,204,1449618005783567653,base_footprint,0.189968263626,0.0,0.0,0.0,0.0,0.0,teleoperation
1449618005862487659,205,1449618005845627296,base_footprint,0.189968263626,0.0,0.0,0.0,0.0,0.0,teleoperation
1449618005903169661,206,1449618005879041023,base_footprint,0.189968263626,0.0,0.0,0.0,0.0,0.0,teleoperation
1449618006010474816,207,1449618005912366439,base_footprint,0.189968263626,0.0,0.0,0.0,0.0,0.0,teleoperation
1449618006024110815,208,1449618006009375992,base_footprint,0.189968263626,0.0,0.0,0.0,0.0,0.0,teleoperation
1449618006065602986,209,1449618006042780478,base_footprint,0.189968263626,0.0,0.0,0.0,0.0,0.0,teleoperation
1449618006131451782,210,1449618006076130956,base_footprint,0.189968263626,0.0,0.0,0.0,0.0,0.0,teleoperation
1449618006147608896,211,1449618006130999552,base_footprint,0.346412698746,0.0,0.0,0.0,0.0,0.0,teleoperation
1449618006189603096,212,1449618006145138517,base_footprint,0.346412698746,0.0,0.0,0.0,0.0,0.0,teleoperation
1449618006270060154,213,1449618006188497982,base_footprint,0.346412698746,0.0,0.0,0.0,0.0,0.0,teleoperation
1449618006279517528,214,1449618006268530711,base_footprint,0.346412698746,0.0,0.0,0.0,0.0,0.0,teleoperation
1449618006384695883,215,1449618006301924182,base_footprint,0.352,0.0,0.0,0.0,0.0,0.0,teleoperation
1449618006392677689,216,1449618006384134897,base_footprint,0.346412698746,0.0,0.0,0.0,0.0,0.0,teleoperation
1449618006475376893,217,1449618006417531530,base_footprint,0.346412698746,0.0,0.0,0.0,0.0,0.0,teleoperation
1449618006490722332,218,1449618006474843743,base_footprint,0.346412698746,0.0,0.0,0.0,0.0,0.0,teleoperation
1449618006504967202,219,1449618006489159730,base_footprint,0.335238096237,0.0,0.0,0.0,0.0,0.120634925365,teleoperation
1449618006548592256,220,1449618006522257176,base_footprint,0.335238096237,0.0,0.0,0.0,0.0,0.120634925365,teleoperation
1449618006646113056,221,1449618006551205304,base_footprint,0.335238096237,0.0,0.0,0.0,0.0,0.120634925365,teleoperation
1449618006654935331,222,1449618006637579322,base_footprint,0.301714288712,0.0,0.0,0.0,0.0,0.336507940292,teleoperation
1449618006721328747,223,1449618006670977862,base_footprint,0.301714288712,0.0,0.0,0.0,0.0,0.336507940292,teleoperation
1449618006748224407,224,1449618006721013410,base_footprint,0.251428577423,0.0,0.0,0.0,0.0,0.285714292526,teleoperation
1449618006777328494,225,1449618006747853344,base_footprint,0.251428577423,0.0,0.0,0.0,0.0,0.285714292526,teleoperation
1449618006816563568,226,1449618006776918772,base_footprint,0.251428577423,0.0,0.0,0.0,0.0,0.285714292526,teleoperation
1449618006833380147,227,1449618006814951430,base_footprint,0.296126987457,0.0,0.0,0.0,0.0,0.336507940292,teleoperation
1449618006914432116,228,1449618006837600515,base_footprint,0.296126987457,0.0,0.0,0.0,0.0,0.336507940292,teleoperation
1449618006925656133,229,1449618006914123072,base_footprint,0.296126987457,0.0,0.0,0.0,0.0,0.342857146263,teleoperation
1449618006954390710,230,1449618006947532671,base_footprint,0.296126987457,0.0,0.0,0.0,0.0,0.342857146263,teleoperation
1449618006992408431,231,1449618006980975652,base_footprint,0.296126987457,0.0,0.0,0.0,0.0,0.342857146263,teleoperation
1449618007079832389,232,1449618007014186813,base_footprint,0.301714288712,0.0,0.0,0.0,0.0,0.336507940292,teleoperation
1449618007106501522,233,1449618007076054654,base_footprint,0.301714288712,0.0,0.0,0.0,0.0,0.336507940292,teleoperation
1449618007121326439,234,1449618007105082036,base_footprint,0.301714288712,0.0,0.0,0.0,0.0,0.342857146263,teleoperation
1449618007150632590,235,1449618007121027737,base_footprint,0.301714288712,0.0,0.0,0.0,0.0,0.342857146263,teleoperation
1449618007203610227,236,1449618007150118383,base_footprint,0.301714288712,0.0,0.0,0.0,0.0,0.342857146263,teleoperation
1449618007229145043,237,1449618007202863373,base_footprint,0.296126987457,0.0,0.0,0.0,0.0,0.336507940292,teleoperation
1449618007276456886,238,1449618007228683758,base_footprint,0.296126987457,0.0,0.0,0.0,0.0,0.336507940292,teleoperation
1449618007314867547,239,1449618007276100888,base_footprint,0.296126987457,0.0,0.0,0.0,0.0,0.336507940292,teleoperation
1449618007344260471,240,1449618007314183678,base_footprint,0.301714288712,0.0,0.0,0.0,0.0,0.342857146263,teleoperation
1449618007384431463,241,1449618007347599340,base_footprint,0.301714288712,0.0,0.0,0.0,0.0,0.342857146263,teleoperation
1449618007462971748,242,1449618007384053336,base_footprint,0.296126987457,0.0,0.0,0.0,0.0,0.342857146263,teleoperation
1449618007471660117,243,1449618007462613495,base_footprint,0.296126987457,0.0,0.0,0.0,0.0,0.342857146263,teleoperation
1449618007508199736,244,1449618007496003424,base_footprint,0.296126987457,0.0,0.0,0.0,0.0,0.342857146263,teleoperation
1449618007560680533,245,1449618007529377639,base_footprint,0.335238096237,0.0,0.0,0.0,0.0,0.0761904776096,teleoperation
1449618007586433632,246,1449618007562668931,base_footprint,0.335238096237,0.0,0.0,0.0,0.0,0.0761904776096,teleoperation
1449618007628920587,247,1449618007596003372,base_footprint,0.301714288712,0.0,0.0,0.0,0.0,0.00634920671582,teleoperation
1449618007675752665,248,1449618007629340113,base_footprint,0.301714288712,0.0,0.0,0.0,0.0,0.00634920671582,teleoperation
1449618007717005320,249,1449618007675300921,base_footprint,0.301714288712,0.0,0.0,0.0,0.0,0.00634920671582,teleoperation
1449618007742890782,250,1449618007716421873,base_footprint,0.346412698746,0.0,0.0,0.0,0.0,0.0,teleoperation
1449618007785064343,251,1449618007742637599,base_footprint,0.346412698746,0.0,0.0,0.0,0.0,0.0,teleoperation
1449618007848368597,252,1449618007783160580,base_footprint,0.346412698746,0.0,0.0,0.0,0.0,-0.00634920671582,teleoperation
1449618007866381407,253,1449618007847863162,base_footprint,0.346412698746,0.0,0.0,0.0,0.0,-0.00634920671582,teleoperation
1449618007904506046,254,1449618007881287676,base_footprint,0.346412698746,0.0,0.0,0.0,0.0,-0.00634920671582,teleoperation
1449618007947781630,255,1449618007914605068,base_footprint,0.346412698746,0.0,0.0,0.0,0.0,-0.00634920671582,teleoperation
1449618008031330485,256,1449618007948330169,base_footprint,0.346412698746,0.0,0.0,0.0,0.0,-0.00634920671582,teleoperation
1449618008038125133,257,1449618008028321558,base_footprint,0.346412698746,0.0,0.0,0.0,0.0,-0.0126984134316,teleoperation
1449618008073481418,258,1449618008061718625,base_footprint,0.346412698746,0.0,0.0,0.0,0.0,-0.0126984134316,teleoperation
1449618008109431999,259,1449618008095057031,base_footprint,0.346412698746,0.0,0.0,0.0,0.0,-0.0126984134316,teleoperation
1449618008145978681,260,1449618008128381142,base_footprint,0.340825397491,0.0,0.0,0.0,0.0,-0.0126984134316,teleoperation
1449618008197485179,261,1449618008161718951,base_footprint,0.340825397491,0.0,0.0,0.0,0.0,-0.0126984134316,teleoperation
1449618008237775571,262,1449618008196444155,base_footprint,0.340825397491,0.0,0.0,0.0,0.0,-0.0190476194024,teleoperation
1449618008291009209,263,1449618008237498396,base_footprint,0.340825397491,0.0,0.0,0.0,0.0,-0.0190476194024,teleoperation
1449618008312592139,264,1449618008289640178,base_footprint,0.340825397491,0.0,0.0,0.0,0.0,-0.0317460328341,teleoperation
1449618008347265237,265,1449618008312307578,base_footprint,0.340825397491,0.0,0.0,0.0,0.0,-0.0317460328341,teleoperation
1449618008410615391,266,1449618008347009108,base_footprint,0.340825397491,0.0,0.0,0.0,0.0,-0.0317460328341,teleoperation
1449618008428500787,267,1449618008409929933,base_footprint,0.318476192474,0.0,0.0,0.0,0.0,-0.184126985073,teleoperation
1449618008466867696,268,1449618008443421415,base_footprint,0.318476192474,0.0,0.0,0.0,0.0,-0.184126985073,teleoperation
1449618008548450100,269,1449618008476675415,base_footprint,0.318476192474,0.0,0.0,0.0,0.0,-0.184126985073,teleoperation
1449618008559274250,270,1449618008545772253,base_footprint,0.296126987457,0.0,0.0,0.0,0.0,-0.342857146263,teleoperation
1449618008595061725,271,1449618008579606527,base_footprint,0.296126987457,0.0,0.0,0.0,0.0,-0.342857146263,teleoperation
1449618008625397013,272,1449618008612518482,base_footprint,0.296126987457,0.0,0.0,0.0,0.0,-0.342857146263,teleoperation
1449618008699751243,273,1449618008645892092,base_footprint,0.296126987457,0.0,0.0,0.0,0.0,-0.342857146263,teleoperation
1449618008723233181,274,1449618008699358825,base_footprint,0.296126987457,0.0,0.0,0.0,0.0,-0.336507940292,teleoperation
1449618008747759102,275,1449618008718121205,base_footprint,0.296126987457,0.0,0.0,0.0,0.0,-0.336507940292,teleoperation
1449618008818342784,276,1449618008746580569,base_footprint,0.296126987457,0.0,0.0,0.0,0.0,-0.336507940292,teleoperation
1449618008834694969,277,1449618008817977357,base_footprint,0.296126987457,0.0,0.0,0.0,0.0,-0.342857146263,teleoperation
1449618008894062839,278,1449618008851385398,base_footprint,0.296126987457,0.0,0.0,0.0,0.0,-0.342857146263,teleoperation
1449618008907610433,279,1449618008893487717,base_footprint,0.301714288712,0.0,0.0,0.0,0.0,-0.336507940292,teleoperation
1449618008981580590,280,1449618008918042302,base_footprint,0.301714288712,0.0,0.0,0.0,0.0,-0.336507940292,teleoperation
1449618008993477078,281,1449618008979712865,base_footprint,0.296126987457,0.0,0.0,0.0,0.0,-0.336507940292,teleoperation
1449618009024991918,282,1449618008992906155,base_footprint,0.296126987457,0.0,0.0,0.0,0.0,-0.336507940292,teleoperation
1449618009071639036,283,1449618009024589493,base_footprint,0.296126987457,0.0,0.0,0.0,0.0,-0.336507940292,teleoperation
1449618009105652384,284,1449618009070194462,base_footprint,0.296126987457,0.0,0.0,0.0,0.0,-0.336507940292,teleoperation
1449618009154891384,285,1449618009104864021,base_footprint,0.301714288712,0.0,0.0,0.0,0.0,-0.336507940292,teleoperation
1449618009193684065,286,1449618009154406078,base_footprint,0.301714288712,0.0,0.0,0.0,0.0,-0.336507940292,teleoperation
1449618009263054109,287,1449618009191779524,base_footprint,0.301714288712,0.0,0.0,0.0,0.0,-0.342857146263,teleoperation
1449618009272130160,288,1449618009260746229,base_footprint,0.301714288712,0.0,0.0,0.0,0.0,-0.342857146263,teleoperation
1449618009305941895,289,1449618009294137515,base_footprint,0.301714288712,0.0,0.0,0.0,0.0,-0.342857146263,teleoperation
1449618009369935646,290,1449618009327535100,base_footprint,0.251428577423,0.0,0.0,0.0,0.0,-0.292063498497,teleoperation
1449618009384171328,291,1449618009368243877,base_footprint,0.251428577423,0.0,0.0,0.0,0.0,-0.292063498497,teleoperation
1449618009444656200,292,1449618009395372713,base_footprint,0.301714288712,0.0,0.0,0.0,0.0,-0.342857146263,teleoperation
1449618009469424767,293,1449618009444237368,base_footprint,0.301714288712,0.0,0.0,0.0,0.0,-0.342857146263,teleoperation
1449618009513972301,294,1449618009469080885,base_footprint,0.301714288712,0.0,0.0,0.0,0.0,-0.342857146263,teleoperation
1449618009598916904,295,1449618009513378400,base_footprint,0.296126987457,0.0,0.0,0.0,0.0,-0.336507940292,teleoperation
1449618009616510249,296,1449618009598514264,base_footprint,0.296126987457,0.0,0.0,0.0,0.0,-0.336507940292,teleoperation
1449618009706329316,297,1449618009631915591,base_footprint,0.296126987457,0.0,0.0,0.0,0.0,-0.336507940292,teleoperation
1449618009717256272,298,1449618009704985790,base_footprint,0.296126987457,0.0,0.0,0.0,0.0,-0.336507940292,teleoperation
1449618009805902446,299,1449618009738760472,base_footprint,0.296126987457,0.0,0.0,0.0,0.0,-0.336507940292,teleoperation
1449618009815051898,300,1449618009805781382,base_footprint,0.296126987457,0.0,0.0,0.0,0.0,-0.336507940292,teleoperation
1449618009861919272,301,1449618009839181942,base_footprint,0.296126987457,0.0,0.0,0.0,0.0,-0.336507940292,teleoperation
1449618009929849627,302,1449618009873864152,base_footprint,0.296126987457,0.0,0.0,0.0,0.0,-0.336507940292,teleoperation
1449618009946647535,303,1449618009928612424,base_footprint,0.296126987457,0.0,0.0,0.0,0.0,-0.342857146263,teleoperation
1449618009987159749,304,1449618009946360634,base_footprint,0.296126987457,0.0,0.0,0.0,0.0,-0.342857146263,teleoperation
1449618010040881506,305,1449618009985663866,base_footprint,0.296126987457,0.0,0.0,0.0,0.0,-0.336507940292,teleoperation
1449618010067482953,306,1449618010038521195,base_footprint,0.296126987457,0.0,0.0,0.0,0.0,-0.336507940292,teleoperation
1449618010110935393,307,1449618010065518147,base_footprint,0.296126987457,0.0,0.0,0.0,0.0,-0.336507940292,teleoperation
1449618010199278247,308,1449618010110286910,base_footprint,0.296126987457,0.0,0.0,0.0,0.0,-0.342857146263,teleoperation
1449618010206234614,309,1449618010198542702,base_footprint,0.296126987457,0.0,0.0,0.0,0.0,-0.342857146263,teleoperation
1449618010288052127,310,1449618010231973903,base_footprint,0.296126987457,0.0,0.0,0.0,0.0,-0.342857146263,teleoperation
1449618010301636695,311,1449618010287709197,base_footprint,0.296126987457,0.0,0.0,0.0,0.0,-0.336507940292,teleoperation
1449618010341776591,312,1449618010301352277,base_footprint,0.296126987457,0.0,0.0,0.0,0.0,-0.336507940292,teleoperation
1449618010414497904,313,1449618010341559607,base_footprint,0.296126987457,0.0,0.0,0.0,0.0,-0.336507940292,teleoperation
1449618010426960450,314,1449618010413813964,base_footprint,0.296126987457,0.0,0.0,0.0,0.0,-0.336507940292,teleoperation
1449618010473359653,315,1449618010447211291,base_footprint,0.296126987457,0.0,0.0,0.0,0.0,-0.336507940292,teleoperation
1449618010511583184,316,1449618010480541169,base_footprint,0.296126987457,0.0,0.0,0.0,0.0,-0.336507940292,teleoperation
1449618010590462790,317,1449618010514503339,base_footprint,0.301714288712,0.0,0.0,0.0,0.0,-0.336507940292,teleoperation
1449618010609415391,318,1449618010589848552,base_footprint,0.245841276169,0.0,0.0,0.0,0.0,-0.279365086555,teleoperation
1449618010660301172,319,1449618010623212496,base_footprint,0.245841276169,0.0,0.0,0.0,0.0,-0.279365086555,teleoperation
1449618010675094119,320,1449618010660196937,base_footprint,0.245841276169,0.0,0.0,0.0,0.0,-0.279365086555,teleoperation
1449618010710406258,321,1449618010689911393,base_footprint,0.245841276169,0.0,0.0,0.0,0.0,-0.279365086555,teleoperation
1449618010752524327,322,1449618010723261273,base_footprint,0.301714288712,0.0,0.0,0.0,0.0,-0.342857146263,teleoperation
1449618010810509254,323,1449618010756582321,base_footprint,0.301714288712,0.0,0.0,0.0,0.0,-0.342857146263,teleoperation
1449618010831868785,324,1449618010804758182,base_footprint,0.301714288712,0.0,0.0,0.0,0.0,-0.336507940292,teleoperation
1449618010869435517,325,1449618010831234860,base_footprint,0.301714288712,0.0,0.0,0.0,0.0,-0.336507940292,teleoperation
1449618010959140938,326,1449618010868418162,base_footprint,0.301714288712,0.0,0.0,0.0,0.0,-0.336507940292,teleoperation
1449618010976590584,327,1449618010958727312,base_footprint,0.251428577423,0.0,0.0,0.0,0.0,-0.285714292526,teleoperation
1449618011037157376,328,1449618010992137904,base_footprint,0.251428577423,0.0,0.0,0.0,0.0,-0.285714292526,teleoperation
1449618011056829742,329,1449618011035482088,base_footprint,0.301714288712,0.0,0.0,0.0,0.0,-0.342857146263,teleoperation
1449618011066267472,330,1449618011058791041,base_footprint,0.301714288712,0.0,0.0,0.0,0.0,-0.342857146263,teleoperation
1449618011139076896,331,1449618011092126995,base_footprint,0.301714288712,0.0,0.0,0.0,0.0,-0.342857146263,teleoperation
1449618011158273235,332,1449618011137622836,base_footprint,0.296126987457,0.0,0.0,0.0,0.0,-0.342857146263,teleoperation
1449618011186217531,333,1449618011158789370,base_footprint,0.296126987457,0.0,0.0,0.0,0.0,-0.342857146263,teleoperation
1449618011282051381,334,1449618011192322781,base_footprint,0.296126987457,0.0,0.0,0.0,0.0,-0.336507940292,teleoperation
1449618011291722417,335,1449618011281204345,base_footprint,0.296126987457,0.0,0.0,0.0,0.0,-0.336507940292,teleoperation
1449618011398066264,336,1449618011314591948,base_footprint,0.296126987457,0.0,0.0,0.0,0.0,-0.336507940292,teleoperation
1449618011413625548,337,1449618011396538961,base_footprint,0.296126987457,0.0,0.0,0.0,0.0,-0.336507940292,teleoperation
1449618011496559649,338,1449618011429935661,base_footprint,0.296126987457,0.0,0.0,0.0,0.0,-0.336507940292,teleoperation
1449618011521068777,339,1449618011496305578,base_footprint,0.301714288712,0.0,0.0,0.0,0.0,-0.342857146263,teleoperation
1449618011551061816,340,1449618011520542815,base_footprint,0.301714288712,0.0,0.0,0.0,0.0,-0.342857146263,teleoperation
1449618011642843136,341,1449618011549273115,base_footprint,0.301714288712,0.0,0.0,0.0,0.0,-0.342857146263,teleoperation
1449618011657806144,342,1449618011642542561,base_footprint,0.296126987457,0.0,0.0,0.0,0.0,-0.336507940292,teleoperation
1449618011750556180,343,1449618011675958756,base_footprint,0.296126987457,0.0,0.0,0.0,0.0,-0.336507940292,teleoperation
1449618011762037020,344,1449618011750385286,base_footprint,0.296126987457,0.0,0.0,0.0,0.0,-0.342857146263,teleoperation
1449618011825744542,345,1449618011783789178,base_footprint,0.296126987457,0.0,0.0,0.0,0.0,-0.342857146263,teleoperation
1449618011866366695,346,1449618011825366850,base_footprint,0.301714288712,0.0,0.0,0.0,0.0,-0.342857146263,teleoperation
1449618011907937483,347,1449618011865925007,base_footprint,0.301714288712,0.0,0.0,0.0,0.0,-0.342857146263,teleoperation
1449618011950143720,348,1449618011907134719,base_footprint,0.296126987457,0.0,0.0,0.0,0.0,-0.336507940292,teleoperation
1449618012014249536,349,1449618011949669658,base_footprint,0.296126987457,0.0,0.0,0.0,0.0,-0.336507940292,teleoperation
1449618012024460564,350,1449618012012686339,base_footprint,0.296126987457,0.0,0.0,0.0,0.0,-0.342857146263,teleoperation
1449618012064420482,351,1449618012046082675,base_footprint,0.296126987457,0.0,0.0,0.0,0.0,-0.342857146263,teleoperation
1449618012122760622,352,1449618012079414023,base_footprint,0.296126987457,0.0,0.0,0.0,0.0,-0.342857146263,teleoperation
1449618012140941514,353,1449618012122117583,base_footprint,0.346412698746,0.0,0.0,0.0,0.0,-0.0253968268633,teleoperation
1449618012220187848,354,1449618012148363274,base_footprint,0.346412698746,0.0,0.0,0.0,0.0,-0.0253968268633,teleoperation
1449618012245142498,355,1449618012219674001,base_footprint,0.346412698746,0.0,0.0,0.0,0.0,-0.00634920671582,teleoperation
1449618012265653748,356,1449618012253068341,base_footprint,0.346412698746,0.0,0.0,0.0,0.0,-0.00634920671582,teleoperation
1449618012330900491,357,1449618012287622252,base_footprint,0.346412698746,0.0,0.0,0.0,0.0,-0.00634920671582,teleoperation
1449618012366643835,358,1449618012330738731,base_footprint,0.346412698746,0.0,0.0,0.0,0.0,0.0,teleoperation
1449618012391771520,359,1449618012362539455,base_footprint,0.346412698746,0.0,0.0,0.0,0.0,0.0,teleoperation
1449618012460968081,360,1449618012391125735,base_footprint,0.346412698746,0.0,0.0,0.0,0.0,0.00634920671582,teleoperation
1449618012478688450,361,1449618012460304886,base_footprint,0.346412698746,0.0,0.0,0.0,0.0,0.00634920671582,teleoperation
1449618012507734000,362,1449618012493702819,base_footprint,0.346412698746,0.0,0.0,0.0,0.0,0.00634920671582,teleoperation
1449618012586448720,363,1449618012527037241,base_footprint,0.346412698746,0.0,0.0,0.0,0.0,0.00634920671582,teleoperation
1449618012606737510,364,1449618012586181435,base_footprint,0.346412698746,0.0,0.0,0.0,0.0,0.0253968268633,teleoperation
1449618012687815108,365,1449618012605633698,base_footprint,0.346412698746,0.0,0.0,0.0,0.0,0.0253968268633,teleoperation
1449618012706945451,366,1449618012686472876,base_footprint,0.329650794983,0.0,0.0,0.0,0.0,0.126984131336,teleoperation
1449618012730544646,367,1449618012719889737,base_footprint,0.329650794983,0.0,0.0,0.0,0.0,0.126984131336,teleoperation
1449618012795691086,368,1449618012753197467,base_footprint,0.329650794983,0.0,0.0,0.0,0.0,0.126984131336,teleoperation
1449618012885595984,369,1449618012795201481,base_footprint,0.318476192474,0.0,0.0,0.0,0.0,0.184126985073,teleoperation
1449618012904871871,370,1449618012884525222,base_footprint,0.324063493729,0.0,0.0,0.0,0.0,0.184126985073,teleoperation
1449618012989466676,371,1449618012917922005,base_footprint,0.324063493729,0.0,0.0,0.0,0.0,0.184126985073,teleoperation
1449618013016409002,372,1449618012986247430,base_footprint,0.324063493729,0.0,0.0,0.0,0.0,0.184126985073,teleoperation
1449618013030495346,373,1449618013019644957,base_footprint,0.324063493729,0.0,0.0,0.0,0.0,0.184126985073,teleoperation
1449618013064180422,374,1449618013052978332,base_footprint,0.324063493729,0.0,0.0,0.0,0.0,0.184126985073,teleoperation
1449618013118152118,375,1449618013086320267,base_footprint,0.324063493729,0.0,0.0,0.0,0.0,0.184126985073,teleoperation
1449618013156425174,376,1449618013119800887,base_footprint,0.318476192474,0.0,0.0,0.0,0.0,0.177777779102,teleoperation
1449618013236507391,377,1449618013155904539,base_footprint,0.318476192474,0.0,0.0,0.0,0.0,0.177777779102,teleoperation
1449618013257519494,378,1449618013234989193,base_footprint,0.324063493729,0.0,0.0,0.0,0.0,0.184126985073,teleoperation
1449618013303875170,379,1449618013268485783,base_footprint,0.324063493729,0.0,0.0,0.0,0.0,0.184126985073,teleoperation
1449618013385672052,380,1449618013303663130,base_footprint,0.329650794983,0.0,0.0,0.0,0.0,0.126984131336,teleoperation
1449618013412535986,381,1449618013384915507,base_footprint,0.329650794983,0.0,0.0,0.0,0.0,0.126984131336,teleoperation
1449618013477501451,382,1449618013418308214,base_footprint,0.329650794983,0.0,0.0,0.0,0.0,0.126984131336,teleoperation
1449618013520912639,383,1449618013476976394,base_footprint,0.329650794983,0.0,0.0,0.0,0.0,0.126984131336,teleoperation
1449618013597456163,384,1449618013520536056,base_footprint,0.335238096237,0.0,0.0,0.0,0.0,0.120634925365,teleoperation
1449618013626504559,385,1449618013596924224,base_footprint,0.335238096237,0.0,0.0,0.0,0.0,0.126984131336,teleoperation
1449618013663846478,386,1449618013630330105,base_footprint,0.335238096237,0.0,0.0,0.0,0.0,0.126984131336,teleoperation
1449618013728668169,387,1449618013663650690,base_footprint,0.335238096237,0.0,0.0,0.0,0.0,0.126984131336,teleoperation
1449618013768868949,388,1449618013728021071,base_footprint,0.301714288712,0.0,0.0,0.0,0.0,0.342857146263,teleoperation
1449618013823143874,389,1449618013767953749,base_footprint,0.301714288712,0.0,0.0,0.0,0.0,0.342857146263,teleoperation
1449618013843058150,390,1449618013822576390,base_footprint,0.301714288712,0.0,0.0,0.0,0.0,0.342857146263,teleoperation
1449618013863363789,391,1449618013842175750,base_footprint,0.301714288712,0.0,0.0,0.0,0.0,0.342857146263,teleoperation
1449618013895019260,392,1449618013868060355,base_footprint,0.301714288712,0.0,0.0,0.0,0.0,0.342857146263,teleoperation
1449618013961846226,393,1449618013903269786,base_footprint,0.301714288712,0.0,0.0,0.0,0.0,0.342857146263,teleoperation
1449618014008382078,394,1449618013960552052,base_footprint,0.301714288712,0.0,0.0,0.0,0.0,0.342857146263,teleoperation
1449618014058894251,395,1449618014007432475,base_footprint,0.257015878677,0.0,0.0,0.0,0.0,0.292063498497,teleoperation
1449618014080480448,396,1449618014056756436,base_footprint,0.257015878677,0.0,0.0,0.0,0.0,0.292063498497,teleoperation
1449618014112293755,397,1449618014080004242,base_footprint,0.301714288712,0.0,0.0,0.0,0.0,0.336507940292,teleoperation
1449618014139068551,398,1449618014112111491,base_footprint,0.301714288712,0.0,0.0,0.0,0.0,0.336507940292,teleoperation
1449618014225638537,399,1449618014140827266,base_footprint,0.301714288712,0.0,0.0,0.0,0.0,0.336507940292,teleoperation
1449618014244680042,400,1449618014225366771,base_footprint,0.296126987457,0.0,0.0,0.0,0.0,0.342857146263,teleoperation
1449618014340040649,401,1449618014258767184,base_footprint,0.296126987457,0.0,0.0,0.0,0.0,0.342857146263,teleoperation
1449618014446753200,402,1449618014339504039,base_footprint,0.251428577423,0.0,0.0,0.0,0.0,0.285714292526,teleoperation
1449618014478705863,403,1449618014445954282,base_footprint,0.301714288712,0.0,0.0,0.0,0.0,0.342857146263,teleoperation
1449618014567025536,404,1449618014479361607,base_footprint,0.301714288712,0.0,0.0,0.0,0.0,0.336507940292,teleoperation
1449618014595111490,405,1449618014566068861,base_footprint,0.301714288712,0.0,0.0,0.0,0.0,0.336507940292,teleoperation
1449618014615499324,406,1449618014601414711,base_footprint,0.301714288712,0.0,0.0,0.0,0.0,0.342857146263,teleoperation
1449618014660333868,407,1449618014632796883,base_footprint,0.301714288712,0.0,0.0,0.0,0.0,0.342857146263,teleoperation
1449618014682703241,408,1449618014666096520,base_footprint,0.301714288712,0.0,0.0,0.0,0.0,0.342857146263,teleoperation
1449618014744845871,409,1449618014699596404,base_footprint,0.296126987457,0.0,0.0,0.0,0.0,0.336507940292,teleoperation
1449618014767059558,410,1449618014744289786,base_footprint,0.296126987457,0.0,0.0,0.0,0.0,0.336507940292,teleoperation
1449618014799814006,411,1449618014766839518,base_footprint,0.296126987457,0.0,0.0,0.0,0.0,0.336507940292,teleoperation
1449618014832971429,412,1449618014799445875,base_footprint,0.301714288712,0.0,0.0,0.0,0.0,0.342857146263,teleoperation
1449618014934370006,413,1449618014832830111,base_footprint,0.301714288712,0.0,0.0,0.0,0.0,0.342857146263,teleoperation
1449618015049041069,414,1449618014933726106,base_footprint,0.301714288712,0.0,0.0,0.0,0.0,0.336507940292,teleoperation
1449618015094918516,415,1449618015048393701,base_footprint,0.301714288712,0.0,0.0,0.0,0.0,0.342857146263,teleoperation
1449618015129241305,416,1449618015091031196,base_footprint,0.301714288712,0.0,0.0,0.0,0.0,0.336507940292,teleoperation
1449618015189264255,417,1449618015128708981,base_footprint,0.301714288712,0.0,0.0,0.0,0.0,0.336507940292,teleoperation
1449618015236980305,418,1449618015183964366,base_footprint,0.301714288712,0.0,0.0,0.0,0.0,0.342857146263,teleoperation
1449618015265801561,419,1449618015235587962,base_footprint,0.301714288712,0.0,0.0,0.0,0.0,0.342857146263,teleoperation
1449618015342002667,420,1449618015258869101,base_footprint,0.301714288712,0.0,0.0,0.0,0.0,0.342857146263,teleoperation
1449618015384468168,421,1449618015341648021,base_footprint,0.346412698746,0.0,0.0,0.0,0.0,0.00634920671582,teleoperation
1449618015431870065,422,1449618015383834015,base_footprint,0.346412698746,0.0,0.0,0.0,0.0,0.00634920671582,teleoperation
1449618015455527283,423,1449618015431530566,base_footprint,0.346412698746,0.0,0.0,0.0,0.0,0.00634920671582,teleoperation
1449618015500574730,424,1449618015454501229,base_footprint,0.346412698746,0.0,0.0,0.0,0.0,0.00634920671582,teleoperation
1449618015558385426,425,1449618015499417361,base_footprint,0.346412698746,0.0,0.0,0.0,0.0,0.0,teleoperation
1449618015616897139,426,1449618015557925558,base_footprint,0.346412698746,0.0,0.0,0.0,0.0,0.0,teleoperation
1449618015689404108,427,1449618015616394600,base_footprint,0.346412698746,0.0,0.0,0.0,0.0,0.0,teleoperation
1449618015741525221,428,1449618015687062605,base_footprint,0.346412698746,0.0,0.0,0.0,0.0,0.0,teleoperation
1449618015825657775,429,1449618015739671642,base_footprint,0.346412698746,0.0,0.0,0.0,0.0,0.0,teleoperation
1449618015889615991,430,1449618015821234159,base_footprint,0.346412698746,0.0,0.0,0.0,0.0,0.0,teleoperation
1449618015997424000,431,1449618015888969640,base_footprint,0.352,0.0,0.0,0.0,0.0,0.0,teleoperation
1449618016102732842,432,1449618015996643943,base_footprint,0.346412698746,0.0,0.0,0.0,0.0,0.0,teleoperation
1449618016143688065,433,1449618016100104782,base_footprint,0.346412698746,0.0,0.0,0.0,0.0,0.0,teleoperation
1449618016227528213,434,1449618016143049521,base_footprint,0.346412698746,0.0,0.0,0.0,0.0,0.0,teleoperation
1449618016251671622,435,1449618016225611933,base_footprint,0.318476192474,0.0,0.0,0.0,0.0,-0.00634920671582,teleoperation
1449618016310204198,436,1449618016259133167,base_footprint,0.318476192474,0.0,0.0,0.0,0.0,-0.00634920671582,teleoperation
1449618016339001382,437,1449618016307609525,base_footprint,0.346412698746,0.0,0.0,0.0,0.0,-0.0126984134316,teleoperation
1449618016370936800,438,1449618016337824054,base_footprint,0.346412698746,0.0,0.0,0.0,0.0,-0.0126984134316,teleoperation
1449618016486525267,439,1449618016370677880,base_footprint,0.346412698746,0.0,0.0,0.0,0.0,-0.0126984134316,teleoperation
1449618016538628221,440,1449618016486248126,base_footprint,0.346412698746,0.0,0.0,0.0,0.0,-0.0253968268633,teleoperation
1449618016568720452,441,1449618016537729031,base_footprint,0.346412698746,0.0,0.0,0.0,0.0,-0.0253968268633,teleoperation
1449618016604939214,442,1449618016568585092,base_footprint,0.346412698746,0.0,0.0,0.0,0.0,-0.0253968268633,teleoperation
1449618016684151673,443,1449618016604230730,base_footprint,0.296126987457,0.0,0.0,0.0,0.0,-0.0253968268633,teleoperation
1449618016708064219,444,1449618016683309902,base_footprint,0.340825397491,0.0,0.0,0.0,0.0,-0.0253968268633,teleoperation
1449618016736311456,445,1449618016716708642,base_footprint,0.340825397491,0.0,0.0,0.0,0.0,-0.0253968268633,teleoperation
1449618016841863338,446,1449618016755685947,base_footprint,0.340825397491,0.0,0.0,0.0,0.0,-0.0253968268633,teleoperation
1449618016888298884,447,1449618016839451992,base_footprint,0.296126987457,0.0,0.0,0.0,0.0,-0.0190476194024,teleoperation
1449618016953152887,448,1449618016887531518,base_footprint,0.340825397491,0.0,0.0,0.0,0.0,-0.0253968268633,teleoperation
1449618017100373039,449,1449618016949250766,base_footprint,0.340825397491,0.0,0.0,0.0,0.0,-0.0253968268633,teleoperation
1449618017132803496,450,1449618017099654299,base_footprint,0.340825397491,0.0,0.0,0.0,0.0,-0.0253968268633,teleoperation
1449618017150501139,451,1449618017133062283,base_footprint,0.340825397491,0.0,0.0,0.0,0.0,-0.0253968268633,teleoperation
1449618017189637930,452,1449618017166881235,base_footprint,0.340825397491,0.0,0.0,0.0,0.0,-0.0253968268633,teleoperation
1449618017274609951,453,1449618017199725683,base_footprint,0.290539686203,0.0,0.0,0.0,0.0,-0.0190476194024,teleoperation
1449618017281151641,454,1449618017264685363,base_footprint,0.290539686203,0.0,0.0,0.0,0.0,-0.0190476194024,teleoperation
1449618017368556836,455,1449618017279091813,base_footprint,0.346412698746,0.0,0.0,0.0,0.0,-0.0190476194024,teleoperation
1449618017385399559,456,1449618017367734178,base_footprint,0.346412698746,0.0,0.0,0.0,0.0,-0.0190476194024,teleoperation
1449618017429572788,457,1449618017401127939,base_footprint,0.301714288712,0.0,0.0,0.0,0.0,-0.0190476194024,teleoperation
1449618017517040329,458,1449618017434491958,base_footprint,0.301714288712,0.0,0.0,0.0,0.0,-0.0190476194024,teleoperation
1449618017533677719,459,1449618017516420382,base_footprint,0.346412698746,0.0,0.0,0.0,0.0,-0.0253968268633,teleoperation
1449618017588828849,460,1449618017549916261,base_footprint,0.346412698746,0.0,0.0,0.0,0.0,-0.0253968268633,teleoperation
1449618017628221599,461,1449618017588385771,base_footprint,0.346412698746,0.0,0.0,0.0,0.0,-0.0253968268633,teleoperation
1449618017680440833,462,1449618017627649881,base_footprint,0.346412698746,0.0,0.0,0.0,0.0,-0.0253968268633,teleoperation
1449618017706179646,463,1449618017679945762,base_footprint,0.346412698746,0.0,0.0,0.0,0.0,-0.0190476194024,teleoperation
1449618017748735635,464,1449618017705176703,base_footprint,0.346412698746,0.0,0.0,0.0,0.0,-0.0190476194024,teleoperation
1449618017799569918,465,1449618017748541325,base_footprint,0.346412698746,0.0,0.0,0.0,0.0,-0.0190476194024,teleoperation
1449618017833401998,466,1449618017798333328,base_footprint,0.340825397491,0.0,0.0,0.0,0.0,-0.0317460328341,teleoperation
1449618017912509181,467,1449618017832722793,base_footprint,0.340825397491,0.0,0.0,0.0,0.0,-0.0317460328341,teleoperation
1449618017922390857,468,1449618017911167519,base_footprint,0.301714288712,0.0,0.0,0.0,0.0,-0.342857146263,teleoperation
1449618017952565117,469,1449618017944561252,base_footprint,0.301714288712,0.0,0.0,0.0,0.0,-0.342857146263,teleoperation
1449618018030846809,470,1449618017981455281,base_footprint,0.301714288712,0.0,0.0,0.0,0.0,-0.342857146263,teleoperation
1449618018050986293,471,1449618018030321119,base_footprint,0.301714288712,0.0,0.0,0.0,0.0,-0.342857146263,teleoperation
1449618018092080270,472,1449618018050011275,base_footprint,0.301714288712,0.0,0.0,0.0,0.0,-0.342857146263,teleoperation
1449618018152144153,473,1449618018091837356,base_footprint,0.296126987457,0.0,0.0,0.0,0.0,-0.342857146263,teleoperation
1449618018217219957,474,1449618018151952760,base_footprint,0.296126987457,0.0,0.0,0.0,0.0,-0.342857146263,teleoperation
1449618018266672402,475,1449618018217107888,base_footprint,0.296126987457,0.0,0.0,0.0,0.0,-0.342857146263,teleoperation
1449618018296254995,476,1449618018264405790,base_footprint,0.296126987457,0.0,0.0,0.0,0.0,-0.342857146263,teleoperation
1449618018350744831,477,1449618018298098000,base_footprint,0.296126987457,0.0,0.0,0.0,0.0,-0.336507940292,teleoperation
1449618018371318639,478,1449618018349203029,base_footprint,0.296126987457,0.0,0.0,0.0,0.0,-0.336507940292,teleoperation
1449618018453612626,479,1449618018369647020,base_footprint,0.296126987457,0.0,0.0,0.0,0.0,-0.336507940292,teleoperation
1449618018535666502,480,1449618018452844370,base_footprint,0.290539686203,0.0,0.0,0.0,0.0,-0.336507940292,teleoperation
1449618018575316357,481,1449618018524090353,base_footprint,0.301714288712,0.0,0.0,0.0,0.0,-0.336507940292,teleoperation
1449618018626760165,482,1449618018574912573,base_footprint,0.301714288712,0.0,0.0,0.0,0.0,-0.336507940292,teleoperation
1449618018659724132,483,1449618018626377405,base_footprint,0.296126987457,0.0,0.0,0.0,0.0,-0.336507940292,teleoperation
1449618018697491492,484,1449618018660050645,base_footprint,0.296126987457,0.0,0.0,0.0,0.0,-0.336507940292,teleoperation
1449618018733924949,485,1449618018696923907,base_footprint,0.251428577423,0.0,0.0,0.0,0.0,-0.285714292526,teleoperation
1449618018808301012,486,1449618018732332138,base_footprint,0.251428577423,0.0,0.0,0.0,0.0,-0.285714292526,teleoperation
1449618018870072197,487,1449618018807229957,base_footprint,0.301714288712,0.0,0.0,0.0,0.0,-0.336507940292,teleoperation
1449618018931975543,488,1449618018869828749,base_footprint,0.301714288712,0.0,0.0,0.0,0.0,-0.336507940292,teleoperation
1449618018959564129,489,1449618018931765685,base_footprint,0.296126987457,0.0,0.0,0.0,0.0,-0.342857146263,teleoperation
1449618019015369865,490,1449618018965158046,base_footprint,0.296126987457,0.0,0.0,0.0,0.0,-0.342857146263,teleoperation
1449618019095243655,491,1449618019015116397,base_footprint,0.296126987457,0.0,0.0,0.0,0.0,-0.342857146263,teleoperation
1449618019139411284,492,1449618019094925478,base_footprint,0.296126987457,0.0,0.0,0.0,0.0,-0.336507940292,teleoperation
1449618019164271443,493,1449618019138826396,base_footprint,0.296126987457,0.0,0.0,0.0,0.0,-0.336507940292,teleoperation
1449618019214468790,494,1449618019164046178,base_footprint,0.296126987457,0.0,0.0,0.0,0.0,-0.336507940292,teleoperation
1449618019233922587,495,1449618019213693055,base_footprint,0.346412698746,0.0,0.0,0.0,0.0,-0.00634920671582,teleoperation
1449618019270262736,496,1449618019232958340,base_footprint,0.346412698746,0.0,0.0,0.0,0.0,-0.00634920671582,teleoperation
1449618019303470854,497,1449618019269904621,base_footprint,0.346412698746,0.0,0.0,0.0,0.0,-0.00634920671582,teleoperation
1449618019344221402,498,1449618019303063524,base_footprint,0.329650794983,0.0,0.0,0.0,0.0,0.126984131336,teleoperation
1449618019384089632,499,1449618019343864930,base_footprint,0.329650794983,0.0,0.0,0.0,0.0,0.126984131336,teleoperation
1449618019438685406,500,1449618019383574506,base_footprint,0.301714288712,0.0,0.0,0.0,0.0,0.336507940292,teleoperation
1449618019496652872,501,1449618019436997605,base_footprint,0.301714288712,0.0,0.0,0.0,0.0,0.336507940292,teleoperation
1449618019521389188,502,1449618019495904572,base_footprint,0.296126987457,0.0,0.0,0.0,0.0,0.336507940292,teleoperation
1449618019558441089,503,1449618019518586958,base_footprint,0.296126987457,0.0,0.0,0.0,0.0,0.336507940292,teleoperation
1449618019601199952,504,1449618019556662191,base_footprint,0.296126987457,0.0,0.0,0.0,0.0,0.336507940292,teleoperation
1449618019634703629,505,1449618019600996855,base_footprint,0.296126987457,0.0,0.0,0.0,0.0,0.336507940292,teleoperation
1449618019702712381,506,1449618019634553044,base_footprint,0.296126987457,0.0,0.0,0.0,0.0,0.336507940292,teleoperation
1449618019726342215,507,1449618019695199918,base_footprint,0.296126987457,0.0,0.0,0.0,0.0,0.342857146263,teleoperation
1449618019747941751,508,1449618019731828346,base_footprint,0.296126987457,0.0,0.0,0.0,0.0,0.342857146263,teleoperation
1449618019797566474,509,1449618019762131563,base_footprint,0.296126987457,0.0,0.0,0.0,0.0,0.342857146263,teleoperation
1449618019835526033,510,1449618019796515895,base_footprint,0.301714288712,0.0,0.0,0.0,0.0,0.336507940292,teleoperation
1449618019876588295,511,1449618019830430280,base_footprint,0.301714288712,0.0,0.0,0.0,0.0,0.336507940292,teleoperation
1449618019912011425,512,1449618019876431727,base_footprint,0.301714288712,0.0,0.0,0.0,0.0,0.336507940292,teleoperation
1449618019960366522,513,1449618019911598043,base_footprint,0.301714288712,0.0,0.0,0.0,0.0,0.342857146263,teleoperation
1449618019994572004,514,1449618019960084042,base_footprint,0.301714288712,0.0,0.0,0.0,0.0,0.342857146263,teleoperation
1449618020057801054,515,1449618019994099817,base_footprint,0.301714288712,0.0,0.0,0.0,0.0,0.336507940292,teleoperation
1449618020084488856,516,1449618020057363199,base_footprint,0.301714288712,0.0,0.0,0.0,0.0,0.336507940292,teleoperation
1449618020113522619,517,1449618020090762649,base_footprint,0.296126987457,0.0,0.0,0.0,0.0,0.342857146263,teleoperation
1449618020148036618,518,1449618020124110788,base_footprint,0.296126987457,0.0,0.0,0.0,0.0,0.342857146263,teleoperation
1449618020197838935,519,1449618020157433362,base_footprint,0.296126987457,0.0,0.0,0.0,0.0,0.342857146263,teleoperation
1449618020230003227,520,1449618020197525499,base_footprint,0.262603179932,0.0,0.0,0.0,0.0,0.298412704468,teleoperation
1449618020273667067,521,1449618020229657975,base_footprint,0.262603179932,0.0,0.0,0.0,0.0,0.298412704468,teleoperation
1449618020328955137,522,1449618020273512080,base_footprint,0.262603179932,0.0,0.0,0.0,0.0,0.298412704468,teleoperation
1449618020345669816,523,1449618020328277072,base_footprint,0.301714288712,0.0,0.0,0.0,0.0,0.342857146263,teleoperation
1449618020415920756,524,1449618020361671358,base_footprint,0.301714288712,0.0,0.0,0.0,0.0,0.342857146263,teleoperation
1449618020429135826,525,1449618020414907678,base_footprint,0.296126987457,0.0,0.0,0.0,0.0,0.336507940292,teleoperation
1449618020471008718,526,1449618020428853561,base_footprint,0.296126987457,0.0,0.0,0.0,0.0,0.336507940292,teleoperation
1449618020532762804,527,1449618020470680869,base_footprint,0.296126987457,0.0,0.0,0.0,0.0,0.336507940292,teleoperation
1449618020555449253,528,1449618020532309472,base_footprint,0.296126987457,0.0,0.0,0.0,0.0,0.336507940292,teleoperation
1449618020606695324,529,1449618020565702200,base_footprint,0.296126987457,0.0,0.0,0.0,0.0,0.336507940292,teleoperation
1449618020642526485,530,1449618020606452410,base_footprint,0.296126987457,0.0,0.0,0.0,0.0,0.336507940292,teleoperation
1449618020670360712,531,1449618020634223727,base_footprint,0.296126987457,0.0,0.0,0.0,0.0,0.336507940292,teleoperation
1449618020718584663,532,1449618020669521070,base_footprint,0.296126987457,0.0,0.0,0.0,0.0,0.336507940292,teleoperation
1449618020756382047,533,1449618020718197363,base_footprint,0.301714288712,0.0,0.0,0.0,0.0,0.342857146263,teleoperation
1449618020817526186,534,1449618020753813795,base_footprint,0.301714288712,0.0,0.0,0.0,0.0,0.342857146263,teleoperation
1449618020859995988,535,1449618020817326454,base_footprint,0.296126987457,0.0,0.0,0.0,0.0,0.336507940292,teleoperation
1449618020882856600,536,1449618020859645112,base_footprint,0.296126987457,0.0,0.0,0.0,0.0,0.336507940292,teleoperation
1449618020931360224,537,1449618020884053336,base_footprint,0.301714288712,0.0,0.0,0.0,0.0,0.342857146263,teleoperation
1449618020979560531,538,1449618020930507206,base_footprint,0.301714288712,0.0,0.0,0.0,0.0,0.342857146263,teleoperation
1449618021003282309,539,1449618020979299943,base_footprint,0.296126987457,0.0,0.0,0.0,0.0,0.342857146263,teleoperation
1449618021035588594,540,1449618021002991061,base_footprint,0.296126987457,0.0,0.0,0.0,0.0,0.342857146263,teleoperation
1449618021076635554,541,1449618021035231019,base_footprint,0.296126987457,0.0,0.0,0.0,0.0,0.342857146263,teleoperation
1449618021140103401,542,1449618021076359458,base_footprint,0.296126987457,0.0,0.0,0.0,0.0,0.342857146263,teleoperation
1449618021160690870,543,1449618021137881714,base_footprint,0.301714288712,0.0,0.0,0.0,0.0,0.342857146263,teleoperation
1449618021189825419,544,1449618021171270610,base_footprint,0.301714288712,0.0,0.0,0.0,0.0,0.342857146263,teleoperation
