%time,field.header.seq,field.header.stamp,field.header.frame_id,field.ns,field.id,field.type,field.action,field.pose.position.x,field.pose.position.y,field.pose.position.z,field.pose.orientation.x,field.pose.orientation.y,field.pose.orientation.z,field.pose.orientation.w,field.scale.x,field.scale.y,field.scale.z,field.color.r,field.color.g,field.color.b,field.color.a,field.lifetime,field.frame_locked,field.text,field.mesh_resource,field.mesh_use_embedded_materials
1449618002522982549,2,1449618002521847107,/odom,ga,1,0,0,nan,nan,0.0,nan,nan,nan,nan,0.25,0.15,0.0,1.0,0.0,0.0,1.0,2000000000,0,,,0
1449618002522989007,3,1449618002522113238,/odom,ga,2,2,0,nan,nan,0.0,0.0,0.0,0.0,0.0,0.15,0.15,0.01,0.0,1.0,0.0,1.0,2000000000,0,,,0
1449618002558933255,4,1449618002558182110,/odom,ga,1,0,0,0.0,0.0,0.0,0.0,0.0,0.0,1.0,0.25,0.15,0.0,1.0,0.0,0.0,1.0,2000000000,0,,,0
1449618002559876480,5,1449618002558943204,/odom,ga,2,2,0,0.0,0.0,0.0,0.0,0.0,0.0,0.0,0.15,0.15,0.01,0.0,1.0,0.0,1.0,2000000000,0,,,0
1449618002691131463,6,1449618002690295414,/odom,ga,1,0,0,0.0,0.0,0.0,0.0,0.0,0.0,1.0,0.25,0.15,0.0,1.0,0.0,0.0,1.0,2000000000,0,,,0
1449618002691138305,7,1449618002690581295,/odom,ga,2,2,0,0.0,0.0,0.0,0.0,0.0,0.0,0.0,0.15,0.15,0.01,0.0,1.0,0.0,1.0,2000000000,0,,,0
1449618002722011826,8,1449618002721325654,/odom,ga,1,0,0,0.0,0.0,0.0,0.0,0.0,0.0,1.0,0.25,0.15,0.0,1.0,0.0,0.0,1.0,2000000000,0,,,0
1449618002722014856,9,1449618002721613179,/odom,ga,2,2,0,0.0,0.0,0.0,0.0,0.0,0.0,0.0,0.15,0.15,0.01,0.0,1.0,0.0,1.0,2000000000,0,,,0
1449618002879901472,10,1449618002878992430,/odom,ga,1,0,0,0.0,0.0,0.0,0.0,0.0,0.0,1.0,0.25,0.15,0.0,1.0,0.0,0.0,1.0,2000000000,0,,,0
1449618002880433593,11,1449618002879222276,/odom,ga,2,2,0,0.0,0.0,0.0,0.0,0.0,0.0,0.0,0.15,0.15,0.01,0.0,1.0,0.0,1.0,2000000000,0,,,0
1449618002928109735,12,1449618002927305111,/odom,ga,1,0,0,0.0,0.0,0.0,0.0,0.0,0.0,1.0,0.25,0.15,0.0,1.0,0.0,0.0,1.0,2000000000,0,,,0
1449618002928113018,13,1449618002927687975,/odom,ga,2,2,0,0.0,0.0,0.0,0.0,0.0,0.0,0.0,0.15,0.15,0.01,0.0,1.0,0.0,1.0,2000000000,0,,,0
1449618003027835896,14,1449618003027275773,/odom,ga,1,0,0,0.0,0.0,0.0,0.0,0.0,0.0,1.0,0.25,0.15,0.0,1.0,0.0,0.0,1.0,2000000000,0,,,0
1449618003027840673,15,1449618003027551822,/odom,ga,2,2,0,0.0,0.0,0.0,0.0,0.0,0.0,0.0,0.15,0.15,0.01,0.0,1.0,0.0,1.0,2000000000,0,,,0
1449618003123212180,16,1449618003122993598,/odom,ga,1,0,0,0.0,0.0,0.0,0.0,0.0,0.0,1.0,0.25,0.15,0.0,1.0,0.0,0.0,1.0,2000000000,0,,,0
1449618003123217378,17,1449618003123066059,/odom,ga,2,2,0,0.0,0.0,0.0,0.0,0.0,0.0,0.0,0.15,0.15,0.01,0.0,1.0,0.0,1.0,2000000000,0,,,0
1449618003243620451,18,1449618003242530729,/odom,ga,1,0,0,0.0,0.0,0.0,0.0,0.0,0.0,1.0,0.25,0.15,0.0,1.0,0.0,0.0,1.0,2000000000,0,,,0
1449618003243625312,19,1449618003242713394,/odom,ga,2,2,0,0.0,0.0,0.0,0.0,0.0,0.0,0.0,0.15,0.15,0.01,0.0,1.0,0.0,1.0,2000000000,0,,,0
1449618003367737406,20,1449618003367458378,/odom,ga,1,0,0,0.0,0.0,0.0,0.0,0.0,0.0,1.0,0.25,0.15,0.0,1.0,0.0,0.0,1.0,2000000000,0,,,0
1449618003367851113,21,1449618003367663224,/odom,ga,2,2,0,0.0,0.0,0.0,0.0,0.0,0.0,0.0,0.15,0.15,0.01,0.0,1.0,0.0,1.0,2000000000,0,,,0
1449618003438262904,22,1449618003437796649,/odom,ga,1,0,0,0.0,0.0,0.0,0.0,0.0,0.0,1.0,0.25,0.15,0.0,1.0,0.0,0.0,1.0,2000000000,0,,,0
1449618003438265624,23,1449618003437968536,/odom,ga,2,2,0,0.0,0.0,0.0,0.0,0.0,0.0,0.0,0.15,0.15,0.01,0.0,1.0,0.0,1.0,2000000000,0,,,0
1449618003528141067,24,1449618003527136890,/odom,ga,1,0,0,0.0,0.0,0.0,0.0,0.0,0.0,1.0,0.25,0.15,0.0,1.0,0.0,0.0,1.0,2000000000,0,,,0
1449618003528149957,25,1449618003527496825,/odom,ga,2,2,0,0.0,0.0,0.0,0.0,0.0,0.0,0.0,0.15,0.15,0.01,0.0,1.0,0.0,1.0,2000000000,0,,,0
1449618003643794344,26,1449618003643588507,/odom,ga,1,0,0,0.0,0.0,0.0,0.0,0.0,0.0,1.0,0.25,0.15,0.0,1.0,0.0,0.0,1.0,2000000000,0,,,0
1449618003644223509,27,1449618003643839284,/odom,ga,2,2,0,0.0,0.0,0.0,0.0,0.0,0.0,0.0,0.15,0.15,0.01,0.0,1.0,0.0,1.0,2000000000,0,,,0
1449618003761967613,28,1449618003761396213,/odom,ga,1,0,0,0.0,0.0,0.0,0.0,0.0,0.0,1.0,0.25,0.15,0.0,1.0,0.0,0.0,1.0,2000000000,0,,,0
1449618003761975686,29,1449618003761679640,/odom,ga,2,2,0,0.0,0.0,0.0,0.0,0.0,0.0,0.0,0.15,0.15,0.01,0.0,1.0,0.0,1.0,2000000000,0,,,0
1449618003824427792,30,1449618003823839356,/odom,ga,1,0,0,0.0,0.0,0.0,0.0,0.0,0.0,1.0,0.25,0.15,0.0,1.0,0.0,0.0,1.0,2000000000,0,,,0
1449618003824452347,31,1449618003823938006,/odom,ga,2,2,0,0.0,0.0,0.0,0.0,0.0,0.0,0.0,0.15,0.15,0.01,0.0,1.0,0.0,1.0,2000000000,0,,,0
1449618003934575339,32,1449618003933773186,/odom,ga,1,0,0,0.0,0.0,0.0,0.0,0.0,0.0,1.0,0.25,0.15,0.0,1.0,0.0,0.0,1.0,2000000000,0,,,0
1449618003934588004,33,1449618003933994935,/odom,ga,2,2,0,0.0,0.0,0.0,0.0,0.0,0.0,0.0,0.15,0.15,0.01,0.0,1.0,0.0,1.0,2000000000,0,,,0
1449618004050982913,34,1449618004050161824,/odom,ga,1,0,0,0.0,0.0,0.0,0.0,0.0,0.0,1.0,0.25,0.15,0.0,1.0,0.0,0.0,1.0,2000000000,0,,,0
1449618004050991700,35,1449618004050563815,/odom,ga,2,2,0,0.0,0.0,0.0,0.0,0.0,0.0,0.0,0.15,0.15,0.01,0.0,1.0,0.0,1.0,2000000000,0,,,0
1449618004145176257,36,1449618004144872443,/odom,ga,1,0,0,0.0,0.0,0.0,0.0,0.0,0.0,1.0,0.25,0.15,0.0,1.0,0.0,0.0,1.0,2000000000,0,,,0
1449618004145294531,37,1449618004145068054,/odom,ga,2,2,0,0.0,0.0,0.0,0.0,0.0,0.0,0.0,0.15,0.15,0.01,0.0,1.0,0.0,1.0,2000000000,0,,,0
1449618004238312212,38,1449618004237118818,/odom,ga,1,0,0,0.0,0.0,0.0,0.0,0.0,0.0,1.0,0.25,0.15,0.0,1.0,0.0,0.0,1.0,2000000000,0,,,0
1449618004238331323,39,1449618004237279259,/odom,ga,2,2,0,0.0,0.0,0.0,0.0,0.0,0.0,0.0,0.15,0.15,0.01,0.0,1.0,0.0,1.0,2000000000,0,,,0
1449618004326302126,40,1449618004325732958,/odom,ga,1,0,0,0.0,0.0,0.0,0.0,0.0,0.0,1.0,0.25,0.15,0.0,1.0,0.0,0.0,1.0,2000000000,0,,,0
1449618004326308064,41,1449618004325924609,/odom,ga,2,2,0,0.0,0.0,0.0,0.0,0.0,0.0,0.0,0.15,0.15,0.01,0.0,1.0,0.0,1.0,2000000000,0,,,0
1449618004425985379,42,1449618004425791496,/odom,ga,1,0,0,0.0,0.0,0.0,0.0,0.0,0.0,1.0,0.25,0.15,0.0,1.0,0.0,0.0,1.0,2000000000,0,,,0
1449618004426149493,43,1449618004426011452,/odom,ga,2,2,0,0.0,0.0,0.0,0.0,0.0,0.0,0.0,0.15,0.15,0.01,0.0,1.0,0.0,1.0,2000000000,0,,,0
1449618004523679043,44,1449618004522969212,/odom,ga,1,0,0,0.0,0.0,0.0,0.0,0.0,0.0,1.0,0.25,0.15,0.0,1.0,0.0,0.0,1.0,2000000000,0,,,0
1449618004523681821,45,1449618004523264924,/odom,ga,2,2,0,0.0,0.0,0.0,0.0,0.0,0.0,0.0,0.15,0.15,0.01,0.0,1.0,0.0,1.0,2000000000,0,,,0
1449618004625195576,46,1449618004625000741,/odom,ga,1,0,0,0.0,0.0,0.0,0.0,0.0,0.0,1.0,0.25,0.15,0.0,1.0,0.0,0.0,1.0,2000000000,0,,,0
1449618004625307172,47,1449618004625106913,/odom,ga,2,2,0,0.0,0.0,0.0,0.0,0.0,0.0,0.0,0.15,0.15,0.01,0.0,1.0,0.0,1.0,2000000000,0,,,0
1449618004720557677,48,1449618004720370769,/odom,ga,1,0,0,0.0,0.0,0.0,0.0,0.0,0.0,1.0,0.25,0.15,0.0,1.0,0.0,0.0,1.0,2000000000,0,,,0
1449618004720567614,49,1449618004720435439,/odom,ga,2,2,0,0.0,0.0,0.0,0.0,0.0,0.0,0.0,0.15,0.15,0.01,0.0,1.0,0.0,1.0,2000000000,0,,,0
1449618004823873984,50,1449618004823552006,/odom,ga,1,0,0,0.0,0.0,0.0,0.0,0.0,0.0,1.0,0.25,0.15,0.0,1.0,0.0,0.0,1.0,2000000000,0,,,0
1449618004823976768,51,1449618004823665186,/odom,ga,2,2,0,0.0,0.0,0.0,0.0,0.0,0.0,0.0,0.15,0.15,0.01,0.0,1.0,0.0,1.0,2000000000,0,,,0
1449618004945419980,52,1449618004945163151,/odom,ga,1,0,0,0.0,0.0,0.0,0.0,0.0,0.0,1.0,0.25,0.15,0.0,1.0,0.0,0.0,1.0,2000000000,0,,,0
1449618004945518172,53,1449618004945319389,/odom,ga,2,2,0,0.0,0.0,0.0,0.0,0.0,0.0,0.0,0.15,0.15,0.01,0.0,1.0,0.0,1.0,2000000000,0,,,0
1449618005023699565,54,1449618005023390585,/odom,ga,1,0,0,0.0,0.0,0.0,0.0,0.0,0.0,1.0,0.25,0.15,0.0,1.0,0.0,0.0,1.0,2000000000,0,,,0
1449618005023702188,55,1449618005023494569,/odom,ga,2,2,0,0.0,0.0,0.0,0.0,0.0,0.0,0.0,0.15,0.15,0.01,0.0,1.0,0.0,1.0,2000000000,0,,,0
1449618005119912249,56,1449618005119775026,/odom,ga,1,0,0,0.0,0.0,0.0,0.0,0.0,0.0,1.0,0.25,0.15,0.0,1.0,0.0,0.0,1.0,2000000000,0,,,0
1449618005119919423,57,1449618005119841336,/odom,ga,2,2,0,0.0,0.0,0.0,0.0,0.0,0.0,0.0,0.15,0.15,0.01,0.0,1.0,0.0,1.0,2000000000,0,,,0
1449618005232670592,58,1449618005231728643,/odom,ga,1,0,0,0.0,0.0,0.0,0.0,0.0,0.0,1.0,0.25,0.15,0.0,1.0,0.0,0.0,1.0,2000000000,0,,,0
1449618005232995011,59,1449618005231861600,/odom,ga,2,2,0,0.0,0.0,0.0,0.0,0.0,0.0,0.0,0.15,0.15,0.01,0.0,1.0,0.0,1.0,2000000000,0,,,0
1449618005321066879,60,1449618005320840481,/odom,ga,1,0,0,0.0,0.0,0.0,0.0,0.0,0.0,1.0,0.25,0.15,0.0,1.0,0.0,0.0,1.0,2000000000,0,,,0
1449618005321083131,61,1449618005320973452,/odom,ga,2,2,0,0.0,0.0,0.0,0.0,0.0,0.0,0.0,0.15,0.15,0.01,0.0,1.0,0.0,1.0,2000000000,0,,,0
1449618005421482965,62,1449618005421041607,/odom,ga,1,0,0,0.0,0.0,0.0,0.0,0.0,0.0,1.0,0.25,0.15,0.0,1.0,0.0,0.0,1.0,2000000000,0,,,0
1449618005421487222,63,1449618005421127663,/odom,ga,2,2,0,0.0,0.0,0.0,0.0,0.0,0.0,0.0,0.15,0.15,0.01,0.0,1.0,0.0,1.0,2000000000,0,,,0
1449618005529330487,64,1449618005528553969,/odom,ga,1,0,0,0.0,0.0,0.0,0.0,0.0,0.0,1.0,0.25,0.15,0.0,1.0,0.0,0.0,1.0,2000000000,0,,,0
1449618005529335121,65,1449618005528947968,/odom,ga,2,2,0,0.0,0.0,0.0,0.0,0.0,0.0,0.0,0.15,0.15,0.01,0.0,1.0,0.0,1.0,2000000000,0,,,0
1449618005637840468,66,1449618005637552008,/odom,ga,1,0,0,0.0,0.0,0.0,0.0,0.0,0.0,1.0,0.25,0.15,0.0,1.0,0.0,0.0,1.0,2000000000,0,,,0
1449618005637848309,67,1449618005637674753,/odom,ga,2,2,0,0.0,0.0,0.0,0.0,0.0,0.0,0.0,0.15,0.15,0.01,0.0,1.0,0.0,1.0,2000000000,0,,,0
1449618005728433997,68,1449618005726090634,/odom,ga,1,0,0,0.0,0.0,0.0,0.0,0.0,0.0,1.0,0.25,0.15,0.0,1.0,0.0,0.0,1.0,2000000000,0,,,0
1449618005728462165,69,1449618005726598898,/odom,ga,2,2,0,0.0,0.0,0.0,0.0,0.0,0.0,0.0,0.15,0.15,0.01,0.0,1.0,0.0,1.0,2000000000,0,,,0
1449618005845647683,70,1449618005845127879,/odom,ga,1,0,0,0.242878199724,0.0,0.0,0.0,0.0,0.0,1.0,0.25,0.15,0.0,1.0,0.0,0.0,1.0,2000000000,0,,,0
1449618005845652654,71,1449618005845253266,/odom,ga,2,2,0,0.242878199724,0.0,0.0,0.0,0.0,0.0,0.0,0.15,0.15,0.01,0.0,1.0,0.0,1.0,2000000000,0,,,0
1449618005926341633,72,1449618005925861203,/odom,ga,1,0,0,0.460412604582,0.0,0.0,0.0,0.0,0.0,1.0,0.25,0.15,0.0,1.0,0.0,0.0,1.0,2000000000,0,,,0
1449618005926542286,73,1449618005926095266,/odom,ga,2,2,0,0.460412604582,0.0,0.0,0.0,0.0,0.0,0.0,0.15,0.15,0.01,0.0,1.0,0.0,1.0,2000000000,0,,,0
1449618006030876462,74,1449618006029949918,/odom,ga,1,0,0,0.44935296705,0.0,0.0,0.0,0.0,0.0,1.0,0.25,0.15,0.0,1.0,0.0,0.0,1.0,2000000000,0,,,0
1449618006030883027,75,1449618006030065339,/odom,ga,2,2,0,0.44935296705,0.0,0.0,0.0,0.0,0.0,0.0,0.15,0.15,0.01,0.0,1.0,0.0,1.0,2000000000,0,,,0
1449618006129142259,76,1449618006128650896,/odom,ga,1,0,0,0.440817906801,0.0,0.0,0.0,0.0,0.0,1.0,0.25,0.15,0.0,1.0,0.0,0.0,1.0,2000000000,0,,,0
1449618006129159939,77,1449618006128803380,/odom,ga,2,2,0,0.440817906801,0.0,0.0,0.0,0.0,0.0,0.0,0.15,0.15,0.01,0.0,1.0,0.0,1.0,2000000000,0,,,0
1449618006268531210,78,1449618006266794709,/odom,ga,1,0,0,0.424429777294,0.0,0.0,0.0,0.0,0.0,1.0,0.25,0.15,0.0,1.0,0.0,0.0,1.0,2000000000,0,,,0
1449618006268535263,79,1449618006266955011,/odom,ga,2,2,0,0.424429777294,0.0,0.0,0.0,0.0,0.0,0.0,0.15,0.15,0.01,0.0,1.0,0.0,1.0,2000000000,0,,,0
1449618006339850125,80,1449618006334126861,/odom,ga,1,0,0,0.545759536401,0.0,0.0,0.0,0.0,0.0,1.0,0.25,0.15,0.0,1.0,0.0,0.0,1.0,2000000000,0,,,0
1449618006339861735,81,1449618006334572145,/odom,ga,2,2,0,0.545759536401,0.0,0.0,0.0,0.0,0.0,0.0,0.15,0.15,0.01,0.0,1.0,0.0,1.0,2000000000,0,,,0
1449618006474741376,82,1449618006474118848,/odom,ga,1,0,0,0.60874909715,0.0,0.0,0.0,0.0,0.0,1.0,0.25,0.15,0.0,1.0,0.0,0.0,1.0,2000000000,0,,,0
1449618006474746292,83,1449618006474325914,/odom,ga,2,2,0,0.60874909715,0.0,0.0,0.0,0.0,0.0,0.0,0.15,0.15,0.01,0.0,1.0,0.0,1.0,2000000000,0,,,0
1449618006535315398,84,1449618006534763620,/odom,ga,1,0,0,0.659858484494,0.00697367620438,0.0,0.0,0.0,0.0052839997518,0.999986039576,0.25,0.15,0.0,1.0,0.0,0.0,1.0,2000000000,0,,,0
1449618006535326596,85,1449618006534929501,/odom,ga,2,2,0,0.659858484494,0.00697367620438,0.0,0.0,0.0,0.0,0.0,0.15,0.15,0.01,0.0,1.0,0.0,1.0,2000000000,0,,,0
1449618006646261972,86,1449618006632881762,/odom,ga,1,0,0,0.689818597514,0.0347043205754,0.0,0.0,0.0,0.0464079896982,0.998922568817,0.25,0.15,0.0,1.0,0.0,0.0,1.0,2000000000,0,,,0
1449618006646265723,87,1449618006633167835,/odom,ga,2,2,0,0.689818597514,0.0347043205754,0.0,0.0,0.0,0.0,0.0,0.15,0.15,0.01,0.0,1.0,0.0,1.0,2000000000,0,,,0
1449618006730982243,88,1449618006730373693,/odom,ga,1,0,0,0.72209480761,0.0851284127324,0.0,0.0,0.0,0.108176513858,0.994131702467,0.25,0.15,0.0,1.0,0.0,0.0,1.0,2000000000,0,,,0
1449618006730985735,89,1449618006730512920,/odom,ga,2,2,0,0.72209480761,0.0851284127324,0.0,0.0,0.0,0.0,0.0,0.15,0.15,0.01,0.0,1.0,0.0,1.0,2000000000,0,,,0
1449618006825158432,90,1449618006824853080,/odom,ga,1,0,0,0.705908403369,0.128353929048,0.0,0.0,0.0,0.166766588254,0.985996402145,0.25,0.15,0.0,1.0,0.0,0.0,1.0,2000000000,0,,,0
1449618006825163019,91,1449618006824922887,/odom,ga,2,2,0,0.705908403369,0.128353929048,0.0,0.0,0.0,0.0,0.0,0.15,0.15,0.01,0.0,1.0,0.0,1.0,2000000000,0,,,0
1449618006920388980,92,1449618006920116809,/odom,ga,1,0,0,0.647720600936,0.146725454523,0.0,0.0,0.0,0.211523055267,0.977373008166,0.25,0.15,0.0,1.0,0.0,0.0,1.0,2000000000,0,,,0
1449618006920551348,93,1449618006920184348,/odom,ga,2,2,0,0.647720600936,0.146725454523,0.0,0.0,0.0,0.0,0.0,0.15,0.15,0.01,0.0,1.0,0.0,1.0,2000000000,0,,,0
1449618007100135030,94,1449618007099523126,/odom,ga,1,0,0,0.797626244655,0.355959040702,0.0,0.0,0.0,0.392903210257,0.919579831972,0.25,0.15,0.0,1.0,0.0,0.0,1.0,2000000000,0,,,0
1449618007100456472,95,1449618007100127460,/odom,ga,2,2,0,0.797626244655,0.355959040702,0.0,0.0,0.0,0.0,0.0,0.15,0.15,0.01,0.0,1.0,0.0,1.0,2000000000,0,,,0
1449618007129634345,96,1449618007129303908,/odom,ga,1,0,0,0.642883827254,0.22869665245,0.0,0.0,0.0,0.317890545115,0.948127418297,0.25,0.15,0.0,1.0,0.0,0.0,1.0,2000000000,0,,,0
1449618007129649197,97,1449618007129483903,/odom,ga,2,2,0,0.642883827254,0.22869665245,0.0,0.0,0.0,0.0,0.0,0.15,0.15,0.01,0.0,1.0,0.0,1.0,2000000000,0,,,0
1449618007245694159,98,1449618007237316780,/odom,ga,1,0,0,0.63772773387,0.246241997519,0.0,0.0,0.0,0.342311409152,0.939586557569,0.25,0.15,0.0,1.0,0.0,0.0,1.0,2000000000,0,,,0
1449618007246114076,99,1449618007237576167,/odom,ga,2,2,0,0.63772773387,0.246241997519,0.0,0.0,0.0,0.0,0.0,0.15,0.15,0.01,0.0,1.0,0.0,1.0,2000000000,0,,,0
1449618007323956325,100,1449618007322440977,/odom,ga,1,0,0,0.637404139773,0.271757085522,0.0,0.0,0.0,0.368151404286,0.929765854139,0.25,0.15,0.0,1.0,0.0,0.0,1.0,2000000000,0,,,0
1449618007323959773,101,1449618007323211884,/odom,ga,2,2,0,0.637404139773,0.271757085522,0.0,0.0,0.0,0.0,0.0,0.15,0.15,0.01,0.0,1.0,0.0,1.0,2000000000,0,,,0
1449618007466824820,102,1449618007466384334,/odom,ga,1,0,0,0.637610940507,0.289480780633,0.0,0.0,0.0,0.386645383544,0.922228468105,0.25,0.15,0.0,1.0,0.0,0.0,1.0,2000000000,0,,,0
1449618007466828645,103,1449618007466571021,/odom,ga,2,2,0,0.637610940507,0.289480780633,0.0,0.0,0.0,0.0,0.0,0.15,0.15,0.01,0.0,1.0,0.0,1.0,2000000000,0,,,0
1449618007524832358,104,1449618007524598397,/odom,ga,1,0,0,0.633345511635,0.317502915783,0.0,0.0,0.0,0.411364652127,0.911470856901,0.25,0.15,0.0,1.0,0.0,0.0,1.0,2000000000,0,,,0
1449618007525332639,105,1449618007524737476,/odom,ga,2,2,0,0.633345511635,0.317502915783,0.0,0.0,0.0,0.0,0.0,0.15,0.15,0.01,0.0,1.0,0.0,1.0,2000000000,0,,,0
1449618007623193793,106,1449618007622525819,/odom,ga,1,0,0,0.635355986253,0.338693109438,0.0,0.0,0.0,0.429100736483,0.903256640136,0.25,0.15,0.0,1.0,0.0,0.0,1.0,2000000000,0,,,0
1449618007623276166,107,1449618007622774239,/odom,ga,2,2,0,0.635355986253,0.338693109438,0.0,0.0,0.0,0.0,0.0,0.15,0.15,0.01,0.0,1.0,0.0,1.0,2000000000,0,,,0
1449618007736652321,108,1449618007736167062,/odom,ga,1,0,0,0.73009336727,0.289459899046,0.0,0.0,0.0,0.307589398122,0.95151918644,0.25,0.15,0.0,1.0,0.0,0.0,1.0,2000000000,0,,,0
1449618007736665570,109,1449618007736401397,/odom,ga,2,2,0,0.73009336727,0.289459899046,0.0,0.0,0.0,0.0,0.0,0.15,0.15,0.01,0.0,1.0,0.0,1.0,2000000000,0,,,0
1449618007848204207,110,1449618007847143033,/odom,ga,1,0,0,0.749221163082,0.290722150271,0.0,0.0,0.0,0.27603281132,0.961148212855,0.25,0.15,0.0,1.0,0.0,0.0,1.0,2000000000,0,,,0
1449618007848222922,111,1449618007847330447,/odom,ga,2,2,0,0.749221163082,0.290722150271,0.0,0.0,0.0,0.0,0.0,0.15,0.15,0.01,0.0,1.0,0.0,1.0,2000000000,0,,,0
1449618007922493432,112,1449618007922363902,/odom,ga,1,0,0,0.815143781406,0.291624972671,0.0,0.0,0.0,0.22616008168,0.974090148526,0.25,0.15,0.0,1.0,0.0,0.0,1.0,2000000000,0,,,0
1449618007922887215,113,1449618007922508924,/odom,ga,2,2,0,0.815143781406,0.291624972671,0.0,0.0,0.0,0.0,0.0,0.15,0.15,0.01,0.0,1.0,0.0,1.0,2000000000,0,,,0
1449618008038328132,114,1449618008031624836,/odom,ga,1,0,0,0.840541914357,0.308158208131,0.0,0.0,0.0,0.221663201497,0.97512328713,0.25,0.15,0.0,1.0,0.0,0.0,1.0,2000000000,0,,,0
1449618008038331214,115,1449618008031842801,/odom,ga,2,2,0,0.840541914357,0.308158208131,0.0,0.0,0.0,0.0,0.0,0.15,0.15,0.01,0.0,1.0,0.0,1.0,2000000000,0,,,0
1449618008126224174,116,1449618008125844008,/odom,ga,1,0,0,0.86825210622,0.317214377176,0.0,0.0,0.0,0.206462897235,0.978454430245,0.25,0.15,0.0,1.0,0.0,0.0,1.0,2000000000,0,,,0
1449618008126227608,117,1449618008125949527,/odom,ga,2,2,0,0.86825210622,0.317214377176,0.0,0.0,0.0,0.0,0.0,0.15,0.15,0.01,0.0,1.0,0.0,1.0,2000000000,0,,,0
1449618008241179449,118,1449618008240224598,/odom,ga,1,0,0,0.882538978118,0.350075819844,0.0,0.0,0.0,0.218783310355,0.975773469157,0.25,0.15,0.0,1.0,0.0,0.0,1.0,2000000000,0,,,0
1449618008241183384,119,1449618008240512618,/odom,ga,2,2,0,0.882538978118,0.350075819844,0.0,0.0,0.0,0.0,0.0,0.15,0.15,0.01,0.0,1.0,0.0,1.0,2000000000,0,,,0
1449618008326959157,120,1449618008326239495,/odom,ga,1,0,0,0.89895014088,0.381306389265,0.0,0.0,0.0,0.226852240529,0.973929186834,0.25,0.15,0.0,1.0,0.0,0.0,1.0,2000000000,0,,,0
1449618008326962239,121,1449618008326412290,/odom,ga,2,2,0,0.89895014088,0.381306389265,0.0,0.0,0.0,0.0,0.0,0.15,0.15,0.01,0.0,1.0,0.0,1.0,2000000000,0,,,0
1449618008426707833,122,1449618008425766138,/odom,ga,1,0,0,0.918303321718,0.386573599924,0.0,0.0,0.0,0.21797095503,0.975955256538,0.25,0.15,0.0,1.0,0.0,0.0,1.0,2000000000,0,,,0
1449618008426713385,123,1449618008426109677,/odom,ga,2,2,0,0.918303321718,0.386573599924,0.0,0.0,0.0,0.0,0.0,0.15,0.15,0.01,0.0,1.0,0.0,1.0,2000000000,0,,,0
1449618008552723215,124,1449618008551092223,/odom,ga,1,0,0,0.929696626755,0.407981278587,0.0,0.0,0.0,0.221255776584,0.975215812694,0.25,0.15,0.0,1.0,0.0,0.0,1.0,2000000000,0,,,0
1449618008552726069,125,1449618008551243042,/odom,ga,2,2,0,0.929696626755,0.407981278587,0.0,0.0,0.0,0.0,0.0,0.15,0.15,0.01,0.0,1.0,0.0,1.0,2000000000,0,,,0
1449618008625413293,126,1449618008625031067,/odom,ga,1,0,0,0.95837855478,0.388763488452,0.0,0.0,0.0,0.178937737775,0.98386039965,0.25,0.15,0.0,1.0,0.0,0.0,1.0,2000000000,0,,,0
1449618008625419050,127,1449618008625127199,/odom,ga,2,2,0,0.95837855478,0.388763488452,0.0,0.0,0.0,0.0,0.0,0.15,0.15,0.01,0.0,1.0,0.0,1.0,2000000000,0,,,0
1449618008727094795,128,1449618008726827675,/odom,ga,1,0,0,0.972908116893,0.323027991645,0.0,0.0,0.0,0.081986082606,0.996633474382,0.25,0.15,0.0,1.0,0.0,0.0,1.0,2000000000,0,,,0
1449618008727098737,129,1449618008726940767,/odom,ga,2,2,0,0.972908116893,0.323027991645,0.0,0.0,0.0,0.0,0.0,0.15,0.15,0.01,0.0,1.0,0.0,1.0,2000000000,0,,,0
1449618008834190990,130,1449618008833755694,/odom,ga,1,0,0,0.992554517224,0.299504318539,0.0,0.0,0.0,0.0305817959662,0.999532267491,0.25,0.15,0.0,1.0,0.0,0.0,1.0,2000000000,0,,,0
1449618008834203215,131,1449618008833931057,/odom,ga,2,2,0,0.992554517224,0.299504318539,0.0,0.0,0.0,0.0,0.0,0.15,0.15,0.01,0.0,1.0,0.0,1.0,2000000000,0,,,0
1449618008935718771,132,1449618008934653207,/odom,ga,1,0,0,0.99445115459,0.252119518047,0.0,0.0,0.0,-0.0459693957443,0.998942848543,0.25,0.15,0.0,1.0,0.0,0.0,1.0,2000000000,0,,,0
1449618008935765114,133,1449618008934921658,/odom,ga,2,2,0,0.99445115459,0.252119518047,0.0,0.0,0.0,0.0,0.0,0.15,0.15,0.01,0.0,1.0,0.0,1.0,2000000000,0,,,0
1449618009028097259,134,1449618009027219303,/odom,ga,1,0,0,1.02611748793,0.279000859525,0.0,0.0,0.0,-0.0467702565471,0.998905672775,0.25,0.15,0.0,1.0,0.0,0.0,1.0,2000000000,0,,,0
1449618009028101936,135,1449618009027397272,/odom,ga,2,2,0,1.02611748793,0.279000859525,0.0,0.0,0.0,0.0,0.0,0.15,0.15,0.01,0.0,1.0,0.0,1.0,2000000000,0,,,0
1449618009144542980,136,1449618009144197252,/odom,ga,1,0,0,1.04158853952,0.280374519329,0.0,0.0,0.0,-0.0608233254739,0.998148547601,0.25,0.15,0.0,1.0,0.0,0.0,1.0,2000000000,0,,,0
1449618009144679903,137,1449618009144389922,/odom,ga,2,2,0,1.04158853952,0.280374519329,0.0,0.0,0.0,0.0,0.0,0.15,0.15,0.01,0.0,1.0,0.0,1.0,2000000000,0,,,0
1449618009260478356,138,1449618009259927880,/odom,ga,1,0,0,1.06740510242,0.290505204985,0.0,0.0,0.0,-0.0718609991297,0.997414656401,0.25,0.15,0.0,1.0,0.0,0.0,1.0,2000000000,0,,,0
1449618009260483620,139,1449618009260055121,/odom,ga,2,2,0,1.06740510242,0.290505204985,0.0,0.0,0.0,0.0,0.0,0.15,0.15,0.01,0.0,1.0,0.0,1.0,2000000000,0,,,0
1449618009367660477,140,1449618009367478281,/odom,ga,1,0,0,1.09505317547,0.302710375956,0.0,0.0,0.0,-0.0774021134412,0.996999956286,0.25,0.15,0.0,1.0,0.0,0.0,1.0,2000000000,0,,,0
1449618009370009550,141,1449618009367660746,/odom,ga,2,2,0,1.09505317547,0.302710375956,0.0,0.0,0.0,0.0,0.0,0.15,0.15,0.01,0.0,1.0,0.0,1.0,2000000000,0,,,0
1449618009443808798,142,1449618009442778791,/odom,ga,1,0,0,1.12531794508,0.319052589545,0.0,0.0,0.0,-0.0809332223063,0.996719526009,0.25,0.15,0.0,1.0,0.0,0.0,1.0,2000000000,0,,,0
1449618009443816985,143,1449618009442935967,/odom,ga,2,2,0,1.12531794508,0.319052589545,0.0,0.0,0.0,0.0,0.0,0.15,0.15,0.01,0.0,1.0,0.0,1.0,2000000000,0,,,0
1449618009523067083,144,1449618009522911061,/odom,ga,1,0,0,1.09321637725,0.329075027183,0.0,0.0,0.0,-0.0647706544441,0.997900176532,0.25,0.15,0.0,1.0,0.0,0.0,1.0,2000000000,0,,,0
1449618009523160678,145,1449618009522998039,/odom,ga,2,2,0,1.09321637725,0.329075027183,0.0,0.0,0.0,0.0,0.0,0.15,0.15,0.01,0.0,1.0,0.0,1.0,2000000000,0,,,0
1449618009696998815,146,1449618009696511758,/odom,ga,1,0,0,1.20568004219,0.315379027294,0.0,0.0,0.0,-0.122096073412,0.99251828641,0.25,0.15,0.0,1.0,0.0,0.0,1.0,2000000000,0,,,0
1449618009697038945,147,1449618009696663247,/odom,ga,2,2,0,1.20568004219,0.315379027294,0.0,0.0,0.0,0.0,0.0,0.15,0.15,0.01,0.0,1.0,0.0,1.0,2000000000,0,,,0
1449618009743788801,148,1449618009743331547,/odom,ga,1,0,0,1.25170065272,0.313178345539,0.0,0.0,0.0,-0.141898302178,0.98988124128,0.25,0.15,0.0,1.0,0.0,0.0,1.0,2000000000,0,,,0
1449618009743792598,149,1449618009743448686,/odom,ga,2,2,0,1.25170065272,0.313178345539,0.0,0.0,0.0,0.0,0.0,0.15,0.15,0.01,0.0,1.0,0.0,1.0,2000000000,0,,,0
1449618009834957680,150,1449618009834213058,/odom,ga,1,0,0,1.19760944278,0.336601990106,0.0,0.0,0.0,-0.104621654218,0.99451209619,0.25,0.15,0.0,1.0,0.0,0.0,1.0,2000000000,0,,,0
1449618009834962120,151,1449618009834535245,/odom,ga,2,2,0,1.19760944278,0.336601990106,0.0,0.0,0.0,0.0,0.0,0.15,0.15,0.01,0.0,1.0,0.0,1.0,2000000000,0,,,0
1449618009928456401,152,1449618009927561276,/odom,ga,1,0,0,1.22302473994,0.333243320612,0.0,0.0,0.0,-0.117455772934,0.993078114452,0.25,0.15,0.0,1.0,0.0,0.0,1.0,2000000000,0,,,0
1449618009928476453,153,1449618009927758284,/odom,ga,2,2,0,1.22302473994,0.333243320612,0.0,0.0,0.0,0.0,0.0,0.15,0.15,0.01,0.0,1.0,0.0,1.0,2000000000,0,,,0
1449618010060374444,154,1449618010059880304,/odom,ga,1,0,0,1.2593690237,0.334406129971,0.0,0.0,0.0,-0.130842302299,0.991403193423,0.25,0.15,0.0,1.0,0.0,0.0,1.0,2000000000,0,,,0
1449618010060378616,155,1449618010060110689,/odom,ga,2,2,0,1.2593690237,0.334406129971,0.0,0.0,0.0,0.0,0.0,0.15,0.15,0.01,0.0,1.0,0.0,1.0,2000000000,0,,,0
1449618010134813725,156,1449618010134267157,/odom,ga,1,0,0,1.28930334172,0.328232266402,0.0,0.0,0.0,-0.146805989018,0.989165305492,0.25,0.15,0.0,1.0,0.0,0.0,1.0,2000000000,0,,,0
1449618010135519173,157,1449618010135013866,/odom,ga,2,2,0,1.28930334172,0.328232266402,0.0,0.0,0.0,0.0,0.0,0.15,0.15,0.01,0.0,1.0,0.0,1.0,2000000000,0,,,0
1449618010234420584,158,1449618010233916932,/odom,ga,1,0,0,1.31363756504,0.332253780449,0.0,0.0,0.0,-0.152427058779,0.988314723027,0.25,0.15,0.0,1.0,0.0,0.0,1.0,2000000000,0,,,0
1449618010234438979,159,1449618010234217375,/odom,ga,2,2,0,1.31363756504,0.332253780449,0.0,0.0,0.0,0.0,0.0,0.15,0.15,0.01,0.0,1.0,0.0,1.0,2000000000,0,,,0
1449618010320679734,160,1449618010320502979,/odom,ga,1,0,0,1.33245434659,0.318765819055,0.0,0.0,0.0,-0.170021943502,0.985440276591,0.25,0.15,0.0,1.0,0.0,0.0,1.0,2000000000,0,,,0
1449618010320716271,161,1449618010320627268,/odom,ga,2,2,0,1.33245434659,0.318765819055,0.0,0.0,0.0,0.0,0.0,0.15,0.15,0.01,0.0,1.0,0.0,1.0,2000000000,0,,,0
1449618010428165443,162,1449618010427967248,/odom,ga,1,0,0,1.36168819917,0.310974873775,0.0,0.0,0.0,-0.185022482104,0.982734288155,0.25,0.15,0.0,1.0,0.0,0.0,1.0,2000000000,0,,,0
1449618010429147284,163,1449618010428156786,/odom,ga,2,2,0,1.36168819917,0.310974873775,0.0,0.0,0.0,0.0,0.0,0.15,0.15,0.01,0.0,1.0,0.0,1.0,2000000000,0,,,0
1449618010527542329,164,1449618010526762674,/odom,ga,1,0,0,1.38041371823,0.311510129277,0.0,0.0,0.0,-0.189968744789,0.981790138473,0.25,0.15,0.0,1.0,0.0,0.0,1.0,2000000000,0,,,0
1449618010527547517,165,1449618010526898297,/odom,ga,2,2,0,1.38041371823,0.311510129277,0.0,0.0,0.0,0.0,0.0,0.15,0.15,0.01,0.0,1.0,0.0,1.0,2000000000,0,,,0
1449618010633894459,166,1449618010632001112,/odom,ga,1,0,0,1.40930411627,0.301887942265,0.0,0.0,0.0,-0.205192067188,0.978721725294,0.25,0.15,0.0,1.0,0.0,0.0,1.0,2000000000,0,,,0
1449618010633907673,167,1449618010632149736,/odom,ga,2,2,0,1.40930411627,0.301887942265,0.0,0.0,0.0,0.0,0.0,0.15,0.15,0.01,0.0,1.0,0.0,1.0,2000000000,0,,,0
1449618010728367674,168,1449618010727613927,/odom,ga,1,0,0,1.39906506363,0.307048312805,0.0,0.0,0.0,-0.199983125235,0.979799341509,0.25,0.15,0.0,1.0,0.0,0.0,1.0,2000000000,0,,,0
1449618010728377548,169,1449618010727876815,/odom,ga,2,2,0,1.39906506363,0.307048312805,0.0,0.0,0.0,0.0,0.0,0.15,0.15,0.01,0.0,1.0,0.0,1.0,2000000000,0,,,0
1449618010840312360,170,1449618010839256103,/odom,ga,1,0,0,1.403438031,0.309128968224,0.0,0.0,0.0,-0.200388612626,0.979716491609,0.25,0.15,0.0,1.0,0.0,0.0,1.0,2000000000,0,,,0
1449618010840316945,171,1449618010839523083,/odom,ga,2,2,0,1.403438031,0.309128968224,0.0,0.0,0.0,0.0,0.0,0.15,0.15,0.01,0.0,1.0,0.0,1.0,2000000000,0,,,0
1449618010957911552,172,1449618010957319797,/odom,ga,1,0,0,1.4501978868,0.280831262444,0.0,0.0,0.0,-0.232262681533,0.972653096827,0.25,0.15,0.0,1.0,0.0,0.0,1.0,2000000000,0,,,0
1449618010958228291,173,1449618010957496854,/odom,ga,2,2,0,1.4501978868,0.280831262444,0.0,0.0,0.0,0.0,0.0,0.15,0.15,0.01,0.0,1.0,0.0,1.0,2000000000,0,,,0
1449618011039301432,174,1449618011038306929,/odom,ga,1,0,0,1.50842251572,0.240997628638,0.0,0.0,0.0,-0.271126862856,0.962543621992,0.25,0.15,0.0,1.0,0.0,0.0,1.0,2000000000,0,,,0
1449618011039316703,175,1449618011038493777,/odom,ga,2,2,0,1.50842251572,0.240997628638,0.0,0.0,0.0,0.0,0.0,0.15,0.15,0.01,0.0,1.0,0.0,1.0,2000000000,0,,,0
1449618011150644601,176,1449618011149363925,/odom,ga,1,0,0,1.51168260935,0.242483936083,0.0,0.0,0.0,-0.271649203897,0.962396337286,0.25,0.15,0.0,1.0,0.0,0.0,1.0,2000000000,0,,,0
1449618011150670127,177,1449618011149897611,/odom,ga,2,2,0,1.51168260935,0.242483936083,0.0,0.0,0.0,0.0,0.0,0.15,0.15,0.01,0.0,1.0,0.0,1.0,2000000000,0,,,0
1449618011283421825,178,1449618011282723718,/odom,ga,1,0,0,1.53477191987,0.223893267375,0.0,0.0,0.0,-0.289834705541,0.957076717648,0.25,0.15,0.0,1.0,0.0,0.0,1.0,2000000000,0,,,0
1449618011283428226,179,1449618011282893548,/odom,ga,2,2,0,1.53477191987,0.223893267375,0.0,0.0,0.0,0.0,0.0,0.15,0.15,0.01,0.0,1.0,0.0,1.0,2000000000,0,,,0
1449618011385098182,180,1449618011384616730,/odom,ga,1,0,0,1.5645712768,0.193174644148,0.0,0.0,0.0,-0.317598455859,0.948225300673,0.25,0.15,0.0,1.0,0.0,0.0,1.0,2000000000,0,,,0
1449618011385298327,181,1449618011384994971,/odom,ga,2,2,0,1.5645712768,0.193174644148,0.0,0.0,0.0,0.0,0.0,0.15,0.15,0.01,0.0,1.0,0.0,1.0,2000000000,0,,,0
1449618011432559279,182,1449618011432241776,/odom,ga,1,0,0,1.57372973214,0.173211019339,0.0,0.0,0.0,-0.334407423576,0.942428604753,0.25,0.15,0.0,1.0,0.0,0.0,1.0,2000000000,0,,,0
1449618011432568571,183,1449618011432338346,/odom,ga,2,2,0,1.57372973214,0.173211019339,0.0,0.0,0.0,0.0,0.0,0.15,0.15,0.01,0.0,1.0,0.0,1.0,2000000000,0,,,0
1449618011525129637,184,1449618011524177513,/odom,ga,1,0,0,1.58109917493,0.160160675435,0.0,0.0,0.0,-0.345166455803,0.938541484319,0.25,0.15,0.0,1.0,0.0,0.0,1.0,2000000000,0,,,0
1449618011525134093,185,1449618011524420692,/odom,ga,2,2,0,1.58109917493,0.160160675435,0.0,0.0,0.0,0.0,0.0,0.15,0.15,0.01,0.0,1.0,0.0,1.0,2000000000,0,,,0
1449618011642106528,186,1449618011639950194,/odom,ga,1,0,0,1.60322611179,0.131355041458,0.0,0.0,0.0,-0.367969775045,0.92983775179,0.25,0.15,0.0,1.0,0.0,0.0,1.0,2000000000,0,,,0
1449618011642110923,187,1449618011640173414,/odom,ga,2,2,0,1.60322611179,0.131355041458,0.0,0.0,0.0,0.0,0.0,0.15,0.15,0.01,0.0,1.0,0.0,1.0,2000000000,0,,,0
1449618011759930971,188,1449618011759608623,/odom,ga,1,0,0,1.62506351884,0.10010273078,0.0,0.0,0.0,-0.391588359713,0.920140509127,0.25,0.15,0.0,1.0,0.0,0.0,1.0,2000000000,0,,,0
1449618011759937228,189,1449618011759722790,/odom,ga,2,2,0,1.62506351884,0.10010273078,0.0,0.0,0.0,0.0,0.0,0.15,0.15,0.01,0.0,1.0,0.0,1.0,2000000000,0,,,0
1449618011824514572,190,1449618011824127344,/odom,ga,1,0,0,1.63347348912,0.069459415929,0.0,0.0,0.0,-0.414648002978,0.909981886428,0.25,0.15,0.0,1.0,0.0,0.0,1.0,2000000000,0,,,0
1449618011824537894,191,1449618011824295905,/odom,ga,2,2,0,1.63347348912,0.069459415929,0.0,0.0,0.0,0.0,0.0,0.15,0.15,0.01,0.0,1.0,0.0,1.0,2000000000,0,,,0
1449618011943165706,192,1449618011942846000,/odom,ga,1,0,0,1.63432375884,0.0575044609493,0.0,0.0,0.0,-0.425285309931,0.905059337921,0.25,0.15,0.0,1.0,0.0,0.0,1.0,2000000000,0,,,0
1449618011943836382,193,1449618011943209937,/odom,ga,2,2,0,1.63432375884,0.0575044609493,0.0,0.0,0.0,0.0,0.0,0.15,0.15,0.01,0.0,1.0,0.0,1.0,2000000000,0,,,0
1449618012025228066,194,1449618012025031118,/odom,ga,1,0,0,1.65119339959,0.0348541457104,0.0,0.0,0.0,-0.439938692404,0.898027809662,0.25,0.15,0.0,1.0,0.0,0.0,1.0,2000000000,0,,,0
1449618012025446627,195,1449618012025176208,/odom,ga,2,2,0,1.65119339959,0.0348541457104,0.0,0.0,0.0,0.0,0.0,0.15,0.15,0.01,0.0,1.0,0.0,1.0,2000000000,0,,,0
1449618012123712178,196,1449618012122842740,/odom,ga,1,0,0,1.65170245508,0.00986890947062,0.0,0.0,0.0,-0.458998549163,0.888437016263,0.25,0.15,0.0,1.0,0.0,0.0,1.0,2000000000,0,,,0
1449618012123716107,197,1449618012122943251,/odom,ga,2,2,0,1.65170245508,0.00986890947062,0.0,0.0,0.0,0.0,0.0,0.15,0.15,0.01,0.0,1.0,0.0,1.0,2000000000,0,,,0
1449618012234558287,198,1449618012233857625,/odom,ga,1,0,0,1.66144876309,-0.017179894258,0.0,0.0,0.0,-0.477975463298,0.878373187481,0.25,0.15,0.0,1.0,0.0,0.0,1.0,2000000000,0,,,0
1449618012234570557,199,1449618012234042875,/odom,ga,2,2,0,1.66144876309,-0.017179894258,0.0,0.0,0.0,0.0,0.0,0.15,0.15,0.01,0.0,1.0,0.0,1.0,2000000000,0,,,0
1449618012329469459,200,1449618012328590686,/odom,ga,1,0,0,1.79225208373,0.0246354921695,0.0,0.0,0.0,-0.337637707571,0.941276143555,0.25,0.15,0.0,1.0,0.0,0.0,1.0,2000000000,0,,,0
1449618012329474409,201,1449618012328895627,/odom,ga,2,2,0,1.79225208373,0.0246354921695,0.0,0.0,0.0,0.0,0.0,0.15,0.15,0.01,0.0,1.0,0.0,1.0,2000000000,0,,,0
1449618012459260972,202,1449618012458851022,/odom,ga,1,0,0,1.84396072317,0.0276739906707,0.0,0.0,0.0,-0.292833959701,0.956163308251,0.25,0.15,0.0,1.0,0.0,0.0,1.0,2000000000,0,,,0
1449618012459516055,203,1449618012459290945,/odom,ga,2,2,0,1.84396072317,0.0276739906707,0.0,0.0,0.0,0.0,0.0,0.15,0.15,0.01,0.0,1.0,0.0,1.0,2000000000,0,,,0
1449618012544037651,204,1449618012543160403,/odom,ga,1,0,0,1.87829713215,0.0100335155875,0.0,0.0,0.0,-0.275369617373,0.961338428353,0.25,0.15,0.0,1.0,0.0,0.0,1.0,2000000000,0,,,0
1449618012544041543,205,1449618012543332750,/odom,ga,2,2,0,1.87829713215,0.0100335155875,0.0,0.0,0.0,0.0,0.0,0.15,0.15,0.01,0.0,1.0,0.0,1.0,2000000000,0,,,0
1449618012661749786,206,1449618012660935204,/odom,ga,1,0,0,1.90159720765,-0.00332795950757,0.0,0.0,0.0,-0.265803785699,0.964027150815,0.25,0.15,0.0,1.0,0.0,0.0,1.0,2000000000,0,,,0
1449618012661839341,207,1449618012661202471,/odom,ga,2,2,0,1.90159720765,-0.00332795950757,0.0,0.0,0.0,0.0,0.0,0.15,0.15,0.01,0.0,1.0,0.0,1.0,2000000000,0,,,0
1449618012731625678,208,1449618012730878953,/odom,ga,1,0,0,1.9277403626,-0.0183985482103,0.0,0.0,0.0,-0.251396065825,0.967884299949,0.25,0.15,0.0,1.0,0.0,0.0,1.0,2000000000,0,,,0
1449618012731639657,209,1449618012731074056,/odom,ga,2,2,0,1.9277403626,-0.0183985482103,0.0,0.0,0.0,0.0,0.0,0.15,0.15,0.01,0.0,1.0,0.0,1.0,2000000000,0,,,0
1449618012880430490,210,1449618012879155944,/odom,ga,1,0,0,1.94597971581,-0.00534870708676,0.0,0.0,0.0,-0.21914843489,0.975691530908,0.25,0.15,0.0,1.0,0.0,0.0,1.0,2000000000,0,,,0
1449618012880437790,211,1449618012879613146,/odom,ga,2,2,0,1.94597971581,-0.00534870708676,0.0,0.0,0.0,0.0,0.0,0.15,0.15,0.01,0.0,1.0,0.0,1.0,2000000000,0,,,0
1449618012973354295,212,1449618012969819494,/odom,ga,1,0,0,1.97378272908,0.023198610088,0.0,0.0,0.0,-0.153425922729,0.988160152118,0.25,0.15,0.0,1.0,0.0,0.0,1.0,2000000000,0,,,0
1449618012973477624,213,1449618012970607684,/odom,ga,2,2,0,1.97378272908,0.023198610088,0.0,0.0,0.0,0.0,0.0,0.15,0.15,0.01,0.0,1.0,0.0,1.0,2000000000,0,,,0
1449618013027459530,214,1449618013026778489,/odom,ga,1,0,0,1.98618676695,0.0302509698398,0.0,0.0,0.0,-0.132662587755,0.991161257218,0.25,0.15,0.0,1.0,0.0,0.0,1.0,2000000000,0,,,0
1449618013027473420,215,1449618013026902156,/odom,ga,2,2,0,1.98618676695,0.0302509698398,0.0,0.0,0.0,0.0,0.0,0.15,0.15,0.01,0.0,1.0,0.0,1.0,2000000000,0,,,0
1449618013134471629,216,1449618013133928986,/odom,ga,1,0,0,1.98779783402,0.0340282200119,0.0,0.0,0.0,-0.117534898244,0.993068752753,0.25,0.15,0.0,1.0,0.0,0.0,1.0,2000000000,0,,,0
1449618013134477053,217,1449618013134104876,/odom,ga,2,2,0,1.98779783402,0.0340282200119,0.0,0.0,0.0,0.0,0.0,0.15,0.15,0.01,0.0,1.0,0.0,1.0,2000000000,0,,,0
1449618013245383907,218,1449618013244523180,/odom,ga,1,0,0,1.99856729081,0.0328754825297,0.0,0.0,0.0,-0.106136048535,0.994351617488,0.25,0.15,0.0,1.0,0.0,0.0,1.0,2000000000,0,,,0
1449618013245387722,219,1449618013244912524,/odom,ga,2,2,0,1.99856729081,0.0328754825297,0.0,0.0,0.0,0.0,0.0,0.15,0.15,0.01,0.0,1.0,0.0,1.0,2000000000,0,,,0
1449618013372288433,220,1449618013371348033,/odom,ga,1,0,0,2.0917390342,0.0098224235411,0.0,0.0,0.0,-0.0796678880464,0.996821462256,0.25,0.15,0.0,1.0,0.0,0.0,1.0,2000000000,0,,,0
1449618013372295534,221,1449618013371540883,/odom,ga,2,2,0,2.0917390342,0.0098224235411,0.0,0.0,0.0,0.0,0.0,0.15,0.15,0.01,0.0,1.0,0.0,1.0,2000000000,0,,,0
1449618013434505816,222,1449618013434024707,/odom,ga,1,0,0,2.03362170172,0.00583773075441,0.0,0.0,0.0,-0.100029697222,0.994984451976,0.25,0.15,0.0,1.0,0.0,0.0,1.0,2000000000,0,,,0
1449618013434516745,223,1449618013434178368,/odom,ga,2,2,0,2.03362170172,0.00583773075441,0.0,0.0,0.0,0.0,0.0,0.15,0.15,0.01,0.0,1.0,0.0,1.0,2000000000,0,,,0
1449618013736895981,224,1449618013736235563,/odom,ga,1,0,0,3.2359616782,0.0868322456521,0.0,0.0,0.0,0.180557428231,0.983564443802,0.25,0.15,0.0,1.0,0.0,0.0,1.0,2000000000,0,,,0
1449618013736902062,225,1449618013736337997,/odom,ga,2,2,0,3.2359616782,0.0868322456521,0.0,0.0,0.0,0.0,0.0,0.15,0.15,0.01,0.0,1.0,0.0,1.0,2000000000,0,,,0
1449618013944233873,226,1449618013941119710,/odom,ga,1,0,0,3.28843205845,0.0219901857331,0.0,0.0,0.0,0.169631556461,0.985507552002,0.25,0.15,0.0,1.0,0.0,0.0,1.0,2000000000,0,,,0
1449618013944257431,227,1449618013941432658,/odom,ga,2,2,0,3.28843205845,0.0219901857331,0.0,0.0,0.0,0.0,0.0,0.15,0.15,0.01,0.0,1.0,0.0,1.0,2000000000,0,,,0
1449618014145060400,228,1449618014144002180,/odom,ga,1,0,0,3.28364570685,0.124274138128,0.0,0.0,0.0,0.234657744072,0.97207805404,0.25,0.15,0.0,1.0,0.0,0.0,1.0,2000000000,0,,,0
1449618014145326168,229,1449618014144200318,/odom,ga,2,2,0,3.28364570685,0.124274138128,0.0,0.0,0.0,0.0,0.0,0.15,0.15,0.01,0.0,1.0,0.0,1.0,2000000000,0,,,0
1449618014552272917,230,1449618014549290394,/odom,ga,1,0,0,3.27776129607,0.169966436485,0.0,0.0,0.0,0.268583362722,0.963256444188,0.25,0.15,0.0,1.0,0.0,0.0,1.0,2000000000,0,,,0
1449618014552281102,231,1449618014549384468,/odom,ga,2,2,0,3.27776129607,0.169966436485,0.0,0.0,0.0,0.0,0.0,0.15,0.15,0.01,0.0,1.0,0.0,1.0,2000000000,0,,,0
1449618014754908729,232,1449618014754410065,/odom,ga,1,0,0,3.29907983216,0.19666051711,0.0,0.0,0.0,0.28871061669,0.957416408785,0.25,0.15,0.0,1.0,0.0,0.0,1.0,2000000000,0,,,0
1449618014754913848,233,1449618014754469148,/odom,ga,2,2,0,3.29907983216,0.19666051711,0.0,0.0,0.0,0.0,0.0,0.15,0.15,0.01,0.0,1.0,0.0,1.0,2000000000,0,,,0
1449618014956576295,234,1449618014955755417,/odom,ga,1,0,0,3.29669831675,0.276739656368,0.0,0.0,0.0,0.32939704368,0.94419149944,0.25,0.15,0.0,1.0,0.0,0.0,1.0,2000000000,0,,,0
1449618014956580444,235,1449618014955826217,/odom,ga,2,2,0,3.29669831675,0.276739656368,0.0,0.0,0.0,0.0,0.0,0.15,0.15,0.01,0.0,1.0,0.0,1.0,2000000000,0,,,0
1449618015123905415,236,1449618015122532341,/odom,ga,1,0,0,2.53025951453,0.0107907824572,0.0,0.0,0.0,0.117654834861,0.993054550281,0.25,0.15,0.0,1.0,0.0,0.0,1.0,2000000000,0,,,0
1449618015123908639,237,1449618015122886153,/odom,ga,2,2,0,2.53025951453,0.0107907824572,0.0,0.0,0.0,0.0,0.0,0.15,0.15,0.01,0.0,1.0,0.0,1.0,2000000000,0,,,0
1449618015182387384,238,1449618015178989965,/odom,ga,1,0,0,2.42311336096,0.0126105697293,0.0,0.0,0.0,0.0980650636619,0.995180005471,0.25,0.15,0.0,1.0,0.0,0.0,1.0,2000000000,0,,,0
1449618015182391837,239,1449618015179561606,/odom,ga,2,2,0,2.42311336096,0.0126105697293,0.0,0.0,0.0,0.0,0.0,0.15,0.15,0.01,0.0,1.0,0.0,1.0,2000000000,0,,,0
1449618015210692930,240,1449618015209761117,/odom,ga,1,0,0,2.26499170725,0.0356055107155,0.0,0.0,0.0,0.0964769515624,0.995335218817,0.25,0.15,0.0,1.0,0.0,0.0,1.0,2000000000,0,,,0
1449618015210787001,241,1449618015209920437,/odom,ga,2,2,0,2.26499170725,0.0356055107155,0.0,0.0,0.0,0.0,0.0,0.15,0.15,0.01,0.0,1.0,0.0,1.0,2000000000,0,,,0
1449618015271503626,242,1449618015270561649,/odom,ga,1,0,0,2.27090483323,0.0597847175,0.0,0.0,0.0,0.127747278118,0.991806751809,0.25,0.15,0.0,1.0,0.0,0.0,1.0,2000000000,0,,,0
1449618015271520025,243,1449618015270964620,/odom,ga,2,2,0,2.27090483323,0.0597847175,0.0,0.0,0.0,0.0,0.0,0.15,0.15,0.01,0.0,1.0,0.0,1.0,2000000000,0,,,0
1449618015490605248,244,1449618015481268541,/odom,ga,1,0,0,2.82712332422,0.555411626586,0.0,0.0,0.0,0.527188828753,0.849748162009,0.25,0.15,0.0,1.0,0.0,0.0,1.0,2000000000,0,,,0
1449618015490626615,245,1449618015481399666,/odom,ga,2,2,0,2.82712332422,0.555411626586,0.0,0.0,0.0,0.0,0.0,0.15,0.15,0.01,0.0,1.0,0.0,1.0,2000000000,0,,,0
1449618015490646873,246,1449618015487425965,/odom,ga,1,0,0,2.35640374493,0.0519835801331,0.0,0.0,0.0,0.125085467494,0.992145970017,0.25,0.15,0.0,1.0,0.0,0.0,1.0,2000000000,0,,,0
1449618015490667287,247,1449618015487553123,/odom,ga,2,2,0,2.35640374493,0.0519835801331,0.0,0.0,0.0,0.0,0.0,0.15,0.15,0.01,0.0,1.0,0.0,1.0,2000000000,0,,,0
1449618015820379540,248,1449618015819398692,/odom,ga,1,0,0,3.61712423372,-0.651739930483,0.0,0.0,0.0,-0.170498925422,0.985357862114,0.25,0.15,0.0,1.0,0.0,0.0,1.0,2000000000,0,,,0
1449618015820383021,249,1449618015819541169,/odom,ga,2,2,0,3.61712423372,-0.651739930483,0.0,0.0,0.0,0.0,0.0,0.15,0.15,0.01,0.0,1.0,0.0,1.0,2000000000,0,,,0
1449618016249602315,250,1449618016248632557,/odom,ga,1,0,0,3.75888744302,-0.47263933429,0.0,0.0,0.0,-0.119675267784,0.992813089298,0.25,0.15,0.0,1.0,0.0,0.0,1.0,2000000000,0,,,0
1449618016249605885,251,1449618016248758887,/odom,ga,2,2,0,3.75888744302,-0.47263933429,0.0,0.0,0.0,0.0,0.0,0.15,0.15,0.01,0.0,1.0,0.0,1.0,2000000000,0,,,0
1449618016484911487,252,1449618016482730376,/odom,ga,1,0,0,3.73815980686,-0.197256469646,0.0,0.0,0.0,-0.0528767987948,0.998601043535,0.25,0.15,0.0,1.0,0.0,0.0,1.0,2000000000,0,,,0
1449618016484959718,253,1449618016483268759,/odom,ga,2,2,0,3.73815980686,-0.197256469646,0.0,0.0,0.0,0.0,0.0,0.15,0.15,0.01,0.0,1.0,0.0,1.0,2000000000,0,,,0
1449618016708721437,254,1449618016708522946,/odom,ga,1,0,0,3.79528255586,-0.117331672882,0.0,0.0,0.0,-0.033660927867,0.999433310399,0.25,0.15,0.0,1.0,0.0,0.0,1.0,2000000000,0,,,0
1449618016711173979,255,1449618016708661800,/odom,ga,2,2,0,3.79528255586,-0.117331672882,0.0,0.0,0.0,0.0,0.0,0.15,0.15,0.01,0.0,1.0,0.0,1.0,2000000000,0,,,0
1449618017013820880,256,1449618017000272233,/odom,ga,1,0,0,3.83299833763,-0.0446119538735,0.0,0.0,0.0,-0.0149888288715,0.999887661195,0.25,0.15,0.0,1.0,0.0,0.0,1.0,2000000000,0,,,0
1449618017013828647,257,1449618017001187697,/odom,ga,2,2,0,3.83299833763,-0.0446119538735,0.0,0.0,0.0,0.0,0.0,0.15,0.15,0.01,0.0,1.0,0.0,1.0,2000000000,0,,,0
1449618017218571100,258,1449618017217778823,/odom,ga,1,0,0,3.73222176338,0.0529774446837,0.0,0.0,0.0,0.00727132658465,0.999973563555,0.25,0.15,0.0,1.0,0.0,0.0,1.0,2000000000,0,,,0
1449618017218587360,259,1449618017217942928,/odom,ga,2,2,0,3.73222176338,0.0529774446837,0.0,0.0,0.0,0.0,0.0,0.15,0.15,0.01,0.0,1.0,0.0,1.0,2000000000,0,,,0
1449618017280509217,260,1449618017267227052,/odom,ga,1,0,0,2.82962204052,0.0622630862022,0.0,0.0,0.0,0.0233325992001,0.999727757849,0.25,0.15,0.0,1.0,0.0,0.0,1.0,2000000000,0,,,0
1449618017280525634,261,1449618017267363965,/odom,ga,2,2,0,2.82962204052,0.0622630862022,0.0,0.0,0.0,0.0,0.0,0.15,0.15,0.01,0.0,1.0,0.0,1.0,2000000000,0,,,0
1449618017492761074,262,1449618017489936012,/odom,ga,1,0,0,3.74887430331,0.0451174386386,0.0,0.0,0.0,-0.0130930281127,0.999914282634,0.25,0.15,0.0,1.0,0.0,0.0,1.0,2000000000,0,,,0
1449618017492764606,263,1449618017490066578,/odom,ga,2,2,0,3.74887430331,0.0451174386386,0.0,0.0,0.0,0.0,0.0,0.15,0.15,0.01,0.0,1.0,0.0,1.0,2000000000,0,,,0
1449618017501028359,264,1449618017500553804,/odom,ga,1,0,0,2.8187155542,0.0748392777286,0.0,0.0,0.0,0.0256514522941,0.99967094736,0.25,0.15,0.0,1.0,0.0,0.0,1.0,2000000000,0,,,0
1449618017501030799,265,1449618017500847471,/odom,ga,2,2,0,2.8187155542,0.0748392777286,0.0,0.0,0.0,0.0,0.0,0.15,0.15,0.01,0.0,1.0,0.0,1.0,2000000000,0,,,0
1449618017531686002,266,1449618017530968285,/odom,ga,1,0,0,2.81102241126,0.0711822449434,0.0,0.0,0.0,0.0213181982946,0.999772741387,0.25,0.15,0.0,1.0,0.0,0.0,1.0,2000000000,0,,,0
1449618017531699927,267,1449618017531134924,/odom,ga,2,2,0,2.81102241126,0.0711822449434,0.0,0.0,0.0,0.0,0.0,0.15,0.15,0.01,0.0,1.0,0.0,1.0,2000000000,0,,,0
1449618017626763957,268,1449618017625502798,/odom,ga,1,0,0,2.81915334233,0.0790012222162,0.0,0.0,0.0,0.0266006996009,0.999646138781,0.25,0.15,0.0,1.0,0.0,0.0,1.0,2000000000,0,,,0
1449618017626872837,269,1449618017626521914,/odom,ga,2,2,0,2.81915334233,0.0790012222162,0.0,0.0,0.0,0.0,0.0,0.15,0.15,0.01,0.0,1.0,0.0,1.0,2000000000,0,,,0
1449618017724840860,270,1449618017723655596,/odom,ga,1,0,0,2.87541726737,0.0895077742606,0.0,0.0,0.0,0.029681435745,0.999559409126,0.25,0.15,0.0,1.0,0.0,0.0,1.0,2000000000,0,,,0
1449618017724845458,271,1449618017723908227,/odom,ga,2,2,0,2.87541726737,0.0895077742606,0.0,0.0,0.0,0.0,0.0,0.15,0.15,0.01,0.0,1.0,0.0,1.0,2000000000,0,,,0
1449618017829051800,272,1449618017828421460,/odom,ga,1,0,0,2.92448718454,0.102568033202,0.0,0.0,0.0,0.0355622763878,0.999367462197,0.25,0.15,0.0,1.0,0.0,0.0,1.0,2000000000,0,,,0
1449618017829056098,273,1449618017828700363,/odom,ga,2,2,0,2.92448718454,0.102568033202,0.0,0.0,0.0,0.0,0.0,0.15,0.15,0.01,0.0,1.0,0.0,1.0,2000000000,0,,,0
1449618017933379645,274,1449618017932737178,/odom,ga,1,0,0,2.97187927084,0.108144681579,0.0,0.0,0.0,0.0363685902084,0.999338443995,0.25,0.15,0.0,1.0,0.0,0.0,1.0,2000000000,0,,,0
1449618017933397193,275,1449618017932899693,/odom,ga,2,2,0,2.97187927084,0.108144681579,0.0,0.0,0.0,0.0,0.0,0.15,0.15,0.01,0.0,1.0,0.0,1.0,2000000000,0,,,0
1449618018113055288,276,1449618018112699701,/odom,ga,1,0,0,3.56009475113,-0.0155994246557,0.0,0.0,0.0,-0.100956338679,0.99489085717,0.25,0.15,0.0,1.0,0.0,0.0,1.0,2000000000,0,,,0
1449618018113064430,277,1449618018112926213,/odom,ga,2,2,0,3.56009475113,-0.0155994246557,0.0,0.0,0.0,0.0,0.0,0.15,0.15,0.01,0.0,1.0,0.0,1.0,2000000000,0,,,0
1449618018271512340,278,1449618018270845777,/odom,ga,1,0,0,3.54749507636,-0.162228413098,0.0,0.0,0.0,-0.22186039351,0.97507844084,0.25,0.15,0.0,1.0,0.0,0.0,1.0,2000000000,0,,,0
1449618018271516392,279,1449618018270963672,/odom,ga,2,2,0,3.54749507636,-0.162228413098,0.0,0.0,0.0,0.0,0.0,0.15,0.15,0.01,0.0,1.0,0.0,1.0,2000000000,0,,,0
1449618018362036711,280,1449618018361158814,/odom,ga,1,0,0,3.60371207413,-0.290152797887,0.0,0.0,0.0,-0.313771639693,0.949498477157,0.25,0.15,0.0,1.0,0.0,0.0,1.0,2000000000,0,,,0
1449618018362197394,281,1449618018361349558,/odom,ga,2,2,0,3.60371207413,-0.290152797887,0.0,0.0,0.0,0.0,0.0,0.15,0.15,0.01,0.0,1.0,0.0,1.0,2000000000,0,,,0
1449618018562684776,282,1449618018561781536,/odom,ga,1,0,0,3.51300800316,-0.440226005794,0.0,0.0,0.0,-0.444846060033,0.895607047132,0.25,0.15,0.0,1.0,0.0,0.0,1.0,2000000000,0,,,0
1449618018562711437,283,1449618018562134707,/odom,ga,2,2,0,3.51300800316,-0.440226005794,0.0,0.0,0.0,0.0,0.0,0.15,0.15,0.01,0.0,1.0,0.0,1.0,2000000000,0,,,0
1449618018674328018,284,1449618018672850895,/odom,ga,1,0,0,3.4777861233,-0.392943546962,0.0,0.0,0.0,-0.443593903731,0.896227899908,0.25,0.15,0.0,1.0,0.0,0.0,1.0,2000000000,0,,,0
1449618018674332986,285,1449618018673080844,/odom,ga,2,2,0,3.4777861233,-0.392943546962,0.0,0.0,0.0,0.0,0.0,0.15,0.15,0.01,0.0,1.0,0.0,1.0,2000000000,0,,,0
1449618018812401294,286,1449618018810915614,/odom,ga,1,0,0,3.47992243946,-0.410578085384,0.0,0.0,0.0,-0.464180749011,0.885740499383,0.25,0.15,0.0,1.0,0.0,0.0,1.0,2000000000,0,,,0
1449618018812405110,287,1449618018811031019,/odom,ga,2,2,0,3.47992243946,-0.410578085384,0.0,0.0,0.0,0.0,0.0,0.15,0.15,0.01,0.0,1.0,0.0,1.0,2000000000,0,,,0
1449618018957459165,288,1449618018957258819,/odom,ga,1,0,0,3.4824201601,-0.441989874956,0.0,0.0,0.0,-0.497525383938,0.86744941774,0.25,0.15,0.0,1.0,0.0,0.0,1.0,2000000000,0,,,0
1449618018957476989,289,1449618018957335489,/odom,ga,2,2,0,3.4824201601,-0.441989874956,0.0,0.0,0.0,0.0,0.0,0.15,0.15,0.01,0.0,1.0,0.0,1.0,2000000000,0,,,0
1449618019029951968,290,1449618019029149518,/odom,ga,1,0,0,3.46517002762,-0.408596789078,0.0,0.0,0.0,-0.489890699064,0.871783862532,0.25,0.15,0.0,1.0,0.0,0.0,1.0,2000000000,0,,,0
1449618019030828386,291,1449618019029347977,/odom,ga,2,2,0,3.46517002762,-0.408596789078,0.0,0.0,0.0,0.0,0.0,0.15,0.15,0.01,0.0,1.0,0.0,1.0,2000000000,0,,,0
1449618019152234339,292,1449618019152016405,/odom,ga,1,0,0,3.42597860108,-0.378507155779,0.0,0.0,0.0,-0.486264871961,0.873811463816,0.25,0.15,0.0,1.0,0.0,0.0,1.0,2000000000,0,,,0
1449618019152803828,293,1449618019152188487,/odom,ga,2,2,0,3.42597860108,-0.378507155779,0.0,0.0,0.0,0.0,0.0,0.15,0.15,0.01,0.0,1.0,0.0,1.0,2000000000,0,,,0
1449618019224122412,294,1449618019224003397,/odom,ga,1,0,0,3.442801247,-0.395845726738,0.0,0.0,0.0,-0.500543560771,0.865711351301,0.25,0.15,0.0,1.0,0.0,0.0,1.0,2000000000,0,,,0
1449618019224276639,295,1449618019224141364,/odom,ga,2,2,0,3.442801247,-0.395845726738,0.0,0.0,0.0,0.0,0.0,0.15,0.15,0.01,0.0,1.0,0.0,1.0,2000000000,0,,,0
1449618019292124318,296,1449618019290450569,/odom,ga,1,0,0,3.42049399219,-0.335211313636,0.0,0.0,0.0,-0.473021391652,0.881050942364,0.25,0.15,0.0,1.0,0.0,0.0,1.0,2000000000,0,,,0
1449618019293886834,297,1449618019290864810,/odom,ga,2,2,0,3.42049399219,-0.335211313636,0.0,0.0,0.0,0.0,0.0,0.15,0.15,0.01,0.0,1.0,0.0,1.0,2000000000,0,,,0
1449618019303613974,298,1449618019303055673,/odom,ga,1,0,0,3.27377382476,0.0435875907085,0.0,0.0,0.0,-0.11451779602,0.993421196872,0.25,0.15,0.0,1.0,0.0,0.0,1.0,2000000000,0,,,0
1449618019303619682,299,1449618019303132576,/odom,ga,2,2,0,3.27377382476,0.0435875907085,0.0,0.0,0.0,0.0,0.0,0.15,0.15,0.01,0.0,1.0,0.0,1.0,2000000000,0,,,0
1449618019381521514,300,1449618019381351978,/odom,ga,1,0,0,3.32944651867,0.186192911612,0.0,0.0,0.0,0.0616690333823,0.998096653797,0.25,0.15,0.0,1.0,0.0,0.0,1.0,2000000000,0,,,0
1449618019381739362,301,1449618019381546395,/odom,ga,2,2,0,3.32944651867,0.186192911612,0.0,0.0,0.0,0.0,0.0,0.15,0.15,0.01,0.0,1.0,0.0,1.0,2000000000,0,,,0
1449618019470670187,302,1449618019470173422,/odom,ga,1,0,0,3.31671349907,0.236020732565,0.0,0.0,0.0,0.128821034777,0.991667858206,0.25,0.15,0.0,1.0,0.0,0.0,1.0,2000000000,0,,,0
1449618019470874293,303,1449618019470397177,/odom,ga,2,2,0,3.31671349907,0.236020732565,0.0,0.0,0.0,0.0,0.0,0.15,0.15,0.01,0.0,1.0,0.0,1.0,2000000000,0,,,0
1449618019585278326,304,1449618019584592552,/odom,ga,1,0,0,3.40625075362,0.412506084001,0.0,0.0,0.0,0.30109694904,0.953593533576,0.25,0.15,0.0,1.0,0.0,0.0,1.0,2000000000,0,,,0
1449618019585313596,305,1449618019584828682,/odom,ga,2,2,0,3.40625075362,0.412506084001,0.0,0.0,0.0,0.0,0.0,0.15,0.15,0.01,0.0,1.0,0.0,1.0,2000000000,0,,,0
1449618019702850735,306,1449618019697521137,/odom,ga,1,0,0,3.39047146605,0.442698055588,0.0,0.0,0.0,0.346748833875,0.937958019426,0.25,0.15,0.0,1.0,0.0,0.0,1.0,2000000000,0,,,0
1449618019702859810,307,1449618019697778238,/odom,ga,2,2,0,3.39047146605,0.442698055588,0.0,0.0,0.0,0.0,0.0,0.15,0.15,0.01,0.0,1.0,0.0,1.0,2000000000,0,,,0
1449618019809853128,308,1449618019804455307,/odom,ga,1,0,0,3.40164579179,0.460486497357,0.0,0.0,0.0,0.38159528221,0.924329508668,0.25,0.15,0.0,1.0,0.0,0.0,1.0,2000000000,0,,,0
1449618019809945398,309,1449618019804620664,/odom,ga,2,2,0,3.40164579179,0.460486497357,0.0,0.0,0.0,0.0,0.0,0.15,0.15,0.01,0.0,1.0,0.0,1.0,2000000000,0,,,0
1449618019876580925,310,1449618019874438198,/odom,ga,1,0,0,3.36149858634,0.418006868617,0.0,0.0,0.0,0.373410888139,0.927666054472,0.25,0.15,0.0,1.0,0.0,0.0,1.0,2000000000,0,,,0
1449618019876592811,311,1449618019874548944,/odom,ga,2,2,0,3.36149858634,0.418006868617,0.0,0.0,0.0,0.0,0.0,0.15,0.15,0.01,0.0,1.0,0.0,1.0,2000000000,0,,,0
1449618019968472220,312,1449618019968235711,/odom,ga,1,0,0,3.34652862591,0.447031259365,0.0,0.0,0.0,0.416737689651,0.909026786197,0.25,0.15,0.0,1.0,0.0,0.0,1.0,2000000000,0,,,0
1449618019968538185,313,1449618019968385898,/odom,ga,2,2,0,3.34652862591,0.447031259365,0.0,0.0,0.0,0.0,0.0,0.15,0.15,0.01,0.0,1.0,0.0,1.0,2000000000,0,,,0
1449618020098764581,314,1449618020098018726,/odom,ga,1,0,0,3.37136832102,0.447242667074,0.0,0.0,0.0,0.419735882359,0.907646290721,0.25,0.15,0.0,1.0,0.0,0.0,1.0,2000000000,0,,,0
1449618020098835123,315,1449618020098148272,/odom,ga,2,2,0,3.37136832102,0.447242667074,0.0,0.0,0.0,0.0,0.0,0.15,0.15,0.01,0.0,1.0,0.0,1.0,2000000000,0,,,0
1449618020165949378,316,1449618020165773420,/odom,ga,1,0,0,3.34932191499,0.386831245859,0.0,0.0,0.0,0.379409190711,0.925228980309,0.25,0.15,0.0,1.0,0.0,0.0,1.0,2000000000,0,,,0
1449618020166449927,317,1449618020165918718,/odom,ga,2,2,0,3.34932191499,0.386831245859,0.0,0.0,0.0,0.0,0.0,0.15,0.15,0.01,0.0,1.0,0.0,1.0,2000000000,0,,,0
1449618020269838357,318,1449618020269521363,/odom,ga,1,0,0,3.35764340517,0.389199914182,0.0,0.0,0.0,0.386236182532,0.922399919397,0.25,0.15,0.0,1.0,0.0,0.0,1.0,2000000000,0,,,0
1449618020274180531,319,1449618020269765324,/odom,ga,2,2,0,3.35764340517,0.389199914182,0.0,0.0,0.0,0.0,0.0,0.15,0.15,0.01,0.0,1.0,0.0,1.0,2000000000,0,,,0
1449618020374364839,320,1449618020374146741,/odom,ga,1,0,0,3.39615513746,0.413494330625,0.0,0.0,0.0,0.404313623777,0.914620409585,0.25,0.15,0.0,1.0,0.0,0.0,1.0,2000000000,0,,,0
1449618020374514739,321,1449618020374293638,/odom,ga,2,2,0,3.39615513746,0.413494330625,0.0,0.0,0.0,0.0,0.0,0.15,0.15,0.01,0.0,1.0,0.0,1.0,2000000000,0,,,0
1449618020470479620,322,1449618020469641827,/odom,ga,1,0,0,3.37907258813,0.366160054161,0.0,0.0,0.0,0.36952815568,0.929219533888,0.25,0.15,0.0,1.0,0.0,0.0,1.0,2000000000,0,,,0
1449618020470484525,323,1449618020469757580,/odom,ga,2,2,0,3.37907258813,0.366160054161,0.0,0.0,0.0,0.0,0.0,0.15,0.15,0.01,0.0,1.0,0.0,1.0,2000000000,0,,,0
1449618020572693760,324,1449618020571777297,/odom,ga,1,0,0,3.39613740792,0.373255436262,0.0,0.0,0.0,0.374521768398,0.927218121585,0.25,0.15,0.0,1.0,0.0,0.0,1.0,2000000000,0,,,0
1449618020572708936,325,1449618020571913078,/odom,ga,2,2,0,3.39613740792,0.373255436262,0.0,0.0,0.0,0.0,0.0,0.15,0.15,0.01,0.0,1.0,0.0,1.0,2000000000,0,,,0
1449618020668587473,326,1449618020668291277,/odom,ga,1,0,0,3.42143466949,0.370698652087,0.0,0.0,0.0,0.371745647502,0.928334623702,0.25,0.15,0.0,1.0,0.0,0.0,1.0,2000000000,0,,,0
1449618020668800502,327,1449618020668553580,/odom,ga,2,2,0,3.42143466949,0.370698652087,0.0,0.0,0.0,0.0,0.0,0.15,0.15,0.01,0.0,1.0,0.0,1.0,2000000000,0,,,0
1449618020782010000,328,1449618020777985039,/odom,ga,1,0,0,3.43546177057,0.374070094039,0.0,0.0,0.0,0.374009979206,0.927424679127,0.25,0.15,0.0,1.0,0.0,0.0,1.0,2000000000,0,,,0
1449618020782016784,329,1449618020778327845,/odom,ga,2,2,0,3.43546177057,0.374070094039,0.0,0.0,0.0,0.0,0.0,0.15,0.15,0.01,0.0,1.0,0.0,1.0,2000000000,0,,,0
1449618020873215203,330,1449618020871982332,/odom,ga,1,0,0,3.45636656257,0.37871993526,0.0,0.0,0.0,0.376940472415,0.926237485883,0.25,0.15,0.0,1.0,0.0,0.0,1.0,2000000000,0,,,0
1449618020873228568,331,1449618020872468491,/odom,ga,2,2,0,3.45636656257,0.37871993526,0.0,0.0,0.0,0.0,0.0,0.15,0.15,0.01,0.0,1.0,0.0,1.0,2000000000,0,,,0
1449618020978633758,332,1449618020977926264,/odom,ga,1,0,0,3.46754985312,0.378794566538,0.0,0.0,0.0,0.376775440846,0.926304629793,0.25,0.15,0.0,1.0,0.0,0.0,1.0,2000000000,0,,,0
1449618020979480967,333,1449618020978530005,/odom,ga,2,2,0,3.46754985312,0.378794566538,0.0,0.0,0.0,0.0,0.0,0.15,0.15,0.01,0.0,1.0,0.0,1.0,2000000000,0,,,0
1449618021070885882,334,1449618021070103814,/odom,ga,1,0,0,3.48879721418,0.383847864028,0.0,0.0,0.0,0.37994924459,0.925007335936,0.25,0.15,0.0,1.0,0.0,0.0,1.0,2000000000,0,,,0
1449618021070889247,335,1449618021070209265,/odom,ga,2,2,0,3.48879721418,0.383847864028,0.0,0.0,0.0,0.0,0.0,0.15,0.15,0.01,0.0,1.0,0.0,1.0,2000000000,0,,,0
1449618021169056579,336,1449618021168758501,/odom,ga,1,0,0,3.49812654788,0.377697193988,0.0,0.0,0.0,0.375974123423,0.926630162749,0.25,0.15,0.0,1.0,0.0,0.0,1.0,2000000000,0,,,0
1449618021169067020,337,1449618021168845750,/odom,ga,2,2,0,3.49812654788,0.377697193988,0.0,0.0,0.0,0.0,0.0,0.15,0.15,0.01,0.0,1.0,0.0,1.0,2000000000,0,,,0
1449618021288094637,338,1449618021287297976,/odom,ga,1,0,0,3.51119998689,0.385353444422,0.0,0.0,0.0,0.381408184987,0.924406726731,0.25,0.15,0.0,1.0,0.0,0.0,1.0,2000000000,0,,,0
1449618021288709530,339,1449618021287564902,/odom,ga,2,2,0,3.51119998689,0.385353444422,0.0,0.0,0.0,0.0,0.0,0.15,0.15,0.01,0.0,1.0,0.0,1.0,2000000000,0,,,0
1449618021377490840,340,1449618021377209446,/odom,ga,1,0,0,3.53071558424,0.381320504167,0.0,0.0,0.0,0.377311413686,0.926086441485,0.25,0.15,0.0,1.0,0.0,0.0,1.0,2000000000,0,,,0
1449618021377853488,341,1449618021377466379,/odom,ga,2,2,0,3.53071558424,0.381320504167,0.0,0.0,0.0,0.0,0.0,0.15,0.15,0.01,0.0,1.0,0.0,1.0,2000000000,0,,,0
1449618021475923370,342,1449618021474268680,/odom,ga,1,0,0,3.54318077956,0.382281200707,0.0,0.0,0.0,0.377645506582,0.925950253177,0.25,0.15,0.0,1.0,0.0,0.0,1.0,2000000000,0,,,0
1449618021475927836,343,1449618021474566795,/odom,ga,2,2,0,3.54318077956,0.382281200707,0.0,0.0,0.0,0.0,0.0,0.15,0.15,0.01,0.0,1.0,0.0,1.0,2000000000,0,,,0
1449618021587010767,344,1449618021586079635,/odom,ga,1,0,0,3.5470307835,0.386489710791,0.0,0.0,0.0,0.3809146981,0.924610184224,0.25,0.15,0.0,1.0,0.0,0.0,1.0,2000000000,0,,,0
1449618021587014202,345,1449618021586283064,/odom,ga,2,2,0,3.5470307835,0.386489710791,0.0,0.0,0.0,0.0,0.0,0.15,0.15,0.01,0.0,1.0,0.0,1.0,2000000000,0,,,0
1449618021676036152,346,1449618021673413646,/odom,ga,1,0,0,3.56531635656,0.381647552785,0.0,0.0,0.0,0.376691169,0.926338902992,0.25,0.15,0.0,1.0,0.0,0.0,1.0,2000000000,0,,,0
1449618021676039898,347,1449618021673569573,/odom,ga,2,2,0,3.56531635656,0.381647552785,0.0,0.0,0.0,0.0,0.0,0.15,0.15,0.01,0.0,1.0,0.0,1.0,2000000000,0,,,0
1449618021769878371,348,1449618021769372538,/odom,ga,1,0,0,3.57207433887,0.380322323956,0.0,0.0,0.0,0.377436826436,0.926035335206,0.25,0.15,0.0,1.0,0.0,0.0,1.0,2000000000,0,,,0
1449618021770373488,349,1449618021769490035,/odom,ga,2,2,0,3.57207433887,0.380322323956,0.0,0.0,0.0,0.0,0.0,0.15,0.15,0.01,0.0,1.0,0.0,1.0,2000000000,0,,,0
1449618021878948856,350,1449618021878146886,/odom,ga,1,0,0,3.58632897471,0.382069430909,0.0,0.0,0.0,0.377689691388,0.925932231332,0.25,0.15,0.0,1.0,0.0,0.0,1.0,2000000000,0,,,0
1449618021878961934,351,1449618021878374408,/odom,ga,2,2,0,3.58632897471,0.382069430909,0.0,0.0,0.0,0.0,0.0,0.15,0.15,0.01,0.0,1.0,0.0,1.0,2000000000,0,,,0
1449618021990763123,352,1449618021990616896,/odom,ga,1,0,0,3.60445247559,0.382891500281,0.0,0.0,0.0,0.377768048035,0.925900265625,0.25,0.15,0.0,1.0,0.0,0.0,1.0,2000000000,0,,,0
1449618021991182876,353,1449618021990759281,/odom,ga,2,2,0,3.60445247559,0.382891500281,0.0,0.0,0.0,0.0,0.0,0.15,0.15,0.01,0.0,1.0,0.0,1.0,2000000000,0,,,0
1449618022068646137,354,1449618022068339110,/odom,ga,1,0,0,3.61828389824,0.382154596975,0.0,0.0,0.0,0.375324187779,0.926893604503,0.25,0.15,0.0,1.0,0.0,0.0,1.0,2000000000,0,,,0
1449618022069194600,355,1449618022068708261,/odom,ga,2,2,0,3.61828389824,0.382154596975,0.0,0.0,0.0,0.0,0.0,0.15,0.15,0.01,0.0,1.0,0.0,1.0,2000000000,0,,,0
1449618022179278477,356,1449618022178302597,/odom,ga,1,0,0,3.63028081269,0.383769155257,0.0,0.0,0.0,0.376697798165,0.926336207248,0.25,0.15,0.0,1.0,0.0,0.0,1.0,2000000000,0,,,0
1449618022179283536,357,1449618022178754682,/odom,ga,2,2,0,3.63028081269,0.383769155257,0.0,0.0,0.0,0.0,0.0,0.15,0.15,0.01,0.0,1.0,0.0,1.0,2000000000,0,,,0
1449618022275298565,358,1449618022274542711,/odom,ga,1,0,0,3.64850477286,0.376756813972,0.0,0.0,0.0,0.370102828955,0.928990794357,0.25,0.15,0.0,1.0,0.0,0.0,1.0,2000000000,0,,,0
1449618022275304192,359,1449618022274713614,/odom,ga,2,2,0,3.64850477286,0.376756813972,0.0,0.0,0.0,0.0,0.0,0.15,0.15,0.01,0.0,1.0,0.0,1.0,2000000000,0,,,0
1449618022374963931,360,1449618022374414844,/odom,ga,1,0,0,3.65409405751,0.384202569042,0.0,0.0,0.0,0.376353067793,0.926476318296,0.25,0.15,0.0,1.0,0.0,0.0,1.0,2000000000,0,,,0
1449618022375777919,361,1449618022374667082,/odom,ga,2,2,0,3.65409405751,0.384202569042,0.0,0.0,0.0,0.0,0.0,0.15,0.15,0.01,0.0,1.0,0.0,1.0,2000000000,0,,,0
1449618022473944241,362,1449618022473281157,/odom,ga,1,0,0,3.6719771028,0.383779166387,0.0,0.0,0.0,0.375081308622,0.92699191578,0.25,0.15,0.0,1.0,0.0,0.0,1.0,2000000000,0,,,0
1449618022474337775,363,1449618022473496926,/odom,ga,2,2,0,3.6719771028,0.383779166387,0.0,0.0,0.0,0.0,0.0,0.15,0.15,0.01,0.0,1.0,0.0,1.0,2000000000,0,,,0
1449618022576255482,364,1449618022575361320,/odom,ga,1,0,0,3.64699954455,0.347352527488,0.0,0.0,0.0,0.349213200749,0.937043296984,0.25,0.15,0.0,1.0,0.0,0.0,1.0,2000000000,0,,,0
1449618022576363912,365,1449618022575498826,/odom,ga,2,2,0,3.64699954455,0.347352527488,0.0,0.0,0.0,0.0,0.0,0.15,0.15,0.01,0.0,1.0,0.0,1.0,2000000000,0,,,0
1449618022701652070,366,1449618022700364017,/odom,ga,1,0,0,3.66994366629,0.357554238624,0.0,0.0,0.0,0.355830100434,0.934550661883,0.25,0.15,0.0,1.0,0.0,0.0,1.0,2000000000,0,,,0
1449618022701691484,367,1449618022700552333,/odom,ga,2,2,0,3.66994366629,0.357554238624,0.0,0.0,0.0,0.0,0.0,0.15,0.15,0.01,0.0,1.0,0.0,1.0,2000000000,0,,,0
1449618022773284947,368,1449618022772066041,/odom,ga,1,0,0,3.71415500943,0.370990562505,0.0,0.0,0.0,0.363450963825,0.93161333014,0.25,0.15,0.0,1.0,0.0,0.0,1.0,2000000000,0,,,0
1449618022773337046,369,1449618022772260073,/odom,ga,2,2,0,3.71415500943,0.370990562505,0.0,0.0,0.0,0.0,0.0,0.15,0.15,0.01,0.0,1.0,0.0,1.0,2000000000,0,,,0
1449618022876505785,370,1449618022875886076,/odom,ga,1,0,0,3.71833059611,0.378320548818,0.0,0.0,0.0,0.370448739384,0.928852911654,0.25,0.15,0.0,1.0,0.0,0.0,1.0,2000000000,0,,,0
1449618022876527245,371,1449618022875966082,/odom,ga,2,2,0,3.71833059611,0.378320548818,0.0,0.0,0.0,0.0,0.0,0.15,0.15,0.01,0.0,1.0,0.0,1.0,2000000000,0,,,0
1449618022992670345,372,1449618022991457708,/odom,ga,1,0,0,3.73141400923,0.375303277358,0.0,0.0,0.0,0.368295900589,0.929708626189,0.25,0.15,0.0,1.0,0.0,0.0,1.0,2000000000,0,,,0
1449618022992924904,373,1449618022992268476,/odom,ga,2,2,0,3.73141400923,0.375303277358,0.0,0.0,0.0,0.0,0.0,0.15,0.15,0.01,0.0,1.0,0.0,1.0,2000000000,0,,,0
