%time,field.x,field.y,field.z
1449617996436173189,6.0,6.0,0.0
1449617996469462940,6.0,6.0,0.0
1449617996502787596,6.0,6.0,0.0
1449617996536173099,6.0,6.0,0.0
1449617996569483657,6.0,6.0,0.0
1449617996602800864,6.0,6.0,0.0
1449617996636224319,6.0,6.0,0.0
1449617996669525126,6.0,6.0,0.0
1449617996702732340,6.0,6.0,0.0
1449617996736169751,6.0,6.0,0.0
1449617996769480240,6.0,6.0,0.0
1449617996802749417,6.0,6.0,0.0
1449617996836163120,6.0,6.0,0.0
1449617996869480842,6.0,6.0,0.0
1449617996902823650,6.0,6.0,0.0
1449617996936122363,6.0,6.0,0.0
1449617996969516793,6.0,6.0,0.0
1449617997002837346,6.0,6.0,0.0
1449617997036299469,6.0,6.0,0.0
1449617997069532233,6.0,6.0,0.0
1449617997102756807,6.0,6.0,0.0
1449617997136204351,6.0,6.0,0.0
1449617997169564603,6.0,6.0,0.0
1449617997202811703,6.0,6.0,0.0
1449617997236124168,6.0,6.0,0.0
1449617997269431854,6.0,6.0,0.0
1449617997302798879,6.0,6.0,0.0
1449617997336159512,6.0,6.0,0.0
1449617997369498534,6.0,6.0,0.0
1449617997402845772,6.0,6.0,0.0
1449617997436142105,6.0,6.0,0.0
1449617997469446429,6.0,6.0,0.0
1449617997502832714,6.0,6.0,0.0
1449617997536198272,6.0,6.0,0.0
1449617997569550006,6.0,6.0,0.0
1449617997602806088,6.0,6.0,0.0
1449617997636127582,6.0,6.0,0.0
1449617997669459919,6.0,6.0,0.0
1449617997702797610,6.0,6.0,0.0
1449617997736140627,6.0,6.0,0.0
1449617997769463328,6.0,6.0,0.0
1449617997802858683,6.0,6.0,0.0
1449617997836201420,6.0,6.0,0.0
1449617997869429385,6.0,6.0,0.0
1449617997902826882,6.0,6.0,0.0
1449617997936181263,6.0,6.0,0.0
1449617997969429754,6.0,6.0,0.0
1449617998002845828,6.0,6.0,0.0
1449617998036222016,6.0,6.0,0.0
1449617998069421961,6.0,6.0,0.0
1449617998102762488,6.0,6.0,0.0
1449617998136188996,6.0,6.0,0.0
1449617998169491019,6.0,6.0,0.0
1449617998202818024,6.0,6.0,0.0
1449617998236162199,6.0,6.0,0.0
1449617998269439568,6.0,6.0,0.0
1449617998302803420,6.0,6.0,0.0
1449617998336195140,6.0,6.0,0.0
1449617998369494949,6.0,6.0,0.0
1449617998402760642,6.0,6.0,0.0
1449617998436176333,6.0,6.0,0.0
1449617998469488574,6.0,6.0,0.0
1449617998502734163,6.0,6.0,0.0
1449617998536305858,6.0,6.0,0.0
1449617998569521965,6.0,6.0,0.0
1449617998602833068,6.0,6.0,0.0
1449617998636115386,6.0,6.0,0.0
1449617998669524347,6.0,6.0,0.0
1449617998702806361,6.0,6.0,0.0
1449617998736073551,6.0,6.0,0.0
1449617998769455044,6.0,6.0,0.0
1449617998802820944,6.0,6.0,0.0
1449617998836146088,6.0,6.0,0.0
1449617998869446239,6.0,6.0,0.0
1449617998902754455,6.0,6.0,0.0
1449617998936121675,6.0,6.0,0.0
1449617998969435099,6.0,6.0,0.0
1449617999002746751,6.0,6.0,0.0
1449617999036095953,6.0,6.0,0.0
1449617999069509916,6.0,6.0,0.0
1449617999102794593,6.0,6.0,0.0
1449617999136107369,6.0,6.0,0.0
1449617999169397357,6.0,6.0,0.0
1449617999202801003,6.0,6.0,0.0
1449617999236094640,6.0,6.0,0.0
1449617999269425815,6.0,6.0,0.0
1449617999302843417,6.0,6.0,0.0
1449617999336117009,6.0,6.0,0.0
1449617999369431078,6.0,6.0,0.0
1449617999402758699,6.0,6.0,0.0
1449617999436181469,6.0,6.0,0.0
1449617999469639852,6.0,6.0,0.0
1449617999502747482,6.0,6.0,0.0
1449617999536210522,6.0,6.0,0.0
1449617999569642046,6.0,6.0,0.0
1449617999602822566,6.0,6.0,0.0
1449617999636237886,6.0,6.0,0.0
1449617999669506840,6.0,6.0,0.0
1449617999702909147,6.0,6.0,0.0
1449617999736108687,6.0,6.0,0.0
1449617999769509452,6.0,6.0,0.0
1449617999802857108,6.0,6.0,0.0
1449617999836128436,6.0,6.0,0.0
1449617999869856622,6.0,6.0,0.0
1449617999903336489,6.0,6.0,0.0
1449617999936511986,6.0,6.0,0.0
1449617999969704717,6.0,6.0,0.0
1449618000002969981,6.0,6.0,0.0
1449618000036470176,6.0,6.0,0.0
1449618000069735467,6.0,6.0,0.0
1449618000102952370,6.0,6.0,0.0
1449618000136622956,6.0,6.0,0.0
1449618000169644404,6.0,6.0,0.0
1449618000203142612,6.0,6.0,0.0
1449618000236292460,6.0,6.0,0.0
1449618000269860876,6.0,6.0,0.0
1449618000302984212,6.0,6.0,0.0
1449618000336473162,6.0,6.0,0.0
1449618000369669840,6.0,6.0,0.0
1449618000403138860,6.0,6.0,0.0
1449618000436474666,6.0,6.0,0.0
1449618000469896093,6.0,6.0,0.0
1449618000503057089,6.0,6.0,0.0
1449618000537038607,6.0,6.0,0.0
1449618000570769954,6.0,6.0,0.0
1449618000603705324,6.0,6.0,0.0
1449618000636648072,6.0,6.0,0.0
1449618000670071523,6.0,6.0,0.0
1449618000702985107,6.0,6.0,0.0
1449618000736721442,6.0,6.0,0.0
1449618000769974117,6.0,6.0,0.0
1449618000803397681,6.0,6.0,0.0
1449618000836531386,6.0,6.0,0.0
1449618000870090556,6.0,6.0,0.0
1449618000904591307,6.0,6.0,0.0
1449618000936644170,6.0,6.0,0.0
1449618000971218463,6.0,6.0,0.0
1449618001003209379,6.0,6.0,0.0
1449618001036745623,6.0,6.0,0.0
1449618001070474857,6.0,6.0,0.0
1449618001103225352,6.0,6.0,0.0
1449618001137142784,6.0,6.0,0.0
1449618001172342022,6.0,6.0,0.0
1449618001203126756,6.0,6.0,0.0
1449618001236562056,6.0,6.0,0.0
1449618001269833855,6.0,6.0,0.0
1449618001303201862,6.0,6.0,0.0
1449618001336497652,6.0,6.0,0.0
1449618001369624039,6.0,6.0,0.0
1449618001403063330,6.0,6.0,0.0
1449618001437056134,6.0,6.0,0.0
1449618001469860974,6.0,6.0,0.0
1449618001503147536,6.0,6.0,0.0
1449618001536503753,6.0,6.0,0.0
1449618001569963697,6.0,6.0,0.0
1449618001604148072,6.0,6.0,0.0
1449618001637018174,6.0,6.0,0.0
1449618001669796900,6.0,6.0,0.0
1449618001703256203,6.0,6.0,0.0
1449618001736523595,6.0,6.0,0.0
1449618001769823197,6.0,6.0,0.0
1449618001803169129,6.0,6.0,0.0
1449618001836485301,6.0,6.0,0.0
1449618001870182244,6.0,6.0,0.0
1449618001902964990,6.0,6.0,0.0
1449618001937470308,6.0,6.0,0.0
1449618001969835923,6.0,6.0,0.0
1449618002004090873,6.0,6.0,0.0
1449618002036784227,6.0,6.0,0.0
1449618002069486414,6.0,6.0,0.0
1449618002103054841,6.0,6.0,0.0
1449618002137813742,6.0,6.0,0.0
1449618002170092968,6.0,6.0,0.0
1449618002203880216,6.0,6.0,0.0
1449618002236533749,6.0,6.0,0.0
1449618002269797064,6.0,6.0,0.0
1449618002303288626,6.0,6.0,0.0
1449618002336357232,6.0,6.0,0.0
1449618002370562805,6.0,6.0,0.0
1449618002404460342,6.0,6.0,0.0
1449618002436310606,6.0,6.0,0.0
1449618002469739107,6.0,6.0,0.0
1449618002503490620,6.0,6.0,0.0
1449618002536968319,6.0,6.0,0.0
1449618002570331233,6.0,6.0,0.0
1449618002604107260,6.0,6.0,0.0
1449618002637054777,6.0,6.0,0.0
1449618002669846169,6.0,6.0,0.0
1449618002702885160,6.0,6.0,0.0
1449618002736824993,6.0,6.0,0.0
1449618002770219016,6.0,6.0,0.0
1449618002803048542,6.0,6.0,0.0
1449618002836341303,6.0,6.0,0.0
1449618002869682497,6.0,6.0,0.0
1449618002903116219,6.0,6.0,0.0
1449618002936439942,6.0,6.0,0.0
1449618002969928897,6.0,6.0,0.0
1449618003003838752,6.0,6.0,0.0
1449618003036858030,6.0,6.0,0.0
1449618003070375157,6.0,6.0,0.0
1449618003106705785,6.0,6.0,0.0
1449618003136915614,6.0,6.0,0.0
1449618003170257838,6.0,6.0,0.0
1449618003204090542,6.0,6.0,0.0
1449618003237852439,6.0,6.0,0.0
1449618003270586746,6.0,6.0,0.0
1449618003303164997,6.0,6.0,0.0
1449618003336666045,6.0,6.0,0.0
1449618003374082139,6.0,6.0,0.0
1449618003403224277,6.0,6.0,0.0
1449618003437133429,6.0,6.0,0.0
1449618003469645149,6.0,6.0,0.0
1449618003503957766,6.0,6.0,0.0
1449618003536394347,6.0,6.0,0.0
1449618003570022497,6.0,6.0,0.0
1449618003603244799,6.0,6.0,0.0
1449618003636518150,6.0,6.0,0.0
1449618003670780401,6.0,6.0,0.0
1449618003703180261,6.0,6.0,0.0
1449618003739263339,6.0,6.0,0.0
1449618003770124945,6.0,6.0,0.0
1449618003803130144,6.0,6.0,0.0
1449618003836284315,6.0,6.0,0.0
1449618003870120863,6.0,6.0,0.0
1449618003903486061,6.0,6.0,0.0
1449618003936541837,6.0,6.0,0.0
1449618003970674208,6.0,6.0,0.0
1449618004003245442,6.0,6.0,0.0
1449618004036209259,6.0,6.0,0.0
1449618004070077656,6.0,6.0,0.0
1449618004103475932,6.0,6.0,0.0
1449618004136893640,6.0,6.0,0.0
1449618004169858934,6.0,6.0,0.0
1449618004203573589,6.0,6.0,0.0
1449618004236256015,6.0,6.0,0.0
1449618004269746614,6.0,6.0,0.0
1449618004304519896,6.0,6.0,0.0
1449618004336648760,6.0,6.0,0.0
1449618004369856969,6.0,6.0,0.0
1449618004403286298,6.0,6.0,0.0
1449618004436422539,6.0,6.0,0.0
1449618004469668616,6.0,6.0,0.0
1449618004503110962,6.0,6.0,0.0
1449618004536498854,6.0,6.0,0.0
1449618004569791392,6.0,6.0,0.0
1449618004603272276,6.0,6.0,0.0
1449618004636226087,6.0,6.0,0.0
1449618004669737297,6.0,6.0,0.0
1449618004703414388,6.0,6.0,0.0
1449618004736894407,6.0,6.0,0.0
1449618004775463913,6.0,6.0,0.0
1449618004803314356,6.0,6.0,0.0
1449618004836349085,6.0,6.0,0.0
1449618004869995251,6.0,6.0,0.0
1449618004902847973,6.0,6.0,0.0
1449618004936805374,6.0,6.0,0.0
1449618004974642352,6.0,6.0,0.0
1449618005003761826,6.0,6.0,0.0
1449618005036692976,6.0,6.0,0.0
1449618005069888841,6.0,6.0,0.0
1449618005103421239,6.0,6.0,0.0
1449618005136595709,6.0,6.0,0.0
1449618005169875195,6.0,6.0,0.0
1449618005203119734,6.0,6.0,0.0
1449618005236654074,6.0,6.0,0.0
1449618005269764740,6.0,6.0,0.0
1449618005303143524,6.0,6.0,0.0
1449618005336424614,6.0,6.0,0.0
1449618005370925295,6.0,6.0,0.0
1449618005403333231,6.0,6.0,0.0
1449618005436231603,6.0,6.0,0.0
1449618005469545341,6.0,6.0,0.0
1449618005503016841,6.0,6.0,0.0
1449618005536238846,6.0,6.0,0.0
1449618005570349307,6.0,6.0,0.0
1449618005606404518,6.0,6.0,0.0
1449618005636689501,6.0,6.0,0.0
1449618005669859777,6.0,6.0,0.0
1449618005705446663,6.0,6.0,0.0
1449618005736418589,6.0,6.0,0.0
1449618005769761401,6.43268064606,6.0,0.0
1449618005803143133,6.43268064606,6.0,0.0
1449618005836477495,6.60968634979,6.0,0.0
1449618005869964827,6.60968634979,6.0,0.0
1449618005903526113,6.33434414398,6.0,0.0
1449618005936627409,6.33434414398,6.0,0.0
1449618005969758051,6.33434414398,6.0,0.0
1449618006003297999,6.33434414398,6.0,0.0
1449618006044412491,6.33434414398,6.0,0.0
1449618006071467855,6.33434414398,6.0,0.0
1449618006103305364,6.33434414398,6.0,0.0
1449618006136606691,6.33434414398,6.0,0.0
1449618006170242329,6.33434414398,6.0,0.0
1449618006203181784,6.33434414398,6.0,0.0
1449618006236602444,6.60968634979,6.0,0.0
1449618006270005471,6.60968634979,6.0,0.0
1449618006302894369,6.60968634979,6.0,0.0
1449618006339636181,6.60968634979,6.0,0.0
1449618006371940275,6.60968634979,6.0,0.0
1449618006403367623,6.60968634979,6.0,0.0
1449618006436417351,6.61952,6.0,0.0
1449618006469679096,6.61952,6.0,0.0
1449618006503167676,6.61952,6.0,0.0
1449618006536453398,6.60968634979,6.0,0.0
1449618006569834642,6.60968634979,6.0,0.0
1449618006603411500,6.51004146904,5.84833927977,0.0
1449618006646065920,6.51004146904,5.84833927977,0.0
1449618006670081706,6.51004146904,5.84833927977,0.0
1449618006703314454,6.5096191231,5.84833927977,0.0
1449618006736589233,6.5096191231,5.84833927977,0.0
1449618006769976280,6.39887350677,5.71796428254,0.0
1449618006803371695,6.39887350677,5.71796428254,0.0
1449618006836972843,6.35462208084,5.76053570858,0.0
1449618006870723557,6.35462208084,5.76053570858,0.0
1449618006904186501,6.35462208084,5.76053570858,0.0
1449618006937107485,6.35462208084,5.76053570858,0.0
1449618006970559421,6.39311198926,5.7003195457,0.0
1449618007003143001,6.39226724976,5.71264285429,0.0
1449618007038259954,6.39226724976,5.71264285429,0.0
1449618007070150320,6.39226724976,5.71264285429,0.0
1449618007103326302,6.39226724976,5.71264285429,0.0
1449618007138551988,6.39226724976,5.71264285429,0.0
1449618007170683584,6.53101714813,5.43592856508,0.0
1449618007203593625,6.53101714813,5.42528570858,0.0
1449618007236630034,6.53101714813,5.42528570858,0.0
1449618007269587350,6.53101714813,5.42528570858,0.0
1449618007302870778,6.53101714813,5.42528570858,0.0
1449618007336434894,6.52118349792,5.43592856508,0.0
1449618007370231892,6.52118349792,5.43592856508,0.0
1449618007403609299,6.52118349792,5.43592856508,0.0
1449618007437032225,6.53101714813,5.42528570858,0.0
1449618007469926501,6.53101714813,5.42528570858,0.0
1449618007503329809,6.53101714813,5.42528570858,0.0
1449618007539918821,6.52118349792,5.42528570858,0.0
1449618007569832203,6.52118349792,5.42528570858,0.0
1449618007603424314,6.52118349792,5.42528570858,0.0
1449618007636258374,6.59001904938,5.87228571191,0.0
1449618007670086707,6.59001904938,5.87228571191,0.0
1449618007703808008,6.59001904938,5.87228571191,0.0
1449618007736636258,6.53101714813,5.98935714224,0.0
1449618007769859793,6.53101714813,5.98935714224,0.0
1449618007807235567,6.53101714813,5.98935714224,0.0
1449618007836439013,6.60968634979,6.0,0.0
1449618007869659891,6.60968634979,6.0,0.0
1449618007903483269,6.60968634979,6.01064285776,0.0
1449618007936497546,6.60968634979,6.01064285776,0.0
1449618007971129652,6.60968634979,6.01064285776,0.0
1449618008003509342,6.60968634979,6.01064285776,0.0
1449618008038121001,6.60968634979,6.01064285776,0.0
1449618008069622133,6.60968634979,6.01064285776,0.0
1449618008103341422,6.60968634979,6.01064285776,0.0
1449618008136423130,6.60968634979,6.02128571551,0.0
1449618008171244149,6.60968634979,6.02128571551,0.0
1449618008209930908,6.60968634979,6.02128571551,0.0
1449618008237765473,6.59985269958,6.02128571551,0.0
1449618008269885674,6.59985269958,6.02128571551,0.0
1449618008304392109,6.59985269958,6.02128571551,0.0
1449618008337446098,6.59985269958,6.03192857202,0.0
1449618008373184641,6.59985269958,6.03192857202,0.0
1449618008406690354,6.59985269958,6.05321428754,0.0
1449618008436337357,6.59985269958,6.05321428754,0.0
1449618008469608667,6.59985269958,6.05321428754,0.0
1449618008503309582,6.56051809875,6.30864285873,0.0
1449618008539186515,6.56051809875,6.30864285873,0.0
1449618008573786526,6.56051809875,6.30864285873,0.0
1449618008604141787,6.56051809875,6.30864285873,0.0
1449618008638638640,6.52118349792,6.57471429142,0.0
1449618008671399068,6.52118349792,6.57471429142,0.0
1449618008702984517,6.52118349792,6.57471429142,0.0
1449618008736265774,6.52118349792,6.57471429142,0.0
1449618008770513465,6.52118349792,6.57471429142,0.0
1449618008803193824,6.52118349792,6.56407143492,0.0
1449618008836329762,6.52118349792,6.56407143492,0.0
1449618008870433898,6.52118349792,6.56407143492,0.0
1449618008904144086,6.52118349792,6.56407143492,0.0
1449618008937115761,6.52118349792,6.57471429142,0.0
1449618008970009505,6.52118349792,6.57471429142,0.0
1449618009004255915,6.52118349792,6.57471429142,0.0
1449618009036632564,6.53101714813,6.56407143492,0.0
1449618009071501268,6.52118349792,6.56407143492,0.0
1449618009103578566,6.52118349792,6.56407143492,0.0
1449618009136845891,6.52118349792,6.56407143492,0.0
1449618009170155388,6.52118349792,6.56407143492,0.0
1449618009203667706,6.52118349792,6.56407143492,0.0
1449618009236986905,6.53101714813,6.56407143492,0.0
1449618009271162712,6.53101714813,6.56407143492,0.0
1449618009302888417,6.53101714813,6.56407143492,0.0
1449618009339011258,6.53101714813,6.57471429142,0.0
1449618009373974049,6.53101714813,6.57471429142,0.0
1449618009402987385,6.53101714813,6.57471429142,0.0
1449618009439279622,6.44251429626,6.48957143936,0.0
1449618009473888308,6.44251429626,6.48957143936,0.0
1449618009502908303,6.53101714813,6.57471429142,0.0
1449618009539883819,6.53101714813,6.57471429142,0.0
1449618009569859515,6.53101714813,6.57471429142,0.0
1449618009606002650,6.53101714813,6.57471429142,0.0
1449618009636779189,6.3982628611,6.43103571857,0.0
1449618009669814177,6.52118349792,6.56407143492,0.0
1449618009703389729,6.52118349792,6.56407143492,0.0
1449618009736690189,6.52118349792,6.56407143492,0.0
1449618009770403160,6.52118349792,6.56407143492,0.0
1449618009804027051,6.52118349792,6.56407143492,0.0
1449618009836260460,6.52118349792,6.56407143492,0.0
1449618009869756803,6.52118349792,6.56407143492,0.0
1449618009903704337,6.52118349792,6.56407143492,0.0
1449618009936474036,6.52118349792,6.56407143492,0.0
1449618009969782933,6.52118349792,6.56407143492,0.0
1449618010002974881,6.52118349792,6.56407143492,0.0
1449618010036203283,6.52118349792,6.57471429142,0.0
1449618010069664852,6.52118349792,6.57471429142,0.0
1449618010103183064,6.52118349792,6.56407143492,0.0
1449618010136995218,6.52118349792,6.56407143492,0.0
1449618010175259400,6.52118349792,6.56407143492,0.0
1449618010204186674,6.52118349792,6.56407143492,0.0
1449618010236505588,6.52118349792,6.56407143492,0.0
1449618010269717663,6.52118349792,6.57471429142,0.0
1449618010303116746,6.52118349792,6.57471429142,0.0
1449618010336326063,6.52118349792,6.57471429142,0.0
1449618010370294657,6.52118349792,6.57471429142,0.0
1449618010404014867,6.52118349792,6.56407143492,0.0
1449618010436379153,6.52118349792,6.56407143492,0.0
1449618010470098191,6.52118349792,6.56407143492,0.0
1449618010503219986,6.52118349792,6.56407143492,0.0
1449618010536585252,6.52118349792,6.56407143492,0.0
1449618010570516536,6.52118349792,6.56407143492,0.0
1449618010605148205,6.52118349792,6.56407143492,0.0
1449618010637901864,6.52118349792,6.56407143492,0.0
1449618010671921643,6.53101714813,6.56407143492,0.0
1449618010705229245,6.43268064606,6.46828572634,0.0
1449618010736333950,6.43268064606,6.46828572634,0.0
1449618010769866038,6.43268064606,6.46828572634,0.0
1449618010803160454,6.43268064606,6.46828572634,0.0
1449618010836664870,6.43268064606,6.46828572634,0.0
1449618010869747330,6.53101714813,6.57471429142,0.0
1449618010904261069,6.53101714813,6.56407143492,0.0
1449618010936634611,6.53101714813,6.56407143492,0.0
1449618010969926319,6.53101714813,6.56407143492,0.0
1449618011003800277,6.53101714813,6.56407143492,0.0
1449618011037112857,6.53101714813,6.56407143492,0.0
1449618011069897476,6.53101714813,6.56407143492,0.0
1449618011110016709,6.53101714813,6.57471429142,0.0
1449618011138463872,6.53101714813,6.57471429142,0.0
1449618011170429150,6.53101714813,6.57471429142,0.0
1449618011206985321,6.53101714813,6.57471429142,0.0
1449618011236898406,6.52118349792,6.57471429142,0.0
1449618011270237639,6.52118349792,6.57471429142,0.0
1449618011304208124,6.52118349792,6.57471429142,0.0
1449618011338315771,6.52118349792,6.56407143492,0.0
1449618011370572073,6.52118349792,6.56407143492,0.0
1449618011404261597,6.52118349792,6.56407143492,0.0
1449618011436615821,6.52118349792,6.56407143492,0.0
1449618011469893890,6.52118349792,6.56407143492,0.0
1449618011503397511,6.52118349792,6.56407143492,0.0
1449618011536565624,6.52118349792,6.56407143492,0.0
1449618011569698282,6.52118349792,6.56407143492,0.0
1449618011604750736,6.53101714813,6.57471429142,0.0
1449618011641950076,6.53101714813,6.57471429142,0.0
1449618011669460308,6.53101714813,6.57471429142,0.0
1449618011703446858,6.52118349792,6.56407143492,0.0
1449618011736793452,6.52118349792,6.56407143492,0.0
1449618011769835660,6.52118349792,6.56407143492,0.0
1449618011802990334,6.52118349792,6.56407143492,0.0
1449618011838931023,6.52118349792,6.57471429142,0.0
1449618011869949616,6.52118349792,6.57471429142,0.0
1449618011903978890,6.52118349792,6.57471429142,0.0
1449618011936638806,6.52118349792,6.57471429142,0.0
1449618011969874634,6.53101714813,6.57471429142,0.0
1449618012003081831,6.53101714813,6.57471429142,0.0
1449618012036158406,6.53101714813,6.57471429142,0.0
1449618012069762946,6.52118349792,6.56407143492,0.0
1449618012103557209,6.52118349792,6.57471429142,0.0
1449618012136496306,6.52118349792,6.57471429142,0.0
1449618012170451706,6.52118349792,6.57471429142,0.0
1449618012203033539,6.52118349792,6.57471429142,0.0
1449618012236518834,6.52118349792,6.57471429142,0.0
1449618012269871929,6.45726476234,6.03192857327,0.0
1449618012303551077,6.45726476234,6.00798214332,0.0
1449618012336408968,6.45726476234,6.00798214332,0.0
1449618012370228369,6.45726476234,6.00798214332,0.0
1449618012403060335,6.45726476234,6.00798214332,0.0
1449618012436427457,6.45726476234,6.0,0.0
1449618012469630730,6.45726476234,6.0,0.0
1449618012503191576,6.45726476234,6.0,0.0
1449618012536563691,6.45726476234,5.99201785668,0.0
1449618012571492607,6.45726476234,5.99201785668,0.0
1449618012603173582,6.45726476234,5.99201785668,0.0
1449618012636891537,6.45726476234,5.99201785668,0.0
1449618012669649899,6.45726476234,5.99201785668,0.0
1449618012704052977,6.45726476234,5.99201785668,0.0
1449618012736546004,6.45726476234,5.96807142673,0.0
1449618012770232589,6.43513904938,5.84035713739,0.0
1449618012805644746,6.43513904938,5.84035713739,0.0
1449618012837186527,6.43513904938,5.84035713739,0.0
1449618012872468587,6.43513904938,5.84035713739,0.0
1449618012903218684,6.43513904938,5.84035713739,0.0
1449618012936701215,6.43513904938,5.84035713739,0.0
1449618012969941440,6.57035174896,5.69135714127,0.0
1449618013003239183,6.57035174896,5.69135714127,0.0
1449618013036187319,6.57035174896,5.69135714127,0.0
1449618013070222319,6.57035174896,5.69135714127,0.0
1449618013103809077,6.57035174896,5.69135714127,0.0
1449618013136329524,6.57035174896,5.69135714127,0.0
1449618013169858189,6.42776381172,5.76851785595,0.0
1449618013203783178,6.42776381172,5.76851785595,0.0
1449618013236709626,6.42776381172,5.76851785595,0.0
1449618013269670515,6.42776381172,5.76851785595,0.0
1449618013302867553,6.42776381172,5.76851785595,0.0
1449618013336267783,6.42776381172,5.76851785595,0.0
1449618013370008035,6.42776381172,5.76851785595,0.0
1449618013404281111,6.42776381172,5.76851785595,0.0
1449618013436559002,6.42776381172,5.76851785595,0.0
1449618013470245957,6.29009269958,5.89357142492,0.0
1449618013503942927,6.29009269958,5.89357142492,0.0
1449618013536876656,6.29009269958,5.89357142492,0.0
1449618013571722201,6.29009269958,5.89357142492,0.0
1449618013607746808,6.29009269958,5.89357142492,0.0
1449618013636515445,6.29009269958,5.89357142492,0.0
1449618013669754815,6.29500952469,5.89889285318,0.0
1449618013703124776,6.29500952469,5.89357142492,0.0
1449618013736534801,6.29500952469,5.89357142492,0.0
1449618013769806824,6.29500952469,5.89357142492,0.0
1449618013803863694,6.29500952469,5.89357142492,0.0
1449618013836364100,6.29500952469,5.89357142492,0.0
1449618013869548103,6.26550857407,5.71264285429,0.0
1449618013903663851,6.26550857407,5.71264285429,0.0
1449618013938793404,6.26550857407,5.71264285429,0.0
1449618013970230753,6.26550857407,5.71264285429,0.0
1449618014003126239,6.26550857407,5.71264285429,0.0
1449618014037123698,6.26550857407,5.71264285429,0.0
1449618014072697511,6.26550857407,5.71264285429,0.0
1449618014104332020,6.26550857407,5.71264285429,0.0
1449618014136680266,6.33926095985,5.63282142048,0.0
1449618014170384551,6.57772698662,5.48060056121,0.0
1449618014203557726,6.57526857407,5.45329322991,0.0
1449618014236350941,6.57526857407,5.45329322991,0.0
1449618014272531248,6.57526857407,5.45329322991,0.0
1449618014303668950,6.57526857407,5.45329322991,0.0
1449618014337133730,6.57526857407,5.45329322991,0.0
1449618014369855278,6.57526857407,5.45329322991,0.0
1449618014403658390,6.61952,5.40007894737,0.0
1449618014436648195,6.61952,5.40007894737,0.0
1449618014469779673,6.61952,5.40007894737,0.0
1449618014503074471,6.61952,5.40007894737,0.0
1449618014537498183,6.61952,5.40007894737,0.0
1449618014570067154,6.61952,5.40007894737,0.0
1449618014603283129,6.59739428703,5.40638063767,0.0
1449618014637756592,6.59739428703,5.4090413518,0.0
1449618014671364925,6.59739428703,5.4090413518,0.0
1449618014702970094,6.59739428703,5.40638063767,0.0
1449618014736614482,6.59739428703,5.40638063767,0.0
1449618014769684119,6.59739428703,5.40638063767,0.0
1449618014802894070,6.59493587448,5.4090413518,0.0
1449618014836528569,6.57035174896,5.41800375623,0.0
1449618014869990861,6.59493587448,5.4090413518,0.0
1449618014903310845,6.59493587448,5.4090413518,0.0
1449618014937133820,6.59493587448,5.4090413518,0.0
1449618014975883710,6.59739428703,5.40638063767,0.0
1449618015005252718,6.59739428703,5.40638063767,0.0
1449618015036518549,6.59739428703,5.40638063767,0.0
1449618015070545654,6.59739428703,5.40638063767,0.0
1449618015103811937,6.59739428703,5.40638063767,0.0
1449618015136476327,6.5531428611,5.42696616066,0.0
1449618015170107995,6.59739428703,5.40638063767,0.0
1449618015203415535,6.59739428703,5.40638063767,0.0
1449618015238644523,6.5531428611,5.4446108975,0.0
1449618015270427678,6.5531428611,5.4446108975,0.0
1449618015304775487,6.57526857407,5.44797180166,0.0
1449618015336634524,6.57526857407,5.44797180166,0.0
1449618015369841834,6.57526857407,5.44797180166,0.0
1449618015402965083,6.57526857407,5.44797180166,0.0
1449618015436359268,6.57526857407,5.44797180166,0.0
1449618015469627441,6.53193052539,5.54123684211,0.0
1449618015503359010,6.53193052539,5.54123684211,0.0
1449618015538248243,6.5192008098,5.61181578947,0.0
1449618015571052434,6.5192008098,5.61181578947,0.0
1449618015603192650,6.5192008098,5.61181578947,0.0
1449618015636192776,6.5192008098,5.61181578947,0.0
1449618015670757673,6.50798063873,5.60911163632,0.0
1449618015704649769,6.50798063873,5.60911163632,0.0
1449618015736296559,6.50798063873,5.60911163632,0.0
1449618015774487134,6.50798063873,5.60911163632,0.0
1449618015803463760,6.49993072589,5.59978823198,0.0
1449618015838475361,6.49993072589,5.59978823198,0.0
1449618015870641279,6.48372733946,5.67909878724,0.0
1449618015903257995,6.48372733946,5.67909878724,0.0
1449618015937408031,6.48372733946,5.67909878724,0.0
1449618015970942739,6.48372733946,5.67909878724,0.0
1449618016003727084,6.48372733946,5.67909878724,0.0
1449618016036410602,6.48372733946,5.67909878724,0.0
1449618016071001558,6.48372733946,5.67909878724,0.0
1449618016105865082,6.48372733946,5.67909878724,0.0
1449618016136917860,6.50421285114,5.75917660806,0.0
1449618016170221054,6.50421285114,5.75917660806,0.0
1449618016203623783,6.48941727723,5.80130950893,0.0
1449618016236570306,6.48941727723,5.80130950893,0.0
1449618016269913337,6.48941727723,5.80130950893,0.0
1449618016303606131,6.61706158745,5.75913952549,0.0
1449618016338128798,6.61706158745,5.75913952549,0.0
1449618016370284140,6.60476952469,5.80401053403,0.0
1449618016403618698,6.60476952469,5.80401053403,0.0
1449618016442658824,6.61706158745,5.82005169204,0.0
1449618016469810323,6.61706158745,5.82005169204,0.0
1449618016503314917,6.61706158745,5.82005169204,0.0
1449618016536328385,6.61706158745,5.82005169204,0.0
1449618016570183942,6.61706158745,5.82005169204,0.0
1449618016603389094,6.61706158745,5.87830733144,0.0
1449618016637474065,6.61706158745,5.87830733144,0.0
1449618016669770941,6.61706158745,5.87830733144,0.0
1449618016703121972,6.61706158745,5.87830733144,0.0
1449618016736371130,6.61706158745,5.87830733144,0.0
1449618016770383093,6.59493587448,5.93124154197,0.0
1449618016803639668,6.61952,5.89413157895,0.0
1449618016836666977,6.61952,5.89413157895,0.0
1449618016870474028,6.61952,5.89413157895,0.0
1449618016903246473,6.61952,5.89413157895,0.0
1449618016937141841,6.6146031749,5.93124154197,0.0
1449618016969860246,6.6146031749,5.93124154197,0.0
1449618017013704789,6.61952,5.96471052632,0.0
1449618017037436054,6.61952,5.96471052632,0.0
1449618017069764640,6.61952,5.96471052632,0.0
1449618017104765665,6.61952,5.96471052632,0.0
1449618017136514792,6.60968634979,6.00364097867,0.0
1449618017169658142,6.59985269958,6.04257143103,0.0
1449618017203328321,6.59985269958,6.04257143103,0.0
1449618017236872878,6.59985269958,6.04257143103,0.0
1449618017276978211,6.59985269958,6.04257143103,0.0
1449618017305493790,6.59985269958,6.04257143103,0.0
1449618017337551884,6.51134984772,6.03192857202,0.0
1449618017373113551,6.51134984772,6.03192857202,0.0
1449618017403196665,6.51134984772,6.03192857202,0.0
1449618017436185541,6.60968634979,6.03192857202,0.0
1449618017469736539,6.60968634979,6.03192857202,0.0
1449618017503661894,6.60968634979,6.03192857202,0.0
1449618017536277271,6.60968634979,6.03192857202,0.0
1449618017569776975,6.53101714813,6.03192857202,0.0
1449618017603278925,6.60968634979,6.04257143103,0.0
1449618017636202212,6.60968634979,6.04257143103,0.0
1449618017670838230,6.60968634979,6.04257143103,0.0
1449618017704612827,6.60968634979,6.04257143103,0.0
1449618017736790337,6.60968634979,6.04257143103,0.0
1449618017772847450,6.60968634979,6.04257143103,0.0
1449618017806605436,6.60968634979,6.03192857202,0.0
1449618017836552954,6.60968634979,6.03192857202,0.0
1449618017869875100,6.60968634979,6.03192857202,0.0
1449618017909036922,6.60968634979,6.03192857202,0.0
1449618017937878808,6.60968634979,6.03192857202,0.0
1449618017969712672,6.59985269958,6.05321428754,0.0
1449618018003544258,6.34774066585,6.10586842105,0.0
1449618018036713858,6.34774066585,6.10586842105,0.0
1449618018070570722,6.34774066585,6.10586842105,0.0
1449618018103527624,6.34774066585,6.10586842105,0.0
1449618018137568896,6.33763610484,6.10586842105,0.0
1449618018169638617,6.33763610484,6.10586842105,0.0
1449618018204000906,6.33763610484,6.10586842105,0.0
1449618018236269563,6.33763610484,6.10586842105,0.0
1449618018269641359,6.32249745368,6.10586842105,0.0
1449618018304787264,6.32249745368,6.10586842105,0.0
1449618018336481556,6.31073685743,6.10586842105,0.0
1449618018371309521,6.31073685743,6.10586842105,0.0
1449618018404785005,6.2905889971,6.17644736842,0.0
1449618018436489072,6.2905889971,6.17644736842,0.0
1449618018469839904,6.2905889971,6.17644736842,0.0
1449618018503372470,6.61952,6.17644736842,0.0
1449618018541597032,6.61952,6.17644736842,0.0
1449618018570382303,6.61952,6.17644736842,0.0
1449618018603559577,6.61952,6.17644736842,0.0
1449618018636159949,6.61952,6.24702631579,0.0
1449618018670638875,6.61952,6.24702631579,0.0
1449618018702896775,6.61952,6.24702631579,0.0
1449618018736446624,6.61952,6.24702631579,0.0
1449618018769911739,6.61952,6.24702631579,0.0
1449618018804301652,6.61952,6.24702631579,0.0
1449618018839142166,6.61952,6.24702631579,0.0
1449618018870626260,6.61952,6.24702631579,0.0
1449618018903633491,6.61952,6.24702631579,0.0
1449618018936733433,6.61952,6.24702631579,0.0
1449618018969677958,6.61952,6.24702631579,0.0
1449618019006064495,6.61952,6.24702631579,0.0
1449618019036256817,6.61952,6.24702631579,0.0
1449618019071028398,6.61952,6.24702631579,0.0
1449618019103202925,6.61952,6.24702631579,0.0
1449618019136188084,6.61952,6.24702631579,0.0
1449618019169929839,6.61952,6.24702631579,0.0
1449618019203458127,6.61627307404,6.24702631579,0.0
1449618019238350330,6.61627307404,6.24702631579,0.0
1449618019269804015,6.61627307404,6.24702631579,0.0
1449618019303428296,6.61627307404,6.24702631579,0.0
1449618019336673816,6.60968634979,6.01064285776,0.0
1449618019369651295,6.60968634979,6.01064285776,0.0
1449618019403533493,6.60968634979,6.01064285776,0.0
1449618019436808293,6.58018539917,5.78714284985,0.0
1449618019469788658,6.58018539917,5.78714284985,0.0
1449618019503201430,6.58018539917,5.78714284985,0.0
1449618019536945849,6.55969620224,5.84147744044,0.0
1449618019570279324,6.55641432513,5.84147744044,0.0
1449618019604256028,6.55149750003,5.84147744044,0.0
1449618019636400064,6.55149750003,5.84147744044,0.0
1449618019671311515,6.45638527134,5.84147744044,0.0
1449618019703643352,6.45638527134,5.84147744044,0.0
1449618019736672886,6.45638527134,5.84147744044,0.0
1449618019769728227,6.45306727771,5.84147744044,0.0
1449618019809096018,6.44475333692,5.83615601218,0.0
1449618019841708058,6.44475333692,5.83615601218,0.0
1449618019871462479,6.44475333692,5.83615601218,0.0
1449618019903455015,6.44475333692,5.83615601218,0.0
1449618019936847879,6.4463459905,5.84147744044,0.0
1449618019969786073,6.43719748592,5.84147744044,0.0
1449618020003097581,6.43470033992,5.84147744044,0.0
1449618020036306830,6.43470033992,5.83615601218,0.0
1449618020069916625,6.43470033992,5.83615601218,0.0
1449618020103122775,6.43137270336,5.83615601218,0.0
1449618020136386133,6.42638518615,5.84147744044,0.0
1449618020171071382,6.42388852987,5.84147744044,0.0
1449618020203630042,6.41564477438,5.83615601218,0.0
1449618020237284724,6.41564477438,5.83615601218,0.0
1449618020270042431,6.41398216221,5.83615601218,0.0
1449618020303457550,6.41398216221,5.83615601218,0.0
1449618020336416746,6.37865564079,5.87340600996,0.0
1449618020369928287,6.37699253591,5.87340600996,0.0
1449618020403587195,6.37699253591,5.87340600996,0.0
1449618020436863481,6.37699253591,5.87340600996,0.0
1449618020470329305,6.40641979947,5.83615601218,0.0
1449618020504460039,6.40641979947,5.83615601218,0.0
1449618020536959319,6.39734451771,5.84147744044,0.0
1449618020569637600,6.39734451771,5.84147744044,0.0
1449618020603421701,6.39734451771,5.84147744044,0.0
1449618020639126626,6.39734451771,5.84147744044,0.0
1449618020670285221,6.38978422022,5.84147744044,0.0
1449618020705143738,6.38978422022,5.84147744044,0.0
1449618020736627879,6.38513046617,5.84147744044,0.0
1449618020773656998,6.3151091959,6.04425187811,0.0
1449618020803813229,6.3151091959,6.04425187811,0.0
1449618020836579328,6.3151091959,6.04425187811,0.0
1449618020869534351,6.38473145393,5.87144548587,0.0
1449618020903513973,6.38473145393,5.87144548587,0.0
1449618020936712605,6.37848719428,5.87676691412,0.0
1449618020971650256,6.37583450118,5.87676691412,0.0
1449618021002881706,6.37583450118,5.87676691412,0.0
1449618021036598206,6.38075132629,5.87144548587,0.0
1449618021069822866,6.36902638694,5.87144548587,0.0
1449618021103233001,6.36902638694,5.87144548587,0.0
1449618021137203773,6.36902638694,5.87144548587,0.0
1449618021169532550,6.36902638694,5.87144548587,0.0
1449618021203243596,6.36619174896,5.87144548587,0.0
1449618021237007545,6.37110857407,5.87144548587,0.0
1449618021269640499,6.37110857407,5.87144548587,0.0
1449618021303242883,6.37110857407,5.87144548587,0.0
1449618021337584663,6.37110857407,5.87144548587,0.0
1449618021369909149,6.37110857407,5.87144548587,0.0
1449618021403865885,6.37110857407,5.87144548587,0.0
1449618021436426646,6.37110857407,5.87144548587,0.0
1449618021472217554,6.37110857407,5.87144548587,0.0
1449618021503200349,6.36619174896,5.87676691412,0.0
1449618021536671360,6.36619174896,5.87676691412,0.0
1449618021572205615,6.36619174896,5.87676691412,0.0
1449618021603173494,6.37110857407,5.94202443324,0.0
1449618021636775753,6.37110857407,5.94202443324,0.0
1449618021675558777,6.37110857407,5.94202443324,0.0
1449618021702974316,6.37110857407,5.94202443324,0.0
1449618021737052080,6.36619174896,5.94202443324,0.0
1449618021769691694,6.36619174896,5.87144548587,0.0
1449618021804726498,6.36619174896,5.87144548587,0.0
1449618021837361909,6.37110857407,6.0126033806,0.0
1449618021869677687,6.37110857407,6.0126033806,0.0
1449618021903810890,6.37110857407,5.90673495955,0.0
1449618021936437991,6.37110857407,5.90673495955,0.0
1449618021969935620,6.37110857407,5.87144548587,0.0
1449618022003566420,6.37110857407,5.87144548587,0.0
1449618022037112840,6.37110857407,5.87144548587,0.0
1449618022070231390,6.37110857407,6.01792480886,0.0
1449618022103102914,6.37110857407,6.01792480886,0.0
1449618022136733328,6.37110857407,6.0126033806,0.0
1449618022170046303,6.37110857407,5.87144548587,0.0
1449618022202983806,6.37110857407,5.87144548587,0.0
1449618022236544524,6.37110857407,5.87676691412,0.0
1449618022269653887,6.37110857407,5.87676691412,0.0
1449618022303199155,6.37110857407,5.87676691412,0.0
1449618022337567993,6.37110857407,5.87144548587,0.0
1449618022370356865,6.37110857407,5.94202443324,0.0
1449618022403812473,6.37110857407,5.94202443324,0.0
1449618022436273910,6.37110857407,5.94734586149,0.0
1449618022470025881,6.37110857407,5.94734586149,0.0
1449618022503429587,6.37110857407,5.94734586149,0.0
1449618022537035181,6.32685714813,5.91933834016,0.0
1449618022571744023,6.22125714813,6.06049623489,0.0
1449618022603365954,6.26550857407,6.01792480886,0.0
1449618022636468097,6.26550857407,6.01792480886,0.0
1449618022669693312,6.26550857407,6.01792480886,0.0
1449618022703178401,6.26550857407,6.01792480886,0.0
1449618022738802743,6.26550857407,6.01792480886,0.0
1449618022773094194,6.26550857407,6.01792480886,0.0
1449618022803033708,6.26550857407,6.04789285429,0.0
1449618022837248960,6.26059174896,6.04789285429,0.0
1449618022871492125,6.26059174896,6.04789285429,0.0
1449618022902949763,6.26059174896,6.04789285429,0.0
1449618022936704661,6.26550857407,6.04789285429,0.0
1449618022970070467,6.26550857407,6.04789285429,0.0
1449618023004248501,6.26550857407,6.04789285429,0.0
1449618023036303053,6.0,6.0,0.0
1449618023070052275,6.0,6.0,0.0
1449618023103532250,6.0,6.0,0.0
1449618023137754255,6.0,6.0,0.0
1449618023169823663,6.0,6.0,0.0
1449618023203077167,6.0,6.0,0.0
1449618023241644872,6.0,6.0,0.0
1449618023269958093,6.0,6.0,0.0
1449618023303241488,6.0,6.0,0.0
1449618023337082667,6.0,6.0,0.0
1449618023370359920,6.0,6.0,0.0
1449618023403033441,6.0,6.0,0.0
1449618023436240906,6.0,6.0,0.0
1449618023470321152,6.0,6.0,0.0
1449618023503837619,6.0,6.0,0.0
1449618023536744745,6.0,6.0,0.0
1449618023570093595,6.0,6.0,0.0
1449618023603274082,6.0,6.0,0.0
1449618023637259857,6.0,6.0,0.0
1449618023670779094,6.0,6.0,0.0
1449618023702897585,6.0,6.0,0.0
1449618023736403420,6.0,6.0,0.0
1449618023769803741,6.0,6.0,0.0
1449618023803359478,6.0,6.0,0.0
1449618023836373416,6.0,6.0,0.0
1449618023869802947,6.0,6.0,0.0
1449618023903100940,6.0,6.0,0.0
1449618023936672433,6.0,6.0,0.0
1449618023969714062,6.0,6.0,0.0
1449618024003406851,6.0,6.0,0.0
1449618024036404363,6.0,6.0,0.0
1449618024069662579,6.0,6.0,0.0
1449618024103625316,6.0,6.0,0.0
1449618024138342721,6.0,6.0,0.0
1449618024170328496,6.0,6.0,0.0
1449618024203519786,6.0,6.0,0.0
1449618024236702787,6.0,6.0,0.0
1449618024269638596,6.0,6.0,0.0
1449618024303392409,6.0,6.0,0.0
1449618024336604042,6.0,6.0,0.0
1449618024370384540,6.0,6.0,0.0
1449618024402844973,6.0,6.0,0.0
1449618024436234830,6.0,6.0,0.0
1449618024469909773,6.0,6.0,0.0
1449618024503131324,6.0,6.0,0.0
1449618024536635555,6.0,6.0,0.0
1449618024569742791,6.0,6.0,0.0
1449618024603316004,6.0,6.0,0.0
1449618024636566589,6.0,6.0,0.0
1449618024670026739,6.0,6.0,0.0
1449618024702882401,6.0,6.0,0.0
1449618024736649341,6.0,6.0,0.0
1449618024773267045,6.0,6.0,0.0
1449618024803275905,6.0,6.0,0.0
1449618024836516838,6.0,6.0,0.0
1449618024869892384,6.0,6.0,0.0
1449618024905700831,6.0,6.0,0.0
1449618024936263504,6.0,6.0,0.0
1449618024969924313,6.0,6.0,0.0
1449618025002879112,6.0,6.0,0.0
1449618025036314370,6.0,6.0,0.0
1449618025069996725,6.0,6.0,0.0
1449618025103636456,6.0,6.0,0.0
1449618025136855174,6.0,6.0,0.0
1449618025170328247,6.0,6.0,0.0
1449618025203104852,6.0,6.0,0.0
1449618025238964241,6.0,6.0,0.0
1449618025269871611,6.22258212677,5.54123684211,0.0
1449618025303125798,6.22258212677,5.54123684211,0.0
1449618025336968151,6.22258212677,5.54123684211,0.0
1449618025371065151,6.22258212677,5.54123684211,0.0
1449618025403339592,6.22258212677,5.54123684211,0.0
1449618025436940143,6.22258212677,5.54123684211,0.0
1449618025473486558,6.22258212677,5.54123684211,0.0
1449618025503910189,6.22258212677,5.54123684211,0.0
1449618025536672100,6.22258212677,5.54123684211,0.0
1449618025569871085,6.22258212677,5.54123684211,0.0
1449618025603578289,6.22258212677,5.54123684211,0.0
1449618025637253072,6.22258212677,5.54123684211,0.0
1449618025669757069,6.22258212677,5.54123684211,0.0
1449618025703454666,6.22258212677,5.54123684211,0.0
1449618025736794254,6.22258212677,5.54123684211,0.0
1449618025769852184,6.22258212677,5.54123684211,0.0
1449618025803304192,6.22258212677,5.54123684211,0.0
1449618025836418736,6.22258212677,5.54123684211,0.0
1449618025869685914,6.22258212677,5.54123684211,0.0
1449618025903585821,6.22258212677,5.54123684211,0.0
1449618025936428497,6.22258212677,5.54123684211,0.0
1449618025969811612,6.22258212677,5.54123684211,0.0
1449618026004774812,6.22258212677,5.54123684211,0.0
1449618026037126568,6.22258212677,5.54123684211,0.0
1449618026069921495,6.22258212677,5.54123684211,0.0
1449618026103668829,6.22258212677,5.54123684211,0.0
1449618026136362967,6.22258212677,5.54123684211,0.0
1449618026173264696,6.21286106304,5.68239473684,0.0
1449618026203359403,6.21286106304,5.68239473684,0.0
1449618026236761666,6.21286106304,5.68239473684,0.0
1449618026269670484,6.2112,5.68239473684,0.0
1449618026303399093,6.2112,5.68239473684,0.0
1449618026336817219,6.2112,5.68239473684,0.0
1449618026371399484,6.2112,5.68239473684,0.0
1449618026403006973,6.2112,5.68239473684,0.0
1449618026436580848,6.2112,5.68239473684,0.0
1449618026470434121,6.2112,5.68239473684,0.0
1449618026504833921,6.2112,5.68239473684,0.0
1449618026536528628,6.2112,5.68239473684,0.0
1449618026571308040,6.21193257166,5.61181578947,0.0
1449618026603169276,6.2112,5.68239473684,0.0
1449618026636259116,6.2112,5.68239473684,0.0
1449618026669664798,6.2112,5.68239473684,0.0
1449618026703813175,6.2112,5.68239473684,0.0
1449618026736326094,6.2112,5.68239473684,0.0
1449618026769854740,6.2112,5.68239473684,0.0
1449618026805651208,6.2112,5.61181578947,0.0
1449618026839849360,6.2112,5.61181578947,0.0
1449618026869967728,6.2112,5.61181578947,0.0
1449618026903910530,6.2112,5.61181578947,0.0
1449618026936449682,6.2112,5.61181578947,0.0
1449618026970048294,6.2112,5.61181578947,0.0
1449618027004196658,6.2112,5.47065789474,0.0
1449618027036319570,6.2112,5.47065789474,0.0
1449618027069977825,6.2112,5.47065789474,0.0
1449618027103144867,6.2112,5.47065789474,0.0
1449618027137643353,6.2112,5.47065789474,0.0
1449618027170179650,6.2112,5.47065789474,0.0
1449618027204466547,6.2112,5.47065789474,0.0
1449618027237563889,6.2112,5.47065789474,0.0
1449618027270041179,6.2112,5.47065789474,0.0
1449618027306211257,6.2112,5.47065789474,0.0
1449618027338237455,6.2112,5.47065789474,0.0
1449618027372466756,6.2112,5.54123684211,0.0
1449618027403007193,6.2112,5.54123684211,0.0
1449618027436737499,6.2112,5.54123684211,0.0
1449618027470423505,6.2112,5.54123684211,0.0
1449618027503218391,6.2112,5.47065789474,0.0
1449618027544877587,6.2112,5.40007894737,0.0
1449618027570670594,6.2112,5.40007894737,0.0
1449618027603215488,6.2112,5.40007894737,0.0
1449618027636256828,6.2112,5.40007894737,0.0
1449618027669578967,6.2112,5.40007894737,0.0
1449618027703034521,6.2112,5.40007894737,0.0
1449618027736552854,6.2112,5.40007894737,0.0
1449618027769691935,6.2112,5.40007894737,0.0
1449618027803411270,6.2112,5.47065789474,0.0
1449618027836648417,6.2112,5.47065789474,0.0
1449618027869937146,6.2112,5.47065789474,0.0
1449618027903695597,6.2112,5.47065789474,0.0
1449618027936724768,6.2112,5.47065789474,0.0
1449618027972648589,6.2112,5.47065789474,0.0
1449618028004342869,6.2112,5.47065789474,0.0
1449618028038472254,6.2112,5.47065789474,0.0
1449618028069892443,6.2112,5.54123684211,0.0
1449618028103732926,6.2112,5.54123684211,0.0
1449618028136559778,6.2112,5.54123684211,0.0
1449618028171464443,6.2112,5.54123684211,0.0
1449618028204291837,6.2112,5.54123684211,0.0
1449618028239636382,6.2112,5.54123684211,0.0
1449618028269950319,6.2112,5.54123684211,0.0
1449618028303284631,6.2112,5.54123684211,0.0
1449618028337338080,6.2112,5.54123684211,0.0
1449618028369972764,6.2112,5.54123684211,0.0
1449618028402906624,6.2112,5.54123684211,0.0
1449618028436335182,6.2112,5.61181578947,0.0
1449618028469921274,6.2112,5.61181578947,0.0
1449618028503193993,6.2112,5.61181578947,0.0
1449618028537686250,6.2112,5.61181578947,0.0
1449618028573900355,6.2112,5.61181578947,0.0
1449618028605841302,6.2112,5.61181578947,0.0
1449618028636500831,6.2112,5.61181578947,0.0
1449618028670615899,6.2112,5.68239473684,0.0
1449618028703669605,6.2112,5.68239473684,0.0
1449618028738247308,6.2112,5.68239473684,0.0
1449618028771635759,6.2112,5.68239473684,0.0
1449618028803216517,6.2112,5.68239473684,0.0
1449618028836208293,6.2112,5.68239473684,0.0
1449618028870231138,6.2112,5.68239473684,0.0
1449618028903897654,6.2112,5.68239473684,0.0
1449618028937107506,6.2112,5.68239473684,0.0
1449618028971057216,6.1584,5.64976597729,0.0
1449618029003102593,6.1584,5.64710526316,0.0
1449618029036692934,6.1584,5.64710526316,0.0
1449618029070207266,6.1584,5.70003947368,0.0
1449618029103592637,6.0,6.0,0.0
1449618029140587366,6.0,6.0,0.0
1449618029169845705,6.0,6.0,0.0
1449618029203871878,6.0,6.0,0.0
1449618029237809687,6.11051682568,5.58184774404,0.0
1449618029270279736,6.11051682568,5.58184774404,0.0
1449618029326477013,6.11051682568,5.58184774404,0.0
1449618029337414808,6.0,5.4803625,0.0
1449618029370434903,6.0,5.4803625,0.0
1449618029403423504,6.0,5.4803625,0.0
1449618029436503059,6.0,5.4803625,0.0
1449618029470721787,6.0,5.4803625,0.0
1449618029503339383,6.53101714813,5.42528570858,0.0
1449618029537267634,6.53101714813,5.42528570858,0.0
1449618029569922594,6.53101714813,5.42528570858,0.0
1449618029603064942,6.53101714813,5.42528570858,0.0
1449618029637391834,6.53101714813,5.43592856508,0.0
1449618029669900527,6.53101714813,5.43592856508,0.0
1449618029705022988,6.53101714813,5.42528570858,0.0
1449618029736964243,6.53101714813,5.42528570858,0.0
1449618029769926169,6.53101714813,5.42528570858,0.0
1449618029802919229,6.53101714813,5.42528570858,0.0
1449618029836578453,6.52118349792,5.42528570858,0.0
1449618029869810776,6.52118349792,5.42528570858,0.0
1449618029903928190,6.53101714813,5.43592856508,0.0
1449618029936502891,6.53101714813,5.43592856508,0.0
1449618029969796426,6.53101714813,5.43592856508,0.0
1449618030003535750,6.53101714813,5.43592856508,0.0
1449618030036313993,6.52118349792,5.43592856508,0.0
1449618030069809843,6.52118349792,5.43592856508,0.0
1449618030104250437,6.44251429626,5.52107141715,0.0
1449618030136473141,6.44251429626,5.52107141715,0.0
1449618030169967147,6.44251429626,5.52107141715,0.0
1449618030203144210,6.44251429626,5.52107141715,0.0
1449618030236324821,6.52118349792,5.42528570858,0.0
1449618030273777909,6.52118349792,5.42528570858,0.0
1449618030304302440,6.52118349792,5.42528570858,0.0
1449618030336559278,6.53101714813,5.43592856508,0.0
1449618030370361736,6.53101714813,5.43592856508,0.0
1449618030403123776,6.53101714813,5.43592856508,0.0
1449618030437760367,6.43268064606,5.52107141715,0.0
1449618030469797237,6.43268064606,5.52107141715,0.0
1449618030503329715,6.57035174896,5.70199999778,0.0
1449618030544140170,6.57035174896,5.70199999778,0.0
1449618030569989373,6.57035174896,5.70199999778,0.0
1449618030606363918,6.57035174896,5.70199999778,0.0
1449618030641867659,6.60968634979,5.96807142798,0.0
1449618030670772783,6.60968634979,5.96807142798,0.0
1449618030702988710,6.60968634979,5.96807142798,0.0
1449618030739789409,6.60968634979,5.98935714224,0.0
1449618030769662802,6.60968634979,5.98935714224,0.0
1449618030803267012,6.60968634979,5.98935714224,0.0
1449618030836331089,6.59985269958,5.97871428449,0.0
1449618030869624715,6.59985269958,5.97871428449,0.0
1449618030906247100,6.59985269958,5.97871428449,0.0
1449618030936467867,6.60968634979,5.98935714224,0.0
1449618030970438033,6.60968634979,5.98935714224,0.0
1449618031004860769,6.60968634979,5.98935714224,0.0
1449618031036831865,6.60968634979,6.0,0.0
1449618031070734006,6.60968634979,6.0,0.0
1449618031107170048,6.60968634979,6.0,0.0
1449618031136335226,6.60968634979,6.0,0.0
1449618031170130309,6.60968634979,6.0,0.0
1449618031203272961,6.55068444855,6.0,0.0
1449618031236538366,6.55068444855,6.0,0.0
1449618031269809251,6.55068444855,6.0,0.0
1449618031303019210,6.55068444855,6.0,0.0
1449618031336539483,6.60968634979,6.01064285776,0.0
1449618031370169319,6.60968634979,6.01064285776,0.0
1449618031403979288,6.55068444855,6.0,0.0
1449618031437040642,6.55068444855,6.0,0.0
1449618031471933106,6.55068444855,6.0,0.0
1449618031502976273,6.55068444855,6.0,0.0
1449618031536613247,6.55068444855,6.0,0.0
1449618031570007068,6.60968634979,6.01064285776,0.0
1449618031602837787,6.60968634979,6.01064285776,0.0
1449618031636980535,6.60968634979,6.01064285776,0.0
1449618031670411087,6.60968634979,6.01064285776,0.0
1449618031703513140,6.61952,6.01064285776,0.0
1449618031736503378,6.61952,6.01064285776,0.0
1449618031777388310,6.61952,6.01064285776,0.0
1449618031803810074,6.61952,6.01064285776,0.0
1449618031836371210,6.60968634979,6.02128571551,0.0
1449618031869748618,6.60968634979,6.02128571551,0.0
1449618031903844799,6.60968634979,6.02128571551,0.0
1449618031937860563,6.60968634979,6.02128571551,0.0
1449618031970926941,6.60968634979,6.02128571551,0.0
1449618032004107112,6.60968634979,6.02128571551,0.0
1449618032037956327,6.59985269958,6.02128571551,0.0
1449618032072197749,6.59985269958,6.02128571551,0.0
1449618032103216510,6.60968634979,6.03192857202,0.0
1449618032136447127,6.60968634979,6.03192857202,0.0
1449618032177285173,6.60968634979,6.03192857202,0.0
1449618032206318243,6.60968634979,6.03192857202,0.0
1449618032237648600,6.60968634979,6.03192857202,0.0
1449618032269892902,6.60968634979,6.03192857202,0.0
1449618032303492817,6.60968634979,6.03192857202,0.0
1449618032337853570,6.60968634979,6.03192857202,0.0
1449618032370556391,6.60968634979,6.03192857202,0.0
1449618032403772964,6.60968634979,6.03192857202,0.0
1449618032443247943,6.60968634979,6.02128571551,0.0
1449618032469669606,6.60968634979,6.02128571551,0.0
1449618032504109589,6.60968634979,6.02128571551,0.0
1449618032536764212,6.60968634979,6.02128571551,0.0
1449618032571584758,6.60968634979,6.02128571551,0.0
1449618032603737751,6.60968634979,6.02128571551,0.0
1449618032638035991,6.60968634979,6.01064285776,0.0
1449618032669676520,6.60968634979,6.01064285776,0.0
1449618032703237135,6.60968634979,6.02128571551,0.0
1449618032736435176,6.60968634979,6.02128571551,0.0
1449618032771081768,6.60968634979,6.02128571551,0.0
1449618032803043052,6.60968634979,6.02128571551,0.0
1449618032837894293,6.60968634979,6.02128571551,0.0
1449618032873947972,6.60968634979,6.02128571551,0.0
1449618032902934963,6.60968634979,6.01064285776,0.0
1449618032936750811,6.60968634979,6.01064285776,0.0
1449618032970334581,6.60968634979,6.01064285776,0.0
1449618033004429567,6.60968634979,6.01064285776,0.0
1449618033036952050,6.60968634979,6.01064285776,0.0
1449618033069711605,6.60968634979,6.01064285776,0.0
1449618033103277424,6.60968634979,6.01064285776,0.0
1449618033136575278,6.60968634979,6.01064285776,0.0
1449618033170279938,6.60968634979,6.01064285776,0.0
1449618033204758082,6.60968634979,6.01064285776,0.0
1449618033237408560,6.60968634979,6.01064285776,0.0
1449618033270533598,6.60968634979,6.01064285776,0.0
1449618033304105465,6.60968634979,6.01064285776,0.0
1449618033337027586,6.60968634979,6.01064285776,0.0
1449618033369665891,6.60968634979,6.01064285776,0.0
1449618033403324119,6.60968634979,6.01064285776,0.0
1449618033436361918,6.60968634979,6.01064285776,0.0
1449618033473963918,6.60968634979,6.01064285776,0.0
1449618033504587641,6.60968634979,6.01064285776,0.0
1449618033536642555,6.60968634979,6.01064285776,0.0
1449618033579423012,6.60968634979,6.01064285776,0.0
1449618033603064671,6.60968634979,6.01064285776,0.0
1449618033639709206,6.60968634979,6.01064285776,0.0
1449618033670191768,6.60968634979,6.01064285776,0.0
1449618033703198159,6.59001904938,6.01064285776,0.0
1449618033736975203,6.59001904938,6.01064285776,0.0
1449618033771717763,6.59001904938,6.01064285776,0.0
1449618033803378638,6.59001904938,6.01064285776,0.0
1449618033836496806,6.60968634979,6.01064285776,0.0
1449618033870312180,6.60968634979,6.01064285776,0.0
1449618033903517636,6.54085079834,6.0,0.0
1449618033936526833,6.54085079834,6.0,0.0
1449618033969636920,6.54085079834,6.0,0.0
1449618034003189533,6.54085079834,6.0,0.0
1449618034036479659,6.60968634979,6.01064285776,0.0
1449618034069831469,6.60968634979,6.01064285776,0.0
1449618034104084324,6.60968634979,6.01064285776,0.0
1449618034137111985,6.54085079834,6.01064285776,0.0
1449618034170359206,6.54085079834,6.01064285776,0.0
1449618034203047506,6.54085079834,6.01064285776,0.0
1449618034236631077,6.60968634979,6.01064285776,0.0
1449618034270039037,6.60968634979,6.01064285776,0.0
1449618034304098223,6.60968634979,6.01064285776,0.0
1449618034336384945,6.60968634979,6.01064285776,0.0
1449618034370117894,6.60968634979,6.01064285776,0.0
1449618034405240202,6.60968634979,6.01064285776,0.0
1449618034436705607,6.60968634979,6.01064285776,0.0
1449618034469725845,6.60968634979,6.01064285776,0.0
1449618034504194054,6.60968634979,6.01064285776,0.0
1449618034536528812,6.60968634979,6.01064285776,0.0
1449618034570861295,6.60968634979,6.01064285776,0.0
1449618034603163537,6.60968634979,6.0,0.0
1449618034638719196,6.60968634979,6.0,0.0
1449618034670288591,6.60968634979,6.0,0.0
1449618034704013553,6.60968634979,6.01064285776,0.0
1449618034736409571,6.60968634979,6.01064285776,0.0
1449618034769800683,6.60968634979,6.01064285776,0.0
1449618034803459634,6.60968634979,6.01064285776,0.0
1449618034836779256,6.60968634979,6.0,0.0
1449618034869569945,6.60968634979,6.0,0.0
1449618034903487825,6.60968634979,6.01064285776,0.0
1449618034938592341,6.60968634979,6.01064285776,0.0
1449618034972502296,6.60968634979,6.01064285776,0.0
1449618035003436517,6.60968634979,6.01064285776,0.0
1449618035036229354,6.60968634979,6.01064285776,0.0
1449618035070378798,6.60968634979,6.01064285776,0.0
1449618035103346963,6.60968634979,6.01064285776,0.0
1449618035136490461,6.60968634979,6.01064285776,0.0
1449618035173180824,6.60968634979,6.01064285776,0.0
1449618035203091840,6.60968634979,6.01064285776,0.0
1449618035242234225,6.60968634979,6.01064285776,0.0
1449618035270018504,6.60968634979,6.01064285776,0.0
1449618035303948784,6.60968634979,6.01064285776,0.0
1449618035336642890,6.60968634979,6.01064285776,0.0
1449618035369653678,6.60968634979,6.01064285776,0.0
1449618035403147358,6.60968634979,6.01064285776,0.0
1449618035436662086,6.54085079834,6.01064285776,0.0
1449618035469728479,6.54085079834,6.01064285776,0.0
1449618035505123451,6.60968634979,6.01064285776,0.0
1449618035536536717,6.60968634979,6.01064285776,0.0
1449618035569766885,6.60968634979,6.01064285776,0.0
1449618035603144557,6.60968634979,6.01064285776,0.0
1449618035637605115,6.54085079834,6.01064285776,0.0
1449618035669578444,6.54085079834,6.01064285776,0.0
1449618035703089003,6.60968634979,6.01064285776,0.0
1449618035736411737,6.60968634979,6.01064285776,0.0
1449618035776904356,6.60968634979,6.01064285776,0.0
1449618035803177394,6.60968634979,6.01064285776,0.0
1449618035836484233,6.53101714813,6.0,0.0
1449618035869968858,6.53101714813,6.0,0.0
1449618035904223287,6.60968634979,6.01064285776,0.0
1449618035936791212,6.60968634979,6.01064285776,0.0
1449618035972097099,6.60968634979,6.01064285776,0.0
1449618036003477396,6.60968634979,6.01064285776,0.0
1449618036037278434,6.60968634979,6.01064285776,0.0
1449618036069639421,6.60968634979,6.01064285776,0.0
1449618036103196917,6.60968634979,6.01064285776,0.0
1449618036136695670,6.60968634979,6.01064285776,0.0
1449618036169871042,6.60968634979,6.01064285776,0.0
1449618036203795297,6.60968634979,6.01064285776,0.0
1449618036237367028,6.60968634979,6.01064285776,0.0
1449618036269824645,6.60968634979,6.01064285776,0.0
1449618036302941100,6.60968634979,6.01064285776,0.0
1449618036336459980,6.60968634979,6.01064285776,0.0
1449618036370588608,6.60968634979,6.0,0.0
1449618036403796019,6.60968634979,6.0,0.0
1449618036436312406,6.60968634979,6.0,0.0
1449618036469830788,6.60968634979,6.0,0.0
1449618036503644229,6.60968634979,5.97871428449,0.0
1449618036536428312,6.60968634979,5.97871428449,0.0
1449618036574206503,6.60968634979,5.97871428449,0.0
1449618036603237702,6.60968634979,5.97871428449,0.0
1449618036637018120,6.58018539917,5.78714284985,0.0
1449618036669802384,6.58018539917,5.78714284985,0.0
1449618036703892769,6.58018539917,5.78714284985,0.0
1449618036738142061,6.53101714813,5.43592856508,0.0
1449618036775718201,6.53101714813,5.43592856508,0.0
1449618036807017085,6.53101714813,5.43592856508,0.0
1449618036838039211,6.52118349792,5.42528570858,0.0
1449618036872875548,6.52118349792,5.42528570858,0.0
1449618036903132104,6.52118349792,5.43592856508,0.0
1449618036939035939,6.52118349792,5.43592856508,0.0
1449618036970022167,6.52118349792,5.43592856508,0.0
1449618037003381480,6.52118349792,5.43592856508,0.0
1449618037036933375,6.53101714813,5.42528570858,0.0
1449618037071094415,6.53101714813,5.42528570858,0.0
1449618037103309741,6.53101714813,5.43592856508,0.0
1449618037137630182,6.53101714813,5.43592856508,0.0
1449618037171791402,6.53101714813,5.43592856508,0.0
1449618037203135835,6.53101714813,5.43592856508,0.0
1449618037237935085,6.53101714813,5.43592856508,0.0
1449618037269926869,6.53101714813,5.43592856508,0.0
1449618037303189812,6.52118349792,5.43592856508,0.0
1449618037336778079,6.52118349792,5.43592856508,0.0
1449618037370391628,6.52118349792,5.43592856508,0.0
1449618037403152057,6.52118349792,5.43592856508,0.0
1449618037436398740,6.52118349792,5.42528570858,0.0
1449618037469614768,6.52118349792,5.42528570858,0.0
1449618037502870201,6.52118349792,5.42528570858,0.0
1449618037537099260,6.52118349792,5.42528570858,0.0
1449618037570306538,6.52118349792,5.42528570858,0.0
1449618037603131211,6.52118349792,5.42528570858,0.0
1449618037638357293,6.53101714813,5.42528570858,0.0
1449618037670789464,6.53101714813,5.42528570858,0.0
1449618037703195615,6.52118349792,5.43592856508,0.0
1449618037737506311,6.52118349792,5.43592856508,0.0
1449618037775357144,6.52118349792,5.43592856508,0.0
1449618037803320296,6.52118349792,5.43592856508,0.0
1449618037836493273,6.53101714813,5.42528570858,0.0
1449618037869878678,6.53101714813,5.42528570858,0.0
1449618037903003718,6.53101714813,5.42528570858,0.0
1449618037936700728,6.52118349792,5.42528570858,0.0
1449618037970271931,6.52118349792,5.42528570858,0.0
1449618038003036607,6.53101714813,5.42528570858,0.0
1449618038036508754,6.53101714813,5.42528570858,0.0
1449618038070541969,6.53101714813,5.42528570858,0.0
1449618038104137620,6.44251429626,5.54235713017,0.0
1449618038137762098,6.44251429626,5.54235713017,0.0
1449618038170435156,6.44251429626,5.54235713017,0.0
1449618038204766030,6.44251429626,5.54235713017,0.0
1449618038236735543,6.59001904938,5.8616428554,0.0
1449618038270083410,6.59001904938,5.8616428554,0.0
1449618038304962463,6.58018539917,5.78714284985,0.0
1449618038337708234,6.58018539917,5.78714284985,0.0
1449618038371653186,6.58018539917,5.78714284985,0.0
1449618038403336232,6.58018539917,5.78714284985,0.0
1449618038436568096,6.58018539917,5.79778570636,0.0
1449618038470813781,6.58018539917,5.79778570636,0.0
1449618038508164539,6.59985269958,5.91485713794,0.0
1449618038536466252,6.59985269958,5.91485713794,0.0
1449618038571978842,6.59985269958,5.91485713794,0.0
1449618038603781989,6.59985269958,5.91485713794,0.0
1449618038638130772,6.60968634979,5.97871428449,0.0
1449618038669795164,6.60968634979,5.97871428449,0.0
1449618038703183977,6.60968634979,5.98935714224,0.0
1449618038736717315,6.60968634979,5.98935714224,0.0
1449618038769886884,6.60968634979,5.98935714224,0.0
1449618038803894378,6.60968634979,5.98935714224,0.0
1449618038838193744,6.60968634979,6.0,0.0
1449618038871330633,6.60968634979,6.0,0.0
1449618038905082349,6.60968634979,6.0,0.0
1449618038936423936,6.61952,6.0,0.0
1449618038970114734,6.61952,6.0,0.0
1449618039003707238,6.61952,6.0,0.0
1449618039036533612,6.60968634979,6.0,0.0
1449618039069667322,6.60968634979,6.0,0.0
1449618039106278356,6.56051809875,6.0,0.0
1449618039136769838,6.56051809875,6.0,0.0
1449618039170407323,6.56051809875,6.0,0.0
1449618039203514480,6.56051809875,6.0,0.0
1449618039236708839,6.60968634979,6.0,0.0
1449618039271008529,6.60968634979,6.0,0.0
1449618039303364735,6.56051809875,6.0,0.0
1449618039337334065,6.56051809875,6.0,0.0
1449618039369656446,6.56051809875,6.0,0.0
1449618039403561952,6.56051809875,6.0,0.0
1449618039436904635,6.60968634979,6.0,0.0
1449618039472730798,6.60968634979,6.0,0.0
1449618039503303638,6.60968634979,6.0,0.0
1449618039537123305,6.60968634979,6.0,0.0
1449618039569729453,6.60968634979,6.0,0.0
1449618039603405868,6.60968634979,6.0,0.0
1449618039786438100,6.60968634979,6.0,0.0
1449618039786442450,6.60968634979,6.0,0.0
1449618039818272748,6.60968634979,6.0,0.0
1449618039851749653,6.60968634979,6.0,0.0
1449618039890935573,6.60968634979,6.0,0.0
1449618039918462647,6.61952,6.0,0.0
1449618039952079225,6.61952,6.0,0.0
1449618039985983957,6.61952,6.0,0.0
1449618040018490628,6.61952,6.0,0.0
1449618040052116275,6.61952,6.0,0.0
1449618040084985709,6.61952,6.0,0.0
1449618040118946777,6.60968634979,6.0,0.0
1449618040151627525,6.60968634979,6.0,0.0
1449618040185073244,6.60968634979,6.0,0.0
1449618040221344533,6.60968634979,6.0,0.0
1449618040251935871,6.60968634979,6.0,0.0
1449618040285777175,6.60968634979,6.0,0.0
1449618040318504638,6.60968634979,6.0,0.0
1449618040351681633,6.60968634979,6.0,0.0
1449618040386774980,6.60968634979,6.0,0.0
1449618040418455000,6.60968634979,6.0,0.0
1449618040454334978,6.60968634979,6.0,0.0
1449618040485751913,6.60968634979,6.0,0.0
1449618040518659817,6.60968634979,6.0,0.0
1449618040551551224,6.60968634979,6.0,0.0
1449618040585037576,6.60968634979,6.0,0.0
1449618040618848574,6.56051809875,6.0,0.0
1449618040651559351,6.56051809875,6.0,0.0
1449618040684903344,6.56051809875,6.0,0.0
1449618040719371183,6.60968634979,6.0,0.0
1449618040751818128,6.60968634979,6.0,0.0
1449618040785348786,6.60968634979,6.0,0.0
1449618040825848420,6.57035174896,6.0,0.0
