%time,field.header.seq,field.header.stamp,field.header.frame_id,field.ns,field.id,field.type,field.action,field.pose.position.x,field.pose.position.y,field.pose.position.z,field.pose.orientation.x,field.pose.orientation.y,field.pose.orientation.z,field.pose.orientation.w,field.scale.x,field.scale.y,field.scale.z,field.color.r,field.color.g,field.color.b,field.color.a,field.lifetime,field.frame_locked,field.text,field.mesh_resource,field.mesh_use_embedded_materials
1449617113035622080,0,0,/odom,fullacmd_vector,0,0,0,0.0,0.0,0.0,0.0,0.0,0.0,1.0,0.1,0.0,0.0,0.0,1.0,1.0,0.0,0,0,,,0
1449617113074937878,1,0,/odom,fullacmd_vector,0,0,0,0.0,0.0,0.0,0.0,0.0,0.0,1.0,0.1,0.0,0.0,0.0,1.0,1.0,0.0,0,0,,,0
1449617113115685935,2,0,/odom,fullacmd_vector,0,0,0,0.0,0.0,0.0,0.0,0.0,0.0,1.0,0.1,0.0,0.0,0.0,1.0,1.0,0.0,0,0,,,0
1449617113158239801,3,0,/odom,fullacmd_vector,0,0,0,0.0,0.0,0.0,0.0,0.0,0.0,1.0,0.1,0.0,0.0,0.0,1.0,1.0,0.0,0,0,,,0
1449617113195129237,4,0,/odom,fullacmd_vector,0,0,0,0.0,0.0,0.0,0.0,0.0,0.0,1.0,0.1,0.0,0.0,0.0,1.0,1.0,0.0,0,0,,,0
1449617113250369938,5,0,/odom,fullacmd_vector,0,0,0,0.0,0.0,0.0,0.0,0.0,-0.0315736990516,0.999501426476,0.452,0.0,0.0,0.0,1.0,1.0,0.0,0,0,,,0
1449617113274846176,6,0,/odom,fullacmd_vector,0,0,0,0.0,0.0,0.0,0.0,0.0,-0.0315736990516,0.999501426476,0.452,0.0,0.0,0.0,1.0,1.0,0.0,0,0,,,0
1449617113314632819,7,0,/odom,fullacmd_vector,0,0,0,0.0,0.0,0.0,0.0,0.0,-0.0315736990516,0.999501426476,0.452,0.0,0.0,0.0,1.0,1.0,0.0,0,0,,,0
1449617113356080380,8,0,/odom,fullacmd_vector,0,0,0,0.0,0.0,0.0,0.0,0.0,-0.0315736990516,0.999501426476,0.452,0.0,0.0,0.0,1.0,1.0,0.0,0,0,,,0
1449617113402147447,9,0,/odom,fullacmd_vector,0,0,0,0.0,0.0,0.0,0.0,0.0,-0.0315736990516,0.999501426476,0.452,0.0,0.0,0.0,1.0,1.0,0.0,0,0,,,0
1449617113435403921,10,0,/odom,fullacmd_vector,0,0,0,0.0,0.0,0.0,0.0,0.0,-0.0315736990516,0.999501426476,0.452,0.0,0.0,0.0,1.0,1.0,0.0,0,0,,,0
1449617113475515909,11,0,/odom,fullacmd_vector,0,0,0,0.0,0.0,0.0,0.0,0.0,-0.0315736990516,0.999501426476,0.452,0.0,0.0,0.0,1.0,1.0,0.0,0,0,,,0
1449617113515886180,12,0,/odom,fullacmd_vector,0,0,0,0.0,0.0,0.0,0.0,0.0,-0.0315736990516,0.999501426476,0.452,0.0,0.0,0.0,1.0,1.0,0.0,0,0,,,0
1449617113555239969,13,0,/odom,fullacmd_vector,0,0,0,0.0,0.0,0.0,0.0,0.0,-0.0315736990516,0.999501426476,0.452,0.0,0.0,0.0,1.0,1.0,0.0,0,0,,,0
1449617113594675972,14,0,/odom,fullacmd_vector,0,0,0,0.0,0.0,0.0,0.0,0.0,-0.0315736990516,0.999501426476,0.452,0.0,0.0,0.0,1.0,1.0,0.0,0,0,,,0
1449617113635374510,15,0,/odom,fullacmd_vector,0,0,0,0.0,0.0,0.0,0.0,0.0,-0.0315736990516,0.999501426476,0.452,0.0,0.0,0.0,1.0,1.0,0.0,0,0,,,0
1449617113674958928,16,0,/odom,fullacmd_vector,0,0,0,0.0,0.0,0.0,0.0,0.0,-0.0315736990516,0.999501426476,0.452,0.0,0.0,0.0,1.0,1.0,0.0,0,0,,,0
1449617113715211393,17,0,/odom,fullacmd_vector,0,0,0,0.0,0.0,0.0,0.0,0.0,-0.0315736990516,0.999501426476,0.452,0.0,0.0,0.0,1.0,1.0,0.0,0,0,,,0
1449617113754727948,18,0,/odom,fullacmd_vector,0,0,0,0.0,0.0,0.0,0.0,0.0,-0.0315736990516,0.999501426476,0.452,0.0,0.0,0.0,1.0,1.0,0.0,0,0,,,0
1449617113797251579,19,0,/odom,fullacmd_vector,0,0,0,0.00287963245437,-3.04332289367e-05,0.0,0.0,0.0,-0.0368546235588,0.999320637595,0.452,0.0,0.0,0.0,1.0,1.0,0.0,0,0,,,0
1449617113836712712,20,0,/odom,fullacmd_vector,0,0,0,0.00287963245437,-3.04332289367e-05,0.0,0.0,0.0,-0.0368546235588,0.999320637595,0.452,0.0,0.0,0.0,1.0,1.0,0.0,0,0,,,0
1449617113875563608,21,0,/odom,fullacmd_vector,0,0,0,0.00287963245437,-3.04332289367e-05,0.0,0.0,0.0,-0.0368546235588,0.999320637595,0.452,0.0,0.0,0.0,1.0,1.0,0.0,0,0,,,0
1449617113914997000,22,0,/odom,fullacmd_vector,0,0,0,0.00287963245437,-3.04332289367e-05,0.0,0.0,0.0,-0.0368546235588,0.999320637595,0.452,0.0,0.0,0.0,1.0,1.0,0.0,0,0,,,0
1449617113954674613,23,0,/odom,fullacmd_vector,0,0,0,0.00287963245437,-3.04332289367e-05,0.0,0.0,0.0,-0.0368546235588,0.999320637595,0.452,0.0,0.0,0.0,1.0,1.0,0.0,0,0,,,0
1449617113995415064,24,0,/odom,fullacmd_vector,0,0,0,0.00575878249245,-9.12962879474e-05,0.0,0.0,0.0,-0.0421345190537,0.999111946833,0.452,0.0,0.0,0.0,1.0,1.0,0.0,0,0,,,0
1449617114041015405,25,0,/odom,fullacmd_vector,0,0,0,0.00575878249245,-9.12962879474e-05,0.0,0.0,0.0,-0.0421345190537,0.999111946833,0.452,0.0,0.0,0.0,1.0,1.0,0.0,0,0,,,0
1449617114074920672,26,0,/odom,fullacmd_vector,0,0,0,0.00575878249245,-9.12962879474e-05,0.0,0.0,0.0,-0.0421345190537,0.999111946833,0.452,0.0,0.0,0.0,1.0,1.0,0.0,0,0,,,0
1449617114120190517,27,0,/odom,fullacmd_vector,0,0,0,0.00863712856322,-0.000182582379687,0.0,0.0,0.0,-0.0263753298195,0.999652110475,0.452,0.0,0.0,0.0,1.0,1.0,0.0,0,0,,,0
1449617114155275095,28,0,/odom,fullacmd_vector,0,0,0,0.00863712856322,-0.000182582379687,0.0,0.0,0.0,-0.0263753298195,0.999652110475,0.452,0.0,0.0,0.0,1.0,1.0,0.0,0,0,,,0
1449617114194842425,29,0,/odom,fullacmd_vector,0,0,0,0.0115162786013,-0.000243445438698,0.0,0.0,0.0,-0.0210928001051,0.999777522144,0.452,0.0,0.0,0.0,1.0,1.0,0.0,0,0,,,0
1449617114235236690,30,0,/odom,fullacmd_vector,0,0,0,0.0143946246721,-0.000334731530437,0.0,0.0,0.0,-0.0263753298195,0.999652110475,0.452,0.0,0.0,0.0,1.0,1.0,0.0,0,0,,,0
1449617114275670129,31,0,/odom,fullacmd_vector,0,0,0,0.0143946246721,-0.000334731530437,0.0,0.0,0.0,-0.0263753298195,0.999652110475,0.452,0.0,0.0,0.0,1.0,1.0,0.0,0,0,,,0
1449617114316538885,32,0,/odom,fullacmd_vector,0,0,0,0.0201513168136,-0.000517303713916,0.0,0.0,0.0,-0.0263753298195,0.999652110475,0.452,0.0,0.0,0.0,1.0,1.0,0.0,0,0,,,0
1449617114355023831,33,0,/odom,fullacmd_vector,0,0,0,0.0201513168136,-0.000517303713916,0.0,0.0,0.0,-0.0263753298195,0.999652110475,0.452,0.0,0.0,0.0,1.0,1.0,0.0,0,0,,,0
1449617114396303391,34,0,/odom,fullacmd_vector,0,0,0,0.0230285374559,-0.000639002643314,0.0,0.0,0.0,-0.0316571231124,0.999498787671,0.452,0.0,0.0,0.0,1.0,1.0,0.0,0,0,,,0
1449617114447899613,35,0,/odom,fullacmd_vector,0,0,0,0.0259068835267,-0.000730288735054,0.0,0.0,0.0,-0.0263753298195,0.999652110475,0.452,0.0,0.0,0.0,1.0,1.0,0.0,0,0,,,0
1449617114475092238,36,0,/odom,fullacmd_vector,0,0,0,0.0287841041689,-0.000851987664452,0.0,0.0,0.0,-0.0316571231124,0.999498787671,0.452,0.0,0.0,0.0,1.0,1.0,0.0,0,0,,,0
1449617114515521910,37,0,/odom,fullacmd_vector,0,0,0,0.0345385454535,-0.00109538552325,0.0,0.0,0.0,-0.0316571231124,0.999498787671,0.452,0.0,0.0,0.0,1.0,1.0,0.0,0,0,,,0
1449617114554940666,38,0,/odom,fullacmd_vector,0,0,0,0.0374168915242,-0.00118667161499,0.0,0.0,0.0,-0.0263753298195,0.999652110475,0.452,0.0,0.0,0.0,1.0,1.0,0.0,0,0,,,0
1449617114604087094,39,0,/odom,acmd_vector,0,0,0,0.0431735836658,-0.00136924379847,0.0,0.0,0.0,-0.0263753298195,0.999652110475,0.35201,0.05,0.05,1.0,0.0,0.0,1.0,0,0,,,0
1449617114667880005,40,0,/odom,acmd_vector,0,0,0,0.046050804308,-0.00149094272787,0.0,0.0,0.0,-0.0316571231124,0.999498787671,0.35201,0.05,0.05,1.0,0.0,0.0,1.0,0,0,,,0
1449617114688400190,41,0,/odom,acmd_vector,0,0,0,0.054687450455,-0.00170395493763,0.0,0.0,0.0,-0.0263753298195,0.999652110475,0.35201,0.05,0.05,1.0,0.0,0.0,1.0,0,0,,,0
1449617114723983892,42,0,/odom,acmd_vector,0,0,0,0.054687450455,-0.00170395493763,0.0,0.0,0.0,-0.0263753298195,0.999652110475,0.35201,0.05,0.05,1.0,0.0,0.0,1.0,0,0,,,0
1449617114827212465,43,0,/odom,acmd_vector,0,0,0,0.0633249005692,-0.00188654411466,0.0,0.0,0.0,-0.0210928001051,0.999777522144,0.35201,0.05,0.05,1.0,0.0,0.0,1.0,0,0,,,0
1449617114842689165,44,0,/odom,acmd_vector,0,0,0,0.0748415007215,-0.0021299963507,0.0,0.0,0.0,-0.0210928001051,0.999777522144,0.35201,0.05,0.05,1.0,0.0,0.0,1.0,0,0,,,0
1449617114856523339,45,0,/odom,acmd_vector,0,0,0,0.0777211331759,-0.00216042957964,0.0,0.0,0.0,-0.0158096814618,0.999875019176,0.35201,0.05,0.05,1.0,0.0,0.0,1.0,0,0,,,0
1449617114881607498,46,0,/odom,acmd_vector,0,0,0,0.0777211331759,-0.00216042957964,0.0,0.0,0.0,-0.0158096814618,0.999875019176,0.35201,0.05,0.05,1.0,0.0,0.0,1.0,0,0,,,0
1449617114968889519,47,0,/odom,acmd_vector,0,0,0,0.0834803980846,-0.00222129603751,0.0,0.0,0.0,-0.0158096814618,0.999875019176,0.35201,0.05,0.05,1.0,0.0,0.0,1.0,0,0,,,0
1449617114986602902,48,0,/odom,acmd_vector,0,0,0,0.0978793644136,-0.00222129603751,0.0,0.0,0.0,-0.0105261213988,0.99994459885,0.35201,0.05,0.05,1.0,0.0,0.0,1.0,0,0,,,0
1449617115006133595,49,0,/odom,acmd_vector,0,0,0,0.106518261777,-0.0021299963507,0.0,0.0,0.0,-0.0262918929799,0.99965430843,0.35201,0.05,0.05,1.0,0.0,0.0,1.0,0,0,,,0
1449617115114278325,50,0,/odom,acmd_vector,0,0,0,0.106518261777,-0.0021299963507,0.0,0.0,0.0,-0.0262918929799,0.99965430843,0.35201,0.05,0.05,1.0,0.0,0.0,1.0,0,0,,,0
1449617115124733171,51,0,/odom,acmd_vector,0,0,0,0.123791714936,-0.0017344085586,0.0,0.0,0.0,-0.0157262260538,0.999876335261,0.35201,0.05,0.05,1.0,0.0,0.0,1.0,0,0,,,0
1449617115135606023,52,0,/odom,acmd_vector,0,0,0,0.123791714936,-0.0017344085586,0.0,0.0,0.0,-0.0367712143494,0.999323710214,0.35201,0.05,0.05,1.0,0.0,0.0,1.0,0,0,,,0
1449617115200557911,53,0,/odom,acmd_vector,0,0,0,0.123791714936,-0.0017344085586,0.0,0.0,0.0,-0.0367712143494,0.999323710214,0.35201,0.05,0.05,1.0,0.0,0.0,1.0,0,0,,,0
1449617115212190210,54,0,/odom,acmd_vector,0,0,0,0.13242562772,-0.00143013744572,0.0,0.0,0.0,-0.0314902747709,0.999504058318,0.35201,0.05,0.05,1.0,0.0,0.0,1.0,0,0,,,0
1449617115247796337,55,0,/odom,acmd_vector,0,0,0,0.13242562772,-0.00143013744572,0.0,0.0,0.0,-0.0314902747709,0.999504058318,0.35201,0.05,0.05,1.0,0.0,0.0,1.0,0,0,,,0
1449617115290022137,56,0,/odom,acmd_vector,0,0,0,0.141052949354,-0.000973842919513,0.0,0.0,0.0,-0.0262084559572,0.999656499422,0.35201,0.05,0.05,1.0,0.0,0.0,1.0,0,0,,,0
1449617115420895780,57,0,/odom,acmd_vector,0,0,0,0.143930169997,-0.000852143990114,0.0,0.0,0.0,-0.0314902747709,0.999504058318,0.35201,0.05,0.05,1.0,0.0,0.0,1.0,0,0,,,0
1449617115431852491,58,0,/odom,acmd_vector,0,0,0,0.155426193758,-0.000122222251368,0.0,0.0,0.0,-0.0209259053812,0.999781029268,0.35201,0.05,0.05,1.0,0.0,0.0,1.0,0,0,,,0
1449617115479019406,59,0,/odom,acmd_vector,0,0,0,0.161174205638,0.000242738618005,0.0,0.0,0.0,-0.0419677351422,0.999118966493,0.35201,0.05,0.05,1.0,0.0,0.0,1.0,0,0,,,0
1449617115507824096,60,0,/odom,acmd_vector,0,0,0,0.164046122664,0.000455580932083,0.0,0.0,0.0,-0.0366878048838,0.999326775871,0.35201,0.05,0.05,1.0,0.0,0.0,1.0,0,0,,,0
1449617115570342636,61,0,/odom,acmd_vector,0,0,0,0.166915630032,0.000698761354766,0.0,0.0,0.0,-0.0314068502708,0.999506683197,0.35201,0.05,0.05,1.0,0.0,0.0,1.0,0,0,,,0
1449617115595528179,62,0,/odom,acmd_vector,0,0,0,0.169787547058,0.000911603668844,0.0,0.0,0.0,-0.0156427705362,0.99987764438,0.35201,0.05,0.05,1.0,0.0,0.0,1.0,0,0,,,0
1449617115621087664,63,0,/odom,fullacmd_vector,0,0,0,0.172657054426,0.00115478409153,0.0,0.0,0.0,-0.0103591989318,0.999946342059,0.452,0.05,0.05,0.0,1.0,1.0,1.0,0,0,,,0
1449617115660933610,64,0,/odom,fullacmd_vector,0,0,0,0.172657054426,0.00115478409153,0.0,0.0,0.0,-0.0103591989318,0.999946342059,0.452,0.05,0.05,0.0,1.0,1.0,1.0,0,0,,,0
1449617115700618062,65,0,/odom,fullacmd_vector,0,0,0,0.172657054426,0.00115478409153,0.0,0.0,0.0,-0.0314068502708,0.999506683197,0.452,0.05,0.05,0.0,1.0,1.0,1.0,0,0,,,0
1449617115739911990,66,0,/odom,fullacmd_vector,0,0,0,0.178396069162,0.00164114493689,0.0,0.0,0.0,-0.0314068502708,0.999506683197,0.452,0.05,0.05,0.0,1.0,1.0,1.0,0,0,,,0
1449617115786845748,67,0,/odom,fullacmd_vector,0,0,0,0.178396069162,0.00164114493689,0.0,0.0,0.0,-0.0314068502708,0.999506683197,0.452,0.05,0.05,0.0,1.0,1.0,1.0,0,0,,,0
1449617115826528789,68,0,/odom,fullacmd_vector,0,0,0,0.178396069162,0.00164114493689,0.0,0.0,0.0,-0.0314068502708,0.999506683197,0.452,0.05,0.05,0.0,1.0,1.0,1.0,0,0,,,0
1449617115861685914,69,0,/odom,fullacmd_vector,0,0,0,0.181262846399,0.00191463630916,0.0,0.0,0.0,-0.0261250187519,0.999658683449,0.452,0.05,0.05,0.0,1.0,1.0,1.0,0,0,,,0
1449617115900388654,70,0,/odom,fullacmd_vector,0,0,0,0.181262846399,0.00191463630916,0.0,0.0,0.0,-0.0471631208861,0.998887200853,0.452,0.05,0.05,0.0,1.0,1.0,1.0,0,0,,,0
1449617115940612692,71,0,/odom,fullacmd_vector,0,0,0,0.181262846399,0.00191463630916,0.0,0.0,0.0,-0.0471631208861,0.998887200853,0.452,0.05,0.05,0.0,1.0,1.0,1.0,0,0,,,0
1449617115983127538,72,0,/odom,fullacmd_vector,0,0,0,0.181262846399,0.00191463630916,0.0,0.0,0.0,-0.0471631208861,0.998887200853,0.452,0.05,0.05,0.0,1.0,1.0,1.0,0,0,,,0
1449617116020613072,73,0,/odom,fullacmd_vector,0,0,0,0.181262846399,0.00191463630916,0.0,0.0,0.0,-0.0471631208861,0.998887200853,0.452,0.05,0.05,0.0,1.0,1.0,1.0,0,0,,,0
1449617116060879677,74,0,/odom,fullacmd_vector,0,0,0,0.181262846399,0.00191463630916,0.0,0.0,0.0,-0.0471631208861,0.998887200853,0.452,0.05,0.05,0.0,1.0,1.0,1.0,0,0,,,0
1449617116099837417,75,0,/odom,fullacmd_vector,0,0,0,0.181262846399,0.00191463630916,0.0,0.0,0.0,-0.0471631208861,0.998887200853,0.452,0.05,0.05,0.0,1.0,1.0,1.0,0,0,,,0
1449617116139966547,76,0,/odom,fullacmd_vector,0,0,0,0.181262846399,0.00191463630916,0.0,0.0,0.0,-0.0471631208861,0.998887200853,0.452,0.05,0.05,0.0,1.0,1.0,1.0,0,0,,,0
1449617116183387748,77,0,/odom,fullacmd_vector,0,0,0,0.184132353767,0.00215781673184,0.0,0.0,0.0,-0.0524405821904,0.998624046045,0.452,0.05,0.05,0.0,1.0,1.0,1.0,0,0,,,0
1449617116220081469,78,0,/odom,fullacmd_vector,0,0,0,0.184132353767,0.00215781673184,0.0,0.0,0.0,-0.0524405821904,0.998624046045,0.452,0.05,0.05,0.0,1.0,1.0,1.0,0,0,,,0
1449617116260636804,79,0,/odom,fullacmd_vector,0,0,0,0.184132353767,0.00215781673184,0.0,0.0,0.0,-0.0524405821904,0.998624046045,0.452,0.05,0.05,0.0,1.0,1.0,1.0,0,0,,,0
1449617116300311822,80,0,/odom,fullacmd_vector,0,0,0,0.184132353767,0.00215781673184,0.0,0.0,0.0,-0.0524405821904,0.998624046045,0.452,0.05,0.05,0.0,1.0,1.0,1.0,0,0,,,0
1449617116341618811,81,0,/odom,fullacmd_vector,0,0,0,0.184132353767,0.00215781673184,0.0,0.0,0.0,-0.0524405821904,0.998624046045,0.452,0.05,0.05,0.0,1.0,1.0,1.0,0,0,,,0
1449617116381962118,82,0,/odom,fullacmd_vector,0,0,0,0.189871368503,0.00264417757721,0.0,0.0,0.0,-0.0524405821904,0.998624046045,0.452,0.05,0.05,0.0,1.0,1.0,1.0,0,0,,,0
1449617116424187504,83,0,/odom,fullacmd_vector,0,0,0,0.189871368503,0.00264417757721,0.0,0.0,0.0,-0.0314068502708,0.999506683197,0.452,0.05,0.05,0.0,1.0,1.0,1.0,0,0,,,0
1449617116460325298,84,0,/odom,fullacmd_vector,0,0,0,0.189871368503,0.00264417757721,0.0,0.0,0.0,-0.0314068502708,0.999506683197,0.452,0.05,0.05,0.0,1.0,1.0,1.0,0,0,,,0
1449617116501819714,85,0,/odom,fullacmd_vector,0,0,0,0.195610383239,0.00313053842257,0.0,0.0,0.0,-0.0314068502708,0.999506683197,0.452,0.05,0.05,0.0,1.0,1.0,1.0,0,0,,,0
1449617116540974568,86,0,/odom,fullacmd_vector,0,0,0,0.195610383239,0.00313053842257,0.0,0.0,0.0,-0.0314068502708,0.999506683197,0.452,0.05,0.05,0.0,1.0,1.0,1.0,0,0,,,0
1449617116580528424,87,0,/odom,fullacmd_vector,0,0,0,0.198482300265,0.00334338073665,0.0,0.0,0.0,-0.0366878048838,0.999326775871,0.452,0.05,0.05,0.0,1.0,1.0,1.0,0,0,,,0
1449617116620626389,88,0,/odom,fullacmd_vector,0,0,0,0.201351807633,0.00358656115933,0.0,0.0,0.0,-0.0314068502708,0.999506683197,0.452,0.05,0.05,0.0,1.0,1.0,1.0,0,0,,,0
1449617116663644058,89,0,/odom,fullacmd_vector,0,0,0,0.207090822369,0.0040729220047,0.0,0.0,0.0,-0.0314068502708,0.999506683197,0.452,0.05,0.05,0.0,1.0,1.0,1.0,0,0,,,0
1449617116701793848,90,0,/odom,fullacmd_vector,0,0,0,0.209962739395,0.00428576431878,0.0,0.0,0.0,-0.0366878048838,0.999326775871,0.452,0.05,0.05,0.0,1.0,1.0,1.0,0,0,,,0
1449617116745933680,91,0,/odom,fullacmd_vector,0,0,0,0.215706573447,0.00471144894693,0.0,0.0,0.0,-0.0366878048838,0.999326775871,0.452,0.05,0.05,0.0,1.0,1.0,1.0,0,0,,,0
1449617116779865984,92,0,/odom,fullacmd_vector,0,0,0,0.221450407498,0.00513713357509,0.0,0.0,0.0,-0.0366878048838,0.999326775871,0.452,0.05,0.05,0.0,1.0,1.0,1.0,0,0,,,0
1449617116820260270,93,0,/odom,fullacmd_vector,0,0,0,0.22719424155,0.00556281820324,0.0,0.0,0.0,-0.0366878048838,0.999326775871,0.452,0.05,0.05,0.0,1.0,1.0,1.0,0,0,,,0
1449617116861744923,94,0,/odom,fullacmd_vector,0,0,0,0.232938075602,0.0059885028314,0.0,0.0,0.0,-0.0366878048838,0.999326775871,0.452,0.05,0.05,0.0,1.0,1.0,1.0,0,0,,,0
1449617116906361897,95,0,/odom,fullacmd_vector,0,0,0,0.238681909653,0.00641418745955,0.0,0.0,0.0,-0.0366878048838,0.999326775871,0.452,0.05,0.05,0.0,1.0,1.0,1.0,0,0,,,0
1449617116940159010,96,0,/odom,fullacmd_vector,0,0,0,0.244425743705,0.00683987208771,0.0,0.0,0.0,-0.0366878048838,0.999326775871,0.452,0.05,0.05,0.0,1.0,1.0,1.0,0,0,,,0
1449617116983868874,97,0,/odom,fullacmd_vector,0,0,0,0.250169577756,0.00726555671587,0.0,0.0,0.0,-0.0366878048838,0.999326775871,0.452,0.05,0.05,0.0,1.0,1.0,1.0,0,0,,,0
1449617117020801137,98,0,/odom,fullacmd_vector,0,0,0,0.258791595577,0.00781299801993,0.0,0.0,0.0,-0.0419677351422,0.999118966493,0.452,0.05,0.05,0.0,1.0,1.0,1.0,0,0,,,0
1449617117074072079,99,0,/odom,fullacmd_vector,0,0,0,0.264539607458,0.0081779588893,0.0,0.0,0.0,-0.0419677351422,0.999118966493,0.452,0.05,0.05,0.0,1.0,1.0,1.0,0,0,,,0
1449617117111593446,100,0,/odom,fullacmd_vector,0,0,0,0.273155358535,0.00881648583153,0.0,0.0,0.0,-0.0366878048838,0.999326775871,0.452,0.05,0.05,0.0,1.0,1.0,1.0,0,0,,,0
1449617117140993013,101,0,/odom,fullacmd_vector,0,0,0,0.281777376356,0.00936392713559,0.0,0.0,0.0,-0.0419677351422,0.999118966493,0.452,0.05,0.05,0.0,1.0,1.0,1.0,0,0,,,0
1449617117180671518,102,0,/odom,fullacmd_vector,0,0,0,0.287525388236,0.00972888800496,0.0,0.0,0.0,-0.0419677351422,0.999118966493,0.452,0.05,0.05,0.0,1.0,1.0,1.0,0,0,,,0
1449617117221493444,103,0,/odom,fullacmd_vector,0,0,0,0.299021411997,0.0104588097437,0.0,0.0,0.0,-0.0419677351422,0.999118966493,0.452,0.05,0.05,0.0,1.0,1.0,1.0,0,0,,,0
1449617117259899256,104,0,/odom,fullacmd_vector,0,0,0,0.307648733632,0.0109151042699,0.0,0.0,0.0,-0.0472464936258,0.998883260867,0.452,0.05,0.05,0.0,1.0,1.0,1.0,0,0,,,0
1449617117300237408,105,0,/odom,fullacmd_vector,0,0,0,0.313400281388,0.0112193006207,0.0,0.0,0.0,-0.0472464936258,0.998883260867,0.452,0.05,0.05,0.0,1.0,1.0,1.0,0,0,,,0
1449617117340919244,106,0,/odom,fullacmd_vector,0,0,0,0.324903376901,0.0118276933223,0.0,0.0,0.0,-0.0472464936258,0.998883260867,0.452,0.05,0.05,0.0,1.0,1.0,1.0,0,0,,,0
1449617117380840195,107,0,/odom,fullacmd_vector,0,0,0,0.330654924658,0.0121318896731,0.0,0.0,0.0,-0.0472464936258,0.998883260867,0.452,0.05,0.05,0.0,1.0,1.0,1.0,0,0,,,0
1449617117420464569,108,0,/odom,fullacmd_vector,0,0,0,0.345041027869,0.0127403843201,0.0,0.0,0.0,-0.0525239329472,0.998619665572,0.452,0.05,0.05,0.0,1.0,1.0,1.0,0,0,,,0
1449617117466436763,109,0,/odom,fullacmd_vector,0,0,0,0.356549910438,0.0132271800377,0.0,0.0,0.0,-0.0525239329472,0.998619665572,0.452,0.05,0.05,0.0,1.0,1.0,1.0,0,0,,,0
1449617117500932972,110,0,/odom,fullacmd_vector,0,0,0,0.362304351723,0.0134705778965,0.0,0.0,0.0,-0.0525239329472,0.998619665572,0.452,0.05,0.05,0.0,1.0,1.0,1.0,0,0,,,0
1449617117542035349,111,0,/odom,fullacmd_vector,0,0,0,0.376696082077,0.0139270083552,0.0,0.0,0.0,-0.0577999057558,0.99832818797,0.452,0.05,0.05,0.0,1.0,1.0,1.0,0,0,,,0
1449617117584764876,112,0,/odom,fullacmd_vector,0,0,0,0.38820946636,0.0142921527222,0.0,0.0,0.0,-0.0577999057558,0.99832818797,0.452,0.05,0.05,0.0,1.0,1.0,1.0,0,0,,,0
1449617117620198340,113,0,/odom,fullacmd_vector,0,0,0,0.399722850643,0.0146572970891,0.0,0.0,0.0,-0.0577999057558,0.99832818797,0.452,0.05,0.05,0.0,1.0,1.0,1.0,0,0,,,0
1449617117660824037,114,0,/odom,fullacmd_vector,0,0,0,0.408360300757,0.0148398862662,0.0,0.0,0.0,-0.0630742647421,0.998008836197,0.452,0.05,0.05,0.0,1.0,1.0,1.0,0,0,,,0
1449617117701394037,115,0,/odom,fullacmd_vector,0,0,0,0.419876900909,0.0150833385022,0.0,0.0,0.0,-0.0630742647421,0.998008836197,0.452,0.05,0.05,0.0,1.0,1.0,1.0,0,0,,,0
1449617117740177818,116,0,/odom,fullacmd_vector,0,0,0,0.434275063181,0.0152355046469,0.0,0.0,0.0,-0.0683468626413,0.997661619171,0.452,0.05,0.05,0.0,1.0,1.0,1.0,0,0,,,0
1449617117780466137,117,0,/odom,fullacmd_vector,0,0,0,0.44003432809,0.0152963711048,0.0,0.0,0.0,-0.0683468626413,0.997661619171,0.452,0.05,0.05,0.0,1.0,1.0,1.0,0,0,,,0
1449617117821840907,118,0,/odom,fullacmd_vector,0,0,0,0.454433294419,0.0152963711048,0.0,0.0,0.0,-0.0736175522382,0.997286546587,0.452,0.05,0.05,0.0,1.0,1.0,1.0,0,0,,,0
1449617117860007284,119,0,/odom,fullacmd_vector,0,0,0,0.468831456691,0.0151442049601,0.0,0.0,0.0,-0.0788861863706,0.996883628916,0.452,0.05,0.05,0.0,1.0,1.0,1.0,0,0,,,0
1449617117902787868,120,0,/odom,fullacmd_vector,0,0,0,0.477470836488,0.0151442049601,0.0,0.0,0.0,-0.0526072833381,0.998615278143,0.452,0.05,0.05,0.0,1.0,1.0,1.0,0,0,,,0
1449617117942780721,121,0,/odom,fullacmd_vector,0,0,0,0.49186899876,0.0149920388154,0.0,0.0,0.0,-0.0578832317999,0.998323360178,0.452,0.05,0.05,0.0,1.0,1.0,1.0,0,0,,,0
1449617117981651989,122,0,/odom,fullacmd_vector,0,0,0,0.500506448874,0.0148094496384,0.0,0.0,0.0,-0.0631575641129,0.998003568178,0.452,0.05,0.05,0.0,1.0,1.0,1.0,0,0,,,0
1449617118021019043,123,0,/odom,fullacmd_vector,0,0,0,0.512023049027,0.0145659974023,0.0,0.0,0.0,-0.0631575641129,0.998003568178,0.452,0.05,0.05,0.0,1.0,1.0,1.0,0,0,,,0
1449617118060871745,124,0,/odom,fullacmd_vector,0,0,0,0.52641477938,0.0141095669436,0.0,0.0,0.0,-0.068430133013,0.997655911071,0.452,0.05,0.05,0.0,1.0,1.0,1.0,0,0,,,0
1449617118101657102,125,0,/odom,fullacmd_vector,0,0,0,0.540800882592,0.0135010722966,0.0,0.0,0.0,-0.0737007912858,0.997280398566,0.452,0.05,0.05,0.0,1.0,1.0,1.0,0,0,,,0
1449617118139846059,126,0,/odom,fullacmd_vector,0,0,0,0.552309765161,0.0130142765791,0.0,0.0,0.0,-0.0737007912858,0.997280398566,0.452,0.05,0.05,0.0,1.0,1.0,1.0,0,0,,,0
1449617118186378693,127,0,/odom,fullacmd_vector,0,0,0,0.56381864773,0.0125274808615,0.0,0.0,0.0,-0.0737007912858,0.997280398566,0.452,0.05,0.05,0.0,1.0,1.0,1.0,0,0,,,0
1449617118221486124,128,0,/odom,fullacmd_vector,0,0,0,0.578197517121,0.0117669899844,0.0,0.0,0.0,-0.07896939177,0.996877041146,0.452,0.05,0.05,0.0,1.0,1.0,1.0,0,0,,,0
1449617118262232515,129,0,/odom,fullacmd_vector,0,0,0,0.586819534942,0.0112195486804,0.0,0.0,0.0,-0.0842357873618,0.996445850073,0.452,0.05,0.05,0.0,1.0,1.0,1.0,0,0,,,0
1449617118301291541,130,0,/odom,fullacmd_vector,0,0,0,0.601179120071,0.01015533711,0.0,0.0,0.0,-0.089499831019,0.995986837387,0.452,0.05,0.05,0.0,1.0,1.0,1.0,0,0,,,0
1449617118341508036,131,0,/odom,fullacmd_vector,0,0,0,0.612666788174,0.00930396785368,0.0,0.0,0.0,-0.089499831019,0.995986837387,0.452,0.05,0.05,0.0,1.0,1.0,1.0,0,0,,,0
1449617118382584190,132,0,/odom,fullacmd_vector,0,0,0,0.624154456277,0.00845259859737,0.0,0.0,0.0,-0.089499831019,0.995986837387,0.452,0.05,0.05,0.0,1.0,1.0,1.0,0,0,,,0
1449617118420841381,133,0,/odom,fullacmd_vector,0,0,0,0.638501993118,0.00723669648395,0.0,0.0,0.0,-0.0947613757649,0.995500015903,0.452,0.05,0.05,0.0,1.0,1.0,1.0,0,0,,,0
1449617118485876736,134,0,/odom,fullacmd_vector,0,0,0,0.647102324827,0.00641622236716,0.0,0.0,0.0,-0.100020274693,0.994985399215,0.452,0.05,0.05,0.0,1.0,1.0,1.0,0,0,,,0
1449617118500190459,135,0,/odom,fullacmd_vector,0,0,0,0.661420959504,0.0048973634791,0.0,0.0,0.0,-0.0843189562031,0.996438815796,0.452,0.05,0.05,0.0,1.0,1.0,1.0,0,0,,,0
1449617118540285758,136,0,/odom,fullacmd_vector,0,0,0,0.672875867246,0.00368227636865,0.0,0.0,0.0,-0.0843189562031,0.996438815796,0.452,0.05,0.05,0.0,1.0,1.0,1.0,0,0,,,0
1449617118580273721,137,0,/odom,fullacmd_vector,0,0,0,0.687177651276,0.00201218508398,0.0,0.0,0.0,-0.08958296153,0.995979363744,0.452,0.05,0.05,0.0,1.0,1.0,1.0,0,0,,,0
1449617118621223874,138,0,/odom,fullacmd_vector,0,0,0,0.6986190785,0.000676112056239,0.0,0.0,0.0,-0.08958296153,0.995979363744,0.452,0.05,0.05,0.0,1.0,1.0,1.0,0,0,,,0
1449617118661388840,139,0,/odom,fullacmd_vector,0,0,0,0.710060505724,-0.000659960971502,0.0,0.0,0.0,-0.08958296153,0.995979363744,0.452,0.05,0.05,0.0,1.0,1.0,1.0,0,0,,,0
1449617118701423387,140,0,/odom,fullacmd_vector,0,0,0,0.724343841846,-0.00248109813263,0.0,0.0,0.0,-0.0738672678402,0.997268081682,0.452,0.05,0.05,0.0,1.0,1.0,1.0,0,0,,,0
1449617118746159026,141,0,/odom,fullacmd_vector,0,0,0,0.732901817655,-0.00366428592157,0.0,0.0,0.0,-0.0791358009179,0.996863844772,0.452,0.05,0.05,0.0,1.0,1.0,1.0,0,0,,,0
1449617118779844608,142,0,/odom,fullacmd_vector,0,0,0,0.747143474599,-0.00578688782105,0.0,0.0,0.0,-0.0844021244569,0.996431774577,0.452,0.05,0.05,0.0,1.0,1.0,1.0,0,0,,,0
1449617118822283338,143,0,/odom,fullacmd_vector,0,0,0,0.758536800155,-0.00748496934064,0.0,0.0,0.0,-0.0844021244569,0.996431774577,0.452,0.05,0.05,0.0,1.0,1.0,1.0,0,0,,,0
1449617118860047479,144,0,/odom,fullacmd_vector,0,0,0,0.76993012571,-0.00918305086023,0.0,0.0,0.0,-0.0844021244569,0.996431774577,0.452,0.05,0.05,0.0,1.0,1.0,1.0,0,0,,,0
1449617118900825720,145,0,/odom,fullacmd_vector,0,0,0,0.784148556039,-0.0114560379532,0.0,0.0,0.0,-0.0791774028604,0.996860541338,0.452,0.05,0.05,0.0,1.0,1.0,1.0,0,0,,,0
1449617118941909279,146,0,/odom,fullacmd_vector,0,0,0,0.798342171801,-0.0138791563866,0.0,0.0,0.0,-0.0844437083633,0.996428251365,0.452,0.05,0.05,0.0,1.0,1.0,1.0,0,0,,,0
1449617118979998811,147,0,/odom,fullacmd_vector,0,0,0,0.804019618106,-0.01484840376,0.0,0.0,0.0,-0.0844437083633,0.996428251365,0.452,0.05,0.05,0.0,1.0,1.0,1.0,0,0,,,0
1449617119021949937,148,0,/odom,fullacmd_vector,0,0,0,0.818186834121,-0.0174213829136,0.0,0.0,0.0,-0.0792190046651,0.996857236168,0.452,0.05,0.05,0.0,1.0,1.0,1.0,0,0,,,0
1449617119062300971,149,0,/odom,fullacmd_vector,0,0,0,0.832326068157,-0.0201439354303,0.0,0.0,0.0,-0.0844852921227,0.996424726417,0.452,0.05,0.05,0.0,1.0,1.0,1.0,0,0,,,0
1449617119099771926,150,0,/odom,fullacmd_vector,0,0,0,0.843637455386,-0.0223219774437,0.0,0.0,0.0,-0.0844852921227,0.996424726417,0.452,0.05,0.05,0.0,1.0,1.0,1.0,0,0,,,0
1449617119141409678,151,0,/odom,fullacmd_vector,0,0,0,0.854948842615,-0.0245000194571,0.0,0.0,0.0,-0.0844852921227,0.996424726417,0.452,0.05,0.05,0.0,1.0,1.0,1.0,0,0,,,0
1449617119182624607,152,0,/odom,fullacmd_vector,0,0,0,0.869058515567,-0.0273718412753,0.0,0.0,0.0,-0.0897492206793,0.995964395642,0.452,0.05,0.05,0.0,1.0,1.0,1.0,0,0,,,0
1449617119219791205,153,0,/odom,fullacmd_vector,0,0,0,0.877505637203,-0.0291843035074,0.0,0.0,0.0,-0.0950106433615,0.995476256697,0.452,0.05,0.05,0.0,1.0,1.0,1.0,0,0,,,0
1449617119259959026,154,0,/odom,fullacmd_vector,0,0,0,0.888768466052,-0.031600919817,0.0,0.0,0.0,-0.0950106433615,0.995476256697,0.452,0.05,0.05,0.0,1.0,1.0,1.0,0,0,,,0
1449617119299797130,155,0,/odom,fullacmd_vector,0,0,0,0.905662709324,-0.0352258442813,0.0,0.0,0.0,-0.0950106433615,0.995476256697,0.452,0.05,0.05,0.0,1.0,1.0,1.0,0,0,,,0
1449617119341574699,156,0,/odom,fullacmd_vector,0,0,0,0.91409020543,-0.0371274732342,0.0,0.0,0.0,-0.100269413266,0.994960323211,0.452,0.05,0.05,0.0,1.0,1.0,1.0,0,0,,,0
1449617119380495102,157,0,/odom,fullacmd_vector,0,0,0,0.925326866904,-0.0396629785048,0.0,0.0,0.0,-0.100269413266,0.994960323211,0.452,0.05,0.05,0.0,1.0,1.0,1.0,0,0,,,0
1449617119420913274,158,0,/odom,fullacmd_vector,0,0,0,0.939338415854,-0.0429806173294,0.0,0.0,0.0,-0.105525383563,0.994416609588,0.452,0.05,0.05,0.0,1.0,1.0,1.0,0,0,,,0
1449617119460066514,159,0,/odom,fullacmd_vector,0,0,0,0.953314122064,-0.046446142868,0.0,0.0,0.0,-0.110778407502,0.993845131009,0.452,0.05,0.05,0.0,1.0,1.0,1.0,0,0,,,0
1449617119501298434,160,0,/odom,fullacmd_vector,0,0,0,0.961677103641,-0.048613957996,0.0,0.0,0.0,-0.0950937312373,0.995468323092,0.452,0.05,0.05,0.0,1.0,1.0,1.0,0,0,,,0
1449617119550365574,161,0,/odom,fullacmd_vector,0,0,0,0.975652809852,-0.0520794835346,0.0,0.0,0.0,-0.0898323493163,0.995956901184,0.452,0.05,0.05,0.0,1.0,1.0,1.0,0,0,,,0
1449617119580677130,162,0,/odom,fullacmd_vector,0,0,0,0.984015791428,-0.0542472986627,0.0,0.0,0.0,-0.0950937312373,0.995468323092,0.452,0.05,0.05,0.0,1.0,1.0,1.0,0,0,,,0
1449617119620383084,163,0,/odom,fullacmd_vector,0,0,0,0.997915133808,-0.058007420039,0.0,0.0,0.0,-0.100352458061,0.99495195068,0.452,0.05,0.05,0.0,1.0,1.0,1.0,0,0,,,0
1449617119660089600,164,0,/odom,fullacmd_vector,0,0,0,1.00903460771,-0.06101551714,0.0,0.0,0.0,-0.100352458061,0.99495195068,0.452,0.05,0.05,0.0,1.0,1.0,1.0,0,0,,,0
1449617119700149676,165,0,/odom,fullacmd_vector,0,0,0,1.02015408161,-0.0640236142411,0.0,0.0,0.0,-0.100352458061,0.99495195068,0.452,0.05,0.05,0.0,1.0,1.0,1.0,0,0,,,0
1449617119740207872,166,0,/odom,fullacmd_vector,0,0,0,1.03401291143,-0.06793041184,0.0,0.0,0.0,-0.105608382958,0.994407798365,0.452,0.05,0.05,0.0,1.0,1.0,1.0,0,0,,,0
1449617119779840283,167,0,/odom,fullacmd_vector,0,0,0,1.04509997528,-0.0710558499192,0.0,0.0,0.0,-0.0846516256881,0.996410609271,0.452,0.05,0.05,0.0,1.0,1.0,1.0,0,0,,,0
1449617119820922764,168,0,/odom,fullacmd_vector,0,0,0,1.05891674474,-0.0751088874194,0.0,0.0,0.0,-0.0899154773276,0.995949399787,0.452,0.05,0.05,0.0,1.0,1.0,1.0,0,0,,,0
1449617119860716946,169,0,/odom,fullacmd_vector,0,0,0,1.06997016031,-0.0783513174196,0.0,0.0,0.0,-0.0899154773276,0.995949399787,0.452,0.05,0.05,0.0,1.0,1.0,1.0,0,0,,,0
1449617119900174173,170,0,/odom,fullacmd_vector,0,0,0,1.08102357588,-0.0815937474198,0.0,0.0,0.0,-0.0899154773276,0.995949399787,0.452,0.05,0.05,0.0,1.0,1.0,1.0,0,0,,,0
1449617119941487170,171,0,/odom,fullacmd_vector,0,0,0,1.09207699145,-0.08483617742,0.0,0.0,0.0,-0.0899154773276,0.995949399787,0.452,0.05,0.05,0.0,1.0,1.0,1.0,0,0,,,0
1449617119980401360,172,0,/odom,fullacmd_vector,0,0,0,1.10585015747,-0.0890350021677,0.0,0.0,0.0,-0.0951768184506,0.995460382552,0.452,0.05,0.05,0.0,1.0,1.0,1.0,0,0,,,0
1449617120020326378,173,0,/odom,fullacmd_vector,0,0,0,1.11686869028,-0.0923940619659,0.0,0.0,0.0,-0.0951768184506,0.995460382552,0.452,0.05,0.05,0.0,1.0,1.0,1.0,0,0,,,0
1449617120065156381,174,0,/odom,fullacmd_vector,0,0,0,1.12788722309,-0.0957531217641,0.0,0.0,0.0,-0.0951768184506,0.995460382552,0.452,0.05,0.05,0.0,1.0,1.0,1.0,0,0,,,0
1449617120101528596,175,0,/odom,fullacmd_vector,0,0,0,1.13890575591,-0.0991121815623,0.0,0.0,0.0,-0.0951768184506,0.995460382552,0.452,0.05,0.05,0.0,1.0,1.0,1.0,0,0,,,0
1449617120144413273,176,0,/odom,fullacmd_vector,0,0,0,1.15263378025,-0.103456324622,0.0,0.0,0.0,-0.100435502156,0.994943571217,0.452,0.05,0.05,0.0,1.0,1.0,1.0,0,0,,,0
1449617120180240734,177,0,/odom,fullacmd_vector,0,0,0,1.16910740946,-0.108669296293,0.0,0.0,0.0,-0.100435502156,0.994943571217,0.452,0.05,0.05,0.0,1.0,1.0,1.0,0,0,,,0
1449617120220367047,178,0,/odom,fullacmd_vector,0,0,0,1.1745986192,-0.110406953517,0.0,0.0,0.0,-0.100435502156,0.994943571217,0.452,0.05,0.05,0.0,1.0,1.0,1.0,0,0,,,0
1449617120260387094,179,0,/odom,fullacmd_vector,0,0,0,1.19107224842,-0.115619925188,0.0,0.0,0.0,-0.100435502156,0.994943571217,0.452,0.05,0.05,0.0,1.0,1.0,1.0,0,0,,,0
1449617120301976956,180,0,/odom,fullacmd_vector,0,0,0,1.19656345815,-0.117357582412,0.0,0.0,0.0,-0.0794686125932,0.996837368688,0.452,0.05,0.05,0.0,1.0,1.0,1.0,0,0,,,0
1449617120340384015,181,0,/odom,fullacmd_vector,0,0,0,1.21024480765,-0.121846558618,0.0,0.0,0.0,-0.0847347915864,0.996403540286,0.452,0.05,0.05,0.0,1.0,1.0,1.0,0,0,,,0
1449617120380880307,182,0,/odom,fullacmd_vector,0,0,0,1.22397283199,-0.126190701677,0.0,0.0,0.0,-0.0794686125932,0.996837368688,0.452,0.05,0.05,0.0,1.0,1.0,1.0,0,0,,,0
1449617120420867860,183,0,/odom,fullacmd_vector,0,0,0,1.23218164169,-0.128884087401,0.0,0.0,0.0,-0.0847347915864,0.996403540286,0.452,0.05,0.05,0.0,1.0,1.0,1.0,0,0,,,0
1449617120460702280,184,0,/odom,fullacmd_vector,0,0,0,1.24590966603,-0.13322823046,0.0,0.0,0.0,-0.0794686125932,0.996837368688,0.452,0.05,0.05,0.0,1.0,1.0,1.0,0,0,,,0
1449617120500317492,185,0,/odom,fullacmd_vector,0,0,0,1.25959101553,-0.137717206666,0.0,0.0,0.0,-0.0847347915864,0.996403540286,0.452,0.05,0.05,0.0,1.0,1.0,1.0,0,0,,,0
1449617120540119172,186,0,/odom,fullacmd_vector,0,0,0,1.26782783014,-0.140323692502,0.0,0.0,0.0,-0.0794686125932,0.996837368688,0.452,0.05,0.05,0.0,1.0,1.0,1.0,0,0,,,0
1449617120580296016,187,0,/odom,fullacmd_vector,0,0,0,1.28150917963,-0.144812668708,0.0,0.0,0.0,-0.0847347915864,0.996403540286,0.452,0.05,0.05,0.0,1.0,1.0,1.0,0,0,,,0
1449617120620432359,188,0,/odom,fullacmd_vector,0,0,0,1.29523720397,-0.149156811767,0.0,0.0,0.0,-0.0794686125932,0.996837368688,0.452,0.05,0.05,0.0,1.0,1.0,1.0,0,0,,,0
1449617120660446371,189,0,/odom,fullacmd_vector,0,0,0,1.30891855347,-0.153645787973,0.0,0.0,0.0,-0.0847347915864,0.996403540286,0.452,0.05,0.05,0.0,1.0,1.0,1.0,0,0,,,0
1449617120701503345,190,0,/odom,fullacmd_vector,0,0,0,1.31715536807,-0.156252273809,0.0,0.0,0.0,-0.0794686125932,0.996837368688,0.452,0.05,0.05,0.0,1.0,1.0,1.0,0,0,,,0
1449617120740267982,191,0,/odom,fullacmd_vector,0,0,0,1.32813778755,-0.159727588257,0.0,0.0,0.0,-0.0794686125932,0.996837368688,0.452,0.05,0.05,0.0,1.0,1.0,1.0,0,0,,,0
1449617120781510862,192,0,/odom,fullacmd_vector,0,0,0,1.33912020703,-0.163202902704,0.0,0.0,0.0,-0.0794686125932,0.996837368688,0.452,0.05,0.05,0.0,1.0,1.0,1.0,0,0,,,0
1449617120821675231,193,0,/odom,fullacmd_vector,0,0,0,1.3501026265,-0.166678217152,0.0,0.0,0.0,-0.0794686125932,0.996837368688,0.452,0.05,0.05,0.0,1.0,1.0,1.0,0,0,,,0
1449617120860109568,194,0,/odom,fullacmd_vector,0,0,0,1.36657625572,-0.171891188823,0.0,0.0,0.0,-0.0794686125932,0.996837368688,0.452,0.05,0.05,0.0,1.0,1.0,1.0,0,0,,,0
1449617120900645783,195,0,/odom,fullacmd_vector,0,0,0,1.37484015533,-0.174410483672,0.0,0.0,0.0,-0.074200214769,0.997243364545,0.452,0.05,0.05,0.0,1.0,1.0,1.0,0,0,,,0
1449617120939926101,196,0,/odom,fullacmd_vector,0,0,0,1.38856817967,-0.178754626731,0.0,0.0,0.0,-0.0794686125932,0.996837368688,0.452,0.05,0.05,0.0,1.0,1.0,1.0,0,0,,,0
1449617120982116280,197,0,/odom,fullacmd_vector,0,0,0,1.40234134569,-0.182953451479,0.0,0.0,0.0,-0.074200214769,0.997243364545,0.452,0.05,0.05,0.0,1.0,1.0,1.0,0,0,,,0
1449617121023547399,198,0,/odom,fullacmd_vector,0,0,0,1.4133598785,-0.186312511277,0.0,0.0,0.0,-0.0531907257802,0.998584371343,0.452,0.05,0.05,0.0,1.0,1.0,1.0,0,0,,,0
1449617121061076524,199,0,/odom,fullacmd_vector,0,0,0,1.42437841131,-0.189671571075,0.0,0.0,0.0,-0.0531907257802,0.998584371343,0.452,0.05,0.05,0.0,1.0,1.0,1.0,0,0,,,0
1449617121100448670,200,0,/odom,fullacmd_vector,0,0,0,1.43819518077,-0.193724608575,0.0,0.0,0.0,-0.0479134636447,0.998851490464,0.452,0.05,0.05,0.0,1.0,1.0,1.0,0,0,,,0
1449617121139813718,201,0,/odom,fullacmd_vector,0,0,0,1.44924859634,-0.196967038576,0.0,0.0,0.0,-0.0479134636447,0.998851490464,0.452,0.05,0.05,0.0,1.0,1.0,1.0,0,0,,,0
1449617121180888824,202,0,/odom,fullacmd_vector,0,0,0,1.45756389423,-0.199311117135,0.0,0.0,0.0,-0.0426348637248,0.999090720803,0.452,0.05,0.05,0.0,1.0,1.0,1.0,0,0,,,0
1449617121220993864,203,0,/odom,fullacmd_vector,0,0,0,1.47419449001,-0.203999274254,0.0,0.0,0.0,-0.0426348637248,0.999090720803,0.452,0.05,0.05,0.0,1.0,1.0,1.0,0,0,,,0
1449617121260037265,204,0,/odom,fullacmd_vector,0,0,0,1.47973802194,-0.205561993293,0.0,0.0,0.0,-0.0426348637248,0.999090720803,0.452,0.05,0.05,0.0,1.0,1.0,1.0,0,0,,,0
1449617121300322163,205,0,/odom,fullacmd_vector,0,0,0,1.49363736432,-0.20932211467,0.0,0.0,0.0,-0.0373550734032,0.999302055682,0.452,0.05,0.05,0.0,1.0,1.0,1.0,0,0,,,0
1449617121346381953,206,0,/odom,fullacmd_vector,0,0,0,1.50475683822,-0.212330211771,0.0,0.0,0.0,-0.0373550734032,0.999302055682,0.452,0.05,0.05,0.0,1.0,1.0,1.0,0,0,,,0
1449617121380862096,207,0,/odom,fullacmd_vector,0,0,0,1.51587631212,-0.215338308872,0.0,0.0,0.0,-0.0373550734032,0.999302055682,0.452,0.05,0.05,0.0,1.0,1.0,1.0,0,0,,,0
1449617121420113184,208,0,/odom,fullacmd_vector,0,0,0,1.52981461475,-0.218951334085,0.0,0.0,0.0,-0.0320742400964,0.9994854892,0.452,0.05,0.05,0.0,1.0,1.0,1.0,0,0,,,0
1449617121460684240,209,0,/odom,fullacmd_vector,0,0,0,1.54379032096,-0.222416859624,0.0,0.0,0.0,-0.0267925112495,0.999641016236,0.452,0.05,0.05,0.0,1.0,1.0,1.0,0,0,,,0
1449617121500207715,210,0,/odom,fullacmd_vector,0,0,0,1.55497088593,-0.225189280055,0.0,0.0,0.0,-0.0267925112495,0.999641016236,0.452,0.05,0.05,0.0,1.0,1.0,1.0,0,0,,,0
1449617121543652733,211,0,/odom,fullacmd_vector,0,0,0,1.5633778153,-0.227179863349,0.0,0.0,0.0,-0.021510034333,0.999768632446,0.452,0.05,0.05,0.0,1.0,1.0,1.0,0,0,,,0
1449617121581421507,212,0,/odom,fullacmd_vector,0,0,0,1.57742364214,-0.230349244938,0.0,0.0,0.0,-0.0162269568381,0.999868334268,0.452,0.05,0.05,0.0,1.0,1.0,1.0,0,0,,,0
1449617121620807148,213,0,/odom,fullacmd_vector,0,0,0,1.58866030362,-0.232884750208,0.0,0.0,0.0,-0.0162269568381,0.999868334268,0.452,0.05,0.05,0.0,1.0,1.0,1.0,0,0,,,0
1449617121661254647,214,0,/odom,fullacmd_vector,0,0,0,1.60273883968,-0.235905520595,0.0,0.0,0.0,0.0101088146915,0.999948904627,0.452,0.05,0.05,0.0,1.0,1.0,1.0,0,0,,,0
1449617121700458591,215,0,/odom,fullacmd_vector,0,0,0,1.61400166853,-0.238322136905,0.0,0.0,0.0,0.0101088146915,0.999948904627,0.452,0.05,0.05,0.0,1.0,1.0,1.0,0,0,,,0
1449617121740699966,216,0,/odom,fullacmd_vector,0,0,0,1.62526449737,-0.240738753214,0.0,0.0,0.0,0.0101088146915,0.999948904627,0.452,0.05,0.05,0.0,1.0,1.0,1.0,0,0,,,0
1449617121781467847,217,0,/odom,fullacmd_vector,0,0,0,1.63373030115,-0.242461846305,0.0,0.0,0.0,0.015392403332,0.999881529942,0.452,0.05,0.05,0.0,1.0,1.0,1.0,0,0,,,0
1449617121820437361,218,0,/odom,fullacmd_vector,0,0,0,1.64786953518,-0.245184398822,0.0,0.0,0.0,0.0206755622036,0.999786237717,0.452,0.05,0.05,0.0,1.0,1.0,1.0,0,0,,,0
1449617121860633115,219,0,/odom,fullacmd_vector,0,0,0,1.65918092241,-0.247362440835,0.0,0.0,0.0,0.0206755622036,0.999786237717,0.452,0.05,0.05,0.0,1.0,1.0,1.0,0,0,,,0
1449617121902300643,220,0,/odom,fullacmd_vector,0,0,0,1.66768125202,-0.248906228327,0.0,0.0,0.0,0.0259581437959,0.999663030611,0.452,0.05,0.05,0.0,1.0,1.0,1.0,0,0,,,0
1449617121940818069,221,0,/odom,fullacmd_vector,0,0,0,1.68187486778,-0.251329346761,0.0,0.0,0.0,0.0312400006148,0.999511912066,0.452,0.05,0.05,0.0,1.0,1.0,1.0,0,0,,,0
1449617121980398924,222,0,/odom,fullacmd_vector,0,0,0,1.69609329811,-0.253602333854,0.0,0.0,0.0,0.0365209851865,0.9993328863,0.452,0.05,0.05,0.0,1.0,1.0,1.0,0,0,,,0
1449617122020275810,223,0,/odom,fullacmd_vector,0,0,0,1.70460946757,-0.255056204914,0.0,0.0,0.0,0.0312400006148,0.999511912066,0.452,0.05,0.05,0.0,1.0,1.0,1.0,0,0,,,0
1449617122060084869,224,0,/odom,fullacmd_vector,0,0,0,1.7188278979,-0.257329192007,0.0,0.0,0.0,0.0365209851865,0.9993328863,0.452,0.05,0.05,0.0,1.0,1.0,1.0,0,0,,,0
1449617122102169131,225,0,/odom,fullacmd_vector,0,0,0,1.73306955484,-0.259451793906,0.0,0.0,0.0,0.0418009500612,0.999125958313,0.452,0.05,0.05,0.0,1.0,1.0,1.0,0,0,,,0
1449617122140968345,226,0,/odom,fullacmd_vector,0,0,0,1.74162753065,-0.260634981695,0.0,0.0,0.0,0.0470797478179,0.998891133881,0.452,0.05,0.05,0.0,1.0,1.0,1.0,0,0,,,0
1449617122185750712,227,0,/odom,fullacmd_vector,0,0,0,1.75591086677,-0.262456118856,0.0,0.0,0.0,0.0313234255519,0.999509301113,0.452,0.05,0.05,0.0,1.0,1.0,1.0,0,0,,,0
1449617122220226935,228,0,/odom,fullacmd_vector,0,0,0,1.76733753567,-0.263913028585,0.0,0.0,0.0,0.0313234255519,0.999509301113,0.452,0.05,0.05,0.0,1.0,1.0,1.0,0,0,,,0
1449617122260932262,229,0,/odom,fullacmd_vector,0,0,0,1.77591860609,-0.264915083356,0.0,0.0,0.0,0.0366043951626,0.999329834567,0.452,0.05,0.05,0.0,1.0,1.0,1.0,0,0,,,0
1449617122300367420,230,0,/odom,fullacmd_vector,0,0,0,1.79023724076,-0.266433942244,0.0,0.0,0.0,0.0418843427476,0.999122465883,0.452,0.05,0.05,0.0,1.0,1.0,1.0,0,0,,,0
1449617122341219812,231,0,/odom,fullacmd_vector,0,0,0,1.80457112695,-0.267801399105,0.0,0.0,0.0,0.0681803204701,0.99767301452,0.452,0.05,0.05,0.0,1.0,1.0,1.0,0,0,,,0
1449617122380711077,232,0,/odom,fullacmd_vector,0,0,0,1.81317964905,-0.268530940374,0.0,0.0,0.0,0.073451072605,0.997298821785,0.452,0.05,0.05,0.0,1.0,1.0,1.0,0,0,,,0
1449617122420643908,233,0,/odom,fullacmd_vector,0,0,0,1.82753923418,-0.269595151944,0.0,0.0,0.0,0.0787197739237,0.996896783621,0.452,0.05,0.05,0.0,1.0,1.0,1.0,0,0,,,0
1449617122460768228,234,0,/odom,fullacmd_vector,0,0,0,1.836161252,-0.270142593248,0.0,0.0,0.0,0.0839862773195,0.996466911253,0.452,0.05,0.05,0.0,1.0,1.0,1.0,0,0,,,0
1449617122500584574,235,0,/odom,fullacmd_vector,0,0,0,1.85054012139,-0.270903084125,0.0,0.0,0.0,0.0892504357472,0.996009216684,0.452,0.05,0.05,0.0,1.0,1.0,1.0,0,0,,,0
1449617122540192284,236,0,/odom,fullacmd_vector,0,0,0,1.8649262246,-0.271511578772,0.0,0.0,0.0,0.094512102227,0.995523712692,0.452,0.05,0.05,0.0,1.0,1.0,1.0,0,0,,,0
1449617122580584856,237,0,/odom,fullacmd_vector,0,0,0,1.87355354624,-0.271967873298,0.0,0.0,0.0,0.0892504357472,0.996009216684,0.452,0.05,0.05,0.0,1.0,1.0,1.0,0,0,,,0
1449617122620153753,238,0,/odom,fullacmd_vector,0,0,0,1.88506693052,-0.272333017665,0.0,0.0,0.0,0.0997711298487,0.995010412834,0.452,0.05,0.05,0.0,1.0,1.0,1.0,0,0,,,0
1449617122661607164,239,0,/odom,fullacmd_vector,0,0,0,1.89946268071,-0.27263733296,0.0,0.0,0.0,0.105027371776,0.994469331442,0.452,0.05,0.05,0.0,1.0,1.0,1.0,0,0,,,0
1449617122701839749,240,0,/odom,fullacmd_vector,0,0,0,1.91386084298,-0.272789499105,0.0,0.0,0.0,0.11028068125,0.993900483622,0.452,0.05,0.05,0.0,1.0,1.0,1.0,0,0,,,0
1449617122740999450,241,0,/odom,fullacmd_vector,0,0,0,1.92250022278,-0.272789499105,0.0,0.0,0.0,0.115530911593,0.993303885257,0.452,0.05,0.05,0.0,1.0,1.0,1.0,0,0,,,0
1449617122780378775,242,0,/odom,fullacmd_vector,0,0,0,1.93401939584,-0.272789499105,0.0,0.0,0.0,0.115530911593,0.993303885257,0.452,0.05,0.05,0.0,1.0,1.0,1.0,0,0,,,0
1449617122820235730,243,0,/odom,fullacmd_vector,0,0,0,1.94553856891,-0.272789499105,0.0,0.0,0.0,0.115530911593,0.993303885257,0.452,0.05,0.05,0.0,1.0,1.0,1.0,0,0,,,0
1449617122863095579,244,0,/odom,fullacmd_vector,0,0,0,1.95705516906,-0.272546046869,0.0,0.0,0.0,0.126021548617,0.992027504298,0.452,0.05,0.05,0.0,1.0,1.0,1.0,0,0,,,0
1449617122913208563,245,0,/odom,fullacmd_vector,0,0,0,1.97144689941,-0.27208961641,0.0,0.0,0.0,0.131261662389,0.991347757342,0.452,0.05,0.05,0.0,1.0,1.0,1.0,0,0,,,0
1449617122940930153,246,0,/odom,fullacmd_vector,0,0,0,1.98583300262,-0.271481121763,0.0,0.0,0.0,0.136498111224,0.990640331115,0.452,0.05,0.05,0.0,1.0,1.0,1.0,0,0,,,0
1449617122980152113,247,0,/odom,fullacmd_vector,0,0,0,1.99446032426,-0.271024827237,0.0,0.0,0.0,0.141730748917,0.98990524537,0.452,0.05,0.05,0.0,1.0,1.0,1.0,0,0,,,0
1449617123022144997,248,0,/odom,fullacmd_vector,0,0,0,2.00883035396,-0.270112425063,0.0,0.0,0.0,0.146959429366,0.989142520631,0.452,0.05,0.05,0.0,1.0,1.0,1.0,0,0,,,0
1449617123060438566,249,0,/odom,fullacmd_vector,0,0,0,2.0174576756,-0.269656130537,0.0,0.0,0.0,0.141730748917,0.98990524537,0.452,0.05,0.05,0.0,1.0,1.0,1.0,0,0,,,0
1449617123101358376,250,0,/odom,fullacmd_vector,0,0,0,2.0289453437,-0.268804761281,0.0,0.0,0.0,0.152184006584,0.988352178194,0.452,0.05,0.05,0.0,1.0,1.0,1.0,0,0,,,0
1449617123142070122,251,0,/odom,fullacmd_vector,0,0,0,2.04329288054,-0.267588859168,0.0,0.0,0.0,0.136580795321,0.990628934743,0.452,0.05,0.05,0.0,1.0,1.0,1.0,0,0,,,0
1449617123181496152,252,0,/odom,fullacmd_vector,0,0,0,2.05762676672,-0.266221402306,0.0,0.0,0.0,0.141813371641,0.989893412254,0.452,0.05,0.05,0.0,1.0,1.0,1.0,0,0,,,0
1449617123222159941,253,0,/odom,fullacmd_vector,0,0,0,2.06621794753,-0.265310086973,0.0,0.0,0.0,0.147041988411,0.989130251102,0.452,0.05,0.05,0.0,1.0,1.0,1.0,0,0,,,0
1449617123260317994,254,0,/odom,fullacmd_vector,0,0,0,2.08051973156,-0.263639995689,0.0,0.0,0.0,0.152266499643,0.988339472593,0.452,0.05,0.05,0.0,1.0,1.0,1.0,0,0,,,0
1449617123300270773,255,0,/odom,fullacmd_vector,0,0,0,2.09196115878,-0.262303922661,0.0,0.0,0.0,0.152266499643,0.988339472593,0.452,0.05,0.05,0.0,1.0,1.0,1.0,0,0,,,0
1449617123340819060,256,0,/odom,fullacmd_vector,0,0,0,2.10053116045,-0.261211240364,0.0,0.0,0.0,0.157486759466,0.987521098809,0.452,0.05,0.05,0.0,1.0,1.0,1.0,0,0,,,0
1449617123380590138,257,0,/odom,fullacmd_vector,0,0,0,2.11479445347,-0.259239260716,0.0,0.0,0.0,0.141895993377,0.989881572242,0.452,0.05,0.05,0.0,1.0,1.0,1.0,0,0,,,0
1449617123420678973,258,0,/odom,fullacmd_vector,0,0,0,2.12903611041,-0.257116658817,0.0,0.0,0.0,0.147124546431,0.989117974681,0.452,0.05,0.05,0.0,1.0,1.0,1.0,0,0,,,0
1449617123460631408,259,0,/odom,fullacmd_vector,0,0,0,2.13756716861,-0.255752866561,0.0,0.0,0.0,0.152348991643,0.988326760108,0.452,0.05,0.05,0.0,1.0,1.0,1.0,0,0,,,0
1449617123500381471,260,0,/odom,fullacmd_vector,0,0,0,2.14894191287,-0.253934476886,0.0,0.0,0.0,0.152348991643,0.988326760108,0.452,0.05,0.05,0.0,1.0,1.0,1.0,0,0,,,0
1449617123541066868,261,0,/odom,fullacmd_vector,0,0,0,2.16313552864,-0.251511358453,0.0,0.0,0.0,0.157569183141,0.987507950613,0.452,0.05,0.05,0.0,1.0,1.0,1.0,0,0,,,0
1449617123581222948,262,0,/odom,fullacmd_vector,0,0,0,2.17163585824,-0.249967570961,0.0,0.0,0.0,0.12110932859,0.992639174387,0.452,0.05,0.05,0.0,1.0,1.0,1.0,0,0,,,0
1449617123620077329,263,0,/odom,fullacmd_vector,0,0,0,2.18577509228,-0.247245018444,0.0,0.0,0.0,0.126352743003,0.991985375061,0.452,0.05,0.05,0.0,1.0,1.0,1.0,0,0,,,0
1449617123660310950,264,0,/odom,fullacmd_vector,0,0,0,2.19708647951,-0.245066976431,0.0,0.0,0.0,0.126352743003,0.991985375061,0.452,0.05,0.05,0.0,1.0,1.0,1.0,0,0,,,0
1449617123700160091,265,0,/odom,fullacmd_vector,0,0,0,2.20555228328,-0.24334388334,0.0,0.0,0.0,0.131592629541,0.991303878662,0.452,0.05,0.05,0.0,1.0,1.0,1.0,0,0,,,0
1449617123739840131,266,0,/odom,fullacmd_vector,0,0,0,2.21963081934,-0.240323112953,0.0,0.0,0.0,0.136828841901,0.990594704218,0.452,0.05,0.05,0.0,1.0,1.0,1.0,0,0,,,0
1449617123780502957,267,0,/odom,fullacmd_vector,0,0,0,2.23367664618,-0.237153731365,0.0,0.0,0.0,0.142061233884,0.989857871529,0.452,0.05,0.05,0.0,1.0,1.0,1.0,0,0,,,0
1449617123821333546,268,0,/odom,fullacmd_vector,0,0,0,2.24208357555,-0.23516314807,0.0,0.0,0.0,0.147289659396,0.989093401168,0.452,0.05,0.05,0.0,1.0,1.0,1.0,0,0,,,0
1449617123860216151,269,0,/odom,fullacmd_vector,0,0,0,2.25329281471,-0.23250903701,0.0,0.0,0.0,0.168078501067,0.985773613706,0.452,0.05,0.05,0.0,1.0,1.0,1.0,0,0,,,0
1449617123901217981,270,0,/odom,fullacmd_vector,0,0,0,2.26726852092,-0.229043511472,0.0,0.0,0.0,0.193979192472,0.981005643658,0.452,0.05,0.05,0.0,1.0,1.0,1.0,0,0,,,0
1449617123940952483,271,0,/odom,fullacmd_vector,0,0,0,2.2756315025,-0.226875696344,0.0,0.0,0.0,0.199160118017,0.979966962398,0.452,0.05,0.05,0.0,1.0,1.0,1.0,0,0,,,0
1449617123981381877,272,0,/odom,fullacmd_vector,0,0,0,2.2867821446,-0.223985276173,0.0,0.0,0.0,0.199160118017,0.979966962398,0.452,0.05,0.05,0.0,1.0,1.0,1.0,0,0,,,0
1449617124021169303,273,0,/odom,fullacmd_vector,0,0,0,2.30068148698,-0.220225154796,0.0,0.0,0.0,0.204335482844,0.978900919629,0.452,0.05,0.05,0.0,1.0,1.0,1.0,0,0,,,0
1449617124060592612,274,0,/odom,fullacmd_vector,0,0,0,2.30899678487,-0.217881076237,0.0,0.0,0.0,0.20950514245,0.977807545117,0.452,0.05,0.05,0.0,1.0,1.0,1.0,0,0,,,0
1449617124100568825,275,0,/odom,fullacmd_vector,0,0,0,2.32281355433,-0.213828038737,0.0,0.0,0.0,0.214668952495,0.976686869388,0.452,0.05,0.05,0.0,1.0,1.0,1.0,0,0,,,0
1449617124141523677,276,0,/odom,fullacmd_vector,0,0,0,2.3338669699,-0.210585608737,0.0,0.0,0.0,0.214668952495,0.976686869388,0.452,0.05,0.05,0.0,1.0,1.0,1.0,0,0,,,0
1449617124180218489,277,0,/odom,fullacmd_vector,0,0,0,2.34213086951,-0.208066313888,0.0,0.0,0.0,0.219826768801,0.975538923733,0.452,0.05,0.05,0.0,1.0,1.0,1.0,0,0,,,0
1449617124221938297,278,0,/odom,fullacmd_vector,0,0,0,2.35585889386,-0.203722170829,0.0,0.0,0.0,0.224978447357,0.974363740204,0.452,0.05,0.05,0.0,1.0,1.0,1.0,0,0,,,0
1449617124260355140,279,0,/odom,fullacmd_vector,0,0,0,2.36406770355,-0.201028785105,0.0,0.0,0.0,0.230123844324,0.973161351613,0.452,0.05,0.05,0.0,1.0,1.0,1.0,0,0,,,0
1449617124300164003,280,0,/odom,fullacmd_vector,0,0,0,2.37501278315,-0.19743760414,0.0,0.0,0.0,0.230123844324,0.973161351613,0.452,0.05,0.05,0.0,1.0,1.0,1.0,0,0,,,0
1449617124340501586,281,0,/odom,fullacmd_vector,0,0,0,2.38587952016,-0.193615906254,0.0,0.0,0.0,0.168284193326,0.985738520236,0.3128,0.05,0.05,0.0,1.0,1.0,1.0,0,0,,,0
1449617124380221787,282,0,/odom,fullacmd_vector,0,0,0,2.39674625718,-0.189794208368,0.0,0.0,0.0,0.168284193326,0.985738520236,0.3128,0.05,0.05,0.0,1.0,1.0,1.0,0,0,,,0
1449617124420252597,283,0,/odom,fullacmd_vector,0,0,0,2.40486556447,-0.186841966458,0.0,0.0,0.0,0.173490486104,0.984835545272,0.0,0.05,0.05,0.0,1.0,1.0,1.0,0,0,,,0
1449617124460829803,284,0,/odom,fullacmd_vector,0,0,0,2.41834498956,-0.181778831975,0.0,0.0,0.0,0.17869193488,0.983905072865,0.0,0.05,0.05,0.0,1.0,1.0,1.0,0,0,,,0
1449617124549258769,285,0,/odom,acmd_vector,0,0,0,2.42912852962,-0.177728324389,0.0,0.0,0.0,0.17869193488,0.983905072865,-0.09999,0.05,0.05,1.0,0.0,0.0,1.0,0,0,,,0
1449617124568398786,286,0,/odom,acmd_vector,0,0,0,2.45057533998,-0.169314893179,0.0,0.0,0.0,0.189079719651,0.981961740404,-0.09999,0.05,0.05,1.0,0.0,0.0,1.0,0,0,,,0
1449617124592765428,287,0,/odom,acmd_vector,0,0,0,2.46127086589,-0.165037385327,0.0,0.0,0.0,0.189079719651,0.981961740404,-0.09999,0.05,0.05,1.0,0.0,0.0,1.0,0,0,,,0
1449617124651907725,288,0,/odom,acmd_vector,0,0,0,2.46127086589,-0.165037385327,0.0,0.0,0.0,0.189079719651,0.981961740404,-0.09999,0.05,0.05,1.0,0.0,0.0,1.0,0,0,,,0
1449617124676564030,289,0,/odom,acmd_vector,0,0,0,2.47981271837,-0.157130268063,0.0,0.0,0.0,0.204621440688,0.978841185285,-0.09999,0.05,0.05,1.0,0.0,0.0,1.0,0,0,,,0
1449617124731283525,290,0,/odom,acmd_vector,0,0,0,2.47981271837,-0.157130268063,0.0,0.0,0.0,0.204621440688,0.978841185285,-0.09999,0.05,0.05,1.0,0.0,0.0,1.0,0,0,,,0
1449617124762616383,291,0,/odom,acmd_vector,0,0,0,2.49564455692,-0.150208677109,0.0,0.0,0.0,0.204621440688,0.978841185285,-0.09999,0.05,0.05,1.0,0.0,0.0,1.0,0,0,,,0
1449617124801758773,292,0,/odom,acmd_vector,0,0,0,2.50877606369,-0.144301582967,0.0,0.0,0.0,0.209790780666,0.977746300606,-0.09999,0.05,0.05,1.0,0.0,0.0,1.0,0,0,,,0
1449617124840687186,293,0,/odom,acmd_vector,0,0,0,2.51661707261,-0.140674261307,0.0,0.0,0.0,0.214954263107,0.976624116419,-0.09999,0.05,0.05,1.0,0.0,0.0,1.0,0,0,,,0
1449617124890615040,294,0,/odom,acmd_vector,0,0,0,2.52707175117,-0.135837832425,0.0,0.0,0.0,0.214954263107,0.976624116419,-0.09999,0.05,0.05,1.0,0.0,0.0,1.0,0,0,,,0
1449617124913188559,295,0,/odom,acmd_vector,0,0,0,2.53229909045,-0.133419617985,0.0,0.0,0.0,0.214954263107,0.976624116419,-0.09999,0.05,0.05,1.0,0.0,0.0,1.0,0,0,,,0
1449617124954112846,296,0,/odom,acmd_vector,0,0,0,2.53229909045,-0.133419617985,0.0,0.0,0.0,0.214954263107,0.976624116419,-0.09999,0.05,0.05,1.0,0.0,0.0,1.0,0,0,,,0
1449617125005230385,297,0,/odom,acmd_vector,0,0,0,2.54010132851,-0.129709636257,0.0,0.0,0.0,0.220111743843,0.97547466406,-0.09999,0.05,0.05,1.0,0.0,0.0,1.0,0,0,,,0
1449617125060048896,298,0,/odom,acmd_vector,0,0,0,2.5530654164,-0.12344408765,0.0,0.0,0.0,0.225263078873,0.97429797562,-0.09999,0.05,0.05,1.0,0.0,0.0,1.0,0,0,,,0
1449617125108065136,299,0,/odom,acmd_vector,0,0,0,2.56078750307,-0.119570037994,0.0,0.0,0.0,0.230408124366,0.973094083954,-0.09999,0.05,0.05,1.0,0.0,0.0,1.0,0,0,,,0
1449617125137270024,300,0,/odom,acmd_vector,0,0,0,2.56593556085,-0.116987338224,0.0,0.0,0.0,0.230408124366,0.973094083954,-0.09999,0.05,0.05,1.0,0.0,0.0,1.0,0,0,,,0
1449617125170839667,301,0,/odom,acmd_vector,0,0,0,2.57108361863,-0.114404638454,0.0,0.0,0.0,0.230408124366,0.973094083954,-0.09999,0.05,0.05,1.0,0.0,0.0,1.0,0,0,,,0
1449617125213900592,302,0,/odom,acmd_vector,0,0,0,2.57876433371,-0.110449199261,0.0,0.0,0.0,0.235546736669,0.971863022676,-0.09999,0.05,0.05,1.0,0.0,0.0,1.0,0,0,,,0
1449617125269527771,303,0,/odom,acmd_vector,0,0,0,2.58388481043,-0.1078122398,0.0,0.0,0.0,0.235546736669,0.971863022676,-0.09999,0.05,0.05,1.0,0.0,0.0,1.0,0,0,,,0
1449617125279936036,304,0,/odom,acmd_vector,0,0,0,2.58900528714,-0.105175280338,0.0,0.0,0.0,0.235546736669,0.971863022676,-0.09999,0.05,0.05,1.0,0.0,0.0,1.0,0,0,,,0
1449617125374446690,305,0,/odom,acmd_vector,0,0,0,2.59412576386,-0.102538320877,0.0,0.0,0.0,0.245763635268,0.969329786801,0.310297535053,0.05,0.05,1.0,0.0,0.0,1.0,0,0,,,0
1449617125396686858,306,0,/odom,acmd_vector,0,0,0,2.60176424954,-0.0985019339011,0.0,0.0,0.0,0.250882142656,0.968017639558,0.310297535053,0.05,0.05,1.0,0.0,0.0,1.0,0,0,,,0
1449617125426093045,307,0,/odom,acmd_vector,0,0,0,2.60176424954,-0.0985019339011,0.0,0.0,0.0,0.250882142656,0.968017639558,0.305502171664,0.05,0.05,1.0,0.0,0.0,1.0,0,0,,,0
1449617125461351783,308,0,/odom,acmd_vector,0,0,0,2.60685657333,-0.0958110092508,0.0,0.0,0.0,0.250882142656,0.968017639558,0.305502171664,0.05,0.05,1.0,0.0,0.0,1.0,0,0,,,0
1449617125502934920,309,0,/odom,acmd_vector,0,0,0,2.60938837439,-0.094438714596,0.0,0.0,0.0,0.255993645202,0.966678464442,0.305502171664,0.05,0.05,1.0,0.0,0.0,1.0,0,0,,,0
1449617125531147779,310,0,/odom,acmd_vector,0,0,0,2.61193453628,-0.0930932522708,0.0,0.0,0.0,0.250882142656,0.968017639558,0.303583404785,0.05,0.05,1.0,0.0,0.0,1.0,0,0,,,0
1449617125560875479,311,0,/odom,acmd_vector,0,0,0,2.61446633735,-0.0917209576161,0.0,0.0,0.0,0.255993645202,0.966678464442,0.303583404785,0.05,0.05,1.0,0.0,0.0,1.0,0,0,,,0
1449617125598950048,312,0,/odom,acmd_vector,0,0,0,2.61952993948,-0.0889763683066,0.0,0.0,0.0,0.255993645202,0.966678464442,0.300705003963,0.05,0.05,1.0,0.0,0.0,1.0,0,0,,,0
1449617125656392630,313,0,/odom,acmd_vector,0,0,0,2.61952993948,-0.0889763683066,0.0,0.0,0.0,0.255993645202,0.966678464442,0.299745669992,0.05,0.05,1.0,0.0,0.0,1.0,0,0,,,0
1449617125731983907,314,0,/odom,acmd_vector,0,0,0,2.62459354161,-0.0862317789971,0.0,0.0,0.0,0.255993645202,0.966678464442,0.296866673754,0.05,0.05,1.0,0.0,0.0,1.0,0,0,,,0
1449617125758989768,315,0,/odom,acmd_vector,0,0,0,2.62964250016,-0.0834605106194,0.0,0.0,0.0,0.255993645202,0.966678464442,0.296866673754,0.05,0.05,1.0,0.0,0.0,1.0,0,0,,,0
1449617125794192538,316,0,/odom,acmd_vector,0,0,0,2.63215965763,-0.0820615368965,0.0,0.0,0.0,0.261098000189,0.965312298843,0.294947397547,0.05,0.05,1.0,0.0,0.0,1.0,0,0,,,0
1449617125835475936,317,0,/odom,acmd_vector,0,0,0,2.63215965763,-0.0820615368965,0.0,0.0,0.0,0.261098000189,0.965312298843,0.294947397547,0.05,0.05,1.0,0.0,0.0,1.0,0,0,,,0
1449617125899266965,318,0,/odom,acmd_vector,0,0,0,2.63719397259,-0.0792635894507,0.0,0.0,0.0,0.250922540614,0.968007168678,0.293987539346,0.05,0.05,1.0,0.0,0.0,1.0,0,0,,,0
1449617125931249035,319,0,/odom,acmd_vector,0,0,0,2.64222828755,-0.0764656420049,0.0,0.0,0.0,0.250922540614,0.968007168678,0.293987539346,0.05,0.05,1.0,0.0,0.0,1.0,0,0,,,0
1449617125976415726,320,0,/odom,acmd_vector,0,0,0,2.64222828755,-0.0764656420049,0.0,0.0,0.0,0.250922540614,0.968007168678,0.292068049171,0.05,0.05,1.0,0.0,0.0,1.0,0,0,,,0
1449617126030265150,321,0,/odom,acmd_vector,0,0,0,2.64726260251,-0.0736676945591,0.0,0.0,0.0,0.250922540614,0.968007168678,0.290148406893,0.05,0.05,1.0,0.0,0.0,1.0,0,0,,,0
1449617126056781335,322,0,/odom,acmd_vector,0,0,0,2.64976483528,-0.0722421980091,0.0,0.0,0.0,0.256033987268,0.966667780245,0.290148406893,0.05,0.05,1.0,0.0,0.0,1.0,0,0,,,0
1449617126124724355,323,0,/odom,acmd_vector,0,0,0,2.65476930082,-0.0693912049091,0.0,0.0,0.0,0.256033987268,0.966667780245,1e-05,0.05,0.05,1.0,0.0,0.0,1.0,0,0,,,0
1449617126140874986,324,0,/odom,acmd_vector,0,0,0,2.65977376637,-0.066540211809,0.0,0.0,0.0,0.256033987268,0.966667780245,1e-05,0.05,0.05,1.0,0.0,0.0,1.0,0,0,,,0
1449617126171758137,325,0,/odom,acmd_vector,0,0,0,2.65977376637,-0.066540211809,0.0,0.0,0.0,0.256033987268,0.966667780245,1e-05,0.05,0.05,1.0,0.0,0.0,1.0,0,0,,,0
1449617126234770083,326,0,/odom,acmd_vector,0,0,0,2.66226079497,-0.0650883516351,0.0,0.0,0.0,0.261138285236,0.965301401628,1e-05,0.05,0.05,1.0,0.0,0.0,1.0,0,0,,,0
1449617126260976472,327,0,/odom,acmd_vector,0,0,0,2.66723485219,-0.0621846312872,0.0,0.0,0.0,0.261138285236,0.965301401628,1e-05,0.05,0.05,1.0,0.0,0.0,1.0,0,0,,,0
1449617126356846603,328,0,/odom,acmd_vector,0,0,0,2.6722089094,-0.0592809109394,0.0,0.0,0.0,0.261138285236,0.965301401628,1e-05,0.05,0.05,1.0,0.0,0.0,1.0,0,0,,,0
1449617126407406394,329,0,/odom,acmd_vector,0,0,0,2.67962354945,-0.0548467259884,0.0,0.0,0.0,0.266235292001,0.963908070976,1e-05,0.05,0.05,1.0,0.0,0.0,1.0,0,0,,,0
1449617126449295491,330,0,/odom,acmd_vector,0,0,0,2.68950973619,-0.0489344793871,0.0,0.0,0.0,0.266235292001,0.963908070976,1e-05,0.05,0.05,1.0,0.0,0.0,1.0,0,0,,,0
1449617126503349027,331,0,/odom,acmd_vector,0,0,0,2.69445282955,-0.0459783560864,0.0,0.0,0.0,0.266235292001,0.963908070976,1e-05,0.05,0.05,1.0,0.0,0.0,1.0,0,0,,,0
1449617126555746975,332,0,/odom,acmd_vector,0,0,0,2.69939592292,-0.0430222327858,0.0,0.0,0.0,0.266235292001,0.963908070976,1e-05,0.05,0.05,1.0,0.0,0.0,1.0,0,0,,,0
1449617126611213054,333,0,/odom,acmd_vector,0,0,0,2.70676328912,-0.038509938627,0.0,0.0,0.0,0.271324865251,0.962487827194,1e-05,0.05,0.05,1.0,0.0,0.0,1.0,0,0,,,0
1449617126666791558,334,0,/odom,acmd_vector,0,0,0,2.71167486659,-0.0355017425212,0.0,0.0,0.0,0.271324865251,0.962487827194,1e-05,0.05,0.05,1.0,0.0,0.0,1.0,0,0,,,0
1449617126725052585,335,0,/odom,acmd_vector,0,0,0,2.71658644405,-0.0324935464153,0.0,0.0,0.0,0.271324865251,0.962487827194,1e-05,0.05,0.05,1.0,0.0,0.0,1.0,0,0,,,0
1449617126765934746,336,0,/odom,acmd_vector,0,0,0,2.72390571359,-0.0279036469936,0.0,0.0,0.0,0.276406862881,0.961040709935,1e-05,0.05,0.05,1.0,0.0,0.0,1.0,0,0,,,0
1449617126799894805,337,0,/odom,acmd_vector,0,0,0,2.72878522662,-0.0248437140457,0.0,0.0,0.0,0.276406862881,0.961040709935,1e-05,0.05,0.05,1.0,0.0,0.0,1.0,0,0,,,0
1449617126832592822,338,0,/odom,acmd_vector,0,0,0,2.73120867843,-0.0232880500215,0.0,0.0,0.0,0.281481142997,0.959566759604,1e-05,0.05,0.05,1.0,0.0,0.0,1.0,0,0,,,0
1449617126878155845,339,0,/odom,acmd_vector,0,0,0,2.73120867843,-0.0232880500215,0.0,0.0,0.0,0.281481142997,0.959566759604,1e-05,0.05,0.05,1.0,0.0,0.0,1.0,0,0,,,0
1449617126910850241,340,0,/odom,acmd_vector,0,0,0,2.73120867843,-0.0232880500215,0.0,0.0,0.0,0.281481142997,0.959566759604,1e-05,0.05,0.05,1.0,0.0,0.0,1.0,0,0,,,0
1449617126932947332,341,0,/odom,acmd_vector,0,0,0,2.73605558206,-0.0201767219729,0.0,0.0,0.0,0.281481142997,0.959566759604,1e-05,0.05,0.05,1.0,0.0,0.0,1.0,0,0,,,0
1449617126977348987,342,0,/odom,acmd_vector,0,0,0,2.73605558206,-0.0201767219729,0.0,0.0,0.0,0.281481142997,0.959566759604,1e-05,0.05,0.05,1.0,0.0,0.0,1.0,0,0,,,0
1449617127011933075,343,0,/odom,acmd_vector,0,0,0,2.73846245852,-0.0185955341389,0.0,0.0,0.0,0.28654756392,0.958066017355,1e-05,0.05,0.05,1.0,0.0,0.0,1.0,0,0,,,0
1449617127039621564,344,0,/odom,acmd_vector,0,0,0,2.74088591033,-0.0170398701147,0.0,0.0,0.0,0.281481142997,0.959566759604,1e-05,0.05,0.05,1.0,0.0,0.0,1.0,0,0,,,0
1449617127119637682,345,0,/odom,acmd_vector,0,0,0,2.74088591033,-0.0170398701147,0.0,0.0,0.0,0.281481142997,0.959566759604,1e-05,0.05,0.05,1.0,0.0,0.0,1.0,0,0,,,0
1449617127165715874,346,0,/odom,acmd_vector,0,0,0,2.74329278679,-0.0154586822807,0.0,0.0,0.0,0.28654756392,0.958066017355,1e-05,0.05,0.05,1.0,0.0,0.0,1.0,0,0,,,0
1449617127193089158,347,0,/odom,acmd_vector,0,0,0,2.74329278679,-0.0154586822807,0.0,0.0,0.0,0.28654756392,0.958066017355,1e-05,0.05,0.05,1.0,0.0,0.0,1.0,0,0,,,0
1449617127219171681,348,0,/odom,acmd_vector,0,0,0,2.74329278679,-0.0154586822807,0.0,0.0,0.0,0.28654756392,0.958066017355,1e-05,0.05,0.05,1.0,0.0,0.0,1.0,0,0,,,0
1449617127299065318,349,0,/odom,acmd_vector,0,0,0,2.74329278679,-0.0154586822807,0.0,0.0,0.0,0.28654756392,0.958066017355,1e-05,0.05,0.05,1.0,0.0,0.0,1.0,0,0,,,0
1449617127369655766,350,0,/odom,acmd_vector,0,0,0,2.74329278679,-0.0154586822807,0.0,0.0,0.0,0.28654756392,0.958066017355,1e-05,0.05,0.05,1.0,0.0,0.0,1.0,0,0,,,0
1449617127433016237,351,0,/odom,acmd_vector,0,0,0,2.74329278679,-0.0154586822807,0.0,0.0,0.0,0.28654756392,0.958066017355,1e-05,0.05,0.05,1.0,0.0,0.0,1.0,0,0,,,0
1449617127484625474,352,0,/odom,acmd_vector,0,0,0,2.74086933498,-0.0170143463049,0.0,0.0,0.0,0.281481142997,0.959566759604,1e-05,0.05,0.05,1.0,0.0,0.0,1.0,0,0,,,0
1449617127536777711,353,0,/odom,acmd_vector,0,0,0,2.74086933498,-0.0170143463049,0.0,0.0,0.0,0.281481142997,0.959566759604,1e-05,0.05,0.05,1.0,0.0,0.0,1.0,0,0,,,0
1449617127554445158,354,0,/odom,acmd_vector,0,0,0,2.74086933498,-0.0170143463049,0.0,0.0,0.0,0.281481142997,0.959566759604,1e-05,0.05,0.05,1.0,0.0,0.0,1.0,0,0,,,0
1449617127587202551,355,0,/odom,acmd_vector,0,0,0,2.74086933498,-0.0170143463049,0.0,0.0,0.0,0.281481142997,0.959566759604,1e-05,0.05,0.05,1.0,0.0,0.0,1.0,0,0,,,0
1449617127651775626,356,0,/odom,acmd_vector,0,0,0,2.74086933498,-0.0170143463049,0.0,0.0,0.0,0.281481142997,0.959566759604,1e-05,0.05,0.05,1.0,0.0,0.0,1.0,0,0,,,0
1449617127674423787,357,0,/odom,acmd_vector,0,0,0,2.74086933498,-0.0170143463049,0.0,0.0,0.0,0.281481142997,0.959566759604,1e-05,0.05,0.05,1.0,0.0,0.0,1.0,0,0,,,0
1449617127730987611,358,0,/odom,acmd_vector,0,0,0,2.74086933498,-0.0170143463049,0.0,0.0,0.0,0.281481142997,0.959566759604,1e-05,0.05,0.05,1.0,0.0,0.0,1.0,0,0,,,0
