%time,field.goals0.navgoal_poses0.header.seq,field.goals0.navgoal_poses0.header.stamp,field.goals0.navgoal_poses0.header.frame_id,field.goals0.navgoal_poses0.pose.position.x,field.goals0.navgoal_poses0.pose.position.y,field.goals0.navgoal_poses0.pose.position.z,field.goals0.navgoal_poses0.pose.orientation.x,field.goals0.navgoal_poses0.pose.orientation.y,field.goals0.navgoal_poses0.pose.orientation.z,field.goals0.navgoal_poses0.pose.orientation.w,field.goals0.goal_pose.header.seq,field.goals0.goal_pose.header.stamp,field.goals0.goal_pose.header.frame_id,field.goals0.goal_pose.pose.position.x,field.goals0.goal_pose.pose.position.y,field.goals0.goal_pose.pose.position.z,field.goals0.goal_pose.pose.orientation.x,field.goals0.goal_pose.pose.orientation.y,field.goals0.goal_pose.pose.orientation.z,field.goals0.goal_pose.pose.orientation.w,field.goals0.goal_type,field.goals0.goal_source,field.goals0.score,field.goals0.t_eval
1449617108835968620,0,1449617108794210990,/odom,nan,nan,0.0,nan,nan,nan,nan,0,1449617108794210990,/odom,nan,nan,0.0,nan,nan,nan,nan,0,user,1.0,0
1449617108914082939,0,1449617108839258184,/odom,nan,nan,0.0,nan,nan,nan,nan,0,1449617108839258184,/odom,nan,nan,0.0,nan,nan,nan,nan,0,user,1.0,0
1449617108976484002,0,1449617108933701745,/odom,0.0,0.0,0.0,0.0,0.0,0.0,1.0,0,1449617108933701745,/odom,0.0,0.0,0.0,0.0,0.0,0.0,1.0,0,user,1.0,0
1449617109077523817,0,1449617109041533088,/odom,0.0,0.0,0.0,0.0,0.0,0.0,1.0,0,1449617109041533088,/odom,0.0,0.0,0.0,0.0,0.0,0.0,1.0,0,user,1.0,0
1449617109181966409,0,1449617109157136151,/odom,0.0,0.0,0.0,0.0,0.0,0.0,1.0,0,1449617109157136151,/odom,0.0,0.0,0.0,0.0,0.0,0.0,1.0,0,user,1.0,0
1449617109278045628,0,1449617109237913966,/odom,0.0,0.0,0.0,0.0,0.0,0.0,1.0,0,1449617109237913966,/odom,0.0,0.0,0.0,0.0,0.0,0.0,1.0,0,user,1.0,0
1449617109330280607,0,1449617109319267772,/odom,0.0,0.0,0.0,0.0,0.0,0.0,1.0,0,1449617109319267772,/odom,0.0,0.0,0.0,0.0,0.0,0.0,1.0,0,user,1.0,0
1449617109424401722,0,1449617109419192026,/odom,0.0,0.0,0.0,0.0,0.0,0.0,1.0,0,1449617109419192026,/odom,0.0,0.0,0.0,0.0,0.0,0.0,1.0,0,user,1.0,0
1449617109545137836,0,1449617109516967178,/odom,0.0,0.0,0.0,0.0,0.0,0.0,1.0,0,1449617109516967178,/odom,0.0,0.0,0.0,0.0,0.0,0.0,1.0,0,user,1.0,0
1449617109625290951,0,1449617109620679176,/odom,0.0,0.0,0.0,0.0,0.0,0.0,1.0,0,1449617109620679176,/odom,0.0,0.0,0.0,0.0,0.0,0.0,1.0,0,user,1.0,0
1449617109784558826,0,1449617109753102478,/odom,0.0,0.0,0.0,0.0,0.0,0.0,1.0,0,1449617109753102478,/odom,0.0,0.0,0.0,0.0,0.0,0.0,1.0,0,user,1.0,0
1449617109817731357,0,1449617109816037886,/odom,0.0,0.0,0.0,0.0,0.0,0.0,1.0,0,1449617109816037886,/odom,0.0,0.0,0.0,0.0,0.0,0.0,1.0,0,user,1.0,0
1449617109923719498,0,1449617109916085419,/odom,0.0,0.0,0.0,0.0,0.0,0.0,1.0,0,1449617109916085419,/odom,0.0,0.0,0.0,0.0,0.0,0.0,1.0,0,user,1.0,0
1449617110024161171,0,1449617110019579080,/odom,0.0,0.0,0.0,0.0,0.0,0.0,1.0,0,1449617110019579080,/odom,0.0,0.0,0.0,0.0,0.0,0.0,1.0,0,user,1.0,0
1449617110118590861,0,1449617110115492183,/odom,0.0,0.0,0.0,0.0,0.0,0.0,1.0,0,1449617110115492183,/odom,0.0,0.0,0.0,0.0,0.0,0.0,1.0,0,user,1.0,0
1449617110223970266,0,1449617110220720546,/odom,0.0,0.0,0.0,0.0,0.0,0.0,1.0,0,1449617110220720546,/odom,0.0,0.0,0.0,0.0,0.0,0.0,1.0,0,user,1.0,0
1449617110351701677,0,1449617110331756886,/odom,0.0,0.0,0.0,0.0,0.0,0.0,1.0,0,1449617110331756886,/odom,0.0,0.0,0.0,0.0,0.0,0.0,1.0,0,user,1.0,0
1449617110422205040,0,1449617110417930587,/odom,0.0,0.0,0.0,0.0,0.0,0.0,1.0,0,1449617110417930587,/odom,0.0,0.0,0.0,0.0,0.0,0.0,1.0,0,user,1.0,0
1449617110583592964,0,1449617110560106269,/odom,0.0,0.0,0.0,0.0,0.0,0.0,1.0,0,1449617110560106269,/odom,0.0,0.0,0.0,0.0,0.0,0.0,1.0,0,user,1.0,0
1449617110637437748,0,1449617110618378826,/odom,0.0,0.0,0.0,0.0,0.0,0.0,1.0,0,1449617110618378826,/odom,0.0,0.0,0.0,0.0,0.0,0.0,1.0,0,user,1.0,0
1449617110737902156,0,1449617110718819347,/odom,0.0,0.0,0.0,0.0,0.0,0.0,1.0,0,1449617110718819347,/odom,0.0,0.0,0.0,0.0,0.0,0.0,1.0,0,user,1.0,0
1449617110824476900,0,1449617110822615175,/odom,0.0,0.0,0.0,0.0,0.0,0.0,1.0,0,1449617110822615175,/odom,0.0,0.0,0.0,0.0,0.0,0.0,1.0,0,user,1.0,0
1449617110931573498,0,1449617110919939256,/odom,0.0,0.0,0.0,0.0,0.0,0.0,1.0,0,1449617110919939256,/odom,0.0,0.0,0.0,0.0,0.0,0.0,1.0,0,user,1.0,0
1449617111027967530,0,1449617111016450909,/odom,0.0,0.0,0.0,0.0,0.0,0.0,1.0,0,1449617111016450909,/odom,0.0,0.0,0.0,0.0,0.0,0.0,1.0,0,user,1.0,0
1449617111126602891,0,1449617111117915453,/odom,0.0,0.0,0.0,0.0,0.0,0.0,1.0,0,1449617111117915453,/odom,0.0,0.0,0.0,0.0,0.0,0.0,1.0,0,user,1.0,0
1449617111233578396,0,1449617111227859400,/odom,0.0,0.0,0.0,0.0,0.0,0.0,1.0,0,1449617111227859400,/odom,0.0,0.0,0.0,0.0,0.0,0.0,1.0,0,user,1.0,0
1449617111326779256,0,1449617111324509987,/odom,0.0,0.0,0.0,0.0,0.0,0.0,1.0,0,1449617111324509987,/odom,0.0,0.0,0.0,0.0,0.0,0.0,1.0,0,user,1.0,0
1449617111424186574,0,1449617111420107158,/odom,0.0,0.0,0.0,0.0,0.0,0.0,1.0,0,1449617111420107158,/odom,0.0,0.0,0.0,0.0,0.0,0.0,1.0,0,user,1.0,0
1449617111530554427,0,1449617111517164761,/odom,0.0,0.0,0.0,0.0,0.0,0.0,1.0,0,1449617111517164761,/odom,0.0,0.0,0.0,0.0,0.0,0.0,1.0,0,user,1.0,0
1449617111650564265,0,1449617111638341256,/odom,0.0,0.0,0.0,0.0,0.0,0.0,1.0,0,1449617111638341256,/odom,0.0,0.0,0.0,0.0,0.0,0.0,1.0,0,user,1.0,0
1449617111728004324,0,1449617111725643840,/odom,0.0,0.0,0.0,0.0,0.0,0.0,1.0,0,1449617111725643840,/odom,0.0,0.0,0.0,0.0,0.0,0.0,1.0,0,user,1.0,0
1449617111822028150,0,1449617111815822563,/odom,0.0,0.0,0.0,0.0,0.0,0.0,1.0,0,1449617111815822563,/odom,0.0,0.0,0.0,0.0,0.0,0.0,1.0,0,user,1.0,0
1449617111920540015,0,1449617111916986813,/odom,0.0,0.0,0.0,0.0,0.0,0.0,1.0,0,1449617111916986813,/odom,0.0,0.0,0.0,0.0,0.0,0.0,1.0,0,user,1.0,0
1449617112030894990,0,1449617112028486894,/odom,0.0,0.0,0.0,0.0,0.0,0.0,1.0,0,1449617112028486894,/odom,0.0,0.0,0.0,0.0,0.0,0.0,1.0,0,user,1.0,0
1449617112121359740,0,1449617112117047022,/odom,0.0,0.0,0.0,0.0,0.0,0.0,1.0,0,1449617112117047022,/odom,0.0,0.0,0.0,0.0,0.0,0.0,1.0,0,user,1.0,0
1449617112220920818,0,1449617112217440942,/odom,0.0,0.0,0.0,0.0,0.0,0.0,1.0,0,1449617112217440942,/odom,0.0,0.0,0.0,0.0,0.0,0.0,1.0,0,user,1.0,0
1449617112340317798,0,1449617112326846147,/odom,0.0,0.0,0.0,0.0,0.0,0.0,1.0,0,1449617112326846147,/odom,0.0,0.0,0.0,0.0,0.0,0.0,1.0,0,user,1.0,0
1449617112421170767,0,1449617112417017171,/odom,0.0,0.0,0.0,0.0,0.0,0.0,1.0,0,1449617112417017171,/odom,0.0,0.0,0.0,0.0,0.0,0.0,1.0,0,user,1.0,0
1449617112522942680,0,1449617112518454143,/odom,0.0,0.0,0.0,0.0,0.0,0.0,1.0,0,1449617112518454143,/odom,0.0,0.0,0.0,0.0,0.0,0.0,1.0,0,user,1.0,0
1449617112639481666,0,1449617112617676998,/odom,0.0,0.0,0.0,0.0,0.0,0.0,1.0,0,1449617112617676998,/odom,0.0,0.0,0.0,0.0,0.0,0.0,1.0,0,user,1.0,0
1449617112718784389,0,1449617112716348518,/odom,0.0,0.0,0.0,0.0,0.0,0.0,1.0,0,1449617112716348518,/odom,0.0,0.0,0.0,0.0,0.0,0.0,1.0,0,user,1.0,0
1449617112829850360,0,1449617112821643682,/odom,0.0,0.0,0.0,0.0,0.0,0.0,1.0,0,1449617112821643682,/odom,0.0,0.0,0.0,0.0,0.0,0.0,1.0,0,user,1.0,0
1449617112952764855,0,1449617112693287102,/odom,2.1012235468,-0.409930047924,0.0,0.0,0.0,0.264100277347,0.964495227311,0,1449617112693287102,/odom,3.39197667731,0.354240323175,0.0,0.0,0.0,0.264100277347,0.964495227311,0,1449617112693287102,/odom,2.5314745903,-0.155206590891,0.668439984322,0.0,0.0,0.264100277347,0.964495227311,1,doorway_assistance,0.899999976158,1449617112693287102,0,0
1449617113019171731,0,1449617112693287102,/odom,2.1012235468,-0.409930047924,0.0,0.0,0.0,0.264100277347,0.964495227311,0,1449617112693287102,/odom,3.39197667731,0.354240323175,0.0,0.0,0.0,0.264100277347,0.964495227311,0,1449617112693287102,/odom,2.5314745903,-0.155206590891,0.668439984322,0.0,0.0,0.264100277347,0.964495227311,1,doorway_assistance,0.899999976158,1449617112693287102,0,0
1449617113123793285,0,1449617112693287102,/odom,2.1012235468,-0.409930047924,0.0,0.0,0.0,0.264100277347,0.964495227311,0,1449617112693287102,/odom,3.39197667731,0.354240323175,0.0,0.0,0.0,0.264100277347,0.964495227311,0,1449617112693287102,/odom,2.5314745903,-0.155206590891,0.668439984322,0.0,0.0,0.264100277347,0.964495227311,1,doorway_assistance,0.899999976158,1449617112693287102,0,0
1449617113221526330,0,1449617112918183934,/odom,2.17812893153,-0.441807919378,0.0,0.0,0.0,0.316591143819,0.948562094781,0,1449617112918183934,/odom,3.3774390745,0.459111156334,0.0,0.0,0.0,0.316591143819,0.948562094781,0,1449617112918183934,/odom,2.57789897919,-0.141501560807,0.688725709915,0.0,0.0,0.316591143819,0.948562094781,1,doorway_assistance,1.0,1449617112918183934,0,0
1449617113331468623,0,1449617112918183934,/odom,2.17812893153,-0.441807919378,0.0,0.0,0.0,0.316591143819,0.948562094781,0,1449617112918183934,/odom,3.3774390745,0.459111156334,0.0,0.0,0.0,0.316591143819,0.948562094781,0,1449617112918183934,/odom,2.57789897919,-0.141501560807,0.688725709915,0.0,0.0,0.316591143819,0.948562094781,1,doorway_assistance,1.0,1449617112918183934,0,0
1449617113418229936,0,1449617113115334863,/odom,2.08511391415,-0.415662370688,0.0,0.0,0.0,0.262533544745,0.964922866287,0,1449617113115334863,/odom,3.3783423278,0.344311490786,0.0,0.0,0.0,0.262533544745,0.964922866287,0,1449617113115334863,/odom,2.51619005203,-0.162337750196,0.667843163013,0.0,0.0,0.262533544745,0.964922866287,1,doorway_assistance,1.0,1449617113115334863,0,0
1449617113533862188,0,1449617113115334863,/odom,2.08511391415,-0.415662370688,0.0,0.0,0.0,0.262533544745,0.964922866287,0,1449617113115334863,/odom,3.3783423278,0.344311490786,0.0,0.0,0.0,0.262533544745,0.964922866287,0,1449617113115334863,/odom,2.51619005203,-0.162337750196,0.667843163013,0.0,0.0,0.262533544745,0.964922866287,1,doorway_assistance,1.0,1449617113115334863,0,0
1449617113618779141,0,1449617113326502577,/odom,2.21400179336,-0.420061823222,0.0,0.0,0.0,0.31307418635,0.949728673802,0,1449617113326502577,/odom,3.41995545488,0.47194477219,0.0,0.0,0.0,0.31307418635,0.949728673802,0,1449617113326502577,/odom,2.6159863472,-0.122726291418,0.737676620483,0.0,0.0,0.31307418635,0.949728673802,1,doorway_assistance,1.0,1449617113326502577,0,0
1449617113722520180,0,1449617113524970876,/odom,2.10294596003,-0.41705317478,0.0,0.0,0.0,0.27058344672,0.96269652454,0,1449617113524970876,/odom,3.38329975512,0.364416056487,0.0,0.0,0.0,0.27058344672,0.96269652454,0,1449617113524970876,/odom,2.5297305584,-0.156563431025,0.677589416504,0.0,0.0,0.27058344672,0.96269652454,1,doorway_assistance,1.0,1449617113524970876,0,0
1449617113846949578,0,1449617113524970876,/odom,2.10294596003,-0.41705317478,0.0,0.0,0.0,0.27058344672,0.96269652454,0,1449617113524970876,/odom,3.38329975512,0.364416056487,0.0,0.0,0.0,0.27058344672,0.96269652454,0,1449617113524970876,/odom,2.5297305584,-0.156563431025,0.677589416504,0.0,0.0,0.27058344672,0.96269652454,1,doorway_assistance,1.0,1449617113524970876,0,0
1449617113921017817,0,1449617113524970876,/odom,2.10294596003,-0.41705317478,0.0,0.0,0.0,0.27058344672,0.96269652454,0,1449617113524970876,/odom,3.38329975512,0.364416056487,0.0,0.0,0.0,0.27058344672,0.96269652454,0,1449617113524970876,/odom,2.5297305584,-0.156563431025,0.677589416504,0.0,0.0,0.27058344672,0.96269652454,1,doorway_assistance,0.899999976158,1449617113524970876,0,0
1449617114027461523,0,1449617113524970876,/odom,2.10294596003,-0.41705317478,0.0,0.0,0.0,0.27058344672,0.96269652454,0,1449617113524970876,/odom,3.38329975512,0.364416056487,0.0,0.0,0.0,0.27058344672,0.96269652454,0,1449617113524970876,/odom,2.5297305584,-0.156563431025,0.677589416504,0.0,0.0,0.27058344672,0.96269652454,1,doorway_assistance,0.899999976158,1449617113524970876,0,0
1449617114159991170,0,1449617113838034685,/odom,2.11436709628,-0.406850153703,0.0,0.0,0.0,0.271510442951,0.962435493614,0,1449617113838034685,/odom,3.39321333438,0.377083707847,0.0,0.0,0.0,0.271510442951,0.962435493614,0,1449617113838034685,/odom,2.54064917564,-0.14553886652,0.688477158546,0.0,0.0,0.271510442951,0.962435493614,1,doorway_assistance,1.0,1449617113838034685,0,0
1449617114223358381,0,1449617114021651818,/odom,2.14306887012,-0.418166229377,0.0,0.0,0.0,0.291038700382,0.956711280837,0,1449617114021651818,/odom,3.38895829476,0.41715379407,0.0,0.0,0.0,0.291038700382,0.956711280837,0,1449617114021651818,/odom,2.558365345,-0.139726221561,0.678362667561,0.0,0.0,0.291038700382,0.956711280837,1,doorway_assistance,1.0,1449617114021651818,0,0
1449617114372342304,0,1449617114021651818,/odom,2.14306887012,-0.418166229377,0.0,0.0,0.0,0.291038700382,0.956711280837,0,1449617114021651818,/odom,3.38895829476,0.41715379407,0.0,0.0,0.0,0.291038700382,0.956711280837,0,1449617114021651818,/odom,2.558365345,-0.139726221561,0.678362667561,0.0,0.0,0.291038700382,0.956711280837,1,doorway_assistance,1.0,1449617114021651818,0,0
1449617114422896469,0,1449617114021651818,/odom,2.14306887012,-0.418166229377,0.0,0.0,0.0,0.291038700382,0.956711280837,0,1449617114021651818,/odom,3.38895829476,0.41715379407,0.0,0.0,0.0,0.291038700382,0.956711280837,0,1449617114021651818,/odom,2.558365345,-0.139726221561,0.678362667561,0.0,0.0,0.291038700382,0.956711280837,1,doorway_assistance,0.899999976158,1449617114021651818,0,0
1449617114529006318,0,1449617114021651818,/odom,2.14306887012,-0.418166229377,0.0,0.0,0.0,0.291038700382,0.956711280837,0,1449617114021651818,/odom,3.38895829476,0.41715379407,0.0,0.0,0.0,0.291038700382,0.956711280837,0,1449617114021651818,/odom,2.558365345,-0.139726221561,0.678362667561,0.0,0.0,0.291038700382,0.956711280837,1,doorway_assistance,0.899999976158,1449617114021651818,0,0
1449617114632589538,0,1449617114372748341,/odom,2.06373693882,-0.424054275483,0.0,0.0,0.0,0.269735550751,0.962934438402,0,1449617114372748341,/odom,3.3454651368,0.355158677757,0.0,0.0,0.0,0.269735550751,0.962934438402,0,1449617114372748341,/odom,2.49097967148,-0.164316624403,0.668481767178,0.0,0.0,0.269735550751,0.962934438402,1,doorway_assistance,1.0,1449617114372748341,0,0
1449617114724540633,0,1449617114517344070,/odom,2.09247023026,-0.439932511917,0.0,0.0,0.0,0.264571065443,0.964366191511,0,1449617114517344070,/odom,3.38247668425,0.325497660381,0.0,0.0,0.0,0.264571065443,0.964366191511,0,1449617114517344070,/odom,2.52247238159,-0.184789121151,0.678634524345,0.0,0.0,0.264571065443,0.964366191511,1,doorway_assistance,1.0,1449617114517344070,0,0
1449617114830055578,0,1449617114632144408,/odom,2.12711916814,-0.433810909178,0.0,0.0,0.0,0.281448055217,0.959576465017,0,1449617114632144408,/odom,3.38948014478,0.376401880555,0.0,0.0,0.0,0.281448055217,0.959576465017,0,1449617114632144408,/odom,2.54790616035,-0.163739979267,0.669314146042,0.0,0.0,0.281448055217,0.959576465017,1,doorway_assistance,1.0,1449617114632144408,0,0
1449617114970288765,0,1449617114632144408,/odom,2.12711916814,-0.433810909178,0.0,0.0,0.0,0.281448055217,0.959576465017,0,1449617114632144408,/odom,3.38948014478,0.376401880555,0.0,0.0,0.0,0.281448055217,0.959576465017,0,1449617114632144408,/odom,2.54790616035,-0.163739979267,0.669314146042,0.0,0.0,0.281448055217,0.959576465017,1,doorway_assistance,1.0,1449617114632144408,0,0
1449617115031039132,0,1449617114632144408,/odom,2.12711916814,-0.433810909178,0.0,0.0,0.0,0.281448055217,0.959576465017,0,1449617114632144408,/odom,3.38948014478,0.376401880555,0.0,0.0,0.0,0.281448055217,0.959576465017,0,1449617114632144408,/odom,2.54790616035,-0.163739979267,0.669314146042,0.0,0.0,0.281448055217,0.959576465017,1,doorway_assistance,0.899999976158,1449617114632144408,0,0
1449617115127955422,0,1449617114632144408,/odom,2.12711916814,-0.433810909178,0.0,0.0,0.0,0.281448055217,0.959576465017,0,1449617114632144408,/odom,3.38948014478,0.376401880555,0.0,0.0,0.0,0.281448055217,0.959576465017,0,1449617114632144408,/odom,2.54790616035,-0.163739979267,0.669314146042,0.0,0.0,0.281448055217,0.959576465017,1,doorway_assistance,0.899999976158,1449617114632144408,0,0
1449617115228281273,0,1449617114632144408,/odom,2.12711916814,-0.433810909178,0.0,0.0,0.0,0.281448055217,0.959576465017,0,1449617114632144408,/odom,3.38948014478,0.376401880555,0.0,0.0,0.0,0.281448055217,0.959576465017,0,1449617114632144408,/odom,2.54790616035,-0.163739979267,0.669314146042,0.0,0.0,0.281448055217,0.959576465017,1,doorway_assistance,0.899999976158,1449617114632144408,0,0
1449617115373849040,0,1449617114967849747,/odom,2.18352686884,-0.45507348384,0.0,0.0,0.0,0.288585983555,0.957453983278,0,1449617114967849747,/odom,3.43368125912,0.37384991458,0.0,0.0,0.0,0.288585983555,0.957453983278,0,1449617114967849747,/odom,2.60024499893,-0.178765684366,0.70897758007,0.0,0.0,0.288585983555,0.957453983278,1,doorway_assistance,1.0,1449617114967849747,0,0
1449617115428145127,0,1449617114967849747,/odom,2.18352686884,-0.45507348384,0.0,0.0,0.0,0.288585983555,0.957453983278,0,1449617114967849747,/odom,3.43368125912,0.37384991458,0.0,0.0,0.0,0.288585983555,0.957453983278,0,1449617114967849747,/odom,2.60024499893,-0.178765684366,0.70897758007,0.0,0.0,0.288585983555,0.957453983278,1,doorway_assistance,0.899999976158,1449617114967849747,0,0
1449617115523061976,0,1449617114967849747,/odom,2.18352686884,-0.45507348384,0.0,0.0,0.0,0.288585983555,0.957453983278,0,1449617114967849747,/odom,3.43368125912,0.37384991458,0.0,0.0,0.0,0.288585983555,0.957453983278,0,1449617114967849747,/odom,2.60024499893,-0.178765684366,0.70897758007,0.0,0.0,0.288585983555,0.957453983278,1,doorway_assistance,0.899999976158,1449617114967849747,0,0
1449617115626802508,0,1449617115346317617,/odom,2.12048148665,-0.466720864202,0.0,0.0,0.0,0.287301957875,0.957840062328,0,1449617115346317617,/odom,3.37285424166,0.358847111513,0.0,0.0,0.0,0.287301957875,0.957840062328,0,1449617115346317617,/odom,2.53793907166,-0.191531538963,0.66783618927,0.0,0.0,0.287301957875,0.957840062328,1,doorway_assistance,1.0,1449617115346317617,0,0
1449617115720954729,0,1449617115525306608,/odom,2.10059085516,-0.450570256003,0.0,0.0,0.0,0.265299261255,0.964166117418,0,1449617115525306608,/odom,3.38943976109,0.316807420032,0.0,0.0,0.0,0.265299261255,0.964166117418,0,1449617115525306608,/odom,2.53020715714,-0.194777697325,0.717770814896,0.0,0.0,0.265299261255,0.964166117418,1,doorway_assistance,1.0,1449617115525306608,0,0
1449617115835212740,0,1449617115525306608,/odom,2.10059085516,-0.450570256003,0.0,0.0,0.0,0.265299261255,0.964166117418,0,1449617115525306608,/odom,3.38943976109,0.316807420032,0.0,0.0,0.0,0.265299261255,0.964166117418,0,1449617115525306608,/odom,2.53020715714,-0.194777697325,0.717770814896,0.0,0.0,0.265299261255,0.964166117418,1,doorway_assistance,1.0,1449617115525306608,0,0
1449617115936050545,0,1449617115631257095,/odom,2.06127466665,-0.445882466821,0.0,0.0,0.0,0.257878418532,0.96617737567,0,1449617115631257095,/odom,3.36177083042,0.301586414155,0.0,0.0,0.0,0.257878418532,0.96617737567,0,1449617115631257095,/odom,2.49477338791,-0.196726173162,0.679064810276,0.0,0.0,0.257878418532,0.96617737567,1,doorway_assistance,1.0,1449617115631257095,0,0
1449617116046676145,0,1449617115631257095,/odom,2.06127466665,-0.445882466821,0.0,0.0,0.0,0.257878418532,0.96617737567,0,1449617115631257095,/odom,3.36177083042,0.301586414155,0.0,0.0,0.0,0.257878418532,0.96617737567,0,1449617115631257095,/odom,2.49477338791,-0.196726173162,0.679064810276,0.0,0.0,0.257878418532,0.96617737567,1,doorway_assistance,1.0,1449617115631257095,0,0
1449617116149815691,0,1449617115827503770,/odom,2.12132447881,-0.461418881086,0.0,0.0,0.0,0.292319326907,0.9563207679,0,1449617115827503770,/odom,3.36497271216,0.377234248454,0.0,0.0,0.0,0.292319326907,0.9563207679,0,1449617115827503770,/odom,2.53587388992,-0.181867837906,0.70732229948,0.0,0.0,0.292319326907,0.9563207679,1,doorway_assistance,1.0,1449617115827503770,0,0
1449617116242248684,0,1449617115827503770,/odom,2.12132447881,-0.461418881086,0.0,0.0,0.0,0.292319326907,0.9563207679,0,1449617115827503770,/odom,3.36497271216,0.377234248454,0.0,0.0,0.0,0.292319326907,0.9563207679,0,1449617115827503770,/odom,2.53587388992,-0.181867837906,0.70732229948,0.0,0.0,0.292319326907,0.9563207679,1,doorway_assistance,1.0,1449617115827503770,0,0
1449617116319842829,0,1449617116038909454,/odom,2.11603985436,-0.459606723996,0.0,0.0,0.0,0.292313486486,0.956322553126,0,1449617116038909454,/odom,3.35969833121,0.379031215134,0.0,0.0,0.0,0.292313486486,0.956322553126,0,1449617116038909454,/odom,2.53059267998,-0.180060744286,0.69862639904,0.0,0.0,0.292313486486,0.956322553126,1,doorway_assistance,1.0,1449617116038909454,0,0
1449617116424067159,0,1449617116220060171,/odom,2.13440339444,-0.442789088803,0.0,0.0,0.0,0.275088614547,0.961418875489,0,1449617116220060171,/odom,3.40738215688,0.35063707057,0.0,0.0,0.0,0.275088614547,0.961418875489,0,1449617116220060171,/odom,2.55872964859,-0.178313702345,0.688699901104,0.0,0.0,0.275088614547,0.961418875489,1,doorway_assistance,1.0,1449617116220060171,0,0
1449617116521296956,0,1449617116311746488,/odom,2.12991995116,-0.433918627845,0.0,0.0,0.0,0.282180844023,0.959361230854,0,1449617116311746488,/odom,3.39104186496,0.378221457693,0.0,0.0,0.0,0.282180844023,0.959361230854,0,1449617116311746488,/odom,2.55029392242,-0.163205265999,0.688052892685,0.0,0.0,0.282180844023,0.959361230854,1,doorway_assistance,1.0,1449617116311746488,0,0
1449617116650729374,0,1449617116311746488,/odom,2.12991995116,-0.433918627845,0.0,0.0,0.0,0.282180844023,0.959361230854,0,1449617116311746488,/odom,3.39104186496,0.378221457693,0.0,0.0,0.0,0.282180844023,0.959361230854,0,1449617116311746488,/odom,2.55029392242,-0.163205265999,0.688052892685,0.0,0.0,0.282180844023,0.959361230854,1,doorway_assistance,1.0,1449617116311746488,0,0
1449617116747298797,0,1449617116439175126,/odom,1.92951171884,-0.398909060398,0.0,0.0,0.0,0.174934702252,0.98458003735,0,1449617116439175126,/odom,3.33770526868,0.117802586633,0.0,0.0,0.0,0.174934702252,0.98458003735,0,1449617116439175126,/odom,2.39890956879,-0.226671844721,0.669893145561,0.0,0.0,0.174934702252,0.98458003735,1,doorway_assistance,1.0,1449617116439175126,0,0
1449617116820449216,0,1449617116439175126,/odom,1.92951171884,-0.398909060398,0.0,0.0,0.0,0.174934702252,0.98458003735,0,1449617116439175126,/odom,3.33770526868,0.117802586633,0.0,0.0,0.0,0.174934702252,0.98458003735,0,1449617116439175126,/odom,2.39890956879,-0.226671844721,0.669893145561,0.0,0.0,0.174934702252,0.98458003735,1,doorway_assistance,1.0,1449617116439175126,0,0
1449617116922062372,0,1449617116652472426,/odom,2.11775317928,-0.452192106816,0.0,0.0,0.0,0.284043167041,0.958811493077,0,1449617116652472426,/odom,3.37571161705,0.364839452451,0.0,0.0,0.0,0.284043167041,0.958811493077,0,1449617116652472426,/odom,2.53707265854,-0.179848253727,0.709289610386,0.0,0.0,0.284043167041,0.958811493077,1,doorway_assistance,1.0,1449617116652472426,0,0
1449617117027533994,0,1449617116652472426,/odom,2.11775317928,-0.452192106816,0.0,0.0,0.0,0.284043167041,0.958811493077,0,1449617116652472426,/odom,3.37571161705,0.364839452451,0.0,0.0,0.0,0.284043167041,0.958811493077,0,1449617116652472426,/odom,2.53707265854,-0.179848253727,0.709289610386,0.0,0.0,0.284043167041,0.958811493077,1,doorway_assistance,1.0,1449617116652472426,0,0
1449617117141384092,0,1449617116810186568,/odom,2.22454334179,-0.438341645536,0.0,0.0,0.0,0.313046182793,0.949737904603,0,1449617116810186568,/odom,3.43054960411,0.453593831533,0.0,0.0,0.0,0.313046182793,0.949737904603,0,1449617116810186568,/odom,2.62654542923,-0.141029819846,0.768353700638,0.0,0.0,0.313046182793,0.949737904603,1,doorway_assistance,1.0,1449617116810186568,0,0
1449617117224734929,0,1449617116810186568,/odom,2.22454334179,-0.438341645536,0.0,0.0,0.0,0.313046182793,0.949737904603,0,1449617116810186568,/odom,3.43054960411,0.453593831533,0.0,0.0,0.0,0.313046182793,0.949737904603,0,1449617116810186568,/odom,2.62654542923,-0.141029819846,0.768353700638,0.0,0.0,0.313046182793,0.949737904603,1,doorway_assistance,1.0,1449617116810186568,0,0
1449617117322673502,0,1449617117021139281,/odom,2.1029007386,-0.442560635383,0.0,0.0,0.0,0.266273147369,0.963897614371,0,1449617117021139281,/odom,3.39019657157,0.327419519177,0.0,0.0,0.0,0.266273147369,0.963897614371,0,1449617117021139281,/odom,2.53199934959,-0.185900583863,0.698400199413,0.0,0.0,0.266273147369,0.963897614371,1,doorway_assistance,1.0,1449617117021139281,0,0
1449617117420440283,0,1449617117202179077,/odom,2.12966299288,-0.459947657091,0.0,0.0,0.0,0.297222139161,0.954808357731,0,1449617117202179077,/odom,3.36463999286,0.391422890629,0.0,0.0,0.0,0.297222139161,0.954808357731,0,1449617117202179077,/odom,2.54132199287,-0.176157474518,0.69779330492,0.0,0.0,0.297222139161,0.954808357731,1,doorway_assistance,1.0,1449617117202179077,0,0
1449617117518629904,0,1449617117202179077,/odom,2.12966299288,-0.459947657091,0.0,0.0,0.0,0.297222139161,0.954808357731,0,1449617117202179077,/odom,3.36463999286,0.391422890629,0.0,0.0,0.0,0.297222139161,0.954808357731,0,1449617117202179077,/odom,2.54132199287,-0.176157474518,0.69779330492,0.0,0.0,0.297222139161,0.954808357731,1,doorway_assistance,1.0,1449617117308127263,0,0
1449617117671274531,0,1449617117399570783,/odom,2.16728909882,-0.441881265546,0.0,0.0,0.0,0.294094247728,0.955776424407,0,1449617117399570783,/odom,3.40781481918,0.401383780052,0.0,0.0,0.0,0.294094247728,0.955776424407,0,1449617117399570783,/odom,2.58079767227,-0.160792917013,0.71803355217,0.0,0.0,0.294094247728,0.955776424407,1,doorway_assistance,1.0,1449617117399570783,0,0
1449617117720522544,0,1449617117399570783,/odom,2.16728909882,-0.441881265546,0.0,0.0,0.0,0.294094247728,0.955776424407,0,1449617117399570783,/odom,3.40781481918,0.401383780052,0.0,0.0,0.0,0.294094247728,0.955776424407,0,1449617117399570783,/odom,2.58079767227,-0.160792917013,0.71803355217,0.0,0.0,0.294094247728,0.955776424407,1,doorway_assistance,1.0,1449617117399570783,0,0
1449617117824314173,0,1449617117399570783,/odom,2.16728909882,-0.441881265546,0.0,0.0,0.0,0.294094247728,0.955776424407,0,1449617117399570783,/odom,3.40781481918,0.401383780052,0.0,0.0,0.0,0.294094247728,0.955776424407,0,1449617117399570783,/odom,2.58079767227,-0.160792917013,0.71803355217,0.0,0.0,0.294094247728,0.955776424407,1,doorway_assistance,1.0,1449617117565442895,0,0
1449617117971512221,0,1449617117399570783,/odom,2.16728909882,-0.441881265546,0.0,0.0,0.0,0.294094247728,0.955776424407,0,1449617117399570783,/odom,3.40781481918,0.401383780052,0.0,0.0,0.0,0.294094247728,0.955776424407,0,1449617117399570783,/odom,2.58079767227,-0.160792917013,0.71803355217,0.0,0.0,0.294094247728,0.955776424407,1,doorway_assistance,1.0,1449617117565442895,0,0
1449617118027864947,0,1449617117703460584,/odom,2.08400496254,-0.433662781614,0.0,0.0,0.0,0.256812427629,0.96646126514,0,1449617117703460584,/odom,3.38614709358,0.310935009515,0.0,0.0,0.0,0.256812427629,0.96646126514,0,1449617117703460584,/odom,2.51805233955,-0.185463517904,0.698538720608,0.0,0.0,0.256812427629,0.96646126514,1,doorway_assistance,1.0,1449617117703460584,0,0
1449617118118763585,0,1449617117703460584,/odom,2.08400496254,-0.433662781614,0.0,0.0,0.0,0.256812427629,0.96646126514,0,1449617117703460584,/odom,3.38614709358,0.310935009515,0.0,0.0,0.0,0.256812427629,0.96646126514,0,1449617117703460584,/odom,2.51805233955,-0.185463517904,0.698538720608,0.0,0.0,0.256812427629,0.96646126514,1,doorway_assistance,1.0,1449617117703460584,0,0
1449617118223654139,0,1449617117960589238,/odom,2.10335909239,-0.449319640433,0.0,0.0,0.0,0.261999386145,0.965068039912,0,1449617117960589238,/odom,3.39742805737,0.309222061703,0.0,0.0,0.0,0.261999386145,0.965068039912,0,1449617117960589238,/odom,2.53471541405,-0.196472406387,0.67838537693,0.0,0.0,0.261999386145,0.965068039912,1,doorway_assistance,1.0,1449617117960589238,0,0
1449617118349539461,0,1449617117960589238,/odom,2.10335909239,-0.449319640433,0.0,0.0,0.0,0.261999386145,0.965068039912,0,1449617117960589238,/odom,3.39742805737,0.309222061703,0.0,0.0,0.0,0.261999386145,0.965068039912,0,1449617117960589238,/odom,2.53471541405,-0.196472406387,0.67838537693,0.0,0.0,0.261999386145,0.965068039912,1,doorway_assistance,1.0,1449617117960589238,0,0
1449617118419594251,0,1449617118100558198,/odom,2.15084078025,-0.448045891333,0.0,0.0,0.0,0.295466278225,0.955353169478,0,1449617118100558198,/odom,3.38893981554,0.398778044796,0.0,0.0,0.0,0.295466278225,0.955353169478,0,1449617118100558198,/odom,2.56354045868,-0.165771245956,0.699233949184,0.0,0.0,0.295466278225,0.955353169478,1,doorway_assistance,1.0,1449617118100558198,0,0
1449617118530510631,0,1449617118100558198,/odom,2.15084078025,-0.448045891333,0.0,0.0,0.0,0.295466278225,0.955353169478,0,1449617118100558198,/odom,3.38893981554,0.398778044796,0.0,0.0,0.0,0.295466278225,0.955353169478,0,1449617118100558198,/odom,2.56354045868,-0.165771245956,0.699233949184,0.0,0.0,0.295466278225,0.955353169478,1,doorway_assistance,1.0,1449617118100558198,0,0
1449617118631040114,0,1449617118325261869,/odom,2.02415674489,-0.436089776706,0.0,0.0,0.0,0.239333400299,0.97093744572,0,1449617118325261869,/odom,3.35231531539,0.26104350438,0.0,0.0,0.0,0.239333400299,0.97093744572,0,1449617118325261869,/odom,2.46687626839,-0.203712016344,0.668994307518,0.0,0.0,0.239333400299,0.97093744572,1,doorway_assistance,1.0,1449617118325261869,0,0
1449617118725880383,0,1449617118325261869,/odom,2.02415674489,-0.436089776706,0.0,0.0,0.0,0.239333400299,0.97093744572,0,1449617118325261869,/odom,3.35231531539,0.26104350438,0.0,0.0,0.0,0.239333400299,0.97093744572,0,1449617118325261869,/odom,2.46687626839,-0.203712016344,0.668994307518,0.0,0.0,0.239333400299,0.97093744572,1,doorway_assistance,1.0,1449617118520217309,0,0
1449617118835968231,0,1449617118325261869,/odom,2.02415674489,-0.436089776706,0.0,0.0,0.0,0.239333400299,0.97093744572,0,1449617118325261869,/odom,3.35231531539,0.26104350438,0.0,0.0,0.0,0.239333400299,0.97093744572,0,1449617118325261869,/odom,2.46687626839,-0.203712016344,0.668994307518,0.0,0.0,0.239333400299,0.97093744572,1,doorway_assistance,1.0,1449617118608132837,0,0
1449617118921055689,0,1449617118325261869,/odom,2.02415674489,-0.436089776706,0.0,0.0,0.0,0.239333400299,0.97093744572,0,1449617118325261869,/odom,3.35231531539,0.26104350438,0.0,0.0,0.0,0.239333400299,0.97093744572,0,1449617118325261869,/odom,2.46687626839,-0.203712016344,0.668994307518,0.0,0.0,0.239333400299,0.97093744572,1,doorway_assistance,1.0,1449617118700255449,0,0
1449617119331867658,0,1449617118325261869,/odom,2.02415674489,-0.436089776706,0.0,0.0,0.0,0.239333400299,0.97093744572,0,1449617118325261869,/odom,3.35231531539,0.26104350438,0.0,0.0,0.0,0.239333400299,0.97093744572,0,1449617118325261869,/odom,2.46687626839,-0.203712016344,0.668994307518,0.0,0.0,0.239333400299,0.97093744572,1,doorway_assistance,1.0,1449617118700255449,0,0
1449617119344657871,0,1449617118325261869,/odom,2.02415674489,-0.436089776706,0.0,0.0,0.0,0.239333400299,0.97093744572,0,1449617118325261869,/odom,3.35231531539,0.26104350438,0.0,0.0,0.0,0.239333400299,0.97093744572,0,1449617118325261869,/odom,2.46687626839,-0.203712016344,0.668994307518,0.0,0.0,0.239333400299,0.97093744572,1,doorway_assistance,1.0,1449617118880599855,0,0
1449617119448088530,0,1449617118325261869,/odom,2.02415674489,-0.436089776706,0.0,0.0,0.0,0.239333400299,0.97093744572,0,1449617118325261869,/odom,3.35231531539,0.26104350438,0.0,0.0,0.0,0.239333400299,0.97093744572,0,1449617118325261869,/odom,2.46687626839,-0.203712016344,0.668994307518,0.0,0.0,0.239333400299,0.97093744572,1,doorway_assistance,1.0,1449617118880599855,0,0
1449617119550321399,0,1449617118325261869,/odom,2.02415674489,-0.436089776706,0.0,0.0,0.0,0.239333400299,0.97093744572,0,1449617118325261869,/odom,3.35231531539,0.26104350438,0.0,0.0,0.0,0.239333400299,0.97093744572,0,1449617118325261869,/odom,2.46687626839,-0.203712016344,0.668994307518,0.0,0.0,0.239333400299,0.97093744572,1,doorway_assistance,1.0,1449617119303822118,0,0
1449617119657830080,0,1449617118325261869,/odom,2.02415674489,-0.436089776706,0.0,0.0,0.0,0.239333400299,0.97093744572,0,1449617118325261869,/odom,3.35231531539,0.26104350438,0.0,0.0,0.0,0.239333400299,0.97093744572,0,1449617118325261869,/odom,2.46687626839,-0.203712016344,0.668994307518,0.0,0.0,0.239333400299,0.97093744572,1,doorway_assistance,1.0,1449617119303822118,0,0
1449617119734815453,0,1449617118325261869,/odom,2.02415674489,-0.436089776706,0.0,0.0,0.0,0.239333400299,0.97093744572,0,1449617118325261869,/odom,3.35231531539,0.26104350438,0.0,0.0,0.0,0.239333400299,0.97093744572,0,1449617118325261869,/odom,2.46687626839,-0.203712016344,0.668994307518,0.0,0.0,0.239333400299,0.97093744572,1,doorway_assistance,1.0,1449617119484906686,0,0
1449617119843296890,0,1449617118325261869,/odom,2.02415674489,-0.436089776706,0.0,0.0,0.0,0.239333400299,0.97093744572,0,1449617118325261869,/odom,3.35231531539,0.26104350438,0.0,0.0,0.0,0.239333400299,0.97093744572,0,1449617118325261869,/odom,2.46687626839,-0.203712016344,0.668994307518,0.0,0.0,0.239333400299,0.97093744572,1,doorway_assistance,1.0,1449617119637071020,0,0
1449617119941389505,0,1449617118325261869,/odom,2.02415674489,-0.436089776706,0.0,0.0,0.0,0.239333400299,0.97093744572,0,1449617118325261869,/odom,3.35231531539,0.26104350438,0.0,0.0,0.0,0.239333400299,0.97093744572,0,1449617118325261869,/odom,2.46687626839,-0.203712016344,0.668994307518,0.0,0.0,0.239333400299,0.97093744572,1,doorway_assistance,1.0,1449617119732287747,0,0
1449617120045385064,0,1449617118325261869,/odom,2.02415674489,-0.436089776706,0.0,0.0,0.0,0.239333400299,0.97093744572,0,1449617118325261869,/odom,3.35231531539,0.26104350438,0.0,0.0,0.0,0.239333400299,0.97093744572,0,1449617118325261869,/odom,2.46687626839,-0.203712016344,0.668994307518,0.0,0.0,0.239333400299,0.97093744572,1,doorway_assistance,1.0,1449617119732287747,0,0
1449617120144373184,0,1449617118325261869,/odom,2.02415674489,-0.436089776706,0.0,0.0,0.0,0.239333400299,0.97093744572,0,1449617118325261869,/odom,3.35231531539,0.26104350438,0.0,0.0,0.0,0.239333400299,0.97093744572,0,1449617118325261869,/odom,2.46687626839,-0.203712016344,0.668994307518,0.0,0.0,0.239333400299,0.97093744572,1,doorway_assistance,1.0,1449617119848379662,0,0
1449617120257785941,0,1449617118325261869,/odom,2.02415674489,-0.436089776706,0.0,0.0,0.0,0.239333400299,0.97093744572,0,1449617118325261869,/odom,3.35231531539,0.26104350438,0.0,0.0,0.0,0.239333400299,0.97093744572,0,1449617118325261869,/odom,2.46687626839,-0.203712016344,0.668994307518,0.0,0.0,0.239333400299,0.97093744572,1,doorway_assistance,1.0,1449617120014478178,0,0
1449617120337797559,0,1449617118325261869,/odom,2.02415674489,-0.436089776706,0.0,0.0,0.0,0.239333400299,0.97093744572,0,1449617118325261869,/odom,3.35231531539,0.26104350438,0.0,0.0,0.0,0.239333400299,0.97093744572,0,1449617118325261869,/odom,2.46687626839,-0.203712016344,0.668994307518,0.0,0.0,0.239333400299,0.97093744572,1,doorway_assistance,1.0,1449617120014478178,0,0
1449617120441355501,0,1449617118325261869,/odom,2.02415674489,-0.436089776706,0.0,0.0,0.0,0.239333400299,0.97093744572,0,1449617118325261869,/odom,3.35231531539,0.26104350438,0.0,0.0,0.0,0.239333400299,0.97093744572,0,1449617118325261869,/odom,2.46687626839,-0.203712016344,0.668994307518,0.0,0.0,0.239333400299,0.97093744572,1,doorway_assistance,1.0,1449617120104909712,0,0
1449617120544494152,0,1449617118325261869,/odom,2.02415674489,-0.436089776706,0.0,0.0,0.0,0.239333400299,0.97093744572,0,1449617118325261869,/odom,3.35231531539,0.26104350438,0.0,0.0,0.0,0.239333400299,0.97093744572,0,1449617118325261869,/odom,2.46687626839,-0.203712016344,0.668994307518,0.0,0.0,0.239333400299,0.97093744572,1,doorway_assistance,1.0,1449617120304969752,0,0
1449617120638984886,0,1449617118325261869,/odom,2.02415674489,-0.436089776706,0.0,0.0,0.0,0.239333400299,0.97093744572,0,1449617118325261869,/odom,3.35231531539,0.26104350438,0.0,0.0,0.0,0.239333400299,0.97093744572,0,1449617118325261869,/odom,2.46687626839,-0.203712016344,0.668994307518,0.0,0.0,0.239333400299,0.97093744572,1,doorway_assistance,1.0,1449617120407665985,0,0
1449617120735355346,0,1449617118325261869,/odom,2.02415674489,-0.436089776706,0.0,0.0,0.0,0.239333400299,0.97093744572,0,1449617118325261869,/odom,3.35231531539,0.26104350438,0.0,0.0,0.0,0.239333400299,0.97093744572,0,1449617118325261869,/odom,2.46687626839,-0.203712016344,0.668994307518,0.0,0.0,0.239333400299,0.97093744572,1,doorway_assistance,1.0,1449617120511011622,0,0
1449617120835519749,0,1449617118325261869,/odom,2.02415674489,-0.436089776706,0.0,0.0,0.0,0.239333400299,0.97093744572,0,1449617118325261869,/odom,3.35231531539,0.26104350438,0.0,0.0,0.0,0.239333400299,0.97093744572,0,1449617118325261869,/odom,2.46687626839,-0.203712016344,0.668994307518,0.0,0.0,0.239333400299,0.97093744572,1,doorway_assistance,1.0,1449617120511011622,0,0
1449617120964181282,0,1449617118325261869,/odom,2.02415674489,-0.436089776706,0.0,0.0,0.0,0.239333400299,0.97093744572,0,1449617118325261869,/odom,3.35231531539,0.26104350438,0.0,0.0,0.0,0.239333400299,0.97093744572,0,1449617118325261869,/odom,2.46687626839,-0.203712016344,0.668994307518,0.0,0.0,0.239333400299,0.97093744572,1,doorway_assistance,1.0,1449617120612492527,0,0
1449617121088501463,0,1449617118325261869,/odom,2.02415674489,-0.436089776706,0.0,0.0,0.0,0.239333400299,0.97093744572,0,1449617118325261869,/odom,3.35231531539,0.26104350438,0.0,0.0,0.0,0.239333400299,0.97093744572,0,1449617118325261869,/odom,2.46687626839,-0.203712016344,0.668994307518,0.0,0.0,0.239333400299,0.97093744572,1,doorway_assistance,1.0,1449617120796264037,0,0
1449617121135597302,0,1449617118325261869,/odom,2.02415674489,-0.436089776706,0.0,0.0,0.0,0.239333400299,0.97093744572,0,1449617118325261869,/odom,3.35231531539,0.26104350438,0.0,0.0,0.0,0.239333400299,0.97093744572,0,1449617118325261869,/odom,2.46687626839,-0.203712016344,0.668994307518,0.0,0.0,0.239333400299,0.97093744572,1,doorway_assistance,1.0,1449617120930785771,0,0
1449617121234510208,0,1449617118325261869,/odom,2.02415674489,-0.436089776706,0.0,0.0,0.0,0.239333400299,0.97093744572,0,1449617118325261869,/odom,3.35231531539,0.26104350438,0.0,0.0,0.0,0.239333400299,0.97093744572,0,1449617118325261869,/odom,2.46687626839,-0.203712016344,0.668994307518,0.0,0.0,0.239333400299,0.97093744572,1,doorway_assistance,1.0,1449617121056091117,0,0
1449617121346312447,0,1449617118325261869,/odom,2.02415674489,-0.436089776706,0.0,0.0,0.0,0.239333400299,0.97093744572,0,1449617118325261869,/odom,3.35231531539,0.26104350438,0.0,0.0,0.0,0.239333400299,0.97093744572,0,1449617118325261869,/odom,2.46687626839,-0.203712016344,0.668994307518,0.0,0.0,0.239333400299,0.97093744572,1,doorway_assistance,1.0,1449617121056091117,0,0
1449617121486102932,0,1449617118325261869,/odom,2.02415674489,-0.436089776706,0.0,0.0,0.0,0.239333400299,0.97093744572,0,1449617118325261869,/odom,3.35231531539,0.26104350438,0.0,0.0,0.0,0.239333400299,0.97093744572,0,1449617118325261869,/odom,2.46687626839,-0.203712016344,0.668994307518,0.0,0.0,0.239333400299,0.97093744572,1,doorway_assistance,1.0,1449617121177630460,0,0
1449617121535996445,0,1449617118325261869,/odom,2.02415674489,-0.436089776706,0.0,0.0,0.0,0.239333400299,0.97093744572,0,1449617118325261869,/odom,3.35231531539,0.26104350438,0.0,0.0,0.0,0.239333400299,0.97093744572,0,1449617118325261869,/odom,2.46687626839,-0.203712016344,0.668994307518,0.0,0.0,0.239333400299,0.97093744572,1,doorway_assistance,1.0,1449617121293969692,0,0
1449617121646253370,0,1449617118325261869,/odom,2.02415674489,-0.436089776706,0.0,0.0,0.0,0.239333400299,0.97093744572,0,1449617118325261869,/odom,3.35231531539,0.26104350438,0.0,0.0,0.0,0.239333400299,0.97093744572,0,1449617118325261869,/odom,2.46687626839,-0.203712016344,0.668994307518,0.0,0.0,0.239333400299,0.97093744572,1,doorway_assistance,1.0,1449617121448441712,0,0
1449617121758322777,0,1449617118325261869,/odom,2.02415674489,-0.436089776706,0.0,0.0,0.0,0.239333400299,0.97093744572,0,1449617118325261869,/odom,3.35231531539,0.26104350438,0.0,0.0,0.0,0.239333400299,0.97093744572,0,1449617118325261869,/odom,2.46687626839,-0.203712016344,0.668994307518,0.0,0.0,0.239333400299,0.97093744572,1,doorway_assistance,1.0,1449617121535228948,0,0
1449617121848098118,0,1449617118325261869,/odom,2.02415674489,-0.436089776706,0.0,0.0,0.0,0.239333400299,0.97093744572,0,1449617118325261869,/odom,3.35231531539,0.26104350438,0.0,0.0,0.0,0.239333400299,0.97093744572,0,1449617118325261869,/odom,2.46687626839,-0.203712016344,0.668994307518,0.0,0.0,0.239333400299,0.97093744572,1,doorway_assistance,1.0,1449617121535228948,0,0
1449617121963657733,0,1449617118325261869,/odom,2.02415674489,-0.436089776706,0.0,0.0,0.0,0.239333400299,0.97093744572,0,1449617118325261869,/odom,3.35231531539,0.26104350438,0.0,0.0,0.0,0.239333400299,0.97093744572,0,1449617118325261869,/odom,2.46687626839,-0.203712016344,0.668994307518,0.0,0.0,0.239333400299,0.97093744572,1,doorway_assistance,1.0,1449617121661077351,0,0
1449617122038689284,0,1449617118325261869,/odom,2.02415674489,-0.436089776706,0.0,0.0,0.0,0.239333400299,0.97093744572,0,1449617118325261869,/odom,3.35231531539,0.26104350438,0.0,0.0,0.0,0.239333400299,0.97093744572,0,1449617118325261869,/odom,2.46687626839,-0.203712016344,0.668994307518,0.0,0.0,0.239333400299,0.97093744572,1,doorway_assistance,1.0,1449617121814015781,0,0
1449617122142640820,0,1449617118325261869,/odom,2.02415674489,-0.436089776706,0.0,0.0,0.0,0.239333400299,0.97093744572,0,1449617118325261869,/odom,3.35231531539,0.26104350438,0.0,0.0,0.0,0.239333400299,0.97093744572,0,1449617118325261869,/odom,2.46687626839,-0.203712016344,0.668994307518,0.0,0.0,0.239333400299,0.97093744572,1,doorway_assistance,1.0,1449617121922893569,0,0
1449617122258391453,0,1449617118325261869,/odom,2.02415674489,-0.436089776706,0.0,0.0,0.0,0.239333400299,0.97093744572,0,1449617118325261869,/odom,3.35231531539,0.26104350438,0.0,0.0,0.0,0.239333400299,0.97093744572,0,1449617118325261869,/odom,2.46687626839,-0.203712016344,0.668994307518,0.0,0.0,0.239333400299,0.97093744572,1,doorway_assistance,1.0,1449617121922893569,0,0
1449617122341119225,0,1449617118325261869,/odom,2.02415674489,-0.436089776706,0.0,0.0,0.0,0.239333400299,0.97093744572,0,1449617118325261869,/odom,3.35231531539,0.26104350438,0.0,0.0,0.0,0.239333400299,0.97093744572,0,1449617118325261869,/odom,2.46687626839,-0.203712016344,0.668994307518,0.0,0.0,0.239333400299,0.97093744572,1,doorway_assistance,1.0,1449617122045477841,0,0
1449617122476591790,0,1449617118325261869,/odom,2.02415674489,-0.436089776706,0.0,0.0,0.0,0.239333400299,0.97093744572,0,1449617118325261869,/odom,3.35231531539,0.26104350438,0.0,0.0,0.0,0.239333400299,0.97093744572,0,1449617118325261869,/odom,2.46687626839,-0.203712016344,0.668994307518,0.0,0.0,0.239333400299,0.97093744572,1,doorway_assistance,1.0,1449617122215239764,0,0
1449617122546098263,0,1449617118325261869,/odom,2.02415674489,-0.436089776706,0.0,0.0,0.0,0.239333400299,0.97093744572,0,1449617118325261869,/odom,3.35231531539,0.26104350438,0.0,0.0,0.0,0.239333400299,0.97093744572,0,1449617118325261869,/odom,2.46687626839,-0.203712016344,0.668994307518,0.0,0.0,0.239333400299,0.97093744572,1,doorway_assistance,1.0,1449617122322490410,0,0
1449617122635632273,0,1449617118325261869,/odom,2.02415674489,-0.436089776706,0.0,0.0,0.0,0.239333400299,0.97093744572,0,1449617118325261869,/odom,3.35231531539,0.26104350438,0.0,0.0,0.0,0.239333400299,0.97093744572,0,1449617118325261869,/odom,2.46687626839,-0.203712016344,0.668994307518,0.0,0.0,0.239333400299,0.97093744572,1,doorway_assistance,1.0,1449617122322490410,0,0
1449617122752949870,0,1449617118325261869,/odom,2.02415674489,-0.436089776706,0.0,0.0,0.0,0.239333400299,0.97093744572,0,1449617118325261869,/odom,3.35231531539,0.26104350438,0.0,0.0,0.0,0.239333400299,0.97093744572,0,1449617118325261869,/odom,2.46687626839,-0.203712016344,0.668994307518,0.0,0.0,0.239333400299,0.97093744572,1,doorway_assistance,1.0,1449617122508103992,0,0
1449617122913190481,0,1449617118325261869,/odom,2.02415674489,-0.436089776706,0.0,0.0,0.0,0.239333400299,0.97093744572,0,1449617118325261869,/odom,3.35231531539,0.26104350438,0.0,0.0,0.0,0.239333400299,0.97093744572,0,1449617118325261869,/odom,2.46687626839,-0.203712016344,0.668994307518,0.0,0.0,0.239333400299,0.97093744572,1,doorway_assistance,1.0,1449617122592316540,0,0
1449617122938693450,0,1449617118325261869,/odom,2.02415674489,-0.436089776706,0.0,0.0,0.0,0.239333400299,0.97093744572,0,1449617118325261869,/odom,3.35231531539,0.26104350438,0.0,0.0,0.0,0.239333400299,0.97093744572,0,1449617118325261869,/odom,2.46687626839,-0.203712016344,0.668994307518,0.0,0.0,0.239333400299,0.97093744572,1,doorway_assistance,1.0,1449617122708434789,0,0
1449617123052505705,0,1449617118325261869,/odom,2.02415674489,-0.436089776706,0.0,0.0,0.0,0.239333400299,0.97093744572,0,1449617118325261869,/odom,3.35231531539,0.26104350438,0.0,0.0,0.0,0.239333400299,0.97093744572,0,1449617118325261869,/odom,2.46687626839,-0.203712016344,0.668994307518,0.0,0.0,0.239333400299,0.97093744572,1,doorway_assistance,1.0,1449617122708434789,0,0
1449617123138654619,0,1449617118325261869,/odom,2.02415674489,-0.436089776706,0.0,0.0,0.0,0.239333400299,0.97093744572,0,1449617118325261869,/odom,3.35231531539,0.26104350438,0.0,0.0,0.0,0.239333400299,0.97093744572,0,1449617118325261869,/odom,2.46687626839,-0.203712016344,0.668994307518,0.0,0.0,0.239333400299,0.97093744572,1,doorway_assistance,1.0,1449617122864838263,1,0
1449617123258645742,0,1449617118325261869,/odom,2.02415674489,-0.436089776706,0.0,0.0,0.0,0.239333400299,0.97093744572,0,1449617118325261869,/odom,3.35231531539,0.26104350438,0.0,0.0,0.0,0.239333400299,0.97093744572,0,1449617118325261869,/odom,2.46687626839,-0.203712016344,0.668994307518,0.0,0.0,0.239333400299,0.97093744572,1,doorway_assistance,1.0,1449617123011779064,1,0
1449617123509105340,0,1449617118325261869,/odom,2.02415674489,-0.436089776706,0.0,0.0,0.0,0.239333400299,0.97093744572,0,1449617118325261869,/odom,3.35231531539,0.26104350438,0.0,0.0,0.0,0.239333400299,0.97093744572,0,1449617118325261869,/odom,2.46687626839,-0.203712016344,0.668994307518,0.0,0.0,0.239333400299,0.97093744572,1,doorway_assistance,1.0,1449617123116245573,1,0
1449617123706332698,0,1449617118325261869,/odom,2.02415674489,-0.436089776706,0.0,0.0,0.0,0.239333400299,0.97093744572,0,1449617118325261869,/odom,3.35231531539,0.26104350438,0.0,0.0,0.0,0.239333400299,0.97093744572,0,1449617118325261869,/odom,2.46687626839,-0.203712016344,0.668994307518,0.0,0.0,0.239333400299,0.97093744572,1,doorway_assistance,1.0,1449617123264903022,1,0
1449617123814408449,0,1449617118325261869,/odom,2.02415674489,-0.436089776706,0.0,0.0,0.0,0.239333400299,0.97093744572,0,1449617118325261869,/odom,3.35231531539,0.26104350438,0.0,0.0,0.0,0.239333400299,0.97093744572,0,1449617118325261869,/odom,2.46687626839,-0.203712016344,0.668994307518,0.0,0.0,0.239333400299,0.97093744572,1,doorway_assistance,1.0,1449617123471421569,1,0
1449617123964038803,0,1449617118325261869,/odom,2.02415674489,-0.436089776706,0.0,0.0,0.0,0.239333400299,0.97093744572,0,1449617118325261869,/odom,3.35231531539,0.26104350438,0.0,0.0,0.0,0.239333400299,0.97093744572,0,1449617118325261869,/odom,2.46687626839,-0.203712016344,0.668994307518,0.0,0.0,0.239333400299,0.97093744572,1,doorway_assistance,1.0,1449617123674652265,1,0
1449617124210166212,0,1449617118325261869,/odom,2.02415674489,-0.436089776706,0.0,0.0,0.0,0.239333400299,0.97093744572,0,1449617118325261869,/odom,3.35231531539,0.26104350438,0.0,0.0,0.0,0.239333400299,0.97093744572,0,1449617118325261869,/odom,2.46687626839,-0.203712016344,0.668994307518,0.0,0.0,0.239333400299,0.97093744572,1,doorway_assistance,1.0,1449617123791383564,1,0
1449617125137218923,0,1449617118325261869,/odom,2.02415674489,-0.436089776706,0.0,0.0,0.0,0.239333400299,0.97093744572,0,1449617118325261869,/odom,3.35231531539,0.26104350438,0.0,0.0,0.0,0.239333400299,0.97093744572,0,1449617118325261869,/odom,2.46687626839,-0.203712016344,0.668994307518,0.0,0.0,0.239333400299,0.97093744572,1,doorway_assistance,1.0,1449617123931705785,1,0
1449617125350924637,0,1449617118325261869,/odom,2.02415674489,-0.436089776706,0.0,0.0,0.0,0.239333400299,0.97093744572,0,1449617118325261869,/odom,3.35231531539,0.26104350438,0.0,0.0,0.0,0.239333400299,0.97093744572,0,1449617118325261869,/odom,2.46687626839,-0.203712016344,0.668994307518,0.0,0.0,0.239333400299,0.97093744572,1,doorway_assistance,1.0,1449617124184253202,1,0
1449617125523801683,0,1449617118325261869,/odom,2.02415674489,-0.436089776706,0.0,0.0,0.0,0.239333400299,0.97093744572,0,1449617118325261869,/odom,3.35231531539,0.26104350438,0.0,0.0,0.0,0.239333400299,0.97093744572,0,1449617118325261869,/odom,2.46687626839,-0.203712016344,0.668994307518,0.0,0.0,0.239333400299,0.97093744572,1,doorway_assistance,1.0,1449617125096547427,1,0
1449617125629297728,0,1449617118325261869,/odom,2.02415674489,-0.436089776706,0.0,0.0,0.0,0.239333400299,0.97093744572,0,1449617118325261869,/odom,3.35231531539,0.26104350438,0.0,0.0,0.0,0.239333400299,0.97093744572,0,1449617118325261869,/odom,2.46687626839,-0.203712016344,0.668994307518,0.0,0.0,0.239333400299,0.97093744572,1,doorway_assistance,1.0,1449617125308264123,1,0
1449617125821265282,0,1449617125808623449,/odom,2.6416054195,-0.0892925073434,0.0,0.0,0.0,-0.393592640873,0.919284957481,0,1449617125808623449,/odom,2.6416054195,-0.0892925073434,0.0,0.0,0.0,-0.393592640873,0.919284957481,0,user,1.0,0
1449617126058863745,0,1449617126053892483,/odom,2.65560972872,-0.0836059532966,0.0,0.0,0.0,-0.445108941993,0.895476426132,0,1449617126053892483,/odom,2.65560972872,-0.0836059532966,0.0,0.0,0.0,-0.445108941993,0.895476426132,0,user,1.0,0
1449617126189739116,0,1449617126180808364,/odom,2.67372973104,-0.0743368740549,0.0,0.0,0.0,-0.469798389021,0.882773738663,0,1449617126180808364,/odom,2.67372973104,-0.0743368740549,0.0,0.0,0.0,-0.469798389021,0.882773738663,0,user,1.0,0
1449617126440748365,0,1449617126435150706,/odom,2.68314630401,-0.0722034900246,0.0,0.0,0.0,-0.535259742374,0.844687521036,0,1449617126435150706,/odom,2.68314630401,-0.0722034900246,0.0,0.0,0.0,-0.535259742374,0.844687521036,0,user,1.0,0
1449617126722565300,0,1449617126710959020,/odom,2.71596720547,-0.0537505203986,0.0,0.0,0.0,-0.554269512267,0.832337256028,0,1449617126710959020,/odom,2.71596720547,-0.0537505203986,0.0,0.0,0.0,-0.554269512267,0.832337256028,0,user,1.0,0
1449617126904714780,0,1449617126901549296,/odom,2.74569845477,-0.0358896462343,0.0,0.0,0.0,-0.56613370738,0.824313426658,0,1449617126901549296,/odom,2.74569845477,-0.0358896462343,0.0,0.0,0.0,-0.56613370738,0.824313426658,0,user,1.0,0
1449617127078556981,0,1449617127047468177,/odom,2.75804543487,-0.0287852647808,0.0,0.0,0.0,-0.587463180671,0.809250895184,0,1449617127047468177,/odom,2.75804543487,-0.0287852647808,0.0,0.0,0.0,-0.587463180671,0.809250895184,0,user,1.0,0
1449617127258895818,0,1449617127243180561,/odom,2.76300511859,-0.0267735614492,0.0,0.0,0.0,-0.619409485389,0.785068079475,0,1449617127243180561,/odom,2.76300511859,-0.0267735614492,0.0,0.0,0.0,-0.619409485389,0.785068079475,0,user,1.0,0
1449617127500649325,0,1449617127491409829,/odom,2.76550687872,-0.0259317555996,0.0,0.0,0.0,-0.64275434868,0.766072351187,0,1449617127491409829,/odom,2.76550687872,-0.0259317555996,0.0,0.0,0.0,-0.64275434868,0.766072351187,0,user,1.0,0
1449617127667518100,0,1449617127658235662,/odom,2.76070922478,-0.0270041757762,0.0,0.0,0.0,-0.658038162114,0.752984579657,0,1449617127658235662,/odom,2.76070922478,-0.0270041757762,0.0,0.0,0.0,-0.658038162114,0.752984579657,0,user,1.0,0
1449617127863306310,0,1449617127845145113,/odom,2.76120412899,-0.0280948425263,0.0,0.0,0.0,-0.681356701108,0.73195153245,0,1449617127845145113,/odom,2.76120412899,-0.0280948425263,0.0,0.0,0.0,-0.681356701108,0.73195153245,0,user,1.0,0
1449617128072147690,0,1449617128066887043,/odom,2.76149472624,-0.0288507073095,0.0,0.0,0.0,-0.696825412682,0.717240785399,0,1449617128066887043,/odom,2.76149472624,-0.0288507073095,0.0,0.0,0.0,-0.696825412682,0.717240785399,0,user,1.0,0
1449617128241199781,0,1449617128232979936,/odom,2.76157037071,-0.0292059570368,0.0,0.0,0.0,-0.704595972906,0.709608705531,0,1449617128232979936,/odom,2.76157037071,-0.0292059570368,0.0,0.0,0.0,-0.704595972906,0.709608705531,0,user,1.0,0
1449617128453140732,0,1449617128439834685,/odom,2.76169353766,-0.0299039928137,0.0,0.0,0.0,-0.71954443468,0.694446402914,0,1449617128439834685,/odom,2.76169353766,-0.0299039928137,0.0,0.0,0.0,-0.71954443468,0.694446402914,0,user,1.0,0
1449617128603143702,0,1449617128596285477,/odom,2.76177614512,-0.030152044736,0.0,0.0,0.0,-0.724084723291,0.689711036229,0,1449617128596285477,/odom,2.76177614512,-0.030152044736,0.0,0.0,0.0,-0.724084723291,0.689711036229,0,user,1.0,0
1449617128806539236,0,1449617128799401709,/odom,3.0313112141,-0.192617316905,0.0,0.0,0.0,-0.712483777141,0.701688582857,0,1449617128799401709,/odom,3.0313112141,-0.192617316905,0.0,0.0,0.0,-0.712483777141,0.701688582857,0,user,1.0,0
1449617129052756688,0,1449617129032686075,/odom,3.15309395584,-0.247527027297,0.0,0.0,0.0,-0.689073202223,0.724691742728,0,1449617129032686075,/odom,3.15309395584,-0.247527027297,0.0,0.0,0.0,-0.689073202223,0.724691742728,0,user,1.0,0
1449617129232086896,0,1449617129225034676,/odom,3.20395122727,-0.176146786285,0.0,0.0,0.0,-0.549289067259,0.835632407575,0,1449617129225034676,/odom,3.20395122727,-0.176146786285,0.0,0.0,0.0,-0.549289067259,0.835632407575,0,user,1.0,0
1449617129330002214,0,1449617129326180221,/odom,3.27550721651,-0.147435484824,0.0,0.0,0.0,-0.470625265919,0.882333190512,0,1449617129326180221,/odom,3.27550721651,-0.147435484824,0.0,0.0,0.0,-0.470625265919,0.882333190512,0,user,1.0,0
1449617129431212960,0,1449617129418926470,/odom,3.35881673094,0.00271554718101,0.0,0.0,0.0,-0.21783273057,0.975986117469,0,1449617129418926470,/odom,3.35881673094,0.00271554718101,0.0,0.0,0.0,-0.21783273057,0.975986117469,0,user,1.0,0
1449617129530094739,0,1449617129500725752,/odom,3.39578474553,0.0319124289947,0.0,0.0,0.0,-0.176186825981,0.984356745469,0,1449617129500725752,/odom,3.39578474553,0.0319124289947,0.0,0.0,0.0,-0.176186825981,0.984356745469,0,user,1.0,0
1449617129569854502,0,1449617129557194199,/odom,3.45182798535,0.0359460502487,0.0,0.0,0.0,-0.176383423672,0.984321536823,0,1449617129557194199,/odom,3.45182798535,0.0359460502487,0.0,0.0,0.0,-0.176383423672,0.984321536823,0,user,1.0,0
1449617129619026850,0,1449617129595880193,/odom,3.47730523546,0.0407121139184,0.0,0.0,0.0,-0.172829986073,0.984951671867,0,1449617129595880193,/odom,3.47730523546,0.0407121139184,0.0,0.0,0.0,-0.172829986073,0.984951671867,0,user,1.0,0
1449617129679887180,0,1449617129671367078,/odom,3.42766265556,0.0680846862412,0.0,0.0,0.0,-0.128392760362,0.991723398477,0,1449617129671367078,/odom,3.42766265556,0.0680846862412,0.0,0.0,0.0,-0.128392760362,0.991723398477,0,user,1.0,0
1449617129773150980,0,1449617129767383239,/odom,3.43912051392,0.0675285231214,0.0,0.0,0.0,-0.13095104535,0.991388835786,0,1449617129767383239,/odom,3.43912051392,0.0675285231214,0.0,0.0,0.0,-0.13095104535,0.991388835786,0,user,1.0,0
1449617129874404040,0,1449617129859085208,/odom,3.44456181793,0.0672417133927,0.0,0.0,0.0,-0.132166242648,0.991227564338,0,1449617129859085208,/odom,3.44456181793,0.0672417133927,0.0,0.0,0.0,-0.132166242648,0.991227564338,0,user,1.0,0
1449617129968455030,0,1449617129961859607,/odom,3.47711363422,0.0591591992535,0.0,0.0,0.0,-0.149955543265,0.988692740463,0,1449617129961859607,/odom,3.47711363422,0.0591591992535,0.0,0.0,0.0,-0.149955543265,0.988692740463,0,user,1.0,0
1449617130076056036,0,1449617130069979453,/odom,3.49002271857,0.0648265101145,0.0,0.0,0.0,-0.150808901687,0.988562934351,0,1449617130069979453,/odom,3.49002271857,0.0648265101145,0.0,0.0,0.0,-0.150808901687,0.988562934351,0,user,1.0,0
1449617130185023169,0,1449617130179846000,/odom,3.46141955936,0.0735082270428,0.0,0.0,0.0,-0.135908827987,0.990721348551,0,1449617130179846000,/odom,3.46141955936,0.0735082270428,0.0,0.0,0.0,-0.135908827987,0.990721348551,0,user,1.0,0
1449617130301979152,0,1449617130293723558,/odom,3.48630979096,0.0586449380158,0.0,0.0,0.0,-0.157372623957,0.987539294018,0,1449617130293723558,/odom,3.48630979096,0.0586449380158,0.0,0.0,0.0,-0.157372623957,0.987539294018,0,user,1.0,0
1449617130398220236,0,1449617130384102357,/odom,3.45705837757,0.0789289081753,0.0,0.0,0.0,-0.131520095965,0.991313504577,0,1449617130384102357,/odom,3.45705837757,0.0789289081753,0.0,0.0,0.0,-0.131520095965,0.991313504577,0,user,1.0,0
1449617130472353032,0,1449617130469912239,/odom,3.48048014789,0.0721677181502,0.0,0.0,0.0,-0.143660885551,0.989626975159,0,1449617130469912239,/odom,3.48048014789,0.0721677181502,0.0,0.0,0.0,-0.143660885551,0.989626975159,0,user,1.0,0
1449617130573195501,0,1449617130570925420,/odom,3.49825662408,0.0612879359496,0.0,0.0,0.0,-0.156459627308,0.987684354955,0,1449617130570925420,/odom,3.49825662408,0.0612879359496,0.0,0.0,0.0,-0.156459627308,0.987684354955,0,user,1.0,0
1449617130698919260,0,1449617130689104047,/odom,3.50809696242,0.0680819550825,0.0,0.0,0.0,-0.155540983814,0.987829439911,0,1449617130689104047,/odom,3.50809696242,0.0680819550825,0.0,0.0,0.0,-0.155540983814,0.987829439911,0,user,1.0,0
1449617130797090503,0,1449617130791343977,/odom,3.44296407398,0.0867821472207,0.0,0.0,0.0,-0.119194076014,0.99287097462,0,1449617130791343977,/odom,3.44296407398,0.0867821472207,0.0,0.0,0.0,-0.119194076014,0.99287097462,0,user,1.0,0
1449617130880523274,0,1449617130870210755,/odom,3.44827770689,0.0929263436536,0.0,0.0,0.0,-0.118288535592,0.992979265819,0,1449617130870210755,/odom,3.44827770689,0.0929263436536,0.0,0.0,0.0,-0.118288535592,0.992979265819,0,user,1.0,0
1449617130961522439,0,1449617130956139910,/odom,3.45302691528,0.0878155337324,0.0,0.0,0.0,-0.122937583204,0.99241440469,0,1449617130956139910,/odom,3.45302691528,0.0878155337324,0.0,0.0,0.0,-0.122937583204,0.99241440469,0,user,1.0,0
1449617131080280884,0,1449617131077958440,/odom,3.45480499946,0.0857683104058,0.0,0.0,0.0,-0.125897781391,0.99204321914,0,1449617131077958440,/odom,3.45480499946,0.0857683104058,0.0,0.0,0.0,-0.125897781391,0.99204321914,0,user,1.0,0
1449617131184253077,0,1449617131180817413,/odom,3.46014853761,0.0900792036233,0.0,0.0,0.0,-0.124538042025,0.992214833637,0,1449617131180817413,/odom,3.46014853761,0.0900792036233,0.0,0.0,0.0,-0.124538042025,0.992214833637,0,user,1.0,0
1449617131277617929,0,1449617131273617028,/odom,3.46200806871,0.100092275661,0.0,0.0,0.0,-0.118042351721,0.993008561494,0,1449617131273617028,/odom,3.46200806871,0.100092275661,0.0,0.0,0.0,-0.118042351721,0.993008561494,0,user,1.0,0
1449617131383978948,0,1449617131378361351,/odom,3.47146736226,0.10450522955,0.0,0.0,0.0,-0.11737538454,0.993087619047,0,1449617131378361351,/odom,3.47146736226,0.10450522955,0.0,0.0,0.0,-0.11737538454,0.993087619047,0,user,1.0,0
1449617131465975479,0,1449617131463188368,/odom,3.48098644704,0.108970344361,0.0,0.0,0.0,-0.116697335446,0.99316752459,0,1449617131463188368,/odom,3.48098644704,0.108970344361,0.0,0.0,0.0,-0.116697335446,0.99316752459,0,user,1.0,0
1449617131571113209,0,1449617131565575344,/odom,3.50126203188,0.115948347465,0.0,0.0,0.0,-0.120766060809,0.992680995364,0,1449617131565575344,/odom,3.50126203188,0.115948347465,0.0,0.0,0.0,-0.120766060809,0.992680995364,0,user,1.0,0
1449617131676238407,0,1449617131660249995,/odom,3.45800200538,0.124547197181,0.0,0.0,0.0,-0.0982547452985,0.995161295985,0,1449617131660249995,/odom,3.45800200538,0.124547197181,0.0,0.0,0.0,-0.0982547452985,0.995161295985,0,user,1.0,0
1449617131814329152,0,1449617131806863915,/odom,3.6143522365,0.0846353855461,0.0,0.0,0.0,-0.181926889546,0.983312059755,0,1449617131806863915,/odom,3.6143522365,0.0846353855461,0.0,0.0,0.0,-0.181926889546,0.983312059755,0,user,1.0,0
1449617131908891925,0,1449617131904863338,/odom,3.60887642647,0.0690275806356,0.0,0.0,0.0,-0.204164851976,0.978936521546,0,1449617131904863338,/odom,3.60887642647,0.0690275806356,0.0,0.0,0.0,-0.204164851976,0.978936521546,0,user,1.0,0
1449617132109882158,0,1449617132088645097,/odom,3.4839048292,-0.0121101727613,0.0,0.0,0.0,-0.311956997076,0.950096222482,0,1449617132088645097,/odom,3.4839048292,-0.0121101727613,0.0,0.0,0.0,-0.311956997076,0.950096222482,0,user,1.0,0
