%time,field.header.seq,field.header.stamp,field.header.frame_id,field.ns,field.id,field.type,field.action,field.pose.position.x,field.pose.position.y,field.pose.position.z,field.pose.orientation.x,field.pose.orientation.y,field.pose.orientation.z,field.pose.orientation.w,field.scale.x,field.scale.y,field.scale.z,field.color.r,field.color.g,field.color.b,field.color.a,field.lifetime,field.frame_locked,field.text,field.mesh_resource,field.mesh_use_embedded_materials
1449617114604147596,0,0,/odom,bcmd_vector,0,0,0,0.0431735836658,-0.00136924379847,0.0,0.0,0.0,-0.0158514091245,0.999874358521,0.00559730190992,0.05,0.05,0.0,1.0,0.0,1.0,0,0,,,0
1449617114667891277,1,0,/odom,bcmd_vector,0,0,0,0.046050804308,-0.00149094272787,0.0,0.0,0.0,-0.0211345236944,0.999776641009,0.00559730190992,0.05,0.05,0.0,1.0,0.0,1.0,0,0,,,0
1449617114688486069,2,0,/odom,bcmd_vector,0,0,0,0.054687450455,-0.00170395493763,0.0,0.0,0.0,-0.0158514091245,0.999874358521,0.00559730190992,0.05,0.05,0.0,1.0,0.0,1.0,0,0,,,0
1449617114724004777,3,0,/odom,bcmd_vector,0,0,0,0.054687450455,-0.00170395493763,0.0,0.0,0.0,-0.0158514091245,0.999874358521,0.00559730190992,0.05,0.05,0.0,1.0,0.0,1.0,0,0,,,0
1449617114827234226,4,0,/odom,bcmd_vector,0,0,0,0.0633249005692,-0.00188654411466,0.0,0.0,0.0,-0.0105678519699,0.999944158693,0.00559730190992,0.05,0.05,0.0,1.0,0.0,1.0,0,0,,,0
1449617114842696356,5,0,/odom,bcmd_vector,0,0,0,0.0748415007215,-0.0021299963507,0.0,0.0,0.0,-0.0105678519699,0.999944158693,0.00559730190992,0.05,0.05,0.0,1.0,0.0,1.0,0,0,,,0
1449617114856536063,6,0,/odom,bcmd_vector,0,0,0,0.0777211331759,-0.00216042957964,0.0,0.0,0.0,-0.00845852683232,0.999964226022,0.00559730190992,0.05,0.05,0.0,1.0,0.0,1.0,0,0,,,0
1449617114881615801,7,0,/odom,bcmd_vector,0,0,0,0.0777211331759,-0.00216042957964,0.0,0.0,0.0,-0.00845852683232,0.999964226022,0.00559730190992,0.05,0.05,0.0,1.0,0.0,1.0,0,0,,,0
1449617114968898079,8,0,/odom,bcmd_vector,0,0,0,0.0834803980846,-0.00222129603751,0.0,0.0,0.0,-0.00845852683232,0.999964226022,0.00559730190992,0.05,0.05,0.0,1.0,0.0,1.0,0,0,,,0
1449617114986611212,9,0,/odom,bcmd_vector,0,0,0,0.0978793644136,-0.00222129603751,0.0,0.0,0.0,-0.00317459802558,0.999994960951,0.00559730190992,0.05,0.05,0.0,1.0,0.0,1.0,0,0,,,0
1449617115006197702,10,0,/odom,bcmd_vector,0,0,0,0.106518261777,-0.0021299963507,0.0,0.0,0.0,0.00210941941862,0.999997775172,0.0111846038198,0.05,0.05,0.0,1.0,0.0,1.0,0,0,,,0
1449617115114332955,11,0,/odom,bcmd_vector,0,0,0,0.106518261777,-0.0021299963507,0.0,0.0,0.0,0.00210941941862,0.999997775172,0.0111846038198,0.05,0.05,0.0,1.0,0.0,1.0,0,0,,,0
1449617115124774407,12,0,/odom,bcmd_vector,0,0,0,0.123791714936,-0.0017344085586,0.0,0.0,0.0,0.0126771300841,0.999919641958,0.0111846038198,0.05,0.05,0.0,1.0,0.0,1.0,0,0,,,0
1449617115135619388,13,0,/odom,bcmd_vector,0,0,0,0.123791714936,-0.0017344085586,0.0,0.0,0.0,0.0126771300841,0.999919641958,0.0111846038198,0.05,0.05,0.0,1.0,0.0,1.0,0,0,,,0
1449617115200569693,14,0,/odom,bcmd_vector,0,0,0,0.123791714936,-0.0017344085586,0.0,0.0,0.0,0.0126771300841,0.999919641958,0.0111846038198,0.05,0.05,0.0,1.0,0.0,1.0,0,0,,,0
1449617115212133456,15,0,/odom,bcmd_vector,0,0,0,0.13242562772,-0.00143013744572,0.0,0.0,0.0,0.0179605282459,0.999838696703,0.0111846038198,0.05,0.05,0.0,1.0,0.0,1.0,0,0,,,0
1449617115247812650,16,0,/odom,bcmd_vector,0,0,0,0.13242562772,-0.00143013744572,0.0,0.0,0.0,0.0179605282459,0.999838696703,0.0111846038198,0.05,0.05,0.0,1.0,0.0,1.0,0,0,,,0
1449617115290088040,17,0,/odom,bcmd_vector,0,0,0,0.141052949354,-0.000973842919513,0.0,0.0,0.0,0.0232434249345,0.999729835104,0.0111846038198,0.05,0.05,0.0,1.0,0.0,1.0,0,0,,,0
1449617115420922557,18,0,/odom,bcmd_vector,0,0,0,0.143930169997,-0.000852143990114,0.0,0.0,0.0,0.0179605282459,0.999838696703,0.0111846038198,0.05,0.05,0.0,1.0,0.0,1.0,0,0,,,0
1449617115432649105,19,0,/odom,bcmd_vector,0,0,0,0.155426193758,-0.000122222251368,0.0,0.0,0.0,0.028525672647,0.9995930602,0.0111846038198,0.05,0.05,0.0,1.0,0.0,1.0,0,0,,,0
1449617115479045943,20,0,/odom,bcmd_vector,0,0,0,0.161174205638,0.000242738618005,0.0,0.0,0.0,0.0316988350601,0.999497465658,0.00559730190992,0.05,0.05,0.0,1.0,0.0,1.0,0,0,,,0
1449617115507831607,21,0,/odom,bcmd_vector,0,0,0,0.164046122664,0.000455580932083,0.0,0.0,0.0,0.0369797368913,0.999316015612,0.00559730190992,0.05,0.05,0.0,1.0,0.0,1.0,0,0,,,0
1449617115570389562,22,0,/odom,bcmd_vector,0,0,0,0.166915630032,0.000698761354766,0.0,0.0,0.0,0.042259606217,0.999106663816,0.00559730190992,0.05,0.05,0.0,1.0,0.0,1.0,0,0,,,0
1449617115595534633,23,0,/odom,bcmd_vector,0,0,0,0.169787547058,0.000911603668844,0.0,0.0,0.0,0.0369797368913,0.999316015612,0.00559730190992,0.05,0.05,0.0,1.0,0.0,1.0,0,0,,,0
1449617124549356917,24,0,/odom,bcmd_vector,0,0,0,2.42912852962,-0.177728324389,0.0,0.0,0.0,0.0811547817941,0.99670151068,-0.04999,0.05,0.05,0.0,1.0,0.0,1.0,0,0,,,0
1449617124568422250,25,0,/odom,bcmd_vector,0,0,0,2.45057533998,-0.169314893179,0.0,0.0,0.0,0.091683244028,0.995788221845,-0.04999,0.05,0.05,0.0,1.0,0.0,1.0,0,0,,,0
1449617124592788216,26,0,/odom,bcmd_vector,0,0,0,2.46127086589,-0.165037385327,0.0,0.0,0.0,0.091683244028,0.995788221845,-0.04999,0.05,0.05,0.0,1.0,0.0,1.0,0,0,,,0
1449617124651953143,27,0,/odom,bcmd_vector,0,0,0,2.46127086589,-0.165037385327,0.0,0.0,0.0,0.091683244028,0.995788221845,-0.04999,0.05,0.05,0.0,1.0,0.0,1.0,0,0,,,0
1449617124676469042,28,0,/odom,bcmd_vector,0,0,0,2.47981271837,-0.157130268063,0.0,0.0,0.0,0.107456371316,0.994209800929,-0.04999,0.05,0.05,0.0,1.0,0.0,1.0,0,0,,,0
1449617124731251634,29,0,/odom,bcmd_vector,0,0,0,2.47981271837,-0.157130268063,0.0,0.0,0.0,0.107456371316,0.994209800929,-0.04999,0.05,0.05,0.0,1.0,0.0,1.0,0,0,,,0
1449617124762404011,30,0,/odom,bcmd_vector,0,0,0,2.49564455692,-0.150208677109,0.0,0.0,0.0,0.107456371316,0.994209800929,-0.04999,0.05,0.05,0.0,1.0,0.0,1.0,0,0,,,0
1449617124802317288,31,0,/odom,bcmd_vector,0,0,0,2.50877606369,-0.144301582967,0.0,0.0,0.0,0.161444939134,0.986881721195,-0.0735931745225,0.05,0.05,0.0,1.0,0.0,1.0,0,0,,,0
1449617124840697070,32,0,/odom,bcmd_vector,0,0,0,2.51661707261,-0.140674261307,0.0,0.0,0.0,0.166657368064,0.986014868889,-0.0735931745225,0.05,0.05,0.0,1.0,0.0,1.0,0,0,,,0
1449617124890631766,33,0,/odom,bcmd_vector,0,0,0,2.52707175117,-0.135837832425,0.0,0.0,0.0,0.166657368064,0.986014868889,-0.0735931745225,0.05,0.05,0.0,1.0,0.0,1.0,0,0,,,0
1449617124913195856,34,0,/odom,bcmd_vector,0,0,0,2.53229909045,-0.133419617985,0.0,0.0,0.0,0.166657368064,0.986014868889,-0.0735931745225,0.05,0.05,0.0,1.0,0.0,1.0,0,0,,,0
1449617124953364835,35,0,/odom,bcmd_vector,0,0,0,2.53229909045,-0.133419617985,0.0,0.0,0.0,0.166657368064,0.986014868889,-0.0735931745225,0.05,0.05,0.0,1.0,0.0,1.0,0,0,,,0
1449617125005242077,36,0,/odom,bcmd_vector,0,0,0,2.54010132851,-0.129709636257,0.0,0.0,0.0,0.171865143779,0.985120486212,-0.0735931745225,0.05,0.05,0.0,1.0,0.0,1.0,0,0,,,0
1449617125059966181,37,0,/odom,bcmd_vector,0,0,0,2.5530654164,-0.12344408765,0.0,0.0,0.0,0.177068120874,0.984198598135,-0.0735931745225,0.05,0.05,0.0,1.0,0.0,1.0,0,0,,,0
1449617125108083611,38,0,/odom,bcmd_vector,0,0,0,2.56078750307,-0.119570037994,0.0,0.0,0.0,0.182266154076,0.983249230398,-0.0735931745225,0.05,0.05,0.0,1.0,0.0,1.0,0,0,,,0
1449617125137289261,39,0,/odom,bcmd_vector,0,0,0,2.56593556085,-0.116987338224,0.0,0.0,0.0,0.182266154076,0.983249230398,-0.0735931745225,0.05,0.05,0.0,1.0,0.0,1.0,0,0,,,0
1449617125170886974,40,0,/odom,bcmd_vector,0,0,0,2.57108361863,-0.114404638454,0.0,0.0,0.0,0.182266154076,0.983249230398,-0.0735931745225,0.05,0.05,0.0,1.0,0.0,1.0,0,0,,,0
1449617125213914165,41,0,/odom,bcmd_vector,0,0,0,2.57876433371,-0.110449199261,0.0,0.0,0.0,0.188238620363,0.982123323114,-0.0735931745225,0.05,0.05,0.0,1.0,0.0,1.0,0,0,,,0
1449617125269541419,42,0,/odom,bcmd_vector,0,0,0,2.58388481043,-0.1078122398,0.0,0.0,0.0,0.188238620363,0.982123323114,-0.0735931745225,0.05,0.05,0.0,1.0,0.0,1.0,0,0,,,0
1449617125279382367,43,0,/odom,bcmd_vector,0,0,0,2.58900528714,-0.105175280338,0.0,0.0,0.0,0.187459098252,0.982272409509,-0.0735931745225,0.05,0.05,0.0,1.0,0.0,1.0,0,0,,,0
1449617125374455424,44,0,/odom,bcmd_vector,0,0,0,2.59412576386,-0.102538320877,0.0,0.0,0.0,0.245763635268,0.969329786801,0.310297535053,0.05,0.05,0.0,1.0,0.0,1.0,0,0,,,0
1449617125396609642,45,0,/odom,bcmd_vector,0,0,0,2.60176424954,-0.0985019339011,0.0,0.0,0.0,0.250882142656,0.968017639558,0.310297535053,0.05,0.05,0.0,1.0,0.0,1.0,0,0,,,0
1449617125426106863,46,0,/odom,bcmd_vector,0,0,0,2.60176424954,-0.0985019339011,0.0,0.0,0.0,0.250882142656,0.968017639558,0.305502171664,0.05,0.05,0.0,1.0,0.0,1.0,0,0,,,0
1449617125461363696,47,0,/odom,bcmd_vector,0,0,0,2.60685657333,-0.0958110092508,0.0,0.0,0.0,0.250882142656,0.968017639558,0.305502171664,0.05,0.05,0.0,1.0,0.0,1.0,0,0,,,0
1449617125503000509,48,0,/odom,bcmd_vector,0,0,0,2.60938837439,-0.094438714596,0.0,0.0,0.0,0.255993645202,0.966678464442,0.305502171664,0.05,0.05,0.0,1.0,0.0,1.0,0,0,,,0
1449617125531178765,49,0,/odom,bcmd_vector,0,0,0,2.61193453628,-0.0930932522708,0.0,0.0,0.0,0.250882142656,0.968017639558,0.303583404785,0.05,0.05,0.0,1.0,0.0,1.0,0,0,,,0
1449617125560784076,50,0,/odom,bcmd_vector,0,0,0,2.61446633735,-0.0917209576161,0.0,0.0,0.0,0.255993645202,0.966678464442,0.303583404785,0.05,0.05,0.0,1.0,0.0,1.0,0,0,,,0
1449617125598960718,51,0,/odom,bcmd_vector,0,0,0,2.61952993948,-0.0889763683066,0.0,0.0,0.0,0.255993645202,0.966678464442,0.300705003963,0.05,0.05,0.0,1.0,0.0,1.0,0,0,,,0
1449617125656405564,52,0,/odom,bcmd_vector,0,0,0,2.61952993948,-0.0889763683066,0.0,0.0,0.0,0.255993645202,0.966678464442,0.299745669992,0.05,0.05,0.0,1.0,0.0,1.0,0,0,,,0
1449617125731998371,53,0,/odom,bcmd_vector,0,0,0,2.62459354161,-0.0862317789971,0.0,0.0,0.0,0.255993645202,0.966678464442,0.296866673754,0.05,0.05,0.0,1.0,0.0,1.0,0,0,,,0
1449617125759004907,54,0,/odom,bcmd_vector,0,0,0,2.62964250016,-0.0834605106194,0.0,0.0,0.0,0.255993645202,0.966678464442,0.296866673754,0.05,0.05,0.0,1.0,0.0,1.0,0,0,,,0
1449617125794216140,55,0,/odom,bcmd_vector,0,0,0,2.63215965763,-0.0820615368965,0.0,0.0,0.0,0.261098000189,0.965312298843,0.294947397547,0.05,0.05,0.0,1.0,0.0,1.0,0,0,,,0
1449617125835597439,56,0,/odom,bcmd_vector,0,0,0,2.63215965763,-0.0820615368965,0.0,0.0,0.0,0.261098000189,0.965312298843,0.294947397547,0.05,0.05,0.0,1.0,0.0,1.0,0,0,,,0
1449617125899310717,57,0,/odom,bcmd_vector,0,0,0,2.63719397259,-0.0792635894507,0.0,0.0,0.0,0.250922540614,0.968007168678,0.293987539346,0.05,0.05,0.0,1.0,0.0,1.0,0,0,,,0
1449617125931253129,58,0,/odom,bcmd_vector,0,0,0,2.64222828755,-0.0764656420049,0.0,0.0,0.0,0.250922540614,0.968007168678,0.293987539346,0.05,0.05,0.0,1.0,0.0,1.0,0,0,,,0
1449617125976498285,59,0,/odom,bcmd_vector,0,0,0,2.64222828755,-0.0764656420049,0.0,0.0,0.0,0.250922540614,0.968007168678,0.292068049171,0.05,0.05,0.0,1.0,0.0,1.0,0,0,,,0
1449617126030341169,60,0,/odom,bcmd_vector,0,0,0,2.64726260251,-0.0736676945591,0.0,0.0,0.0,0.250922540614,0.968007168678,0.290148406893,0.05,0.05,0.0,1.0,0.0,1.0,0,0,,,0
1449617126056795661,61,0,/odom,bcmd_vector,0,0,0,2.64976483528,-0.0722421980091,0.0,0.0,0.0,0.256033987268,0.966667780245,0.290148406893,0.05,0.05,0.0,1.0,0.0,1.0,0,0,,,0
1449617126124728104,62,0,/odom,bcmd_vector,0,0,0,2.65476930082,-0.0693912049091,0.0,0.0,0.0,0.256033987268,0.966667780245,1e-05,0.05,0.05,0.0,1.0,0.0,1.0,0,0,,,0
1449617126140888438,63,0,/odom,bcmd_vector,0,0,0,2.65977376637,-0.066540211809,0.0,0.0,0.0,0.256033987268,0.966667780245,1e-05,0.05,0.05,0.0,1.0,0.0,1.0,0,0,,,0
1449617126171601636,64,0,/odom,bcmd_vector,0,0,0,2.65977376637,-0.066540211809,0.0,0.0,0.0,0.256033987268,0.966667780245,1e-05,0.05,0.05,0.0,1.0,0.0,1.0,0,0,,,0
1449617126234637439,65,0,/odom,bcmd_vector,0,0,0,2.66226079497,-0.0650883516351,0.0,0.0,0.0,0.261138285236,0.965301401628,1e-05,0.05,0.05,0.0,1.0,0.0,1.0,0,0,,,0
1449617126261003749,66,0,/odom,bcmd_vector,0,0,0,2.66723485219,-0.0621846312872,0.0,0.0,0.0,0.261138285236,0.965301401628,1e-05,0.05,0.05,0.0,1.0,0.0,1.0,0,0,,,0
1449617126356588615,67,0,/odom,bcmd_vector,0,0,0,2.6722089094,-0.0592809109394,0.0,0.0,0.0,0.261138285236,0.965301401628,1e-05,0.05,0.05,0.0,1.0,0.0,1.0,0,0,,,0
1449617126407462193,68,0,/odom,bcmd_vector,0,0,0,2.67962354945,-0.0548467259884,0.0,0.0,0.0,0.266235292001,0.963908070976,1e-05,0.05,0.05,0.0,1.0,0.0,1.0,0,0,,,0
1449617126449306153,69,0,/odom,bcmd_vector,0,0,0,2.68950973619,-0.0489344793871,0.0,0.0,0.0,0.266235292001,0.963908070976,1e-05,0.05,0.05,0.0,1.0,0.0,1.0,0,0,,,0
1449617126503436710,70,0,/odom,bcmd_vector,0,0,0,2.69445282955,-0.0459783560864,0.0,0.0,0.0,0.266235292001,0.963908070976,1e-05,0.05,0.05,0.0,1.0,0.0,1.0,0,0,,,0
1449617126555791509,71,0,/odom,bcmd_vector,0,0,0,2.69939592292,-0.0430222327858,0.0,0.0,0.0,0.266235292001,0.963908070976,1e-05,0.05,0.05,0.0,1.0,0.0,1.0,0,0,,,0
1449617126611226858,72,0,/odom,bcmd_vector,0,0,0,2.70676328912,-0.038509938627,0.0,0.0,0.0,0.271324865251,0.962487827194,1e-05,0.05,0.05,0.0,1.0,0.0,1.0,0,0,,,0
1449617126666845682,73,0,/odom,bcmd_vector,0,0,0,2.71167486659,-0.0355017425212,0.0,0.0,0.0,0.271324865251,0.962487827194,1e-05,0.05,0.05,0.0,1.0,0.0,1.0,0,0,,,0
1449617126725076500,74,0,/odom,bcmd_vector,0,0,0,2.71658644405,-0.0324935464153,0.0,0.0,0.0,0.271324865251,0.962487827194,1e-05,0.05,0.05,0.0,1.0,0.0,1.0,0,0,,,0
1449617126765968687,75,0,/odom,bcmd_vector,0,0,0,2.72390571359,-0.0279036469936,0.0,0.0,0.0,0.276406862881,0.961040709935,1e-05,0.05,0.05,0.0,1.0,0.0,1.0,0,0,,,0
1449617126799904320,76,0,/odom,bcmd_vector,0,0,0,2.72878522662,-0.0248437140457,0.0,0.0,0.0,0.276406862881,0.961040709935,1e-05,0.05,0.05,0.0,1.0,0.0,1.0,0,0,,,0
1449617126832623165,77,0,/odom,bcmd_vector,0,0,0,2.73120867843,-0.0232880500215,0.0,0.0,0.0,0.281481142997,0.959566759604,1e-05,0.05,0.05,0.0,1.0,0.0,1.0,0,0,,,0
1449617126878189673,78,0,/odom,bcmd_vector,0,0,0,2.73120867843,-0.0232880500215,0.0,0.0,0.0,0.281481142997,0.959566759604,1e-05,0.05,0.05,0.0,1.0,0.0,1.0,0,0,,,0
1449617126910949404,79,0,/odom,bcmd_vector,0,0,0,2.73120867843,-0.0232880500215,0.0,0.0,0.0,0.281481142997,0.959566759604,1e-05,0.05,0.05,0.0,1.0,0.0,1.0,0,0,,,0
1449617126932951611,80,0,/odom,bcmd_vector,0,0,0,2.73605558206,-0.0201767219729,0.0,0.0,0.0,0.281481142997,0.959566759604,1e-05,0.05,0.05,0.0,1.0,0.0,1.0,0,0,,,0
1449617126977374756,81,0,/odom,bcmd_vector,0,0,0,2.73605558206,-0.0201767219729,0.0,0.0,0.0,0.281481142997,0.959566759604,1e-05,0.05,0.05,0.0,1.0,0.0,1.0,0,0,,,0
1449617127011941677,82,0,/odom,bcmd_vector,0,0,0,2.73846245852,-0.0185955341389,0.0,0.0,0.0,0.28654756392,0.958066017355,1e-05,0.05,0.05,0.0,1.0,0.0,1.0,0,0,,,0
1449617127039644323,83,0,/odom,bcmd_vector,0,0,0,2.74088591033,-0.0170398701147,0.0,0.0,0.0,0.281481142997,0.959566759604,1e-05,0.05,0.05,0.0,1.0,0.0,1.0,0,0,,,0
1449617127119656696,84,0,/odom,bcmd_vector,0,0,0,2.74088591033,-0.0170398701147,0.0,0.0,0.0,0.281481142997,0.959566759604,1e-05,0.05,0.05,0.0,1.0,0.0,1.0,0,0,,,0
1449617127165520330,85,0,/odom,bcmd_vector,0,0,0,2.74329278679,-0.0154586822807,0.0,0.0,0.0,0.28654756392,0.958066017355,1e-05,0.05,0.05,0.0,1.0,0.0,1.0,0,0,,,0
1449617127193224025,86,0,/odom,bcmd_vector,0,0,0,2.74329278679,-0.0154586822807,0.0,0.0,0.0,0.28654756392,0.958066017355,1e-05,0.05,0.05,0.0,1.0,0.0,1.0,0,0,,,0
1449617127219185903,87,0,/odom,bcmd_vector,0,0,0,2.74329278679,-0.0154586822807,0.0,0.0,0.0,0.28654756392,0.958066017355,1e-05,0.05,0.05,0.0,1.0,0.0,1.0,0,0,,,0
1449617127298726813,88,0,/odom,bcmd_vector,0,0,0,2.74329278679,-0.0154586822807,0.0,0.0,0.0,0.28654756392,0.958066017355,1e-05,0.05,0.05,0.0,1.0,0.0,1.0,0,0,,,0
1449617127369741130,89,0,/odom,bcmd_vector,0,0,0,2.74329278679,-0.0154586822807,0.0,0.0,0.0,0.28654756392,0.958066017355,1e-05,0.05,0.05,0.0,1.0,0.0,1.0,0,0,,,0
1449617127433076762,90,0,/odom,bcmd_vector,0,0,0,2.74329278679,-0.0154586822807,0.0,0.0,0.0,0.28654756392,0.958066017355,1e-05,0.05,0.05,0.0,1.0,0.0,1.0,0,0,,,0
1449617127484650434,91,0,/odom,bcmd_vector,0,0,0,2.74086933498,-0.0170143463049,0.0,0.0,0.0,0.281481142997,0.959566759604,1e-05,0.05,0.05,0.0,1.0,0.0,1.0,0,0,,,0
1449617127536802628,92,0,/odom,bcmd_vector,0,0,0,2.74086933498,-0.0170143463049,0.0,0.0,0.0,0.281481142997,0.959566759604,1e-05,0.05,0.05,0.0,1.0,0.0,1.0,0,0,,,0
1449617127554448611,93,0,/odom,bcmd_vector,0,0,0,2.74086933498,-0.0170143463049,0.0,0.0,0.0,0.281481142997,0.959566759604,1e-05,0.05,0.05,0.0,1.0,0.0,1.0,0,0,,,0
1449617127587210395,94,0,/odom,bcmd_vector,0,0,0,2.74086933498,-0.0170143463049,0.0,0.0,0.0,0.281481142997,0.959566759604,1e-05,0.05,0.05,0.0,1.0,0.0,1.0,0,0,,,0
1449617127651819784,95,0,/odom,bcmd_vector,0,0,0,2.74086933498,-0.0170143463049,0.0,0.0,0.0,0.281481142997,0.959566759604,1e-05,0.05,0.05,0.0,1.0,0.0,1.0,0,0,,,0
1449617127674427835,96,0,/odom,bcmd_vector,0,0,0,2.74086933498,-0.0170143463049,0.0,0.0,0.0,0.281481142997,0.959566759604,1e-05,0.05,0.05,0.0,1.0,0.0,1.0,0,0,,,0
1449617127731052545,97,0,/odom,bcmd_vector,0,0,0,2.74086933498,-0.0170143463049,0.0,0.0,0.0,0.281481142997,0.959566759604,1e-05,0.05,0.05,0.0,1.0,0.0,1.0,0,0,,,0
1449617127758937661,98,0,/odom,bcmd_vector,0,0,0,2.74086933498,-0.0170143463049,0.0,0.0,0.0,0.281481142997,0.959566759604,1e-05,0.05,0.05,0.0,1.0,0.0,1.0,0,0,,,0
1449617127815429067,99,0,/odom,bcmd_vector,0,0,0,2.74086933498,-0.0170143463049,0.0,0.0,0.0,0.281481142997,0.959566759604,1e-05,0.05,0.05,0.0,1.0,0.0,1.0,0,0,,,0
1449617127863482916,100,0,/odom,bcmd_vector,0,0,0,2.74086933498,-0.0170143463049,0.0,0.0,0.0,0.281481142997,0.959566759604,1e-05,0.05,0.05,0.0,1.0,0.0,1.0,0,0,,,0
1449617127926492193,101,0,/odom,bcmd_vector,0,0,0,2.74086933498,-0.0170143463049,0.0,0.0,0.0,0.281481142997,0.959566759604,1e-05,0.05,0.05,0.0,1.0,0.0,1.0,0,0,,,0
1449617127959787375,102,0,/odom,bcmd_vector,0,0,0,2.74086933498,-0.0170143463049,0.0,0.0,0.0,0.281481142997,0.959566759604,1e-05,0.05,0.05,0.0,1.0,0.0,1.0,0,0,,,0
1449617127990785387,103,0,/odom,bcmd_vector,0,0,0,2.74086933498,-0.0170143463049,0.0,0.0,0.0,0.281481142997,0.959566759604,1e-05,0.05,0.05,0.0,1.0,0.0,1.0,0,0,,,0
1449617128068237124,104,0,/odom,bcmd_vector,0,0,0,2.74086933498,-0.0170143463049,0.0,0.0,0.0,0.281481142997,0.959566759604,1e-05,0.05,0.05,0.0,1.0,0.0,1.0,0,0,,,0
1449617128130912851,105,0,/odom,bcmd_vector,0,0,0,2.74086933498,-0.0170143463049,0.0,0.0,0.0,0.281481142997,0.959566759604,1e-05,0.05,0.05,0.0,1.0,0.0,1.0,0,0,,,0
1449617128152650623,106,0,/odom,bcmd_vector,0,0,0,2.74086933498,-0.0170143463049,0.0,0.0,0.0,0.281481142997,0.959566759604,1e-05,0.05,0.05,0.0,1.0,0.0,1.0,0,0,,,0
1449617128218977354,107,0,/odom,bcmd_vector,0,0,0,2.74086933498,-0.0170143463049,0.0,0.0,0.0,0.281481142997,0.959566759604,1e-05,0.05,0.05,0.0,1.0,0.0,1.0,0,0,,,0
1449617128251696480,108,0,/odom,bcmd_vector,0,0,0,2.74086933498,-0.0170143463049,0.0,0.0,0.0,0.281481142997,0.959566759604,1e-05,0.05,0.05,0.0,1.0,0.0,1.0,0,0,,,0
1449617128321947894,109,0,/odom,bcmd_vector,0,0,0,2.74086933498,-0.0170143463049,0.0,0.0,0.0,0.281481142997,0.959566759604,1e-05,0.05,0.05,0.0,1.0,0.0,1.0,0,0,,,0
1449617128380711650,110,0,/odom,bcmd_vector,0,0,0,2.74086933498,-0.0170143463049,0.0,0.0,0.0,0.281481142997,0.959566759604,1e-05,0.05,0.05,0.0,1.0,0.0,1.0,0,0,,,0
1449617128399309133,111,0,/odom,bcmd_vector,0,0,0,2.74086933498,-0.0170143463049,0.0,0.0,0.0,0.281481142997,0.959566759604,1e-05,0.05,0.05,0.0,1.0,0.0,1.0,0,0,,,0
1449617128456652193,112,0,/odom,bcmd_vector,0,0,0,2.74086933498,-0.0170143463049,0.0,0.0,0.0,0.281481142997,0.959566759604,1e-05,0.05,0.05,0.0,1.0,0.0,1.0,0,0,,,0
1449617128504996156,113,0,/odom,bcmd_vector,0,0,0,2.74086933498,-0.0170143463049,0.0,0.0,0.0,0.281481142997,0.959566759604,1e-05,0.05,0.05,0.0,1.0,0.0,1.0,0,0,,,0
1449617128530773818,114,0,/odom,bcmd_vector,0,0,0,2.74086933498,-0.0170143463049,0.0,0.0,0.0,0.281481142997,0.959566759604,1e-05,0.05,0.05,0.0,1.0,0.0,1.0,0,0,,,0
1449617128573042513,115,0,/odom,bcmd_vector,0,0,0,2.74086933498,-0.0170143463049,0.0,0.0,0.0,0.281481142997,0.959566759604,1e-05,0.05,0.05,0.0,1.0,0.0,1.0,0,0,,,0
1449617128606179765,116,0,/odom,bcmd_vector,0,0,0,2.74086933498,-0.0170143463049,0.0,0.0,0.0,0.281481142997,0.959566759604,1e-05,0.05,0.05,0.0,1.0,0.0,1.0,0,0,,,0
1449617128681230780,117,0,/odom,bcmd_vector,0,0,0,2.74086933498,-0.0170143463049,0.0,0.0,0.0,0.281481142997,0.959566759604,1e-05,0.05,0.05,0.0,1.0,0.0,1.0,0,0,,,0
1449617128724991622,118,0,/odom,bcmd_vector,0,0,0,2.74086933498,-0.0170143463049,0.0,0.0,0.0,0.281481142997,0.959566759604,1e-05,0.05,0.05,0.0,1.0,0.0,1.0,0,0,,,0
1449617128782642088,119,0,/odom,bcmd_vector,0,0,0,2.74086933498,-0.0170143463049,0.0,0.0,0.0,0.281481142997,0.959566759604,1e-05,0.05,0.05,0.0,1.0,0.0,1.0,0,0,,,0
1449617128815675687,120,0,/odom,bcmd_vector,0,0,0,2.74086933498,-0.0170143463049,0.0,0.0,0.0,0.281481142997,0.959566759604,1e-05,0.05,0.05,0.0,1.0,0.0,1.0,0,0,,,0
1449617128894512392,121,0,/odom,bcmd_vector,0,0,0,2.74086933498,-0.0170143463049,0.0,0.0,0.0,0.281481142997,0.959566759604,1e-05,0.05,0.05,0.0,1.0,0.0,1.0,0,0,,,0
1449617128935206592,122,0,/odom,bcmd_vector,0,0,0,2.74086933498,-0.0170143463049,0.0,0.0,0.0,0.281481142997,0.959566759604,1e-05,0.05,0.05,0.0,1.0,0.0,1.0,0,0,,,0
1449617128976204904,123,0,/odom,bcmd_vector,0,0,0,2.74086933498,-0.0170143463049,0.0,0.0,0.0,0.281481142997,0.959566759604,1e-05,0.05,0.05,0.0,1.0,0.0,1.0,0,0,,,0
1449617129029557186,124,0,/odom,bcmd_vector,0,0,0,2.74086933498,-0.0170143463049,0.0,0.0,0.0,0.281481142997,0.959566759604,1e-05,0.05,0.05,0.0,1.0,0.0,1.0,0,0,,,0
1449617129093865504,125,0,/odom,bcmd_vector,0,0,0,2.74086933498,-0.0170143463049,0.0,0.0,0.0,0.281481142997,0.959566759604,1e-05,0.05,0.05,0.0,1.0,0.0,1.0,0,0,,,0
1449617129146700091,126,0,/odom,bcmd_vector,0,0,0,2.74086933498,-0.0170143463049,0.0,0.0,0.0,0.271365032416,0.962476503184,0.12001,0.05,0.05,0.0,1.0,0.0,1.0,0,0,,,0
1449617129174497829,127,0,/odom,bcmd_vector,0,0,0,2.74086933498,-0.0170143463049,0.0,0.0,0.0,0.271365032416,0.962476503184,0.12001,0.05,0.05,0.0,1.0,0.0,1.0,0,0,,,0
1449617129227851628,128,0,/odom,bcmd_vector,0,0,0,2.74086933498,-0.0170143463049,0.0,0.0,0.0,0.271365032416,0.962476503184,0.12001,0.05,0.05,0.0,1.0,0.0,1.0,0,0,,,0
1449617129249549953,129,0,/odom,bcmd_vector,0,0,0,2.74086933498,-0.0170143463049,0.0,0.0,0.0,0.271365032416,0.962476503184,0.12001,0.05,0.05,0.0,1.0,0.0,1.0,0,0,,,0
1449617129306278664,130,0,/odom,bcmd_vector,0,0,0,2.74086933498,-0.0170143463049,0.0,0.0,0.0,0.271365032416,0.962476503184,0.12001,0.05,0.05,0.0,1.0,0.0,1.0,0,0,,,0
1449617129331160175,131,0,/odom,bcmd_vector,0,0,0,2.74086933498,-0.0170143463049,0.0,0.0,0.0,0.271365032416,0.962476503184,0.12001,0.05,0.05,0.0,1.0,0.0,1.0,0,0,,,0
1449617129403718188,132,0,/odom,bcmd_vector,0,0,0,2.74086933498,-0.0170143463049,0.0,0.0,0.0,0.271365032416,0.962476503184,0.12001,0.05,0.05,0.0,1.0,0.0,1.0,0,0,,,0
1449617129488023872,133,0,/odom,bcmd_vector,0,0,0,2.74086933498,-0.0170143463049,0.0,0.0,0.0,0.271365032416,0.962476503184,0.12001,0.05,0.05,0.0,1.0,0.0,1.0,0,0,,,0
1449617129543871058,134,0,/odom,bcmd_vector,0,0,0,2.74086933498,-0.0170143463049,0.0,0.0,0.0,0.271365032416,0.962476503184,0.12001,0.05,0.05,0.0,1.0,0.0,1.0,0,0,,,0
1449617129577763696,135,0,/odom,bcmd_vector,0,0,0,2.74086933498,-0.0170143463049,0.0,0.0,0.0,0.271365032416,0.962476503184,0.12001,0.05,0.05,0.0,1.0,0.0,1.0,0,0,,,0
1449617129626746889,136,0,/odom,bcmd_vector,0,0,0,2.74086933498,-0.0170143463049,0.0,0.0,0.0,0.271365032416,0.962476503184,0.12001,0.05,0.05,0.0,1.0,0.0,1.0,0,0,,,0
1449617129662640058,137,0,/odom,bcmd_vector,0,0,0,2.74086933498,-0.0170143463049,0.0,0.0,0.0,0.271365032416,0.962476503184,0.12001,0.05,0.05,0.0,1.0,0.0,1.0,0,0,,,0
1449617129697134585,138,0,/odom,bcmd_vector,0,0,0,2.74086933498,-0.0170143463049,0.0,0.0,0.0,0.271365032416,0.962476503184,0.12001,0.05,0.05,0.0,1.0,0.0,1.0,0,0,,,0
1449617129707138604,139,0,/odom,bcmd_vector,0,0,0,2.74086933498,-0.0170143463049,0.0,0.0,0.0,0.271365032416,0.962476503184,0.12001,0.05,0.05,0.0,1.0,0.0,1.0,0,0,,,0
1449617129766740971,140,0,/odom,bcmd_vector,0,0,0,2.74086933498,-0.0170143463049,0.0,0.0,0.0,0.271365032416,0.962476503184,0.12001,0.05,0.05,0.0,1.0,0.0,1.0,0,0,,,0
1449617129795881476,141,0,/odom,bcmd_vector,0,0,0,2.74086933498,-0.0170143463049,0.0,0.0,0.0,0.271365032416,0.962476503184,0.12001,0.05,0.05,0.0,1.0,0.0,1.0,0,0,,,0
1449617129827100927,142,0,/odom,bcmd_vector,0,0,0,2.74086933498,-0.0170143463049,0.0,0.0,0.0,0.271365032416,0.962476503184,0.12001,0.05,0.05,0.0,1.0,0.0,1.0,0,0,,,0
1449617129875653686,143,0,/odom,bcmd_vector,0,0,0,2.74086933498,-0.0170143463049,0.0,0.0,0.0,0.271365032416,0.962476503184,0.12001,0.05,0.05,0.0,1.0,0.0,1.0,0,0,,,0
1449617129906356584,144,0,/odom,bcmd_vector,0,0,0,2.74086933498,-0.0170143463049,0.0,0.0,0.0,0.271365032416,0.962476503184,0.12001,0.05,0.05,0.0,1.0,0.0,1.0,0,0,,,0
1449617129944035901,145,0,/odom,bcmd_vector,0,0,0,2.74086933498,-0.0170143463049,0.0,0.0,0.0,0.271365032416,0.962476503184,0.12001,0.05,0.05,0.0,1.0,0.0,1.0,0,0,,,0
1449617129991873814,146,0,/odom,bcmd_vector,0,0,0,2.74327621144,-0.015433158471,0.0,0.0,0.0,0.276446969649,0.96102917384,0.12001,0.05,0.05,0.0,1.0,0.0,1.0,0,0,,,0
1449617130037529404,147,0,/odom,bcmd_vector,0,0,0,2.74327621144,-0.015433158471,0.0,0.0,0.0,0.276446969649,0.96102917384,0.12001,0.05,0.05,0.0,1.0,0.0,1.0,0,0,,,0
1449617130062746354,148,0,/odom,bcmd_vector,0,0,0,2.74327621144,-0.015433158471,0.0,0.0,0.0,0.276446969649,0.96102917384,0.12001,0.05,0.05,0.0,1.0,0.0,1.0,0,0,,,0
1449617130101884077,149,0,/odom,bcmd_vector,0,0,0,2.74327621144,-0.015433158471,0.0,0.0,0.0,0.276446969649,0.96102917384,0.12001,0.05,0.05,0.0,1.0,0.0,1.0,0,0,,,0
1449617130168206109,150,0,/odom,bcmd_vector,0,0,0,2.74327621144,-0.015433158471,0.0,0.0,0.0,0.276446969649,0.96102917384,0.12001,0.05,0.05,0.0,1.0,0.0,1.0,0,0,,,0
1449617130227194085,151,0,/odom,bcmd_vector,0,0,0,2.74569966325,-0.0138774944467,0.0,0.0,0.0,0.271365032416,0.962476503184,0.12001,0.05,0.05,0.0,1.0,0.0,1.0,0,0,,,0
1449617130289672044,152,0,/odom,bcmd_vector,0,0,0,2.74569966325,-0.0138774944467,0.0,0.0,0.0,0.271365032416,0.962476503184,0.12001,0.05,0.05,0.0,1.0,0.0,1.0,0,0,,,0
1449617130321370667,153,0,/odom,bcmd_vector,0,0,0,2.74810653971,-0.0122963066127,0.0,0.0,0.0,0.276446969649,0.96102917384,0.12001,0.05,0.05,0.0,1.0,0.0,1.0,0,0,,,0
1449617130346589730,154,0,/odom,bcmd_vector,0,0,0,2.74810653971,-0.0122963066127,0.0,0.0,0.0,0.276446969649,0.96102917384,0.136899438528,0.05,0.05,0.0,1.0,0.0,1.0,0,0,,,0
1449617130415369768,155,0,/odom,bcmd_vector,0,0,0,2.74810653971,-0.0122963066127,0.0,0.0,0.0,0.276446969649,0.96102917384,0.136899438528,0.05,0.05,0.0,1.0,0.0,1.0,0,0,,,0
1449617130451935676,156,0,/odom,bcmd_vector,0,0,0,2.74810653971,-0.0122963066127,0.0,0.0,0.0,0.276446969649,0.96102917384,0.136899438528,0.05,0.05,0.0,1.0,0.0,1.0,0,0,,,0
1449617130480886953,157,0,/odom,bcmd_vector,0,0,0,2.75052999153,-0.0107406425884,0.0,0.0,0.0,0.271365032416,0.962476503184,0.136736315096,0.05,0.05,0.0,1.0,0.0,1.0,0,0,,,0
1449617130509297663,158,0,/odom,bcmd_vector,0,0,0,2.75052999153,-0.0107406425884,0.0,0.0,0.0,0.271365032416,0.962476503184,0.136736315096,0.05,0.05,0.0,1.0,0.0,1.0,0,0,,,0
1449617130567456515,159,0,/odom,bcmd_vector,0,0,0,2.75052999153,-0.0107406425884,0.0,0.0,0.0,0.271365032416,0.962476503184,0.136736315096,0.05,0.05,0.0,1.0,0.0,1.0,0,0,,,0
1449617130577612149,160,0,/odom,bcmd_vector,0,0,0,2.75293686798,-0.00915945475446,0.0,0.0,0.0,0.280192229074,0.959943912302,0.148073493729,0.05,0.05,0.0,1.0,0.0,1.0,0,0,,,0
1449617130630231220,161,0,/odom,bcmd_vector,0,0,0,2.75293686798,-0.00915945475446,0.0,0.0,0.0,0.280192229074,0.959943912302,0.148073493729,0.05,0.05,0.0,1.0,0.0,1.0,0,0,,,0
1449617130671717754,162,0,/odom,bcmd_vector,0,0,0,2.75293686798,-0.00915945475446,0.0,0.0,0.0,0.280192229074,0.959943912302,0.148073493729,0.05,0.05,0.0,1.0,0.0,1.0,0,0,,,0
1449617130711541451,163,0,/odom,bcmd_vector,0,0,0,2.75293686798,-0.00915945475446,0.0,0.0,0.0,0.280057898431,0.959983111063,0.148073493729,0.05,0.05,0.0,1.0,0.0,1.0,0,0,,,0
1449617130758189212,164,0,/odom,bcmd_vector,0,0,0,2.75293686798,-0.00915945475446,0.0,0.0,0.0,0.280057898431,0.959983111063,0.148073493729,0.05,0.05,0.0,1.0,0.0,1.0,0,0,,,0
1449617130813560465,165,0,/odom,bcmd_vector,0,0,0,2.75532690028,-0.00755291970194,0.0,0.0,0.0,0.285126539225,0.958489883426,0.148073493729,0.05,0.05,0.0,1.0,0.0,1.0,0,0,,,0
1449617130843956319,166,0,/odom,bcmd_vector,0,0,0,2.75532690028,-0.00755291970194,0.0,0.0,0.0,0.286647591817,0.958036094365,0.150867144356,0.05,0.05,0.0,1.0,0.0,1.0,0,0,,,0
1449617130872685153,167,0,/odom,bcmd_vector,0,0,0,2.75773377674,-0.00597173186796,0.0,0.0,0.0,0.28158132761,0.959537365579,0.150867144356,0.05,0.05,0.0,1.0,0.0,1.0,0,0,,,0
1449617130915644080,168,0,/odom,bcmd_vector,0,0,0,2.75773377674,-0.00597173186796,0.0,0.0,0.0,0.280192229074,0.959943912302,0.148073493729,0.05,0.05,0.0,1.0,0.0,1.0,0,0,,,0
1449617130942555798,169,0,/odom,bcmd_vector,0,0,0,2.75773377674,-0.00597173186796,0.0,0.0,0.0,0.280192229074,0.959943912302,0.148073493729,0.05,0.05,0.0,1.0,0.0,1.0,0,0,,,0
1449617131003783024,170,0,/odom,bcmd_vector,0,0,0,2.75773377674,-0.00597173186796,0.0,0.0,0.0,0.278668156334,0.960387452357,0.148073493729,0.05,0.05,0.0,1.0,0.0,1.0,0,0,,,0
1449617131025124344,171,0,/odom,bcmd_vector,0,0,0,2.76253068549,-0.00278400898145,0.0,0.0,0.0,0.278668156334,0.960387452357,0.148073493729,0.05,0.05,0.0,1.0,0.0,1.0,0,0,,,0
1449617131078259257,172,0,/odom,bcmd_vector,0,0,0,2.76253068549,-0.00278400898145,0.0,0.0,0.0,0.278668156334,0.960387452357,0.148073493729,0.05,0.05,0.0,1.0,0.0,1.0,0,0,,,0
1449617131132547822,173,0,/odom,bcmd_vector,0,0,0,2.76253068549,-0.00278400898145,0.0,0.0,0.0,0.280192229074,0.959943912302,0.148073493729,0.05,0.05,0.0,1.0,0.0,1.0,0,0,,,0
1449617131167178688,174,0,/odom,bcmd_vector,0,0,0,2.76492071779,-0.00117747392894,0.0,0.0,0.0,0.285260660866,0.958449975409,0.148073493729,0.05,0.05,0.0,1.0,0.0,1.0,0,0,,,0
1449617131207929972,175,0,/odom,bcmd_vector,0,0,0,2.76492071779,-0.00117747392894,0.0,0.0,0.0,0.285260660866,0.958449975409,0.148073493729,0.05,0.05,0.0,1.0,0.0,1.0,0,0,,,0
1449617131228349121,176,0,/odom,bcmd_vector,0,0,0,2.76970078238,0.0020355961761,0.0,0.0,0.0,0.285260660866,0.958449975409,0.148073493729,0.05,0.05,0.0,1.0,0.0,1.0,0,0,,,0
1449617131270835337,177,0,/odom,bcmd_vector,0,0,0,2.76970078238,0.0020355961761,0.0,0.0,0.0,0.285260660866,0.958449975409,0.148073493729,0.05,0.05,0.0,1.0,0.0,1.0,0,0,,,0
1449617131303853518,178,0,/odom,bcmd_vector,0,0,0,2.76970078238,0.0020355961761,0.0,0.0,0.0,0.285260660866,0.958449975409,0.150867144356,0.05,0.05,0.0,1.0,0.0,1.0,0,0,,,0
1449617131354993397,179,0,/odom,bcmd_vector,0,0,0,2.77207370359,0.00366729902511,0.0,0.0,0.0,0.286587546537,0.958054058063,0.12001,0.05,0.05,0.0,1.0,0.0,1.0,0,0,,,0
1449617131394737326,180,0,/odom,bcmd_vector,0,0,0,2.77446373589,0.00527383407762,0.0,0.0,0.0,0.281521188248,0.959555011746,0.12001,0.05,0.05,0.0,1.0,0.0,1.0,0,0,,,0
1449617131427615398,181,0,/odom,bcmd_vector,0,0,0,2.77446373589,0.00527383407762,0.0,0.0,0.0,0.281521188248,0.959555011746,0.12001,0.05,0.05,0.0,1.0,0.0,1.0,0,0,,,0
1449617131485931017,182,0,/odom,bcmd_vector,0,0,0,2.7768366571,0.00690553692664,0.0,0.0,0.0,0.286587546537,0.958054058063,0.12001,0.05,0.05,0.0,1.0,0.0,1.0,0,0,,,0
1449617131504269449,183,0,/odom,bcmd_vector,0,0,0,2.7768366571,0.00690553692664,0.0,0.0,0.0,0.286587546537,0.958054058063,0.12001,0.05,0.05,0.0,1.0,0.0,1.0,0,0,,,0
1449617131542327855,184,0,/odom,bcmd_vector,0,0,0,2.78158249952,0.0101689426247,0.0,0.0,0.0,0.28880182757,0.957388899242,0.150867144356,0.05,0.05,0.0,1.0,0.0,1.0,0,0,,,0
1449617131598186673,185,0,/odom,bcmd_vector,0,0,0,2.78158249952,0.0101689426247,0.0,0.0,0.0,0.28880182757,0.957388899242,0.150867144356,0.05,0.05,0.0,1.0,0.0,1.0,0,0,,,0
1449617131627587647,186,0,/odom,bcmd_vector,0,0,0,2.78397253182,0.0117754776772,0.0,0.0,0.0,0.285260660866,0.958449975409,0.150867144356,0.05,0.05,0.0,1.0,0.0,1.0,0,0,,,0
1449617131676255165,187,0,/odom,bcmd_vector,0,0,0,2.78634545302,0.0134071805262,0.0,0.0,0.0,0.290321127939,0.95692927778,0.150867144356,0.05,0.05,0.0,1.0,0.0,1.0,0,0,,,0
1449617131712900254,188,0,/odom,bcmd_vector,0,0,0,2.78634545302,0.0134071805262,0.0,0.0,0.0,0.30093553519,0.953644484942,0.106168734322,0.05,0.05,0.0,1.0,0.0,1.0,0,0,,,0
1449617131793954703,189,0,/odom,bcmd_vector,0,0,0,2.78634545302,0.0134071805262,0.0,0.0,0.0,0.286587546537,0.958054058063,0.134181405355,0.05,0.05,0.0,1.0,0.0,1.0,0,0,,,0
1449617131844928819,190,0,/odom,bcmd_vector,0,0,0,2.79107391934,0.0166955717879,0.0,0.0,0.0,0.286587546537,0.958054058063,0.134181405355,0.05,0.05,0.0,1.0,0.0,1.0,0,0,,,0
1449617131883822504,191,0,/odom,bcmd_vector,0,0,0,2.79342946445,0.0183522602005,0.0,0.0,0.0,0.291645903058,0.956526354697,0.134181405355,0.05,0.05,0.0,1.0,0.0,1.0,0,0,,,0
1449617131943029638,192,0,/odom,bcmd_vector,0,0,0,2.79342946445,0.0183522602005,0.0,0.0,0.0,0.291645903058,0.956526354697,0.134181405355,0.05,0.05,0.0,1.0,0.0,1.0,0,0,,,0
1449617131987368137,193,0,/odom,bcmd_vector,0,0,0,2.79580238566,0.0199839630496,0.0,0.0,0.0,0.266355969929,0.963874731116,0.161592957698,0.05,0.05,0.0,1.0,0.0,1.0,0,0,,,0
1449617132070414283,194,0,/odom,bcmd_vector,0,0,0,2.79815793077,0.0216406514622,0.0,0.0,0.0,0.271445365327,0.962453850136,0.161130708875,0.05,0.05,0.0,1.0,0.0,1.0,0,0,,,0
1449617132179197326,195,0,/odom,bcmd_vector,0,0,0,2.79815793077,0.0216406514622,0.0,0.0,0.0,0.271445365327,0.962453850136,0.161130708875,0.05,0.05,0.0,1.0,0.0,1.0,0,0,,,0
1449617132243447743,196,0,/odom,bcmd_vector,0,0,0,2.80285138181,0.0249788288279,0.0,0.0,0.0,0.291645903058,0.956526354697,0.133561942449,0.05,0.05,0.0,1.0,0.0,1.0,0,0,,,0
1449617132303108252,197,0,/odom,bcmd_vector,0,0,0,2.80285138181,0.0249788288279,0.0,0.0,0.0,0.271445365327,0.962453850136,0.187002706394,0.05,0.05,0.0,1.0,0.0,1.0,0,0,,,0
1449617132372208063,198,0,/odom,bcmd_vector,0,0,0,2.80518928774,0.026660317781,0.0,0.0,0.0,0.27652718174,0.961006096629,0.187002706394,0.05,0.05,0.0,1.0,0.0,1.0,0,0,,,0
1449617132395164530,199,0,/odom,bcmd_vector,0,0,0,2.80754483285,0.0283170061937,0.0,0.0,0.0,0.271445365327,0.962453850136,0.172386232924,0.05,0.05,0.0,1.0,0.0,1.0,0,0,,,0
1449617132428496024,200,0,/odom,bcmd_vector,0,0,0,2.80754483285,0.0283170061937,0.0,0.0,0.0,0.271445365327,0.962453850136,0.172386232924,0.05,0.05,0.0,1.0,0.0,1.0,0,0,,,0
1449617132485924159,201,0,/odom,bcmd_vector,0,0,0,2.80988273879,0.0299984951467,0.0,0.0,0.0,0.27652718174,0.961006096629,0.172386232924,0.05,0.05,0.0,1.0,0.0,1.0,0,0,,,0
1449617132517127571,202,0,/odom,bcmd_vector,0,0,0,2.81223828389,0.0316551835594,0.0,0.0,0.0,0.271445365327,0.962453850136,0.17117425045,0.05,0.05,0.0,1.0,0.0,1.0,0,0,,,0
1449617132594573906,203,0,/odom,bcmd_vector,0,0,0,2.81223828389,0.0316551835594,0.0,0.0,0.0,0.271445365327,0.962453850136,0.17117425045,0.05,0.05,0.0,1.0,0.0,1.0,0,0,,,0
1449617132658219170,204,0,/odom,bcmd_vector,0,0,0,2.81693173494,0.0349933609251,0.0,0.0,0.0,0.271445365327,0.962453850136,0.17117425045,0.05,0.05,0.0,1.0,0.0,1.0,0,0,,,0
1449617132680842526,205,0,/odom,bcmd_vector,0,0,0,2.81926964087,0.0366748498781,0.0,0.0,0.0,0.27652718174,0.961006096629,0.183213892024,0.05,0.05,0.0,1.0,0.0,1.0,0,0,,,0
1449617132714275110,206,0,/odom,bcmd_vector,0,0,0,2.81926964087,0.0366748498781,0.0,0.0,0.0,0.27652718174,0.961006096629,0.183213892024,0.05,0.05,0.0,1.0,0.0,1.0,0,0,,,0
1449617132762503339,207,0,/odom,bcmd_vector,0,0,0,2.81926964087,0.0366748498781,0.0,0.0,0.0,0.27652718174,0.961006096629,0.181710444683,0.05,0.05,0.0,1.0,0.0,1.0,0,0,,,0
1449617132821576624,208,0,/odom,bcmd_vector,0,0,0,2.8286212646,0.0434008056903,0.0,0.0,0.0,0.27652718174,0.961006096629,0.181710444683,0.05,0.05,0.0,1.0,0.0,1.0,0,0,,,0
1449617132839769943,209,0,/odom,bcmd_vector,0,0,0,2.8286212646,0.0434008056903,0.0,0.0,0.0,0.27652718174,0.961006096629,0.14409196311,0.05,0.05,0.0,1.0,0.0,1.0,0,0,,,0
1449617132857863727,210,0,/odom,bcmd_vector,0,0,0,2.8286212646,0.0434008056903,0.0,0.0,0.0,0.27652718174,0.961006096629,0.143499568789,0.05,0.05,0.0,1.0,0.0,1.0,0,0,,,0
1449617132905958240,211,0,/odom,bcmd_vector,0,0,0,2.83094127026,0.0451069073906,0.0,0.0,0.0,0.281601277279,0.959531511017,0.143499568789,0.05,0.05,0.0,1.0,0.0,1.0,0,0,,,0
1449617132937620790,212,0,/odom,bcmd_vector,0,0,0,2.83327917619,0.0467883963436,0.0,0.0,0.0,0.27652718174,0.961006096629,0.143499568789,0.05,0.05,0.0,1.0,0.0,1.0,0,0,,,0
1449617133007654298,213,0,/odom,bcmd_vector,0,0,0,2.83795498806,0.0501513742497,0.0,0.0,0.0,0.27652718174,0.961006096629,0.154360861826,0.05,0.05,0.0,1.0,0.0,1.0,0,0,,,0
1449617133053016758,214,0,/odom,bcmd_vector,0,0,0,2.84027499372,0.05185747595,0.0,0.0,0.0,0.281601277279,0.959531511017,0.153924985386,0.05,0.05,0.0,1.0,0.0,1.0,0,0,,,0
1449617133106568086,215,0,/odom,bcmd_vector,0,0,0,2.84491500503,0.0552696793507,0.0,0.0,0.0,0.281601277279,0.959531511017,0.152613461225,0.05,0.05,0.0,1.0,0.0,1.0,0,0,,,0
1449617133140163049,216,0,/odom,bcmd_vector,0,0,0,2.84725291096,0.0569511683037,0.0,0.0,0.0,0.27652718174,0.961006096629,0.152613461225,0.05,0.05,0.0,1.0,0.0,1.0,0,0,,,0
1449617133187957400,217,0,/odom,bcmd_vector,0,0,0,2.84957291662,0.058657270004,0.0,0.0,0.0,0.281601277279,0.959531511017,0.152613461225,0.05,0.05,0.0,1.0,0.0,1.0,0,0,,,0
1449617133217033547,218,0,/odom,bcmd_vector,0,0,0,2.85187476289,0.0603877939097,0.0,0.0,0.0,0.286667510272,0.958030134471,0.161765213562,0.05,0.05,0.0,1.0,0.0,1.0,0,0,,,0
1449617133273702560,219,0,/odom,bcmd_vector,0,0,0,2.85419476855,0.0620938956101,0.0,0.0,0.0,0.281601277279,0.959531511017,0.160625277178,0.05,0.05,0.0,1.0,0.0,1.0,0,0,,,0
1449617133317639733,220,0,/odom,bcmd_vector,0,0,0,2.85883477986,0.0655060990107,0.0,0.0,0.0,0.281601277279,0.959531511017,0.160625277178,0.05,0.05,0.0,1.0,0.0,1.0,0,0,,,0
1449617133364712915,221,0,/odom,bcmd_vector,0,0,0,2.86113662613,0.0672366229164,0.0,0.0,0.0,0.286667510272,0.958030134471,0.14003825304,0.05,0.05,0.0,1.0,0.0,1.0,0,0,,,0
1449617133404005230,222,0,/odom,bcmd_vector,0,0,0,2.86575847806,0.0706732485225,0.0,0.0,0.0,0.286667510272,0.958030134471,0.159504223207,0.05,0.05,0.0,1.0,0.0,1.0,0,0,,,0
1449617133462471192,223,0,/odom,bcmd_vector,0,0,0,2.86807848371,0.0723793502228,0.0,0.0,0.0,0.281601277279,0.959531511017,0.12001,0.05,0.05,0.0,1.0,0.0,1.0,0,0,,,0
1449617133525394940,224,0,/odom,bcmd_vector,0,0,0,2.87038032999,0.0741098741285,0.0,0.0,0.0,0.286667510272,0.958030134471,0.12001,0.05,0.05,0.0,1.0,0.0,1.0,0,0,,,0
1449617133549644404,225,0,/odom,bcmd_vector,0,0,0,2.87498402253,0.0775709219399,0.0,0.0,0.0,0.266436419562,0.963852496148,0.165916515932,0.05,0.05,0.0,1.0,0.0,1.0,0,0,,,0
1449617133639863111,226,0,/odom,bcmd_vector,0,0,0,2.87498402253,0.0775709219399,0.0,0.0,0.0,0.286667510272,0.958030134471,0.12001,0.05,0.05,0.0,1.0,0.0,1.0,0,0,,,0
1449617133707179024,227,0,/odom,bcmd_vector,0,0,0,2.87958771508,0.0810319697513,0.0,0.0,0.0,0.266436419562,0.963852496148,0.164552192428,0.05,0.05,0.0,1.0,0.0,1.0,0,0,,,0
1449617133744015194,228,0,/odom,bcmd_vector,0,0,0,2.88419140763,0.0844930175628,0.0,0.0,0.0,0.286667510272,0.958030134471,0.12864926835,0.05,0.05,0.0,1.0,0.0,1.0,0,0,,,0
1449617133784102614,229,0,/odom,bcmd_vector,0,0,0,2.88419140763,0.0844930175628,0.0,0.0,0.0,0.286667510272,0.958030134471,0.12864926835,0.05,0.05,0.0,1.0,0.0,1.0,0,0,,,0
1449617133805108540,230,0,/odom,bcmd_vector,0,0,0,2.88879510017,0.0879540653742,0.0,0.0,0.0,0.286667510272,0.958030134471,0.145127243354,0.05,0.05,0.0,1.0,0.0,1.0,0,0,,,0
1449617133866654960,231,0,/odom,bcmd_vector,0,0,0,2.88879510017,0.0879540653742,0.0,0.0,0.0,0.266436419562,0.963852496148,0.152441675508,0.05,0.05,0.0,1.0,0.0,1.0,0,0,,,0
1449617133902537635,232,0,/odom,bcmd_vector,0,0,0,2.89107852999,0.0897088182159,0.0,0.0,0.0,0.271525696347,0.962431190384,0.152441675508,0.05,0.05,0.0,1.0,0.0,1.0,0,0,,,0
1449617133942980065,233,0,/odom,bcmd_vector,0,0,0,2.89338037626,0.0914393421216,0.0,0.0,0.0,0.266436419562,0.963852496148,0.151393488508,0.05,0.05,0.0,1.0,0.0,1.0,0,0,,,0
1449617133971053956,234,0,/odom,bcmd_vector,0,0,0,2.89338037626,0.0914393421216,0.0,0.0,0.0,0.266436419562,0.963852496148,0.151393488508,0.05,0.05,0.0,1.0,0.0,1.0,0,0,,,0
1449617134040499191,235,0,/odom,bcmd_vector,0,0,0,2.89566380608,0.0931940949632,0.0,0.0,0.0,0.271525696347,0.962431190384,0.150879145748,0.05,0.05,0.0,1.0,0.0,1.0,0,0,,,0
1449617134081990669,236,0,/odom,bcmd_vector,0,0,0,2.89566380608,0.0931940949632,0.0,0.0,0.0,0.271525696347,0.962431190384,0.150879145748,0.05,0.05,0.0,1.0,0.0,1.0,0,0,,,0
1449617134115714953,237,0,/odom,bcmd_vector,0,0,0,2.89796565235,0.0949246188689,0.0,0.0,0.0,0.266436419562,0.963852496148,0.15794911872,0.05,0.05,0.0,1.0,0.0,1.0,0,0,,,0
1449617134212387132,238,0,/odom,bcmd_vector,0,0,0,2.90024908216,0.0966793717106,0.0,0.0,0.0,0.271525696347,0.962431190384,0.157312632125,0.05,0.05,0.0,1.0,0.0,1.0,0,0,,,0
1449617134252705430,239,0,/odom,bcmd_vector,0,0,0,2.90481594179,0.100188877394,0.0,0.0,0.0,0.271525696347,0.962431190384,0.157312632125,0.05,0.05,0.0,1.0,0.0,1.0,0,0,,,0
1449617134306413113,240,0,/odom,bcmd_vector,0,0,0,2.90481594179,0.100188877394,0.0,0.0,0.0,0.271525696347,0.962431190384,0.156041891581,0.05,0.05,0.0,1.0,0.0,1.0,0,0,,,0
1449617134355954219,241,0,/odom,bcmd_vector,0,0,0,2.90938280142,0.103698383077,0.0,0.0,0.0,0.271525696347,0.962431190384,0.156041891581,0.05,0.05,0.0,1.0,0.0,1.0,0,0,,,0
1449617134378479851,242,0,/odom,bcmd_vector,0,0,0,2.90938280142,0.103698383077,0.0,0.0,0.0,0.271525696347,0.962431190384,0.154792209987,0.05,0.05,0.0,1.0,0.0,1.0,0,0,,,0
1449617134424400202,243,0,/odom,bcmd_vector,0,0,0,2.91168464769,0.105428906983,0.0,0.0,0.0,0.266436419562,0.963852496148,0.140137818332,0.05,0.05,0.0,1.0,0.0,1.0,0,0,,,0
1449617134451377495,244,0,/odom,bcmd_vector,0,0,0,2.91396807751,0.107183659825,0.0,0.0,0.0,0.271525696347,0.962431190384,0.140137818332,0.05,0.05,0.0,1.0,0.0,1.0,0,0,,,0
1449617134480481603,245,0,/odom,bcmd_vector,0,0,0,2.91396807751,0.107183659825,0.0,0.0,0.0,0.271525696347,0.962431190384,0.140137818332,0.05,0.05,0.0,1.0,0.0,1.0,0,0,,,0
1449617134516398725,246,0,/odom,bcmd_vector,0,0,0,2.91396807751,0.107183659825,0.0,0.0,0.0,0.271525696347,0.962431190384,0.140137818332,0.05,0.05,0.0,1.0,0.0,1.0,0,0,,,0
1449617134561053501,247,0,/odom,bcmd_vector,0,0,0,2.91853493714,0.110693165508,0.0,0.0,0.0,0.271525696347,0.962431190384,0.140137818332,0.05,0.05,0.0,1.0,0.0,1.0,0,0,,,0
1449617134631599197,248,0,/odom,bcmd_vector,0,0,0,2.91853493714,0.110693165508,0.0,0.0,0.0,0.271525696347,0.962431190384,0.15232688561,0.05,0.05,0.0,1.0,0.0,1.0,0,0,,,0
1449617134685361734,249,0,/odom,bcmd_vector,0,0,0,2.9276686564,0.117712176875,0.0,0.0,0.0,0.271525696347,0.962431190384,0.15232688561,0.05,0.05,0.0,1.0,0.0,1.0,0,0,,,0
1449617134699465947,250,0,/odom,bcmd_vector,0,0,0,2.93223551603,0.121221682558,0.0,0.0,0.0,0.271525696347,0.962431190384,0.151119663468,0.05,0.05,0.0,1.0,0.0,1.0,0,0,,,0
1449617134733801867,251,0,/odom,bcmd_vector,0,0,0,2.93223551603,0.121221682558,0.0,0.0,0.0,0.271525696347,0.962431190384,0.143943845727,0.05,0.05,0.0,1.0,0.0,1.0,0,0,,,0
1449617134758319044,252,0,/odom,bcmd_vector,0,0,0,2.93223551603,0.121221682558,0.0,0.0,0.0,0.271525696347,0.962431190384,0.143943845727,0.05,0.05,0.0,1.0,0.0,1.0,0,0,,,0
1449617134800380059,253,0,/odom,bcmd_vector,0,0,0,2.93223551603,0.121221682558,0.0,0.0,0.0,0.251205314076,0.96793382531,0.148750250981,0.05,0.05,0.0,1.0,0.0,1.0,0,0,,,0
1449617134886274574,254,0,/odom,bcmd_vector,0,0,0,2.93680237566,0.124731188241,0.0,0.0,0.0,0.251205314076,0.96793382531,0.148750250981,0.05,0.05,0.0,1.0,0.0,1.0,0,0,,,0
1449617134928269952,255,0,/odom,bcmd_vector,0,0,0,2.94136923528,0.128240693925,0.0,0.0,0.0,0.251205314076,0.96793382531,0.146443118409,0.05,0.05,0.0,1.0,0.0,1.0,0,0,,,0
1449617134967630834,256,0,/odom,bcmd_vector,0,0,0,2.94593609491,0.131750199608,0.0,0.0,0.0,0.251205314076,0.96793382531,0.146443118409,0.05,0.05,0.0,1.0,0.0,1.0,0,0,,,0
1449617135021625220,257,0,/odom,bcmd_vector,0,0,0,2.94593609491,0.131750199608,0.0,0.0,0.0,0.251205314076,0.96793382531,0.146443118409,0.05,0.05,0.0,1.0,0.0,1.0,0,0,,,0
1449617135078756255,258,0,/odom,bcmd_vector,0,0,0,2.95050295454,0.135259705291,0.0,0.0,0.0,0.271525696347,0.962431190384,0.140253093346,0.05,0.05,0.0,1.0,0.0,1.0,0,0,,,0
1449617135115869060,259,0,/odom,bcmd_vector,0,0,0,2.95050295454,0.135259705291,0.0,0.0,0.0,0.271525696347,0.962431190384,0.140253093346,0.05,0.05,0.0,1.0,0.0,1.0,0,0,,,0
1449617135145675238,260,0,/odom,bcmd_vector,0,0,0,2.95506981417,0.138769210975,0.0,0.0,0.0,0.251205314076,0.96793382531,0.144201335461,0.05,0.05,0.0,1.0,0.0,1.0,0,0,,,0
1449617135186195180,261,0,/odom,bcmd_vector,0,0,0,2.95506981417,0.138769210975,0.0,0.0,0.0,0.251205314076,0.96793382531,0.144201335461,0.05,0.05,0.0,1.0,0.0,1.0,0,0,,,0
1449617135213229623,262,0,/odom,bcmd_vector,0,0,0,2.9596366738,0.142278716658,0.0,0.0,0.0,0.251205314076,0.96793382531,0.144201335461,0.05,0.05,0.0,1.0,0.0,1.0,0,0,,,0
1449617135299849361,263,0,/odom,bcmd_vector,0,0,0,2.9596366738,0.142278716658,0.0,0.0,0.0,0.251205314076,0.96793382531,0.144201335461,0.05,0.05,0.0,1.0,0.0,1.0,0,0,,,0
1449617135349981970,264,0,/odom,bcmd_vector,0,0,0,2.96420353343,0.145788222341,0.0,0.0,0.0,0.251205314076,0.96793382531,0.137624458894,0.05,0.05,0.0,1.0,0.0,1.0,0,0,,,0
1449617135424320741,265,0,/odom,bcmd_vector,0,0,0,2.96877039306,0.149297728025,0.0,0.0,0.0,0.251205314076,0.96793382531,0.13677645193,0.05,0.05,0.0,1.0,0.0,1.0,0,0,,,0
1449617135464089474,266,0,/odom,bcmd_vector,0,0,0,2.97333725269,0.152807233708,0.0,0.0,0.0,0.251205314076,0.96793382531,0.139926370502,0.05,0.05,0.0,1.0,0.0,1.0,0,0,,,0
1449617135490049370,267,0,/odom,bcmd_vector,0,0,0,2.97563909896,0.154537757614,0.0,0.0,0.0,0.24608724505,0.969247681361,0.135124721966,0.05,0.05,0.0,1.0,0.0,1.0,0,0,,,0
1449617135524745823,268,0,/odom,bcmd_vector,0,0,0,2.97792252878,0.156292510455,0.0,0.0,0.0,0.251205314076,0.96793382531,0.135124721966,0.05,0.05,0.0,1.0,0.0,1.0,0,0,,,0
1449617135553616369,269,0,/odom,bcmd_vector,0,0,0,2.98022437505,0.158023034361,0.0,0.0,0.0,0.24608724505,0.969247681361,0.135124721966,0.05,0.05,0.0,1.0,0.0,1.0,0,0,,,0
1449617135579717482,270,0,/odom,bcmd_vector,0,0,0,2.98022437505,0.158023034361,0.0,0.0,0.0,0.24608724505,0.969247681361,0.135124721966,0.05,0.05,0.0,1.0,0.0,1.0,0,0,,,0
1449617135649264150,271,0,/odom,bcmd_vector,0,0,0,2.98250780487,0.159777787203,0.0,0.0,0.0,0.251205314076,0.96793382531,0.130743790968,0.05,0.05,0.0,1.0,0.0,1.0,0,0,,,0
1449617135691562250,272,0,/odom,bcmd_vector,0,0,0,2.98709308095,0.16326306395,0.0,0.0,0.0,0.251205314076,0.96793382531,0.130743790968,0.05,0.05,0.0,1.0,0.0,1.0,0,0,,,0
1449617135725051941,273,0,/odom,bcmd_vector,0,0,0,2.98939492723,0.164993587856,0.0,0.0,0.0,0.24608724505,0.969247681361,0.133132590103,0.05,0.05,0.0,1.0,0.0,1.0,0,0,,,0
1449617135796917985,274,0,/odom,bcmd_vector,0,0,0,2.99167835704,0.166748340698,0.0,0.0,0.0,0.251205314076,0.96793382531,0.133132590103,0.05,0.05,0.0,1.0,0.0,1.0,0,0,,,0
1449617135830294587,275,0,/odom,bcmd_vector,0,0,0,2.99398020331,0.168478864603,0.0,0.0,0.0,0.24608724505,0.969247681361,0.133132590103,0.05,0.05,0.0,1.0,0.0,1.0,0,0,,,0
1449617135870601045,276,0,/odom,bcmd_vector,0,0,0,2.99626363313,0.170233617445,0.0,0.0,0.0,0.251205314076,0.96793382531,0.126186082757,0.05,0.05,0.0,1.0,0.0,1.0,0,0,,,0
1449617135906462157,277,0,/odom,bcmd_vector,0,0,0,2.9985654794,0.171964141351,0.0,0.0,0.0,0.24608724505,0.969247681361,0.133586109419,0.05,0.05,0.0,1.0,0.0,1.0,0,0,,,0
1449617135950638194,278,0,/odom,bcmd_vector,0,0,0,3.00084890922,0.173718894192,0.0,0.0,0.0,0.251205314076,0.96793382531,0.133137747721,0.05,0.05,0.0,1.0,0.0,1.0,0,0,,,0
1449617135996430179,279,0,/odom,bcmd_vector,0,0,0,3.00315075549,0.175449418098,0.0,0.0,0.0,0.24608724505,0.969247681361,0.133137747721,0.05,0.05,0.0,1.0,0.0,1.0,0,0,,,0
1449617136055351849,280,0,/odom,bcmd_vector,0,0,0,3.00775444804,0.178910465909,0.0,0.0,0.0,0.24608724505,0.969247681361,0.130150730622,0.05,0.05,0.0,1.0,0.0,1.0,0,0,,,0
1449617136111827784,281,0,/odom,bcmd_vector,0,0,0,3.01235814058,0.182371513721,0.0,0.0,0.0,0.24608724505,0.969247681361,0.130150730622,0.05,0.05,0.0,1.0,0.0,1.0,0,0,,,0
1449617136162214569,282,0,/odom,bcmd_vector,0,0,0,3.01235814058,0.182371513721,0.0,0.0,0.0,0.24608724505,0.969247681361,0.128755802299,0.05,0.05,0.0,1.0,0.0,1.0,0,0,,,0
1449617136186425998,283,0,/odom,bcmd_vector,0,0,0,3.01235814058,0.182371513721,0.0,0.0,0.0,0.24608724505,0.969247681361,0.126063773068,0.05,0.05,0.0,1.0,0.0,1.0,0,0,,,0
1449617136247481578,284,0,/odom,bcmd_vector,0,0,0,3.01696183313,0.185832561532,0.0,0.0,0.0,0.24608724505,0.969247681361,0.126063773068,0.05,0.05,0.0,1.0,0.0,1.0,0,0,,,0
1449617136304672244,285,0,/odom,bcmd_vector,0,0,0,3.02158368506,0.189269187138,0.0,0.0,0.0,0.24608724505,0.969247681361,0.126063773068,0.05,0.05,0.0,1.0,0.0,1.0,0,0,,,0
1449617136353201234,286,0,/odom,bcmd_vector,0,0,0,3.02158368506,0.189269187138,0.0,0.0,0.0,0.24608724505,0.969247681361,0.123718005027,0.05,0.05,0.0,1.0,0.0,1.0,0,0,,,0
1449617136389718825,287,0,/odom,bcmd_vector,0,0,0,3.0261873776,0.19273023495,0.0,0.0,0.0,0.24608724505,0.969247681361,0.123718005027,0.05,0.05,0.0,1.0,0.0,1.0,0,0,,,0
1449617136442130606,288,0,/odom,bcmd_vector,0,0,0,3.0261873776,0.19273023495,0.0,0.0,0.0,0.24608724505,0.969247681361,0.12170291407,0.05,0.05,0.0,1.0,0.0,1.0,0,0,,,0
1449617136502357243,289,0,/odom,bcmd_vector,0,0,0,3.03080922953,0.196166860556,0.0,0.0,0.0,0.24608724505,0.969247681361,0.12170291407,0.05,0.05,0.0,1.0,0.0,1.0,0,0,,,0
1449617136520755758,290,0,/odom,bcmd_vector,0,0,0,3.03312923519,0.197872962256,0.0,0.0,0.0,0.24096230506,0.970534475194,0.127702268721,0.05,0.05,0.0,1.0,0.0,1.0,0,0,,,0
1449617136560648361,291,0,/odom,bcmd_vector,0,0,0,3.03312923519,0.197872962256,0.0,0.0,0.0,0.24096230506,0.970534475194,0.124393524435,0.05,0.05,0.0,1.0,0.0,1.0,0,0,,,0
1449617136603808724,292,0,/odom,bcmd_vector,0,0,0,3.03543108146,0.199603486162,0.0,0.0,0.0,0.24608724505,0.969247681361,0.124393524435,0.05,0.05,0.0,1.0,0.0,1.0,0,0,,,0
1449617136650219533,293,0,/odom,bcmd_vector,0,0,0,3.03775108712,0.201309587862,0.0,0.0,0.0,0.24096230506,0.970534475194,0.126570822535,0.05,0.05,0.0,1.0,0.0,1.0,0,0,,,0
1449617136670674451,294,0,/odom,bcmd_vector,0,0,0,3.04239109843,0.204721791263,0.0,0.0,0.0,0.24096230506,0.970534475194,0.122490904279,0.05,0.05,0.0,1.0,0.0,1.0,0,0,,,0
1449617136705028763,295,0,/odom,bcmd_vector,0,0,0,3.04239109843,0.204721791263,0.0,0.0,0.0,0.24096230506,0.970534475194,0.122490904279,0.05,0.05,0.0,1.0,0.0,1.0,0,0,,,0
1449617136759556869,296,0,/odom,bcmd_vector,0,0,0,3.04239109843,0.204721791263,0.0,0.0,0.0,0.24096230506,0.970534475194,0.122490904279,0.05,0.05,0.0,1.0,0.0,1.0,0,0,,,0
1449617136788231024,297,0,/odom,bcmd_vector,0,0,0,3.04703110974,0.208133994663,0.0,0.0,0.0,0.24096230506,0.970534475194,0.124682466415,0.05,0.05,0.0,1.0,0.0,1.0,0,0,,,0
1449617136848808644,298,0,/odom,bcmd_vector,0,0,0,3.04703110974,0.208133994663,0.0,0.0,0.0,0.24096230506,0.970534475194,0.12103724983,0.05,0.05,0.0,1.0,0.0,1.0,0,0,,,0
1449617136902520051,299,0,/odom,bcmd_vector,0,0,0,3.05168902133,0.211521585317,0.0,0.0,0.0,0.24096230506,0.970534475194,0.12103724983,0.05,0.05,0.0,1.0,0.0,1.0,0,0,,,0
1449617136937067620,300,0,/odom,bcmd_vector,0,0,0,3.05168902133,0.211521585317,0.0,0.0,0.0,0.24096230506,0.970534475194,0.120901495966,0.05,0.05,0.0,1.0,0.0,1.0,0,0,,,0
1449617136957930106,301,0,/odom,bcmd_vector,0,0,0,3.05402692726,0.21320307427,0.0,0.0,0.0,0.235830637198,0.971794170881,0.12001,0.05,0.05,0.0,1.0,0.0,1.0,0,0,,,0
1449617137002562122,302,0,/odom,bcmd_vector,0,0,0,3.05402692726,0.21320307427,0.0,0.0,0.0,0.235830637198,0.971794170881,0.12001,0.05,0.05,0.0,1.0,0.0,1.0,0,0,,,0
1449617137043516863,303,0,/odom,bcmd_vector,0,0,0,3.05634693292,0.21490917597,0.0,0.0,0.0,0.24096230506,0.970534475194,0.12001,0.05,0.05,0.0,1.0,0.0,1.0,0,0,,,0
1449617137115784736,304,0,/odom,bcmd_vector,0,0,0,3.06100484451,0.218296766624,0.0,0.0,0.0,0.24096230506,0.970534475194,0.12001,0.05,0.05,0.0,1.0,0.0,1.0,0,0,,,0
1449617137172347615,305,0,/odom,bcmd_vector,0,0,0,3.06334275044,0.219978255577,0.0,0.0,0.0,0.235830637198,0.971794170881,0.12001,0.05,0.05,0.0,1.0,0.0,1.0,0,0,,,0
1449617137199826841,306,0,/odom,bcmd_vector,0,0,0,3.06334275044,0.219978255577,0.0,0.0,0.0,0.235830637198,0.971794170881,0.12001,0.05,0.05,0.0,1.0,0.0,1.0,0,0,,,0
1449617137296728299,307,0,/odom,bcmd_vector,0,0,0,3.06801856231,0.223341233483,0.0,0.0,0.0,0.235830637198,0.971794170881,0.12001,0.05,0.05,0.0,1.0,0.0,1.0,0,0,,,0
1449617137392523224,308,0,/odom,bcmd_vector,0,0,0,3.07269437418,0.226704211389,0.0,0.0,0.0,0.235830637198,0.971794170881,0.120910429203,0.05,0.05,0.0,1.0,0.0,1.0,0,0,,,0
1449617137416114471,309,0,/odom,bcmd_vector,0,0,0,3.07504991928,0.228360899801,0.0,0.0,0.0,0.230692384745,0.973026733251,0.12001,0.05,0.05,0.0,1.0,0.0,1.0,0,0,,,0
1449617137529676743,310,0,/odom,bcmd_vector,0,0,0,3.07738782522,0.230042388754,0.0,0.0,0.0,0.235830637198,0.971794170881,0.12001,0.05,0.05,0.0,1.0,0.0,1.0,0,0,,,0
1449617137552970152,311,0,/odom,bcmd_vector,0,0,0,3.08445446054,0.235012453992,0.0,0.0,0.0,0.230692384745,0.973026733251,0.12001,0.05,0.05,0.0,1.0,0.0,1.0,0,0,,,0
1449617137605706409,312,0,/odom,bcmd_vector,0,0,0,3.08445446054,0.235012453992,0.0,0.0,0.0,0.230692384745,0.973026733251,0.12001,0.05,0.05,0.0,1.0,0.0,1.0,0,0,,,0
1449617137630222692,313,0,/odom,bcmd_vector,0,0,0,3.08682738175,0.236644156841,0.0,0.0,0.0,0.225547691164,0.974232127889,0.12001,0.05,0.05,0.0,1.0,0.0,1.0,0,0,,,0
1449617137686147470,314,0,/odom,bcmd_vector,0,0,0,3.08682738175,0.236644156841,0.0,0.0,0.0,0.225547691164,0.974232127889,0.12001,0.05,0.05,0.0,1.0,0.0,1.0,0,0,,,0
1449617137722184101,315,0,/odom,bcmd_vector,0,0,0,3.08918292686,0.238300845254,0.0,0.0,0.0,0.230692384745,0.973026733251,0.12001,0.05,0.05,0.0,1.0,0.0,1.0,0,0,,,0
1449617137756022271,316,0,/odom,bcmd_vector,0,0,0,3.08918292686,0.238300845254,0.0,0.0,0.0,0.364892242227,0.931049757834,0.00140682547748,0.05,0.05,0.0,1.0,0.0,1.0,0,0,,,0
1449617137807536337,317,0,/odom,bcmd_vector,0,0,0,3.09155584807,0.239932548103,0.0,0.0,0.0,0.225547691164,0.974232127889,0.12001,0.05,0.05,0.0,1.0,0.0,1.0,0,0,,,0
1449617137837689607,318,0,/odom,bcmd_vector,0,0,0,3.09628431439,0.243220939365,0.0,0.0,0.0,0.225547691164,0.974232127889,0.12001,0.05,0.05,0.0,1.0,0.0,1.0,0,0,,,0
1449617137877752204,319,0,/odom,bcmd_vector,0,0,0,3.09628431439,0.243220939365,0.0,0.0,0.0,0.225547691164,0.974232127889,0.12001,0.05,0.05,0.0,1.0,0.0,1.0,0,0,,,0
1449617137940030838,320,0,/odom,bcmd_vector,0,0,0,3.09628431439,0.243220939365,0.0,0.0,0.0,0.360707816291,0.932678868243,0.00280365095496,0.05,0.05,0.0,1.0,0.0,1.0,0,0,,,0
1449617137976451350,321,0,/odom,bcmd_vector,0,0,0,3.10104726789,0.246459177266,0.0,0.0,0.0,0.360707816291,0.932678868243,0.00280365095496,0.05,0.05,0.0,1.0,0.0,1.0,0,0,,,0
1449617138014964820,322,0,/odom,bcmd_vector,0,0,0,3.10104726789,0.246459177266,0.0,0.0,0.0,0.359967481487,0.932964850502,0.00280365095496,0.05,0.05,0.0,1.0,0.0,1.0,0,0,,,0
1449617138060796746,323,0,/odom,bcmd_vector,0,0,0,3.10343730019,0.248065712319,0.0,0.0,0.0,0.35503267015,0.934853894,0.00280365095496,0.05,0.05,0.0,1.0,0.0,1.0,0,0,,,0
1449617138099001985,324,0,/odom,bcmd_vector,0,0,0,3.1058102214,0.249697415168,0.0,0.0,0.0,0.359967481487,0.932964850502,0.00280365095496,0.05,0.05,0.0,1.0,0.0,1.0,0,0,,,0
1449617138117122263,325,0,/odom,bcmd_vector,0,0,0,3.1058102214,0.249697415168,0.0,0.0,0.0,0.359967481487,0.932964850502,0.00280365095496,0.05,0.05,0.0,1.0,0.0,1.0,0,0,,,0
1449617138163015286,326,0,/odom,bcmd_vector,0,0,0,3.1058102214,0.249697415168,0.0,0.0,0.0,0.359967481487,0.932964850502,0.00280365095496,0.05,0.05,0.0,1.0,0.0,1.0,0,0,,,0
1449617138227861410,327,0,/odom,bcmd_vector,0,0,0,3.1082002537,0.25130395022,0.0,0.0,0.0,0.355774505749,0.934571827662,0.00280365095496,0.05,0.05,0.0,1.0,0.0,1.0,0,0,,,0
1449617138284406445,328,0,/odom,bcmd_vector,0,0,0,3.1105731749,0.252935653069,0.0,0.0,0.0,0.360707816291,0.932678868243,0.00280365095496,0.05,0.05,0.0,1.0,0.0,1.0,0,0,,,0
1449617138323240114,329,0,/odom,bcmd_vector,0,0,0,3.1129632072,0.254542188122,0.0,0.0,0.0,0.35503267015,0.934853894,0.00280365095496,0.05,0.05,0.0,1.0,0.0,1.0,0,0,,,0
1449617138343710396,330,0,/odom,bcmd_vector,0,0,0,3.1129632072,0.254542188122,0.0,0.0,0.0,0.35503267015,0.934853894,0.00280365095496,0.05,0.05,0.0,1.0,0.0,1.0,0,0,,,0
1449617138389330207,331,0,/odom,bcmd_vector,0,0,0,3.1129632072,0.254542188122,0.0,0.0,0.0,0.359480312964,0.933152669498,0.00280365095496,0.05,0.05,0.0,1.0,0.0,1.0,0,0,,,0
1449617138422182167,332,0,/odom,bcmd_vector,0,0,0,3.1129632072,0.254542188122,0.0,0.0,0.0,0.359480312964,0.933152669498,0.00280365095496,0.05,0.05,0.0,1.0,0.0,1.0,0,0,,,0
1449617138444053266,333,0,/odom,bcmd_vector,0,0,0,3.1129632072,0.254542188122,0.0,0.0,0.0,0.359480312964,0.933152669498,0.00280365095496,0.05,0.05,0.0,1.0,0.0,1.0,0,0,,,0
1449617138489873246,334,0,/odom,bcmd_vector,0,0,0,3.1129632072,0.254542188122,0.0,0.0,0.0,0.355774505749,0.934571827662,0.00280365095496,0.05,0.05,0.0,1.0,0.0,1.0,0,0,,,0
1449617138525113532,335,0,/odom,bcmd_vector,0,0,0,3.1129632072,0.254542188122,0.0,0.0,0.0,0.355774505749,0.934571827662,0.00280365095496,0.05,0.05,0.0,1.0,0.0,1.0,0,0,,,0
1449617138559131857,336,0,/odom,bcmd_vector,0,0,0,3.1129632072,0.254542188122,0.0,0.0,0.0,0.355774505749,0.934571827662,0.00280365095496,0.05,0.05,0.0,1.0,0.0,1.0,0,0,,,0
1449617138623250248,337,0,/odom,bcmd_vector,0,0,0,3.1129632072,0.254542188122,0.0,0.0,0.0,0.361701083868,0.932294119862,0.00280365095496,0.05,0.05,0.0,1.0,0.0,1.0,0,0,,,0
1449617138640592418,338,0,/odom,bcmd_vector,0,0,0,3.1129632072,0.254542188122,0.0,0.0,0.0,0.361701083868,0.932294119862,0.00280365095496,0.05,0.05,0.0,1.0,0.0,1.0,0,0,,,0
1449617138678762931,339,0,/odom,bcmd_vector,0,0,0,3.1129632072,0.254542188122,0.0,0.0,0.0,0.35503267015,0.934853894,0.00280365095496,0.05,0.05,0.0,1.0,0.0,1.0,0,0,,,0
1449617138705334852,340,0,/odom,bcmd_vector,0,0,0,3.1129632072,0.254542188122,0.0,0.0,0.0,0.35503267015,0.934853894,0.00280365095496,0.05,0.05,0.0,1.0,0.0,1.0,0,0,,,0
1449617138755827157,341,0,/odom,bcmd_vector,0,0,0,3.1129632072,0.254542188122,0.0,0.0,0.0,0.35503267015,0.934853894,0.00280365095496,0.05,0.05,0.0,1.0,0.0,1.0,0,0,,,0
1449617138811941147,342,0,/odom,bcmd_vector,0,0,0,3.1129632072,0.254542188122,0.0,0.0,0.0,0.35503267015,0.934853894,0.00280365095496,0.05,0.05,0.0,1.0,0.0,1.0,0,0,,,0
1449617138854043908,343,0,/odom,bcmd_vector,0,0,0,3.1129632072,0.254542188122,0.0,0.0,0.0,0.220396700101,0.975410321139,0.12001,0.05,0.05,0.0,1.0,0.0,1.0,0,0,,,0
1449617138880299687,344,0,/odom,bcmd_vector,0,0,0,3.1129632072,0.254542188122,0.0,0.0,0.0,0.220396700101,0.975410321139,0.12001,0.05,0.05,0.0,1.0,0.0,1.0,0,0,,,0
1449617138931402932,345,0,/odom,bcmd_vector,0,0,0,3.1129632072,0.254542188122,0.0,0.0,0.0,0.220396700101,0.975410321139,0.12001,0.05,0.05,0.0,1.0,0.0,1.0,0,0,,,0
1449617138998263871,346,0,/odom,bcmd_vector,0,0,0,3.1129632072,0.254542188122,0.0,0.0,0.0,0.220396700101,0.975410321139,0.12001,0.05,0.05,0.0,1.0,0.0,1.0,0,0,,,0
1449617139023948830,347,0,/odom,bcmd_vector,0,0,0,3.1129632072,0.254542188122,0.0,0.0,0.0,0.285260660866,0.958449975409,0.148073493729,0.05,0.05,0.0,1.0,0.0,1.0,0,0,,,0
1449617139057884784,348,0,/odom,bcmd_vector,0,0,0,3.1129632072,0.254542188122,0.0,0.0,0.0,0.285260660866,0.958449975409,0.148073493729,0.05,0.05,0.0,1.0,0.0,1.0,0,0,,,0
1449617139074835214,349,0,/odom,bcmd_vector,0,0,0,3.1129632072,0.254542188122,0.0,0.0,0.0,0.206958265353,0.978349772015,0.226295716534,0.05,0.05,0.0,1.0,0.0,1.0,0,0,,,0
1449617139101725284,350,0,/odom,bcmd_vector,0,0,0,3.1129632072,0.254542188122,0.0,0.0,0.0,0.206958265353,0.978349772015,0.226295716534,0.05,0.05,0.0,1.0,0.0,1.0,0,0,,,0
1449617139231563339,351,0,/odom,bcmd_vector,0,0,0,3.1129632072,0.254542188122,0.0,0.0,0.0,0.206958265353,0.978349772015,0.226295716534,0.05,0.05,0.0,1.0,0.0,1.0,0,0,,,0
1449617139231567210,352,0,/odom,bcmd_vector,0,0,0,3.1129632072,0.254542188122,0.0,0.0,0.0,0.206958265353,0.978349772015,0.226295716534,0.05,0.05,0.0,1.0,0.0,1.0,0,0,,,0
1449617139231584255,353,0,/odom,bcmd_vector,0,0,0,3.1129632072,0.254542188122,0.0,0.0,0.0,0.285260660866,0.958449975409,0.148073493729,0.05,0.05,0.0,1.0,0.0,1.0,0,0,,,0
