%time,field.robot_pose.position.x,field.robot_pose.position.y,field.robot_pose.position.z,field.robot_pose.orientation.x,field.robot_pose.orientation.y,field.robot_pose.orientation.z,field.robot_pose.orientation.w,field.ctime,field.hasac,field.acmd.linear.x,field.acmd.linear.y,field.acmd.linear.z,field.acmd.angular.x,field.acmd.angular.y,field.acmd.angular.z,field.hasuc,field.ucmd.linear.x,field.ucmd.linear.y,field.ucmd.linear.z,field.ucmd.angular.x,field.ucmd.angular.y,field.ucmd.angular.z,field.bcmd.linear.x,field.bcmd.linear.y,field.bcmd.linear.z,field.bcmd.angular.x,field.bcmd.angular.y,field.bcmd.angular.z,field.blending,field.blendingno,field.controlstate,field.alpha,field.source,field.sxb
1449617109076561678,0.0,0.0,0.0,0.0,0.0,0.0,1.0,1449617109074255424,1,0.0,0.0,0.0,0.0,0.0,0.0,1,-0.0,0.0,0.0,0.0,0.0,-0.0,-0.0,0.0,0.0,0.0,0.0,-0.0,,0,Sharing Zero Relinquish,10.0,user,0
1449617109117432996,0.0,0.0,0.0,0.0,0.0,0.0,1.0,1449617109116203601,1,0.0,0.0,0.0,0.0,0.0,0.0,1,-0.0,0.0,0.0,0.0,0.0,-0.0,-0.0,0.0,0.0,0.0,0.0,-0.0,,0,Sharing Zero Relinquish,10.0,user,0
1449617109155062410,0.0,0.0,0.0,0.0,0.0,0.0,1.0,1449617109154202453,1,0.0,0.0,0.0,0.0,0.0,0.0,1,-0.0,0.0,0.0,0.0,0.0,-0.0,-0.0,0.0,0.0,0.0,0.0,-0.0,,0,Sharing Zero Relinquish,10.0,user,0
1449617109194793762,0.0,0.0,0.0,0.0,0.0,0.0,1.0,1449617109194200938,1,0.0,0.0,0.0,0.0,0.0,0.0,1,-0.0,0.0,0.0,0.0,0.0,-0.0,-0.0,0.0,0.0,0.0,0.0,-0.0,,0,Sharing Zero Relinquish,10.0,user,0
1449617109235124945,0.0,0.0,0.0,0.0,0.0,0.0,1.0,1449617109234403574,1,0.0,0.0,0.0,0.0,0.0,0.0,1,-0.0,0.0,0.0,0.0,0.0,-0.0,-0.0,0.0,0.0,0.0,0.0,-0.0,,0,Sharing Zero Relinquish,10.0,user,0
1449617109276211663,0.0,0.0,0.0,0.0,0.0,0.0,1.0,1449617109274259650,1,0.0,0.0,0.0,0.0,0.0,0.0,1,-0.0,0.0,0.0,0.0,0.0,-0.0,-0.0,0.0,0.0,0.0,0.0,-0.0,,0,Sharing Zero Relinquish,10.0,user,0
1449617109316621392,0.0,0.0,0.0,0.0,0.0,0.0,1.0,1449617109314387307,1,0.0,0.0,0.0,0.0,0.0,0.0,1,-0.0,0.0,0.0,0.0,0.0,-0.0,-0.0,0.0,0.0,0.0,0.0,-0.0,,0,Sharing Zero Relinquish,10.0,user,0
1449617109354751107,0.0,0.0,0.0,0.0,0.0,0.0,1.0,1449617109354205635,1,0.0,0.0,0.0,0.0,0.0,0.0,1,-0.0,0.0,0.0,0.0,0.0,-0.0,-0.0,0.0,0.0,0.0,0.0,-0.0,,0,Sharing Zero Relinquish,10.0,user,0
1449617109395372847,0.0,0.0,0.0,0.0,0.0,0.0,1.0,1449617109394218285,1,0.0,0.0,0.0,0.0,0.0,0.0,1,-0.0,0.0,0.0,0.0,0.0,-0.0,-0.0,0.0,0.0,0.0,0.0,-0.0,,0,Sharing Zero Relinquish,10.0,user,0
1449617109435482551,0.0,0.0,0.0,0.0,0.0,0.0,1.0,1449617109434212353,1,0.0,0.0,0.0,0.0,0.0,0.0,1,-0.0,0.0,0.0,0.0,0.0,-0.0,-0.0,0.0,0.0,0.0,0.0,-0.0,,0,Sharing Zero Relinquish,10.0,user,0
1449617109475209976,0.0,0.0,0.0,0.0,0.0,0.0,1.0,1449617109474199883,1,0.0,0.0,0.0,0.0,0.0,0.0,1,-0.0,0.0,0.0,0.0,0.0,-0.0,-0.0,0.0,0.0,0.0,0.0,-0.0,,0,Sharing Zero Relinquish,10.0,user,0
1449617109514860158,0.0,0.0,0.0,0.0,0.0,0.0,1.0,1449617109514208403,1,0.0,0.0,0.0,0.0,0.0,0.0,1,-0.0,0.0,0.0,0.0,0.0,-0.0,-0.0,0.0,0.0,0.0,0.0,-0.0,,0,Sharing Zero Relinquish,10.0,user,0
1449617109556267858,0.0,0.0,0.0,0.0,0.0,0.0,1.0,1449617109554246368,1,0.0,0.0,0.0,0.0,0.0,0.0,1,-0.0,0.0,0.0,0.0,0.0,-0.0,-0.0,0.0,0.0,0.0,0.0,-0.0,,0,Sharing Zero Relinquish,10.0,user,0
1449617109595804649,0.0,0.0,0.0,0.0,0.0,0.0,1.0,1449617109594241416,1,0.0,0.0,0.0,0.0,0.0,0.0,1,-0.0,0.0,0.0,0.0,0.0,-0.0,-0.0,0.0,0.0,0.0,0.0,-0.0,,0,Sharing Zero Relinquish,10.0,user,0
1449617109635307940,0.0,0.0,0.0,0.0,0.0,0.0,1.0,1449617109634199116,1,0.0,0.0,0.0,0.0,0.0,0.0,1,-0.0,0.0,0.0,0.0,0.0,-0.0,-0.0,0.0,0.0,0.0,0.0,-0.0,,0,Sharing Zero Relinquish,10.0,user,0
1449617109674848823,0.0,0.0,0.0,0.0,0.0,0.0,1.0,1449617109674194058,1,0.0,0.0,0.0,0.0,0.0,0.0,1,-0.0,0.0,0.0,0.0,0.0,-0.0,-0.0,0.0,0.0,0.0,0.0,-0.0,,0,Sharing Zero Relinquish,10.0,user,0
1449617109715481822,0.0,0.0,0.0,0.0,0.0,0.0,1.0,1449617109714234616,1,0.0,0.0,0.0,0.0,0.0,0.0,1,-0.0,0.0,0.0,0.0,0.0,-0.0,-0.0,0.0,0.0,0.0,0.0,-0.0,,0,Sharing Zero Relinquish,10.0,user,0
1449617109754772492,0.0,0.0,0.0,0.0,0.0,0.0,1.0,1449617109754215098,1,0.0,0.0,0.0,0.0,0.0,0.0,1,-0.0,0.0,0.0,0.0,0.0,-0.0,-0.0,0.0,0.0,0.0,0.0,-0.0,,0,Sharing Zero Relinquish,10.0,user,0
1449617109803345751,0.0,0.0,0.0,0.0,0.0,0.0,1.0,1449617109794230287,1,0.0,0.0,0.0,0.0,0.0,0.0,1,-0.0,0.0,0.0,0.0,0.0,-0.0,-0.0,0.0,0.0,0.0,0.0,-0.0,,0,Sharing Zero Relinquish,10.0,user,0
1449617109836987708,0.0,0.0,0.0,0.0,0.0,0.0,1.0,1449617109834217196,1,0.0,0.0,0.0,0.0,0.0,0.0,1,-0.0,0.0,0.0,0.0,0.0,-0.0,-0.0,0.0,0.0,0.0,0.0,-0.0,,0,Sharing Zero Relinquish,10.0,user,0
1449617109875363487,0.0,0.0,0.0,0.0,0.0,0.0,1.0,1449617109874208566,1,0.0,0.0,0.0,0.0,0.0,0.0,1,-0.0,0.0,0.0,0.0,0.0,-0.0,-0.0,0.0,0.0,0.0,0.0,-0.0,,0,Sharing Zero Relinquish,10.0,user,0
1449617109914395200,0.0,0.0,0.0,0.0,0.0,0.0,1.0,1449617109914193683,1,0.0,0.0,0.0,0.0,0.0,0.0,1,-0.0,0.0,0.0,0.0,0.0,-0.0,-0.0,0.0,0.0,0.0,0.0,-0.0,,0,Sharing Zero Relinquish,10.0,user,0
1449617109954643882,0.0,0.0,0.0,0.0,0.0,0.0,1.0,1449617109954201668,1,0.0,0.0,0.0,0.0,0.0,0.0,1,-0.0,0.0,0.0,0.0,0.0,-0.0,-0.0,0.0,0.0,0.0,0.0,-0.0,,0,Sharing Zero Relinquish,10.0,user,0
1449617109995341704,0.0,0.0,0.0,0.0,0.0,0.0,1.0,1449617109994201051,1,0.0,0.0,0.0,0.0,0.0,0.0,1,-0.0,0.0,0.0,0.0,0.0,-0.0,-0.0,0.0,0.0,0.0,0.0,-0.0,,0,Sharing Zero Relinquish,10.0,user,0
1449617110035350331,0.0,0.0,0.0,0.0,0.0,0.0,1.0,1449617110034205264,1,0.0,0.0,0.0,0.0,0.0,0.0,1,-0.0,0.0,0.0,0.0,0.0,-0.0,-0.0,0.0,0.0,0.0,0.0,-0.0,,0,Sharing Zero Relinquish,10.0,user,0
1449617110076276337,0.0,0.0,0.0,0.0,0.0,0.0,1.0,1449617110074240142,1,0.0,0.0,0.0,0.0,0.0,0.0,1,-0.0,0.0,0.0,0.0,0.0,-0.0,-0.0,0.0,0.0,0.0,0.0,-0.0,,0,Sharing Zero Relinquish,10.0,user,0
1449617110115065418,0.0,0.0,0.0,0.0,0.0,0.0,1.0,1449617110114565504,1,0.0,0.0,0.0,0.0,0.0,0.0,1,-0.0,0.0,0.0,0.0,0.0,-0.0,-0.0,0.0,0.0,0.0,0.0,-0.0,,0,Sharing Zero Relinquish,10.0,user,0
1449617110155035270,0.0,0.0,0.0,0.0,0.0,0.0,1.0,1449617110154235383,1,0.0,0.0,0.0,0.0,0.0,0.0,1,-0.0,0.0,0.0,0.0,0.0,-0.0,-0.0,0.0,0.0,0.0,0.0,-0.0,,0,Sharing Zero Relinquish,10.0,user,0
1449617110195420928,0.0,0.0,0.0,0.0,0.0,0.0,1.0,1449617110194223589,1,0.0,0.0,0.0,0.0,0.0,0.0,1,-0.0,0.0,0.0,0.0,0.0,-0.0,-0.0,0.0,0.0,0.0,0.0,-0.0,,0,Sharing Zero Relinquish,10.0,user,0
1449617110236686841,0.0,0.0,0.0,0.0,0.0,0.0,1.0,1449617110234205266,1,0.0,0.0,0.0,0.0,0.0,0.0,1,-0.0,0.0,0.0,0.0,0.0,-0.0,-0.0,0.0,0.0,0.0,0.0,-0.0,,0,Sharing Zero Relinquish,10.0,user,0
1449617110275402805,0.0,0.0,0.0,0.0,0.0,0.0,1.0,1449617110274209078,1,0.0,0.0,0.0,0.0,0.0,0.0,1,-0.0,0.0,0.0,0.0,0.0,-0.0,-0.0,0.0,0.0,0.0,0.0,-0.0,,0,Sharing Zero Relinquish,10.0,user,0
1449617110316380782,0.0,0.0,0.0,0.0,0.0,0.0,1.0,1449617110314220797,1,0.0,0.0,0.0,0.0,0.0,0.0,1,-0.0,0.0,0.0,0.0,0.0,-0.0,-0.0,0.0,0.0,0.0,0.0,-0.0,,0,Sharing Zero Relinquish,10.0,user,0
1449617110354540662,0.0,0.0,0.0,0.0,0.0,0.0,1.0,1449617110354205568,1,0.0,0.0,0.0,0.0,0.0,0.0,1,-0.0,0.0,0.0,0.0,0.0,-0.0,-0.0,0.0,0.0,0.0,0.0,-0.0,,0,Sharing Zero Relinquish,10.0,user,0
1449617110394540364,0.0,0.0,0.0,0.0,0.0,0.0,1.0,1449617110394204376,1,0.0,0.0,0.0,0.0,0.0,0.0,1,-0.0,0.0,0.0,0.0,0.0,-0.0,-0.0,0.0,0.0,0.0,0.0,-0.0,,0,Sharing Zero Relinquish,10.0,user,0
1449617110435635046,0.0,0.0,0.0,0.0,0.0,0.0,1.0,1449617110434197154,1,0.0,0.0,0.0,0.0,0.0,0.0,1,-0.0,0.0,0.0,0.0,0.0,-0.0,-0.0,0.0,0.0,0.0,0.0,-0.0,,0,Sharing Zero Relinquish,10.0,user,0
1449617110474928883,0.0,0.0,0.0,0.0,0.0,0.0,1.0,1449617110474215766,1,0.0,0.0,0.0,0.0,0.0,0.0,1,-0.0,0.0,0.0,0.0,0.0,-0.0,-0.0,0.0,0.0,0.0,0.0,-0.0,,0,Sharing Zero Relinquish,10.0,user,0
1449617110516002054,0.0,0.0,0.0,0.0,0.0,0.0,1.0,1449617110514235054,1,0.0,0.0,0.0,0.0,0.0,0.0,1,-0.0,0.0,0.0,0.0,0.0,-0.0,-0.0,0.0,0.0,0.0,0.0,-0.0,,0,Sharing Zero Relinquish,10.0,user,0
1449617110555201245,0.0,0.0,0.0,0.0,0.0,0.0,1.0,1449617110554229642,1,0.0,0.0,0.0,0.0,0.0,0.0,1,-0.0,0.0,0.0,0.0,0.0,-0.0,-0.0,0.0,0.0,0.0,0.0,-0.0,,0,Sharing Zero Relinquish,10.0,user,0
1449617110594884431,0.0,0.0,0.0,0.0,0.0,0.0,1.0,1449617110594353717,1,0.0,0.0,0.0,0.0,0.0,0.0,1,-0.0,0.0,0.0,0.0,0.0,-0.0,-0.0,0.0,0.0,0.0,0.0,-0.0,,0,Sharing Zero Relinquish,10.0,user,0
1449617110635197155,0.0,0.0,0.0,0.0,0.0,0.0,1.0,1449617110634213977,1,0.0,0.0,0.0,0.0,0.0,0.0,1,-0.0,0.0,0.0,0.0,0.0,-0.0,-0.0,0.0,0.0,0.0,0.0,-0.0,,0,Sharing Zero Relinquish,10.0,user,0
1449617110674438463,0.0,0.0,0.0,0.0,0.0,0.0,1.0,1449617110674197584,1,0.0,0.0,0.0,0.0,0.0,0.0,1,-0.0,0.0,0.0,0.0,0.0,-0.0,-0.0,0.0,0.0,0.0,0.0,-0.0,,0,Sharing Zero Relinquish,10.0,user,0
1449617110714920555,0.0,0.0,0.0,0.0,0.0,0.0,1.0,1449617110714207051,1,0.0,0.0,0.0,0.0,0.0,0.0,1,-0.0,0.0,0.0,0.0,0.0,-0.0,-0.0,0.0,0.0,0.0,0.0,-0.0,,0,Sharing Zero Relinquish,10.0,user,0
1449617110755939836,0.0,0.0,0.0,0.0,0.0,0.0,1.0,1449617110754212821,1,0.0,0.0,0.0,0.0,0.0,0.0,1,-0.0,0.0,0.0,0.0,0.0,-0.0,-0.0,0.0,0.0,0.0,0.0,-0.0,,0,Sharing Zero Relinquish,10.0,user,0
1449617110798206373,0.0,0.0,0.0,0.0,0.0,0.0,1.0,1449617110794985353,1,0.0,0.0,0.0,0.0,0.0,0.0,1,-0.0,0.0,0.0,0.0,0.0,-0.0,-0.0,0.0,0.0,0.0,0.0,-0.0,,0,Sharing Zero Relinquish,10.0,user,0
1449617110834546695,0.0,0.0,0.0,0.0,0.0,0.0,1.0,1449617110834206060,1,0.0,0.0,0.0,0.0,0.0,0.0,1,-0.0,0.0,0.0,0.0,0.0,-0.0,-0.0,0.0,0.0,0.0,0.0,-0.0,,0,Sharing Zero Relinquish,10.0,user,0
1449617110874485586,0.0,0.0,0.0,0.0,0.0,0.0,1.0,1449617110874345948,1,0.0,0.0,0.0,0.0,0.0,0.0,1,-0.0,0.0,0.0,0.0,0.0,-0.0,-0.0,0.0,0.0,0.0,0.0,-0.0,,0,Sharing Zero Relinquish,10.0,user,0
1449617110915092442,0.0,0.0,0.0,0.0,0.0,0.0,1.0,1449617110914424936,1,0.0,0.0,0.0,0.0,0.0,0.0,1,-0.0,0.0,0.0,0.0,0.0,-0.0,-0.0,0.0,0.0,0.0,0.0,-0.0,,0,Sharing Zero Relinquish,10.0,user,0
1449617110955071942,0.0,0.0,0.0,0.0,0.0,0.0,1.0,1449617110954200715,1,0.0,0.0,0.0,0.0,0.0,0.0,1,-0.0,0.0,0.0,0.0,0.0,-0.0,-0.0,0.0,0.0,0.0,0.0,-0.0,,0,Sharing Zero Relinquish,10.0,user,0
1449617111015486873,0.0,0.0,0.0,0.0,0.0,0.0,1.0,1449617110994231098,1,0.0,0.0,0.0,0.0,0.0,0.0,1,-0.0,0.0,0.0,0.0,0.0,-0.0,-0.0,0.0,0.0,0.0,0.0,-0.0,,0,Sharing Zero Relinquish,10.0,user,0
1449617111038231622,0.0,0.0,0.0,0.0,0.0,0.0,1.0,1449617111034444529,1,0.0,0.0,0.0,0.0,0.0,0.0,1,-0.0,0.0,0.0,0.0,0.0,-0.0,-0.0,0.0,0.0,0.0,0.0,-0.0,,0,Sharing Zero Relinquish,10.0,user,0
1449617111075879409,0.0,0.0,0.0,0.0,0.0,0.0,1.0,1449617111074207699,1,0.0,0.0,0.0,0.0,0.0,0.0,1,-0.0,0.0,0.0,0.0,0.0,-0.0,-0.0,0.0,0.0,0.0,0.0,-0.0,,0,Sharing Zero Relinquish,10.0,user,0
1449617111114606231,0.0,0.0,0.0,0.0,0.0,0.0,1.0,1449617111114226776,1,0.0,0.0,0.0,0.0,0.0,0.0,1,-0.0,0.0,0.0,0.0,0.0,-0.0,-0.0,0.0,0.0,0.0,0.0,-0.0,,0,Sharing Zero Relinquish,10.0,user,0
1449617111156051855,0.0,0.0,0.0,0.0,0.0,0.0,1.0,1449617111155290500,1,0.0,0.0,0.0,0.0,0.0,0.0,1,-0.0,0.0,0.0,0.0,0.0,-0.0,-0.0,0.0,0.0,0.0,0.0,-0.0,,0,Sharing Zero Relinquish,10.0,user,0
1449617111194637975,0.0,0.0,0.0,0.0,0.0,0.0,1.0,1449617111194233521,1,0.0,0.0,0.0,0.0,0.0,0.0,1,-0.0,0.0,0.0,0.0,0.0,-0.0,-0.0,0.0,0.0,0.0,0.0,-0.0,,0,Sharing Zero Relinquish,10.0,user,0
1449617111236155644,0.0,0.0,0.0,0.0,0.0,0.0,1.0,1449617111234893999,1,0.0,0.0,0.0,0.0,0.0,0.0,1,-0.0,0.0,0.0,0.0,0.0,-0.0,-0.0,0.0,0.0,0.0,0.0,-0.0,,0,Sharing Zero Relinquish,10.0,user,0
1449617111274513051,0.0,0.0,0.0,0.0,0.0,0.0,1.0,1449617111274199058,1,0.0,0.0,0.0,0.0,0.0,0.0,1,-0.0,0.0,0.0,0.0,0.0,-0.0,-0.0,0.0,0.0,0.0,0.0,-0.0,,0,Sharing Zero Relinquish,10.0,user,0
1449617111316506386,0.0,0.0,0.0,0.0,0.0,0.0,1.0,1449617111314461387,1,0.0,0.0,0.0,0.0,0.0,0.0,1,-0.0,0.0,0.0,0.0,0.0,-0.0,-0.0,0.0,0.0,0.0,0.0,-0.0,,0,Sharing Zero Relinquish,10.0,user,0
1449617111358432818,0.0,0.0,0.0,0.0,0.0,0.0,1.0,1449617111354208906,1,0.0,0.0,0.0,0.0,0.0,0.0,1,-0.0,0.0,0.0,0.0,0.0,-0.0,-0.0,0.0,0.0,0.0,0.0,-0.0,,0,Sharing Zero Relinquish,10.0,user,0
1449617111395197805,0.0,0.0,0.0,0.0,0.0,0.0,1.0,1449617111394220536,1,0.0,0.0,0.0,0.0,0.0,0.0,1,-0.0,0.0,0.0,0.0,0.0,-0.0,-0.0,0.0,0.0,0.0,0.0,-0.0,,0,Sharing Zero Relinquish,10.0,user,0
1449617111435130578,0.0,0.0,0.0,0.0,0.0,0.0,1.0,1449617111434226376,1,0.0,0.0,0.0,0.0,0.0,0.0,1,-0.0,0.0,0.0,0.0,0.0,-0.0,-0.0,0.0,0.0,0.0,0.0,-0.0,,0,Sharing Zero Relinquish,10.0,user,0
1449617111475138760,0.0,0.0,0.0,0.0,0.0,0.0,1.0,1449617111474266623,1,0.0,0.0,0.0,0.0,0.0,0.0,1,-0.0,0.0,0.0,0.0,0.0,-0.0,-0.0,0.0,0.0,0.0,0.0,-0.0,,0,Sharing Zero Relinquish,10.0,user,0
1449617111514467766,0.0,0.0,0.0,0.0,0.0,0.0,1.0,1449617111514195972,1,0.0,0.0,0.0,0.0,0.0,0.0,1,-0.0,0.0,0.0,0.0,0.0,-0.0,-0.0,0.0,0.0,0.0,0.0,-0.0,,0,Sharing Zero Relinquish,10.0,user,0
1449617111557423251,0.0,0.0,0.0,0.0,0.0,0.0,1.0,1449617111554243552,1,0.0,0.0,0.0,0.0,0.0,0.0,1,-0.0,0.0,0.0,0.0,0.0,-0.0,-0.0,0.0,0.0,0.0,0.0,-0.0,,0,Sharing Zero Relinquish,10.0,user,0
1449617111594475448,0.0,0.0,0.0,0.0,0.0,0.0,1.0,1449617111594195498,1,0.0,0.0,0.0,0.0,0.0,0.0,1,-0.0,0.0,0.0,0.0,0.0,-0.0,-0.0,0.0,0.0,0.0,0.0,-0.0,,0,Sharing Zero Relinquish,10.0,user,0
1449617111634716122,0.0,0.0,0.0,0.0,0.0,0.0,1.0,1449617111634216509,1,0.0,0.0,0.0,0.0,0.0,0.0,1,-0.0,0.0,0.0,0.0,0.0,-0.0,-0.0,0.0,0.0,0.0,0.0,-0.0,,0,Sharing Zero Relinquish,10.0,user,0
1449617111676979430,0.0,0.0,0.0,0.0,0.0,0.0,1.0,1449617111676167032,1,0.0,0.0,0.0,0.0,0.0,0.0,1,-0.0,0.0,0.0,0.0,0.0,-0.0,-0.0,0.0,0.0,0.0,0.0,-0.0,,0,Sharing Zero Relinquish,10.0,user,0
1449617111719148460,0.0,0.0,0.0,0.0,0.0,0.0,1.0,1449617111714197492,1,0.0,0.0,0.0,0.0,0.0,0.0,1,-0.0,0.0,0.0,0.0,0.0,-0.0,-0.0,0.0,0.0,0.0,0.0,-0.0,,0,Sharing Zero Relinquish,10.0,user,0
1449617111754865309,0.0,0.0,0.0,0.0,0.0,0.0,1.0,1449617111754191986,1,0.0,0.0,0.0,0.0,0.0,0.0,1,-0.0,0.0,0.0,0.0,0.0,-0.0,-0.0,0.0,0.0,0.0,0.0,-0.0,,0,Sharing Zero Relinquish,10.0,user,0
1449617111794651855,0.0,0.0,0.0,0.0,0.0,0.0,1.0,1449617111794209485,1,0.0,0.0,0.0,0.0,0.0,0.0,1,-0.0,0.0,0.0,0.0,0.0,-0.0,-0.0,0.0,0.0,0.0,0.0,-0.0,,0,Sharing Zero Relinquish,10.0,user,0
1449617111835005714,0.0,0.0,0.0,0.0,0.0,0.0,1.0,1449617111834201309,1,0.0,0.0,0.0,0.0,0.0,0.0,1,-0.0,0.0,0.0,0.0,0.0,-0.0,-0.0,0.0,0.0,0.0,0.0,-0.0,,0,Sharing Zero Relinquish,10.0,user,0
1449617111874690567,0.0,0.0,0.0,0.0,0.0,0.0,1.0,1449617111874215870,1,0.0,0.0,0.0,0.0,0.0,0.0,1,-0.0,0.0,0.0,0.0,0.0,-0.0,-0.0,0.0,0.0,0.0,0.0,-0.0,,0,Sharing Zero Relinquish,10.0,user,0
1449617111915251644,0.0,0.0,0.0,0.0,0.0,0.0,1.0,1449617111914213086,1,0.0,0.0,0.0,0.0,0.0,0.0,1,-0.0,0.0,0.0,0.0,0.0,-0.0,-0.0,0.0,0.0,0.0,0.0,-0.0,,0,Sharing Zero Relinquish,10.0,user,0
1449617111955462145,0.0,0.0,0.0,0.0,0.0,0.0,1.0,1449617111954218759,1,0.0,0.0,0.0,0.0,0.0,0.0,1,-0.0,0.0,0.0,0.0,0.0,-0.0,-0.0,0.0,0.0,0.0,0.0,-0.0,,0,Sharing Zero Relinquish,10.0,user,0
1449617111995849841,0.0,0.0,0.0,0.0,0.0,0.0,1.0,1449617111994201704,1,0.0,0.0,0.0,0.0,0.0,0.0,1,-0.0,0.0,0.0,0.0,0.0,-0.0,-0.0,0.0,0.0,0.0,0.0,-0.0,,0,Sharing Zero Relinquish,10.0,user,0
1449617112036060297,0.0,0.0,0.0,0.0,0.0,0.0,1.0,1449617112034296904,1,0.0,0.0,0.0,0.0,0.0,0.0,1,-0.0,0.0,0.0,0.0,0.0,-0.0,-0.0,0.0,0.0,0.0,0.0,-0.0,,0,Sharing Zero Relinquish,10.0,user,0
1449617112074397919,0.0,0.0,0.0,0.0,0.0,0.0,1.0,1449617112074195370,1,0.0,0.0,0.0,0.0,0.0,0.0,1,-0.0,0.0,0.0,0.0,0.0,-0.0,-0.0,0.0,0.0,0.0,0.0,-0.0,,0,Sharing Zero Relinquish,10.0,user,0
1449617112114570082,0.0,0.0,0.0,0.0,0.0,0.0,1.0,1449617112114203291,1,0.0,0.0,0.0,0.0,0.0,0.0,1,-0.0,0.0,0.0,0.0,0.0,-0.0,-0.0,0.0,0.0,0.0,0.0,-0.0,,0,Sharing Zero Relinquish,10.0,user,0
1449617112154689128,0.0,0.0,0.0,0.0,0.0,0.0,1.0,1449617112154226372,1,0.0,0.0,0.0,0.0,0.0,0.0,1,-0.0,0.0,0.0,0.0,0.0,-0.0,-0.0,0.0,0.0,0.0,0.0,-0.0,,0,Sharing Zero Relinquish,10.0,user,0
1449617112195056617,0.0,0.0,0.0,0.0,0.0,0.0,1.0,1449617112194216695,1,0.0,0.0,0.0,0.0,0.0,0.0,1,-0.0,0.0,0.0,0.0,0.0,-0.0,-0.0,0.0,0.0,0.0,0.0,-0.0,,0,Sharing Zero Relinquish,10.0,user,0
1449617112234506829,0.0,0.0,0.0,0.0,0.0,0.0,1.0,1449617112234204179,1,0.0,0.0,0.0,0.0,0.0,0.0,1,-0.0,0.0,0.0,0.0,0.0,-0.0,-0.0,0.0,0.0,0.0,0.0,-0.0,,0,Sharing Zero Relinquish,10.0,user,0
1449617112274404240,0.0,0.0,0.0,0.0,0.0,0.0,1.0,1449617112274193961,1,0.0,0.0,0.0,0.0,0.0,0.0,1,-0.0,0.0,0.0,0.0,0.0,-0.0,-0.0,0.0,0.0,0.0,0.0,-0.0,,0,Sharing Zero Relinquish,10.0,user,0
1449617112315670815,0.0,0.0,0.0,0.0,0.0,0.0,1.0,1449617112314215449,1,0.0,0.0,0.0,0.0,0.0,0.0,1,-0.0,0.0,0.0,0.0,0.0,-0.0,-0.0,0.0,0.0,0.0,0.0,-0.0,,0,Sharing Zero Relinquish,10.0,user,0
1449617112355153110,0.0,0.0,0.0,0.0,0.0,0.0,1.0,1449617112354242615,1,0.0,0.0,0.0,0.0,0.0,0.0,1,-0.0,0.0,0.0,0.0,0.0,-0.0,-0.0,0.0,0.0,0.0,0.0,-0.0,,0,Sharing Zero Relinquish,10.0,user,0
1449617112394794726,0.0,0.0,0.0,0.0,0.0,0.0,1.0,1449617112394208458,1,0.0,0.0,0.0,0.0,0.0,0.0,1,-0.0,0.0,0.0,0.0,0.0,-0.0,-0.0,0.0,0.0,0.0,0.0,-0.0,,0,Sharing Zero Relinquish,10.0,user,0
1449617112434649365,0.0,0.0,0.0,0.0,0.0,0.0,1.0,1449617112434205563,1,0.0,0.0,0.0,0.0,0.0,0.0,1,-0.0,0.0,0.0,0.0,0.0,-0.0,-0.0,0.0,0.0,0.0,0.0,-0.0,,0,Sharing Zero Relinquish,10.0,user,0
1449617112474514318,0.0,0.0,0.0,0.0,0.0,0.0,1.0,1449617112474240461,1,0.0,0.0,0.0,0.0,0.0,0.0,1,-0.0,0.0,0.0,0.0,0.0,-0.0,-0.0,0.0,0.0,0.0,0.0,-0.0,,0,Sharing Zero Relinquish,10.0,user,0
1449617112514902813,0.0,0.0,0.0,0.0,0.0,0.0,1.0,1449617112514376927,1,0.0,0.0,0.0,0.0,0.0,0.0,1,-0.0,0.0,0.0,0.0,0.0,-0.0,-0.0,0.0,0.0,0.0,0.0,-0.0,,0,Sharing Zero Relinquish,10.0,user,0
1449617112558163758,0.0,0.0,0.0,0.0,0.0,0.0,1.0,1449617112557632522,1,0.0,0.0,0.0,0.0,0.0,0.0,1,-0.0,0.0,0.0,0.0,0.0,-0.0,-0.0,0.0,0.0,0.0,0.0,-0.0,,0,Sharing Zero Relinquish,10.0,user,0
1449617112595174664,0.0,0.0,0.0,0.0,0.0,0.0,1.0,1449617112594199973,1,0.0,0.0,0.0,0.0,0.0,0.0,1,-0.0,0.0,0.0,0.0,0.0,-0.0,-0.0,0.0,0.0,0.0,0.0,-0.0,,0,Sharing Zero Relinquish,10.0,user,0
1449617112634823371,0.0,0.0,0.0,0.0,0.0,0.0,1.0,1449617112634205861,1,0.0,0.0,0.0,0.0,0.0,0.0,1,-0.0,0.0,0.0,0.0,0.0,-0.0,-0.0,0.0,0.0,0.0,0.0,-0.0,,0,Sharing Zero Relinquish,10.0,user,0
1449617112675787668,0.0,0.0,0.0,0.0,0.0,0.0,1.0,1449617112674211963,1,0.0,0.0,0.0,0.0,0.0,0.0,1,-0.0,0.0,0.0,0.0,0.0,-0.0,-0.0,0.0,0.0,0.0,0.0,-0.0,,0,Sharing Zero Relinquish,10.0,user,0
1449617112715365761,0.0,0.0,0.0,0.0,0.0,0.0,1.0,1449617112714480507,1,0.0,0.0,0.0,0.0,0.0,0.0,1,-0.0,0.0,0.0,0.0,0.0,-0.0,-0.0,0.0,0.0,0.0,0.0,-0.0,,0,Sharing Zero Relinquish,10.0,user,0
1449617112756406481,0.0,0.0,0.0,0.0,0.0,0.0,1.0,1449617112755836046,1,0.0,0.0,0.0,0.0,0.0,0.0,1,-0.0,0.0,0.0,0.0,0.0,-0.0,-0.0,0.0,0.0,0.0,0.0,-0.0,,0,Sharing Zero Relinquish,10.0,user,0
1449617112795005789,0.0,0.0,0.0,0.0,0.0,0.0,1.0,1449617112794462100,1,0.0,0.0,0.0,0.0,0.0,0.0,1,-0.0,0.0,0.0,0.0,0.0,-0.0,-0.0,0.0,0.0,0.0,0.0,-0.0,,0,Sharing Zero Relinquish,10.0,user,0
1449617112835017285,0.0,0.0,0.0,0.0,0.0,0.0,1.0,1449617112834210753,1,0.0,0.0,0.0,0.0,0.0,0.0,1,-0.0,0.0,0.0,0.0,0.0,-0.0,-0.0,0.0,0.0,0.0,0.0,-0.0,,0,Sharing Zero Relinquish,10.0,user,0
1449617112876034411,0.0,0.0,0.0,0.0,0.0,0.0,1.0,1449617112874219361,1,0.0,0.0,0.0,0.0,0.0,0.0,1,-0.0,0.0,0.0,0.0,0.0,-0.0,-0.0,0.0,0.0,0.0,0.0,-0.0,,0,Sharing Zero Relinquish,10.0,user,0
1449617112915646537,0.0,0.0,0.0,0.0,0.0,0.0,1.0,1449617112914208332,1,0.0,0.0,0.0,0.0,0.0,0.0,1,-0.0,0.0,0.0,0.0,0.0,-0.0,-0.0,0.0,0.0,0.0,0.0,-0.0,,0,Sharing Zero Relinquish,10.0,user,0
1449617112956121530,0.0,0.0,0.0,0.0,0.0,0.0,1.0,1449617112955496407,1,0.0,0.0,0.0,0.0,0.0,0.0,1,-0.0,0.0,0.0,0.0,0.0,-0.0,-0.0,0.0,0.0,0.0,0.0,-0.0,,0,Sharing Zero Relinquish,10.0,user,0
1449617112994940606,0.0,0.0,0.0,0.0,0.0,0.0,1.0,1449617112994200994,1,0.0,0.0,0.0,0.0,0.0,0.0,1,-0.0,0.0,0.0,0.0,0.0,-0.0,-0.0,0.0,0.0,0.0,0.0,-0.0,,0,Sharing Zero Relinquish,10.0,user,0
1449617113035613693,0.0,0.0,0.0,0.0,0.0,0.0,1.0,1449617113034357557,1,0.0,0.0,0.0,0.0,0.0,0.0,1,-0.0,0.0,0.0,0.0,0.0,-0.0,0.0,0.0,0.0,0.0,0.0,0.0,,3,Sharing Zero Relinquish,10.0,doorway_assistance,3
1449617113074905107,0.0,0.0,0.0,0.0,0.0,0.0,1.0,1449617113074250032,1,0.0,0.0,0.0,0.0,0.0,0.0,1,-0.0,0.0,0.0,0.0,0.0,-0.0,0.0,0.0,0.0,0.0,0.0,0.0,,3,Sharing Zero Relinquish,10.0,doorway_assistance,3
1449617113115669235,0.0,0.0,0.0,0.0,0.0,0.0,1.0,1449617113114290793,1,0.0,0.0,0.0,0.0,0.0,0.0,1,-0.0,0.0,0.0,0.0,0.0,-0.0,0.0,0.0,0.0,0.0,0.0,0.0,,3,Sharing Zero Relinquish,10.0,doorway_assistance,3
1449617113158200576,0.0,0.0,0.0,0.0,0.0,0.0,1.0,1449617113157655712,1,0.0,0.0,0.0,0.0,0.0,0.0,1,-0.0,0.0,0.0,0.0,0.0,-0.0,0.0,0.0,0.0,0.0,0.0,0.0,,3,Sharing Zero Relinquish,10.0,doorway_assistance,3
1449617113195106705,0.0,0.0,0.0,0.0,0.0,0.0,1.0,1449617113194268521,1,0.0,0.0,0.0,0.0,0.0,0.0,1,-0.0,0.0,0.0,0.0,0.0,-0.0,0.0,0.0,0.0,0.0,0.0,0.0,,3,Sharing Zero Relinquish,10.0,doorway_assistance,3
1449617113250357563,0.0,0.0,0.0,0.0,0.0,0.0,1.0,1449617113234308717,1,0.352,0.0,0.0,0.0,0.0,-0.0631578947368,1,-0.0,0.0,0.0,0.0,0.0,-0.0,0.352,0.0,0.0,0.0,0.0,-0.0631578947368,,3,Sharing Zero Relinquish,10.0,doorway_assistance,3
1449617113274840817,0.0,0.0,0.0,0.0,0.0,0.0,1.0,1449617113274236065,1,0.352,0.0,0.0,0.0,0.0,-0.0631578947368,1,-0.0,0.0,0.0,0.0,0.0,-0.0,0.352,0.0,0.0,0.0,0.0,-0.0631578947368,,3,Sharing Zero Relinquish,10.0,doorway_assistance,3
1449617113314625791,0.0,0.0,0.0,0.0,0.0,0.0,1.0,1449617113314228333,1,0.352,0.0,0.0,0.0,0.0,-0.0631578947368,1,-0.0,0.0,0.0,0.0,0.0,-0.0,0.352,0.0,0.0,0.0,0.0,-0.0631578947368,,3,Sharing Zero Relinquish,10.0,doorway_assistance,3
1449617113356072348,0.0,0.0,0.0,0.0,0.0,0.0,1.0,1449617113354272901,1,0.352,0.0,0.0,0.0,0.0,-0.0631578947368,1,-0.0,0.0,0.0,0.0,0.0,-0.0,0.352,0.0,0.0,0.0,0.0,-0.0631578947368,,3,Sharing Zero Relinquish,10.0,doorway_assistance,3
1449617113402126058,0.0,0.0,0.0,0.0,0.0,0.0,1.0,1449617113394212838,1,0.352,0.0,0.0,0.0,0.0,-0.0631578947368,1,-0.0,0.0,0.0,0.0,0.0,-0.0,0.352,0.0,0.0,0.0,0.0,-0.0631578947368,,3,Sharing Zero Relinquish,10.0,doorway_assistance,3
1449617113435396560,0.0,0.0,0.0,0.0,0.0,0.0,1.0,1449617113434216500,1,0.352,0.0,0.0,0.0,0.0,-0.0631578947368,1,-0.0,0.0,0.0,0.0,0.0,-0.0,0.352,0.0,0.0,0.0,0.0,-0.0631578947368,,3,Sharing Zero Relinquish,10.0,doorway_assistance,3
1449617113475509928,0.0,0.0,0.0,0.0,0.0,0.0,1.0,1449617113474255718,1,0.352,0.0,0.0,0.0,0.0,-0.0631578947368,1,-0.0,0.0,0.0,0.0,0.0,-0.0,0.352,0.0,0.0,0.0,0.0,-0.0631578947368,,3,Sharing Zero Relinquish,10.0,doorway_assistance,3
1449617113515867627,0.0,0.0,0.0,0.0,0.0,0.0,1.0,1449617113514217978,1,0.352,0.0,0.0,0.0,0.0,-0.0631578947368,1,-0.0,0.0,0.0,0.0,0.0,-0.0,0.352,0.0,0.0,0.0,0.0,-0.0631578947368,,3,Sharing Zero Relinquish,10.0,doorway_assistance,3
1449617113555234310,0.0,0.0,0.0,0.0,0.0,0.0,1.0,1449617113554241442,1,0.352,0.0,0.0,0.0,0.0,-0.0631578947368,1,-0.0,0.0,0.0,0.0,0.0,-0.0,0.352,0.0,0.0,0.0,0.0,-0.0631578947368,,3,Sharing Zero Relinquish,10.0,doorway_assistance,3
1449617113594664646,0.0,0.0,0.0,0.0,0.0,0.0,1.0,1449617113594236447,1,0.352,0.0,0.0,0.0,0.0,-0.0631578947368,1,-0.0,0.0,0.0,0.0,0.0,-0.0,0.352,0.0,0.0,0.0,0.0,-0.0631578947368,,3,Sharing Zero Relinquish,10.0,doorway_assistance,3
1449617113635371976,0.0,0.0,0.0,0.0,0.0,0.0,1.0,1449617113634420900,1,0.352,0.0,0.0,0.0,0.0,-0.0631578947368,1,-0.0,0.0,0.0,0.0,0.0,-0.0,0.352,0.0,0.0,0.0,0.0,-0.0631578947368,,3,Sharing Zero Relinquish,10.0,doorway_assistance,3
1449617113674953965,0.0,0.0,0.0,0.0,0.0,0.0,1.0,1449617113674235852,1,0.352,0.0,0.0,0.0,0.0,-0.0631578947368,1,-0.0,0.0,0.0,0.0,0.0,-0.0,0.352,0.0,0.0,0.0,0.0,-0.0631578947368,,3,Sharing Zero Relinquish,10.0,doorway_assistance,3
1449617113715209748,0.0,0.0,0.0,0.0,0.0,0.0,1.0,1449617113714672463,1,0.352,0.0,0.0,0.0,0.0,-0.0631578947368,1,-0.0,0.0,0.0,0.0,0.0,-0.0,0.352,0.0,0.0,0.0,0.0,-0.0631578947368,,3,Sharing Zero Relinquish,10.0,doorway_assistance,3
1449617113754714187,0.0,0.0,0.0,0.0,0.0,0.0,1.0,1449617113754219113,1,0.352,0.0,0.0,0.0,0.0,-0.0631578947368,1,-0.0,0.0,0.0,0.0,0.0,-0.0,0.352,0.0,0.0,0.0,0.0,-0.0631578947368,,3,Sharing Zero Relinquish,10.0,doorway_assistance,3
1449617113797246328,0.00287963245437,-3.04332289367e-05,0.0,0.0,0.0,-0.0052839997518,0.999986039576,1449617113794287087,1,0.352,0.0,0.0,0.0,0.0,-0.0631578947368,1,-0.0,0.0,0.0,0.0,0.0,-0.0,0.352,0.0,0.0,0.0,0.0,-0.0631578947368,,3,Sharing Zero Relinquish,10.0,doorway_assistance,3
1449617113836707749,0.00287963245437,-3.04332289367e-05,0.0,0.0,0.0,-0.0052839997518,0.999986039576,1449617113834298290,1,0.352,0.0,0.0,0.0,0.0,-0.0631578947368,1,-0.0,0.0,0.0,0.0,0.0,-0.0,0.352,0.0,0.0,0.0,0.0,-0.0631578947368,,3,Sharing Zero Relinquish,10.0,doorway_assistance,3
1449617113875546487,0.00287963245437,-3.04332289367e-05,0.0,0.0,0.0,-0.0052839997518,0.999986039576,1449617113874279742,1,0.352,0.0,0.0,0.0,0.0,-0.0631578947368,1,-0.0,0.0,0.0,0.0,0.0,-0.0,0.352,0.0,0.0,0.0,0.0,-0.0631578947368,,3,Sharing Zero Relinquish,10.0,doorway_assistance,3
1449617113914992653,0.00287963245437,-3.04332289367e-05,0.0,0.0,0.0,-0.0052839997518,0.999986039576,1449617113914269534,1,0.352,0.0,0.0,0.0,0.0,-0.0631578947368,1,-0.0,0.0,0.0,0.0,0.0,-0.0,0.352,0.0,0.0,0.0,0.0,-0.0631578947368,,3,Sharing Zero Relinquish,10.0,doorway_assistance,3
1449617113954674733,0.00287963245437,-3.04332289367e-05,0.0,0.0,0.0,-0.0052839997518,0.999986039576,1449617113954239508,1,0.352,0.0,0.0,0.0,0.0,-0.0631578947368,1,-0.0,0.0,0.0,0.0,0.0,-0.0,0.352,0.0,0.0,0.0,0.0,-0.0631578947368,,3,Sharing Zero Relinquish,10.0,doorway_assistance,3
1449617113994845040,0.00575878249245,-9.12962879474e-05,0.0,0.0,0.0,-0.0105678519699,0.999944158693,1449617113994317310,1,0.352,0.0,0.0,0.0,0.0,-0.0631578947368,1,-0.0,0.0,0.0,0.0,0.0,-0.0,0.352,0.0,0.0,0.0,0.0,-0.0631578947368,,3,Sharing Zero Relinquish,10.0,doorway_assistance,3
1449617114040987363,0.00575878249245,-9.12962879474e-05,0.0,0.0,0.0,-0.0105678519699,0.999944158693,1449617114034239498,1,0.352,0.0,0.0,0.0,0.0,-0.0631578947368,1,-0.0,0.0,0.0,0.0,0.0,-0.0,0.352,0.0,0.0,0.0,0.0,-0.0631578947368,,3,Sharing Zero Relinquish,10.0,doorway_assistance,3
1449617114074915699,0.00575878249245,-9.12962879474e-05,0.0,0.0,0.0,-0.0105678519699,0.999944158693,1449617114074218769,1,0.352,0.0,0.0,0.0,0.0,-0.0631578947368,1,-0.0,0.0,0.0,0.0,0.0,-0.0,0.352,0.0,0.0,0.0,0.0,-0.0631578947368,,3,Sharing Zero Relinquish,10.0,doorway_assistance,3
1449617114120182445,0.00863712856322,-0.000182582379687,0.0,0.0,0.0,-0.0158514091245,0.999874358521,1449617114115280625,1,0.352,0.0,0.0,0.0,0.0,-0.0210526315789,1,-0.0,0.0,0.0,0.0,0.0,-0.0,0.352,0.0,0.0,0.0,0.0,-0.0210526315789,,3,Sharing Zero Relinquish,10.0,doorway_assistance,3
1449617114155279692,0.00863712856322,-0.000182582379687,0.0,0.0,0.0,-0.0158514091245,0.999874358521,1449617114154223136,1,0.352,0.0,0.0,0.0,0.0,-0.0210526315789,1,-0.0,0.0,0.0,0.0,0.0,-0.0,0.352,0.0,0.0,0.0,0.0,-0.0210526315789,,3,Sharing Zero Relinquish,10.0,doorway_assistance,3
1449617114194824516,0.0115162786013,-0.000243445438698,0.0,0.0,0.0,-0.0105678519699,0.999944158693,1449617114194279254,1,0.352,0.0,0.0,0.0,0.0,-0.0210526315789,1,-0.0,0.0,0.0,0.0,0.0,-0.0,0.352,0.0,0.0,0.0,0.0,-0.0210526315789,,3,Sharing Zero Relinquish,10.0,doorway_assistance,3
1449617114234974391,0.0143946246721,-0.000334731530437,0.0,0.0,0.0,-0.0158514091245,0.999874358521,1449617114234265428,1,0.352,0.0,0.0,0.0,0.0,-0.0210526315789,1,-0.0,0.0,0.0,0.0,0.0,-0.0,0.352,0.0,0.0,0.0,0.0,-0.0210526315789,,3,Sharing Zero Relinquish,10.0,doorway_assistance,3
1449617114275661456,0.0143946246721,-0.000334731530437,0.0,0.0,0.0,-0.0158514091245,0.999874358521,1449617114274278804,1,0.352,0.0,0.0,0.0,0.0,-0.0210526315789,1,-0.0,0.0,0.0,0.0,0.0,-0.0,0.352,0.0,0.0,0.0,0.0,-0.0210526315789,,3,Sharing Zero Relinquish,10.0,doorway_assistance,3
1449617114316504443,0.0201513168136,-0.000517303713916,0.0,0.0,0.0,-0.0158514091245,0.999874358521,1449617114314252912,1,0.352,0.0,0.0,0.0,0.0,-0.0210526315789,1,-0.0,0.0,0.0,0.0,0.0,-0.0,0.352,0.0,0.0,0.0,0.0,-0.0210526315789,,3,Sharing Zero Relinquish,10.0,doorway_assistance,3
1449617114354981033,0.0201513168136,-0.000517303713916,0.0,0.0,0.0,-0.0158514091245,0.999874358521,1449617114354230377,1,0.352,0.0,0.0,0.0,0.0,-0.0210526315789,1,-0.0,0.0,0.0,0.0,0.0,-0.0,0.352,0.0,0.0,0.0,0.0,-0.0210526315789,,3,Sharing Zero Relinquish,10.0,doorway_assistance,3
1449617114396191423,0.0230285374559,-0.000639002643314,0.0,0.0,0.0,-0.0211345236944,0.999776641009,1449617114394300518,1,0.352,0.0,0.0,0.0,0.0,-0.0210526315789,1,-0.0,0.0,0.0,0.0,0.0,-0.0,0.352,0.0,0.0,0.0,0.0,-0.0210526315789,,3,Sharing Zero Relinquish,10.0,doorway_assistance,3
1449617114447894191,0.0259068835267,-0.000730288735054,0.0,0.0,0.0,-0.0158514091245,0.999874358521,1449617114434242997,1,0.352,0.0,0.0,0.0,0.0,-0.0210526315789,1,-0.0,0.0,0.0,0.0,0.0,-0.0,0.352,0.0,0.0,0.0,0.0,-0.0210526315789,,3,Sharing Zero Relinquish,10.0,doorway_assistance,3
1449617114475087153,0.0287841041689,-0.000851987664452,0.0,0.0,0.0,-0.0211345236944,0.999776641009,1449617114474233917,1,0.352,0.0,0.0,0.0,0.0,-0.0210526315789,1,-0.0,0.0,0.0,0.0,0.0,-0.0,0.352,0.0,0.0,0.0,0.0,-0.0210526315789,,3,Sharing Zero Relinquish,10.0,doorway_assistance,3
1449617114515511660,0.0345385454535,-0.00109538552325,0.0,0.0,0.0,-0.0211345236944,0.999776641009,1449617114514521227,1,0.352,0.0,0.0,0.0,0.0,-0.0210526315789,1,-0.0,0.0,0.0,0.0,0.0,-0.0,0.352,0.0,0.0,0.0,0.0,-0.0210526315789,,3,Sharing Zero Relinquish,10.0,doorway_assistance,3
1449617114554938360,0.0374168915242,-0.00118667161499,0.0,0.0,0.0,-0.0158514091245,0.999874358521,1449617114554231219,1,0.352,0.0,0.0,0.0,0.0,-0.0210526315789,1,-0.0,0.0,0.0,0.0,0.0,-0.0,0.352,0.0,0.0,0.0,0.0,-0.0210526315789,,3,Sharing Zero Relinquish,10.0,doorway_assistance,3
1449617114604051151,0.0431735836658,-0.00136924379847,0.0,0.0,0.0,-0.0158514091245,0.999874358521,1449617114602710886,1,0.352,0.0,0.0,0.0,0.0,-0.0210526315789,1,0.00558730190992,0.0,0.0,0.0,0.0,0.0,0.00558730190992,0.0,0.0,0.0,0.0,0.0,Linear,1,Sharing Zero Relinquish,1.0,doorway_assistance,1
1449617114667952696,0.046050804308,-0.00149094272787,0.0,0.0,0.0,-0.0211345236944,0.999776641009,1449617114667614047,1,0.352,0.0,0.0,0.0,0.0,-0.0210526315789,1,0.00558730190992,0.0,0.0,0.0,0.0,0.0,0.00558730190992,0.0,0.0,0.0,0.0,0.0,Linear,1,Sharing Zero Relinquish,1.0,doorway_assistance,1
1449617114688393670,0.054687450455,-0.00170395493763,0.0,0.0,0.0,-0.0158514091245,0.999874358521,1449617114687254414,1,0.352,0.0,0.0,0.0,0.0,-0.0210526315789,1,0.00558730190992,0.0,0.0,0.0,0.0,0.0,0.00558730190992,0.0,0.0,0.0,0.0,0.0,Linear,1,Sharing Zero Relinquish,1.0,doorway_assistance,1
1449617114722984141,0.054687450455,-0.00170395493763,0.0,0.0,0.0,-0.0158514091245,0.999874358521,1449617114722666736,1,0.352,0.0,0.0,0.0,0.0,-0.0210526315789,1,0.00558730190992,0.0,0.0,0.0,0.0,0.0,0.00558730190992,0.0,0.0,0.0,0.0,0.0,Linear,1,Sharing Zero Relinquish,1.0,doorway_assistance,1
1449617114827196451,0.0633249005692,-0.00188654411466,0.0,0.0,0.0,-0.0105678519699,0.999944158693,1449617114820172570,1,0.352,0.0,0.0,0.0,0.0,-0.0210526315789,1,0.00558730190992,0.0,0.0,0.0,0.0,0.0,0.00558730190992,0.0,0.0,0.0,0.0,0.0,Linear,1,Sharing Zero Relinquish,1.0,doorway_assistance,1
1449617114842685403,0.0748415007215,-0.0021299963507,0.0,0.0,0.0,-0.0105678519699,0.999944158693,1449617114837868977,1,0.352,0.0,0.0,0.0,0.0,-0.0210526315789,1,0.00558730190992,0.0,0.0,0.0,0.0,0.0,0.00558730190992,0.0,0.0,0.0,0.0,0.0,Linear,1,Sharing Zero Relinquish,1.0,doorway_assistance,1
1449617114856518163,0.0777211331759,-0.00216042957964,0.0,0.0,0.0,-0.0052839997518,0.999986039576,1449617114855809852,1,0.352,0.0,0.0,0.0,0.0,-0.0210526315789,1,0.00558730190992,0.0,0.0,0.0,0.0,-0.00634920671582,0.00558730190992,0.0,0.0,0.0,0.0,-0.00634920671582,Linear,1,Sharing Zero Relinquish,1.0,doorway_assistance,1
1449617114881602645,0.0777211331759,-0.00216042957964,0.0,0.0,0.0,-0.0052839997518,0.999986039576,1449617114880996415,1,0.352,0.0,0.0,0.0,0.0,-0.0210526315789,1,0.00558730190992,0.0,0.0,0.0,0.0,-0.00634920671582,0.00558730190992,0.0,0.0,0.0,0.0,-0.00634920671582,Linear,1,Sharing Zero Relinquish,1.0,doorway_assistance,1
1449617114968884632,0.0834803980846,-0.00222129603751,0.0,0.0,0.0,-0.0052839997518,0.999986039576,1449617114968027638,1,0.352,0.0,0.0,0.0,0.0,-0.0210526315789,1,0.00558730190992,0.0,0.0,0.0,0.0,-0.00634920671582,0.00558730190992,0.0,0.0,0.0,0.0,-0.00634920671582,Linear,1,Sharing Zero Relinquish,1.0,doorway_assistance,1
1449617114986598499,0.0978793644136,-0.00222129603751,0.0,0.0,0.0,0.0,1.0,1449617114986132547,1,0.352,0.0,0.0,0.0,0.0,-0.0210526315789,1,0.00558730190992,0.0,0.0,0.0,0.0,-0.00634920671582,0.00558730190992,0.0,0.0,0.0,0.0,-0.00634920671582,Linear,1,Sharing Zero Relinquish,1.0,doorway_assistance,1
1449617115006093724,0.106518261777,-0.0021299963507,0.0,0.0,0.0,0.0052839997518,0.999986039576,1449617115003924451,1,0.352,0.0,0.0,0.0,0.0,-0.0631578947368,1,0.0111746038198,0.0,0.0,0.0,0.0,-0.00634920671582,0.0111746038198,0.0,0.0,0.0,0.0,-0.00634920671582,Linear,1,Sharing Zero Relinquish,1.0,doorway_assistance,1
1449617115114231440,0.106518261777,-0.0021299963507,0.0,0.0,0.0,0.0052839997518,0.999986039576,1449617115108464499,1,0.352,0.0,0.0,0.0,0.0,-0.0631578947368,1,0.0111746038198,0.0,0.0,0.0,0.0,-0.00634920671582,0.0111746038198,0.0,0.0,0.0,0.0,-0.00634920671582,Linear,1,Sharing Zero Relinquish,1.0,doorway_assistance,1
1449617115124727982,0.123791714936,-0.0017344085586,0.0,0.0,0.0,0.0158514091245,0.999874358521,1449617115123818612,1,0.352,0.0,0.0,0.0,0.0,-0.0631578947368,1,0.0111746038198,0.0,0.0,0.0,0.0,-0.00634920671582,0.0111746038198,0.0,0.0,0.0,0.0,-0.00634920671582,Linear,1,Sharing Zero Relinquish,1.0,doorway_assistance,1
1449617115135600194,0.123791714936,-0.0017344085586,0.0,0.0,0.0,0.0158514091245,0.999874358521,1449617115135192638,1,0.352,0.0,0.0,0.0,0.0,-0.105263157895,1,0.0111746038198,0.0,0.0,0.0,0.0,-0.00634920671582,0.0111746038198,0.0,0.0,0.0,0.0,-0.00634920671582,Linear,1,Sharing Zero Relinquish,1.0,doorway_assistance,1
1449617115200551744,0.123791714936,-0.0017344085586,0.0,0.0,0.0,0.0158514091245,0.999874358521,1449617115199334549,1,0.352,0.0,0.0,0.0,0.0,-0.105263157895,1,0.0111746038198,0.0,0.0,0.0,0.0,-0.00634920671582,0.0111746038198,0.0,0.0,0.0,0.0,-0.00634920671582,Linear,1,Sharing Zero Relinquish,1.0,doorway_assistance,1
1449617115212122203,0.13242562772,-0.00143013744572,0.0,0.0,0.0,0.0211345236944,0.999776641009,1449617115211588417,1,0.352,0.0,0.0,0.0,0.0,-0.105263157895,1,0.0111746038198,0.0,0.0,0.0,0.0,-0.00634920671582,0.0111746038198,0.0,0.0,0.0,0.0,-0.00634920671582,Linear,1,Sharing Zero Relinquish,1.0,doorway_assistance,1
1449617115247789177,0.13242562772,-0.00143013744572,0.0,0.0,0.0,0.0211345236944,0.999776641009,1449617115247102527,1,0.352,0.0,0.0,0.0,0.0,-0.105263157895,1,0.0111746038198,0.0,0.0,0.0,0.0,-0.00634920671582,0.0111746038198,0.0,0.0,0.0,0.0,-0.00634920671582,Linear,1,Sharing Zero Relinquish,1.0,doorway_assistance,1
1449617115289941933,0.141052949354,-0.000973842919513,0.0,0.0,0.0,0.0264170481704,0.999651008886,1449617115289355405,1,0.352,0.0,0.0,0.0,0.0,-0.105263157895,1,0.0111746038198,0.0,0.0,0.0,0.0,-0.00634920671582,0.0111746038198,0.0,0.0,0.0,0.0,-0.00634920671582,Linear,1,Sharing Zero Relinquish,1.0,doorway_assistance,1
1449617115420882381,0.143930169997,-0.000852143990114,0.0,0.0,0.0,0.0211345236944,0.999776641009,1449617115419201852,1,0.352,0.0,0.0,0.0,0.0,-0.105263157895,1,0.0111746038198,0.0,0.0,0.0,0.0,-0.00634920671582,0.0111746038198,0.0,0.0,0.0,0.0,-0.00634920671582,Linear,1,Sharing Zero Relinquish,1.0,doorway_assistance,1
1449617115431847465,0.155426193758,-0.000122222251368,0.0,0.0,0.0,0.0316988350601,0.999497465658,1449617115431009138,1,0.352,0.0,0.0,0.0,0.0,-0.105263157895,1,0.0111746038198,0.0,0.0,0.0,0.0,-0.00634920671582,0.0111746038198,0.0,0.0,0.0,0.0,-0.00634920671582,Linear,1,Sharing Zero Relinquish,1.0,doorway_assistance,1
1449617115479012270,0.161174205638,0.000242738618005,0.0,0.0,0.0,0.0316988350601,0.999497465658,1449617115478193028,1,0.352,0.0,0.0,0.0,0.0,-0.147368421053,1,0.00558730190992,0.0,0.0,0.0,0.0,0.0,0.00558730190992,0.0,0.0,0.0,0.0,0.0,Linear,1,Sharing Zero Relinquish,1.0,doorway_assistance,1
1449617115507819963,0.164046122664,0.000455580932083,0.0,0.0,0.0,0.0369797368913,0.999316015612,1449617115507109165,1,0.352,0.0,0.0,0.0,0.0,-0.147368421053,1,0.00558730190992,0.0,0.0,0.0,0.0,0.0,0.00558730190992,0.0,0.0,0.0,0.0,0.0,Linear,1,Sharing Zero Relinquish,1.0,doorway_assistance,1
1449617115570337546,0.166915630032,0.000698761354766,0.0,0.0,0.0,0.042259606217,0.999106663816,1449617115568958503,1,0.352,0.0,0.0,0.0,0.0,-0.147368421053,1,0.00558730190992,0.0,0.0,0.0,0.0,0.0,0.00558730190992,0.0,0.0,0.0,0.0,0.0,Linear,1,Sharing Zero Relinquish,1.0,doorway_assistance,1
1449617115595529521,0.169787547058,0.000911603668844,0.0,0.0,0.0,0.0369797368913,0.999316015612,1449617115590116637,1,0.352,0.0,0.0,0.0,0.0,-0.105263157895,1,0.00558730190992,0.0,0.0,0.0,0.0,0.0,0.00558730190992,0.0,0.0,0.0,0.0,0.0,Linear,1,Sharing Zero Relinquish,1.0,doorway_assistance,1
1449617115621080214,0.172657054426,0.00115478409153,0.0,0.0,0.0,0.042259606217,0.999106663816,1449617115619458554,1,0.352,0.0,0.0,0.0,0.0,-0.105263157895,1,-0.0,0.0,0.0,0.0,0.0,-0.0,0.352,0.0,0.0,0.0,0.0,-0.105263157895,Linear,3,Sharing Zero Relinquish,1.0,doorway_assistance,3
1449617115660926622,0.172657054426,0.00115478409153,0.0,0.0,0.0,0.042259606217,0.999106663816,1449617115659517149,1,0.352,0.0,0.0,0.0,0.0,-0.105263157895,1,-0.0,0.0,0.0,0.0,0.0,-0.0,0.352,0.0,0.0,0.0,0.0,-0.105263157895,Linear,3,Sharing Zero Relinquish,1.0,doorway_assistance,3
1449617115700612343,0.172657054426,0.00115478409153,0.0,0.0,0.0,0.042259606217,0.999106663816,1449617115699472898,1,0.352,0.0,0.0,0.0,0.0,-0.147368421053,1,-0.0,0.0,0.0,0.0,0.0,-0.0,0.352,0.0,0.0,0.0,0.0,-0.147368421053,Linear,3,Sharing Zero Relinquish,1.0,doorway_assistance,3
1449617115739899824,0.178396069162,0.00164114493689,0.0,0.0,0.0,0.042259606217,0.999106663816,1449617115739457049,1,0.352,0.0,0.0,0.0,0.0,-0.147368421053,1,-0.0,0.0,0.0,0.0,0.0,-0.0,0.352,0.0,0.0,0.0,0.0,-0.147368421053,Linear,3,Sharing Zero Relinquish,1.0,doorway_assistance,3
1449617115786839073,0.178396069162,0.00164114493689,0.0,0.0,0.0,0.042259606217,0.999106663816,1449617115784230378,1,0.352,0.0,0.0,0.0,0.0,-0.147368421053,1,-0.0,0.0,0.0,0.0,0.0,-0.0,0.352,0.0,0.0,0.0,0.0,-0.147368421053,Linear,3,Sharing Zero Relinquish,1.0,doorway_assistance,3
1449617115826519300,0.178396069162,0.00164114493689,0.0,0.0,0.0,0.042259606217,0.999106663816,1449617115820720341,1,0.352,0.0,0.0,0.0,0.0,-0.147368421053,1,-0.0,0.0,0.0,0.0,0.0,-0.0,0.352,0.0,0.0,0.0,0.0,-0.147368421053,Linear,3,Sharing Zero Relinquish,1.0,doorway_assistance,3
1449617115861664745,0.181262846399,0.00191463630916,0.0,0.0,0.0,0.0475382956186,0.998869416115,1449617115859523450,1,0.352,0.0,0.0,0.0,0.0,-0.147368421053,1,-0.0,0.0,0.0,0.0,0.0,-0.0,0.352,0.0,0.0,0.0,0.0,-0.147368421053,Linear,3,Sharing Zero Relinquish,1.0,doorway_assistance,3
1449617115900361264,0.181262846399,0.00191463630916,0.0,0.0,0.0,0.0475382956186,0.998869416115,1449617115899463679,1,0.352,0.0,0.0,0.0,0.0,-0.189473684211,1,-0.0,0.0,0.0,0.0,0.0,-0.0,0.352,0.0,0.0,0.0,0.0,-0.189473684211,Linear,3,Sharing Zero Relinquish,1.0,doorway_assistance,3
1449617115940608285,0.181262846399,0.00191463630916,0.0,0.0,0.0,0.0475382956186,0.998869416115,1449617115939491180,1,0.352,0.0,0.0,0.0,0.0,-0.189473684211,1,-0.0,0.0,0.0,0.0,0.0,-0.0,0.352,0.0,0.0,0.0,0.0,-0.189473684211,Linear,3,Sharing Zero Relinquish,1.0,doorway_assistance,3
1449617115983102120,0.181262846399,0.00191463630916,0.0,0.0,0.0,0.0475382956186,0.998869416115,1449617115979519260,1,0.352,0.0,0.0,0.0,0.0,-0.189473684211,1,-0.0,0.0,0.0,0.0,0.0,-0.0,0.352,0.0,0.0,0.0,0.0,-0.189473684211,Linear,3,Sharing Zero Relinquish,1.0,doorway_assistance,3
1449617116020566273,0.181262846399,0.00191463630916,0.0,0.0,0.0,0.0475382956186,0.998869416115,1449617116019674941,1,0.352,0.0,0.0,0.0,0.0,-0.189473684211,1,-0.0,0.0,0.0,0.0,0.0,-0.0,0.352,0.0,0.0,0.0,0.0,-0.189473684211,Linear,3,Sharing Zero Relinquish,1.0,doorway_assistance,3
1449617116060872938,0.181262846399,0.00191463630916,0.0,0.0,0.0,0.0475382956186,0.998869416115,1449617116059517876,1,0.352,0.0,0.0,0.0,0.0,-0.189473684211,1,-0.0,0.0,0.0,0.0,0.0,-0.0,0.352,0.0,0.0,0.0,0.0,-0.189473684211,Linear,3,Sharing Zero Relinquish,1.0,doorway_assistance,3
1449617116099752924,0.181262846399,0.00191463630916,0.0,0.0,0.0,0.0475382956186,0.998869416115,1449617116099435950,1,0.352,0.0,0.0,0.0,0.0,-0.189473684211,1,-0.0,0.0,0.0,0.0,0.0,-0.0,0.352,0.0,0.0,0.0,0.0,-0.189473684211,Linear,3,Sharing Zero Relinquish,1.0,doorway_assistance,3
1449617116139959036,0.181262846399,0.00191463630916,0.0,0.0,0.0,0.0475382956186,0.998869416115,1449617116139451888,1,0.352,0.0,0.0,0.0,0.0,-0.189473684211,1,-0.0,0.0,0.0,0.0,0.0,-0.0,0.352,0.0,0.0,0.0,0.0,-0.189473684211,Linear,3,Sharing Zero Relinquish,1.0,doorway_assistance,3
1449617116183378422,0.184132353767,0.00215781673184,0.0,0.0,0.0,0.042259606217,0.999106663816,1449617116179457892,1,0.352,0.0,0.0,0.0,0.0,-0.189473684211,1,-0.0,0.0,0.0,0.0,0.0,-0.0,0.352,0.0,0.0,0.0,0.0,-0.189473684211,Linear,3,Sharing Zero Relinquish,1.0,doorway_assistance,3
1449617116220064773,0.184132353767,0.00215781673184,0.0,0.0,0.0,0.042259606217,0.999106663816,1449617116219445073,1,0.352,0.0,0.0,0.0,0.0,-0.189473684211,1,-0.0,0.0,0.0,0.0,0.0,-0.0,0.352,0.0,0.0,0.0,0.0,-0.189473684211,Linear,3,Sharing Zero Relinquish,1.0,doorway_assistance,3
1449617116260630544,0.184132353767,0.00215781673184,0.0,0.0,0.0,0.042259606217,0.999106663816,1449617116259433451,1,0.352,0.0,0.0,0.0,0.0,-0.189473684211,1,-0.0,0.0,0.0,0.0,0.0,-0.0,0.352,0.0,0.0,0.0,0.0,-0.189473684211,Linear,3,Sharing Zero Relinquish,1.0,doorway_assistance,3
1449617116300305738,0.184132353767,0.00215781673184,0.0,0.0,0.0,0.042259606217,0.999106663816,1449617116299436529,1,0.352,0.0,0.0,0.0,0.0,-0.189473684211,1,-0.0,0.0,0.0,0.0,0.0,-0.0,0.352,0.0,0.0,0.0,0.0,-0.189473684211,Linear,3,Sharing Zero Relinquish,1.0,doorway_assistance,3
1449617116341611060,0.184132353767,0.00215781673184,0.0,0.0,0.0,0.042259606217,0.999106663816,1449617116339455371,1,0.352,0.0,0.0,0.0,0.0,-0.189473684211,1,-0.0,0.0,0.0,0.0,0.0,-0.0,0.352,0.0,0.0,0.0,0.0,-0.189473684211,Linear,3,Sharing Zero Relinquish,1.0,doorway_assistance,3
1449617116381947584,0.189871368503,0.00264417757721,0.0,0.0,0.0,0.042259606217,0.999106663816,1449617116379453960,1,0.352,0.0,0.0,0.0,0.0,-0.189473684211,1,-0.0,0.0,0.0,0.0,0.0,-0.0,0.352,0.0,0.0,0.0,0.0,-0.189473684211,Linear,3,Sharing Zero Relinquish,1.0,doorway_assistance,3
1449617116424178610,0.189871368503,0.00264417757721,0.0,0.0,0.0,0.042259606217,0.999106663816,1449617116419465915,1,0.352,0.0,0.0,0.0,0.0,-0.147368421053,1,-0.0,0.0,0.0,0.0,0.0,-0.0,0.352,0.0,0.0,0.0,0.0,-0.147368421053,Linear,3,Sharing Zero Relinquish,1.0,doorway_assistance,3
1449617116460318478,0.189871368503,0.00264417757721,0.0,0.0,0.0,0.042259606217,0.999106663816,1449617116459500621,1,0.352,0.0,0.0,0.0,0.0,-0.147368421053,1,-0.0,0.0,0.0,0.0,0.0,-0.0,0.352,0.0,0.0,0.0,0.0,-0.147368421053,Linear,3,Sharing Zero Relinquish,1.0,doorway_assistance,3
1449617116501785376,0.195610383239,0.00313053842257,0.0,0.0,0.0,0.042259606217,0.999106663816,1449617116499463499,1,0.352,0.0,0.0,0.0,0.0,-0.147368421053,1,-0.0,0.0,0.0,0.0,0.0,-0.0,0.352,0.0,0.0,0.0,0.0,-0.147368421053,Linear,3,Sharing Zero Relinquish,1.0,doorway_assistance,3
1449617116540965452,0.195610383239,0.00313053842257,0.0,0.0,0.0,0.042259606217,0.999106663816,1449617116539485636,1,0.352,0.0,0.0,0.0,0.0,-0.147368421053,1,-0.0,0.0,0.0,0.0,0.0,-0.0,0.352,0.0,0.0,0.0,0.0,-0.147368421053,Linear,3,Sharing Zero Relinquish,1.0,doorway_assistance,3
1449617116580523513,0.198482300265,0.00334338073665,0.0,0.0,0.0,0.0369797368913,0.999316015612,1449617116579458124,1,0.352,0.0,0.0,0.0,0.0,-0.147368421053,1,-0.0,0.0,0.0,0.0,0.0,-0.0,0.352,0.0,0.0,0.0,0.0,-0.147368421053,Linear,3,Sharing Zero Relinquish,1.0,doorway_assistance,3
1449617116620672536,0.201351807633,0.00358656115933,0.0,0.0,0.0,0.042259606217,0.999106663816,1449617116619519132,1,0.352,0.0,0.0,0.0,0.0,-0.147368421053,1,-0.0,0.0,0.0,0.0,0.0,-0.0,0.352,0.0,0.0,0.0,0.0,-0.147368421053,Linear,3,Sharing Zero Relinquish,1.0,doorway_assistance,3
1449617116663611811,0.207090822369,0.0040729220047,0.0,0.0,0.0,0.042259606217,0.999106663816,1449617116659458326,1,0.352,0.0,0.0,0.0,0.0,-0.147368421053,1,-0.0,0.0,0.0,0.0,0.0,-0.0,0.352,0.0,0.0,0.0,0.0,-0.147368421053,Linear,3,Sharing Zero Relinquish,1.0,doorway_assistance,3
1449617116701787631,0.209962739395,0.00428576431878,0.0,0.0,0.0,0.0369797368913,0.999316015612,1449617116699487085,1,0.352,0.0,0.0,0.0,0.0,-0.147368421053,1,-0.0,0.0,0.0,0.0,0.0,-0.0,0.352,0.0,0.0,0.0,0.0,-0.147368421053,Linear,3,Sharing Zero Relinquish,1.0,doorway_assistance,3
1449617116745928886,0.215706573447,0.00471144894693,0.0,0.0,0.0,0.0369797368913,0.999316015612,1449617116739452572,1,0.352,0.0,0.0,0.0,0.0,-0.147368421053,1,-0.0,0.0,0.0,0.0,0.0,-0.0,0.352,0.0,0.0,0.0,0.0,-0.147368421053,Linear,3,Sharing Zero Relinquish,1.0,doorway_assistance,3
1449617116779870499,0.221450407498,0.00513713357509,0.0,0.0,0.0,0.0369797368913,0.999316015612,1449617116779466036,1,0.352,0.0,0.0,0.0,0.0,-0.147368421053,1,-0.0,0.0,0.0,0.0,0.0,-0.0,0.352,0.0,0.0,0.0,0.0,-0.147368421053,Linear,3,Sharing Zero Relinquish,1.0,doorway_assistance,3
1449617116820254323,0.22719424155,0.00556281820324,0.0,0.0,0.0,0.0369797368913,0.999316015612,1449617116819438200,1,0.352,0.0,0.0,0.0,0.0,-0.147368421053,1,-0.0,0.0,0.0,0.0,0.0,-0.0,0.352,0.0,0.0,0.0,0.0,-0.147368421053,Linear,3,Sharing Zero Relinquish,1.0,doorway_assistance,3
1449617116861726787,0.232938075602,0.0059885028314,0.0,0.0,0.0,0.0369797368913,0.999316015612,1449617116859534363,1,0.352,0.0,0.0,0.0,0.0,-0.147368421053,1,-0.0,0.0,0.0,0.0,0.0,-0.0,0.352,0.0,0.0,0.0,0.0,-0.147368421053,Linear,3,Sharing Zero Relinquish,1.0,doorway_assistance,3
1449617116906338242,0.238681909653,0.00641418745955,0.0,0.0,0.0,0.0369797368913,0.999316015612,1449617116899468684,1,0.352,0.0,0.0,0.0,0.0,-0.147368421053,1,-0.0,0.0,0.0,0.0,0.0,-0.0,0.352,0.0,0.0,0.0,0.0,-0.147368421053,Linear,3,Sharing Zero Relinquish,1.0,doorway_assistance,3
1449617116940143882,0.244425743705,0.00683987208771,0.0,0.0,0.0,0.0369797368913,0.999316015612,1449617116939455649,1,0.352,0.0,0.0,0.0,0.0,-0.147368421053,1,-0.0,0.0,0.0,0.0,0.0,-0.0,0.352,0.0,0.0,0.0,0.0,-0.147368421053,Linear,3,Sharing Zero Relinquish,1.0,doorway_assistance,3
1449617116983625170,0.250169577756,0.00726555671587,0.0,0.0,0.0,0.0369797368913,0.999316015612,1449617116979565105,1,0.352,0.0,0.0,0.0,0.0,-0.147368421053,1,-0.0,0.0,0.0,0.0,0.0,-0.0,0.352,0.0,0.0,0.0,0.0,-0.147368421053,Linear,3,Sharing Zero Relinquish,1.0,doorway_assistance,3
1449617117020789049,0.258791595577,0.00781299801993,0.0,0.0,0.0,0.0316988350601,0.999497465658,1449617117019432081,1,0.352,0.0,0.0,0.0,0.0,-0.147368421053,1,-0.0,0.0,0.0,0.0,0.0,-0.0,0.352,0.0,0.0,0.0,0.0,-0.147368421053,Linear,3,Sharing Zero Relinquish,1.0,doorway_assistance,3
1449617117073951800,0.264539607458,0.0081779588893,0.0,0.0,0.0,0.0316988350601,0.999497465658,1449617117059479462,1,0.352,0.0,0.0,0.0,0.0,-0.147368421053,1,-0.0,0.0,0.0,0.0,0.0,-0.0,0.352,0.0,0.0,0.0,0.0,-0.147368421053,Linear,3,Sharing Zero Relinquish,1.0,doorway_assistance,3
1449617117111559174,0.273155358535,0.00881648583153,0.0,0.0,0.0,0.0369797368913,0.999316015612,1449617117099467553,1,0.352,0.0,0.0,0.0,0.0,-0.147368421053,1,-0.0,0.0,0.0,0.0,0.0,-0.0,0.352,0.0,0.0,0.0,0.0,-0.147368421053,Linear,3,Sharing Zero Relinquish,1.0,doorway_assistance,3
1449617117140986007,0.281777376356,0.00936392713559,0.0,0.0,0.0,0.0316988350601,0.999497465658,1449617117139533417,1,0.352,0.0,0.0,0.0,0.0,-0.147368421053,1,-0.0,0.0,0.0,0.0,0.0,-0.0,0.352,0.0,0.0,0.0,0.0,-0.147368421053,Linear,3,Sharing Zero Relinquish,1.0,doorway_assistance,3
1449617117180664995,0.287525388236,0.00972888800496,0.0,0.0,0.0,0.0316988350601,0.999497465658,1449617117179491411,1,0.352,0.0,0.0,0.0,0.0,-0.147368421053,1,-0.0,0.0,0.0,0.0,0.0,-0.0,0.352,0.0,0.0,0.0,0.0,-0.147368421053,Linear,3,Sharing Zero Relinquish,1.0,doorway_assistance,3
1449617117221498309,0.299021411997,0.0104588097437,0.0,0.0,0.0,0.0316988350601,0.999497465658,1449617117219469512,1,0.352,0.0,0.0,0.0,0.0,-0.147368421053,1,-0.0,0.0,0.0,0.0,0.0,-0.0,0.352,0.0,0.0,0.0,0.0,-0.147368421053,Linear,3,Sharing Zero Relinquish,1.0,doorway_assistance,3
1449617117259892330,0.307648733632,0.0109151042699,0.0,0.0,0.0,0.0264170481704,0.999651008886,1449617117259456395,1,0.352,0.0,0.0,0.0,0.0,-0.147368421053,1,-0.0,0.0,0.0,0.0,0.0,-0.0,0.352,0.0,0.0,0.0,0.0,-0.147368421053,Linear,3,Sharing Zero Relinquish,1.0,doorway_assistance,3
1449617117300228102,0.313400281388,0.0112193006207,0.0,0.0,0.0,0.0264170481704,0.999651008886,1449617117299455580,1,0.352,0.0,0.0,0.0,0.0,-0.147368421053,1,-0.0,0.0,0.0,0.0,0.0,-0.0,0.352,0.0,0.0,0.0,0.0,-0.147368421053,Linear,3,Sharing Zero Relinquish,1.0,doorway_assistance,3
1449617117340903177,0.324903376901,0.0118276933223,0.0,0.0,0.0,0.0264170481704,0.999651008886,1449617117339493642,1,0.352,0.0,0.0,0.0,0.0,-0.147368421053,1,-0.0,0.0,0.0,0.0,0.0,-0.0,0.352,0.0,0.0,0.0,0.0,-0.147368421053,Linear,3,Sharing Zero Relinquish,1.0,doorway_assistance,3
1449617117380827857,0.330654924658,0.0121318896731,0.0,0.0,0.0,0.0264170481704,0.999651008886,1449617117379469340,1,0.352,0.0,0.0,0.0,0.0,-0.147368421053,1,-0.0,0.0,0.0,0.0,0.0,-0.0,0.352,0.0,0.0,0.0,0.0,-0.147368421053,Linear,3,Sharing Zero Relinquish,1.0,doorway_assistance,3
1449617117420455919,0.345041027869,0.0127403843201,0.0,0.0,0.0,0.0211345236944,0.999776641009,1449617117419463371,1,0.352,0.0,0.0,0.0,0.0,-0.147368421053,1,-0.0,0.0,0.0,0.0,0.0,-0.0,0.352,0.0,0.0,0.0,0.0,-0.147368421053,Linear,3,Sharing Zero Relinquish,1.0,doorway_assistance,3
1449617117466417438,0.356549910438,0.0132271800377,0.0,0.0,0.0,0.0211345236944,0.999776641009,1449617117459485410,1,0.352,0.0,0.0,0.0,0.0,-0.147368421053,1,-0.0,0.0,0.0,0.0,0.0,-0.0,0.352,0.0,0.0,0.0,0.0,-0.147368421053,Linear,3,Sharing Zero Relinquish,1.0,doorway_assistance,3
1449617117500935617,0.362304351723,0.0134705778965,0.0,0.0,0.0,0.0211345236944,0.999776641009,1449617117499433387,1,0.352,0.0,0.0,0.0,0.0,-0.147368421053,1,-0.0,0.0,0.0,0.0,0.0,-0.0,0.352,0.0,0.0,0.0,0.0,-0.147368421053,Linear,3,Sharing Zero Relinquish,1.0,doorway_assistance,3
1449617117542041364,0.376696082077,0.0139270083552,0.0,0.0,0.0,0.0158514091245,0.999874358521,1449617117539545203,1,0.352,0.0,0.0,0.0,0.0,-0.147368421053,1,-0.0,0.0,0.0,0.0,0.0,-0.0,0.352,0.0,0.0,0.0,0.0,-0.147368421053,Linear,3,Sharing Zero Relinquish,1.0,doorway_assistance,3
1449617117584765282,0.38820946636,0.0142921527222,0.0,0.0,0.0,0.0158514091245,0.999874358521,1449617117579462907,1,0.352,0.0,0.0,0.0,0.0,-0.147368421053,1,-0.0,0.0,0.0,0.0,0.0,-0.0,0.352,0.0,0.0,0.0,0.0,-0.147368421053,Linear,3,Sharing Zero Relinquish,1.0,doorway_assistance,3
1449617117620188570,0.399722850643,0.0146572970891,0.0,0.0,0.0,0.0158514091245,0.999874358521,1449617117619576069,1,0.352,0.0,0.0,0.0,0.0,-0.147368421053,1,-0.0,0.0,0.0,0.0,0.0,-0.0,0.352,0.0,0.0,0.0,0.0,-0.147368421053,Linear,3,Sharing Zero Relinquish,1.0,doorway_assistance,3
1449617117660817378,0.408360300757,0.0148398862662,0.0,0.0,0.0,0.0105678519699,0.999944158693,1449617117659468834,1,0.352,0.0,0.0,0.0,0.0,-0.147368421053,1,-0.0,0.0,0.0,0.0,0.0,-0.0,0.352,0.0,0.0,0.0,0.0,-0.147368421053,Linear,3,Sharing Zero Relinquish,1.0,doorway_assistance,3
1449617117701386457,0.419876900909,0.0150833385022,0.0,0.0,0.0,0.0105678519699,0.999944158693,1449617117699457847,1,0.352,0.0,0.0,0.0,0.0,-0.147368421053,1,-0.0,0.0,0.0,0.0,0.0,-0.0,0.352,0.0,0.0,0.0,0.0,-0.147368421053,Linear,3,Sharing Zero Relinquish,1.0,doorway_assistance,3
1449617117740171810,0.434275063181,0.0152355046469,0.0,0.0,0.0,0.0052839997518,0.999986039576,1449617117739433928,1,0.352,0.0,0.0,0.0,0.0,-0.147368421053,1,-0.0,0.0,0.0,0.0,0.0,-0.0,0.352,0.0,0.0,0.0,0.0,-0.147368421053,Linear,3,Sharing Zero Relinquish,1.0,doorway_assistance,3
1449617117780461231,0.44003432809,0.0152963711048,0.0,0.0,0.0,0.0052839997518,0.999986039576,1449617117779463004,1,0.352,0.0,0.0,0.0,0.0,-0.147368421053,1,-0.0,0.0,0.0,0.0,0.0,-0.0,0.352,0.0,0.0,0.0,0.0,-0.147368421053,Linear,3,Sharing Zero Relinquish,1.0,doorway_assistance,3
1449617117821835216,0.454433294419,0.0152963711048,0.0,0.0,0.0,0.0,1.0,1449617117819470751,1,0.352,0.0,0.0,0.0,0.0,-0.147368421053,1,-0.0,0.0,0.0,0.0,0.0,-0.0,0.352,0.0,0.0,0.0,0.0,-0.147368421053,Linear,3,Sharing Zero Relinquish,1.0,doorway_assistance,3
1449617117859995632,0.468831456691,0.0151442049601,0.0,0.0,0.0,-0.0052839997518,0.999986039576,1449617117859448965,1,0.352,0.0,0.0,0.0,0.0,-0.147368421053,1,-0.0,0.0,0.0,0.0,0.0,-0.0,0.352,0.0,0.0,0.0,0.0,-0.147368421053,Linear,3,Sharing Zero Relinquish,1.0,doorway_assistance,3
1449617117902765558,0.477470836488,0.0151442049601,0.0,0.0,0.0,0.0,1.0,1449617117899482528,1,0.352,0.0,0.0,0.0,0.0,-0.105263157895,1,-0.0,0.0,0.0,0.0,0.0,-0.0,0.352,0.0,0.0,0.0,0.0,-0.105263157895,Linear,3,Sharing Zero Relinquish,1.0,doorway_assistance,3
1449617117942704694,0.49186899876,0.0149920388154,0.0,0.0,0.0,-0.0052839997518,0.999986039576,1449617117939556143,1,0.352,0.0,0.0,0.0,0.0,-0.105263157895,1,-0.0,0.0,0.0,0.0,0.0,-0.0,0.352,0.0,0.0,0.0,0.0,-0.105263157895,Linear,3,Sharing Zero Relinquish,1.0,doorway_assistance,3
1449617117981610487,0.500506448874,0.0148094496384,0.0,0.0,0.0,-0.0105678519699,0.999944158693,1449617117979452480,1,0.352,0.0,0.0,0.0,0.0,-0.105263157895,1,-0.0,0.0,0.0,0.0,0.0,-0.0,0.352,0.0,0.0,0.0,0.0,-0.105263157895,Linear,3,Sharing Zero Relinquish,1.0,doorway_assistance,3
1449617118020709236,0.512023049027,0.0145659974023,0.0,0.0,0.0,-0.0105678519699,0.999944158693,1449617118019570115,1,0.352,0.0,0.0,0.0,0.0,-0.105263157895,1,-0.0,0.0,0.0,0.0,0.0,-0.0,0.352,0.0,0.0,0.0,0.0,-0.105263157895,Linear,3,Sharing Zero Relinquish,1.0,doorway_assistance,3
1449617118060740377,0.52641477938,0.0141095669436,0.0,0.0,0.0,-0.0158514091245,0.999874358521,1449617118059461074,1,0.352,0.0,0.0,0.0,0.0,-0.105263157895,1,-0.0,0.0,0.0,0.0,0.0,-0.0,0.352,0.0,0.0,0.0,0.0,-0.105263157895,Linear,3,Sharing Zero Relinquish,1.0,doorway_assistance,3
1449617118101568346,0.540800882592,0.0135010722966,0.0,0.0,0.0,-0.0211345236944,0.999776641009,1449617118099508699,1,0.352,0.0,0.0,0.0,0.0,-0.105263157895,1,-0.0,0.0,0.0,0.0,0.0,-0.0,0.352,0.0,0.0,0.0,0.0,-0.105263157895,Linear,3,Sharing Zero Relinquish,1.0,doorway_assistance,3
1449617118139821922,0.552309765161,0.0130142765791,0.0,0.0,0.0,-0.0211345236944,0.999776641009,1449617118139476522,1,0.352,0.0,0.0,0.0,0.0,-0.105263157895,1,-0.0,0.0,0.0,0.0,0.0,-0.0,0.352,0.0,0.0,0.0,0.0,-0.105263157895,Linear,3,Sharing Zero Relinquish,1.0,doorway_assistance,3
1449617118186361398,0.56381864773,0.0125274808615,0.0,0.0,0.0,-0.0211345236944,0.999776641009,1449617118179457045,1,0.352,0.0,0.0,0.0,0.0,-0.105263157895,1,-0.0,0.0,0.0,0.0,0.0,-0.0,0.352,0.0,0.0,0.0,0.0,-0.105263157895,Linear,3,Sharing Zero Relinquish,1.0,doorway_assistance,3
1449617118221477374,0.578197517121,0.0117669899844,0.0,0.0,0.0,-0.0264170481704,0.999651008886,1449617118219459465,1,0.352,0.0,0.0,0.0,0.0,-0.105263157895,1,-0.0,0.0,0.0,0.0,0.0,-0.0,0.352,0.0,0.0,0.0,0.0,-0.105263157895,Linear,3,Sharing Zero Relinquish,1.0,doorway_assistance,3
1449617118262218070,0.586819534942,0.0112195486804,0.0,0.0,0.0,-0.0316988350601,0.999497465658,1449617118259572339,1,0.352,0.0,0.0,0.0,0.0,-0.105263157895,1,-0.0,0.0,0.0,0.0,0.0,-0.0,0.352,0.0,0.0,0.0,0.0,-0.105263157895,Linear,3,Sharing Zero Relinquish,1.0,doorway_assistance,3
1449617118301287364,0.601179120071,0.01015533711,0.0,0.0,0.0,-0.0369797368913,0.999316015612,1449617118299473083,1,0.352,0.0,0.0,0.0,0.0,-0.105263157895,1,-0.0,0.0,0.0,0.0,0.0,-0.0,0.352,0.0,0.0,0.0,0.0,-0.105263157895,Linear,3,Sharing Zero Relinquish,1.0,doorway_assistance,3
1449617118341500547,0.612666788174,0.00930396785368,0.0,0.0,0.0,-0.0369797368913,0.999316015612,1449617118339694311,1,0.352,0.0,0.0,0.0,0.0,-0.105263157895,1,-0.0,0.0,0.0,0.0,0.0,-0.0,0.352,0.0,0.0,0.0,0.0,-0.105263157895,Linear,3,Sharing Zero Relinquish,1.0,doorway_assistance,3
1449617118382568791,0.624154456277,0.00845259859737,0.0,0.0,0.0,-0.0369797368913,0.999316015612,1449617118379541941,1,0.352,0.0,0.0,0.0,0.0,-0.105263157895,1,-0.0,0.0,0.0,0.0,0.0,-0.0,0.352,0.0,0.0,0.0,0.0,-0.105263157895,Linear,3,Sharing Zero Relinquish,1.0,doorway_assistance,3
1449617118420833751,0.638501993118,0.00723669648395,0.0,0.0,0.0,-0.042259606217,0.999106663816,1449617118419816880,1,0.352,0.0,0.0,0.0,0.0,-0.105263157895,1,-0.0,0.0,0.0,0.0,0.0,-0.0,0.352,0.0,0.0,0.0,0.0,-0.105263157895,Linear,3,Sharing Zero Relinquish,1.0,doorway_assistance,3
1449617118485815611,0.647102324827,0.00641622236716,0.0,0.0,0.0,-0.0475382956186,0.998869416115,1449617118459500288,1,0.352,0.0,0.0,0.0,0.0,-0.105263157895,1,-0.0,0.0,0.0,0.0,0.0,-0.0,0.352,0.0,0.0,0.0,0.0,-0.105263157895,Linear,3,Sharing Zero Relinquish,1.0,doorway_assistance,3
1449617118500188278,0.661420959504,0.0048973634791,0.0,0.0,0.0,-0.0528156577107,0.998604279132,1449617118499456742,1,0.352,0.0,0.0,0.0,0.0,-0.0631578947368,1,-0.0,0.0,0.0,0.0,0.0,-0.0,0.352,0.0,0.0,0.0,0.0,-0.0631578947368,Linear,3,Sharing Zero Relinquish,1.0,doorway_assistance,3
1449617118540281137,0.672875867246,0.00368227636865,0.0,0.0,0.0,-0.0528156577107,0.998604279132,1449617118539452437,1,0.352,0.0,0.0,0.0,0.0,-0.0631578947368,1,-0.0,0.0,0.0,0.0,0.0,-0.0,0.352,0.0,0.0,0.0,0.0,-0.0631578947368,Linear,3,Sharing Zero Relinquish,1.0,doorway_assistance,3
1449617118580265169,0.687177651276,0.00201218508398,0.0,0.0,0.0,-0.0580915451448,0.99831126027,1449617118579445711,1,0.352,0.0,0.0,0.0,0.0,-0.0631578947368,1,-0.0,0.0,0.0,0.0,0.0,-0.0,0.352,0.0,0.0,0.0,0.0,-0.0631578947368,Linear,3,Sharing Zero Relinquish,1.0,doorway_assistance,3
1449617118621215223,0.6986190785,0.000676112056239,0.0,0.0,0.0,-0.0580915451448,0.99831126027,1449617118620784788,1,0.352,0.0,0.0,0.0,0.0,-0.0631578947368,1,-0.0,0.0,0.0,0.0,0.0,-0.0,0.352,0.0,0.0,0.0,0.0,-0.0631578947368,Linear,3,Sharing Zero Relinquish,1.0,doorway_assistance,3
1449617118661378466,0.710060505724,-0.000659960971502,0.0,0.0,0.0,-0.0580915451448,0.99831126027,1449617118659885309,1,0.352,0.0,0.0,0.0,0.0,-0.0631578947368,1,-0.0,0.0,0.0,0.0,0.0,-0.0,0.352,0.0,0.0,0.0,0.0,-0.0631578947368,Linear,3,Sharing Zero Relinquish,1.0,doorway_assistance,3
1449617118701415066,0.724343841846,-0.00248109813263,0.0,0.0,0.0,-0.0633658106137,0.997990367712,1449617118699487501,1,0.352,0.0,0.0,0.0,0.0,-0.0210526315789,1,-0.0,0.0,0.0,0.0,0.0,-0.0,0.352,0.0,0.0,0.0,0.0,-0.0210526315789,Linear,3,Sharing Zero Relinquish,1.0,doorway_assistance,3
1449617118746155881,0.732901817655,-0.00366428592157,0.0,0.0,0.0,-0.0686383068554,0.997641610415,1449617118739486020,1,0.352,0.0,0.0,0.0,0.0,-0.0210526315789,1,-0.0,0.0,0.0,0.0,0.0,-0.0,0.352,0.0,0.0,0.0,0.0,-0.0210526315789,Linear,3,Sharing Zero Relinquish,1.0,doorway_assistance,3
1449617118779702646,0.747143474599,-0.00578688782105,0.0,0.0,0.0,-0.0739088866573,0.997264998119,1449617118779433845,1,0.352,0.0,0.0,0.0,0.0,-0.0210526315789,1,-0.0,0.0,0.0,0.0,0.0,-0.0,0.352,0.0,0.0,0.0,0.0,-0.0210526315789,Linear,3,Sharing Zero Relinquish,1.0,doorway_assistance,3
1449617118822275105,0.758536800155,-0.00748496934064,0.0,0.0,0.0,-0.0739088866573,0.997264998119,1449617118819428316,1,0.352,0.0,0.0,0.0,0.0,-0.0210526315789,1,-0.0,0.0,0.0,0.0,0.0,-0.0,0.352,0.0,0.0,0.0,0.0,-0.0210526315789,Linear,3,Sharing Zero Relinquish,1.0,doorway_assistance,3
1449617118859982732,0.76993012571,-0.00918305086023,0.0,0.0,0.0,-0.0739088866573,0.997264998119,1449617118859456467,1,0.352,0.0,0.0,0.0,0.0,-0.0210526315789,1,-0.0,0.0,0.0,0.0,0.0,-0.0,0.352,0.0,0.0,0.0,0.0,-0.0210526315789,Linear,3,Sharing Zero Relinquish,1.0,doorway_assistance,3
1449617118900815664,0.784148556039,-0.0114560379532,0.0,0.0,0.0,-0.0791774028604,0.996860541338,1449617118899491324,1,0.352,0.0,0.0,0.0,0.0,0.0,1,-0.0,0.0,0.0,0.0,0.0,-0.0,0.352,0.0,0.0,0.0,0.0,0.0,Linear,3,Sharing Zero Relinquish,1.0,doorway_assistance,3
1449617118940395552,0.798342171801,-0.0138791563866,0.0,0.0,0.0,-0.0844437083633,0.996428251365,1449617118939429818,1,0.352,0.0,0.0,0.0,0.0,0.0,1,-0.0,0.0,0.0,0.0,0.0,-0.0,0.352,0.0,0.0,0.0,0.0,0.0,Linear,3,Sharing Zero Relinquish,1.0,doorway_assistance,3
1449617118979985577,0.804019618106,-0.01484840376,0.0,0.0,0.0,-0.0844437083633,0.996428251365,1449617118979474350,1,0.352,0.0,0.0,0.0,0.0,0.0,1,-0.0,0.0,0.0,0.0,0.0,-0.0,0.352,0.0,0.0,0.0,0.0,0.0,Linear,3,Sharing Zero Relinquish,1.0,doorway_assistance,3
