%time,field.linear.x,field.linear.y,field.linear.z,field.angular.x,field.angular.y,field.angular.z
1449617105945299974,0.0,0.0,0.0,0.0,0.0,0.0
1449617105985392524,0.0,0.0,0.0,0.0,0.0,0.0
1449617106025431937,0.0,0.0,0.0,0.0,0.0,0.0
1449617106065428020,0.0,0.0,0.0,0.0,0.0,0.0
1449617106105452452,0.0,0.0,0.0,0.0,0.0,0.0
1449617106145425916,0.0,0.0,0.0,0.0,0.0,0.0
1449617106185479510,0.0,0.0,0.0,0.0,0.0,0.0
1449617106225409025,0.0,0.0,0.0,0.0,0.0,0.0
1449617106265525463,0.0,0.0,0.0,0.0,0.0,0.0
1449617106306185750,0.0,0.0,0.0,0.0,0.0,0.0
1449617106345773260,0.0,0.0,0.0,0.0,0.0,0.0
1449617106385550243,0.0,0.0,0.0,0.0,0.0,0.0
1449617106425496306,0.0,0.0,0.0,0.0,0.0,0.0
1449617106465456658,0.0,0.0,0.0,0.0,0.0,0.0
1449617106505464323,0.0,0.0,0.0,0.0,0.0,0.0
1449617106545631099,0.0,0.0,0.0,0.0,0.0,0.0
1449617106585924016,0.0,0.0,0.0,0.0,0.0,0.0
1449617106625523528,0.0,0.0,0.0,0.0,0.0,0.0
1449617106665805175,0.0,0.0,0.0,0.0,0.0,0.0
1449617106706202868,0.0,0.0,0.0,0.0,0.0,0.0
1449617106745640800,0.0,0.0,0.0,0.0,0.0,0.0
1449617106785443884,0.0,0.0,0.0,0.0,0.0,0.0
1449617106825692253,0.0,0.0,0.0,0.0,0.0,0.0
1449617106866313885,0.0,0.0,0.0,0.0,0.0,0.0
1449617106906131119,0.0,0.0,0.0,0.0,0.0,0.0
1449617106945704708,0.0,0.0,0.0,0.0,0.0,0.0
1449617106985416241,0.0,0.0,0.0,0.0,0.0,0.0
1449617107025473339,0.0,0.0,0.0,0.0,0.0,0.0
1449617107065900864,0.0,0.0,0.0,0.0,0.0,0.0
1449617107106384281,0.0,0.0,0.0,0.0,0.0,0.0
1449617107145920183,0.0,0.0,0.0,0.0,0.0,0.0
1449617107185635518,0.0,0.0,0.0,0.0,0.0,0.0
1449617107226177150,0.0,0.0,0.0,0.0,0.0,0.0
1449617107265970526,0.0,0.0,0.0,0.0,0.0,0.0
1449617107305930853,0.0,0.0,0.0,0.0,0.0,0.0
1449617107346448020,0.0,0.0,0.0,0.0,0.0,0.0
1449617107386648992,0.0,0.0,0.0,0.0,0.0,0.0
1449617107425941020,0.0,0.0,0.0,0.0,0.0,0.0
1449617107466308314,0.0,0.0,0.0,0.0,0.0,0.0
1449617107505902517,0.0,0.0,0.0,0.0,0.0,0.0
1449617107546519190,0.0,0.0,0.0,0.0,0.0,0.0
1449617107586620185,0.0,0.0,0.0,0.0,0.0,0.0
1449617107625659223,0.0,0.0,0.0,0.0,0.0,0.0
1449617107665952604,0.0,0.0,0.0,0.0,0.0,0.0
1449617107706069439,0.0,0.0,0.0,0.0,0.0,0.0
1449617107746215543,0.0,0.0,0.0,0.0,0.0,0.0
1449617107786175395,0.0,0.0,0.0,0.0,0.0,0.0
1449617107826164004,0.0,0.0,0.0,0.0,0.0,0.0
1449617107865909103,0.0,0.0,0.0,0.0,0.0,0.0
1449617107905747934,0.0,0.0,0.0,0.0,0.0,0.0
1449617107945858987,0.0,0.0,0.0,0.0,0.0,0.0
1449617107986553715,0.0,0.0,0.0,0.0,0.0,0.0
1449617108026113256,0.0,0.0,0.0,0.0,0.0,0.0
1449617108066928620,0.0,0.0,0.0,0.0,0.0,0.0
1449617108106308240,0.0,0.0,0.0,0.0,0.0,0.0
1449617108146261560,0.0,0.0,0.0,0.0,0.0,0.0
1449617108185586854,0.0,0.0,0.0,0.0,0.0,0.0
1449617108226064374,0.0,0.0,0.0,0.0,0.0,0.0
1449617108265823467,0.0,0.0,0.0,0.0,0.0,0.0
1449617108306231664,0.0,0.0,0.0,0.0,0.0,0.0
1449617108346486760,0.0,0.0,0.0,0.0,0.0,0.0
1449617108387440251,0.0,0.0,0.0,0.0,0.0,0.0
1449617108426824621,0.0,0.0,0.0,0.0,0.0,0.0
1449617108466380424,0.0,0.0,0.0,0.0,0.0,0.0
1449617108506453942,0.0,0.0,0.0,0.0,0.0,0.0
1449617108548803104,0.0,0.0,0.0,0.0,0.0,0.0
1449617108585789871,0.0,0.0,0.0,0.0,0.0,0.0
1449617108625724043,0.0,0.0,0.0,0.0,0.0,0.0
1449617108666176021,0.0,0.0,0.0,0.0,0.0,0.0
1449617108706633051,0.0,0.0,0.0,0.0,0.0,0.0
1449617108746349388,0.0,0.0,0.0,0.0,0.0,0.0
1449617108786296951,0.0,0.0,0.0,0.0,0.0,0.0
1449617108826033845,0.0,0.0,0.0,0.0,0.0,0.0
1449617108865787137,0.0,0.0,0.0,0.0,0.0,0.0
1449617108906168615,0.0,0.0,0.0,0.0,0.0,0.0
1449617108946097176,0.0,0.0,0.0,0.0,0.0,0.0
1449617108986114222,0.0,0.0,0.0,0.0,0.0,0.0
1449617109026391426,0.0,0.0,0.0,0.0,0.0,0.0
1449617109065679682,0.0,0.0,0.0,0.0,0.0,0.0
1449617109106164994,0.0,0.0,0.0,0.0,0.0,0.0
1449617109146056091,0.0,0.0,0.0,0.0,0.0,0.0
1449617109185673848,-0.0,0.0,0.0,0.0,0.0,-0.0
1449617109225605034,-0.0,0.0,0.0,0.0,0.0,-0.0
1449617109266861701,-0.0,0.0,0.0,0.0,0.0,-0.0
1449617109306360897,-0.0,0.0,0.0,0.0,0.0,-0.0
1449617109347186128,-0.0,0.0,0.0,0.0,0.0,-0.0
1449617109386043521,-0.0,0.0,0.0,0.0,0.0,-0.0
1449617109432039633,-0.0,0.0,0.0,0.0,0.0,-0.0
1449617109466368554,-0.0,0.0,0.0,0.0,0.0,-0.0
1449617109505954641,-0.0,0.0,0.0,0.0,0.0,-0.0
1449617109546004216,-0.0,0.0,0.0,0.0,0.0,-0.0
1449617109586583014,-0.0,0.0,0.0,0.0,0.0,-0.0
1449617109625472598,-0.0,0.0,0.0,0.0,0.0,-0.0
1449617109666235763,-0.0,0.0,0.0,0.0,0.0,-0.0
1449617109708262401,-0.0,0.0,0.0,0.0,0.0,-0.0
1449617109747668420,-0.0,0.0,0.0,0.0,0.0,-0.0
1449617109791156480,-0.0,0.0,0.0,0.0,0.0,-0.0
1449617109825747861,-0.0,0.0,0.0,0.0,0.0,-0.0
1449617109866553319,-0.0,0.0,0.0,0.0,0.0,-0.0
1449617109905741815,-0.0,0.0,0.0,0.0,0.0,-0.0
1449617109947844448,-0.0,0.0,0.0,0.0,0.0,-0.0
1449617109986447168,-0.0,0.0,0.0,0.0,0.0,-0.0
1449617110026534633,-0.0,0.0,0.0,0.0,0.0,-0.0
1449617110065878897,-0.0,0.0,0.0,0.0,0.0,-0.0
1449617110106318663,-0.0,0.0,0.0,0.0,0.0,-0.0
1449617110147005667,-0.0,0.0,0.0,0.0,0.0,-0.0
1449617110185684525,-0.0,0.0,0.0,0.0,0.0,-0.0
1449617110226199538,-0.0,0.0,0.0,0.0,0.0,-0.0
1449617110266458047,-0.0,0.0,0.0,0.0,0.0,-0.0
1449617110306269543,-0.0,0.0,0.0,0.0,0.0,-0.0
1449617110345863801,-0.0,0.0,0.0,0.0,0.0,-0.0
1449617110385691891,-0.0,0.0,0.0,0.0,0.0,-0.0
1449617110425910541,-0.0,0.0,0.0,0.0,0.0,-0.0
1449617110465817266,-0.0,0.0,0.0,0.0,0.0,-0.0
1449617110507105115,-0.0,0.0,0.0,0.0,0.0,-0.0
1449617110546470240,-0.0,0.0,0.0,0.0,0.0,-0.0
1449617110587129606,-0.0,0.0,0.0,0.0,0.0,-0.0
1449617110628647746,-0.0,0.0,0.0,0.0,0.0,-0.0
1449617110666260658,-0.0,0.0,0.0,0.0,0.0,-0.0
1449617110706741690,-0.0,0.0,0.0,0.0,0.0,-0.0
1449617110749133944,-0.0,0.0,0.0,0.0,0.0,-0.0
1449617110786733364,-0.0,0.0,0.0,0.0,0.0,-0.0
1449617110826034572,-0.0,0.0,0.0,0.0,0.0,-0.0
1449617110872604315,-0.0,0.0,0.0,0.0,0.0,-0.0
1449617110906071817,-0.0,0.0,0.0,0.0,0.0,-0.0
1449617110946297049,-0.0,0.0,0.0,0.0,0.0,-0.0
1449617111015465292,-0.0,0.0,0.0,0.0,0.0,-0.0
1449617111025622243,-0.0,0.0,0.0,0.0,0.0,-0.0
1449617111066708683,-0.0,0.0,0.0,0.0,0.0,-0.0
1449617111106302447,-0.0,0.0,0.0,0.0,0.0,-0.0
1449617111146055683,-0.0,0.0,0.0,0.0,0.0,-0.0
1449617111185953213,-0.0,0.0,0.0,0.0,0.0,-0.0
1449617111226646517,-0.0,0.0,0.0,0.0,0.0,-0.0
1449617111266446430,-0.0,0.0,0.0,0.0,0.0,-0.0
1449617111306440188,-0.0,0.0,0.0,0.0,0.0,-0.0
1449617111346578137,-0.0,0.0,0.0,0.0,0.0,-0.0
1449617111386278709,-0.0,0.0,0.0,0.0,0.0,-0.0
1449617111425851829,-0.0,0.0,0.0,0.0,0.0,-0.0
1449617111468397809,-0.0,0.0,0.0,0.0,0.0,-0.0
1449617111508102506,-0.0,0.0,0.0,0.0,0.0,-0.0
1449617111545824338,-0.0,0.0,0.0,0.0,0.0,-0.0
1449617111585575112,-0.0,0.0,0.0,0.0,0.0,-0.0
1449617111626243616,-0.0,0.0,0.0,0.0,0.0,-0.0
1449617111666094616,-0.0,0.0,0.0,0.0,0.0,-0.0
1449617111707812595,-0.0,0.0,0.0,0.0,0.0,-0.0
1449617111745521515,-0.0,0.0,0.0,0.0,0.0,-0.0
1449617111786061973,-0.0,0.0,0.0,0.0,0.0,-0.0
1449617111826188662,-0.0,0.0,0.0,0.0,0.0,-0.0
1449617111866319681,-0.0,0.0,0.0,0.0,0.0,-0.0
1449617111906347603,-0.0,0.0,0.0,0.0,0.0,-0.0
1449617111946242425,-0.0,0.0,0.0,0.0,0.0,-0.0
1449617111985631342,-0.0,0.0,0.0,0.0,0.0,-0.0
1449617112025958239,-0.0,0.0,0.0,0.0,0.0,-0.0
1449617112067137877,-0.0,0.0,0.0,0.0,0.0,-0.0
1449617112106181854,-0.0,0.0,0.0,0.0,0.0,-0.0
1449617112146310385,-0.0,0.0,0.0,0.0,0.0,-0.0
1449617112186167316,-0.0,0.0,0.0,0.0,0.0,-0.0
1449617112226696772,-0.0,0.0,0.0,0.0,0.0,-0.0
1449617112266725691,-0.0,0.0,0.0,0.0,0.0,-0.0
1449617112310040316,-0.0,0.0,0.0,0.0,0.0,-0.0
1449617112346066135,-0.0,0.0,0.0,0.0,0.0,-0.0
1449617112386152500,-0.0,0.0,0.0,0.0,0.0,-0.0
1449617112425991964,-0.0,0.0,0.0,0.0,0.0,-0.0
1449617112465800597,-0.0,0.0,0.0,0.0,0.0,-0.0
1449617112505932259,-0.0,0.0,0.0,0.0,0.0,-0.0
1449617112546278755,-0.0,0.0,0.0,0.0,0.0,-0.0
1449617112585977107,-0.0,0.0,0.0,0.0,0.0,-0.0
1449617112626077572,-0.0,0.0,0.0,0.0,0.0,-0.0
1449617112666725280,-0.0,0.0,0.0,0.0,0.0,-0.0
1449617112705840215,-0.0,0.0,0.0,0.0,0.0,-0.0
1449617112745900083,-0.0,0.0,0.0,0.0,0.0,-0.0
1449617112787501623,-0.0,0.0,0.0,0.0,0.0,-0.0
1449617112826761747,-0.0,0.0,0.0,0.0,0.0,-0.0
1449617112866942784,-0.0,0.0,0.0,0.0,0.0,-0.0
1449617112905741142,-0.0,0.0,0.0,0.0,0.0,-0.0
1449617112946850007,-0.0,0.0,0.0,0.0,0.0,-0.0
1449617112986498266,-0.0,0.0,0.0,0.0,0.0,-0.0
1449617113026222899,-0.0,0.0,0.0,0.0,0.0,-0.0
1449617113065922153,-0.0,0.0,0.0,0.0,0.0,-0.0
1449617113106234733,0.0,0.0,0.0,0.0,0.0,0.0
1449617113146888719,0.0,0.0,0.0,0.0,0.0,0.0
1449617113188253271,0.0,0.0,0.0,0.0,0.0,0.0
1449617113227790122,0.0,0.0,0.0,0.0,0.0,0.0
1449617113269037121,0.0,0.0,0.0,0.0,0.0,0.0
1449617113306305758,0.352,0.0,0.0,0.0,0.0,-0.0631578947368
1449617113346137366,0.352,0.0,0.0,0.0,0.0,-0.0631578947368
1449617113389295648,0.352,0.0,0.0,0.0,0.0,-0.0631578947368
1449617113425630528,0.352,0.0,0.0,0.0,0.0,-0.0631578947368
1449617113466358922,0.352,0.0,0.0,0.0,0.0,-0.0631578947368
1449617113509770080,0.352,0.0,0.0,0.0,0.0,-0.0631578947368
1449617113546133402,0.352,0.0,0.0,0.0,0.0,-0.0631578947368
1449617113585996291,0.352,0.0,0.0,0.0,0.0,-0.0631578947368
1449617113626095915,0.352,0.0,0.0,0.0,0.0,-0.0631578947368
1449617113667820342,0.352,0.0,0.0,0.0,0.0,-0.0631578947368
1449617113705958697,0.352,0.0,0.0,0.0,0.0,-0.0631578947368
1449617113746220105,0.352,0.0,0.0,0.0,0.0,-0.0631578947368
1449617113786023869,0.352,0.0,0.0,0.0,0.0,-0.0631578947368
1449617113825682231,0.352,0.0,0.0,0.0,0.0,-0.0631578947368
1449617113866576775,0.352,0.0,0.0,0.0,0.0,-0.0631578947368
1449617113906040483,0.352,0.0,0.0,0.0,0.0,-0.0631578947368
1449617113948364559,0.352,0.0,0.0,0.0,0.0,-0.0631578947368
1449617113987289019,0.352,0.0,0.0,0.0,0.0,-0.0631578947368
1449617114027630580,0.352,0.0,0.0,0.0,0.0,-0.0631578947368
1449617114066085383,0.352,0.0,0.0,0.0,0.0,-0.0631578947368
1449617114120068146,0.352,0.0,0.0,0.0,0.0,-0.0631578947368
1449617114147681107,0.352,0.0,0.0,0.0,0.0,-0.0631578947368
1449617114189493179,0.352,0.0,0.0,0.0,0.0,-0.0210526315789
1449617114226257909,0.352,0.0,0.0,0.0,0.0,-0.0210526315789
1449617114269420384,0.352,0.0,0.0,0.0,0.0,-0.0210526315789
1449617114308180256,0.352,0.0,0.0,0.0,0.0,-0.0210526315789
1449617114346252068,0.352,0.0,0.0,0.0,0.0,-0.0210526315789
1449617114386372110,0.352,0.0,0.0,0.0,0.0,-0.0210526315789
1449617114426016827,0.352,0.0,0.0,0.0,0.0,-0.0210526315789
1449617114466038235,0.352,0.0,0.0,0.0,0.0,-0.0210526315789
1449617114507621410,0.352,0.0,0.0,0.0,0.0,-0.0210526315789
1449617114545939153,0.352,0.0,0.0,0.0,0.0,-0.0210526315789
1449617114585912122,0.352,0.0,0.0,0.0,0.0,-0.0210526315789
1449617114628031056,0.352,0.0,0.0,0.0,0.0,-0.0210526315789
1449617114666301876,0.00558730190992,0.0,0.0,0.0,0.0,0.0
1449617114706377297,0.00558730190992,0.0,0.0,0.0,0.0,0.0
1449617114747904861,0.00558730190992,0.0,0.0,0.0,0.0,0.0
1449617114785872345,0.00558730190992,0.0,0.0,0.0,0.0,0.0
1449617114827404049,0.00558730190992,0.0,0.0,0.0,0.0,0.0
1449617114867007855,0.00558730190992,0.0,0.0,0.0,0.0,0.0
1449617114907600299,0.00558730190992,0.0,0.0,0.0,0.0,-0.00634920671582
1449617114947138920,0.00558730190992,0.0,0.0,0.0,0.0,-0.00634920671582
1449617114985739140,0.00558730190992,0.0,0.0,0.0,0.0,-0.00634920671582
1449617115026399403,0.00558730190992,0.0,0.0,0.0,0.0,-0.00634920671582
1449617115066607030,0.0111746038198,0.0,0.0,0.0,0.0,-0.00634920671582
1449617115107800878,0.0111746038198,0.0,0.0,0.0,0.0,-0.00634920671582
1449617115145540523,0.0111746038198,0.0,0.0,0.0,0.0,-0.00634920671582
1449617115186068324,0.0111746038198,0.0,0.0,0.0,0.0,-0.00634920671582
1449617115227704700,0.0111746038198,0.0,0.0,0.0,0.0,-0.00634920671582
1449617115266760067,0.0111746038198,0.0,0.0,0.0,0.0,-0.00634920671582
1449617115305886139,0.0111746038198,0.0,0.0,0.0,0.0,-0.00634920671582
1449617115345927004,0.0111746038198,0.0,0.0,0.0,0.0,-0.00634920671582
1449617115387066655,0.0111746038198,0.0,0.0,0.0,0.0,-0.00634920671582
1449617115427473960,0.0111746038198,0.0,0.0,0.0,0.0,-0.00634920671582
1449617115474558466,0.0111746038198,0.0,0.0,0.0,0.0,-0.00634920671582
1449617115507200055,0.0111746038198,0.0,0.0,0.0,0.0,-0.00634920671582
1449617115546119137,0.00558730190992,0.0,0.0,0.0,0.0,0.0
1449617115585689799,0.00558730190992,0.0,0.0,0.0,0.0,0.0
1449617115625546678,0.00558730190992,0.0,0.0,0.0,0.0,0.0
1449617115673676219,0.352,0.0,0.0,0.0,0.0,-0.105263157895
1449617115706372711,0.352,0.0,0.0,0.0,0.0,-0.105263157895
1449617115746543122,0.352,0.0,0.0,0.0,0.0,-0.147368421053
1449617115786682557,0.352,0.0,0.0,0.0,0.0,-0.147368421053
1449617115826499443,0.352,0.0,0.0,0.0,0.0,-0.147368421053
1449617115866537920,0.352,0.0,0.0,0.0,0.0,-0.147368421053
1449617115905800130,0.352,0.0,0.0,0.0,0.0,-0.147368421053
1449617115945709227,0.352,0.0,0.0,0.0,0.0,-0.189473684211
1449617115986512417,0.352,0.0,0.0,0.0,0.0,-0.189473684211
1449617116026211420,0.352,0.0,0.0,0.0,0.0,-0.189473684211
1449617116070764108,0.352,0.0,0.0,0.0,0.0,-0.189473684211
1449617116106456430,0.352,0.0,0.0,0.0,0.0,-0.189473684211
1449617116145758952,0.352,0.0,0.0,0.0,0.0,-0.189473684211
1449617116185903223,0.352,0.0,0.0,0.0,0.0,-0.189473684211
1449617116228786417,0.352,0.0,0.0,0.0,0.0,-0.189473684211
1449617116266583328,0.352,0.0,0.0,0.0,0.0,-0.189473684211
1449617116307893050,0.352,0.0,0.0,0.0,0.0,-0.189473684211
1449617116347776033,0.352,0.0,0.0,0.0,0.0,-0.189473684211
1449617116386626551,0.352,0.0,0.0,0.0,0.0,-0.189473684211
1449617116426225423,0.352,0.0,0.0,0.0,0.0,-0.189473684211
1449617116467993914,0.352,0.0,0.0,0.0,0.0,-0.147368421053
1449617116506747940,0.352,0.0,0.0,0.0,0.0,-0.147368421053
1449617116546756901,0.352,0.0,0.0,0.0,0.0,-0.147368421053
1449617116590098741,0.352,0.0,0.0,0.0,0.0,-0.147368421053
1449617116626080203,0.352,0.0,0.0,0.0,0.0,-0.147368421053
1449617116667641370,0.352,0.0,0.0,0.0,0.0,-0.147368421053
1449617116706062149,0.352,0.0,0.0,0.0,0.0,-0.147368421053
1449617116746669146,0.352,0.0,0.0,0.0,0.0,-0.147368421053
1449617116786683785,0.352,0.0,0.0,0.0,0.0,-0.147368421053
1449617116827134736,0.352,0.0,0.0,0.0,0.0,-0.147368421053
1449617116865958244,0.352,0.0,0.0,0.0,0.0,-0.147368421053
1449617116906274990,0.352,0.0,0.0,0.0,0.0,-0.147368421053
1449617116948035948,0.352,0.0,0.0,0.0,0.0,-0.147368421053
1449617116990557587,0.352,0.0,0.0,0.0,0.0,-0.147368421053
1449617117026372974,0.352,0.0,0.0,0.0,0.0,-0.147368421053
1449617117068764449,0.352,0.0,0.0,0.0,0.0,-0.147368421053
1449617117111464143,0.352,0.0,0.0,0.0,0.0,-0.147368421053
1449617117145827543,0.352,0.0,0.0,0.0,0.0,-0.147368421053
1449617117186098082,0.352,0.0,0.0,0.0,0.0,-0.147368421053
1449617117229022856,0.352,0.0,0.0,0.0,0.0,-0.147368421053
1449617117266050133,0.352,0.0,0.0,0.0,0.0,-0.147368421053
1449617117306317161,0.352,0.0,0.0,0.0,0.0,-0.147368421053
1449617117346252658,0.352,0.0,0.0,0.0,0.0,-0.147368421053
1449617117385967433,0.352,0.0,0.0,0.0,0.0,-0.147368421053
1449617117426793169,0.352,0.0,0.0,0.0,0.0,-0.147368421053
1449617117466639701,0.352,0.0,0.0,0.0,0.0,-0.147368421053
1449617117505705731,0.352,0.0,0.0,0.0,0.0,-0.147368421053
1449617117549149272,0.352,0.0,0.0,0.0,0.0,-0.147368421053
1449617117586009372,0.352,0.0,0.0,0.0,0.0,-0.147368421053
1449617117631953496,0.352,0.0,0.0,0.0,0.0,-0.147368421053
1449617117667018807,0.352,0.0,0.0,0.0,0.0,-0.147368421053
1449617117706146979,0.352,0.0,0.0,0.0,0.0,-0.147368421053
1449617117749491889,0.352,0.0,0.0,0.0,0.0,-0.147368421053
1449617117786332763,0.352,0.0,0.0,0.0,0.0,-0.147368421053
1449617117826081381,0.352,0.0,0.0,0.0,0.0,-0.147368421053
1449617117865796327,0.352,0.0,0.0,0.0,0.0,-0.147368421053
1449617117906273336,0.352,0.0,0.0,0.0,0.0,-0.147368421053
1449617117945798301,0.352,0.0,0.0,0.0,0.0,-0.105263157895
1449617117986035210,0.352,0.0,0.0,0.0,0.0,-0.105263157895
1449617118025995724,0.352,0.0,0.0,0.0,0.0,-0.105263157895
1449617118066908309,0.352,0.0,0.0,0.0,0.0,-0.105263157895
1449617118106826069,0.352,0.0,0.0,0.0,0.0,-0.105263157895
1449617118157671303,0.352,0.0,0.0,0.0,0.0,-0.105263157895
1449617118186302769,0.352,0.0,0.0,0.0,0.0,-0.105263157895
1449617118226248826,0.352,0.0,0.0,0.0,0.0,-0.105263157895
1449617118266196725,0.352,0.0,0.0,0.0,0.0,-0.105263157895
1449617118305757373,0.352,0.0,0.0,0.0,0.0,-0.105263157895
1449617118345983761,0.352,0.0,0.0,0.0,0.0,-0.105263157895
1449617118386106766,0.352,0.0,0.0,0.0,0.0,-0.105263157895
1449617118426762036,0.352,0.0,0.0,0.0,0.0,-0.105263157895
1449617118488666249,0.352,0.0,0.0,0.0,0.0,-0.105263157895
1449617118506696469,0.352,0.0,0.0,0.0,0.0,-0.105263157895
1449617118545642946,0.352,0.0,0.0,0.0,0.0,-0.0631578947368
1449617118588032848,0.352,0.0,0.0,0.0,0.0,-0.0631578947368
1449617118626741019,0.352,0.0,0.0,0.0,0.0,-0.0631578947368
1449617118672416682,0.352,0.0,0.0,0.0,0.0,-0.0631578947368
1449617118706408135,0.352,0.0,0.0,0.0,0.0,-0.0631578947368
1449617118746071486,0.352,0.0,0.0,0.0,0.0,-0.0210526315789
1449617118785693571,0.352,0.0,0.0,0.0,0.0,-0.0210526315789
1449617118835814878,0.352,0.0,0.0,0.0,0.0,-0.0210526315789
1449617118866138667,0.352,0.0,0.0,0.0,0.0,-0.0210526315789
1449617118906032116,0.352,0.0,0.0,0.0,0.0,-0.0210526315789
1449617118946208895,0.352,0.0,0.0,0.0,0.0,0.0
1449617118985887998,0.352,0.0,0.0,0.0,0.0,0.0
1449617119026051736,0.352,0.0,0.0,0.0,0.0,0.0
1449617119067030831,0.352,0.0,0.0,0.0,0.0,0.0210526315789
1449617119106158308,0.352,0.0,0.0,0.0,0.0,0.0210526315789
1449617119146139191,0.352,0.0,0.0,0.0,0.0,0.0210526315789
1449617119185828214,0.352,0.0,0.0,0.0,0.0,0.0210526315789
1449617119225864862,0.352,0.0,0.0,0.0,0.0,0.0210526315789
1449617119266648459,0.352,0.0,0.0,0.0,0.0,0.0210526315789
1449617119305690704,0.352,0.0,0.0,0.0,0.0,0.0210526315789
1449617119349775151,0.352,0.0,0.0,0.0,0.0,0.0210526315789
1449617119386486569,0.352,0.0,0.0,0.0,0.0,0.0210526315789
1449617119427350872,0.352,0.0,0.0,0.0,0.0,0.0210526315789
1449617119465925480,0.352,0.0,0.0,0.0,0.0,0.0210526315789
1449617119506186991,0.352,0.0,0.0,0.0,0.0,0.0210526315789
1449617119550226994,0.352,0.0,0.0,0.0,0.0,0.0631578947368
1449617119587339708,0.352,0.0,0.0,0.0,0.0,0.0631578947368
1449617119626357737,0.352,0.0,0.0,0.0,0.0,0.0631578947368
1449617119666294676,0.352,0.0,0.0,0.0,0.0,0.0631578947368
1449617119706169695,0.352,0.0,0.0,0.0,0.0,0.0631578947368
1449617119745673261,0.352,0.0,0.0,0.0,0.0,0.0631578947368
1449617119787379440,0.352,0.0,0.0,0.0,0.0,0.0631578947368
1449617119825864213,0.352,0.0,0.0,0.0,0.0,0.105263157895
1449617119865801963,0.352,0.0,0.0,0.0,0.0,0.105263157895
1449617119905879890,0.352,0.0,0.0,0.0,0.0,0.105263157895
1449617119946275181,0.352,0.0,0.0,0.0,0.0,0.105263157895
1449617119987201079,0.352,0.0,0.0,0.0,0.0,0.105263157895
1449617120026323727,0.352,0.0,0.0,0.0,0.0,0.105263157895
1449617120066335744,0.352,0.0,0.0,0.0,0.0,0.105263157895
1449617120105879024,0.352,0.0,0.0,0.0,0.0,0.105263157895
1449617120145573424,0.352,0.0,0.0,0.0,0.0,0.105263157895
1449617120188691090,0.352,0.0,0.0,0.0,0.0,0.105263157895
1449617120226312984,0.352,0.0,0.0,0.0,0.0,0.105263157895
1449617120266756954,0.352,0.0,0.0,0.0,0.0,0.105263157895
1449617120305889387,0.352,0.0,0.0,0.0,0.0,0.105263157895
1449617120346643141,0.352,0.0,0.0,0.0,0.0,0.147368421053
1449617120386018527,0.352,0.0,0.0,0.0,0.0,0.147368421053
1449617120426589332,0.352,0.0,0.0,0.0,0.0,0.147368421053
1449617120465807864,0.352,0.0,0.0,0.0,0.0,0.147368421053
1449617120506304271,0.352,0.0,0.0,0.0,0.0,0.147368421053
1449617120547605403,0.352,0.0,0.0,0.0,0.0,0.147368421053
1449617120586547706,0.352,0.0,0.0,0.0,0.0,0.147368421053
1449617120625754565,0.352,0.0,0.0,0.0,0.0,0.147368421053
1449617120666071414,0.352,0.0,0.0,0.0,0.0,0.147368421053
1449617120706015914,0.352,0.0,0.0,0.0,0.0,0.147368421053
1449617120745876274,0.352,0.0,0.0,0.0,0.0,0.147368421053
1449617120786805195,0.352,0.0,0.0,0.0,0.0,0.147368421053
1449617120825843706,0.352,0.0,0.0,0.0,0.0,0.147368421053
1449617120866023359,0.352,0.0,0.0,0.0,0.0,0.147368421053
1449617120905763872,0.352,0.0,0.0,0.0,0.0,0.147368421053
1449617120946269077,0.352,0.0,0.0,0.0,0.0,0.147368421053
1449617120987072944,0.352,0.0,0.0,0.0,0.0,0.147368421053
1449617121025563519,0.352,0.0,0.0,0.0,0.0,0.147368421053
1449617121065888980,0.352,0.0,0.0,0.0,0.0,0.189473684211
1449617121106210827,0.352,0.0,0.0,0.0,0.0,0.189473684211
1449617121145841945,0.352,0.0,0.0,0.0,0.0,0.189473684211
1449617121186258302,0.352,0.0,0.0,0.0,0.0,0.189473684211
1449617121226011753,0.352,0.0,0.0,0.0,0.0,0.189473684211
1449617121265693258,0.352,0.0,0.0,0.0,0.0,0.189473684211
1449617121305865174,0.352,0.0,0.0,0.0,0.0,0.189473684211
1449617121346146372,0.352,0.0,0.0,0.0,0.0,0.189473684211
1449617121385972155,0.352,0.0,0.0,0.0,0.0,0.189473684211
1449617121427957116,0.352,0.0,0.0,0.0,0.0,0.189473684211
1449617121466002189,0.352,0.0,0.0,0.0,0.0,0.189473684211
1449617121505636672,0.352,0.0,0.0,0.0,0.0,0.189473684211
1449617121550036153,0.352,0.0,0.0,0.0,0.0,0.189473684211
1449617121585680524,0.352,0.0,0.0,0.0,0.0,0.189473684211
1449617121625921351,0.352,0.0,0.0,0.0,0.0,0.189473684211
1449617121666007573,0.352,0.0,0.0,0.0,0.0,0.189473684211
1449617121707944115,0.352,0.0,0.0,0.0,0.0,0.231578947368
1449617121745875460,0.352,0.0,0.0,0.0,0.0,0.231578947368
1449617121790460949,0.352,0.0,0.0,0.0,0.0,0.231578947368
1449617121825896372,0.352,0.0,0.0,0.0,0.0,0.231578947368
1449617121865860040,0.352,0.0,0.0,0.0,0.0,0.231578947368
1449617121906188407,0.352,0.0,0.0,0.0,0.0,0.231578947368
1449617121945892761,0.352,0.0,0.0,0.0,0.0,0.231578947368
1449617121985671139,0.352,0.0,0.0,0.0,0.0,0.231578947368
1449617122025714596,0.352,0.0,0.0,0.0,0.0,0.231578947368
1449617122067451953,0.352,0.0,0.0,0.0,0.0,0.231578947368
1449617122105838389,0.352,0.0,0.0,0.0,0.0,0.231578947368
1449617122145734498,0.352,0.0,0.0,0.0,0.0,0.231578947368
1449617122185939545,0.352,0.0,0.0,0.0,0.0,0.231578947368
1449617122225963263,0.352,0.0,0.0,0.0,0.0,0.189473684211
1449617122267062317,0.352,0.0,0.0,0.0,0.0,0.189473684211
1449617122305738921,0.352,0.0,0.0,0.0,0.0,0.189473684211
1449617122345825063,0.352,0.0,0.0,0.0,0.0,0.189473684211
1449617122388178676,0.352,0.0,0.0,0.0,0.0,0.231578947368
1449617122432233073,0.352,0.0,0.0,0.0,0.0,0.231578947368
1449617122465617225,0.352,0.0,0.0,0.0,0.0,0.231578947368
1449617122506086088,0.352,0.0,0.0,0.0,0.0,0.231578947368
1449617122546054628,0.352,0.0,0.0,0.0,0.0,0.231578947368
1449617122587919760,0.352,0.0,0.0,0.0,0.0,0.231578947368
1449617122626335348,0.352,0.0,0.0,0.0,0.0,0.231578947368
1449617122666011407,0.352,0.0,0.0,0.0,0.0,0.231578947368
1449617122706179693,0.352,0.0,0.0,0.0,0.0,0.231578947368
1449617122747762225,0.352,0.0,0.0,0.0,0.0,0.231578947368
1449617122786296447,0.352,0.0,0.0,0.0,0.0,0.231578947368
1449617122826164039,0.352,0.0,0.0,0.0,0.0,0.231578947368
1449617122873815318,0.352,0.0,0.0,0.0,0.0,0.231578947368
1449617122908897589,0.352,0.0,0.0,0.0,0.0,0.231578947368
1449617122946929436,0.352,0.0,0.0,0.0,0.0,0.231578947368
1449617122985833410,0.352,0.0,0.0,0.0,0.0,0.231578947368
1449617123027332078,0.352,0.0,0.0,0.0,0.0,0.231578947368
1449617123066856523,0.352,0.0,0.0,0.0,0.0,0.231578947368
1449617123106348353,0.352,0.0,0.0,0.0,0.0,0.231578947368
1449617123147689491,0.352,0.0,0.0,0.0,0.0,0.231578947368
1449617123186269692,0.352,0.0,0.0,0.0,0.0,0.189473684211
1449617123229554645,0.352,0.0,0.0,0.0,0.0,0.189473684211
1449617123266002964,0.352,0.0,0.0,0.0,0.0,0.189473684211
1449617123307223439,0.352,0.0,0.0,0.0,0.0,0.189473684211
1449617123346978955,0.352,0.0,0.0,0.0,0.0,0.189473684211
1449617123386156096,0.352,0.0,0.0,0.0,0.0,0.189473684211
1449617123426188881,0.352,0.0,0.0,0.0,0.0,0.147368421053
1449617123466330334,0.352,0.0,0.0,0.0,0.0,0.147368421053
1449617123506794401,0.352,0.0,0.0,0.0,0.0,0.147368421053
1449617123545920974,0.352,0.0,0.0,0.0,0.0,0.147368421053
1449617123586354964,0.352,0.0,0.0,0.0,0.0,0.147368421053
1449617123627343157,0.352,0.0,0.0,0.0,0.0,0.0631578947368
1449617123666326515,0.352,0.0,0.0,0.0,0.0,0.0631578947368
1449617123706309994,0.352,0.0,0.0,0.0,0.0,0.0631578947368
1449617123745629400,0.352,0.0,0.0,0.0,0.0,0.0631578947368
1449617123787018589,0.352,0.0,0.0,0.0,0.0,0.0631578947368
1449617123825778071,0.352,0.0,0.0,0.0,0.0,0.0631578947368
1449617123866507797,0.352,0.0,0.0,0.0,0.0,0.0631578947368
1449617123906477336,0.352,0.0,0.0,0.0,0.0,0.105263157895
1449617123948282124,0.352,0.0,0.0,0.0,0.0,0.147368421053
1449617123985900494,0.352,0.0,0.0,0.0,0.0,0.147368421053
1449617124025575009,0.352,0.0,0.0,0.0,0.0,0.147368421053
1449617124066182990,0.352,0.0,0.0,0.0,0.0,0.147368421053
1449617124106528072,0.352,0.0,0.0,0.0,0.0,0.147368421053
1449617124147222424,0.352,0.0,0.0,0.0,0.0,0.147368421053
1449617124185573804,0.352,0.0,0.0,0.0,0.0,0.147368421053
1449617124226582585,0.352,0.0,0.0,0.0,0.0,0.147368421053
1449617124266495409,0.352,0.0,0.0,0.0,0.0,0.147368421053
1449617124305553759,0.352,0.0,0.0,0.0,0.0,0.147368421053
1449617124346007806,0.352,0.0,0.0,0.0,0.0,0.147368421053
1449617124386229683,0.2128,0.0,0.0,0.0,0.0,0.0
1449617124426664519,0.2128,0.0,0.0,0.0,0.0,0.0
1449617124465811662,-0.1,0.0,0.0,0.0,0.0,0.0
1449617124507641483,-0.1,0.0,0.0,0.0,0.0,0.0
1449617124549158675,-0.1,0.0,0.0,0.0,0.0,0.0
1449617124585658813,-0.1,0.0,0.0,0.0,0.0,0.0
1449617124626673907,-0.05,0.0,0.0,0.0,0.0,-0.196825397015
1449617124665784771,-0.05,0.0,0.0,0.0,0.0,-0.196825397015
1449617124705835455,-0.05,0.0,0.0,0.0,0.0,-0.196825397015
1449617124745959141,-0.05,0.0,0.0,0.0,0.0,-0.196825397015
1449617124786043458,-0.05,0.0,0.0,0.0,0.0,-0.196825397015
1449617124829999179,-0.05,0.0,0.0,0.0,0.0,-0.196825397015
1449617124865984961,-0.0736031745225,0.0,0.0,0.0,0.0,-0.0984126985073
1449617124906688265,-0.0736031745225,0.0,0.0,0.0,0.0,-0.0984126985073
1449617124945855970,-0.0736031745225,0.0,0.0,0.0,0.0,-0.0984126985073
1449617124986238880,-0.0736031745225,0.0,0.0,0.0,0.0,-0.0984126985073
1449617125027868294,-0.0736031745225,0.0,0.0,0.0,0.0,-0.0984126985073
1449617125066227643,-0.0736031745225,0.0,0.0,0.0,0.0,-0.0984126985073
1449617125107659593,-0.0736031745225,0.0,0.0,0.0,0.0,-0.0984126985073
1449617125150258725,-0.0736031745225,0.0,0.0,0.0,0.0,-0.0984126985073
1449617125186616306,-0.0736031745225,0.0,0.0,0.0,0.0,-0.0984126985073
1449617125225779155,-0.0736031745225,0.0,0.0,0.0,0.0,-0.0984126985073
1449617125269375139,-0.0736031745225,0.0,0.0,0.0,0.0,-0.0968253970146
1449617125311677869,-0.0736031745225,0.0,0.0,0.0,0.0,-0.0968253970146
1449617125346626330,-0.0736031745225,0.0,0.0,0.0,0.0,-0.0984126985073
1449617125386343693,-0.0736031745225,0.0,0.0,0.0,0.0,-0.0984126985073
1449617125425854822,0.310287535053,0.0,0.0,0.0,0.0,0.0210526315789
1449617125466351459,0.310287535053,0.0,0.0,0.0,0.0,0.0210526315789
1449617125506462454,0.305492171664,0.0,0.0,0.0,0.0,0.0210526315789
1449617125552184445,0.305492171664,0.0,0.0,0.0,0.0,0.0210526315789
1449617125586234077,0.303573404785,0.0,0.0,0.0,0.0,0.0210526315789
1449617125626377504,0.303573404785,0.0,0.0,0.0,0.0,0.0210526315789
1449617125669777764,0.300695003963,0.0,0.0,0.0,0.0,0.0210526315789
1449617125707739829,0.299735669992,0.0,0.0,0.0,0.0,0.0210526315789
1449617125745944837,0.299735669992,0.0,0.0,0.0,0.0,0.0210526315789
1449617125787446567,0.296856673754,0.0,0.0,0.0,0.0,0.0210526315789
1449617125826920644,0.296856673754,0.0,0.0,0.0,0.0,0.0210526315789
1449617125866349320,0.294937397547,0.0,0.0,0.0,0.0,0.0210526315789
1449617125905840016,0.294937397547,0.0,0.0,0.0,0.0,0.0210526315789
1449617125948548840,0.293977539346,0.0,0.0,0.0,0.0,0.0
1449617125987941109,0.293977539346,0.0,0.0,0.0,0.0,0.0
1449617126026165009,0.292058049171,0.0,0.0,0.0,0.0,0.0
1449617126065734073,0.292058049171,0.0,0.0,0.0,0.0,0.0
1449617126105865749,0.290138406893,0.0,0.0,0.0,0.0,0.0
1449617126146483365,0.290138406893,0.0,0.0,0.0,0.0,0.0
1449617126186568472,0.0,0.0,0.0,0.0,0.0,0.0
1449617126225698427,0.0,0.0,0.0,0.0,0.0,0.0
1449617126265950686,0.0,0.0,0.0,0.0,0.0,0.0
1449617126306014429,0.0,0.0,0.0,0.0,0.0,0.0
1449617126350435333,0.0,0.0,0.0,0.0,0.0,0.0
1449617126386285816,0.0,0.0,0.0,0.0,0.0,0.0
1449617126430055054,0.0,0.0,0.0,0.0,0.0,0.0
1449617126465970306,0.0,0.0,0.0,0.0,0.0,0.0
1449617126506658603,0.0,0.0,0.0,0.0,0.0,0.0
1449617126547621592,0.0,0.0,0.0,0.0,0.0,0.0
1449617126586114189,0.0,0.0,0.0,0.0,0.0,0.0
1449617126626452367,0.0,0.0,0.0,0.0,0.0,0.0
1449617126666098614,0.0,0.0,0.0,0.0,0.0,0.0
1449617126715030987,0.0,0.0,0.0,0.0,0.0,0.0
1449617126746054529,0.0,0.0,0.0,0.0,0.0,0.0
1449617126786234620,0.0,0.0,0.0,0.0,0.0,0.0
1449617126826734153,0.0,0.0,0.0,0.0,0.0,0.0
1449617126865910162,0.0,0.0,0.0,0.0,0.0,0.0
1449617126905661128,0.0,0.0,0.0,0.0,0.0,0.0
1449617126949656610,0.0,0.0,0.0,0.0,0.0,0.0
1449617126986541438,0.0,0.0,0.0,0.0,0.0,0.0
1449617127025976546,0.0,0.0,0.0,0.0,0.0,0.0
1449617127065702624,0.0,0.0,0.0,0.0,0.0,0.0
1449617127105815996,0.0,0.0,0.0,0.0,0.0,0.0
1449617127145931589,0.0,0.0,0.0,0.0,0.0,0.0
1449617127186578123,0.0,0.0,0.0,0.0,0.0,0.0
1449617127226326319,0.0,0.0,0.0,0.0,0.0,0.0
1449617127266163338,0.0,0.0,0.0,0.0,0.0,0.0
1449617127306622659,0.0,0.0,0.0,0.0,0.0,0.0
1449617127347547518,0.0,0.0,0.0,0.0,0.0,0.0
1449617127386298150,0.0,0.0,0.0,0.0,0.0,0.0
1449617127429320500,0.0,0.0,0.0,0.0,0.0,0.0
1449617127465618983,0.0,0.0,0.0,0.0,0.0,0.0
1449617127505721697,0.0,0.0,0.0,0.0,0.0,0.0
1449617127546096595,0.0,0.0,0.0,0.0,0.0,0.0
1449617127586158915,0.0,0.0,0.0,0.0,0.0,0.0
1449617127626179538,0.0,0.0,0.0,0.0,0.0,0.0
1449617127665679139,0.0,0.0,0.0,0.0,0.0,0.0
1449617127705772487,0.0,0.0,0.0,0.0,0.0,0.0
1449617127746128210,0.0,0.0,0.0,0.0,0.0,0.0
1449617127787385712,0.0,0.0,0.0,0.0,0.0,0.0
1449617127826729779,0.0,0.0,0.0,0.0,0.0,0.0
1449617127865656313,0.0,0.0,0.0,0.0,0.0,0.0
1449617127906141335,0.0,0.0,0.0,0.0,0.0,0.0
1449617127946037768,0.0,0.0,0.0,0.0,0.0,0.0
1449617127985549647,0.0,0.0,0.0,0.0,0.0,0.0
1449617128025731454,0.0,0.0,0.0,0.0,0.0,0.0
1449617128066812988,0.0,0.0,0.0,0.0,0.0,0.0
1449617128112035270,0.0,0.0,0.0,0.0,0.0,0.0
1449617128145551934,0.0,0.0,0.0,0.0,0.0,0.0
1449617128186445409,0.0,0.0,0.0,0.0,0.0,0.0
1449617128225783308,0.0,0.0,0.0,0.0,0.0,0.0
1449617128266567473,0.0,0.0,0.0,0.0,0.0,0.0
1449617128305856171,0.0,0.0,0.0,0.0,0.0,0.0
1449617128345803288,0.0,0.0,0.0,0.0,0.0,0.0
1449617128386525169,0.0,0.0,0.0,0.0,0.0,0.0
1449617128428724267,0.0,0.0,0.0,0.0,0.0,0.0
1449617128467459688,0.0,0.0,0.0,0.0,0.0,0.0
1449617128505617343,0.0,0.0,0.0,0.0,0.0,0.0
1449617128546901473,0.0,0.0,0.0,0.0,0.0,0.0
1449617128586317894,0.0,0.0,0.0,0.0,0.0,0.0
1449617128626159522,0.0,0.0,0.0,0.0,0.0,0.0
1449617128665720830,0.0,0.0,0.0,0.0,0.0,0.0
1449617128705789410,0.0,0.0,0.0,0.0,0.0,0.0
1449617128746089581,0.0,0.0,0.0,0.0,0.0,0.0
1449617128786454675,0.0,0.0,0.0,0.0,0.0,0.0
1449617128826215694,0.0,0.0,0.0,0.0,0.0,0.0
1449617128866060406,0.0,0.0,0.0,0.0,0.0,0.0
1449617128905848481,0.0,0.0,0.0,0.0,0.0,0.0
1449617128946537770,0.0,0.0,0.0,0.0,0.0,0.0
1449617128986171684,0.0,0.0,0.0,0.0,0.0,0.0
1449617129027251228,0.0,0.0,0.0,0.0,0.0,0.0
1449617129067268816,0.0,0.0,0.0,0.0,0.0,0.0
1449617129105757710,0.0,0.0,0.0,0.0,0.0,0.0
1449617129145577062,0.0,0.0,0.0,0.0,0.0,0.0
1449617129186355986,0.0,0.0,0.0,0.0,0.0,0.0
1449617129226861504,0.12,0.0,0.0,0.0,0.0,-0.0210526315789
1449617129267083235,0.12,0.0,0.0,0.0,0.0,-0.0210526315789
1449617129306669019,0.12,0.0,0.0,0.0,0.0,-0.0210526315789
1449617129346046403,0.12,0.0,0.0,0.0,0.0,-0.0210526315789
1449617129387028423,0.12,0.0,0.0,0.0,0.0,-0.0210526315789
1449617129425902446,0.12,0.0,0.0,0.0,0.0,-0.0210526315789
1449617129466166593,0.12,0.0,0.0,0.0,0.0,-0.0210526315789
1449617129506149622,0.12,0.0,0.0,0.0,0.0,-0.0210526315789
1449617129546092461,0.12,0.0,0.0,0.0,0.0,-0.0210526315789
1449617129585841651,0.12,0.0,0.0,0.0,0.0,-0.0210526315789
1449617129626713246,0.12,0.0,0.0,0.0,0.0,-0.0210526315789
1449617129665713501,0.12,0.0,0.0,0.0,0.0,-0.0210526315789
1449617129707085031,0.12,0.0,0.0,0.0,0.0,-0.0210526315789
1449617129747054618,0.12,0.0,0.0,0.0,0.0,-0.0210526315789
1449617129785562987,0.12,0.0,0.0,0.0,0.0,-0.0210526315789
1449617129826055647,0.12,0.0,0.0,0.0,0.0,-0.0210526315789
1449617129874366299,0.12,0.0,0.0,0.0,0.0,-0.0210526315789
1449617129906199757,0.12,0.0,0.0,0.0,0.0,-0.0210526315789
1449617129945687974,0.12,0.0,0.0,0.0,0.0,-0.0210526315789
1449617129986309762,0.12,0.0,0.0,0.0,0.0,-0.0210526315789
1449617130026364930,0.12,0.0,0.0,0.0,0.0,-0.0210526315789
1449617130065645320,0.12,0.0,0.0,0.0,0.0,-0.0210526315789
1449617130105730461,0.12,0.0,0.0,0.0,0.0,-0.0210526315789
1449617130149470019,0.12,0.0,0.0,0.0,0.0,-0.0210526315789
1449617130187682230,0.12,0.0,0.0,0.0,0.0,-0.0210526315789
1449617130225726481,0.12,0.0,0.0,0.0,0.0,-0.0210526315789
1449617130265951030,0.12,0.0,0.0,0.0,0.0,-0.0210526315789
1449617130305909664,0.12,0.0,0.0,0.0,0.0,-0.0210526315789
1449617130346507091,0.12,0.0,0.0,0.0,0.0,-0.0210526315789
1449617130388859715,0.12,0.0,0.0,0.0,0.0,-0.0210526315789
1449617130426882861,0.136889438528,0.0,0.0,0.0,0.0,-0.0210526315789
1449617130465812158,0.136889438528,0.0,0.0,0.0,0.0,-0.0210526315789
1449617130509038974,0.136889438528,0.0,0.0,0.0,0.0,-0.0210526315789
1449617130546431402,0.136726315096,0.0,0.0,0.0,0.0,-0.0210526315789
1449617130588472363,0.136726315096,0.0,0.0,0.0,0.0,-0.0210526315789
1449617130626442699,0.148063493729,0.0,0.0,0.0,0.0,-0.0132539701462
1449617130666392965,0.148063493729,0.0,0.0,0.0,0.0,-0.0132539701462
1449617130706403829,0.148063493729,0.0,0.0,0.0,0.0,-0.0132539701462
1449617130747229927,0.148063493729,0.0,0.0,0.0,0.0,-0.0132539701462
1449617130786101185,0.148063493729,0.0,0.0,0.0,0.0,-0.0135338362895
1449617130828258510,0.148063493729,0.0,0.0,0.0,0.0,-0.0135338362895
1449617130866859174,0.148063493729,0.0,0.0,0.0,0.0,-0.0135338362895
1449617130906298291,0.150857144356,0.0,0.0,0.0,0.0,-0.0103592333041
1449617130946364487,0.150857144356,0.0,0.0,0.0,0.0,-0.0103592333041
1449617130986560422,0.148063493729,0.0,0.0,0.0,0.0,-0.0132539701462
1449617131025761283,0.148063493729,0.0,0.0,0.0,0.0,-0.0132539701462
1449617131067166688,0.148063493729,0.0,0.0,0.0,0.0,-0.0164285731316
1449617131105913458,0.148063493729,0.0,0.0,0.0,0.0,-0.0164285731316
1449617131145967602,0.148063493729,0.0,0.0,0.0,0.0,-0.0164285731316
1449617131185898216,0.148063493729,0.0,0.0,0.0,0.0,-0.0132539701462
1449617131225814169,0.148063493729,0.0,0.0,0.0,0.0,-0.0132539701462
1449617131265993883,0.148063493729,0.0,0.0,0.0,0.0,-0.0132539701462
1449617131306627702,0.148063493729,0.0,0.0,0.0,0.0,-0.0132539701462
1449617131345760241,0.150857144356,0.0,0.0,0.0,0.0,-0.0132539701462
1449617131387891955,0.150857144356,0.0,0.0,0.0,0.0,-0.0132539701462
1449617131426555705,0.12,0.0,0.0,0.0,0.0,-0.0210526315789
1449617131465941850,0.12,0.0,0.0,0.0,0.0,-0.0210526315789
1449617131512393618,0.12,0.0,0.0,0.0,0.0,-0.0210526315789
1449617131546315925,0.12,0.0,0.0,0.0,0.0,-0.0210526315789
1449617131586176970,0.150857144356,0.0,0.0,0.0,0.0,-0.0164285731316
1449617131626136837,0.150857144356,0.0,0.0,0.0,0.0,-0.0164285731316
1449617131666167300,0.150857144356,0.0,0.0,0.0,0.0,-0.0164285731316
1449617131706318907,0.150857144356,0.0,0.0,0.0,0.0,-0.0132539701462
1449617131750060137,0.150857144356,0.0,0.0,0.0,0.0,-0.0132539701462
1449617131786239557,0.106158734322,0.0,0.0,0.0,0.0,0.0089682507515
1449617131826806689,0.106158734322,0.0,0.0,0.0,0.0,0.0089682507515
1449617131865617088,0.134171405355,0.0,0.0,0.0,0.0,-0.0210526315789
1449617131907985142,0.134171405355,0.0,0.0,0.0,0.0,-0.0210526315789
1449617131946847149,0.134171405355,0.0,0.0,0.0,0.0,-0.0210526315789
1449617131986157183,0.134171405355,0.0,0.0,0.0,0.0,-0.0210526315789
1449617132028143694,0.134171405355,0.0,0.0,0.0,0.0,-0.0210526315789
1449617132066100379,0.161582957698,0.0,0.0,0.0,0.0,-0.0631578947368
1449617132106507037,0.161582957698,0.0,0.0,0.0,0.0,-0.0631578947368
1449617132155770350,0.161120708875,0.0,0.0,0.0,0.0,-0.0631578947368
1449617132187998795,0.161120708875,0.0,0.0,0.0,0.0,-0.0631578947368
1449617132226054120,0.161120708875,0.0,0.0,0.0,0.0,-0.0631578947368
1449617132266016123,0.161120708875,0.0,0.0,0.0,0.0,-0.0631578947368
1449617132306201098,0.133551942449,0.0,0.0,0.0,0.0,-0.0210526315789
1449617132349942782,0.186992706394,0.0,0.0,0.0,0.0,-0.0631578947368
1449617132386253012,0.186992706394,0.0,0.0,0.0,0.0,-0.0631578947368
1449617132425846406,0.186992706394,0.0,0.0,0.0,0.0,-0.0631578947368
1449617132466355901,0.172376232924,0.0,0.0,0.0,0.0,-0.0631578947368
1449617132506018870,0.172376232924,0.0,0.0,0.0,0.0,-0.0631578947368
1449617132554131562,0.172376232924,0.0,0.0,0.0,0.0,-0.0631578947368
1449617132586059599,0.17116425045,0.0,0.0,0.0,0.0,-0.0631578947368
1449617132627370632,0.17116425045,0.0,0.0,0.0,0.0,-0.0631578947368
1449617132666056870,0.17116425045,0.0,0.0,0.0,0.0,-0.0631578947368
1449617132706088582,0.17116425045,0.0,0.0,0.0,0.0,-0.0631578947368
1449617132748760249,0.183203892024,0.0,0.0,0.0,0.0,-0.0631578947368
1449617132786312125,0.183203892024,0.0,0.0,0.0,0.0,-0.0631578947368
1449617132826585979,0.181700444683,0.0,0.0,0.0,0.0,-0.0631578947368
1449617132868301026,0.181700444683,0.0,0.0,0.0,0.0,-0.0631578947368
1449617132905920744,0.143489568789,0.0,0.0,0.0,0.0,-0.0631578947368
1449617132946740640,0.143489568789,0.0,0.0,0.0,0.0,-0.0631578947368
1449617132985902039,0.143489568789,0.0,0.0,0.0,0.0,-0.0631578947368
1449617133026077624,0.143489568789,0.0,0.0,0.0,0.0,-0.0631578947368
1449617133067940503,0.154350861826,0.0,0.0,0.0,0.0,-0.0631578947368
1449617133106418896,0.153914985386,0.0,0.0,0.0,0.0,-0.0631578947368
1449617133145839527,0.153914985386,0.0,0.0,0.0,0.0,-0.0631578947368
1449617133186452839,0.152603461225,0.0,0.0,0.0,0.0,-0.0631578947368
1449617133226505867,0.152603461225,0.0,0.0,0.0,0.0,-0.0631578947368
1449617133266326890,0.161755213562,0.0,0.0,0.0,0.0,-0.0631578947368
1449617133306112362,0.161755213562,0.0,0.0,0.0,0.0,-0.0631578947368
1449617133346018645,0.160615277178,0.0,0.0,0.0,0.0,-0.0631578947368
1449617133385615898,0.160615277178,0.0,0.0,0.0,0.0,-0.0631578947368
1449617133432241226,0.14002825304,0.0,0.0,0.0,0.0,-0.0631578947368
1449617133467479945,0.159494223207,0.0,0.0,0.0,0.0,-0.0631578947368
1449617133506561392,0.12,0.0,0.0,0.0,0.0,-0.0631578947368
1449617133545700423,0.12,0.0,0.0,0.0,0.0,-0.0631578947368
1449617133586617031,0.12,0.0,0.0,0.0,0.0,-0.0631578947368
1449617133627449075,0.165906515932,0.0,0.0,0.0,0.0,-0.105263157895
1449617133665711963,0.165906515932,0.0,0.0,0.0,0.0,-0.105263157895
1449617133707241118,0.12,0.0,0.0,0.0,0.0,-0.0631578947368
1449617133746090715,0.164542192428,0.0,0.0,0.0,0.0,-0.105263157895
1449617133785752136,0.12863926835,0.0,0.0,0.0,0.0,-0.0631578947368
1449617133831567365,0.12863926835,0.0,0.0,0.0,0.0,-0.0631578947368
1449617133865585821,0.145117243354,0.0,0.0,0.0,0.0,-0.0631578947368
1449617133906497600,0.145117243354,0.0,0.0,0.0,0.0,-0.0631578947368
1449617133946147875,0.152431675508,0.0,0.0,0.0,0.0,-0.105263157895
1449617133985803207,0.151383488508,0.0,0.0,0.0,0.0,-0.105263157895
1449617134025631982,0.151383488508,0.0,0.0,0.0,0.0,-0.105263157895
1449617134065735510,0.151383488508,0.0,0.0,0.0,0.0,-0.105263157895
1449617134106220299,0.150869145748,0.0,0.0,0.0,0.0,-0.105263157895
1449617134146157249,0.150869145748,0.0,0.0,0.0,0.0,-0.105263157895
1449617134186090768,0.15793911872,0.0,0.0,0.0,0.0,-0.105263157895
1449617134226234855,0.15793911872,0.0,0.0,0.0,0.0,-0.105263157895
1449617134265737234,0.157302632125,0.0,0.0,0.0,0.0,-0.105263157895
1449617134312282754,0.157302632125,0.0,0.0,0.0,0.0,-0.105263157895
1449617134346357745,0.156031891581,0.0,0.0,0.0,0.0,-0.105263157895
1449617134385918667,0.156031891581,0.0,0.0,0.0,0.0,-0.105263157895
1449617134425816811,0.154782209987,0.0,0.0,0.0,0.0,-0.105263157895
1449617134466562784,0.140127818332,0.0,0.0,0.0,0.0,-0.105263157895
1449617134505624517,0.140127818332,0.0,0.0,0.0,0.0,-0.105263157895
1449617134549316231,0.140127818332,0.0,0.0,0.0,0.0,-0.105263157895
1449617134586556339,0.140127818332,0.0,0.0,0.0,0.0,-0.105263157895
1449617134626825171,0.140127818332,0.0,0.0,0.0,0.0,-0.105263157895
1449617134666138372,0.140127818332,0.0,0.0,0.0,0.0,-0.105263157895
1449617134706896989,0.15231688561,0.0,0.0,0.0,0.0,-0.105263157895
1449617134748234511,0.151109663468,0.0,0.0,0.0,0.0,-0.105263157895
1449617134785742435,0.143933845727,0.0,0.0,0.0,0.0,-0.105263157895
1449617134825749142,0.143933845727,0.0,0.0,0.0,0.0,-0.105263157895
1449617134866399948,0.148740250981,0.0,0.0,0.0,0.0,-0.147368421053
1449617134906211897,0.148740250981,0.0,0.0,0.0,0.0,-0.147368421053
1449617134947456442,0.148740250981,0.0,0.0,0.0,0.0,-0.147368421053
1449617134985909843,0.146433118409,0.0,0.0,0.0,0.0,-0.147368421053
1449617135025997444,0.146433118409,0.0,0.0,0.0,0.0,-0.147368421053
1449617135067218468,0.146433118409,0.0,0.0,0.0,0.0,-0.147368421053
1449617135106218530,0.146433118409,0.0,0.0,0.0,0.0,-0.147368421053
1449617135145723420,0.140243093346,0.0,0.0,0.0,0.0,-0.105263157895
1449617135185921735,0.140243093346,0.0,0.0,0.0,0.0,-0.105263157895
1449617135225556806,0.144191335461,0.0,0.0,0.0,0.0,-0.147368421053
1449617135266398773,0.144191335461,0.0,0.0,0.0,0.0,-0.147368421053
1449617135308142195,0.144191335461,0.0,0.0,0.0,0.0,-0.147368421053
1449617135346231718,0.144191335461,0.0,0.0,0.0,0.0,-0.147368421053
1449617135387214422,0.144191335461,0.0,0.0,0.0,0.0,-0.147368421053
1449617135449984358,0.137614458894,0.0,0.0,0.0,0.0,-0.147368421053
1449617135465964782,0.13676645193,0.0,0.0,0.0,0.0,-0.147368421053
1449617135505830583,0.139916370502,0.0,0.0,0.0,0.0,-0.147368421053
1449617135546593985,0.135114721966,0.0,0.0,0.0,0.0,-0.147368421053
1449617135585928618,0.135114721966,0.0,0.0,0.0,0.0,-0.147368421053
1449617135626182560,0.135114721966,0.0,0.0,0.0,0.0,-0.147368421053
1449617135665557652,0.135114721966,0.0,0.0,0.0,0.0,-0.147368421053
1449617135707785873,0.130733790968,0.0,0.0,0.0,0.0,-0.147368421053
1449617135746899701,0.130733790968,0.0,0.0,0.0,0.0,-0.147368421053
1449617135787122665,0.133122590103,0.0,0.0,0.0,0.0,-0.147368421053
1449617135826847684,0.133122590103,0.0,0.0,0.0,0.0,-0.147368421053
1449617135869810398,0.133122590103,0.0,0.0,0.0,0.0,-0.147368421053
1449617135906368082,0.133122590103,0.0,0.0,0.0,0.0,-0.147368421053
1449617135946199333,0.126176082757,0.0,0.0,0.0,0.0,-0.147368421053
1449617135997319293,0.133576109419,0.0,0.0,0.0,0.0,-0.147368421053
1449617136025943516,0.133127747721,0.0,0.0,0.0,0.0,-0.147368421053
1449617136066471760,0.133127747721,0.0,0.0,0.0,0.0,-0.147368421053
1449617136106743293,0.130140730622,0.0,0.0,0.0,0.0,-0.147368421053
1449617136145614465,0.130140730622,0.0,0.0,0.0,0.0,-0.147368421053
1449617136187111881,0.130140730622,0.0,0.0,0.0,0.0,-0.147368421053
1449617136225987671,0.128745802299,0.0,0.0,0.0,0.0,-0.147368421053
1449617136265901526,0.126053773068,0.0,0.0,0.0,0.0,-0.147368421053
1449617136305926612,0.126053773068,0.0,0.0,0.0,0.0,-0.147368421053
1449617136346655151,0.126053773068,0.0,0.0,0.0,0.0,-0.147368421053
1449617136386376240,0.126053773068,0.0,0.0,0.0,0.0,-0.147368421053
1449617136426275168,0.123708005027,0.0,0.0,0.0,0.0,-0.147368421053
1449617136465909159,0.123708005027,0.0,0.0,0.0,0.0,-0.147368421053
1449617136506222598,0.12169291407,0.0,0.0,0.0,0.0,-0.147368421053
1449617136546931459,0.12169291407,0.0,0.0,0.0,0.0,-0.147368421053
1449617136586197114,0.127692268721,0.0,0.0,0.0,0.0,-0.147368421053
1449617136626965163,0.124383524435,0.0,0.0,0.0,0.0,-0.147368421053
1449617136668581691,0.124383524435,0.0,0.0,0.0,0.0,-0.147368421053
1449617136709893179,0.126560822535,0.0,0.0,0.0,0.0,-0.147368421053
1449617136746801624,0.122480904279,0.0,0.0,0.0,0.0,-0.147368421053
1449617136788099911,0.122480904279,0.0,0.0,0.0,0.0,-0.147368421053
1449617136827670589,0.122480904279,0.0,0.0,0.0,0.0,-0.147368421053
1449617136868531147,0.124672466415,0.0,0.0,0.0,0.0,-0.147368421053
1449617136905957227,0.12102724983,0.0,0.0,0.0,0.0,-0.147368421053
1449617136946707722,0.12102724983,0.0,0.0,0.0,0.0,-0.147368421053
1449617136989160333,0.120891495966,0.0,0.0,0.0,0.0,-0.147368421053
1449617137025668989,0.12,0.0,0.0,0.0,0.0,-0.147368421053
1449617137065957594,0.12,0.0,0.0,0.0,0.0,-0.147368421053
1449617137106072696,0.12,0.0,0.0,0.0,0.0,-0.147368421053
1449617137146456794,0.12,0.0,0.0,0.0,0.0,-0.147368421053
1449617137190254989,0.12,0.0,0.0,0.0,0.0,-0.147368421053
1449617137227398491,0.12,0.0,0.0,0.0,0.0,-0.147368421053
1449617137267291251,0.12,0.0,0.0,0.0,0.0,-0.147368421053
1449617137305985207,0.12,0.0,0.0,0.0,0.0,-0.147368421053
1449617137345984819,0.12,0.0,0.0,0.0,0.0,-0.147368421053
1449617137386812478,0.12,0.0,0.0,0.0,0.0,-0.147368421053
1449617137426806258,0.12,0.0,0.0,0.0,0.0,-0.147368421053
1449617137466279840,0.12,0.0,0.0,0.0,0.0,-0.147368421053
1449617137506737894,0.12,0.0,0.0,0.0,0.0,-0.147368421053
1449617137545687925,0.12,0.0,0.0,0.0,0.0,-0.147368421053
1449617137589132947,0.12,0.0,0.0,0.0,0.0,-0.147368421053
1449617137626272251,0.12,0.0,0.0,0.0,0.0,-0.147368421053
1449617137667940527,0.12,0.0,0.0,0.0,0.0,-0.147368421053
1449617137709521706,0.12,0.0,0.0,0.0,0.0,-0.147368421053
1449617137745886162,0.12,0.0,0.0,0.0,0.0,-0.147368421053
1449617137786779591,0.12,0.0,0.0,0.0,0.0,-0.147368421053
1449617137826570697,0.00139682547748,0.0,0.0,0.0,0.0,0.134087301493
1449617137865809519,0.12,0.0,0.0,0.0,0.0,-0.147368421053
1449617137906147152,0.12,0.0,0.0,0.0,0.0,-0.147368421053
1449617137947212820,0.12,0.0,0.0,0.0,0.0,-0.147368421053
1449617137985615634,0.00279365095496,0.0,0.0,0.0,0.0,0.135674602985
1449617138026669518,0.00279365095496,0.0,0.0,0.0,0.0,0.135674602985
1449617138068083112,0.00279365095496,0.0,0.0,0.0,0.0,0.134087301493
1449617138105866453,0.00279365095496,0.0,0.0,0.0,0.0,0.134087301493
1449617138145805152,0.00279365095496,0.0,0.0,0.0,0.0,0.134087301493
1449617138186141051,0.00279365095496,0.0,0.0,0.0,0.0,0.134087301493
1449617138226701949,0.00279365095496,0.0,0.0,0.0,0.0,0.134087301493
1449617138267816432,0.00279365095496,0.0,0.0,0.0,0.0,0.134087301493
1449617138305976684,0.00279365095496,0.0,0.0,0.0,0.0,0.135674602985
1449617138346852882,0.00279365095496,0.0,0.0,0.0,0.0,0.135674602985
1449617138389121179,0.00279365095496,0.0,0.0,0.0,0.0,0.134087301493
1449617138425735436,0.00279365095496,0.0,0.0,0.0,0.0,0.134087301493
1449617138466437519,0.00279365095496,0.0,0.0,0.0,0.0,0.143611110449
1449617138506072316,0.00279365095496,0.0,0.0,0.0,0.0,0.143611110449
1449617138547365835,0.00279365095496,0.0,0.0,0.0,0.0,0.135674602985
1449617138585807794,0.00279365095496,0.0,0.0,0.0,0.0,0.135674602985
1449617138625787336,0.00279365095496,0.0,0.0,0.0,0.0,0.135674602985
1449617138667056981,0.00279365095496,0.0,0.0,0.0,0.0,0.148373014927
1449617138706455614,0.00279365095496,0.0,0.0,0.0,0.0,0.148373014927
1449617138748364042,0.00279365095496,0.0,0.0,0.0,0.0,0.134087301493
1449617138786213624,0.00279365095496,0.0,0.0,0.0,0.0,0.134087301493
1449617138826706180,0.00279365095496,0.0,0.0,0.0,0.0,0.134087301493
1449617138866045131,0.00279365095496,0.0,0.0,0.0,0.0,0.134087301493
1449617138917842828,0.12,0.0,0.0,0.0,0.0,-0.147368421053
1449617138948296599,0.12,0.0,0.0,0.0,0.0,-0.147368421053
1449617138987717494,0.12,0.0,0.0,0.0,0.0,-0.147368421053
1449617139025661351,0.12,0.0,0.0,0.0,0.0,-0.147368421053
1449617139065601369,0.148063493729,0.0,0.0,0.0,0.0,-0.0132539701462
1449617139107252814,0.148063493729,0.0,0.0,0.0,0.0,-0.0132539701462
1449617139198430381,0.226285716534,0.0,0.0,0.0,0.0,-0.174880955219
1449617139198456029,0.226285716534,0.0,0.0,0.0,0.0,-0.174880955219
1449617139232736849,0.226285716534,0.0,0.0,0.0,0.0,-0.174880955219
1449617139266504609,0.226285716534,0.0,0.0,0.0,0.0,-0.174880955219
1449617139308675299,0.148063493729,0.0,0.0,0.0,0.0,-0.0132539701462
1449617139346255078,0.148063493729,0.0,0.0,0.0,0.0,-0.0132539701462
1449617139386617036,0.148063493729,0.0,0.0,0.0,0.0,-0.0132539701462
1449617139426133241,0.148063493729,0.0,0.0,0.0,0.0,-0.0164285731316
1449617139469211948,0.125714288712,0.0,0.0,0.0,0.0,0.0121428537369
1449617139506683524,0.125714288712,0.0,0.0,0.0,0.0,0.0121428537369
1449617139546207659,0.148063493729,0.0,0.0,0.0,0.0,-0.0132539701462
1449617139586761460,0.148063493729,0.0,0.0,0.0,0.0,-0.0132539701462
1449617139626833084,0.148063493729,0.0,0.0,0.0,0.0,-0.0132539701462
1449617139667195334,0.148063493729,0.0,0.0,0.0,0.0,-0.0132539701462
1449617139706288426,0.148063493729,0.0,0.0,0.0,0.0,-0.0164285731316
1449617139745616434,0.296126987457,0.0,0.0,0.0,0.0,-0.330158734322
1449617139786688256,0.296126987457,0.0,0.0,0.0,0.0,-0.330158734322
1449617139827239546,0.296126987457,0.0,0.0,0.0,0.0,-0.330158734322
1449617139866006330,0.296126987457,0.0,0.0,0.0,0.0,-0.342857146263
1449617139911411941,0.296126987457,0.0,0.0,0.0,0.0,-0.342857146263
1449617139945814561,0.296126987457,0.0,0.0,0.0,0.0,-0.342857146263
1449617139986043339,0.301714288712,0.0,0.0,0.0,0.0,-0.336507940292
1449617140029242375,0.301714288712,0.0,0.0,0.0,0.0,-0.336507940292
1449617140065803707,0.0,0.0,0.0,0.0,0.0,0.0
1449617140106036273,0.12,0.0,0.0,0.0,0.0,-0.147368421053
1449617140146152522,0.12,0.0,0.0,0.0,0.0,-0.147368421053
1449617140185974288,0.12,0.0,0.0,0.0,0.0,-0.147368421053
1449617140227171401,0.12,0.0,0.0,0.0,0.0,-0.147368421053
1449617140266557698,0.12,0.0,0.0,0.0,0.0,-0.147368421053
1449617140306446896,0.201262191185,0.0,0.0,0.0,0.0,-0.273684210526
1449617140347396037,0.201262191185,0.0,0.0,0.0,0.0,-0.273684210526
1449617140388789263,0.199503428043,0.0,0.0,0.0,0.0,-0.273684210526
1449617140426040265,0.197743436401,0.0,0.0,0.0,0.0,-0.231578947368
1449617140465705094,0.197743436401,0.0,0.0,0.0,0.0,-0.231578947368
1449617140505865531,0.197743436401,0.0,0.0,0.0,0.0,-0.231578947368
1449617140545953830,0.195096954528,0.0,0.0,0.0,0.0,-0.273684210526
1449617140586411205,0.195096954528,0.0,0.0,0.0,0.0,-0.273684210526
1449617140632762832,0.19334043753,0.0,0.0,0.0,0.0,-0.273684210526
1449617140665873248,0.19158294441,0.0,0.0,0.0,0.0,-0.273684210526
1449617140706125759,0.19158294441,0.0,0.0,0.0,0.0,-0.273684210526
1449617140745668491,0.188940276802,0.0,0.0,0.0,0.0,-0.231578947368
1449617140786509891,0.188940276802,0.0,0.0,0.0,0.0,-0.231578947368
1449617140828197915,0.187182383322,0.0,0.0,0.0,0.0,-0.273684210526
1449617140866357458,0.187182383322,0.0,0.0,0.0,0.0,-0.273684210526
1449617140905919406,0.185423557388,0.0,0.0,0.0,0.0,-0.273684210526
1449617140946190078,0.324063493729,0.0,0.0,0.0,0.0,-0.184126985073
1449617140985956363,0.324063493729,0.0,0.0,0.0,0.0,-0.184126985073
1449617141036076135,0.324063493729,0.0,0.0,0.0,0.0,-0.184126985073
1449617141065706225,0.340825397491,0.0,0.0,0.0,0.0,-0.0317460328341
1449617141106114654,0.340825397491,0.0,0.0,0.0,0.0,-0.0317460328341
1449617141146046498,0.335238096237,0.0,0.0,0.0,0.0,-0.0761904776096
1449617141186877191,0.335238096237,0.0,0.0,0.0,0.0,-0.0761904776096
1449617141225768538,0.335238096237,0.0,0.0,0.0,0.0,-0.0761904776096
1449617141265855585,0.335238096237,0.0,0.0,0.0,0.0,-0.0761904776096
1449617141306021309,0.169501246717,0.0,0.0,0.0,0.0,-0.273684210526
1449617141346978127,0.169501246717,0.0,0.0,0.0,0.0,-0.273684210526
1449617141386480909,0.169501246717,0.0,0.0,0.0,0.0,-0.273684210526
1449617141426591016,0.168611535452,0.0,0.0,0.0,0.0,-0.231578947368
1449617141468840435,0.165943110217,0.0,0.0,0.0,0.0,-0.231578947368
1449617141506456328,0.165943110217,0.0,0.0,0.0,0.0,-0.231578947368
1449617141546330472,0.165943110217,0.0,0.0,0.0,0.0,-0.231578947368
1449617141588809543,0.161479732821,0.0,0.0,0.0,0.0,-0.273684210526
1449617141626341147,0.161479732821,0.0,0.0,0.0,0.0,-0.273684210526
1449617141666072371,0.158807343796,0.0,0.0,0.0,0.0,-0.231578947368
1449617141705717628,0.158807343796,0.0,0.0,0.0,0.0,-0.231578947368
1449617141746012969,0.158807343796,0.0,0.0,0.0,0.0,-0.231578947368
1449617141786460801,0.158807343796,0.0,0.0,0.0,0.0,-0.231578947368
1449617141825864068,0.15257102909,0.0,0.0,0.0,0.0,-0.273684210526
1449617141866206918,0.148998225245,0.0,0.0,0.0,0.0,-0.273684210526
1449617141906813403,0.148998225245,0.0,0.0,0.0,0.0,-0.273684210526
1449617141946103874,0.340825397491,0.0,0.0,0.0,0.0,-0.0317460328341
1449617141987820023,0.340825397491,0.0,0.0,0.0,0.0,-0.0317460328341
1449617142030191919,0.340825397491,0.0,0.0,0.0,0.0,-0.0317460328341
1449617142065684307,0.346412698746,0.0,0.0,0.0,0.0,-0.0317460328341
1449617142106019726,0.346412698746,0.0,0.0,0.0,0.0,-0.0317460328341
1449617142146301132,0.346412698746,0.0,0.0,0.0,0.0,-0.0317460328341
1449617142186311210,0.14093857531,0.0,0.0,0.0,0.0,-0.273684210526
1449617142226902685,0.139148165388,0.0,0.0,0.0,0.0,-0.273684210526
1449617142271091799,0.139148165388,0.0,0.0,0.0,0.0,-0.273684210526
1449617142311207868,0.139148165388,0.0,0.0,0.0,0.0,-0.273684210526
1449617142345831095,0.129567083019,0.0,0.0,0.0,0.0,-0.315789473684
1449617142386256727,0.129567083019,0.0,0.0,0.0,0.0,-0.315789473684
1449617142426939444,0.129567083019,0.0,0.0,0.0,0.0,-0.315789473684
1449617142466058425,0.129567083019,0.0,0.0,0.0,0.0,-0.315789473684
1449617142506784609,0.128847246441,0.0,0.0,0.0,0.0,-0.273684210526
1449617142547048376,0.128847246441,0.0,0.0,0.0,0.0,-0.273684210526
1449617142586400529,0.0,0.0,0.0,0.0,0.0,0.0
1449617142630330213,0.0,0.0,0.0,0.0,0.0,0.0
1449617142665538267,0.189968263626,0.0,0.0,0.0,0.0,-0.0253968268633
1449617142708703770,0.0,0.0,0.0,0.0,0.0,0.0
1449617142746344719,0.340825397491,0.0,0.0,0.0,0.0,-0.0253968268633
1449617142789282306,0.340825397491,0.0,0.0,0.0,0.0,-0.0253968268633
1449617142828323077,0.340825397491,0.0,0.0,0.0,0.0,-0.0253968268633
1449617142866013882,0.340825397491,0.0,0.0,0.0,0.0,-0.0253968268633
1449617142912876455,0.0,0.0,0.0,0.0,0.0,0.0
1449617142946293000,0.12,0.0,0.0,0.0,0.0,-0.189473684211
1449617142986094504,0.117333334208,0.0,0.0,0.0,0.0,0.0203571417928
1449617143030113678,0.117333334208,0.0,0.0,0.0,0.0,0.0203571417928
1449617143065541665,0.117333334208,0.0,0.0,0.0,0.0,0.0203571417928
1449617143105940977,0.151498316155,0.0,0.0,0.0,0.0,-0.0210526315789
1449617143147833335,0.212910680151,0.0,0.0,0.0,0.0,-0.0517961575797
1449617143186017076,0.178793661118,0.0,0.0,0.0,0.0,-0.0825396835804
1449617143227599255,0.178793661118,0.0,0.0,0.0,0.0,-0.0825396835804
1449617143265649617,0.184380962372,0.0,0.0,0.0,0.0,-0.0825396835804
1449617143305833722,0.184380962372,0.0,0.0,0.0,0.0,-0.0825396835804
1449617143347802015,0.184380962372,0.0,0.0,0.0,0.0,-0.0825396835804
1449617143385903049,0.184380962372,0.0,0.0,0.0,0.0,-0.0825396835804
1449617143427417465,0.184380962372,0.0,0.0,0.0,0.0,-0.0825396835804
1449617143465558808,0.184380962372,0.0,0.0,0.0,0.0,-0.0825396835804
1449617143505484579,0.094984131813,0.0,0.0,0.0,0.0,-0.120634925365
1449617143545689345,0.11733333683,0.0,0.0,0.0,0.0,-0.139682543278
1449617143585777827,0.11733333683,0.0,0.0,0.0,0.0,-0.139682543278
1449617143626468102,0.11733333683,0.0,0.0,0.0,0.0,-0.139682543278
1449617143667512039,0.11733333683,0.0,0.0,0.0,0.0,-0.139682543278
1449617143706751508,0.173206349373,0.0,0.0,0.0,0.0,-0.196825397015
1449617143746097127,0.296126987457,0.0,0.0,0.0,0.0,-0.336507940292
1449617143786512325,0.296126987457,0.0,0.0,0.0,0.0,-0.336507940292
1449617143826033369,0.296126987457,0.0,0.0,0.0,0.0,-0.336507940292
1449617143865823713,0.296126987457,0.0,0.0,0.0,0.0,-0.336507940292
1449617143906943659,0.296126987457,0.0,0.0,0.0,0.0,-0.336507940292
1449617143945744840,0.296126987457,0.0,0.0,0.0,0.0,-0.336507940292
1449617143986479906,0.296126987457,0.0,0.0,0.0,0.0,-0.336507940292
1449617144031854035,0.296126987457,0.0,0.0,0.0,0.0,-0.336507940292
1449617144071990080,0.296126987457,0.0,0.0,0.0,0.0,-0.336507940292
1449617144106171436,0.296126987457,0.0,0.0,0.0,0.0,-0.336507940292
1449617144145711151,0.296126987457,0.0,0.0,0.0,0.0,-0.336507940292
1449617144186015193,0.301714288712,0.0,0.0,0.0,0.0,-0.342857146263
1449617144225746631,0.301714288712,0.0,0.0,0.0,0.0,-0.342857146263
1449617144268699500,0.296126987457,0.0,0.0,0.0,0.0,-0.336507940292
1449617144313728105,0.296126987457,0.0,0.0,0.0,0.0,-0.336507940292
1449617144346006804,0.301714288712,0.0,0.0,0.0,0.0,-0.342857146263
1449617144386464325,0.301714288712,0.0,0.0,0.0,0.0,-0.342857146263
1449617144426095132,0.301714288712,0.0,0.0,0.0,0.0,-0.342857146263
1449617144467273347,0.296126987457,0.0,0.0,0.0,0.0,-0.336507940292
1449617144513869014,0.296126987457,0.0,0.0,0.0,0.0,-0.336507940292
1449617144546546479,0.296126987457,0.0,0.0,0.0,0.0,-0.336507940292
1449617144592681127,0.329650794983,0.0,0.0,0.0,0.0,-0.126984131336
1449617144626153197,0.329650794983,0.0,0.0,0.0,0.0,-0.126984131336
1449617144667233195,0.0167619050741,0.0,0.0,0.0,0.0,-0.0126984134316
1449617144706378967,0.0167619050741,0.0,0.0,0.0,0.0,-0.0126984134316
1449617144750035692,0.00558730190992,0.0,0.0,0.0,0.0,0.0
1449617144787348090,0.00558730190992,0.0,0.0,0.0,0.0,0.0
1449617144826147758,0.00558730190992,0.0,0.0,0.0,0.0,0.0
1449617144865918359,0.00558730190992,0.0,0.0,0.0,0.0,0.0
1449617144905752765,0.00558730190992,0.0,0.0,0.0,0.0,0.0
1449617144945608538,-0.0,0.0,0.0,0.0,0.0,0.0
1449617144985897516,-0.0,0.0,0.0,0.0,0.0,0.0
1449617145026696365,-0.0,0.0,0.0,0.0,0.0,0.0
1449617145066434720,-0.0,0.0,0.0,0.0,0.0,0.0
1449617145105788286,-0.0,0.0,0.0,0.0,0.0,0.0
1449617145145970348,-0.0,0.0,0.0,0.0,0.0,0.0
1449617145188608729,-0.0,0.0,0.0,0.0,0.0,0.0
1449617145225845821,-0.0,0.0,0.0,0.0,0.0,0.0
1449617145265807635,-0.0,0.0,0.0,0.0,0.0,0.0
1449617145306069753,-0.0,0.0,0.0,0.0,0.0,0.0
1449617145346058057,-0.0,0.0,0.0,0.0,0.0,0.0
1449617145385780481,-0.0,0.0,0.0,0.0,0.0,0.0
1449617145425946586,-0.0,0.0,0.0,0.0,0.0,0.0
1449617145466298736,-0.0,0.0,0.0,0.0,0.0,0.0
1449617145505483186,-0.0,0.0,0.0,0.0,0.0,0.0
1449617145546129097,-0.0,0.0,0.0,0.0,0.0,0.0
1449617145585916564,-0.0,0.0,0.0,0.0,0.0,0.0
1449617145626198011,-0.0,0.0,0.0,0.0,0.0,0.0
1449617145665748822,-0.0,0.0,0.0,0.0,0.0,0.0
1449617145705717573,-0.0,0.0,0.0,0.0,0.0,0.0
1449617145746186288,-0.0,0.0,0.0,0.0,0.0,0.0
1449617145786462456,-0.0,0.0,0.0,0.0,0.0,0.0
1449617145826445335,-0.0,0.0,0.0,0.0,0.0,0.0
1449617145865957342,-0.0,0.0,0.0,0.0,0.0,0.0
1449617145905791759,-0.0,0.0,0.0,0.0,0.0,-0.0
1449617145946263939,-0.0,0.0,0.0,0.0,0.0,-0.0
1449617145989694619,-0.0,0.0,0.0,0.0,0.0,-0.0
1449617146026502426,0.0223492076397,0.0,0.0,0.0,0.0,-0.00634920671582
1449617146065800704,0.352,0.0,0.0,0.0,0.0,-0.00634920671582
1449617146106366689,0.352,0.0,0.0,0.0,0.0,-0.00634920671582
1449617146147161653,0.352,0.0,0.0,0.0,0.0,-0.00634920671582
1449617146186323029,0.352,0.0,0.0,0.0,0.0,-0.00634920671582
1449617146226666272,0.346412698746,0.0,0.0,0.0,0.0,-0.00634920671582
1449617146265763044,0.346412698746,0.0,0.0,0.0,0.0,-0.00634920671582
1449617146307009522,0.346412698746,0.0,0.0,0.0,0.0,-0.00634920671582
1449617146347293648,0.346412698746,0.0,0.0,0.0,0.0,-0.00634920671582
1449617146385957041,0.346412698746,0.0,0.0,0.0,0.0,-0.00634920671582
1449617146425727792,0.346412698746,0.0,0.0,0.0,0.0,-0.00634920671582
1449617146465901343,0.346412698746,0.0,0.0,0.0,0.0,-0.00634920671582
1449617146505848104,0.346412698746,0.0,0.0,0.0,0.0,-0.00634920671582
1449617146545909897,0.346412698746,0.0,0.0,0.0,0.0,-0.00634920671582
1449617146586139401,0.346412698746,0.0,0.0,0.0,0.0,-0.00634920671582
1449617146627766731,0.346412698746,0.0,0.0,0.0,0.0,-0.00634920671582
1449617146667094132,0.346412698746,0.0,0.0,0.0,0.0,-0.00634920671582
1449617146706038108,0.346412698746,0.0,0.0,0.0,0.0,-0.00634920671582
1449617146748788368,0.346412698746,0.0,0.0,0.0,0.0,-0.00634920671582
1449617146785852433,0.346412698746,0.0,0.0,0.0,0.0,-0.00634920671582
1449617146827802897,0.346412698746,0.0,0.0,0.0,0.0,-0.00634920671582
1449617146867832613,0.346412698746,0.0,0.0,0.0,0.0,-0.00634920671582
1449617146907643543,0.346412698746,0.0,0.0,0.0,0.0,-0.00634920671582
1449617146945868139,0.346412698746,0.0,0.0,0.0,0.0,-0.00634920671582
1449617146985799935,0.346412698746,0.0,0.0,0.0,0.0,-0.00634920671582
1449617147038357716,0.346412698746,0.0,0.0,0.0,0.0,-0.00634920671582
1449617147066892671,0.346412698746,0.0,0.0,0.0,0.0,-0.00634920671582
1449617147109661705,0.346412698746,0.0,0.0,0.0,0.0,-0.00634920671582
1449617147147548811,0.346412698746,0.0,0.0,0.0,0.0,-0.00634920671582
1449617147186481178,0.346412698746,0.0,0.0,0.0,0.0,-0.00634920671582
1449617147227383809,0.346412698746,0.0,0.0,0.0,0.0,-0.00634920671582
1449617147266175316,0.346412698746,0.0,0.0,0.0,0.0,-0.00634920671582
1449617147305996441,0.346412698746,0.0,0.0,0.0,0.0,-0.00634920671582
1449617147346189055,0.307301589966,0.0,0.0,0.0,0.0,0.0
1449617147386803349,0.307301589966,0.0,0.0,0.0,0.0,0.0
1449617147426109829,0.307301589966,0.0,0.0,0.0,0.0,0.0
1449617147466230569,0.294873220737,0.0,0.0,0.0,0.0,-0.00476190503687
