%time,field.header.seq,field.header.stamp,field.header.frame_id,field.polygon.points0.x,field.polygon.points0.y,field.polygon.points0.z,field.polygon.points1.x,field.polygon.points1.y,field.polygon.points1.z,field.polygon.points2.x,field.polygon.points2.y,field.polygon.points2.z,field.polygon.points3.x,field.polygon.points3.y,field.polygon.points3.z,field.polygon.points4.x,field.polygon.points4.y,field.polygon.points4.z
1449617106628627185,2,1449617106628399756,odom,0.569999992847,0.0,0.0,0.469999998808,-0.305000007153,0.0,-0.730000019073,-0.305000007153,0.0,-0.730000019073,0.305000007153,0.0,0.469999998808,0.305000007153,0.0
1449617106828416963,3,1449617106828288488,odom,0.569999992847,0.0,0.0,0.469999998808,-0.305000007153,0.0,-0.730000019073,-0.305000007153,0.0,-0.730000019073,0.305000007153,0.0,0.469999998808,0.305000007153,0.0
1449617107028578972,4,1449617107028390573,odom,0.569999992847,0.0,0.0,0.469999998808,-0.305000007153,0.0,-0.730000019073,-0.305000007153,0.0,-0.730000019073,0.305000007153,0.0,0.469999998808,0.305000007153,0.0
1449617107228861551,5,1449617107228545150,odom,0.569999992847,0.0,0.0,0.469999998808,-0.305000007153,0.0,-0.730000019073,-0.305000007153,0.0,-0.730000019073,0.305000007153,0.0,0.469999998808,0.305000007153,0.0
1449617107428784508,6,1449617107428387024,odom,0.569999992847,0.0,0.0,0.469999998808,-0.305000007153,0.0,-0.730000019073,-0.305000007153,0.0,-0.730000019073,0.305000007153,0.0,0.469999998808,0.305000007153,0.0
1449617107629177033,7,1449617107628643529,odom,0.569999992847,0.0,0.0,0.469999998808,-0.305000007153,0.0,-0.730000019073,-0.305000007153,0.0,-0.730000019073,0.305000007153,0.0,0.469999998808,0.305000007153,0.0
1449617107828876919,8,1449617107828472275,odom,0.569999992847,0.0,0.0,0.469999998808,-0.305000007153,0.0,-0.730000019073,-0.305000007153,0.0,-0.730000019073,0.305000007153,0.0,0.469999998808,0.305000007153,0.0
1449617108028920708,9,1449617108028554734,odom,0.569999992847,0.0,0.0,0.469999998808,-0.305000007153,0.0,-0.730000019073,-0.305000007153,0.0,-0.730000019073,0.305000007153,0.0,0.469999998808,0.305000007153,0.0
1449617108231659662,10,1449617108228896539,odom,0.569999992847,0.0,0.0,0.469999998808,-0.305000007153,0.0,-0.730000019073,-0.305000007153,0.0,-0.730000019073,0.305000007153,0.0,0.469999998808,0.305000007153,0.0
1449617108578240027,11,1449617108577648000,odom,0.569999992847,0.0,0.0,0.469999998808,-0.305000007153,0.0,-0.730000019073,-0.305000007153,0.0,-0.730000019073,0.305000007153,0.0,0.469999998808,0.305000007153,0.0
1449617108824606875,12,1449617108822946626,odom,0.569999992847,0.0,0.0,0.469999998808,-0.305000007153,0.0,-0.730000019073,-0.305000007153,0.0,-0.730000019073,0.305000007153,0.0,0.469999998808,0.305000007153,0.0
1449617109072076478,13,1449617109067259889,odom,0.569999992847,0.0,0.0,0.469999998808,-0.305000007153,0.0,-0.730000019073,-0.305000007153,0.0,-0.730000019073,0.305000007153,0.0,0.469999998808,0.305000007153,0.0
1449617109280477721,14,1449617109280306509,odom,0.569999992847,0.0,0.0,0.469999998808,-0.305000007153,0.0,-0.730000019073,-0.305000007153,0.0,-0.730000019073,0.305000007153,0.0,0.469999998808,0.305000007153,0.0
1449617109432121247,15,1449617109425842894,odom,0.569999992847,0.0,0.0,0.469999998808,-0.305000007153,0.0,-0.730000019073,-0.305000007153,0.0,-0.730000019073,0.305000007153,0.0,0.469999998808,0.305000007153,0.0
1449617109516933987,16,1449617109516022765,odom,0.569999992847,0.0,0.0,0.469999998808,-0.305000007153,0.0,-0.730000019073,-0.305000007153,0.0,-0.730000019073,0.305000007153,0.0,0.469999998808,0.305000007153,0.0
1449617109746813665,17,1449617109730178222,odom,0.569999992847,0.0,0.0,0.469999998808,-0.305000007153,0.0,-0.730000019073,-0.305000007153,0.0,-0.730000019073,0.305000007153,0.0,0.469999998808,0.305000007153,0.0
1449617109977239046,18,1449617109977044110,odom,0.569999992847,0.0,0.0,0.469999998808,-0.305000007153,0.0,-0.730000019073,-0.305000007153,0.0,-0.730000019073,0.305000007153,0.0,0.469999998808,0.305000007153,0.0
1449617110111985343,19,1449617110111708629,odom,0.569999992847,0.0,0.0,0.469999998808,-0.305000007153,0.0,-0.730000019073,-0.305000007153,0.0,-0.730000019073,0.305000007153,0.0,0.469999998808,0.305000007153,0.0
1449617110316346336,20,1449617110314946509,odom,0.569999992847,0.0,0.0,0.469999998808,-0.305000007153,0.0,-0.730000019073,-0.305000007153,0.0,-0.730000019073,0.305000007153,0.0,0.469999998808,0.305000007153,0.0
1449617110595188162,21,1449617110592642413,odom,0.569999992847,0.0,0.0,0.469999998808,-0.305000007153,0.0,-0.730000019073,-0.305000007153,0.0,-0.730000019073,0.305000007153,0.0,0.469999998808,0.305000007153,0.0
1449617110726037099,22,1449617110725656564,odom,0.569999992847,0.0,0.0,0.469999998808,-0.305000007153,0.0,-0.730000019073,-0.305000007153,0.0,-0.730000019073,0.305000007153,0.0,0.469999998808,0.305000007153,0.0
1449617110961796968,23,1449617110957019954,odom,0.569999992847,0.0,0.0,0.469999998808,-0.305000007153,0.0,-0.730000019073,-0.305000007153,0.0,-0.730000019073,0.305000007153,0.0,0.469999998808,0.305000007153,0.0
1449617111148729249,24,1449617111148105416,odom,0.569999992847,0.0,0.0,0.469999998808,-0.305000007153,0.0,-0.730000019073,-0.305000007153,0.0,-0.730000019073,0.305000007153,0.0,0.469999998808,0.305000007153,0.0
1449617111335682570,25,1449617111335046813,odom,0.569999992847,0.0,0.0,0.469999998808,-0.305000007153,0.0,-0.730000019073,-0.305000007153,0.0,-0.730000019073,0.305000007153,0.0,0.469999998808,0.305000007153,0.0
1449617111552378267,26,1449617111549049152,odom,0.569999992847,0.0,0.0,0.469999998808,-0.305000007153,0.0,-0.730000019073,-0.305000007153,0.0,-0.730000019073,0.305000007153,0.0,0.469999998808,0.305000007153,0.0
1449617111755156069,27,1449617111754599558,odom,0.569999992847,0.0,0.0,0.469999998808,-0.305000007153,0.0,-0.730000019073,-0.305000007153,0.0,-0.730000019073,0.305000007153,0.0,0.469999998808,0.305000007153,0.0
1449617111924485847,28,1449617111921599540,odom,0.569999992847,0.0,0.0,0.469999998808,-0.305000007153,0.0,-0.730000019073,-0.305000007153,0.0,-0.730000019073,0.305000007153,0.0,0.469999998808,0.305000007153,0.0
1449617112126514402,29,1449617112126361716,odom,0.569999992847,0.0,0.0,0.469999998808,-0.305000007153,0.0,-0.730000019073,-0.305000007153,0.0,-0.730000019073,0.305000007153,0.0,0.469999998808,0.305000007153,0.0
1449617112316636613,30,1449617112315797507,odom,0.569999992847,0.0,0.0,0.469999998808,-0.305000007153,0.0,-0.730000019073,-0.305000007153,0.0,-0.730000019073,0.305000007153,0.0,0.469999998808,0.305000007153,0.0
1449617112538190683,31,1449617112534111881,odom,0.569999992847,0.0,0.0,0.469999998808,-0.305000007153,0.0,-0.730000019073,-0.305000007153,0.0,-0.730000019073,0.305000007153,0.0,0.469999998808,0.305000007153,0.0
1449617112779407062,32,1449617112777012390,odom,0.569999992847,0.0,0.0,0.469999998808,-0.305000007153,0.0,-0.730000019073,-0.305000007153,0.0,-0.730000019073,0.305000007153,0.0,0.469999998808,0.305000007153,0.0
1449617112920533960,33,1449617112920331252,odom,0.569999992847,0.0,0.0,0.469999998808,-0.305000007153,0.0,-0.730000019073,-0.305000007153,0.0,-0.730000019073,0.305000007153,0.0,0.469999998808,0.305000007153,0.0
1449617113127382789,34,1449617113125620766,odom,0.569999992847,0.0,0.0,0.469999998808,-0.305000007153,0.0,-0.730000019073,-0.305000007153,0.0,-0.730000019073,0.305000007153,0.0,0.469999998808,0.305000007153,0.0
1449617113356362068,35,1449617113355890298,odom,0.569999992847,0.0,0.0,0.469999998808,-0.305000007153,0.0,-0.730000019073,-0.305000007153,0.0,-0.730000019073,0.305000007153,0.0,0.469999998808,0.305000007153,0.0
1449617113546148341,36,1449617113541406002,odom,0.569999992847,0.0,0.0,0.469999998808,-0.305000007153,0.0,-0.730000019073,-0.305000007153,0.0,-0.730000019073,0.305000007153,0.0,0.469999998808,0.305000007153,0.0
1449617113804250294,37,1449617113800190469,odom,0.569999992847,0.0,0.0,0.469999998808,-0.305000007153,0.0,-0.730000019073,-0.305000007153,0.0,-0.730000019073,0.305000007153,0.0,0.469999998808,0.305000007153,0.0
1449617113937937988,38,1449617113935683628,odom,0.572847783566,-0.00605410896242,0.0,0.469630181789,-0.309980303049,0.0,-0.730302810669,-0.297298878431,0.0,-0.723856449127,0.312667071819,0.0,0.476076573133,0.299985647202,0.0
1449617114132433758,39,1449617114127598721,odom,0.575631439686,-0.0121379746124,0.0,0.469207763672,-0.314956396818,0.0,-0.730524241924,-0.289594978094,0.0,-0.717632174492,0.320268779993,0.0,0.482099831104,0.294907361269,0.0
1449617114395361051,40,1449617114390459175,odom,0.584108173847,-0.0184030681849,0.0,0.47449028492,-0.320079922676,0.0,-0.724906682968,-0.282041311264,0.0,-0.705570399761,0.327652156353,0.0,0.493826568127,0.289613544941,0.0
1449617114524326891,41,1449617114517112766,odom,0.598274886608,-0.0249399635941,0.0,0.485475063324,-0.325441539288,0.0,-0.713452935219,-0.274730026722,0.0,-0.687674582005,0.334725052118,0.0,0.511253416538,0.284013539553,0.0
1449617114831885175,42,1449617114830915144,odom,0.621681809425,-0.0136593468487,0.0,0.515258073807,-0.316477775574,0.0,-0.684473872185,-0.29111635685,0.0,-0.671581804752,0.31874743104,0.0,0.528150141239,0.293385982513,0.0
1449617114963349761,43,1449617114962079903,odom,0.647689282894,-0.00818410515785,0.0,0.544471681118,-0.312110304832,0.0,-0.65546131134,-0.299428880215,0.0,-0.649014949799,0.310537070036,0.0,0.550918102264,0.297855645418,0.0
1449617115200506965,44,1449617115198913293,odom,0.682245671749,0.00395454559475,0.0,0.585474491119,-0.302085220814,0.0,-0.614458560944,-0.314766645432,0.0,-0.620904922485,0.295199304819,0.0,0.579028069973,0.307880729437,0.0
1449617115374031659,45,1449617115371140323,odom,0.701916396618,0.0226578377187,0.0,0.614894926548,-0.28629565239,0.0,-0.584033071995,-0.337007194757,0.0,-0.609811425209,0.272447884083,0.0,0.589116573334,0.323159426451,0.0
1449617115543652824,46,1449617115529030972,odom,0.730028688908,0.0363612510264,0.0,0.649556279182,-0.274362385273,0.0,-0.548032224178,-0.350401371717,0.0,-0.586685359478,0.258372753859,0.0,0.610903084278,0.334411740303,0.0
1449617115797463099,47,1449617115775627044,odom,0.74062114954,0.0492876954377,0.0,0.666733682156,-0.263067305088,0.0,-0.528980255127,-0.364399760962,0.0,-0.58049094677,0.243421494961,0.0,0.615222990513,0.344753950834,0.0
1449617115963194679,48,1449617115960541638,odom,0.748686552048,0.0560470223427,0.0,0.678104102612,-0.257071375847,0.0,-0.516472160816,-0.371034294367,0.0,-0.57440328598,0.236208662391,0.0,0.620172977448,0.350171595812,0.0
1449617116184656893,49,1449617116184225581,odom,0.748686552048,0.0560470223427,0.0,0.678104102612,-0.257071375847,0.0,-0.516472160816,-0.371034294367,0.0,-0.57440328598,0.236208662391,0.0,0.620172977448,0.350171595812,0.0
1449617116335626355,50,1449617116327864185,odom,0.752096474171,0.0502907298505,0.0,0.678208947182,-0.262064278126,0.0,-0.517504930496,-0.363396704197,0.0,-0.569015622139,0.244424536824,0.0,0.626698315144,0.345756977797,0.0
1449617116571635134,51,1449617116564443006,odom,0.76357448101,0.0512634515762,0.0,0.689687013626,-0.261091530323,0.0,-0.506026923656,-0.362423986197,0.0,-0.557537615299,0.245397254825,0.0,0.638176321983,0.346729695797,0.0
1449617116781152147,52,1449617116780363403,odom,0.778403759003,0.0464138276875,0.0,0.701219499111,-0.265142887831,0.0,-0.495498508215,-0.353833556175,0.0,-0.540582954884,0.25449809432,0.0,0.656135082245,0.343188762665,0.0
1449617117014913808,53,1449617117011810889,odom,0.807122945786,0.0485422536731,0.0,0.729938685894,-0.26301446557,0.0,-0.466779351234,-0.351705133915,0.0,-0.511863768101,0.256626516581,0.0,0.684854269028,0.345317184925,0.0
1449617117175434692,54,1449617117172954116,odom,0.84159642458,0.0509445518255,0.0,0.764412105083,-0.260612159967,0.0,-0.432305902243,-0.349302828312,0.0,-0.477390319109,0.259028822184,0.0,0.719327688217,0.347719490528,0.0
1449617117332951037,55,1449617117330228930,odom,0.882604718208,0.041324224323,0.0,0.798853039742,-0.268531650305,0.0,-0.399472087622,-0.331910431385,0.0,-0.43168964982,0.277238190174,0.0,0.766635537148,0.340616971254,0.0
1449617117554719839,56,1449617117528489454,odom,0.931795120239,0.0375585518777,0.0,0.844773650169,-0.271394938231,0.0,-0.354154348373,-0.322106480598,0.0,-0.379932701588,0.287348598242,0.0,0.818995296955,0.33806014061,0.0
1449617117753639505,57,1449617117751356618,odom,0.978232979774,0.0268865637481,0.0,0.884701371193,-0.280158758163,0.0,-0.315030634403,-0.30552020669,0.0,-0.327922701836,0.304343551397,0.0,0.871809303761,0.329704999924,0.0
1449617118044817356,58,1449617118043750319,odom,1.03879964352,0.00912052951753,0.0,0.93558204174,-0.294805675745,0.0,-0.26435098052,-0.282124251127,0.0,-0.257904589176,0.327841699123,0.0,0.942028403282,0.315160304308,0.0
1449617118211415649,59,1449617118210819841,odom,1.11029171944,-0.0105869024992,0.0,0.997491836548,-0.311088472605,0.0,-0.201436176896,-0.260376960039,0.0,-0.175657823682,0.349078118801,0.0,1.02327024937,0.298366606236,0.0
1449617118329922167,60,1449617118327666314,odom,1.16962015629,-0.0319727286696,0.0,1.04735147953,-0.328747659922,0.0,-0.149366557598,-0.240057006478,0.0,-0.104282133281,0.368274658918,0.0,1.09243583679,0.279583990574,0.0
1449617118672586413,61,1449617118666644776,odom,1.2282409668,-0.0552284494042,0.0,1.09662628174,-0.34797847271,0.0,-0.0966789871454,-0.221397817135,0.0,-0.0323338136077,0.385199010372,0.0,1.16097140312,0.258618354797,0.0
1449617118852305047,62,1449617118847581777,odom,1.29753100872,-0.0817274153233,0.0,1.15670263767,-0.370158284903,0.0,-0.0319904498756,-0.205814853311,0.0,0.0515507981181,0.398437470198,0.0,1.24024391174,0.234094038606,0.0
1449617118999877316,63,1449617118999717234,odom,1.347001791,-0.101434901357,0.0,1.20010900497,-0.386825025082,0.0,0.0151547798887,-0.197395831347,0.0,0.111447952688,0.404955923557,0.0,1.29640221596,0.215526744723,0.0
1449617119192269788,64,1449617119191525456,odom,1.40335559845,-0.130097419024,0.0,1.24749016762,-0.41068777442,0.0,0.0691360533237,-0.183792114258,0.0,0.184474676847,0.415204554796,0.0,1.36282873154,0.188308894634,0.0
1449617119331887504,65,1449617119331255466,odom,1.46297812462,-0.15480658412,0.0,1.30121731758,-0.432040125132,0.0,0.127921700478,-0.180291205645,0.0,0.255894094706,0.416134059429,0.0,1.42918968201,0.164385125041,0.0
1449617119532833094,66,1449617119531256107,odom,1.51344120502,-0.191639810801,0.0,1.34010910988,-0.461789757013,0.0,0.178500473499,-0.160682693124,0.0,0.331563234329,0.429801702499,0.0,1.4931718111,0.12869463861,0.0
1449617119764107415,67,1449617119754791509,odom,1.57037591934,-0.212872430682,0.0,1.39419853687,-0.481175541878,0.0,0.235836863518,-0.167809590697,0.0,0.395131230354,0.421024262905,0.0,1.55349290371,0.107658326626,0.0
1449617119936182497,68,1449617119934218580,odom,1.62797665596,-0.24203799665,0.0,1.44616818428,-0.506557762623,0.0,0.294688075781,-0.168780371547,0.0,0.466391563416,0.416555374861,0.0,1.61787176132,0.0787779837847,0.0
1449617120163097180,69,1449617120162461922,odom,1.6841326952,-0.265327602625,0.0,1.49953901768,-0.527911245823,0.0,0.351692795753,-0.177984058857,0.0,0.529572427273,0.405504435301,0.0,1.6774187088,0.055577263236,0.0
1449617120445280315,70,1449617120439958334,odom,1.74000346661,-0.289325594902,0.0,1.55264508724,-0.549943804741,0.0,0.408560931683,-0.187905907631,0.0,0.592596888542,0.393670201302,0.0,1.73668110371,0.0316323004663,0.0
1449617120580388445,71,1449617120578817430,odom,1.80118334293,-0.315418601036,0.0,1.61108124256,-0.574042320251,0.0,0.470886945724,-0.199934095144,0.0,0.661058604717,0.379664689302,0.0,1.80125296116,0.00555647257715,0.0
1449617120751316761,72,1449617120748658001,odom,1.8605953455,-0.328220278025,0.0,1.67323696613,-0.588838517666,0.0,0.529152870178,-0.226800605655,0.0,0.713188767433,0.354775518179,0.0,1.8572729826,-0.00726239196956,0.0
1449617120921861277,73,1449617120917899612,odom,1.92006707191,-0.340625882149,0.0,1.73547339439,-0.603209555149,0.0,0.58762717247,-0.253282368183,0.0,0.765506863594,0.330206155777,0.0,1.91335308552,-0.0197210386395,0.0
1449617121180841036,74,1449617121179781048,odom,1.98514819145,-0.354168862104,0.0,1.80333983898,-0.618688642979,0.0,0.65185970068,-0.280911237001,0.0,0.823563158512,0.304424494505,0.0,1.97504329681,-0.0333528779447,0.0
1449617121323531789,75,1449617121318528188,odom,2.04385924339,-0.358170926571,0.0,1.86768186092,-0.626474022865,0.0,0.709320127964,-0.313108086586,0.0,0.868614494801,0.275725781918,0.0,2.02697610855,-0.0376401729882,0.0
1449617121575435780,76,1449617121575289233,odom,2.0970351696,-0.359603762627,0.0,1.92656755447,-0.631570339203,0.0,0.761841773987,-0.342755824327,0.0,0.908655822277,0.249313130975,0.0,2.07338166237,-0.0395014025271,0.0
1449617121718578062,77,1449617121718271518,odom,2.16005420685,-0.355486273766,0.0,1.99829339981,-0.632719814777,0.0,0.824997842312,-0.380970865488,0.0,0.952970206738,0.215454384685,0.0,2.12626576424,-0.0362945571542,0.0
1449617121932529107,78,1449617121930241325,odom,2.22850704193,-0.350760638714,0.0,2.07561564445,-0.632982492447,0.0,0.894929468632,-0.418552160263,0.0,1.00393152237,0.181629940867,0.0,2.1846177578,-0.0328003838658,0.0
1449617122125628539,79,1449617122124900781,odom,2.29684233665,-0.343477487564,0.0,2.15297365189,-0.630403995514,0.0,0.966083705425,-0.453507810831,0.0,1.05600595474,0.149827927351,0.0,2.2428958416,-0.0270682666451,0.0
1449617122337805944,80,1449617122335006678,odom,2.35705709457,-0.326559752226,0.0,2.22544264793,-0.619309782982,0.0,1.03213727474,-0.492729127407,0.0,1.09648251534,0.113867707551,0.0,2.28978776932,-0.0127129517496,0.0
1449617122583554867,81,1449617122582763567,odom,2.41974449158,-0.301008015871,0.0,2.30377531052,-0.600300729275,0.0,1.10545015335,-0.536921977997,0.0,1.13766777515,0.0722266584635,0.0,2.33599281311,0.00884786900133,0.0
1449617122738233550,82,1449617122737122177,odom,2.48382902145,-0.278813183308,0.0,2.38061141968,-0.58273935318,0.0,1.18067836761,-0.570057928562,0.0,1.18712472916,0.0399080067873,0.0,2.38705778122,0.0272265858948,0.0
1449617123016331975,83,1449617123013317625,odom,2.54116034508,-0.254021286964,0.0,2.45087885857,-0.562037885189,0.0,1.25148189068,-0.600076496601,0.0,1.23214554787,0.00961696729064,0.0,2.43154263496,0.0476555712521,0.0
1449617123305193343,84,1449617123305037964,odom,2.65811419487,-0.19619140029,0.0,2.59416508675,-0.510731577873,0.0,1.40226411819,-0.6499158144,0.0,1.33151209354,-0.0440328679979,0.0,2.52341294289,0.0951514020562,0.0
1449617123501028697,85,1449617123489936564,odom,2.71179509163,-0.163955613971,0.0,2.66119551659,-0.48091724515,0.0,1.47624135017,-0.670346438885,0.0,1.37994813919,-0.0679946914315,0.0,2.5649023056,0.121434502304,0.0
1449617123706134691,86,1449617123703516212,odom,2.76410031319,-0.129659444094,0.0,2.72694063187,-0.44847625494,0.0,1.55105006695,-0.687811911106,0.0,1.42938768864,-0.0900675803423,0.0,2.60527825356,0.149268090725,0.0
1449617123913790312,87,1449617123913128840,odom,2.80795645714,-0.101176410913,0.0,2.7809214592,-0.421010911465,0.0,1.61320865154,-0.697500646114,0.0,1.47265958786,-0.103913269937,0.0,2.64037251472,0.172576487064,0.0
1449617124095434006,88,1449617124094575973,odom,2.86976671219,-0.0533837899566,0.0,2.85966157913,-0.374199777842,0.0,1.70818150043,-0.711977124214,0.0,1.5364780426,-0.126641407609,0.0,2.68795824051,0.211135968566,0.0
1449617124300141850,89,1449617124298896581,odom,2.91660499573,-0.0197362098843,0.0,2.91667461395,-0.340711295605,0.0,1.77648043633,-0.71481949091,0.0,1.58630871773,-0.135220706463,0.0,2.72650313377,0.238887503743,0.0
1449617124494695717,90,1449617124494165109,odom,2.96272730827,0.0227017998695,0.0,2.97636127472,-0.297983586788,0.0,1.85299515724,-0.719941735268,0.0,1.63849973679,-0.148897334933,0.0,2.76186585426,0.273060828447,0.0
1449617124696433729,91,1449617124696072946,odom,2.99623537064,0.0554992035031,0.0,3.0200278759,-0.264592856169,0.0,1.91060185432,-0.721948385239,0.0,1.67811286449,-0.157990172505,0.0,2.78753876686,0.299365341663,0.0
1449617124868848272,92,1449617124866238862,odom,3.04439759254,0.103481814265,0.0,3.08169579506,-0.215318843722,0.0,1.99258852005,-0.719149708748,0.0,1.73647451401,-0.165520176291,0.0,2.82558178902,0.338310658932,0.0
1449617125107281694,93,1449617125093422743,odom,3.07026720047,0.136027976871,0.0,3.11765217781,-0.181430160999,0.0,2.04506325722,-0.719531238079,0.0,1.77152848244,-0.174298480153,0.0,2.84411740303,0.363802611828,0.0
1449617125331229306,94,1449617125319067341,odom,3.09575557709,0.155792564154,0.0,3.14649271965,-0.161147087812,0.0,2.07965016365,-0.710553109646,0.0,1.80036866665,-0.16824144125,0.0,2.86721134186,0.381164550781,0.0
1449617125493917543,95,1449617125492529671,odom,3.11050987244,0.177180767059,0.0,3.16793417931,-0.138615787029,0.0,2.11294126511,-0.710446298122,0.0,1.82226073742,-0.174158245325,0.0,2.87725353241,0.397672235966,0.0
1449617125678525667,96,1449617125678401954,odom,3.12571501732,0.185387700796,0.0,3.18313932419,-0.130408853292,0.0,2.12814640999,-0.702239334583,0.0,1.83746600151,-0.165951311588,0.0,2.89245891571,0.405879169703,0.0
1449617125938011586,97,1449617125936533304,odom,3.13541722298,0.197636500001,0.0,3.19617533684,-0.117535576224,0.0,2.14728450775,-0.70048314333,0.0,1.85095286369,-0.167296916246,0.0,2.89984369278,0.41565066576,0.0
1449617126092277307,98,1449617126088190429,odom,3.14503383636,0.209907576442,0.0,3.20911955833,-0.104604810476,0.0,2.16644763947,-0.698604345322,0.0,1.86449790001,-0.168579488993,0.0,2.90716981888,0.425420045853,0.0
1449617126307871903,99,1449617126306623975,odom,3.16446876526,0.228087037802,0.0,3.23187446594,-0.0857305377722,0.0,2.19553804398,-0.69071573019,0.0,1.88800394535,-0.163911417127,0.0,2.92434024811,0.441073775291,0.0
1449617126501884731,100,1449617126498116190,odom,3.18364810944,0.246575668454,0.0,3.25436663628,-0.0665120482445,0.0,2.22448158264,-0.682415306568,0.0,1.91139733791,-0.158890381455,0.0,2.94128251076,0.457012861967,0.0
1449617126690623233,101,1449617126682252521,odom,3.20266294479,0.265213906765,0.0,3.27668595314,-0.0471090041101,0.0,2.25336718559,-0.673861503601,0.0,1.9347679615,-0.153674483299,0.0,2.95808672905,0.473078042269,0.0
1449617126893586802,102,1449617126893191122,odom,3.21088457108,0.284625887871,0.0,3.29149198532,-0.0260628089309,0.0,2.28164792061,-0.674302697182,0.0,1.95212590694,-0.160965278745,0.0,2.96196985245,0.487274616957,0.0
1449617127119331749,103,1449617127114546875,odom,3.22056174278,0.290874063969,0.0,3.30116915703,-0.0198146291077,0.0,2.29132509232,-0.668054521084,0.0,1.96180307865,-0.154717102647,0.0,2.97164726257,0.493522793055,0.0
1449617127335830304,104,1449617127333150515,odom,3.21968793869,0.297507196665,0.0,3.30357408524,-0.0123122958466,0.0,2.30063676834,-0.671187877655,0.0,1.96570849419,-0.161361455917,0.0,2.96864557266,0.497514128685,0.0
1449617127510006268,105,1449617127509045221,odom,3.2205452919,0.290899604559,0.0,3.30115246773,-0.0197891052812,0.0,2.29130840302,-0.668029010296,0.0,1.96178650856,-0.154691576958,0.0,2.97163057327,0.493548303843,0.0
1449617127679568773,106,1449617127677265117,odom,3.2205452919,0.290899604559,0.0,3.30115246773,-0.0197891052812,0.0,2.29130840302,-0.668029010296,0.0,1.96178650856,-0.154691576958,0.0,2.97163057327,0.493548303843,0.0
1449617127894617890,107,1449617127888743137,odom,3.2205452919,0.290899604559,0.0,3.30115246773,-0.0197891052812,0.0,2.29130840302,-0.668029010296,0.0,1.96178650856,-0.154691576958,0.0,2.97163057327,0.493548303843,0.0
1449617128111709306,108,1449617128099778367,odom,3.2205452919,0.290899604559,0.0,3.30115246773,-0.0197891052812,0.0,2.29130840302,-0.668029010296,0.0,1.96178650856,-0.154691576958,0.0,2.97163057327,0.493548303843,0.0
1449617128304435409,109,1449617128303692992,odom,3.2205452919,0.290899604559,0.0,3.30115246773,-0.0197891052812,0.0,2.29130840302,-0.668029010296,0.0,1.96178650856,-0.154691576958,0.0,2.97163057327,0.493548303843,0.0
1449617128502078098,110,1449617128500828966,odom,3.2205452919,0.290899604559,0.0,3.30115246773,-0.0197891052812,0.0,2.29130840302,-0.668029010296,0.0,1.96178650856,-0.154691576958,0.0,2.97163057327,0.493548303843,0.0
1449617128676364095,111,1449617128675700289,odom,3.2205452919,0.290899604559,0.0,3.30115246773,-0.0197891052812,0.0,2.29130840302,-0.668029010296,0.0,1.96178650856,-0.154691576958,0.0,2.97163057327,0.493548303843,0.0
1449617128908513655,112,1449617128905619774,odom,3.2205452919,0.290899604559,0.0,3.30115246773,-0.0197891052812,0.0,2.29130840302,-0.668029010296,0.0,1.96178650856,-0.154691576958,0.0,2.97163057327,0.493548303843,0.0
1449617129091637885,113,1449617129090045659,odom,3.2205452919,0.290899604559,0.0,3.30115246773,-0.0197891052812,0.0,2.29130840302,-0.668029010296,0.0,1.96178650856,-0.154691576958,0.0,2.97163057327,0.493548303843,0.0
1449617129330723090,114,1449617129328615688,odom,3.2205452919,0.290899604559,0.0,3.30115246773,-0.0197891052812,0.0,2.29130840302,-0.668029010296,0.0,1.96178650856,-0.154691576958,0.0,2.97163057327,0.493548303843,0.0
1449617129510556197,115,1449617129510034629,odom,3.2205452919,0.290899604559,0.0,3.30115246773,-0.0197891052812,0.0,2.29130840302,-0.668029010296,0.0,1.96178650856,-0.154691576958,0.0,2.97163057327,0.493548303843,0.0
1449617129697359285,116,1449617129696565018,odom,3.2205452919,0.290899604559,0.0,3.30115246773,-0.0197891052812,0.0,2.29130840302,-0.668029010296,0.0,1.96178650856,-0.154691576958,0.0,2.97163057327,0.493548303843,0.0
1449617129881697732,117,1449617129878192451,odom,3.2205452919,0.290899604559,0.0,3.30115246773,-0.0197891052812,0.0,2.29130840302,-0.668029010296,0.0,1.96178650856,-0.154691576958,0.0,2.97163057327,0.493548303843,0.0
1449617130077448416,118,1449617130075639309,odom,3.21967124939,0.297532737255,0.0,3.30355739594,-0.0122867720202,0.0,2.30062031746,-0.671162366867,0.0,1.9656919241,-0.161335930228,0.0,2.96862912178,0.497539639473,0.0
1449617130329774671,119,1449617130329552234,odom,3.2245016098,0.300669580698,0.0,3.30838775635,-0.00914992019534,0.0,2.30545067787,-0.668025493622,0.0,1.9705221653,-0.158199071884,0.0,2.97345948219,0.500676512718,0.0
1449617130497976550,120,1449617130496748677,odom,3.2245016098,0.300669580698,0.0,3.30838775635,-0.00914992019534,0.0,2.30545067787,-0.668025493622,0.0,1.9705221653,-0.158199071884,0.0,2.97345948219,0.500676512718,0.0
1449617130678506308,121,1449617130674824194,odom,3.22933197021,0.303806424141,0.0,3.31321811676,-0.00601306837052,0.0,2.31028103828,-0.664888620377,0.0,1.97535252571,-0.155062228441,0.0,2.97828960419,0.503813326359,0.0
1449617130881859797,122,1449617130878808216,odom,3.22838807106,0.310429960489,0.0,3.31554365158,0.00151426077355,0.0,2.31962537766,-0.667923390865,0.0,1.97932779789,-0.161664932966,0.0,2.97524619102,0.507772743702,0.0
1449617131091880789,123,1449617131090122385,odom,3.23892593384,0.310181885958,0.0,3.32281184196,0.000362377642887,0.0,2.31987476349,-0.658513188362,0.0,1.98494637012,-0.148686781526,0.0,2.98788356781,0.510188817978,0.0
1449617131306787991,124,1449617131304506375,odom,3.24276185036,0.320018470287,0.0,3.32991743088,0.0111027769744,0.0,2.33399915695,-0.65833491087,0.0,1.9937016964,-0.152076423168,0.0,2.98961997032,0.517361223698,0.0
1449617131504245153,125,1449617131503478547,odom,3.24651098251,0.329869896173,0.0,3.33692622185,0.0218924991786,0.0,2.34813809395,-0.658032476902,0.0,2.00250959396,-0.155398517847,0.0,2.99129772186,0.52452647686,0.0
1449617131696138629,126,1449617131688224169,odom,3.2560198307,0.336371541023,0.0,3.34643507004,0.0283941421658,0.0,2.35764694214,-0.651530861855,0.0,2.01201844215,-0.148896872997,0.0,3.00080657005,0.531028151512,0.0
1449617131898076386,127,1449617131893339465,odom,3.25966453552,0.346262037754,0.0,3.35332942009,0.0392573289573,0.0,2.37178182602,-0.651079058647,0.0,2.02086091042,-0.152125701308,0.0,3.00240850449,0.538210690022,0.0
1449617132090254805,128,1449617132084434884,odom,3.2643930912,0.349550426006,0.0,3.35805797577,0.0425457209349,0.0,2.3765103817,-0.647790670395,0.0,2.02558922768,-0.148837313056,0.0,3.00713682175,0.541499078274,0.0
1449617132292128598,129,1449617132290381397,odom,3.26908636093,0.352888613939,0.0,3.3627512455,0.045883897692,0.0,2.38120365143,-0.644452512264,0.0,2.03028273582,-0.145499140024,0.0,3.0118303299,0.544837236404,0.0
1449617132505306638,130,1449617132504755559,odom,3.27262639999,0.362817078829,0.0,3.36953043938,0.0568193383515,0.0,2.39533305168,-0.643851339817,0.0,2.03915882111,-0.148634344339,0.0,3.0133562088,0.552036345005,0.0
1449617132719557207,131,1449617132718743832,odom,3.28316688538,0.362903147936,0.0,3.37683176994,0.0558984316885,0.0,2.39528417587,-0.634437978268,0.0,2.04436302185,-0.135484606028,0.0,3.02591061592,0.554851770401,0.0
1449617132879380561,132,1449617132877414593,odom,3.29014205933,0.382797092199,0.0,3.39027428627,0.0778405293822,0.0,2.42353582382,-0.633086204529,0.0,2.06214809418,-0.14166085422,0.0,3.02888655663,0.569265902042,0.0
1449617133092910140,133,1449617133089010508,odom,3.30411577225,0.392959862947,0.0,3.40424799919,0.0880033001304,0.0,2.43750977516,-0.622923433781,0.0,2.0761218071,-0.131498083472,0.0,3.04286026955,0.579428672791,0.0
1449617133294272118,134,1449617133292276964,odom,3.31339550018,0.399784088135,0.0,3.41352796555,0.0948275178671,0.0,2.4467895031,-0.616099238396,0.0,2.08540177345,-0.124673865736,0.0,3.05213999748,0.586252868176,0.0
1449617133498224244,135,1449617133497319542,odom,3.32598686218,0.416633993387,0.0,3.42933630943,0.112752616405,0.0,2.47016477585,-0.608350813389,0.0,2.10360383987,-0.120771944523,0.0,3.06277537346,0.600331425667,0.0
1449617133685915091,136,1449617133682622774,odom,3.33519411087,0.423556089401,0.0,3.43854355812,0.11967471242,0.0,2.47937226295,-0.601428687572,0.0,2.11281132698,-0.113849848509,0.0,3.07198286057,0.607253551483,0.0
1449617133911080265,137,1449617133910558379,odom,3.34440159798,0.430478185415,0.0,3.44775104523,0.126596808434,0.0,2.48857951164,-0.594506621361,0.0,2.12201857567,-0.106927752495,0.0,3.08119010925,0.614175617695,0.0
1449617134129456227,138,1449617134120355212,odom,3.3535721302,0.437448710203,0.0,3.45692157745,0.133567363024,0.0,2.49775004387,-0.587536036968,0.0,2.13118910789,-0.0999572053552,0.0,3.09036064148,0.621146202087,0.0
1449617134328796495,139,1449617134323407914,odom,3.35677719116,0.447508633137,0.0,3.46333241463,0.144736424088,0.0,2.51183485985,-0.586463093758,0.0,2.14014172554,-0.102785237134,0.0,3.09163928032,0.628414273262,0.0
1449617134480107714,140,1449617134477645536,odom,3.36592936516,0.454503417015,0.0,3.4724843502,0.151731207967,0.0,2.52098703384,-0.579468309879,0.0,2.14929389954,-0.0957904607058,0.0,3.10079145432,0.63540905714,0.0
1449617134709583099,141,1449617134708803312,odom,3.37962985039,0.465031951666,0.0,3.48618507385,0.162259727716,0.0,2.53468751907,-0.568939805031,0.0,2.16299462318,-0.0852619409561,0.0,3.11449193954,0.645937561989,0.0
1449617134906001790,142,1449617134893214586,odom,3.39333057404,0.475560456514,0.0,3.49988555908,0.172788247466,0.0,2.54838824272,-0.558411300182,0.0,2.17669510841,-0.0747334212065,0.0,3.12819242477,0.656466066837,0.0
1449617135103378851,143,1449617135103214265,odom,3.40246415138,0.482579469681,0.0,3.50901937485,0.179807245731,0.0,2.55752182007,-0.551392257214,0.0,2.18582892418,-0.0677144154906,0.0,3.13732624054,0.663485109806,0.0
1449617135314773372,144,1449617135312626364,odom,3.41159796715,0.489598482847,0.0,3.51815295219,0.186826258898,0.0,2.56665563583,-0.544373273849,0.0,2.19496250153,-0.0606954023242,0.0,3.1464600563,0.67050409317,0.0
1449617135495941127,145,1449617135495074141,odom,3.43124556541,0.497061878443,0.0,3.53459501266,0.193180501461,0.0,2.57542347908,-0.527922928333,0.0,2.20886254311,-0.0403440631926,0.0,3.16803407669,0.680759310722,0.0
1449617135720425342,146,1449617135719904477,odom,3.43905425072,0.51058280468,0.0,3.54560947418,0.207810610533,0.0,2.5941119194,-0.523388922215,0.0,2.22241902351,-0.0397110544145,0.0,3.17391633987,0.691488444805,0.0
1449617135941867549,147,1449617135940322899,odom,3.45417189598,0.514488220215,0.0,3.55752134323,0.210606887937,0.0,2.59835004807,-0.510496497154,0.0,2.23178911209,-0.0229176785797,0.0,3.19096040726,0.698185741901,0.0
1449617136159667018,148,1449617136157335232,odom,3.4679646492,0.524895608425,0.0,3.57131409645,0.221014261246,0.0,2.61214256287,-0.500089168549,0.0,2.24558162689,-0.0125103071332,0.0,3.20475316048,0.708593070507,0.0
1449617136295013006,149,1449617136290795901,odom,3.4771900177,0.531793296337,0.0,3.58053970337,0.227911934257,0.0,2.62136816978,-0.493191480637,0.0,2.25480723381,-0.00561263319105,0.0,3.2139787674,0.715490758419,0.0
1449617136485941724,150,1449617136473390886,odom,3.48641562462,0.538690984249,0.0,3.58976507187,0.234809607267,0.0,2.6305937767,-0.486293792725,0.0,2.26403284073,0.00128504005261,0.0,3.22320437431,0.722388446331,0.0
1449617136725165320,151,1449617136722544142,odom,3.50159192085,0.542411983013,0.0,3.6017241478,0.237455412745,0.0,2.63498568535,-0.473471343517,0.0,2.2735979557,0.0179540328681,0.0,3.24033641815,0.728880763054,0.0
1449617136918072268,152,1449617136917425049,odom,3.5108897686,0.549211800098,0.0,3.61102223396,0.244255200028,0.0,2.64428377151,-0.466671556234,0.0,2.28289580345,0.0247538276017,0.0,3.2496342659,0.735680580139,0.0
1449617137141380349,153,1449617137140588435,odom,3.52142858505,0.549409210682,0.0,3.61833262444,0.243411511183,0.0,2.64413523674,-0.457259207964,0.0,2.28796100616,0.0379578284919,0.0,3.26215839386,0.73862850666,0.0
1449617137313829100,154,1449617137311367583,odom,3.53076243401,0.556159794331,0.0,3.62766623497,0.250162065029,0.0,2.65346884727,-0.450508624315,0.0,2.2972946167,0.0447083972394,0.0,3.27149200439,0.745379090309,0.0
1449617137536595859,155,1449617137532894354,odom,3.54597854614,0.559608876705,0.0,3.63964343071,0.252604156733,0.0,2.65809583664,-0.437732249498,0.0,2.30717468262,0.0612211115658,0.0,3.28872227669,0.751557528973,0.0
1449617137722103046,156,1449617137716313307,odom,3.55650186539,0.559608519077,0.0,3.64691710472,0.251631110907,0.0,2.6581287384,-0.428293883801,0.0,2.31250023842,0.0743401050568,0.0,3.30128836632,0.754265129566,0.0
1449617137903293496,157,1449617137900746377,odom,3.56595873833,0.566185295582,0.0,3.65637397766,0.258207887411,0.0,2.66758584976,-0.421717107296,0.0,2.32195734978,0.0809168815613,0.0,3.31074547768,0.760841906071,0.0
1449617138108386210,158,1449617138107813278,odom,3.57548451424,0.572661757469,0.0,3.66589975357,0.264684379101,0.0,2.67711162567,-0.415240615606,0.0,2.33148312569,0.0873933583498,0.0,3.32027125359,0.767318367958,0.0
1449617138304277619,159,1449617138296249763,odom,3.58602428436,0.572525084019,0.0,3.67317986488,0.26360937953,0.0,2.67726159096,-0.405828297138,0.0,2.3369641304,0.100430168211,0.0,3.33288240433,0.769867837429,0.0
1449617138504904817,160,1449617138499912087,odom,3.58602428436,0.572525084019,0.0,3.67317986488,0.26360937953,0.0,2.67726159096,-0.405828297138,0.0,2.3369641304,0.100430168211,0.0,3.33288240433,0.769867837429,0.0
1449617138729303253,161,1449617138727590461,odom,3.58602428436,0.572525084019,0.0,3.67317986488,0.26360937953,0.0,2.67726159096,-0.405828297138,0.0,2.3369641304,0.100430168211,0.0,3.33288240433,0.769867837429,0.0
1449617138894605457,162,1449617138889958283,odom,3.58602428436,0.572525084019,0.0,3.67317986488,0.26360937953,0.0,2.67726159096,-0.405828297138,0.0,2.3369641304,0.100430168211,0.0,3.33288240433,0.769867837429,0.0
1449617139079696911,163,1449617139077908904,odom,3.58602428436,0.572525084019,0.0,3.67317986488,0.26360937953,0.0,2.67726159096,-0.405828297138,0.0,2.3369641304,0.100430168211,0.0,3.33288240433,0.769867837429,0.0
1449617139297008236,164,1449617139284790609,odom,3.58602428436,0.572525084019,0.0,3.67317986488,0.26360937953,0.0,2.67726159096,-0.405828297138,0.0,2.3369641304,0.100430168211,0.0,3.33288240433,0.769867837429,0.0
1449617139513235683,165,1449617139512959277,odom,3.58602428436,0.572525084019,0.0,3.67317986488,0.26360937953,0.0,2.67726159096,-0.405828297138,0.0,2.3369641304,0.100430168211,0.0,3.33288240433,0.769867837429,0.0
1449617139684525467,166,1449617139684240551,odom,3.58602428436,0.572525084019,0.0,3.67317986488,0.26360937953,0.0,2.67726159096,-0.405828297138,0.0,2.3369641304,0.100430168211,0.0,3.33288240433,0.769867837429,0.0
1449617139893628408,167,1449617139892065724,odom,3.58501052856,0.579138278961,0.0,3.6754257679,0.271160840988,0.0,2.68663764,-0.408764153719,0.0,2.34100914001,0.0938698351383,0.0,3.32979726791,0.773794829845,0.0
1449617140141298785,168,1449617140130545378,odom,3.60130834579,0.575540542603,0.0,3.68519449234,0.265721082687,0.0,2.68225717545,-0.393154501915,0.0,2.34732866287,0.116671912372,0.0,3.35026597977,0.775547504425,0.0
1449617140305484161,169,1449617140301909692,odom,3.61662316322,0.578394412994,0.0,3.69723033905,0.26770567894,0.0,2.68738627434,-0.38053420186,0.0,2.35786437988,0.132803216577,0.0,3.3677084446,0.781043112278,0.0
1449617140489286504,170,1449617140486091626,odom,3.63114738464,0.587753891945,0.0,3.71175456047,0.277065187693,0.0,2.70191049576,-0.371174693108,0.0,2.3723886013,0.142162725329,0.0,3.38223266602,0.790402591228,0.0
1449617140703477308,171,1449617140702315876,odom,3.64657330513,0.590317368507,0.0,3.72389268875,0.278794199228,0.0,2.70725464821,-0.358737617731,0.0,2.38317584991,0.158053487539,0.0,3.39981412888,0.795585274696,0.0
1449617140905933225,172,1449617140904246814,odom,3.67315125465,0.585334002972,0.0,3.74055695534,0.271516442299,0.0,2.70422077179,-0.333468735218,0.0,2.39668655396,0.193335562944,0.0,3.43302297592,0.798320770264,0.0
1449617141113470322,173,1449617141112649704,odom,3.69361543655,0.590199768543,0.0,3.75770115852,0.275687396526,0.0,2.71502923965,-0.318312168121,0.0,2.4130795002,0.211712703109,0.0,3.45575141907,0.805712223053,0.0
1449617141290025884,174,1449617141287664138,odom,3.73048615456,0.582606494427,0.0,3.78122329712,0.265666812658,0.0,2.71438074112,-0.283739179373,0.0,2.43509936333,0.258572459221,0.0,3.50194191933,0.807978451252,0.0
1449617141549949911,175,1449617141547174357,odom,3.76166915894,0.584669947624,0.0,3.80569672585,0.266728758812,0.0,2.72748088837,-0.260007292032,0.0,2.4597234726,0.288085699081,0.0,3.53793907166,0.814821779728,0.0
1449617141722040200,176,1449617141716861021,odom,3.79278755188,0.579356431961,0.0,3.82671451569,0.260179430246,0.0,2.73234367371,-0.23211376369,0.0,2.48209452629,0.324191391468,0.0,3.57646536827,0.816484570503,0.0
1449617141882708998,177,1449617141882502864,odom,3.81873393059,0.577518522739,0.0,3.84590768814,0.257695764303,0.0,2.74137711525,-0.211358457804,0.0,2.50294113159,0.350111335516,0.0,3.6074719429,0.819165587425,0.0
1449617142085281418,178,1449617142085034724,odom,3.8393228054,0.572909414768,0.0,3.85973119736,0.252583801746,0.0,2.74553394318,-0.193021938205,0.0,2.51901769638,0.373361676931,0.0,3.63321495056,0.818967401981,0.0
1449617142326167510,179,1449617142323533279,odom,3.85979914665,0.567894756794,0.0,3.87343287468,0.247209355235,0.0,2.7500667572,-0.174748823047,0.0,2.53557133675,0.39629560709,0.0,3.65893745422,0.818253755569,0.0
1449617142516489765,180,1449617142515963475,odom,3.87539839745,0.567222058773,0.0,3.88564252853,0.246410489082,0.0,2.75787997246,-0.163652554154,0.0,2.54943132401,0.409626752138,0.0,3.67719388008,0.819689810276,0.0
1449617142690739140,181,1449617142684418151,odom,3.8902721405,0.55965000391,0.0,3.89373373985,0.238693580031,0.0,2.75755667686,-0.147443145514,0.0,2.56127047539,0.430113554001,0.0,3.69744753838,0.816250264645,0.0
1449617142913019743,182,1449617142904393059,odom,3.90036964417,0.55668759346,0.0,3.90043950081,0.235712483525,0.0,2.76024508476,-0.138395726681,0.0,2.57007336617,0.441203057766,0.0,3.71026778221,0.815311253071,0.0
1449617143115394224,183,1449617143112592756,odom,3.91043567657,0.553618609905,0.0,3.90711331367,0.232660710812,0.0,2.76302909851,-0.1293772012,0.0,2.57899308205,0.452198922634,0.0,3.72307729721,0.814236819744,0.0
1449617143292417284,184,1449617143290009481,odom,3.91591739655,0.555385231972,0.0,3.91259503365,0.234427332878,0.0,2.76851081848,-0.127610579133,0.0,2.58447504044,0.453965544701,0.0,3.7285592556,0.816003441811,0.0
1449617143503082018,185,1449617143502348083,odom,3.92141771317,0.557093799114,0.0,3.91809535027,0.236135929823,0.0,2.7740111351,-0.125901997089,0.0,2.58997511864,0.455674141645,0.0,3.7340593338,0.817712068558,0.0
1449617143706865306,186,1449617143705147415,odom,3.93044877052,0.547220408916,0.0,3.92034387589,0.226404443383,0.0,2.76886367798,-0.111372932792,0.0,2.59716010094,0.473962813616,0.0,3.74864029884,0.811740159988,0.0
1449617143924912546,187,1449617143924278780,odom,3.94595575333,0.545396625996,0.0,3.93246102333,0.22470536828,0.0,2.77747559547,-0.100884482265,0.0,2.61196756363,0.486233115196,0.0,3.76695299149,0.81182295084,0.0
1449617144098838483,188,1449617144095929854,odom,3.95590686798,0.541816949844,0.0,3.93902397156,0.221286177635,0.0,2.7806622982,-0.0920797586441,0.0,2.62136793137,0.496754109859,0.0,3.77972960472,0.810120046139,0.0
1449617144313746891,189,1449617144307902929,odom,3.97850465775,0.522471964359,0.0,3.94809126854,0.202941030264,0.0,2.77752161026,-0.0611930601299,0.0,2.64325332642,0.533846497536,0.0,3.8138229847,0.797980606556,0.0
1449617144484509644,190,1449617144483026133,odom,4.00195503235,0.50880408287,0.0,3.96142792702,0.190397784114,0.0,2.78307390213,-0.0364978834987,0.0,2.66773509979,0.562498807907,0.0,3.8460893631,0.789394438267,0.0
1449617144694223163,191,1449617144691420478,odom,4.04180192947,0.478424549103,0.0,3.98118042946,0.163226127625,0.0,2.79081702232,0.0114538064227,0.0,2.71366596222,0.616555273533,0.0,3.90402960777,0.768327593803,0.0
1449617144898014547,192,1449617144897757134,odom,4.07529115677,0.463896989822,0.0,4.00470876694,0.150778606534,0.0,2.81013226509,0.0368156842887,0.0,2.75220108032,0.644058644772,0.0,3.94677734375,0.758021533489,0.0
1449617145100996352,193,1449617145100617545,odom,4.10580539703,0.441785395145,0.0,4.02205371857,0.131929516792,0.0,2.82372832298,0.0685507282615,0.0,2.79151082039,0.677699327469,0.0,3.98983597755,0.741078138351,0.0
1449617145297957788,194,1449617145296451053,odom,4.13237380981,0.424670368433,0.0,4.03884220123,0.117625035346,0.0,2.83911013603,0.0922636017203,0.0,2.8262181282,0.70212739706,0.0,4.02594995499,0.727488815784,0.0
1449617145504052651,195,1449617145503819928,odom,4.14686632156,0.418860375881,0.0,4.05009508133,0.112820625305,0.0,2.85016226768,0.100139208138,0.0,2.84371590614,0.71010518074,0.0,4.04364871979,0.722786605358,0.0
1449617145719941671,196,1449617145718375822,odom,4.14977788925,0.412836700678,0.0,4.04977798462,0.107836708426,0.0,2.84977793694,0.107836708426,0.0,2.84977793694,0.717836737633,0.0,4.04977798462,0.717836737633,0.0
1449617145912233723,197,1449617145910732722,odom,4.14977788925,0.412836700678,0.0,4.04977798462,0.107836708426,0.0,2.84977793694,0.107836708426,0.0,2.84977793694,0.717836737633,0.0,4.04977798462,0.717836737633,0.0
1449617146115041585,198,1449617146114715933,odom,4.14977788925,0.412836700678,0.0,4.04977798462,0.107836708426,0.0,2.84977793694,0.107836708426,0.0,2.84977793694,0.717836737633,0.0,4.04977798462,0.717836737633,0.0
1449617146291515501,199,1449617146290727431,odom,4.14977788925,0.412836700678,0.0,4.04977798462,0.107836708426,0.0,2.84977793694,0.107836708426,0.0,2.84977793694,0.717836737633,0.0,4.04977798462,0.717836737633,0.0
1449617146505564504,200,1449617146504101508,odom,4.14977788925,0.412836700678,0.0,4.04977798462,0.107836708426,0.0,2.84977793694,0.107836708426,0.0,2.84977793694,0.717836737633,0.0,4.04977798462,0.717836737633,0.0
1449617146704519806,201,1449617146703618724,odom,4.14977788925,0.412836700678,0.0,4.04977798462,0.107836708426,0.0,2.84977793694,0.107836708426,0.0,2.84977793694,0.717836737633,0.0,4.04977798462,0.717836737633,0.0
1449617146904615263,202,1449617146903471857,odom,4.1526260376,0.406782597303,0.0,4.04940843582,0.10285641253,0.0,2.84947514534,0.115537837148,0.0,2.8559217453,0.725503802299,0.0,4.05585479736,0.712822377682,0.0
1449617147141657649,203,1449617147141050245,odom,4.15838527679,0.406752169132,0.0,4.05516767502,0.102825984359,0.0,2.85523462296,0.115507401526,0.0,2.8616809845,0.725473344326,0.0,4.06161403656,0.712791919708,0.0
1449617147348185933,204,1449617147327514671,odom,4.17268657684,0.400485724211,0.0,4.06626272202,0.0976672843099,0.0,2.86653089523,0.123028710485,0.0,2.87942290306,0.732892453671,0.0,4.07915496826,0.707531034946,0.0
1449617147511174584,205,1449617147510952398,odom,4.19267749786,0.393885910511,0.0,4.08305931091,0.0922090485692,0.0,2.88366246223,0.130247652531,0.0,2.90299892426,0.739941120148,0.0,4.10239601135,0.701902508736,0.0
1449617147773986469,206,1449617147772616557,odom,4.2119512558,0.374831855297,0.0,4.09282588959,0.0767813622952,0.0,2.89523720741,0.152820333838,0.0,2.93389034271,0.761594474316,0.0,4.13147878647,0.685555517673,0.0
1449617147907531104,207,1449617147901839431,odom,4.25126838684,0.359868139029,0.0,4.12587022781,0.0644018873572,0.0,2.93015623093,0.16573433578,0.0,2.98166680336,0.773555576801,0.0,4.17738056183,0.67222315073,0.0
1449617148114118235,208,1449617148113983777,odom,4.2959651947,0.343226850033,0.0,4.16435050964,0.0504768267274,0.0,2.97104525566,0.177057489753,0.0,3.03539037704,0.783654332161,0.0,4.22869586945,0.657073676586,0.0
1449617148293743903,209,1449617148290807957,odom,4.33247852325,0.332867771387,0.0,4.19777727127,0.0415249727666,0.0,3.00587630272,0.180709242821,0.0,3.07662844658,0.786592185497,0.0,4.26852941513,0.647407948971,0.0
1449617148549066544,210,1449617148545893052,odom,4.40137577057,0.304823577404,0.0,4.25750732422,0.0178970675915,0.0,3.07061719894,0.194793254137,0.0,3.16053938866,0.798129022121,0.0,4.34742927551,0.621232807636,0.0
1449617148730150199,211,1449617148728874855,odom,4.43925094604,0.286352753639,0.0,4.28935050964,0.00253090192564,0.0,3.10646414757,0.204471930861,0.0,3.20911741257,0.805772423744,0.0,4.39200353622,0.603831410408,0.0
1449617148951264241,212,1449617148950487731,odom,4.49206209183,0.270762890577,0.0,4.33917093277,-0.011458966881,0.0,3.15848469734,0.202971354127,0.0,3.26748681068,0.803153455257,0.0,4.44817304611,0.588723123074,0.0
1449617149090168956,213,1449617149089439729,odom,4.5503783226,0.253616541624,0.0,4.39451313019,-0.0269738268107,0.0,3.21615886688,0.19992184639,0.0,3.33149766922,0.798918485641,0.0,4.50985193253,0.572022855282,0.0
1449617149314914086,214,1449617149312600420,odom,4.6092042923,0.255208283663,0.0,4.4593038559,-0.0286135617644,0.0,3.27641749382,0.173327475786,0.0,3.37907075882,0.77462798357,0.0,4.56195688248,0.572686970234,0.0
1449617149531056310,215,1449617149525220888,odom,4.66420650482,0.25245398283,0.0,4.51731395721,-0.0329361185431,0.0,3.33235955238,0.156493067741,0.0,3.42865276337,0.758844852448,0.0,4.61360692978,0.56941562891,0.0
1449617149727072520,216,1449617149722580574,odom,4.72093963623,0.262606799603,0.0,4.58316707611,-0.0272962152958,0.0,3.39280366898,0.124476112425,0.0,3.46995472908,0.729577541351,0.0,4.66031837463,0.577805221081,0.0
1449617149940929602,217,1449617149940533905,odom,4.76812553406,0.269440352917,0.0,4.636510849,-0.0233096703887,0.0,3.44320583344,0.103270992637,0.0,3.50755095482,0.709867835045,0.0,4.7008562088,0.58328717947,0.0
1449617150164300970,218,1449617150125143074,odom,4.80459213257,0.290529668331,0.0,4.68546676636,-0.00752083398402,0.0,3.4878783226,0.0685181394219,0.0,3.5265314579,0.67729228735,0.0,4.72411966324,0.601253330708,0.0
1449617150320102779,219,1449617150318104863,odom,4.82558250427,0.307545602322,0.0,4.71596431732,0.00586873898283,0.0,3.51656746864,0.043907340616,0.0,3.53590369225,0.653600811958,0.0,4.73530054092,0.615562200546,0.0
1449617150538802068,220,1449617150537756070,odom,4.83450746536,0.325522631407,0.0,4.73450708389,0.0205226223916,0.0,3.53450727463,0.0205226223916,0.0,3.53450727463,0.630522608757,0.0,4.73450708389,0.630522608757,0.0
1449617150770275327,221,1449617150768698901,odom,4.8401389122,0.337660610676,0.0,4.74660730362,0.0306152682751,0.0,3.54687523842,0.00525384023786,0.0,3.53398299217,0.615117609501,0.0,4.73371505737,0.640479028225,0.0
1449617150959763788,222,1449617150956986759,odom,4.84551239014,0.349914878607,0.0,4.75849103928,0.0409613847733,0.0,3.55956292152,-0.00975014269352,0.0,3.53378462791,0.599704921246,0.0,4.73271274567,0.650416493416,0.0
1449617151136911450,223,1449617151134496562,odom,4.84733629227,0.368137449026,0.0,4.77015209198,0.0565807148814,0.0,3.57343411446,-0.0321099497378,0.0,3.52834963799,0.576221704483,0.0,4.72506761551,0.66491240263,0.0
1449617151310962993,224,1449617151309714895,odom,4.8485789299,0.386438965797,0.0,4.78130960464,0.0725921541452,0.0,3.58800435066,-0.0539885088801,0.0,3.52365922928,0.552608311176,0.0,4.71696424484,0.679188966751,0.0
1449617151501127385,225,1449617151498381003,odom,4.8474650383,0.416686415672,0.0,4.79686546326,0.0997247546911,0.0,3.61191105843,-0.0897044315934,0.0,3.51561784744,0.512647330761,0.0,4.70057201385,0.702076494694,0.0
1449617151708284826,226,1449617151707819393,odom,4.84716844559,0.43496760726,0.0,4.80664157867,0.116561293602,0.0,3.62828779221,-0.110334374011,0.0,3.51294898987,0.488662302494,0.0,4.69130325317,0.715557992458,0.0
1449617151895437811,227,1449617151894486868,odom,4.8392291069,0.470158845186,0.0,4.81895971298,0.149824410677,0.0,3.657351017,-0.151282638311,0.0,3.50428819656,0.439201742411,0.0,4.66589689255,0.740308821201,0.0
1449617152122954383,228,1449617152122615527,odom,4.83368444443,0.499853044748,0.0,4.83036231995,0.178895160556,0.0,3.68627810478,-0.183142766356,0.0,3.50224208832,0.398433357477,0.0,4.6463265419,0.760471284389,0.0
1449617152310377431,229,1449617152306558591,odom,4.8216958046,0.533942937851,0.0,4.83871746063,0.213419556618,0.0,3.71987342834,-0.220386609435,0.0,3.49935531616,0.348359167576,0.0,4.61819934845,0.78216534853,0.0
1449617152517235433,230,1449617152504662548,odom,4.80757045746,0.567204654217,0.0,4.84486865997,0.248404026031,0.0,3.75576138496,-0.255426824093,0.0,3.49964737892,0.298202693462,0.0,4.58875465393,0.802033543587,0.0
1449617152686237964,231,1449617152684139420,odom,4.79698085785,0.588880002499,0.0,4.84771823883,0.271940350533,0.0,3.78087568283,-0.277465641499,0.0,3.50159430504,0.264845997095,0.0,4.56843662262,0.814252018929,0.0
1449617152890622298,232,1449617152887758307,odom,4.77998876572,0.613854765892,0.0,4.8473944664,0.300037205219,0.0,3.81105804443,-0.304947972298,0.0,3.5035238266,0.221856325865,0.0,4.53986024857,0.826841473579,0.0
1449617153084213275,233,1449617153083867342,odom,4.77382087708,0.624168217182,0.0,4.84784412384,0.311845332384,0.0,3.82452535629,-0.314907193184,0.0,3.5059261322,0.20527985692,0.0,4.52924489975,0.832032382488,0.0
1449617153289960598,234,1449617153288145320,odom,4.77382087708,0.624168217182,0.0,4.84784412384,0.311845332384,0.0,3.82452535629,-0.314907193184,0.0,3.5059261322,0.20527985692,0.0,4.52924489975,0.832032382488,0.0
1449617153491866249,235,1449617153489836490,odom,4.77382087708,0.624168217182,0.0,4.84784412384,0.311845332384,0.0,3.82452535629,-0.314907193184,0.0,3.5059261322,0.20527985692,0.0,4.52924489975,0.832032382488,0.0
1449617153685940319,236,1449617153681777496,odom,4.77382087708,0.624168217182,0.0,4.84784412384,0.311845332384,0.0,3.82452535629,-0.314907193184,0.0,3.5059261322,0.20527985692,0.0,4.52924489975,0.832032382488,0.0
1449617153888004084,237,1449617153887423558,odom,4.77382087708,0.624168217182,0.0,4.84784412384,0.311845332384,0.0,3.82452535629,-0.314907193184,0.0,3.5059261322,0.20527985692,0.0,4.52924489975,0.832032382488,0.0
1449617154129433730,238,1449617154129266772,odom,4.77382087708,0.624168217182,0.0,4.84784412384,0.311845332384,0.0,3.82452535629,-0.314907193184,0.0,3.5059261322,0.20527985692,0.0,4.52924489975,0.832032382488,0.0
1449617154312361387,239,1449617154311547684,odom,4.77382087708,0.624168217182,0.0,4.84784412384,0.311845332384,0.0,3.82452535629,-0.314907193184,0.0,3.5059261322,0.20527985692,0.0,4.52924489975,0.832032382488,0.0
1449617154540044185,240,1449617154538198501,odom,4.7674369812,0.634349048138,0.0,4.84804439545,0.323660343885,0.0,3.83820009232,-0.324579536915,0.0,3.50867819786,0.188757866621,0.0,4.51852226257,0.836997747421,0.0
1449617154705405173,241,1449617154704257262,odom,4.76083898544,0.644392609596,0.0,4.84799480438,0.33547693491,0.0,3.85207629204,-0.333960741758,0.0,3.51177883148,0.172297731042,0.0,4.50769710541,0.841735422611,0.0
1449617154914079816,242,1449617154913852925,odom,4.7469959259,0.664074957371,0.0,4.84712839127,0.359118372202,0.0,3.88038992882,-0.35180836916,0.0,3.51900219917,0.13961699605,0.0,4.48574066162,0.850543737411,0.0
1449617155089509543,243,1449617155086968203,odom,4.73231506348,0.683178901672,0.0,4.84524536133,0.382726341486,0.0,3.90941405296,-0.368419319391,0.0,3.52758169174,0.10729495436,0.0,4.46341276169,0.858440577984,0.0
1449617155305032146,244,1449617155304549871,odom,4.70871353149,0.710744321346,0.0,4.84045553207,0.418051451445,0.0,3.9541015625,-0.390884369612,0.0,3.54289269447,0.05967874825,0.0,4.42924642563,0.868614554405,0.0
1449617155484139519,245,1449617155483566537,odom,4.6857252121,0.730480670929,0.0,4.8327422142,0.445154339075,0.0,3.99035000801,-0.409465789795,0.0,3.55591797829,0.0187502186745,0.0,4.39831018448,0.873370349407,0.0
1449617155721151926,246,1449617155720104125,odom,4.6857252121,0.730480670929,0.0,4.8327422142,0.445154339075,0.0,3.99035000801,-0.409465789795,0.0,3.55591797829,0.0187502186745,0.0,4.39831018448,0.873370349407,0.0
1449617155906723345,247,1449617155906130630,odom,4.6857252121,0.730480670929,0.0,4.8327422142,0.445154339075,0.0,3.99035000801,-0.409465789795,0.0,3.55591797829,0.0187502186745,0.0,4.39831018448,0.873370349407,0.0
1449617156080779414,248,1449617156076235875,odom,4.69203615189,0.728258907795,0.0,4.83602952957,0.441394835711,0.0,3.98465275764,-0.404275298119,0.0,3.55477046967,0.0285078119487,0.0,4.40614700317,0.874177932739,0.0
1449617156285457394,249,1449617156283080406,odom,4.70238780975,0.73005092144,0.0,4.84334135056,0.441681206226,0.0,3.98307538033,-0.3949444592,0.0,3.55779075623,0.0423573926091,0.0,4.41805648804,0.878983080387,0.0
1449617156507154495,250,1449617156506398584,odom,4.71060323715,0.738125383854,0.0,4.85155677795,0.44975566864,0.0,3.99129080772,-0.386870026588,0.0,3.56600594521,0.0504318326712,0.0,4.42627191544,0.887057542801,0.0
1449617156706312142,251,1449617156704007263,odom,4.72476911545,0.760686635971,0.0,4.86876249313,0.473822623491,0.0,4.01738548279,-0.371847510338,0.0,3.58750343323,0.060935575515,0.0,4.43887996674,0.90660572052,0.0
1449617156901632736,252,1449617156901088582,odom,4.73625278473,0.789801955223,0.0,4.88627624512,0.506045222282,0.0,4.05296278,-0.35742944479,0.0,3.61402988434,0.0661716163158,0.0,4.44734334946,0.92964631319,0.0
1449617157102438703,253,1449617157099170788,odom,4.75516223907,0.827400684357,0.0,4.91114902496,0.546877980232,0.0,4.09627103806,-0.334015518427,0.0,3.64848327637,0.0802143067122,0.0,4.46336174011,0.96110779047,0.0
1449617157300753610,254,1449617157298404972,odom,4.77993965149,0.863280415535,0.0,4.93888282776,0.584421813488,0.0,4.13335943222,-0.3050339818,0.0,3.68121910095,0.104440554976,0.0,4.48674297333,0.993896365166,0.0
1449617157479348017,255,1449617157475748544,odom,4.80888271332,0.914590418339,0.0,4.97368383408,0.639153301716,0.0,4.1871380806,-0.267128229141,0.0,3.72644495964,0.132699072361,0.0,4.5129904747,1.03898060322,0.0
1449617157679762592,256,1449617157679539253,odom,4.8330988884,0.962032794952,0.0,5.00368404388,0.69014018774,0.0,4.23646831512,-0.232562169433,0.0,3.7674279213,0.157439306378,0.0,4.53464365005,1.08014166355,0.0
1449617157894464782,257,1449617157894302472,odom,4.84966182709,1.01154589653,0.0,5.02877998352,0.745197236538,0.0,4.29119825363,-0.201361253858,0.0,3.81003093719,0.173576191068,0.0,4.54761314392,1.12013471127,0.0
1449617158101475791,258,1449617158099930850,odom,4.8747882843,1.05398786068,0.0,5.05671167374,0.789547085762,0.0,4.32917404175,-0.164753243327,0.0,3.84407138824,0.205078363419,0.0,4.57160902023,1.1593786478,0.0
1449617158286325226,259,1449617158286155581,odom,4.89949083328,1.1074141264,0.0,5.08696222305,0.846877217293,0.0,4.37975597382,-0.122586116195,0.0,3.88694548607,0.236910477281,0.0,4.59415197372,1.20637381077,0.0
1449617158504580928,260,1449617158497507735,odom,4.9233341217,1.15057861805,0.0,5.11354875565,0.892037510872,0.0,4.41662693024,-0.0848453491926,0.0,3.92004466057,0.269423216581,0.0,4.61696624756,1.24630606174,0.0
1449617158755907163,261,1449617158754368421,odom,4.95318651199,1.20352804661,0.0,5.14612197876,0.947011530399,0.0,4.45956277847,-0.0371817536652,0.0,3.95926451683,0.31181922555,0.0,4.64582395554,1.29601252079,0.0
1449617158893963848,262,1449617158884874372,odom,4.9890832901,1.25573170185,0.0,5.1820192337,0.999215126038,0.0,4.49546003342,0.0150218391791,0.0,3.99516153336,0.364022821188,0.0,4.68172073364,1.34821605682,0.0
1449617159122170025,263,1449617159109236811,odom,5.01190900803,1.29945969582,0.0,5.20754480362,1.0449962616,0.0,4.5314245224,0.0536025390029,0.0,4.02746629715,0.397296965122,0.0,4.70358610153,1.38869071007,0.0
1449617159283089549,264,1449617159281447719,odom,5.03137969971,1.32800972462,0.0,5.2270154953,1.07354640961,0.0,4.55089521408,0.0821526274085,0.0,4.04693698883,0.425847053528,0.0,4.72305727005,1.41724085808,0.0
1449617159505428044,265,1449617159505290285,odom,5.05431175232,1.35067403316,0.0,5.24724769592,1.09415745735,0.0,4.56068849564,0.109964169562,0.0,4.06038999557,0.458965152502,0.0,4.7469496727,1.44315838814,0.0
1449617159677779499,266,1449617159676972868,odom,5.06736755371,1.36965560913,0.0,5.26030349731,1.11313903332,0.0,4.57374429703,0.128945723176,0.0,4.07344579697,0.477946698666,0.0,4.76000499725,1.4621399641,0.0
1449617159899274208,267,1449617159898089741,odom,5.08054876328,1.38855075836,0.0,5.27348423004,1.13203418255,0.0,4.58692502975,0.147840872407,0.0,4.08662700653,0.496841847897,0.0,4.77318620682,1.48103511333,0.0
1449617160094032699,268,1449617160091232795,odom,5.10042381287,1.40624761581,0.0,5.29063796997,1.14770638943,0.0,4.59371614456,0.170823574066,0.0,4.09713411331,0.525092124939,0.0,4.79405593872,1.5019749403,0.0
1449617160317189570,269,1449617160315806349,odom,5.11714839935,1.42969107628,0.0,5.30736303329,1.1711499691,0.0,4.61044120789,0.194267079234,0.0,4.11385917664,0.548535645008,0.0,4.81078052521,1.52541851997,0.0
1449617160508439774,270,1449617160497631022,odom,5.13387346268,1.45313465595,0.0,5.32408761978,1.19459342957,0.0,4.62716579437,0.217710584402,0.0,4.13058376312,0.571979165077,0.0,4.82750558853,1.54886198044,0.0
1449617160697128212,271,1449617160695741496,odom,5.1572303772,1.47534477711,0.0,5.34470176697,1.214807868,0.0,4.63749504089,0.245344549417,0.0,4.14468479156,0.604841172695,0.0,4.8518910408,1.57430446148,0.0
1449617160913774835,272,1449617160907110157,odom,5.17752218246,1.50331676006,0.0,5.36499357224,1.24277985096,0.0,4.657787323,0.273316502571,0.0,4.16497659683,0.632813096046,0.0,4.87218332291,1.60227644444,0.0
1449617161160158567,273,1449617161145423189,odom,5.20140504837,1.53579807281,0.0,5.38887643814,1.27526116371,0.0,4.6816701889,0.305797815323,0.0,4.18885946274,0.665294408798,0.0,4.89606618881,1.63475775719,0.0
1449617161282442047,274,1449617161281648168,odom,5.23552131653,1.57146644592,0.0,5.42022895813,1.30896294117,0.0,4.70281648636,0.347027420998,0.0,4.21383285522,0.711711883545,0.0,4.93124485016,1.67364740372,0.0
1449617161509360745,275,1449617161507964956,odom,5.27343130112,1.61140775681,0.0,5.45535421371,1.34696686268,0.0,4.72781658173,0.392666548491,0.0,4.24271392822,0.76249819994,0.0,4.97025156021,1.71679854393,0.0
1449617161689896234,276,1449617161689384974,odom,5.30502748489,1.65250051022,0.0,5.48695039749,1.38805961609,0.0,4.7594127655,0.433759331703,0.0,4.274310112,0.80359095335,0.0,5.00184774399,1.75789129734,0.0
1449617161896937635,277,1449617161896252925,odom,5.33996105194,1.68738341331,0.0,5.51907968521,1.42103481293,0.0,4.78149795532,0.474476307631,0.0,4.30033063889,0.849413752556,0.0,5.03791236877,1.79597222805,0.0
1449617162075622947,278,1449617162073394581,odom,5.38576316833,1.73561966419,0.0,5.56205701828,1.46739304066,0.0,4.81451320648,0.528681993484,0.0,4.33733510971,0.908683419228,0.0,5.08487892151,1.8473944664,0.0
