%time,field.x,field.y,field.z
1449617105135894872,0.0,2.0,264.0
1449617105208964462,0.0,0.0,268.0
1449617105211447811,0.0,0.0,271.0
1449617105213782064,0.0,0.0,264.0
1449617105216238172,0.0,0.0,263.0
1449617105218665232,0.0,0.0,266.0
1449617105221015320,0.0,0.0,266.0
1449617105223354671,0.0,0.0,262.0
1449617105227525261,0.0,0.0,271.0
1449617105243958267,0.0,0.0,263.0
1449617105260366449,0.0,0.0,269.0
1449617105272725178,0.0,0.0,265.0
1449617105289152705,0.0,0.0,265.0
1449617105305414914,0.0,0.0,265.0
1449617105317740933,0.0,0.0,267.0
1449617105334473588,0.0,0.0,263.0
1449617105350518143,0.0,0.0,262.0
1449617105362822437,0.0,0.0,267.0
1449617105379484704,0.0,0.0,263.0
1449617105395750449,0.0,0.0,265.0
1449617105407776019,0.0,0.0,265.0
1449617105424292207,0.0,0.0,265.0
1449617105440604445,0.0,0.0,263.0
1449617105452898799,0.0,0.0,268.0
1449617105469232628,0.0,0.0,268.0
1449617105485752810,0.0,0.0,261.0
1449617105497907469,0.0,0.0,272.0
1449617105514274565,0.0,0.0,269.0
1449617105530738375,0.0,0.0,268.0
1449617105542998262,0.0,0.0,264.0
1449617105559449577,0.0,0.0,264.0
1449617105575794824,0.0,0.0,269.0
1449617105588118446,0.0,0.0,263.0
1449617105604459383,0.0,0.0,268.0
1449617105616768124,0.0,0.0,272.0
1449617105633119497,0.0,0.0,270.0
1449617105649561991,0.0,0.0,268.0
1449617105661890208,0.0,0.0,273.0
1449617105678225483,0.0,0.0,264.0
1449617105694586392,0.0,0.0,274.0
1449617105706935781,0.0,0.0,263.0
1449617105776111420,0.0,0.0,264.0
1449617105786291573,0.0,0.0,262.0
1449617105788975273,0.0,0.0,263.0
1449617105791328159,0.0,0.0,261.0
1449617105793711800,0.0,0.0,262.0
1449617105801097687,0.0,0.0,263.0
1449617105817442569,0.0,0.0,263.0
1449617105829791863,0.0,0.0,270.0
1449617105846100963,0.0,0.0,267.0
1449617105862526067,0.0,0.0,264.0
1449617105874871062,0.0,0.0,256.0
1449617105891269481,0.0,0.0,270.0
1449617105907643116,0.0,0.0,268.0
1449617105919962861,0.0,0.0,265.0
1449617105936251843,0.0,0.0,262.0
1449617105952710599,0.0,0.0,262.0
1449617105964954490,0.0,0.0,265.0
1449617105981334506,0.0,0.0,263.0
1449617105997766828,0.0,0.0,269.0
1449617106009997843,0.0,0.0,258.0
1449617106026403836,0.0,0.0,269.0
1449617106042727248,0.0,0.0,269.0
1449617106055197287,0.0,0.0,266.0
1449617106071479545,0.0,0.0,265.0
1449617106087855433,0.0,0.0,266.0
1449617106100207598,0.0,0.0,260.0
1449617106116514985,0.0,0.0,259.0
1449617106132938782,0.0,0.0,261.0
1449617106145138021,0.0,0.0,259.0
1449617106161558673,0.0,0.0,260.0
1449617106173862956,0.0,0.0,256.0
1449617106190380288,0.0,0.0,260.0
1449617106206596547,0.0,0.0,260.0
1449617106219864056,0.0,0.0,259.0
1449617106235323363,0.0,0.0,258.0
1449617106251748874,0.0,0.0,258.0
1449617106264163863,0.0,0.0,259.0
1449617106280756522,0.0,0.0,258.0
1449617106296767801,0.0,0.0,263.0
1449617106309293247,0.0,0.0,255.0
1449617106325478815,0.0,0.0,256.0
1449617106342437317,0.0,0.0,256.0
1449617106354529864,0.0,0.0,254.0
1449617106370985483,0.0,0.0,258.0
1449617106386914253,0.0,0.0,258.0
1449617106400011893,0.0,0.0,254.0
1449617106415660569,0.0,0.0,256.0
1449617106432113039,0.0,0.0,262.0
1449617106444359258,0.0,0.0,253.0
1449617106460876988,0.0,0.0,255.0
1449617106477105465,0.0,0.0,254.0
1449617106489416765,0.0,0.0,253.0
1449617106505970815,0.0,0.0,252.0
1449617106518212721,0.0,0.0,254.0
1449617106534572025,0.0,0.0,257.0
1449617106551043498,0.0,0.0,253.0
1449617106563263093,0.0,0.0,252.0
1449617106579760377,0.0,0.0,257.0
1449617106595883786,0.0,0.0,256.0
1449617106608667777,0.0,0.0,252.0
1449617106624559745,0.0,0.0,249.0
1449617106641196307,0.0,0.0,253.0
1449617106653544616,0.0,0.0,249.0
1449617106669786975,0.0,0.0,253.0
1449617106690136107,0.0,0.0,255.0
1449617106698803357,0.0,0.0,251.0
1449617106714677081,0.0,0.0,252.0
1449617106731034995,0.0,0.0,254.0
1449617106743303419,0.0,0.0,250.0
1449617106759818689,0.0,0.0,244.0
1449617106776181139,0.0,0.0,251.0
1449617106788524828,0.0,0.0,252.0
1449617106805053696,0.0,0.0,250.0
1449617106821307513,0.0,0.0,265.0
1449617106833770939,0.0,0.0,254.0
1449617106849975832,0.0,0.0,253.0
1449617106866518585,0.0,0.0,260.0
1449617106878670746,0.0,0.0,252.0
1449617106894931688,0.0,0.0,259.0
1449617106907631078,0.0,0.0,255.0
1449617106923563537,0.0,0.0,252.0
1449617106940376886,0.0,0.0,258.0
1449617106953645626,0.0,0.0,253.0
1449617106969490286,0.0,0.0,254.0
1449617106985062017,0.0,0.0,260.0
1449617106997418835,0.0,0.0,252.0
1449617107013774264,0.0,0.0,253.0
1449617107030247212,0.0,0.0,259.0
1449617107042562416,0.0,0.0,255.0
1449617107058813070,0.0,0.0,249.0
1449617107075357397,0.0,0.0,256.0
1449617107087532541,0.0,0.0,251.0
1449617107104095888,0.0,0.0,255.0
1449617107120193840,0.0,0.0,253.0
1449617107132899691,0.0,0.0,249.0
1449617107148962795,0.0,0.0,257.0
1449617107165952162,0.0,0.0,252.0
1449617107177536932,0.0,0.0,250.0
1449617107193989551,0.0,0.0,248.0
1449617107210535885,0.0,0.0,259.0
1449617107223792962,0.0,0.0,254.0
1449617107239875876,0.0,0.0,248.0
1449617107257554945,0.0,0.0,255.0
1449617107268137992,0.0,0.0,253.0
1449617107284612021,0.0,0.0,254.0
1449617107296895629,0.0,0.0,255.0
1449617107317232087,0.0,0.0,254.0
1449617107329565294,0.0,0.0,254.0
1449617107346427870,0.0,0.0,252.0
1449617107362485388,0.0,0.0,251.0
1449617107374288444,0.0,0.0,248.0
1449617107390791716,0.0,0.0,249.0
1449617107407167954,0.0,0.0,249.0
1449617107419406068,0.0,0.0,247.0
1449617107435865705,0.0,0.0,245.0
1449617107452716054,0.0,0.0,246.0
1449617107464445840,0.0,0.0,246.0
1449617107481248670,0.0,0.0,245.0
1449617107497252025,0.0,0.0,244.0
1449617107509876823,0.0,0.0,244.0
1449617107526299980,0.0,0.0,243.0
1449617107542891022,0.0,0.0,247.0
1449617107555100922,0.0,0.0,243.0
1449617107571230212,0.0,0.0,243.0
1449617107587485421,0.0,0.0,243.0
1449617107599596221,0.0,0.0,251.0
1449617107616052230,0.0,0.0,247.0
1449617107632754973,0.0,0.0,249.0
1449617107644792453,0.0,0.0,255.0
1449617107661966230,0.0,0.0,251.0
1449617107677909941,0.0,0.0,250.0
1449617107689846415,0.0,0.0,250.0
1449617107706064078,0.0,0.0,253.0
1449617107719041316,0.0,0.0,251.0
1449617107736959240,0.0,0.0,251.0
1449617107751507740,0.0,0.0,249.0
1449617107763479708,0.0,0.0,251.0
1449617107780681706,0.0,0.0,249.0
1449617107796697453,0.0,0.0,253.0
1449617107809395085,0.0,0.0,250.0
1449617107825177289,0.0,0.0,250.0
1449617107841534225,0.0,0.0,249.0
1449617107853487808,0.0,0.0,253.0
1449617107870307267,0.0,0.0,247.0
1449617107886420374,0.0,0.0,248.0
1449617107898695002,0.0,0.0,256.0
1449617107914945860,0.0,0.0,251.0
1449617107931541370,0.0,0.0,250.0
1449617107944640061,0.0,0.0,246.0
1449617107961981314,0.0,0.0,249.0
1449617107977154955,0.0,0.0,247.0
1449617107990207050,0.0,0.0,252.0
1449617108005057271,0.0,0.0,247.0
1449617108023876212,0.0,0.0,250.0
1449617108034877811,0.0,0.0,251.0
1449617108058999937,0.0,0.0,250.0
1449617108067148509,0.0,0.0,249.0
1449617108079639537,0.0,0.0,248.0
1449617108095480749,0.0,0.0,248.0
1449617108107935856,0.0,0.0,248.0
1449617108124226952,0.0,0.0,240.0
1449617108140531236,0.0,0.0,251.0
1449617108153013880,0.0,0.0,248.0
1449617108169207130,0.0,0.0,251.0
1449617108190199103,0.0,0.0,249.0
1449617108197887069,0.0,0.0,248.0
1449617108214704152,0.0,0.0,246.0
1449617108231644059,0.0,0.0,243.0
1449617108242905436,0.0,0.0,254.0
1449617108259392072,0.0,0.0,245.0
1449617108275651576,0.0,0.0,249.0
1449617108288188703,0.0,0.0,246.0
1449617108304487622,0.0,0.0,247.0
1449617108320711741,0.0,0.0,246.0
1449617108333640740,0.0,0.0,245.0
1449617108353642278,0.0,0.0,247.0
1449617108365904601,0.0,0.0,251.0
1449617108378390669,0.0,0.0,250.0
1449617108395074915,0.0,0.0,249.0
1449617108411295948,0.0,0.0,244.0
1449617108426764804,0.0,0.0,245.0
1449617108440835248,0.0,0.0,250.0
1449617108454755089,0.0,0.0,248.0
1449617108468588852,0.0,0.0,249.0
1449617108484925771,0.0,0.0,250.0
1449617108496784147,0.0,0.0,245.0
1449617108513466439,0.0,0.0,237.0
1449617108529627743,0.0,0.0,248.0
1449617108545873887,0.0,0.0,246.0
1449617108558419073,0.0,0.0,249.0
1449617108577628556,0.0,0.0,249.0
1449617108587513637,0.0,0.0,248.0
1449617108603504845,0.0,0.0,242.0
1449617108620103321,0.0,0.0,245.0
1449617108633612418,0.0,0.0,252.0
1449617108648581603,0.0,0.0,245.0
1449617108664924126,0.0,0.0,245.0
1449617108677274784,0.0,0.0,244.0
1449617108693602260,0.0,0.0,251.0
1449617108710187424,0.0,0.0,247.0
1449617108723615291,0.0,0.0,246.0
1449617108742030848,0.0,0.0,246.0
1449617108755878883,0.0,0.0,245.0
1449617108767218251,0.0,0.0,250.0
1449617108786268077,0.0,0.0,239.0
1449617108800238822,0.0,0.0,246.0
1449617108812133093,0.0,0.0,244.0
1449617108828754820,0.0,0.0,246.0
1449617108841751459,0.0,0.0,246.0
1449617108857279188,0.0,0.0,246.0
1449617108874032801,0.0,0.0,246.0
1449617108889817900,0.0,0.0,245.0
1449617108902700262,0.0,0.0,246.0
1449617108924253532,0.0,0.0,246.0
1449617108931042947,0.0,0.0,246.0
1449617108947320468,0.0,0.0,247.0
1449617108964580160,0.0,0.0,247.0
1449617108976319640,0.0,0.0,247.0
1449617108992378507,0.0,0.0,247.0
1449617109009178336,0.0,0.0,248.0
1449617109021718373,0.0,0.0,252.0
1449617109041096581,0.0,0.0,249.0
1449617109053984074,0.0,0.0,242.0
1449617109066473832,0.0,0.0,246.0
1449617109083757248,0.0,0.0,246.0
1449617109102528500,0.0,0.0,245.0
1449617109111552747,0.0,0.0,247.0
1449617109127636744,0.0,0.0,244.0
1449617109144079558,0.0,0.0,241.0
1449617109156548278,0.0,0.0,244.0
1449617109172825690,0.0,0.0,237.0
1449617109189302170,0.0,0.0,244.0
1449617109202337581,0.0,0.0,240.0
1449617109223868292,0.0,0.0,240.0
1449617109230560283,0.0,0.0,238.0
1449617109249631597,0.0,0.0,241.0
1449617109263010334,0.0,0.0,240.0
1449617109275293695,0.0,0.0,237.0
1449617109291363721,0.0,0.0,240.0
1449617109308135577,0.0,0.0,241.0
1449617109321197659,0.0,0.0,240.0
1449617109336521089,0.0,0.0,240.0
1449617109352762029,0.0,0.0,240.0
1449617109365059925,0.0,0.0,244.0
1449617109381695218,0.0,0.0,245.0
1449617109398455045,0.0,0.0,244.0
1449617109410487059,0.0,0.0,249.0
1449617109426645300,0.0,0.0,247.0
1449617109443309111,0.0,0.0,247.0
1449617109457331984,0.0,0.0,247.0
1449617109473866836,0.0,0.0,247.0
1449617109488012059,0.0,0.0,248.0
1449617109501648784,0.0,0.0,244.0
1449617109517096615,0.0,0.0,248.0
1449617109537633143,0.0,0.0,248.0
1449617109545963188,0.0,0.0,251.0
1449617109561921347,0.0,0.0,245.0
1449617109578235203,0.0,0.0,245.0
1449617109592729993,0.0,0.0,248.0
1449617109607117812,0.0,0.0,244.0
1449617109621626589,0.0,0.0,240.0
1449617109635731458,0.0,0.0,245.0
1449617109652899447,0.0,0.0,246.0
1449617109664057674,0.0,0.0,242.0
1449617109680522930,0.0,0.0,246.0
1449617109697506517,0.0,0.0,246.0
1449617109709554428,0.0,0.0,246.0
1449617109728591743,0.0,0.0,246.0
1449617109743167467,0.0,0.0,250.0
1449617109754763686,0.0,0.0,247.0
1449617109777548522,0.0,0.0,243.0
1449617109795077863,0.0,0.0,250.0
1449617109803390103,0.0,0.0,244.0
1449617109822713276,0.0,0.0,247.0
1449617109836941438,0.0,0.0,249.0
1449617109849906931,0.0,0.0,247.0
1449617109864933060,0.0,0.0,247.0
1449617109877264351,0.0,0.0,248.0
1449617109893848099,0.0,0.0,245.0
1449617109911811206,0.0,0.0,245.0
1449617109922521720,0.0,0.0,247.0
1449617109941143370,0.0,0.0,250.0
1449617109955654195,0.0,0.0,245.0
1449617109969691493,0.0,0.0,247.0
1449617109985614418,0.0,0.0,243.0
1449617109996580440,0.0,0.0,248.0
1449617110012592419,0.0,0.0,245.0
1449617110029030183,0.0,0.0,247.0
1449617110041311689,0.0,0.0,246.0
1449617110057758905,0.0,0.0,248.0
1449617110074047795,0.0,0.0,246.0
1449617110086630078,0.0,0.0,245.0
1449617110103514710,0.0,0.0,245.0
1449617110123141434,0.0,0.0,245.0
1449617110131411171,0.0,0.0,243.0
1449617110147620993,0.0,0.0,243.0
1449617110164042994,0.0,0.0,248.0
1449617110176219771,0.0,0.0,244.0
1449617110195407400,0.0,0.0,250.0
1449617110209254946,0.0,0.0,243.0
1449617110221403517,0.0,0.0,244.0
1449617110237759138,0.0,0.0,244.0
1449617110254047864,0.0,0.0,244.0
1449617110266666173,0.0,0.0,246.0
1449617110283146330,0.0,0.0,247.0
1449617110299550834,0.0,0.0,246.0
1449617110312974115,0.0,0.0,245.0
1449617110328301560,0.0,0.0,248.0
1449617110346013691,0.0,0.0,246.0
1449617110358563705,0.0,0.0,247.0
1449617110372820319,0.0,0.0,246.0
1449617110385124210,0.0,0.0,240.0
1449617110401593278,0.0,0.0,244.0
1449617110422182513,0.0,0.0,246.0
1449617110432348114,0.0,0.0,246.0
1449617110446931331,0.0,0.0,246.0
1449617110463274333,0.0,0.0,247.0
1449617110476353115,0.0,0.0,251.0
1449617110491650038,0.0,0.0,237.0
1449617110508130323,0.0,0.0,243.0
1449617110525622410,0.0,0.0,244.0
1449617110536992235,0.0,0.0,246.0
1449617110554215989,0.0,0.0,242.0
1449617110565792520,0.0,0.0,243.0
1449617110581810404,0.0,0.0,255.0
1449617110598219659,0.0,0.0,247.0
1449617110610626314,0.0,0.0,246.0
1449617110628583211,0.0,0.0,239.0
1449617110643467991,0.0,0.0,240.0
1449617110656421726,0.0,0.0,237.0
1449617110672110765,0.0,0.0,237.0
1449617110688384259,0.0,0.0,240.0
1449617110702403986,0.0,0.0,235.0
1449617110716991114,0.0,0.0,242.0
1449617110733674032,0.0,0.0,235.0
1449617110749164326,0.0,0.0,235.0
1449617110765846163,0.0,0.0,239.0
1449617110777376953,0.0,0.0,236.0
1449617110791000834,0.0,0.0,240.0
1449617110809730856,0.0,0.0,234.0
1449617110821148800,0.0,0.0,243.0
1449617110836131941,0.0,0.0,238.0
1449617110852599603,0.0,0.0,241.0
1449617110872586651,0.0,0.0,243.0
1449617110881731363,0.0,0.0,245.0
1449617110901619763,0.0,0.0,246.0
1449617110913954345,0.0,0.0,245.0
1449617110925987196,0.0,0.0,247.0
1449617110946275849,0.0,0.0,247.0
1449617110955009610,0.0,0.0,247.0
1449617111015432367,0.0,0.0,248.0
1449617111015435766,0.0,0.0,245.0
1449617111015438632,0.0,0.0,241.0
1449617111017169909,0.0,0.0,247.0
1449617111032667194,0.0,0.0,244.0
1449617111044904797,0.0,0.0,243.0
1449617111061623472,0.0,0.0,245.0
1449617111080540070,0.0,0.0,244.0
1449617111090227719,0.0,0.0,242.0
1449617111106448809,0.0,0.0,248.0
1449617111123927774,0.0,0.0,246.0
1449617111139755144,0.0,0.0,244.0
1449617111153610241,0.0,0.0,243.0
1449617111163620662,0.0,0.0,246.0
1449617111180201114,0.0,0.0,245.0
1449617111196365770,0.0,0.0,242.0
1449617111208572353,0.0,0.0,244.0
1449617111225049532,0.0,0.0,243.0
1449617111245616762,0.0,0.0,244.0
1449617111263827104,0.0,0.0,245.0
1449617111271994228,0.0,0.0,242.0
1449617111289839698,0.0,0.0,242.0
1449617111301762124,0.0,0.0,245.0
1449617111316435889,0.0,0.0,244.0
1449617111333648770,0.0,0.0,244.0
1449617111344287387,0.0,0.0,251.0
1449617111361429592,0.0,0.0,245.0
1449617111376732341,0.0,0.0,244.0
1449617111392161405,0.0,0.0,246.0
1449617111406150120,0.0,0.0,243.0
1449617111421878518,0.0,0.0,244.0
1449617111433914297,0.0,0.0,247.0
1449617111450979631,0.0,0.0,242.0
1449617111468331980,0.0,0.0,246.0
1449617111479549189,0.0,0.0,246.0
1449617111497996555,0.0,0.0,250.0
1449617111513614435,0.0,0.0,245.0
1449617111524936583,0.0,0.0,245.0
1449617111540660502,0.0,0.0,244.0
1449617111557375788,0.0,0.0,245.0
1449617111569668683,0.0,0.0,242.0
1449617111585501330,0.0,0.0,241.0
1449617111597674671,0.0,0.0,250.0
1449617111614889218,0.0,0.0,243.0
1449617111631137003,0.0,0.0,243.0
1449617111643586722,0.0,0.0,244.0
1449617111659268825,0.0,0.0,241.0
1449617111675631515,0.0,0.0,246.0
1449617111688151708,0.0,0.0,243.0
1449617111704830635,0.0,0.0,244.0
1449617111721558581,0.0,0.0,243.0
1449617111732922028,0.0,0.0,249.0
1449617111749215193,0.0,0.0,246.0
1449617111765855486,0.0,0.0,247.0
1449617111780070885,0.0,0.0,248.0
1449617111794536523,0.0,0.0,246.0
1449617111811391479,0.0,0.0,247.0
1449617111823023966,0.0,0.0,253.0
1449617111840209940,0.0,0.0,249.0
1449617111859773394,0.0,0.0,251.0
1449617111868718176,0.0,0.0,253.0
1449617111884455588,0.0,0.0,253.0
1449617111903461610,0.0,0.0,258.0
1449617111914244284,0.0,0.0,253.0
1449617111929784410,0.0,0.0,255.0
1449617111941967137,0.0,0.0,251.0
1449617111960906335,0.0,0.0,254.0
1449617111974677767,0.0,0.0,253.0
1449617111986899230,0.0,0.0,253.0
1449617112003837213,0.0,0.0,252.0
1449617112019809136,0.0,0.0,261.0
1449617112036051493,0.0,0.0,253.0
1449617112048674386,0.0,0.0,259.0
1449617112065244112,0.0,0.0,256.0
1449617112077743596,0.0,0.0,261.0
1449617112093634600,0.0,0.0,256.0
1449617112110492521,0.0,0.0,254.0
1449617112121964921,0.0,0.0,260.0
1449617112138407287,0.0,0.0,259.0
1449617112160564136,0.0,0.0,262.0
1449617112167280292,0.0,0.0,258.0
1449617112186103180,0.0,0.0,263.0
1449617112200261144,0.0,0.0,261.0
1449617112212509903,0.0,0.0,263.0
1449617112228510672,0.0,0.0,260.0
1449617112245415876,0.0,0.0,261.0
1449617112261296927,0.0,0.0,258.0
1449617112273629352,0.0,0.0,263.0
1449617112292569182,0.0,0.0,258.0
1449617112302520221,0.0,0.0,257.0
1449617112318915834,0.0,0.0,256.0
1449617112335245653,0.0,0.0,255.0
1449617112352025433,0.0,0.0,256.0
1449617112364916902,0.0,0.0,255.0
1449617112380417118,0.0,0.0,253.0
1449617112396822465,0.0,0.0,251.0
1449617112409187152,0.0,0.0,254.0
1449617112427519345,0.0,0.0,254.0
1449617112442003109,0.0,0.0,255.0
1449617112454434672,0.0,0.0,245.0
1449617112470393627,0.0,0.0,251.0
1449617112487329741,0.0,0.0,253.0
1449617112499031140,0.0,0.0,249.0
1449617112516423263,0.0,0.0,254.0
1449617112531769679,0.0,0.0,258.0
1449617112544391178,0.0,0.0,248.0
1449617112562373177,0.0,0.0,254.0
1449617112579947440,0.0,0.0,255.0
1449617112592597201,0.0,0.0,253.0
1449617112605549299,0.0,0.0,253.0
1449617112626047862,0.0,0.0,250.0
1449617112634937452,0.0,0.0,251.0
1449617112650497369,0.0,0.0,251.0
1449617112668326429,0.0,0.0,259.0
1449617112680788006,0.0,0.0,251.0
1449617112699531617,0.0,0.0,254.0
1449617112708330760,0.0,0.0,250.0
1449617112724533638,0.0,0.0,253.0
1449617112740951651,0.0,0.0,252.0
1449617112754036716,0.0,0.0,249.0
1449617112771244339,0.0,0.0,252.0
1449617112787431794,0.0,0.0,251.0
1449617112798722521,0.0,0.0,248.0
1449617112820918836,0.0,0.0,249.0
1449617112830756861,0.0,0.0,249.0
1449617112843589500,0.0,0.0,251.0
1449617112860146287,0.0,0.0,254.0
1449617112876441538,0.0,0.0,257.0
1449617112888259008,0.0,0.0,238.0
1449617112904645550,0.0,0.0,251.0
1449617112921786384,0.0,0.0,251.0
1449617112933507329,0.0,0.0,252.0
1449617112950044688,0.0,0.0,253.0
1449617112967674681,0.0,0.0,248.0
1449617112978688541,0.0,0.0,248.0
1449617112994936046,0.0,0.0,255.0
1449617113011869710,0.0,0.0,253.0
1449617113026172069,0.0,0.0,253.0
1449617113039918617,0.0,0.0,254.0
1449617113059463853,0.0,0.0,257.0
1449617113068452554,0.0,0.0,252.0
1449617113084963429,0.0,0.0,252.0
1449617113096920397,0.0,0.0,254.0
1449617113113814926,0.0,0.0,253.0
1449617113130288262,0.0,0.0,253.0
1449617113144926494,0.0,0.0,255.0
1449617113160667334,0.0,0.0,251.0
1449617113177550899,0.0,0.0,254.0
1449617113188176288,0.0,0.0,254.0
1449617113204581549,0.0,0.0,253.0
1449617113221217838,0.0,0.0,254.0
1449617113233367032,0.0,0.0,251.0
1449617113250579688,0.0,0.0,253.0
1449617113267763047,0.0,0.0,252.0
1449617113281320135,0.0,0.0,253.0
1449617113294795759,0.0,0.0,250.0
1449617113311061592,0.0,0.0,251.0
1449617113322948775,0.0,0.0,252.0
1449617113338742469,0.0,0.0,255.0
1449617113356061649,0.0,0.0,252.0
1449617113368162446,0.0,0.0,250.0
1449617113385274432,0.0,0.0,253.0
1449617113402338502,0.0,0.0,249.0
1449617113413651502,0.0,0.0,248.0
1449617113428841512,0.0,0.0,251.0
1449617113445569117,0.0,0.0,250.0
1449617113460001288,0.0,0.0,251.0
1449617113474237647,0.0,0.0,257.0
1449617113490641763,0.0,0.0,253.0
1449617113502787039,0.0,0.0,249.0
1449617113519040615,0.0,0.0,252.0
1449617113531147547,0.0,0.0,253.0
1449617113547742754,0.0,0.0,249.0
1449617113565272951,0.0,0.0,249.0
1449617113576548954,0.0,0.0,250.0
1449617113594609063,0.0,0.0,252.0
1449617113609121682,0.0,0.0,250.0
1449617113621336197,0.0,0.0,254.0
1449617113640218450,0.0,0.0,249.0
1449617113654480658,0.0,0.0,248.0
1449617113667800637,0.0,0.0,248.0
1449617113682896447,0.0,-2.0,248.0
1449617113699838142,0.0,-2.0,250.0
1449617113711681065,0.0,-2.0,253.0
1449617113728802123,0.0,-2.0,250.0
1449617113744445371,0.0,-2.0,248.0
1449617113756690189,0.0,-2.0,247.0
1449617113772942467,0.0,-2.0,241.0
1449617113792152517,0.0,-2.0,248.0
1449617113801987359,0.0,-2.0,248.0
1449617113818024740,0.0,-2.0,246.0
1449617113836701814,0.0,-2.0,247.0
1449617113846936516,0.0,-2.0,249.0
1449617113863314473,0.0,-2.0,242.0
1449617113875794535,0.0,-4.0,240.0
1449617113892193691,0.0,-4.0,251.0
1449617113908533241,0.0,-4.0,248.0
1449617113920388633,0.0,-4.0,247.0
1449617113936894882,0.0,-4.0,248.0
1449617113953288610,0.0,-4.0,248.0
1449617113965813109,0.0,-4.0,253.0
1449617113982417125,0.0,-4.0,252.0
1449617113998797709,0.0,-4.0,253.0
1449617114012143725,0.0,-6.0,252.0
1449617114028506118,0.0,-6.0,252.0
1449617114044052217,0.0,-6.0,258.0
1449617114056167973,0.0,-6.0,252.0
1449617114072795773,0.0,-6.0,251.0
1449617114119992907,-2.0,-6.0,238.0
1449617114119997618,-2.0,-6.0,283.0
1449617114120001437,-2.0,-8.0,236.0
1449617114137108470,-2.0,-8.0,241.0
1449617114147653104,-2.0,-8.0,237.0
1449617114164321253,-2.0,-8.0,230.0
1449617114179937215,-2.0,-8.0,229.0
1449617114194801373,-2.0,-8.0,231.0
1449617114207389581,-2.0,-10.0,231.0
1449617114223586006,-4.0,-10.0,239.0
1449617114235857619,-4.0,-10.0,243.0
1449617114252451542,-4.0,-10.0,244.0
1449617114265318874,-4.0,-10.0,250.0
1449617114280878778,-4.0,-12.0,252.0
1449617114297557330,-4.0,-12.0,250.0
1449617114312646646,-6.0,-12.0,237.0
1449617114330367755,-6.0,-12.0,235.0
1449617114342633113,-6.0,-12.0,233.0
1449617114354963069,-6.0,-14.0,233.0
1449617114372250581,-6.0,-14.0,228.0
1449617114387541753,-8.0,-14.0,243.0
1449617114401635149,-8.0,-14.0,243.0
1449617114416923631,-8.0,-16.0,252.0
1449617114447814133,-8.0,-16.0,252.0
1449617114447832047,-10.0,-16.0,237.0
1449617114462040652,-10.0,-16.0,235.0
1449617114477597325,-10.0,-18.0,231.0
1449617114489803843,-12.0,-18.0,240.0
1449617114507603001,-12.0,-18.0,242.0
1449617114524320093,-12.0,-18.0,250.0
1449617114534844049,-12.0,-20.0,242.0
1449617114551460504,-14.0,-20.0,236.0
1449617114568411884,-14.0,-20.0,227.0
1449617114579949242,-16.0,-20.0,247.0
1449617114596322592,-16.0,-22.0,263.0
1449617114612935242,-16.0,-22.0,242.0
1449617114629209237,-18.0,-22.0,282.0
1449617114642947146,-18.0,-24.0,225.0
1449617114654082845,-20.0,-24.0,283.0
1449617114673350406,-20.0,-24.0,242.0
1449617114686801213,-20.0,-24.0,297.0
1449617114699026098,-22.0,-26.0,235.0
1449617114715114507,-22.0,-26.0,228.0
1449617114733516716,-24.0,-26.0,239.0
1449617114743862125,-24.0,-28.0,290.0
1449617114762412555,-26.0,-28.0,234.0
1449617114778490368,-26.0,-28.0,270.0
1449617114789409707,-28.0,-30.0,237.0
1449617114816417671,-28.0,-30.0,294.0
1449617114827148269,-30.0,-30.0,234.0
1449617114840861430,-30.0,-32.0,230.0
1449617114856498645,-32.0,-32.0,244.0
1449617114866986167,-32.0,-32.0,251.0
1449617114883133609,-34.0,-34.0,283.0
1449617114900601510,-34.0,-34.0,232.0
1449617114912704404,-36.0,-34.0,289.0
1449617114928370739,-36.0,-36.0,249.0
1449617114944990114,-38.0,-36.0,283.0
1449617114957540218,-38.0,-36.0,233.0
1449617114977842329,-40.0,-38.0,250.0
1449617114993556860,-40.0,-38.0,255.0
1449617115002089218,-42.0,-38.0,292.0
1449617115024285394,-42.0,-38.0,238.0
1449617115030970137,-44.0,-40.0,299.0
1449617115049834582,-44.0,-40.0,256.0
1449617115064084588,-46.0,-40.0,293.0
1449617115081598678,-46.0,-40.0,242.0
1449617115092517625,-48.0,-42.0,299.0
1449617115108427300,-48.0,-42.0,268.0
1449617115122157754,-50.0,-42.0,249.0
1449617115137420851,-50.0,-42.0,247.0
1449617115153691477,-52.0,-44.0,296.0
1449617115165964455,-52.0,-44.0,260.0
1449617115182592360,-54.0,-44.0,304.0
1449617115198865680,-54.0,-44.0,249.0
1449617115210837451,-54.0,-46.0,292.0
1449617115234627029,-56.0,-46.0,258.0
1449617115243949520,-56.0,-46.0,265.0
1449617115257119950,-58.0,-46.0,256.0
1449617115272468891,-58.0,-46.0,296.0
1449617115288698170,-58.0,-48.0,246.0
1449617115305544132,-60.0,-48.0,306.0
1449617115322118126,-60.0,-48.0,257.0
1449617115333871035,-60.0,-48.0,307.0
1449617115347230751,-62.0,-48.0,252.0
1449617115362349862,-62.0,-50.0,294.0
1449617115379401600,-62.0,-50.0,247.0
1449617115391619165,-64.0,-50.0,256.0
1449617115407541250,-64.0,-50.0,258.0
1449617115420829531,-64.0,-50.0,313.0
1449617115436973667,-64.0,-50.0,263.0
1449617115452617592,-66.0,-50.0,304.0
1449617115465260107,-66.0,-52.0,253.0
1449617115481741709,-66.0,-52.0,305.0
1449617115497841726,-66.0,-52.0,249.0
1449617115510665835,-68.0,-52.0,309.0
1449617115533892345,-68.0,-52.0,261.0
1449617115543681768,-68.0,-52.0,313.0
1449617115555200543,-68.0,-52.0,269.0
1449617115571942237,-68.0,-52.0,309.0
1449617115588459386,-70.0,-52.0,258.0
1449617115599998531,-70.0,-52.0,258.0
1449617115616559949,-70.0,-54.0,258.0
1449617115634325562,-70.0,-54.0,251.0
1449617115650136866,-70.0,-54.0,256.0
1449617115673669834,-70.0,-54.0,252.0
1449617115679186079,-70.0,-54.0,250.0
1449617115690944796,-70.0,-54.0,255.0
1449617115709092342,-72.0,-54.0,265.0
1449617115722977893,-72.0,-54.0,261.0
1449617115735326967,-72.0,-54.0,266.0
1449617115751558128,-72.0,-54.0,261.0
1449617115767868276,-72.0,-54.0,260.0
1449617115781641980,-72.0,-54.0,267.0
1449617115796966326,-72.0,-54.0,267.0
1449617115812817156,-72.0,-54.0,265.0
1449617115826667002,-72.0,-54.0,263.0
1449617115842343171,-72.0,-54.0,266.0
1449617115854312153,-72.0,-54.0,268.0
1449617115871525818,-72.0,-54.0,270.0
1449617115886938907,-72.0,-54.0,267.0
1449617115900334145,-72.0,-54.0,267.0
1449617115916309236,-72.0,-54.0,271.0
1449617115934149074,-72.0,-54.0,267.0
1449617115945541348,-72.0,-54.0,264.0
1449617115964514214,-72.0,-54.0,265.0
1449617115978109838,-72.0,-54.0,265.0
1449617115989258533,-72.0,-54.0,267.0
1449617116005975102,-72.0,-54.0,268.0
1449617116022666657,-72.0,-54.0,264.0
1449617116034305446,-72.0,-54.0,266.0
1449617116056069710,-72.0,-56.0,264.0
1449617116070745507,-72.0,-56.0,266.0
1449617116079431446,-72.0,-56.0,262.0
1449617116096114335,-72.0,-56.0,264.0
1449617116112626842,-72.0,-56.0,265.0
1449617116124981345,-72.0,-56.0,260.0
1449617116141306265,-72.0,-56.0,265.0
1449617116157415364,-72.0,-56.0,264.0
1449617116169540591,-72.0,-56.0,262.0
1449617116186420027,-72.0,-56.0,261.0
1449617116199565079,-72.0,-56.0,288.0
1449617116215700314,-72.0,-56.0,263.0
1449617116230968647,-74.0,-56.0,256.0
1449617116244111705,-74.0,-56.0,250.0
1449617116260615181,-74.0,-58.0,248.0
1449617116276440875,-74.0,-58.0,249.0
1449617116288387804,-74.0,-58.0,251.0
1449617116307877615,-74.0,-58.0,246.0
1449617116323911128,-74.0,-58.0,242.0
1449617116334586974,-74.0,-58.0,242.0
1449617116351049469,-74.0,-58.0,268.0
1449617116366901144,-74.0,-60.0,255.0
1449617116378426021,-76.0,-60.0,254.0
1449617116395101455,-76.0,-60.0,258.0
1449617116420793662,-76.0,-60.0,255.0
1449617116424208869,-76.0,-60.0,262.0
1449617116441414960,-76.0,-60.0,266.0
1449617116457847614,-76.0,-62.0,264.0
1449617116469128432,-78.0,-62.0,252.0
1449617116484890305,-78.0,-62.0,251.0
1449617116502003588,-78.0,-62.0,244.0
1449617116513570751,-78.0,-64.0,244.0
1449617116529987931,-80.0,-64.0,255.0
1449617116546986004,-80.0,-64.0,255.0
1449617116561621227,-80.0,-66.0,261.0
1449617116580515022,-80.0,-66.0,263.0
1449617116590049011,-82.0,-66.0,253.0
1449617116603732208,-82.0,-66.0,250.0
1449617116620555871,-82.0,-68.0,289.0
1449617116632685072,-82.0,-68.0,251.0
1449617116649862030,-84.0,-68.0,260.0
1449617116665349420,-84.0,-70.0,267.0
1449617116678343892,-84.0,-70.0,265.0
1449617116695347373,-86.0,-72.0,251.0
1449617116710814338,-86.0,-72.0,248.0
1449617116722914945,-86.0,-72.0,253.0
1449617116741305234,-88.0,-74.0,259.0
1449617116757691291,-88.0,-74.0,266.0
1449617116768639117,-90.0,-74.0,258.0
1449617116784510046,-90.0,-76.0,252.0
1449617116800420655,-90.0,-76.0,248.0
1449617116812799753,-92.0,-78.0,263.0
1449617116835964561,-92.0,-78.0,269.0
1449617116845715902,-94.0,-80.0,264.0
1449617116858944128,-94.0,-80.0,251.0
1449617116875462230,-96.0,-82.0,259.0
1449617116891451826,-96.0,-82.0,311.0
1449617116906251586,-96.0,-84.0,271.0
1449617116919209233,-98.0,-84.0,262.0
1449617116935916414,-98.0,-86.0,251.0
1449617116947946382,-100.0,-86.0,266.0
1449617116964471993,-100.0,-88.0,275.0
1449617116983317109,-102.0,-88.0,263.0
1449617116996723537,-102.0,-90.0,253.0
1449617117009621240,-104.0,-90.0,269.0
1449617117021665894,-104.0,-92.0,275.0
1449617117038856252,-106.0,-94.0,308.0
1449617117060584525,-106.0,-94.0,257.0
1449617117068675931,-108.0,-96.0,274.0
1449617117087530439,-108.0,-96.0,279.0
1449617117111412234,-110.0,-98.0,267.0
1449617117111811804,-110.0,-100.0,261.0
1449617117129463943,-112.0,-100.0,270.0
1449617117144790067,-112.0,-102.0,280.0
1449617117156828390,-114.0,-102.0,314.0
1449617117174021704,-114.0,-104.0,262.0
1449617117191729167,-116.0,-106.0,280.0
1449617117201756109,-116.0,-106.0,281.0
1449617117220277696,-118.0,-108.0,266.0
1449617117237630358,-120.0,-110.0,280.0
1449617117248787012,-120.0,-110.0,286.0
1449617117266037712,-122.0,-112.0,269.0
1449617117279922662,-122.0,-114.0,269.0
1449617117292150960,-124.0,-116.0,283.0
1449617117309329320,-124.0,-116.0,284.0
1449617117325139693,-126.0,-118.0,269.0
1449617117341392752,-128.0,-120.0,329.0
1449617117353765588,-128.0,-122.0,293.0
1449617117369648477,-130.0,-122.0,273.0
1449617117386473706,-132.0,-124.0,287.0
1449617117402907739,-132.0,-126.0,292.0
1449617117415557116,-134.0,-128.0,278.0
1449617117433397048,-134.0,-128.0,280.0
1449617117444807477,-136.0,-130.0,293.0
1449617117466405504,-138.0,-132.0,281.0
1449617117476302184,-138.0,-134.0,272.0
1449617117489208455,-140.0,-134.0,293.0
1449617117504920337,-142.0,-136.0,281.0
1449617117521334996,-142.0,-138.0,275.0
1449617117541383094,-144.0,-140.0,292.0
1449617117550314491,-144.0,-142.0,290.0
1449617117566539204,-146.0,-142.0,276.0
1449617117579914101,-148.0,-144.0,291.0
1449617117596971090,-148.0,-146.0,294.0
1449617117612616810,-150.0,-148.0,272.0
1449617117624434614,-152.0,-150.0,288.0
1449617117641379670,-152.0,-152.0,295.0
1449617117657646460,-154.0,-152.0,278.0
1449617117670252090,-156.0,-154.0,291.0
1449617117685924198,-156.0,-156.0,294.0
1449617117703137015,-158.0,-158.0,277.0
1449617117713796568,-160.0,-160.0,288.0
1449617117730437503,-160.0,-162.0,292.0
1449617117744736734,-162.0,-164.0,278.0
1449617117758975422,-164.0,-164.0,289.0
1449617117775416503,-166.0,-166.0,290.0
1449617117787708769,-166.0,-168.0,271.0
1449617117805258290,-168.0,-170.0,299.0
1449617117821829705,-170.0,-172.0,287.0
1449617117835503721,-170.0,-174.0,283.0
1449617117850176677,-172.0,-176.0,302.0
1449617117865637709,-174.0,-176.0,288.0
1449617117878078163,-174.0,-180.0,283.0
1449617117902765836,-176.0,-180.0,302.0
1449617117910654075,-178.0,-182.0,289.0
1449617117923186028,-178.0,-184.0,332.0
1449617117941808365,-180.0,-186.0,302.0
1449617117957621560,-182.0,-188.0,290.0
1449617117968298874,-184.0,-190.0,295.0
1449617117985026492,-184.0,-192.0,303.0
1449617118001503794,-186.0,-194.0,282.0
1449617118017557436,-188.0,-196.0,297.0
1449617118029496094,-188.0,-196.0,300.0
1449617118045738155,-190.0,-200.0,284.0
1449617118058063111,-192.0,-200.0,292.0
1449617118077654866,-192.0,-202.0,302.0
1449617118094439924,-194.0,-204.0,281.0
1449617118103282624,-196.0,-206.0,294.0
1449617118119413346,-198.0,-208.0,289.0
1449617118131784735,-198.0,-210.0,281.0
1449617118157656299,-200.0,-212.0,298.0
1449617118176855120,-202.0,-214.0,285.0
1449617118176867210,-202.0,-216.0,286.0
1449617118193044601,-204.0,-216.0,299.0
1449617118209611318,-206.0,-220.0,283.0
1449617118223059489,-206.0,-220.0,278.0
1449617118238839442,-208.0,-222.0,298.0
1449617118254554169,-210.0,-224.0,281.0
1449617118267235365,-212.0,-226.0,280.0
1449617118284046971,-212.0,-228.0,293.0
1449617118301282351,-214.0,-230.0,272.0
1449617118315739540,-216.0,-232.0,284.0
1449617118330563189,-216.0,-234.0,290.0
1449617118345908103,-218.0,-236.0,273.0
1449617118357010708,-220.0,-236.0,281.0
1449617118373905327,-220.0,-240.0,281.0
1449617118389825778,-222.0,-240.0,282.0
1449617118412743651,-224.0,-242.0,276.0
1449617118418929472,-224.0,-244.0,305.0
1449617118434787518,-226.0,-246.0,260.0
1449617118447039149,-228.0,-248.0,276.0
1449617118488583896,-228.0,-250.0,277.0
1449617118488608349,-230.0,-252.0,281.0
1449617118493010071,-232.0,-254.0,273.0
1449617118509103206,-234.0,-256.0,293.0
1449617118520819126,-234.0,-256.0,255.0
1449617118537154914,-236.0,-258.0,298.0
1449617118554924577,-238.0,-260.0,264.0
1449617118566560285,-238.0,-262.0,281.0
1449617118587948280,-240.0,-264.0,272.0
1449617118598799064,-242.0,-266.0,279.0
1449617118615015664,-242.0,-268.0,249.0
1449617118627441736,-244.0,-270.0,296.0
1449617118643890097,-246.0,-272.0,257.0
1449617118658345243,-246.0,-274.0,289.0
1449617118672834999,-248.0,-276.0,267.0
1449617118689626566,-250.0,-276.0,301.0
1449617118701405760,-250.0,-278.0,296.0
1449617118717771195,-252.0,-280.0,264.0
1449617118746048632,-254.0,-282.0,248.0
1449617118747908238,-256.0,-284.0,249.0
1449617118765402406,-256.0,-286.0,257.0
1449617118779691712,-258.0,-288.0,240.0
1449617118791586924,-260.0,-290.0,243.0
1449617118807899124,-260.0,-292.0,249.0
1449617118835550902,-262.0,-294.0,230.0
1449617118837545170,-264.0,-296.0,244.0
1449617118853037646,-264.0,-296.0,249.0
1449617118869466372,-266.0,-298.0,232.0
1449617118881731927,-268.0,-300.0,237.0
1449617118897824197,-268.0,-302.0,241.0
1449617118913096661,-270.0,-304.0,223.0
1449617118926281613,-272.0,-306.0,233.0
1449617118942654101,-272.0,-308.0,231.0
1449617118955461174,-274.0,-310.0,216.0
1449617118973267849,-276.0,-312.0,230.0
1449617118987999426,-278.0,-314.0,219.0
1449617119000102737,-278.0,-314.0,210.0
1449617119021918221,-280.0,-316.0,224.0
1449617119033728797,-282.0,-318.0,215.0
1449617119046340776,-282.0,-320.0,207.0
1449617119062305742,-284.0,-322.0,225.0
1449617119080799308,-286.0,-324.0,213.0
1449617119092925549,-286.0,-326.0,203.0
1449617119106931887,-288.0,-328.0,229.0
1449617119123299005,-290.0,-330.0,206.0
1449617119135496269,-290.0,-330.0,209.0
1449617119151962871,-292.0,-332.0,222.0
1449617119169618498,-294.0,-334.0,210.0
1449617119182611605,-296.0,-336.0,215.0
1449617119200949187,-296.0,-338.0,217.0
1449617119213161862,-298.0,-340.0,209.0
1449617119225858974,-300.0,-342.0,215.0
1449617119241849102,-300.0,-344.0,215.0
1449617119259832608,-302.0,-344.0,205.0
1449617119273624843,-304.0,-346.0,208.0
1449617119287073637,-304.0,-348.0,218.0
1449617119299066938,-306.0,-350.0,199.0
1449617119316167511,-308.0,-352.0,206.0
1449617119332830443,-308.0,-354.0,212.0
1449617119344613713,-310.0,-356.0,197.0
1449617119360728774,-312.0,-358.0,208.0
1449617119377188746,-312.0,-360.0,210.0
1449617119389304137,-314.0,-360.0,194.0
1449617119407075698,-316.0,-362.0,215.0
1449617119424679638,-318.0,-364.0,204.0
1449617119434744800,-318.0,-366.0,198.0
1449617119450979652,-320.0,-368.0,217.0
1449617119467035934,-322.0,-370.0,202.0
1449617119479751245,-324.0,-372.0,212.0
1449617119496416121,-324.0,-374.0,216.0
1449617119512599247,-326.0,-374.0,204.0
1449617119525324034,-328.0,-376.0,214.0
1449617119550126999,-328.0,-378.0,222.0
1449617119558187346,-330.0,-380.0,203.0
1449617119570312577,-332.0,-382.0,217.0
1449617119590836660,-334.0,-384.0,212.0
1449617119603192883,-334.0,-386.0,207.0
1449617119616151437,-336.0,-388.0,227.0
1449617119633945216,-338.0,-390.0,220.0
1449617119648149567,-340.0,-390.0,220.0
1449617119660013198,-340.0,-392.0,235.0
1449617119676311232,-342.0,-394.0,216.0
1449617119690686124,-344.0,-396.0,229.0
1449617119705119944,-344.0,-398.0,232.0
1449617119720958879,-346.0,-400.0,214.0
1449617119733775828,-348.0,-402.0,232.0
1449617119753389533,-350.0,-402.0,226.0
1449617119772524952,-350.0,-404.0,223.0
1449617119778442540,-352.0,-406.0,240.0
1449617119795083969,-354.0,-408.0,219.0
1449617119813630559,-356.0,-410.0,229.0
1449617119829616736,-358.0,-412.0,232.0
1449617119847622917,-358.0,-414.0,244.0
1449617119856744871,-360.0,-416.0,244.0
1449617119872971740,-362.0,-418.0,255.0
1449617119889492589,-364.0,-418.0,237.0
1449617119902604106,-364.0,-420.0,268.0
1449617119920501216,-366.0,-422.0,231.0
1449617119936192200,-368.0,-424.0,230.0
1449617119947290250,-370.0,-426.0,231.0
1449617119964968036,-370.0,-428.0,266.0
1449617119980388177,-372.0,-428.0,240.0
1449617119992129913,-374.0,-430.0,272.0
1449617120008153020,-376.0,-432.0,236.0
1449617120024795000,-376.0,-434.0,286.0
1449617120037211216,-378.0,-436.0,221.0
1449617120054460860,-380.0,-438.0,282.0
1449617120065238945,-382.0,-440.0,225.0
1449617120081518593,-384.0,-440.0,273.0
1449617120101439180,-384.0,-442.0,239.0
1449617120110746239,-386.0,-444.0,266.0
1449617120126581788,-388.0,-446.0,231.0
1449617120144286174,-390.0,-448.0,276.0
1449617120162355324,-390.0,-450.0,220.0
1449617120175857364,-392.0,-450.0,285.0
1449617120188679903,-394.0,-452.0,222.0
1449617120204682814,-396.0,-454.0,235.0
1449617120219238501,-396.0,-456.0,235.0
1449617120234661237,-398.0,-458.0,271.0
1449617120246063606,-400.0,-460.0,242.0
1449617120263587332,-402.0,-460.0,278.0
1449617120281654559,-404.0,-462.0,240.0
1449617120290788576,-404.0,-464.0,297.0
1449617120307045940,-406.0,-466.0,230.0
1449617120326461505,-408.0,-468.0,294.0
1449617120337752289,-410.0,-468.0,240.0
1449617120352132345,-412.0,-470.0,243.0
1449617120368566343,-412.0,-472.0,252.0
1449617120380858147,-414.0,-474.0,279.0
1449617120397290740,-416.0,-476.0,251.0
1449617120414066970,-418.0,-476.0,290.0
1449617120426583384,-420.0,-478.0,247.0
1449617120443101521,-420.0,-480.0,304.0
1449617120458421270,-422.0,-482.0,243.0
1449617120473647565,-424.0,-484.0,258.0
1449617120487327862,-426.0,-484.0,247.0
1449617120500298277,-428.0,-486.0,299.0
1449617120517612516,-428.0,-488.0,253.0
1449617120532409420,-430.0,-490.0,294.0
1449617120544585934,-432.0,-492.0,265.0
1449617120561465858,-434.0,-492.0,291.0
1449617120577713658,-436.0,-494.0,248.0
1449617120590513411,-438.0,-496.0,295.0
1449617120606648159,-438.0,-498.0,249.0
1449617120622255389,-440.0,-498.0,259.0
1449617120636352068,-442.0,-500.0,241.0
1449617120653669900,-444.0,-502.0,303.0
1449617120669654715,-446.0,-504.0,248.0
1449617120679963087,-448.0,-506.0,300.0
1449617120697612506,-448.0,-506.0,252.0
1449617120714580112,-450.0,-508.0,284.0
1449617120725879876,-452.0,-510.0,256.0
1449617120741184458,-454.0,-512.0,283.0
1449617120757628451,-456.0,-512.0,244.0
1449617120771465771,-458.0,-514.0,286.0
1449617120786799160,-460.0,-516.0,241.0
1449617120805942626,-460.0,-518.0,295.0
1449617120814888954,-462.0,-520.0,231.0
1449617120832719302,-464.0,-520.0,295.0
1449617120843856172,-466.0,-522.0,232.0
1449617120860079789,-468.0,-524.0,284.0
1449617120876600753,-470.0,-524.0,233.0
1449617120888935013,-472.0,-526.0,230.0
1449617120904955871,-472.0,-528.0,241.0
1449617120921778007,-474.0,-530.0,269.0
1449617120933930528,-476.0,-532.0,242.0
1449617120950804968,-478.0,-532.0,275.0
1449617120967027171,-480.0,-534.0,237.0
1449617120979056177,-482.0,-536.0,278.0
1449617120995261263,-484.0,-536.0,231.0
1449617121015885847,-484.0,-538.0,285.0
1449617121025425037,-486.0,-540.0,221.0
1449617121040291873,-488.0,-542.0,285.0
1449617121056653905,-490.0,-542.0,221.0
1449617121068885673,-492.0,-544.0,273.0
1449617121086039722,-494.0,-546.0,214.0
1449617121101557886,-496.0,-548.0,275.0
1449617121115058538,-496.0,-548.0,234.0
1449617121130837919,-498.0,-550.0,257.0
1449617121146716957,-500.0,-552.0,232.0
1449617121159438918,-502.0,-552.0,232.0
1449617121175527331,-504.0,-554.0,225.0
1449617121191932043,-506.0,-556.0,259.0
1449617121206019156,-508.0,-556.0,218.0
1449617121220547905,-508.0,-558.0,268.0
1449617121236138242,-510.0,-560.0,209.0
1449617121249145151,-512.0,-562.0,278.0
1449617121265491372,-514.0,-562.0,211.0
1449617121281610914,-516.0,-564.0,272.0
1449617121294268304,-518.0,-566.0,214.0
1449617121311103077,-520.0,-568.0,243.0
1449617121324324744,-522.0,-568.0,217.0
1449617121346050690,-524.0,-570.0,260.0
1449617121357567092,-524.0,-572.0,235.0
1449617121369960899,-526.0,-572.0,262.0
1449617121384448678,-528.0,-574.0,239.0
1449617121403442967,-530.0,-576.0,270.0
1449617121413681205,-532.0,-576.0,235.0
1449617121432593192,-534.0,-578.0,250.0
1449617121446143368,-536.0,-580.0,236.0
1449617121460545438,-538.0,-580.0,234.0
1449617121474816438,-538.0,-582.0,225.0
1449617121491552319,-540.0,-584.0,245.0
1449617121503254562,-542.0,-584.0,224.0
1449617121519857704,-544.0,-586.0,241.0
1449617121536506966,-546.0,-588.0,221.0
1449617121549807668,-548.0,-588.0,236.0
1449617121566200809,-550.0,-590.0,229.0
1449617121581540581,-552.0,-592.0,253.0
1449617121594377195,-552.0,-592.0,232.0
1449617121611092344,-554.0,-594.0,221.0
1449617121623990864,-556.0,-596.0,242.0
1449617121639522793,-558.0,-596.0,223.0
1449617121657625062,-560.0,-598.0,244.0
1449617121667632784,-562.0,-600.0,229.0
1449617121685836710,-564.0,-600.0,237.0
1449617121700246459,-566.0,-602.0,234.0
1449617121711868539,-568.0,-604.0,239.0
1449617121728413930,-570.0,-604.0,237.0
1449617121744931231,-570.0,-606.0,228.0
1449617121756973579,-572.0,-608.0,247.0
1449617121777635908,-574.0,-608.0,229.0
1449617121790455471,-576.0,-610.0,250.0
1449617121802310438,-578.0,-612.0,233.0
1449617121818525625,-580.0,-612.0,244.0
1449617121835350171,-582.0,-614.0,238.0
1449617121849121696,-584.0,-616.0,289.0
1449617121863616140,-586.0,-616.0,241.0
1449617121880214400,-588.0,-618.0,248.0
1449617121892588109,-588.0,-620.0,252.0
1449617121908995535,-590.0,-620.0,239.0
1449617121926263262,-592.0,-622.0,256.0
1449617121940725240,-594.0,-624.0,238.0
1449617121954104924,-596.0,-624.0,261.0
1449617121969962675,-598.0,-626.0,249.0
1449617121982681625,-600.0,-628.0,257.0
1449617121999476247,-602.0,-628.0,251.0
1449617122011335392,-604.0,-630.0,256.0
1449617122029778100,-606.0,-632.0,251.0
1449617122044361291,-608.0,-632.0,260.0
1449617122057157140,-610.0,-634.0,251.0
1449617122072655087,-612.0,-634.0,254.0
1449617122093989007,-612.0,-636.0,259.0
1449617122102616173,-614.0,-638.0,240.0
1449617122117954499,-616.0,-638.0,307.0
1449617122134063744,-618.0,-640.0,237.0
1449617122146261646,-620.0,-642.0,257.0
1449617122163051281,-622.0,-642.0,242.0
1449617122179934369,-624.0,-644.0,257.0
1449617122192053266,-626.0,-646.0,233.0
1449617122209809360,-628.0,-646.0,247.0
1449617122224282140,-630.0,-648.0,236.0
1449617122237567330,-632.0,-650.0,240.0
1449617122256712320,-634.0,-650.0,233.0
1449617122269271578,-636.0,-652.0,283.0
1449617122281548681,-638.0,-654.0,230.0
1449617122298085188,-640.0,-654.0,236.0
1449617122314484750,-642.0,-656.0,226.0
1449617122326801034,-644.0,-656.0,233.0
1449617122346940839,-646.0,-658.0,217.0
1449617122359371717,-648.0,-660.0,233.0
1449617122382744842,-650.0,-660.0,223.0
1449617122388555012,-652.0,-662.0,230.0
1449617122408724132,-654.0,-664.0,225.0
1449617122420865847,-656.0,-664.0,227.0
1449617122437649508,-656.0,-666.0,234.0
1449617122450927044,-658.0,-668.0,217.0
1449617122465806314,-660.0,-668.0,234.0
1449617122478053726,-662.0,-670.0,212.0
1449617122495048582,-664.0,-670.0,232.0
1449617122513113190,-666.0,-672.0,212.0
1449617122524850550,-668.0,-674.0,266.0
1449617122539948073,-670.0,-674.0,214.0
1449617122557143185,-672.0,-676.0,232.0
1449617122572060717,-674.0,-678.0,220.0
1449617122584759918,-676.0,-678.0,224.0
1449617122600936180,-678.0,-680.0,221.0
1449617122613424497,-680.0,-680.0,227.0
1449617122629811346,-682.0,-682.0,224.0
1449617122647291435,-684.0,-684.0,229.0
1449617122659918578,-684.0,-684.0,231.0
1449617122674697074,-686.0,-686.0,219.0
1449617122691330087,-688.0,-688.0,233.0
1449617122705918531,-690.0,-688.0,218.0
1449617122720460790,-692.0,-690.0,238.0
1449617122738226108,-694.0,-690.0,221.0
1449617122752082655,-696.0,-692.0,230.0
1449617122773569946,-698.0,-694.0,214.0
1449617122777172588,-700.0,-694.0,233.0
1449617122793658100,-702.0,-696.0,222.0
1449617122812640356,-704.0,-698.0,228.0
1449617122822265938,-706.0,-698.0,217.0
1449617122840998167,-708.0,-700.0,230.0
1449617122862995891,-710.0,-700.0,222.0
1449617122885650790,-712.0,-702.0,224.0
1449617122885696857,-714.0,-704.0,218.0
1449617122908866701,-716.0,-704.0,219.0
1449617122913506789,-716.0,-706.0,222.0
1449617122930173164,-718.0,-708.0,211.0
1449617122945402264,-720.0,-708.0,226.0
1449617122957911154,-722.0,-710.0,210.0
1449617122975546976,-724.0,-710.0,227.0
1449617122990269533,-726.0,-712.0,204.0
1449617123003285615,-728.0,-714.0,225.0
1449617123020458378,-730.0,-714.0,207.0
1449617123036843294,-732.0,-716.0,226.0
1449617123048422701,-734.0,-718.0,211.0
1449617123065120939,-736.0,-718.0,221.0
1449617123080472823,-738.0,-720.0,212.0
1449617123092571211,-740.0,-720.0,220.0
1449617123109043714,-742.0,-722.0,217.0
1449617123128232245,-744.0,-724.0,215.0
1449617123142057568,-746.0,-724.0,210.0
1449617123154691612,-748.0,-726.0,215.0
1449617123166617809,-748.0,-728.0,225.0
1449617123183217924,-750.0,-728.0,204.0
1449617123199016966,-752.0,-730.0,227.0
1449617123212921447,-754.0,-730.0,210.0
1449617123229534617,-756.0,-732.0,231.0
1449617123245475665,-758.0,-734.0,207.0
1449617123256374117,-760.0,-734.0,226.0
1449617123273041141,-762.0,-736.0,219.0
1449617123289253083,-764.0,-736.0,228.0
1449617123303450757,-766.0,-738.0,224.0
1449617123317832862,-768.0,-740.0,233.0
1449617123336554942,-770.0,-740.0,228.0
1449617123347115038,-770.0,-742.0,226.0
1449617123363272388,-772.0,-742.0,250.0
1449617123380566010,-774.0,-744.0,231.0
1449617123391775470,-776.0,-746.0,253.0
1449617123412179805,-778.0,-746.0,238.0
1449617123426179107,-780.0,-748.0,262.0
1449617123437339609,-782.0,-748.0,251.0
1449617123453232685,-784.0,-750.0,264.0
1449617123469329744,-786.0,-752.0,260.0
1449617123481787928,-788.0,-752.0,269.0
1449617123498159158,-790.0,-754.0,266.0
1449617123514802521,-792.0,-756.0,274.0
1449617123526980469,-792.0,-756.0,285.0
1449617123543523377,-794.0,-758.0,271.0
1449617123555344006,-796.0,-758.0,291.0
1449617123572539675,-798.0,-760.0,272.0
1449617123588839026,-800.0,-762.0,290.0
1449617123600691586,-802.0,-762.0,279.0
1449617123617767630,-804.0,-764.0,291.0
1449617123637789900,-806.0,-764.0,291.0
1449617123650498106,-808.0,-766.0,293.0
1449617123662083148,-810.0,-768.0,296.0
1449617123679398411,-812.0,-768.0,296.0
1449617123693637609,-814.0,-770.0,337.0
1449617123706995375,-814.0,-772.0,285.0
1449617123725014722,-816.0,-772.0,307.0
1449617123735536908,-818.0,-774.0,284.0
1449617123751976702,-820.0,-774.0,309.0
1449617123768987242,-822.0,-776.0,287.0
1449617123780887410,-824.0,-778.0,305.0
1449617123797369826,-826.0,-778.0,290.0
1449617123814600347,-828.0,-780.0,298.0
1449617123825772474,-830.0,-782.0,293.0
1449617123842249249,-832.0,-782.0,299.0
1449617123859000556,-832.0,-784.0,302.0
1449617123874175320,-834.0,-784.0,288.0
1449617123889030786,-836.0,-786.0,307.0
1449617123904741947,-838.0,-788.0,290.0
1449617123916275235,-840.0,-788.0,307.0
1449617123932880839,-842.0,-790.0,288.0
1449617123945235059,-844.0,-792.0,301.0
1449617123961886300,-846.0,-792.0,293.0
1449617123978183881,-848.0,-794.0,303.0
1449617123990516380,-848.0,-794.0,305.0
1449617124006147493,-850.0,-796.0,283.0
1449617124022388287,-852.0,-798.0,303.0
1449617124034935359,-854.0,-798.0,275.0
1449617124051162937,-856.0,-800.0,302.0
1449617124068249463,-858.0,-800.0,273.0
1449617124079906887,-860.0,-802.0,292.0
1449617124096670840,-862.0,-804.0,286.0
1449617124112497576,-864.0,-804.0,288.0
1449617124125551181,-864.0,-806.0,289.0
1449617124143297926,-866.0,-806.0,272.0
1449617124158741159,-868.0,-808.0,289.0
1449617124173783263,-870.0,-810.0,271.0
1449617124186319322,-872.0,-810.0,287.0
1449617124202746290,-874.0,-812.0,271.0
1449617124216676757,-876.0,-812.0,278.0
1449617124231645887,-878.0,-814.0,270.0
1449617124253203431,-880.0,-816.0,294.0
1449617124260394218,-880.0,-816.0,282.0
1449617124276505189,-882.0,-818.0,284.0
1449617124292778404,-884.0,-818.0,277.0
1449617124305489149,-886.0,-820.0,279.0
1449617124322101389,-888.0,-822.0,273.0
1449617124334406427,-890.0,-822.0,284.0
1449617124350586017,-892.0,-824.0,266.0
1449617124370270088,-894.0,-824.0,258.0
1449617124380204678,-894.0,-826.0,253.0
1449617124395800327,-896.0,-828.0,293.0
1449617124411839887,-898.0,-828.0,248.0
1449617124426194278,-900.0,-830.0,286.0
1449617124440962797,-902.0,-830.0,242.0
1449617124456577987,-904.0,-832.0,282.0
1449617124469613974,-906.0,-832.0,249.0
1449617124489738386,-908.0,-834.0,273.0
1449617124502080673,-908.0,-836.0,258.0
1449617124514885101,-910.0,-836.0,235.0
1449617124530470317,-912.0,-838.0,252.0
1449617124549121798,-914.0,-838.0,243.0
1449617124560722790,-916.0,-840.0,250.0
1449617124575642044,-918.0,-840.0,242.0
1449617124591718366,-918.0,-842.0,237.0
1449617124608422406,-920.0,-844.0,255.0
1449617124621403288,-922.0,-844.0,241.0
1449617124637921626,-924.0,-846.0,249.0
1449617124649762654,-924.0,-846.0,256.0
1449617124665424569,-926.0,-848.0,242.0
1449617124685620729,-928.0,-848.0,257.0
1449617124694291746,-930.0,-850.0,245.0
1449617124710682416,-930.0,-850.0,243.0
1449617124723127497,-932.0,-852.0,256.0
1449617124740123319,-934.0,-852.0,247.0
1449617124756776628,-936.0,-854.0,257.0
1449617124768214344,-936.0,-854.0,263.0
1449617124784785560,-938.0,-856.0,250.0
1449617124801004807,-940.0,-856.0,251.0
1449617124813529927,-940.0,-858.0,260.0
1449617124829946807,-942.0,-858.0,250.0
1449617124847581012,-942.0,-858.0,241.0
1449617124862194321,-944.0,-860.0,260.0
1449617124881108894,-946.0,-860.0,245.0
1449617124890949692,-946.0,-862.0,243.0
1449617124908972365,-948.0,-862.0,264.0
1449617124925516580,-950.0,-864.0,289.0
1449617124935933654,-950.0,-864.0,247.0
1449617124952507042,-952.0,-864.0,280.0
1449617124971499873,-952.0,-866.0,266.0
1449617124981422615,-954.0,-866.0,278.0
1449617124998818876,-954.0,-868.0,252.0
1449617125015049408,-956.0,-868.0,288.0
1449617125027852665,-956.0,-868.0,272.0
1449617125044245231,-958.0,-870.0,285.0
1449617125059684841,-958.0,-870.0,251.0
1449617125071234573,-960.0,-870.0,288.0
1449617125090311268,-960.0,-872.0,275.0
1449617125107647315,-962.0,-872.0,286.0
1449617125117752689,-962.0,-872.0,253.0
1449617125137105798,-964.0,-874.0,295.0
1449617125150220825,-964.0,-874.0,274.0
1449617125161367611,-964.0,-874.0,274.0
1449617125180625445,-966.0,-876.0,263.0
1449617125190361894,-966.0,-876.0,283.0
1449617125206614265,-968.0,-876.0,270.0
1449617125225612170,-968.0,-878.0,293.0
1449617125235825818,-968.0,-878.0,271.0
1449617125269302940,-970.0,-878.0,284.0
1449617125269313902,-970.0,-880.0,256.0
1449617125282375883,-972.0,-880.0,297.0
1449617125296918887,-972.0,-880.0,268.0
1449617125319409216,-972.0,-880.0,267.0
1449617125325426314,-974.0,-880.0,261.0
1449617125342645768,-974.0,-882.0,282.0
1449617125361823931,-974.0,-882.0,255.0
1449617125374684913,-976.0,-882.0,309.0
1449617125394970529,-976.0,-884.0,266.0
1449617125403473186,-976.0,-884.0,302.0
1449617125415977373,-976.0,-884.0,268.0
1449617125434991731,-978.0,-884.0,258.0
1449617125448305451,-978.0,-884.0,252.0
1449617125461183899,-978.0,-884.0,294.0
1449617125478620452,-980.0,-886.0,264.0
1449617125491412922,-980.0,-886.0,312.0
1449617125510413226,-980.0,-886.0,268.0
1449617125521854422,-980.0,-886.0,313.0
1449617125534294195,-982.0,-888.0,253.0
1449617125554381265,-982.0,-888.0,300.0
1449617125566994095,-982.0,-888.0,249.0
1449617125579004700,-982.0,-888.0,249.0
1449617125598901808,-984.0,-888.0,260.0
1449617125615392255,-984.0,-888.0,313.0
1449617125626270853,-984.0,-888.0,257.0
1449617125643874133,-984.0,-890.0,303.0
1449617125657058167,-984.0,-890.0,257.0
1449617125670140692,-986.0,-890.0,296.0
1449617125688514194,-986.0,-890.0,250.0
1449617125706935370,-986.0,-890.0,288.0
1449617125717685846,-986.0,-892.0,244.0
1449617125731250724,-988.0,-892.0,257.0
1449617125747457144,-988.0,-892.0,254.0
1449617125759315323,-988.0,-892.0,249.0
1449617125776078514,-988.0,-892.0,254.0
1449617125792518988,-988.0,-892.0,256.0
1449617125806743460,-990.0,-892.0,245.0
1449617125824069183,-990.0,-894.0,242.0
1449617125838980882,-990.0,-894.0,225.0
1449617125851705212,-990.0,-894.0,231.0
1449617125866313144,-992.0,-894.0,246.0
1449617125878523114,-992.0,-894.0,246.0
1449617125899103496,-992.0,-896.0,249.0
1449617125913104336,-992.0,-896.0,252.0
1449617125924355120,-994.0,-896.0,237.0
1449617125943196547,-994.0,-896.0,236.0
1449617125956369332,-994.0,-896.0,231.0
1449617125969079783,-994.0,-896.0,229.0
1449617125985634976,-996.0,-898.0,237.0
1449617126001797618,-996.0,-898.0,245.0
1449617126016583400,-996.0,-898.0,250.0
1449617126033632629,-998.0,-898.0,237.0
1449617126047673065,-998.0,-900.0,234.0
1449617126058503476,-998.0,-900.0,226.0
1449617126075349490,-1000.0,-900.0,233.0
1449617126092267641,-1000.0,-900.0,239.0
1449617126105766103,-1000.0,-900.0,246.0
1449617126122200973,-1000.0,-902.0,254.0
1449617126137327399,-1002.0,-902.0,231.0
1449617126149958843,-1002.0,-902.0,225.0
1449617126164824236,-1004.0,-904.0,235.0
1449617126182598623,-1004.0,-904.0,234.0
1449617126196956097,-1004.0,-904.0,241.0
1449617126210390247,-1006.0,-904.0,225.0
1449617126226649425,-1006.0,-906.0,221.0
1449617126238949710,-1006.0,-906.0,226.0
1449617126255280269,-1008.0,-906.0,232.0
1449617126267474755,-1008.0,-908.0,276.0
1449617126285490050,-1010.0,-908.0,227.0
1449617126300009035,-1010.0,-908.0,220.0
1449617126312318739,-1010.0,-908.0,223.0
1449617126328949725,-1012.0,-910.0,224.0
1449617126350423942,-1012.0,-910.0,235.0
1449617126357751073,-1014.0,-912.0,224.0
1449617126376276085,-1014.0,-912.0,214.0
1449617126393625025,-1016.0,-912.0,222.0
1449617126402720104,-1016.0,-912.0,230.0
1449617126419030067,-1016.0,-914.0,227.0
1449617126435198606,-1018.0,-914.0,223.0
1449617126449475640,-1018.0,-914.0,213.0
1449617126465964117,-1020.0,-916.0,221.0
1449617126481729772,-1020.0,-916.0,227.0
1449617126492632528,-1020.0,-916.0,228.0
1449617126508955482,-1022.0,-916.0,219.0
1449617126525710290,-1022.0,-918.0,212.0
1449617126538026035,-1022.0,-918.0,214.0
1449617126555683781,-1024.0,-918.0,230.0
1449617126571206992,-1024.0,-918.0,232.0
1449617126583233486,-1024.0,-920.0,231.0
1449617126599389975,-1026.0,-920.0,217.0
1449617126611534513,-1026.0,-920.0,211.0
1449617126628187120,-1028.0,-920.0,224.0
1449617126645013602,-1028.0,-922.0,227.0
1449617126657782766,-1028.0,-922.0,232.0
1449617126673083016,-1028.0,-922.0,228.0
1449617126690380794,-1030.0,-922.0,218.0
1449617126703152026,-1030.0,-924.0,219.0
1449617126719040762,-1030.0,-924.0,219.0
1449617126734696900,-1032.0,-924.0,225.0
1449617126747434427,-1032.0,-924.0,230.0
1449617126765613271,-1032.0,-924.0,231.0
1449617126779362165,-1032.0,-924.0,232.0
1449617126791631094,-1032.0,-924.0,234.0
1449617126810647406,-1034.0,-924.0,224.0
1449617126826581850,-1034.0,-926.0,222.0
1449617126840112352,-1034.0,-926.0,229.0
1449617126854511487,-1034.0,-926.0,220.0
1449617126870116344,-1034.0,-926.0,211.0
1449617126881695026,-1036.0,-926.0,234.0
1449617126900259089,-1036.0,-926.0,232.0
1449617126923797258,-1036.0,-928.0,230.0
1449617126927194707,-1036.0,-928.0,231.0
1449617126945348231,-1036.0,-928.0,228.0
1449617126962592162,-1036.0,-928.0,236.0
1449617126972117025,-1036.0,-928.0,236.0
1449617126988658421,-1036.0,-928.0,236.0
1449617127000559024,-1036.0,-928.0,232.0
1449617127017764479,-1036.0,-928.0,232.0
1449617127033643604,-1038.0,-928.0,226.0
1449617127045866394,-1038.0,-928.0,223.0
1449617127062470911,-1038.0,-928.0,222.0
1449617127078705914,-1038.0,-928.0,228.0
1449617127093624844,-1038.0,-928.0,223.0
1449617127109615536,-1038.0,-928.0,224.0
1449617127123531221,-1038.0,-928.0,222.0
1449617127135887329,-1038.0,-928.0,223.0
1449617127154115978,-1038.0,-928.0,223.0
1449617127169029257,-1038.0,-928.0,226.0
1449617127181150466,-1038.0,-928.0,224.0
1449617127205423775,-1038.0,-928.0,219.0
1449617127213537889,-1038.0,-928.0,220.0
1449617127226318952,-1038.0,-928.0,223.0
1449617127243000590,-1038.0,-928.0,223.0
1449617127259256241,-1038.0,-928.0,222.0
1449617127271038862,-1038.0,-928.0,222.0
1449617127287442913,-1038.0,-928.0,220.0
1449617127304961256,-1038.0,-928.0,225.0
1449617127316742237,-1038.0,-928.0,223.0
1449617127332811434,-1036.0,-928.0,230.0
1449617127349695761,-1036.0,-928.0,235.0
1449617127362518461,-1036.0,-928.0,237.0
1449617127379204649,-1036.0,-928.0,243.0
1449617127394032712,-1036.0,-928.0,238.0
1449617127411026711,-1036.0,-928.0,235.0
1449617127429182550,-1036.0,-928.0,237.0
1449617127439695914,-1036.0,-928.0,237.0
1449617127458473291,-1036.0,-928.0,238.0
1449617127467984759,-1036.0,-928.0,238.0
1449617127484215377,-1036.0,-928.0,236.0
1449617127501170663,-1036.0,-928.0,238.0
1449617127513320978,-1036.0,-928.0,241.0
1449617127536482653,-1036.0,-928.0,239.0
1449617127546038760,-1036.0,-928.0,239.0
1449617127558061539,-1036.0,-928.0,240.0
1449617127574353696,-1036.0,-928.0,242.0
1449617127590573170,-1036.0,-928.0,242.0
1449617127603555242,-1036.0,-928.0,249.0
1449617127620186495,-1036.0,-928.0,253.0
1449617127637380060,-1036.0,-928.0,241.0
1449617127648266163,-1036.0,-928.0,242.0
1449617127664219719,-1036.0,-928.0,240.0
1449617127680762305,-1036.0,-928.0,241.0
1449617127693579368,-1036.0,-928.0,238.0
1449617127712236746,-1036.0,-928.0,243.0
1449617127727347801,-1036.0,-928.0,242.0
1449617127737948296,-1036.0,-928.0,243.0
1449617127755276644,-1036.0,-928.0,241.0
1449617127772995705,-1036.0,-928.0,240.0
1449617127783084633,-1036.0,-928.0,231.0
1449617127799456704,-1036.0,-928.0,242.0
1449617127815542087,-1036.0,-928.0,240.0
1449617127828108379,-1036.0,-928.0,233.0
1449617127847769918,-1036.0,-928.0,240.0
1449617127863125425,-1036.0,-928.0,240.0
1449617127873641613,-1036.0,-928.0,240.0
1449617127889724070,-1036.0,-928.0,247.0
1449617127905861212,-1036.0,-928.0,239.0
1449617127919637782,-1036.0,-928.0,239.0
1449617127934932288,-1036.0,-928.0,238.0
1449617127946755082,-1036.0,-928.0,242.0
1449617127963691421,-1036.0,-928.0,241.0
1449617127979673022,-1036.0,-928.0,241.0
1449617127992113188,-1036.0,-928.0,239.0
1449617128008216740,-1036.0,-928.0,242.0
1449617128025096079,-1036.0,-928.0,241.0
1449617128039127559,-1036.0,-928.0,243.0
1449617128053494323,-1036.0,-928.0,244.0
1449617128071964897,-1036.0,-928.0,243.0
1449617128082245653,-1036.0,-928.0,242.0
1449617128105393114,-1036.0,-928.0,241.0
1449617128115391473,-1036.0,-928.0,235.0
1449617128127155772,-1036.0,-928.0,238.0
1449617128143787676,-1036.0,-928.0,237.0
1449617128160767875,-1036.0,-928.0,237.0
1449617128176052816,-1036.0,-928.0,238.0
1449617128188827903,-1036.0,-928.0,230.0
1449617128202520544,-1036.0,-928.0,236.0
1449617128218574705,-1036.0,-928.0,243.0
1449617128235035115,-1036.0,-928.0,235.0
1449617128246761990,-1036.0,-928.0,242.0
1449617128263044520,-1036.0,-928.0,246.0
1449617128279325442,-1036.0,-928.0,240.0
1449617128291168034,-1036.0,-928.0,241.0
1449617128308423293,-1036.0,-928.0,245.0
1449617128323631438,-1036.0,-928.0,244.0
1449617128337157379,-1036.0,-928.0,245.0
1449617128353237871,-1036.0,-928.0,242.0
1449617128372285866,-1036.0,-928.0,244.0
1449617128381038419,-1036.0,-928.0,241.0
1449617128397615110,-1036.0,-928.0,246.0
1449617128415953945,-1036.0,-928.0,241.0
1449617128428713925,-1036.0,-928.0,245.0
1449617128445288396,-1036.0,-928.0,243.0
1449617128462568195,-1036.0,-928.0,241.0
1449617128473610340,-1036.0,-928.0,242.0
1449617128489752235,-1036.0,-928.0,241.0
1449617128503976937,-1036.0,-928.0,242.0
1449617128516183601,-1036.0,-928.0,241.0
1449617128533382517,-1036.0,-928.0,241.0
1449617128546897253,-1036.0,-928.0,242.0
1449617128561671113,-1036.0,-928.0,241.0
1449617128579503084,-1036.0,-928.0,242.0
1449617128589921898,-1036.0,-928.0,246.0
1449617128606291886,-1036.0,-928.0,242.0
1449617128622979899,-1036.0,-928.0,235.0
1449617128636400319,-1036.0,-928.0,239.0
1449617128658740766,-1036.0,-928.0,238.0
1449617128670034430,-1036.0,-928.0,241.0
1449617128680278298,-1036.0,-928.0,239.0
1449617128698028580,-1036.0,-928.0,238.0
1449617128713222538,-1036.0,-928.0,238.0
1449617128725555205,-1036.0,-928.0,239.0
1449617128742813525,-1036.0,-928.0,238.0
1449617128758534143,-1036.0,-928.0,236.0
1449617128770920888,-1036.0,-928.0,239.0
1449617128786681147,-1036.0,-928.0,242.0
1449617128805548970,-1036.0,-928.0,242.0
1449617128815566362,-1036.0,-928.0,237.0
1449617128832670987,-1036.0,-928.0,239.0
1449617128850109372,-1036.0,-928.0,238.0
1449617128861389300,-1036.0,-928.0,238.0
1449617128876623016,-1036.0,-928.0,241.0
1449617128894569390,-1036.0,-928.0,239.0
1449617128905843066,-1036.0,-928.0,240.0
1449617128921780178,-1036.0,-928.0,239.0
1449617128934162548,-1036.0,-928.0,238.0
1449617128951091919,-1036.0,-928.0,240.0
1449617128969620207,-1036.0,-928.0,242.0
1449617128979462596,-1036.0,-928.0,241.0
