%time,field.header.seq,field.header.stamp,field.header.frame_id,field.ns,field.id,field.type,field.action,field.pose.position.x,field.pose.position.y,field.pose.position.z,field.pose.orientation.x,field.pose.orientation.y,field.pose.orientation.z,field.pose.orientation.w,field.scale.x,field.scale.y,field.scale.z,field.color.r,field.color.g,field.color.b,field.color.a,field.lifetime,field.frame_locked,field.text,field.mesh_resource,field.mesh_use_embedded_materials
1449617110407116336,0,1449617110406975652,/odom,doorways,20,0,0,0.0,0.0,0.0,0.0,0.0,0.0,1.0,0.25,0.15,0.0,1.0,0.0,0.0,1.0,2000000000,0,,,0
1449617110630530721,1,1449617110629159788,/odom,doorways,20,0,0,0.0,0.0,0.0,0.0,0.0,0.0,1.0,0.25,0.15,0.0,1.0,0.0,0.0,1.0,2000000000,0,,,0
1449617110872577933,2,1449617110862025444,/odom,doorways,20,0,0,0.0,0.0,0.0,0.0,0.0,0.0,1.0,0.25,0.15,0.0,1.0,0.0,0.0,1.0,2000000000,0,,,0
1449617111174060774,3,1449617111168338098,/odom,doorways,20,0,0,0.0,0.0,0.0,0.0,0.0,0.0,1.0,0.25,0.15,0.0,1.0,0.0,0.0,1.0,2000000000,0,,,0
1449617111283767850,4,1449617111281995205,/odom,doorways,20,0,0,0.0,0.0,0.0,0.0,0.0,0.0,1.0,0.25,0.15,0.0,1.0,0.0,0.0,1.0,2000000000,0,,,0
1449617111858715381,5,1449617111858604287,/odom,doorways,20,0,0,0.0,0.0,0.0,0.0,0.0,0.0,1.0,0.25,0.15,0.0,1.0,0.0,0.0,1.0,2000000000,0,,,0
1449617112551756742,6,1449617112551489485,/odom,doorways,20,0,0,0.0,0.0,0.0,0.0,0.0,0.0,1.0,0.25,0.15,0.0,1.0,0.0,0.0,1.0,2000000000,0,,,0
1449617113729823009,7,1449617113728753704,/odom,doorways,20,0,0,0.0,0.0,0.0,0.0,0.0,0.0,1.0,0.25,0.15,0.0,1.0,0.0,0.0,1.0,2000000000,0,,,0
1449617114223299261,8,1449617114221561092,/odom,doorways,20,0,0,0.0115162786013,-0.000243445438698,0.0,0.0,0.0,-0.0105678519699,0.999944158693,0.25,0.15,0.0,1.0,0.0,0.0,1.0,2000000000,0,,,0
1449617114816404992,9,1449617114791954186,/odom,doorways,20,0,0,0.0690832006453,-0.00200827023268,0.0,0.0,0.0,-0.0105678519699,0.999944158693,0.25,0.15,0.0,1.0,0.0,0.0,1.0,2000000000,0,,,0
1449617115277863085,10,1449617115272923209,/odom,doorways,20,0,0,0.141052949354,-0.000973842919513,0.0,0.0,0.0,0.0264170481704,0.999651008886,0.25,0.15,0.0,1.0,0.0,0.0,1.0,2000000000,0,,,0
1449617117358279366,11,1449617117358054714,/odom,doorways,20,0,0,0.330654924658,0.0121318896731,0.0,0.0,0.0,0.0264170481704,0.999651008886,0.25,0.15,0.0,1.0,0.0,0.0,1.0,2000000000,0,,,0
1449617117358283139,12,1449617117358076343,/odom,doorways,20,0,0,0.330654924658,0.0121318896731,0.0,0.0,0.0,0.0264170481704,0.999651008886,0.25,0.15,0.0,1.0,0.0,0.0,1.0,2000000000,0,,,0
1449617117615680276,13,1449617117615349743,/odom,doorways,20,0,0,0.399722850643,0.0146572970891,0.0,0.0,0.0,0.0158514091245,0.999874358521,0.25,0.15,0.0,1.0,0.0,0.0,1.0,2000000000,0,,,0
1449617118574688649,14,1449617118569022002,/odom,doorways,20,0,0,0.638501993118,0.00723669648395,0.0,0.0,0.0,-0.042259606217,0.999106663816,0.25,0.15,0.0,1.0,0.0,0.0,1.0,2000000000,0,,,0
1449617118574694571,15,1449617118569036271,/odom,doorways,20,0,0,0.638501993118,0.00723669648395,0.0,0.0,0.0,-0.042259606217,0.999106663816,0.25,0.15,0.0,1.0,0.0,0.0,1.0,2000000000,0,,,0
1449617118658593731,16,1449617118657314460,/odom,doorways,20,0,0,0.724343841846,-0.00248109813263,0.0,0.0,0.0,-0.0633658106137,0.997990367712,0.25,0.15,0.0,1.0,0.0,0.0,1.0,2000000000,0,,,0
1449617118750889548,17,1449617118750249826,/odom,doorways,20,0,0,0.747143474599,-0.00578688782105,0.0,0.0,0.0,-0.0739088866573,0.997264998119,0.25,0.15,0.0,1.0,0.0,0.0,1.0,2000000000,0,,,0
1449617118930753923,18,1449617118930291734,/odom,doorways,20,0,0,0.798342171801,-0.0138791563866,0.0,0.0,0.0,-0.0844437083633,0.996428251365,0.25,0.15,0.0,1.0,0.0,0.0,1.0,2000000000,0,,,0
1449617118930774020,19,1449617118930299987,/odom,doorways,20,0,0,0.798342171801,-0.0138791563866,0.0,0.0,0.0,-0.0844437083633,0.996428251365,0.25,0.15,0.0,1.0,0.0,0.0,1.0,2000000000,0,,,0
1449617119353714544,20,1449617119353522304,/odom,doorways,20,0,0,0.925326866904,-0.0396629785048,0.0,0.0,0.0,-0.110736931374,0.993849753247,0.25,0.15,0.0,1.0,0.0,0.0,1.0,2000000000,0,,,0
1449617119353732484,21,1449617119353530565,/odom,doorways,20,0,0,0.925326866904,-0.0396629785048,0.0,0.0,0.0,-0.110736931374,0.993849753247,0.25,0.15,0.0,1.0,0.0,0.0,1.0,2000000000,0,,,0
1449617148682313139,22,1449617148682158911,/odom,doorways,20,0,0,3.87737986635,0.382274728393,0.0,0.0,0.0,-0.0844437083633,0.996428251365,0.25,0.15,0.0,1.0,0.0,0.0,1.0,2000000000,0,,,0
1449617148682660234,23,1449617148682357945,/odom,doorways,20,0,0,3.87737986635,0.382274728393,0.0,0.0,0.0,-0.0844437083633,0.996428251365,0.25,0.15,0.0,1.0,0.0,0.0,1.0,2000000000,0,,,0
1449617148874113481,24,1449617148872257929,/odom,doorways,20,0,0,3.9199026342,0.374675679508,0.0,0.0,0.0,-0.0897076561262,0.99596814027,0.25,0.15,0.0,1.0,0.0,0.0,1.0,2000000000,0,,,0
1449617148992403274,25,1449617148992102716,/odom,doorways,20,0,0,3.9199026342,0.374675679508,0.0,0.0,0.0,-0.0897076561262,0.99596814027,0.25,0.15,0.0,1.0,0.0,0.0,1.0,2000000000,0,,,0
1449617148992406176,26,1449617148992200688,/odom,doorways,20,0,0,3.9199026342,0.374675679508,0.0,0.0,0.0,-0.0897076561262,0.99596814027,0.25,0.15,0.0,1.0,0.0,0.0,1.0,2000000000,0,,,0
1449617149202795772,27,1449617149202676778,/odom,doorways,20,0,0,4.00197175196,0.35921393631,0.0,0.0,0.0,-0.0949690991753,0.995480220899,0.25,0.15,0.0,1.0,0.0,0.0,1.0,2000000000,0,,,0
1449617149782648154,28,1449617149782189998,/odom,doorways,20,0,0,4.16123035436,0.333970208907,0.0,0.0,0.0,-0.0633658106137,0.997990367712,0.25,0.15,0.0,1.0,0.0,0.0,1.0,2000000000,0,,,0
1449617149782651015,29,1449617149782195926,/odom,doorways,20,0,0,4.16123035436,0.333970208907,0.0,0.0,0.0,-0.0633658106137,0.997990367712,0.25,0.15,0.0,1.0,0.0,0.0,1.0,2000000000,0,,,0
1449617149957142074,30,1449617149956894758,/odom,doorways,20,0,0,4.2013056808,0.329566171624,0.0,0.0,0.0,-0.0528156577107,0.998604279132,0.25,0.15,0.0,1.0,0.0,0.0,1.0,2000000000,0,,,0
1449617150174800233,31,1449617150174400778,/odom,doorways,20,0,0,4.23573784611,0.326648166118,0.0,0.0,0.0,-0.0316988350601,0.999497465658,0.25,0.15,0.0,1.0,0.0,0.0,1.0,2000000000,0,,,0
1449617150174803029,32,1449617150174418701,/odom,doorways,20,0,0,4.23573784611,0.326648166118,0.0,0.0,0.0,-0.0316988350601,0.999497465658,0.25,0.15,0.0,1.0,0.0,0.0,1.0,2000000000,0,,,0
1449617150441155537,33,1449617150440832235,/odom,doorways,20,0,0,4.25874789637,0.325553062642,0.0,0.0,0.0,-0.0105678519699,0.999944158693,0.25,0.15,0.0,1.0,0.0,0.0,1.0,2000000000,0,,,0
1449617150624944952,34,1449617150618359283,/odom,doorways,20,0,0,4.26738695455,0.325553062642,0.0,0.0,0.0,0.0052839997518,0.999986039576,0.25,0.15,0.0,1.0,0.0,0.0,1.0,2000000000,0,,,0
1449617150624963110,35,1449617150618367244,/odom,doorways,20,0,0,4.26738695455,0.325553062642,0.0,0.0,0.0,0.0052839997518,0.999986039576,0.25,0.15,0.0,1.0,0.0,0.0,1.0,2000000000,0,,,0
1449617150827040179,36,1449617150825466603,/odom,doorways,20,0,0,4.27314445066,0.325705211793,0.0,0.0,0.0,0.0158514091245,0.999874358521,0.25,0.15,0.0,1.0,0.0,0.0,1.0,2000000000,0,,,0
1449617150997782114,37,1449617150994937335,/odom,doorways,20,0,0,4.27314445066,0.325705211793,0.0,0.0,0.0,0.0158514091245,0.999874358521,0.25,0.15,0.0,1.0,0.0,0.0,1.0,2000000000,0,,,0
1449617150997786847,38,1449617150995432139,/odom,doorways,20,0,0,4.27314445066,0.325705211793,0.0,0.0,0.0,0.0158514091245,0.999874358521,0.25,0.15,0.0,1.0,0.0,0.0,1.0,2000000000,0,,,0
1449617151182229051,39,1449617151181414258,/odom,doorways,20,0,0,4.27889535626,0.326009370777,0.0,0.0,0.0,0.0369797368913,0.999316015612,0.25,0.15,0.0,1.0,0.0,0.0,1.0,2000000000,0,,,0
1449617151440128017,40,1449617151437430717,/odom,doorways,20,0,0,4.2817590832,0.326313142555,0.0,0.0,0.0,0.0633658106137,0.997990367712,0.25,0.15,0.0,1.0,0.0,0.0,1.0,2000000000,0,,,0
1449617151440131159,41,1449617151437439960,/odom,doorways,20,0,0,4.2817590832,0.326313142555,0.0,0.0,0.0,0.0633658106137,0.997990367712,0.25,0.15,0.0,1.0,0.0,0.0,1.0,2000000000,0,,,0
1449617151585246764,42,1449617151578737571,/odom,doorways,20,0,0,4.28745046495,0.327192162171,0.0,0.0,0.0,0.0844437083633,0.996428251365,0.25,0.15,0.0,1.0,0.0,0.0,1.0,2000000000,0,,,0
1449617151832184515,43,1449617151832036763,/odom,doorways,20,0,0,4.29025963032,0.327826038489,0.0,0.0,0.0,0.110736931374,0.993849753247,0.25,0.15,0.0,1.0,0.0,0.0,1.0,2000000000,0,,,0
1449617151832332308,44,1449617151832179557,/odom,doorways,20,0,0,4.29025963032,0.327826038489,0.0,0.0,0.0,0.110736931374,0.993849753247,0.25,0.15,0.0,1.0,0.0,0.0,1.0,2000000000,0,,,0
1449617152112615878,45,1449617152112388515,/odom,doorways,20,0,0,4.29024466973,0.327885035064,0.0,0.0,0.0,0.152637705278,0.988282212188,0.25,0.15,0.0,1.0,0.0,0.0,1.0,2000000000,0,,,0
1449617152291511764,46,1449617152291388564,/odom,doorways,20,0,0,4.29024466973,0.327885035064,0.0,0.0,0.0,0.152637705278,0.988282212188,0.25,0.15,0.0,1.0,0.0,0.0,1.0,2000000000,0,,,0
1449617152294589339,47,1449617152291396085,/odom,doorways,20,0,0,4.29024466973,0.327885035064,0.0,0.0,0.0,0.152637705278,0.988282212188,0.25,0.15,0.0,1.0,0.0,0.0,1.0,2000000000,0,,,0
1449617152508787482,48,1449617152502137186,/odom,doorways,20,0,0,4.29024466973,0.327885035064,0.0,0.0,0.0,0.204621440688,0.978841185285,0.25,0.15,0.0,1.0,0.0,0.0,1.0,2000000000,0,,,0
1449617152508807762,49,1449617152502232408,/odom,doorways,20,0,0,4.29024466973,0.327885035064,0.0,0.0,0.0,0.204621440688,0.978841185285,0.25,0.15,0.0,1.0,0.0,0.0,1.0,2000000000,0,,,0
1449617152508824037,50,1449617152502342486,/odom,doorways,20,0,0,4.29024466973,0.327885035064,0.0,0.0,0.0,0.204621440688,0.978841185285,0.25,0.15,0.0,1.0,0.0,0.0,1.0,2000000000,0,,,0
1449617152508840188,51,1449617152502468945,/odom,doorways,20,0,0,4.29024466973,0.327885035064,0.0,0.0,0.0,0.204621440688,0.978841185285,0.25,0.15,0.0,1.0,0.0,0.0,1.0,2000000000,0,,,0
1449617152660759291,52,1449617152659734639,/odom,doorways,20,0,0,4.29023087919,0.327912164909,0.0,0.0,0.0,0.235546736669,0.971863022676,0.25,0.15,0.0,1.0,0.0,0.0,1.0,2000000000,0,,,0
1449617152661202843,53,1449617152659744685,/odom,doorways,20,0,0,4.29023087919,0.327912164909,0.0,0.0,0.0,0.235546736669,0.971863022676,0.25,0.15,0.0,1.0,0.0,0.0,1.0,2000000000,0,,,0
1449617152661805518,54,1449617152659782329,/odom,doorways,20,0,0,4.29023087919,0.327912164909,0.0,0.0,0.0,0.235546736669,0.971863022676,0.25,0.15,0.0,1.0,0.0,0.0,1.0,2000000000,0,,,0
1449617152661856586,55,1449617152661746840,/odom,doorways,20,0,0,4.29023087919,0.327912164909,0.0,0.0,0.0,0.235546736669,0.971863022676,0.25,0.15,0.0,1.0,0.0,0.0,1.0,2000000000,0,,,0
1449617152739217181,56,1449617152738949428,/odom,doorways,20,0,0,4.29023087919,0.327912164909,0.0,0.0,0.0,0.24580408799,0.96931952953,0.25,0.15,0.0,1.0,0.0,0.0,1.0,2000000000,0,,,0
1449617152739221199,58,1449617152738962330,/odom,doorways,20,0,0,4.29023087919,0.327912164909,0.0,0.0,0.0,0.24580408799,0.96931952953,0.25,0.15,0.0,1.0,0.0,0.0,1.0,2000000000,0,,,0
1449617152856355947,59,1449617152856127613,/odom,doorways,20,0,0,4.29021595449,0.327938687737,0.0,0.0,0.0,0.256033987268,0.966667780245,0.25,0.15,0.0,1.0,0.0,0.0,1.0,2000000000,0,,,0
1449617152856372234,60,1449617152856224311,/odom,doorways,20,0,0,4.29021595449,0.327938687737,0.0,0.0,0.0,0.256033987268,0.966667780245,0.25,0.15,0.0,1.0,0.0,0.0,1.0,2000000000,0,,,0
1449617152856375262,61,1449617152856290481,/odom,doorways,20,0,0,4.29021595449,0.327938687737,0.0,0.0,0.0,0.256033987268,0.966667780245,0.25,0.15,0.0,1.0,0.0,0.0,1.0,2000000000,0,,,0
1449617152856508279,62,1449617152856359805,/odom,doorways,20,0,0,4.29021595449,0.327938687737,0.0,0.0,0.0,0.256033987268,0.966667780245,0.25,0.15,0.0,1.0,0.0,0.0,1.0,2000000000,0,,,0
1449617152951927722,63,1449617152951029853,/odom,doorways,20,0,0,4.29020047256,0.327964889213,0.0,0.0,0.0,0.266235292001,0.963908070976,0.25,0.15,0.0,1.0,0.0,0.0,1.0,2000000000,0,,,0
1449617152951931546,64,1449617152951072620,/odom,doorways,20,0,0,4.29020047256,0.327964889213,0.0,0.0,0.0,0.266235292001,0.963908070976,0.25,0.15,0.0,1.0,0.0,0.0,1.0,2000000000,0,,,0
1449617152951986022,65,1449617152951417830,/odom,doorways,20,0,0,4.29020047256,0.327964889213,0.0,0.0,0.0,0.266235292001,0.963908070976,0.25,0.15,0.0,1.0,0.0,0.0,1.0,2000000000,0,,,0
1449617153055027447,66,1449617153054250549,/odom,doorways,20,0,0,4.28774468383,0.32646079116,0.0,0.0,0.0,0.271324865251,0.962487827194,0.25,0.15,0.0,1.0,0.0,0.0,1.0,2000000000,0,,,0
1449617153055030462,67,1449617153054298410,/odom,doorways,20,0,0,4.28774468383,0.32646079116,0.0,0.0,0.0,0.271324865251,0.962487827194,0.25,0.15,0.0,1.0,0.0,0.0,1.0,2000000000,0,,,0
1449617153055032920,69,1449617153054405901,/odom,doorways,20,0,0,4.28774468383,0.32646079116,0.0,0.0,0.0,0.271324865251,0.962487827194,0.25,0.15,0.0,1.0,0.0,0.0,1.0,2000000000,0,,,0
1449617153254490084,70,1449617153252817940,/odom,doorways,20,0,0,4.28774468383,0.32646079116,0.0,0.0,0.0,0.271324865251,0.962487827194,0.25,0.15,0.0,1.0,0.0,0.0,1.0,2000000000,0,,,0
1449617153254508868,73,1449617153252845974,/odom,doorways,20,0,0,4.28774468383,0.32646079116,0.0,0.0,0.0,0.271324865251,0.962487827194,0.25,0.15,0.0,1.0,0.0,0.0,1.0,2000000000,0,,,0
1449617153331131303,74,1449617153330576248,/odom,doorways,20,0,0,4.28774468383,0.32646079116,0.0,0.0,0.0,0.271324865251,0.962487827194,0.25,0.15,0.0,1.0,0.0,0.0,1.0,2000000000,0,,,0
1449617153331166481,76,1449617153330587131,/odom,doorways,20,0,0,4.28774468383,0.32646079116,0.0,0.0,0.0,0.271324865251,0.962487827194,0.25,0.15,0.0,1.0,0.0,0.0,1.0,2000000000,0,,,0
1449617153437799239,77,1449617153436327791,/odom,doorways,20,0,0,4.28774468383,0.32646079116,0.0,0.0,0.0,0.271324865251,0.962487827194,0.25,0.15,0.0,1.0,0.0,0.0,1.0,2000000000,0,,,0
1449617153437846076,78,1449617153436359357,/odom,doorways,20,0,0,4.28774468383,0.32646079116,0.0,0.0,0.0,0.271324865251,0.962487827194,0.25,0.15,0.0,1.0,0.0,0.0,1.0,2000000000,0,,,0
1449617153437916439,79,1449617153436424113,/odom,doorways,20,0,0,4.28774468383,0.32646079116,0.0,0.0,0.0,0.271324865251,0.962487827194,0.25,0.15,0.0,1.0,0.0,0.0,1.0,2000000000,0,,,0
1449617153437942845,80,1449617153436467985,/odom,doorways,20,0,0,4.28774468383,0.32646079116,0.0,0.0,0.0,0.271324865251,0.962487827194,0.25,0.15,0.0,1.0,0.0,0.0,1.0,2000000000,0,,,0
1449617153531213009,81,1449617153530927482,/odom,doorways,20,0,0,4.28774468383,0.32646079116,0.0,0.0,0.0,0.271324865251,0.962487827194,0.25,0.15,0.0,1.0,0.0,0.0,1.0,2000000000,0,,,0
1449617153531221530,83,1449617153530940907,/odom,doorways,20,0,0,4.28774468383,0.32646079116,0.0,0.0,0.0,0.271324865251,0.962487827194,0.25,0.15,0.0,1.0,0.0,0.0,1.0,2000000000,0,,,0
1449617153646852814,84,1449617153646728772,/odom,doorways,20,0,0,4.28774468383,0.32646079116,0.0,0.0,0.0,0.271324865251,0.962487827194,0.25,0.15,0.0,1.0,0.0,0.0,1.0,2000000000,0,,,0
1449617153646939584,85,1449617153646814924,/odom,doorways,20,0,0,4.28774468383,0.32646079116,0.0,0.0,0.0,0.271324865251,0.962487827194,0.25,0.15,0.0,1.0,0.0,0.0,1.0,2000000000,0,,,0
1449617153646943639,86,1449617153646893113,/odom,doorways,20,0,0,4.28774468383,0.32646079116,0.0,0.0,0.0,0.271324865251,0.962487827194,0.25,0.15,0.0,1.0,0.0,0.0,1.0,2000000000,0,,,0
1449617153647055334,87,1449617153646974352,/odom,doorways,20,0,0,4.28774468383,0.32646079116,0.0,0.0,0.0,0.271324865251,0.962487827194,0.25,0.15,0.0,1.0,0.0,0.0,1.0,2000000000,0,,,0
1449617153727294099,88,1449617153727102393,/odom,doorways,20,0,0,4.28774468383,0.32646079116,0.0,0.0,0.0,0.271324865251,0.962487827194,0.25,0.15,0.0,1.0,0.0,0.0,1.0,2000000000,0,,,0
1449617153727867355,89,1449617153727456762,/odom,doorways,20,0,0,4.28774468383,0.32646079116,0.0,0.0,0.0,0.271324865251,0.962487827194,0.25,0.15,0.0,1.0,0.0,0.0,1.0,2000000000,0,,,0
1449617153727988785,90,1449617153727577216,/odom,doorways,20,0,0,4.28774468383,0.32646079116,0.0,0.0,0.0,0.271324865251,0.962487827194,0.25,0.15,0.0,1.0,0.0,0.0,1.0,2000000000,0,,,0
1449617153854568017,91,1449617153850575933,/odom,doorways,20,0,0,4.28774468383,0.32646079116,0.0,0.0,0.0,0.271324865251,0.962487827194,0.25,0.15,0.0,1.0,0.0,0.0,1.0,2000000000,0,,,0
1449617153854571753,92,1449617153850590112,/odom,doorways,20,0,0,4.28774468383,0.32646079116,0.0,0.0,0.0,0.271324865251,0.962487827194,0.25,0.15,0.0,1.0,0.0,0.0,1.0,2000000000,0,,,0
1449617153854575645,93,1449617153850644965,/odom,doorways,20,0,0,4.28774468383,0.32646079116,0.0,0.0,0.0,0.271324865251,0.962487827194,0.25,0.15,0.0,1.0,0.0,0.0,1.0,2000000000,0,,,0
1449617153854588146,94,1449617153850655970,/odom,doorways,20,0,0,4.28774468383,0.32646079116,0.0,0.0,0.0,0.271324865251,0.962487827194,0.25,0.15,0.0,1.0,0.0,0.0,1.0,2000000000,0,,,0
1449617153957558493,95,1449617153955898359,/odom,doorways,20,0,0,4.28774468383,0.32646079116,0.0,0.0,0.0,0.271324865251,0.962487827194,0.25,0.15,0.0,1.0,0.0,0.0,1.0,2000000000,0,,,0
1449617153957566736,96,1449617153956011436,/odom,doorways,20,0,0,4.28774468383,0.32646079116,0.0,0.0,0.0,0.271324865251,0.962487827194,0.25,0.15,0.0,1.0,0.0,0.0,1.0,2000000000,0,,,0
1449617153957570168,97,1449617153956084656,/odom,doorways,20,0,0,4.28774468383,0.32646079116,0.0,0.0,0.0,0.271324865251,0.962487827194,0.25,0.15,0.0,1.0,0.0,0.0,1.0,2000000000,0,,,0
1449617153957574312,98,1449617153956152473,/odom,doorways,20,0,0,4.28774468383,0.32646079116,0.0,0.0,0.0,0.271324865251,0.962487827194,0.25,0.15,0.0,1.0,0.0,0.0,1.0,2000000000,0,,,0
1449617154141772325,99,1449617154138993807,/odom,doorways,20,0,0,4.28774468383,0.32646079116,0.0,0.0,0.0,0.271324865251,0.962487827194,0.25,0.15,0.0,1.0,0.0,0.0,1.0,2000000000,0,,,0
1449617154141777153,100,1449617154139085494,/odom,doorways,20,0,0,4.28774468383,0.32646079116,0.0,0.0,0.0,0.271324865251,0.962487827194,0.25,0.15,0.0,1.0,0.0,0.0,1.0,2000000000,0,,,0
1449617154141780941,101,1449617154139147176,/odom,doorways,20,0,0,4.28774468383,0.32646079116,0.0,0.0,0.0,0.271324865251,0.962487827194,0.25,0.15,0.0,1.0,0.0,0.0,1.0,2000000000,0,,,0
1449617154309798931,102,1449617154309702834,/odom,doorways,20,0,0,4.28774468383,0.32646079116,0.0,0.0,0.0,0.271324865251,0.962487827194,0.25,0.15,0.0,1.0,0.0,0.0,1.0,2000000000,0,,,0
1449617154309980290,103,1449617154309820873,/odom,doorways,20,0,0,4.28774468383,0.32646079116,0.0,0.0,0.0,0.271324865251,0.962487827194,0.25,0.15,0.0,1.0,0.0,0.0,1.0,2000000000,0,,,0
1449617154310472402,104,1449617154310214471,/odom,doorways,20,0,0,4.28774468383,0.32646079116,0.0,0.0,0.0,0.271324865251,0.962487827194,0.25,0.15,0.0,1.0,0.0,0.0,1.0,2000000000,0,,,0
1449617154310476371,105,1449617154310335881,/odom,doorways,20,0,0,4.28774468383,0.32646079116,0.0,0.0,0.0,0.271324865251,0.962487827194,0.25,0.15,0.0,1.0,0.0,0.0,1.0,2000000000,0,,,0
1449617154310503729,106,1449617154310417906,/odom,doorways,20,0,0,4.28774468383,0.32646079116,0.0,0.0,0.0,0.271324865251,0.962487827194,0.25,0.15,0.0,1.0,0.0,0.0,1.0,2000000000,0,,,0
1449617154430470678,107,1449617154429697963,/odom,doorways,20,0,0,4.29018444034,0.327990757634,0.0,0.0,0.0,0.276406862881,0.961040709935,0.25,0.15,0.0,1.0,0.0,0.0,1.0,2000000000,0,,,0
1449617154430477903,108,1449617154429851361,/odom,doorways,20,0,0,4.29018444034,0.327990757634,0.0,0.0,0.0,0.276406862881,0.961040709935,0.25,0.15,0.0,1.0,0.0,0.0,1.0,2000000000,0,,,0
1449617154430490032,109,1449617154429926029,/odom,doorways,20,0,0,4.29018444034,0.327990757634,0.0,0.0,0.0,0.276406862881,0.961040709935,0.25,0.15,0.0,1.0,0.0,0.0,1.0,2000000000,0,,,0
1449617154563785192,110,1449617154563496606,/odom,doorways,20,0,0,4.29018444034,0.327990757634,0.0,0.0,0.0,0.276406862881,0.961040709935,0.25,0.15,0.0,1.0,0.0,0.0,1.0,2000000000,0,,,0
1449617154563794299,111,1449617154563617378,/odom,doorways,20,0,0,4.29018444034,0.327990757634,0.0,0.0,0.0,0.276406862881,0.961040709935,0.25,0.15,0.0,1.0,0.0,0.0,1.0,2000000000,0,,,0
1449617154563802330,112,1449617154563690334,/odom,doorways,20,0,0,4.29018444034,0.327990757634,0.0,0.0,0.0,0.276406862881,0.961040709935,0.25,0.15,0.0,1.0,0.0,0.0,1.0,2000000000,0,,,0
1449617154766901900,113,1449617154765609105,/odom,doorways,20,0,0,4.2901507539,0.32804144924,0.0,0.0,0.0,0.296656262579,0.954984325459,0.25,0.15,0.0,1.0,0.0,0.0,1.0,2000000000,0,,,0
1449617154766907716,114,1449617154765827035,/odom,doorways,20,0,0,4.2901507539,0.32804144924,0.0,0.0,0.0,0.296656262579,0.954984325459,0.25,0.15,0.0,1.0,0.0,0.0,1.0,2000000000,0,,,0
1449617154766910910,115,1449617154765993675,/odom,doorways,20,0,0,4.2901507539,0.32804144924,0.0,0.0,0.0,0.296656262579,0.954984325459,0.25,0.15,0.0,1.0,0.0,0.0,1.0,2000000000,0,,,0
1449617154766938174,117,1449617154766007086,/odom,doorways,20,0,0,4.2901507539,0.32804144924,0.0,0.0,0.0,0.296656262579,0.954984325459,0.25,0.15,0.0,1.0,0.0,0.0,1.0,2000000000,0,,,0
1449617154857866263,118,1449617154856024393,/odom,doorways,20,0,0,4.28779520879,0.326384760828,0.0,0.0,0.0,0.311756837497,0.950161920029,0.25,0.15,0.0,1.0,0.0,0.0,1.0,2000000000,0,,,0
1449617154857872130,119,1449617154856124778,/odom,doorways,20,0,0,4.28779520879,0.326384760828,0.0,0.0,0.0,0.311756837497,0.950161920029,0.25,0.15,0.0,1.0,0.0,0.0,1.0,2000000000,0,,,0
1449617154857875027,120,1449617154856190632,/odom,doorways,20,0,0,4.28779520879,0.326384760828,0.0,0.0,0.0,0.311756837497,0.950161920029,0.25,0.15,0.0,1.0,0.0,0.0,1.0,2000000000,0,,,0
1449617154940927844,121,1449617154940101480,/odom,doorways,20,0,0,4.28779520879,0.326384760828,0.0,0.0,0.0,0.321780599107,0.946814261637,0.25,0.15,0.0,1.0,0.0,0.0,1.0,2000000000,0,,,0
1449617154940930695,123,1449617154940116913,/odom,doorways,20,0,0,4.28779520879,0.326384760828,0.0,0.0,0.0,0.321780599107,0.946814261637,0.25,0.15,0.0,1.0,0.0,0.0,1.0,2000000000,0,,,0
1449617155079909384,124,1449617155079018261,/odom,doorways,20,0,0,4.28779520879,0.326384760828,0.0,0.0,0.0,0.331768423417,0.943360860553,0.25,0.15,0.0,1.0,0.0,0.0,1.0,2000000000,0,,,0
1449617155079935508,128,1449617155079112070,/odom,doorways,20,0,0,4.28779520879,0.326384760828,0.0,0.0,0.0,0.331768423417,0.943360860553,0.25,0.15,0.0,1.0,0.0,0.0,1.0,2000000000,0,,,0
1449617155241949780,129,1449617155239976641,/odom,doorways,20,0,0,4.2855685501,0.324558507744,0.0,0.0,0.0,0.356573448481,0.934267293572,0.25,0.15,0.0,1.0,0.0,0.0,1.0,2000000000,0,,,0
1449617155241977297,130,1449617155240093465,/odom,doorways,20,0,0,4.2855685501,0.324558507744,0.0,0.0,0.0,0.356573448481,0.934267293572,0.25,0.15,0.0,1.0,0.0,0.0,1.0,2000000000,0,,,0
1449617155241983792,131,1449617155240155506,/odom,doorways,20,0,0,4.2855685501,0.324558507744,0.0,0.0,0.0,0.356573448481,0.934267293572,0.25,0.15,0.0,1.0,0.0,0.0,1.0,2000000000,0,,,0
1449617155357285671,132,1449617155357007201,/odom,doorways,20,0,0,4.28558918432,0.324536137312,0.0,0.0,0.0,0.366426735412,0.930446907446,0.25,0.15,0.0,1.0,0.0,0.0,1.0,2000000000,0,,,0
1449617155357388397,133,1449617155357217795,/odom,doorways,20,0,0,4.28558918432,0.324536137312,0.0,0.0,0.0,0.366426735412,0.930446907446,0.25,0.15,0.0,1.0,0.0,0.0,1.0,2000000000,0,,,0
1449617155357646236,134,1449617155357384742,/odom,doorways,20,0,0,4.28558918432,0.324536137312,0.0,0.0,0.0,0.366426735412,0.930446907446,0.25,0.15,0.0,1.0,0.0,0.0,1.0,2000000000,0,,,0
1449617155490746226,135,1449617155490613691,/odom,doorways,20,0,0,4.28558918432,0.324536137312,0.0,0.0,0.0,0.376239098848,0.926522606577,0.25,0.15,0.0,1.0,0.0,0.0,1.0,2000000000,0,,,0
1449617155490752158,136,1449617155490680970,/odom,doorways,20,0,0,4.28558918432,0.324536137312,0.0,0.0,0.0,0.376239098848,0.926522606577,0.25,0.15,0.0,1.0,0.0,0.0,1.0,2000000000,0,,,0
1449617155491162765,137,1449617155490955396,/odom,doorways,20,0,0,4.28558918432,0.324536137312,0.0,0.0,0.0,0.376239098848,0.926522606577,0.25,0.15,0.0,1.0,0.0,0.0,1.0,2000000000,0,,,0
1449617155491172290,138,1449617155491026316,/odom,doorways,20,0,0,4.28558918432,0.324536137312,0.0,0.0,0.0,0.376239098848,0.926522606577,0.25,0.15,0.0,1.0,0.0,0.0,1.0,2000000000,0,,,0
1449617155491175467,139,1449617155491097285,/odom,doorways,20,0,0,4.28558918432,0.324536137312,0.0,0.0,0.0,0.376239098848,0.926522606577,0.25,0.15,0.0,1.0,0.0,0.0,1.0,2000000000,0,,,0
1449617155654397008,140,1449617155652983670,/odom,doorways,20,0,0,4.28558918432,0.324536137312,0.0,0.0,0.0,0.386009442918,0.922494829242,0.25,0.15,0.0,1.0,0.0,0.0,1.0,2000000000,0,,,0
1449617155654400016,142,1449617155653000824,/odom,doorways,20,0,0,4.28558918432,0.324536137312,0.0,0.0,0.0,0.386009442918,0.922494829242,0.25,0.15,0.0,1.0,0.0,0.0,1.0,2000000000,0,,,0
1449617155736495333,143,1449617155732744785,/odom,doorways,20,0,0,4.28558918432,0.324536137312,0.0,0.0,0.0,0.386009442918,0.922494829242,0.25,0.15,0.0,1.0,0.0,0.0,1.0,2000000000,0,,,0
1449617155736507762,144,1449617155733062050,/odom,doorways,20,0,0,4.28558918432,0.324536137312,0.0,0.0,0.0,0.386009442918,0.922494829242,0.25,0.15,0.0,1.0,0.0,0.0,1.0,2000000000,0,,,0
1449617155736903742,145,1449617155733183130,/odom,doorways,20,0,0,4.28558918432,0.324536137312,0.0,0.0,0.0,0.386009442918,0.922494829242,0.25,0.15,0.0,1.0,0.0,0.0,1.0,2000000000,0,,,0
1449617155869835655,146,1449617155859327391,/odom,doorways,20,0,0,4.28558918432,0.324536137312,0.0,0.0,0.0,0.386009442918,0.922494829242,0.25,0.15,0.0,1.0,0.0,0.0,1.0,2000000000,0,,,0
1449617155869839846,147,1449617155859333730,/odom,doorways,20,0,0,4.28558918432,0.324536137312,0.0,0.0,0.0,0.386009442918,0.922494829242,0.25,0.15,0.0,1.0,0.0,0.0,1.0,2000000000,0,,,0
1449617155869843599,148,1449617155859371148,/odom,doorways,20,0,0,4.28558918432,0.324536137312,0.0,0.0,0.0,0.386009442918,0.922494829242,0.25,0.15,0.0,1.0,0.0,0.0,1.0,2000000000,0,,,0
1449617155869854285,149,1449617155859377457,/odom,doorways,20,0,0,4.28558918432,0.324536137312,0.0,0.0,0.0,0.386009442918,0.922494829242,0.25,0.15,0.0,1.0,0.0,0.0,1.0,2000000000,0,,,0
1449617155869872747,150,1449617155859391528,/odom,doorways,20,0,0,4.28558918432,0.324536137312,0.0,0.0,0.0,0.386009442918,0.922494829242,0.25,0.15,0.0,1.0,0.0,0.0,1.0,2000000000,0,,,0
1449617156037436130,151,1449617156036864773,/odom,doorways,20,0,0,4.2876323414,0.326565599905,0.0,0.0,0.0,0.381129591614,0.924521624623,0.25,0.15,0.0,1.0,0.0,0.0,1.0,2000000000,0,,,0
1449617156037440351,153,1449617156036874992,/odom,doorways,20,0,0,4.2876323414,0.326565599905,0.0,0.0,0.0,0.381129591614,0.924521624623,0.25,0.15,0.0,1.0,0.0,0.0,1.0,2000000000,0,,,0
1449617156143028630,154,1449617156142407077,/odom,doorways,20,0,0,4.28965393732,0.328616540952,0.0,0.0,0.0,0.386009442918,0.922494829242,0.25,0.15,0.0,1.0,0.0,0.0,1.0,2000000000,0,,,0
1449617156143033589,156,1449617156142419242,/odom,doorways,20,0,0,4.28965393732,0.328616540952,0.0,0.0,0.0,0.386009442918,0.922494829242,0.25,0.15,0.0,1.0,0.0,0.0,1.0,2000000000,0,,,0
1449617156261680259,157,1449617156257931633,/odom,doorways,20,0,0,4.2916970944,0.330646003544,0.0,0.0,0.0,0.381129591614,0.924521624623,0.25,0.15,0.0,1.0,0.0,0.0,1.0,2000000000,0,,,0
1449617156261685188,158,1449617156257982822,/odom,doorways,20,0,0,4.2916970944,0.330646003544,0.0,0.0,0.0,0.381129591614,0.924521624623,0.25,0.15,0.0,1.0,0.0,0.0,1.0,2000000000,0,,,0
1449617156261689330,159,1449617156258091046,/odom,doorways,20,0,0,4.2916970944,0.330646003544,0.0,0.0,0.0,0.381129591614,0.924521624623,0.25,0.15,0.0,1.0,0.0,0.0,1.0,2000000000,0,,,0
1449617156261693310,160,1449617156258104683,/odom,doorways,20,0,0,4.2916970944,0.330646003544,0.0,0.0,0.0,0.381129591614,0.924521624623,0.25,0.15,0.0,1.0,0.0,0.0,1.0,2000000000,0,,,0
1449617156261696927,161,1449617156258108305,/odom,doorways,20,0,0,4.2916970944,0.330646003544,0.0,0.0,0.0,0.381129591614,0.924521624623,0.25,0.15,0.0,1.0,0.0,0.0,1.0,2000000000,0,,,0
1449617156461051280,162,1449617156459732234,/odom,doorways,20,0,0,4.30197687868,0.34072820118,0.0,0.0,0.0,0.376239098848,0.926522606577,0.25,0.15,0.0,1.0,0.0,0.0,1.0,2000000000,0,,,0
1449617156461057359,163,1449617156459856832,/odom,doorways,20,0,0,4.30197687868,0.34072820118,0.0,0.0,0.0,0.376239098848,0.926522606577,0.25,0.15,0.0,1.0,0.0,0.0,1.0,2000000000,0,,,0
1449617156461346187,164,1449617156459940265,/odom,doorways,20,0,0,4.30197687868,0.34072820118,0.0,0.0,0.0,0.376239098848,0.926522606577,0.25,0.15,0.0,1.0,0.0,0.0,1.0,2000000000,0,,,0
1449617156649868388,165,1449617156648625013,/odom,doorways,20,0,0,4.31627897821,0.35493443933,0.0,0.0,0.0,0.381129591614,0.924521624623,0.25,0.15,0.0,1.0,0.0,0.0,1.0,2000000000,0,,,0
1449617156649871949,166,1449617156648719655,/odom,doorways,20,0,0,4.31627897821,0.35493443933,0.0,0.0,0.0,0.381129591614,0.924521624623,0.25,0.15,0.0,1.0,0.0,0.0,1.0,2000000000,0,,,0
1449617156649874929,167,1449617156648982220,/odom,doorways,20,0,0,4.31627897821,0.35493443933,0.0,0.0,0.0,0.381129591614,0.924521624623,0.25,0.15,0.0,1.0,0.0,0.0,1.0,2000000000,0,,,0
1449617156649886004,168,1449617156649081332,/odom,doorways,20,0,0,4.31627897821,0.35493443933,0.0,0.0,0.0,0.381129591614,0.924521624623,0.25,0.15,0.0,1.0,0.0,0.0,1.0,2000000000,0,,,0
1449617156649920369,169,1449617156649166016,/odom,doorways,20,0,0,4.31627897821,0.35493443933,0.0,0.0,0.0,0.381129591614,0.924521624623,0.25,0.15,0.0,1.0,0.0,0.0,1.0,2000000000,0,,,0
1449617156755726018,170,1449617156755387480,/odom,doorways,20,0,0,4.32238688829,0.361044305562,0.0,0.0,0.0,0.386009442918,0.922494829242,0.25,0.15,0.0,1.0,0.0,0.0,1.0,2000000000,0,,,0
1449617156755729025,171,1449617156755511112,/odom,doorways,20,0,0,4.32238688829,0.361044305562,0.0,0.0,0.0,0.386009442918,0.922494829242,0.25,0.15,0.0,1.0,0.0,0.0,1.0,2000000000,0,,,0
1449617156755940799,172,1449617156755688611,/odom,doorways,20,0,0,4.32238688829,0.361044305562,0.0,0.0,0.0,0.386009442918,0.922494829242,0.25,0.15,0.0,1.0,0.0,0.0,1.0,2000000000,0,,,0
1449617156836674712,173,1449617156832796657,/odom,doorways,20,0,0,4.3364291251,0.375507139883,0.0,0.0,0.0,0.390878516512,0.920442277022,0.25,0.15,0.0,1.0,0.0,0.0,1.0,2000000000,0,,,0
1449617156836698651,174,1449617156832815153,/odom,doorways,20,0,0,4.3364291251,0.375507139883,0.0,0.0,0.0,0.390878516512,0.920442277022,0.25,0.15,0.0,1.0,0.0,0.0,1.0,2000000000,0,,,0
1449617156836703273,175,1449617156832834699,/odom,doorways,20,0,0,4.3364291251,0.375507139883,0.0,0.0,0.0,0.390878516512,0.920442277022,0.25,0.15,0.0,1.0,0.0,0.0,1.0,2000000000,0,,,0
1449617156943380041,176,1449617156943062832,/odom,doorways,20,0,0,4.34842797907,0.387940282557,0.0,0.0,0.0,0.390878516512,0.920442277022,0.25,0.15,0.0,1.0,0.0,0.0,1.0,2000000000,0,,,0
1449617156943396231,177,1449617156943134541,/odom,doorways,20,0,0,4.34842797907,0.387940282557,0.0,0.0,0.0,0.390878516512,0.920442277022,0.25,0.15,0.0,1.0,0.0,0.0,1.0,2000000000,0,,,0
1449617156943412625,178,1449617156943189905,/odom,doorways,20,0,0,4.34842797907,0.387940282557,0.0,0.0,0.0,0.390878516512,0.920442277022,0.25,0.15,0.0,1.0,0.0,0.0,1.0,2000000000,0,,,0
1449617157056414288,179,1449617157055838135,/odom,doorways,20,0,0,4.36418367534,0.404748302486,0.0,0.0,0.0,0.400583787075,0.916260132022,0.25,0.15,0.0,1.0,0.0,0.0,1.0,2000000000,0,,,0
1449617157056424463,180,1449617157056113521,/odom,doorways,20,0,0,4.36418367534,0.404748302486,0.0,0.0,0.0,0.400583787075,0.916260132022,0.25,0.15,0.0,1.0,0.0,0.0,1.0,2000000000,0,,,0
1449617157057091094,181,1449617157056360171,/odom,doorways,20,0,0,4.36418367534,0.404748302486,0.0,0.0,0.0,0.400583787075,0.916260132022,0.25,0.15,0.0,1.0,0.0,0.0,1.0,2000000000,0,,,0
1449617157057099351,183,1449617157056372426,/odom,doorways,20,0,0,4.36418367534,0.404748302486,0.0,0.0,0.0,0.400583787075,0.916260132022,0.25,0.15,0.0,1.0,0.0,0.0,1.0,2000000000,0,,,0
1449617157142013349,184,1449617157141159098,/odom,doorways,20,0,0,4.3759170807,0.417432258169,0.0,0.0,0.0,0.400583787075,0.916260132022,0.25,0.15,0.0,1.0,0.0,0.0,1.0,2000000000,0,,,0
1449617157142020270,185,1449617157141280549,/odom,doorways,20,0,0,4.3759170807,0.417432258169,0.0,0.0,0.0,0.400583787075,0.916260132022,0.25,0.15,0.0,1.0,0.0,0.0,1.0,2000000000,0,,,0
1449617157142025167,186,1449617157141346902,/odom,doorways,20,0,0,4.3759170807,0.417432258169,0.0,0.0,0.0,0.400583787075,0.916260132022,0.25,0.15,0.0,1.0,0.0,0.0,1.0,2000000000,0,,,0
1449617157268065165,187,1449617157266682852,/odom,doorways,20,0,0,4.39731607605,0.440788917424,0.0,0.0,0.0,0.405419713065,0.91413065601,0.25,0.15,0.0,1.0,0.0,0.0,1.0,2000000000,0,,,0
1449617157268071850,189,1449617157266692796,/odom,doorways,20,0,0,4.39731607605,0.440788917424,0.0,0.0,0.0,0.405419713065,0.91413065601,0.25,0.15,0.0,1.0,0.0,0.0,1.0,2000000000,0,,,0
1449617157358789610,190,1449617157358679186,/odom,doorways,20,0,0,4.41451014891,0.460182571236,0.0,0.0,0.0,0.410244319394,0.911975656696,0.25,0.15,0.0,1.0,0.0,0.0,1.0,2000000000,0,,,0
1449617157358793564,191,1449617157358686333,/odom,doorways,20,0,0,4.41451014891,0.460182571236,0.0,0.0,0.0,0.410244319394,0.911975656696,0.25,0.15,0.0,1.0,0.0,0.0,1.0,2000000000,0,,,0
1449617157358797691,192,1449617157358719585,/odom,doorways,20,0,0,4.41451014891,0.460182571236,0.0,0.0,0.0,0.410244319394,0.911975656696,0.25,0.15,0.0,1.0,0.0,0.0,1.0,2000000000,0,,,0
1449617157358808353,193,1449617157358726295,/odom,doorways,20,0,0,4.41451014891,0.460182571236,0.0,0.0,0.0,0.410244319394,0.911975656696,0.25,0.15,0.0,1.0,0.0,0.0,1.0,2000000000,0,,,0
1449617157359077673,194,1449617157358959062,/odom,doorways,20,0,0,4.41451014891,0.460182571236,0.0,0.0,0.0,0.410244319394,0.911975656696,0.25,0.15,0.0,1.0,0.0,0.0,1.0,2000000000,0,,,0
1449617157442874013,195,1449617157442317720,/odom,doorways,20,0,0,4.41451014891,0.460182571236,0.0,0.0,0.0,0.410244319394,0.911975656696,0.25,0.15,0.0,1.0,0.0,0.0,1.0,2000000000,0,,,0
1449617157442877619,196,1449617157442509963,/odom,doorways,20,0,0,4.41451014891,0.460182571236,0.0,0.0,0.0,0.410244319394,0.911975656696,0.25,0.15,0.0,1.0,0.0,0.0,1.0,2000000000,0,,,0
1449617157442961310,197,1449617157442601190,/odom,doorways,20,0,0,4.41451014891,0.460182571236,0.0,0.0,0.0,0.410244319394,0.911975656696,0.25,0.15,0.0,1.0,0.0,0.0,1.0,2000000000,0,,,0
1449617157534748312,198,1449617157534578133,/odom,doorways,20,0,0,4.44459588022,0.495080413559,0.0,0.0,0.0,0.419859034555,0.907589329544,0.25,0.15,0.0,1.0,0.0,0.0,1.0,2000000000,0,,,0
1449617157534923101,199,1449617157534797881,/odom,doorways,20,0,0,4.44459588022,0.495080413559,0.0,0.0,0.0,0.419859034555,0.907589329544,0.25,0.15,0.0,1.0,0.0,0.0,1.0,2000000000,0,,,0
1449617157535036614,200,1449617157534944546,/odom,doorways,20,0,0,4.44459588022,0.495080413559,0.0,0.0,0.0,0.419859034555,0.907589329544,0.25,0.15,0.0,1.0,0.0,0.0,1.0,2000000000,0,,,0
1449617157639357951,201,1449617157638761363,/odom,doorways,20,0,0,4.46130634341,0.514891867268,0.0,0.0,0.0,0.424648874937,0.905358124178,0.25,0.15,0.0,1.0,0.0,0.0,1.0,2000000000,0,,,0
1449617157639369605,203,1449617157638782776,/odom,doorways,20,0,0,4.46130634341,0.514891867268,0.0,0.0,0.0,0.424648874937,0.905358124178,0.25,0.15,0.0,1.0,0.0,0.0,1.0,2000000000,0,,,0
1449617157737945304,204,1449617157737777850,/odom,doorways,20,0,0,4.46130634341,0.514891867268,0.0,0.0,0.0,0.424648874937,0.905358124178,0.25,0.15,0.0,1.0,0.0,0.0,1.0,2000000000,0,,,0
1449617157738100998,205,1449617157737929553,/odom,doorways,20,0,0,4.46130634341,0.514891867268,0.0,0.0,0.0,0.424648874937,0.905358124178,0.25,0.15,0.0,1.0,0.0,0.0,1.0,2000000000,0,,,0
1449617157738466323,206,1449617157738363067,/odom,doorways,20,0,0,4.46130634341,0.514891867268,0.0,0.0,0.0,0.424648874937,0.905358124178,0.25,0.15,0.0,1.0,0.0,0.0,1.0,2000000000,0,,,0
1449617157738635807,207,1449617157738513613,/odom,doorways,20,0,0,4.46130634341,0.514891867268,0.0,0.0,0.0,0.424648874937,0.905358124178,0.25,0.15,0.0,1.0,0.0,0.0,1.0,2000000000,0,,,0
1449617157738823066,208,1449617157738677746,/odom,doorways,20,0,0,4.46130634341,0.514891867268,0.0,0.0,0.0,0.424648874937,0.905358124178,0.25,0.15,0.0,1.0,0.0,0.0,1.0,2000000000,0,,,0
1449617157844061980,209,1449617157843670706,/odom,doorways,20,0,0,4.49400011409,0.55511584071,0.0,0.0,0.0,0.434192852625,0.900819941348,0.25,0.15,0.0,1.0,0.0,0.0,1.0,2000000000,0,,,0
1449617157844069910,210,1449617157843799769,/odom,doorways,20,0,0,4.49400011409,0.55511584071,0.0,0.0,0.0,0.434192852625,0.900819941348,0.25,0.15,0.0,1.0,0.0,0.0,1.0,2000000000,0,,,0
1449617157844094801,211,1449617157843909539,/odom,doorways,20,0,0,4.49400011409,0.55511584071,0.0,0.0,0.0,0.434192852625,0.900819941348,0.25,0.15,0.0,1.0,0.0,0.0,1.0,2000000000,0,,,0
1449617157934332787,212,1449617157934190731,/odom,doorways,20,0,0,4.50469225097,0.568688806715,0.0,0.0,0.0,0.434192852625,0.900819941348,0.25,0.15,0.0,1.0,0.0,0.0,1.0,2000000000,0,,,0
1449617157934469957,213,1449617157934291457,/odom,doorways,20,0,0,4.50469225097,0.568688806715,0.0,0.0,0.0,0.434192852625,0.900819941348,0.25,0.15,0.0,1.0,0.0,0.0,1.0,2000000000,0,,,0
1449617157934473356,214,1449617157934366488,/odom,doorways,20,0,0,4.50469225097,0.568688806715,0.0,0.0,0.0,0.434192852625,0.900819941348,0.25,0.15,0.0,1.0,0.0,0.0,1.0,2000000000,0,,,0
1449617158038821086,215,1449617158038604505,/odom,doorways,20,0,0,4.5222242131,0.591534633003,0.0,0.0,0.0,0.44368833852,0.896181152592,0.25,0.15,0.0,1.0,0.0,0.0,1.0,2000000000,0,,,0
1449617158038830898,216,1449617158038717258,/odom,doorways,20,0,0,4.5222242131,0.591534633003,0.0,0.0,0.0,0.44368833852,0.896181152592,0.25,0.15,0.0,1.0,0.0,0.0,1.0,2000000000,0,,,0
1449617158039268989,217,1449617158039033305,/odom,doorways,20,0,0,4.5222242131,0.591534633003,0.0,0.0,0.0,0.44368833852,0.896181152592,0.25,0.15,0.0,1.0,0.0,0.0,1.0,2000000000,0,,,0
1449617158039272405,218,1449617158039155051,/odom,doorways,20,0,0,4.5222242131,0.591534633003,0.0,0.0,0.0,0.44368833852,0.896181152592,0.25,0.15,0.0,1.0,0.0,0.0,1.0,2000000000,0,,,0
1449617158039322302,219,1449617158039238611,/odom,doorways,20,0,0,4.5222242131,0.591534633003,0.0,0.0,0.0,0.44368833852,0.896181152592,0.25,0.15,0.0,1.0,0.0,0.0,1.0,2000000000,0,,,0
1449617158135678339,220,1449617158135449532,/odom,doorways,20,0,0,4.5222242131,0.591534633003,0.0,0.0,0.0,0.44368833852,0.896181152592,0.25,0.15,0.0,1.0,0.0,0.0,1.0,2000000000,0,,,0
1449617158135894227,221,1449617158135562157,/odom,doorways,20,0,0,4.5222242131,0.591534633003,0.0,0.0,0.0,0.44368833852,0.896181152592,0.25,0.15,0.0,1.0,0.0,0.0,1.0,2000000000,0,,,0
1449617158135901388,222,1449617158135634176,/odom,doorways,20,0,0,4.5222242131,0.591534633003,0.0,0.0,0.0,0.44368833852,0.896181152592,0.25,0.15,0.0,1.0,0.0,0.0,1.0,2000000000,0,,,0
1449617158245131866,223,1449617158244127697,/odom,doorways,20,0,0,4.55847638299,0.639939410421,0.0,0.0,0.0,0.448417565431,0.893824192453,0.25,0.15,0.0,1.0,0.0,0.0,1.0,2000000000,0,,,0
1449617158245146221,224,1449617158244263769,/odom,doorways,20,0,0,4.55847638299,0.639939410421,0.0,0.0,0.0,0.448417565431,0.893824192453,0.25,0.15,0.0,1.0,0.0,0.0,1.0,2000000000,0,,,0
1449617158245150476,225,1449617158244544399,/odom,doorways,20,0,0,4.55847638299,0.639939410421,0.0,0.0,0.0,0.448417565431,0.893824192453,0.25,0.15,0.0,1.0,0.0,0.0,1.0,2000000000,0,,,0
1449617158245163253,226,1449617158244630247,/odom,doorways,20,0,0,4.55847638299,0.639939410421,0.0,0.0,0.0,0.448417565431,0.893824192453,0.25,0.15,0.0,1.0,0.0,0.0,1.0,2000000000,0,,,0
1449617158348844029,227,1449617158346730574,/odom,doorways,20,0,0,4.57035659758,0.656225224947,0.0,0.0,0.0,0.453134272142,0.891442275983,0.25,0.15,0.0,1.0,0.0,0.0,1.0,2000000000,0,,,0
1449617158348850469,228,1449617158346895415,/odom,doorways,20,0,0,4.57035659758,0.656225224947,0.0,0.0,0.0,0.453134272142,0.891442275983,0.25,0.15,0.0,1.0,0.0,0.0,1.0,2000000000,0,,,0
1449617158348855936,229,1449617158347042590,/odom,doorways,20,0,0,4.57035659758,0.656225224947,0.0,0.0,0.0,0.453134272142,0.891442275983,0.25,0.15,0.0,1.0,0.0,0.0,1.0,2000000000,0,,,0
1449617158348872140,230,1449617158347177002,/odom,doorways,20,0,0,4.57035659758,0.656225224947,0.0,0.0,0.0,0.453134272142,0.891442275983,0.25,0.15,0.0,1.0,0.0,0.0,1.0,2000000000,0,,,0
1449617158348899703,231,1449617158347288245,/odom,doorways,20,0,0,4.57035659758,0.656225224947,0.0,0.0,0.0,0.453134272142,0.891442275983,0.25,0.15,0.0,1.0,0.0,0.0,1.0,2000000000,0,,,0
1449617158443151110,232,1449617158442393879,/odom,doorways,20,0,0,4.59229644647,0.686559336874,0.0,0.0,0.0,0.457838326961,0.889035469689,0.25,0.15,0.0,1.0,0.0,0.0,1.0,2000000000,0,,,0
1449617158443158864,233,1449617158442913817,/odom,doorways,20,0,0,4.59229644647,0.686559336874,0.0,0.0,0.0,0.457838326961,0.889035469689,0.25,0.15,0.0,1.0,0.0,0.0,1.0,2000000000,0,,,0
1449617158443325335,234,1449617158443113173,/odom,doorways,20,0,0,4.59229644647,0.686559336874,0.0,0.0,0.0,0.457838326961,0.889035469689,0.25,0.15,0.0,1.0,0.0,0.0,1.0,2000000000,0,,,0
1449617158443741091,235,1449617158443440320,/odom,doorways,20,0,0,4.59229644647,0.686559336874,0.0,0.0,0.0,0.457838326961,0.889035469689,0.25,0.15,0.0,1.0,0.0,0.0,1.0,2000000000,0,,,0
1449617158524435751,236,1449617158523055077,/odom,doorways,20,0,0,4.59229644647,0.686559336874,0.0,0.0,0.0,0.457838326961,0.889035469689,0.25,0.15,0.0,1.0,0.0,0.0,1.0,2000000000,0,,,0
1449617158524553578,239,1449617158523081248,/odom,doorways,20,0,0,4.59229644647,0.686559336874,0.0,0.0,0.0,0.457838326961,0.889035469689,0.25,0.15,0.0,1.0,0.0,0.0,1.0,2000000000,0,,,0
1449617158659307961,240,1449617158657962243,/odom,doorways,20,0,0,4.62707062778,0.736036309568,0.0,0.0,0.0,0.462529598545,0.886603840771,0.25,0.15,0.0,1.0,0.0,0.0,1.0,2000000000,0,,,0
1449617158659311854,244,1449617158657993297,/odom,doorways,20,0,0,4.62707062778,0.736036309568,0.0,0.0,0.0,0.462529598545,0.886603840771,0.25,0.15,0.0,1.0,0.0,0.0,1.0,2000000000,0,,,0
1449617158743719755,245,1449617158742837462,/odom,doorways,20,0,0,4.64017646343,0.754983303286,0.0,0.0,0.0,0.462529598545,0.886603840771,0.25,0.15,0.0,1.0,0.0,0.0,1.0,2000000000,0,,,0
1449617158743723361,246,1449617158742953282,/odom,doorways,20,0,0,4.64017646343,0.754983303286,0.0,0.0,0.0,0.462529598545,0.886603840771,0.25,0.15,0.0,1.0,0.0,0.0,1.0,2000000000,0,,,0
1449617158743726502,247,1449617158743010472,/odom,doorways,20,0,0,4.64017646343,0.754983303286,0.0,0.0,0.0,0.462529598545,0.886603840771,0.25,0.15,0.0,1.0,0.0,0.0,1.0,2000000000,0,,,0
1449617158743748094,248,1449617158743064120,/odom,doorways,20,0,0,4.64017646343,0.754983303286,0.0,0.0,0.0,0.462529598545,0.886603840771,0.25,0.15,0.0,1.0,0.0,0.0,1.0,2000000000,0,,,0
1449617158834836429,249,1449617158834237403,/odom,doorways,20,0,0,4.65802475389,0.781154219342,0.0,0.0,0.0,0.46720795591,0.884147457122,0.25,0.15,0.0,1.0,0.0,0.0,1.0,2000000000,0,,,0
1449617158834843132,252,1449617158834261047,/odom,doorways,20,0,0,4.65802475389,0.781154219342,0.0,0.0,0.0,0.46720795591,0.884147457122,0.25,0.15,0.0,1.0,0.0,0.0,1.0,2000000000,0,,,0
1449617158947666259,253,1449617158946192828,/odom,doorways,20,0,0,4.65802475389,0.781154219342,0.0,0.0,0.0,0.46720795591,0.884147457122,0.25,0.15,0.0,1.0,0.0,0.0,1.0,2000000000,0,,,0
1449617158947690496,256,1449617158946205295,/odom,doorways,20,0,0,4.65802475389,0.781154219342,0.0,0.0,0.0,0.46720795591,0.884147457122,0.25,0.15,0.0,1.0,0.0,0.0,1.0,2000000000,0,,,0
1449617159039566126,257,1449617159038780442,/odom,doorways,20,0,0,4.68426147736,0.819030926822,0.0,0.0,0.0,0.46720795591,0.884147457122,0.25,0.15,0.0,1.0,0.0,0.0,1.0,2000000000,0,,,0
1449617159039804247,259,1449617159038801583,/odom,doorways,20,0,0,4.68426147736,0.819030926822,0.0,0.0,0.0,0.46720795591,0.884147457122,0.25,0.15,0.0,1.0,0.0,0.0,1.0,2000000000,0,,,0
1449617159039830944,260,1449617159038871211,/odom,doorways,20,0,0,4.68426147736,0.819030926822,0.0,0.0,0.0,0.46720795591,0.884147457122,0.25,0.15,0.0,1.0,0.0,0.0,1.0,2000000000,0,,,0
1449617159039863633,261,1449617159038874224,/odom,doorways,20,0,0,4.68426147736,0.819030926822,0.0,0.0,0.0,0.46720795591,0.884147457122,0.25,0.15,0.0,1.0,0.0,0.0,1.0,2000000000,0,,,0
1449617159162158508,262,1449617159160493677,/odom,doorways,20,0,0,4.70048719596,0.842822668691,0.0,0.0,0.0,0.46720795591,0.884147457122,0.25,0.15,0.0,1.0,0.0,0.0,1.0,2000000000,0,,,0
1449617159162195297,263,1449617159160832964,/odom,doorways,20,0,0,4.70048719596,0.842822668691,0.0,0.0,0.0,0.46720795591,0.884147457122,0.25,0.15,0.0,1.0,0.0,0.0,1.0,2000000000,0,,,0
1449617159162245747,264,1449617159160977181,/odom,doorways,20,0,0,4.70048719596,0.842822668691,0.0,0.0,0.0,0.46720795591,0.884147457122,0.25,0.15,0.0,1.0,0.0,0.0,1.0,2000000000,0,,,0
1449617159162253158,265,1449617159161101957,/odom,doorways,20,0,0,4.70048719596,0.842822668691,0.0,0.0,0.0,0.46720795591,0.884147457122,0.25,0.15,0.0,1.0,0.0,0.0,1.0,2000000000,0,,,0
1449617159240077276,266,1449617159239060438,/odom,doorways,20,0,0,4.71022262712,0.857097713812,0.0,0.0,0.0,0.46720795591,0.884147457122,0.25,0.15,0.0,1.0,0.0,0.0,1.0,2000000000,0,,,0
1449617159240083075,267,1449617159239198604,/odom,doorways,20,0,0,4.71022262712,0.857097713812,0.0,0.0,0.0,0.46720795591,0.884147457122,0.25,0.15,0.0,1.0,0.0,0.0,1.0,2000000000,0,,,0
1449617159370634152,268,1449617159370169866,/odom,doorways,20,0,0,4.71671291456,0.86661441056,0.0,0.0,0.0,0.46720795591,0.884147457122,0.25,0.15,0.0,1.0,0.0,0.0,1.0,2000000000,0,,,0
1449617159370661419,269,1449617159370179871,/odom,doorways,20,0,0,4.71671291456,0.86661441056,0.0,0.0,0.0,0.46720795591,0.884147457122,0.25,0.15,0.0,1.0,0.0,0.0,1.0,2000000000,0,,,0
1449617159370672178,270,1449617159370187712,/odom,doorways,20,0,0,4.71671291456,0.86661441056,0.0,0.0,0.0,0.46720795591,0.884147457122,0.25,0.15,0.0,1.0,0.0,0.0,1.0,2000000000,0,,,0
1449617159474830776,271,1449617159474149437,/odom,doorways,20,0,0,4.72490093033,0.878458441628,0.0,0.0,0.0,0.462529598545,0.886603840771,0.25,0.15,0.0,1.0,0.0,0.0,1.0,2000000000,0,,,0
1449617159474833363,272,1449617159474159332,/odom,doorways,20,0,0,4.72490093033,0.878458441628,0.0,0.0,0.0,0.462529598545,0.886603840771,0.25,0.15,0.0,1.0,0.0,0.0,1.0,2000000000,0,,,0
1449617159537265844,273,1449617159537056095,/odom,doorways,20,0,0,4.72981875022,0.885561404278,0.0,0.0,0.0,0.46720795591,0.884147457122,0.25,0.15,0.0,1.0,0.0,0.0,1.0,2000000000,0,,,0
1449617159537288155,274,1449617159537159079,/odom,doorways,20,0,0,4.72981875022,0.885561404278,0.0,0.0,0.0,0.46720795591,0.884147457122,0.25,0.15,0.0,1.0,0.0,0.0,1.0,2000000000,0,,,0
1449617159634495386,275,1449617159633935964,/odom,doorways,20,0,0,4.73795666167,0.897439995256,0.0,0.0,0.0,0.462529598545,0.886603840771,0.25,0.15,0.0,1.0,0.0,0.0,1.0,2000000000,0,,,0
1449617159634627457,276,1449617159633945503,/odom,doorways,20,0,0,4.73795666167,0.897439995256,0.0,0.0,0.0,0.462529598545,0.886603840771,0.25,0.15,0.0,1.0,0.0,0.0,1.0,2000000000,0,,,0
1449617159765109517,277,1449617159764078064,/odom,doorways,20,0,0,4.74454715773,0.906887572182,0.0,0.0,0.0,0.462529598545,0.886603840771,0.25,0.15,0.0,1.0,0.0,0.0,1.0,2000000000,0,,,0
1449617159765139896,279,1449617159764088607,/odom,doorways,20,0,0,4.74454715773,0.906887572182,0.0,0.0,0.0,0.462529598545,0.886603840771,0.25,0.15,0.0,1.0,0.0,0.0,1.0,2000000000,0,,,0
1449617159872411291,280,1449617159872305552,/odom,doorways,20,0,0,4.75113765379,0.916335149108,0.0,0.0,0.0,0.462529598545,0.886603840771,0.25,0.15,0.0,1.0,0.0,0.0,1.0,2000000000,0,,,0
1449617159872493459,281,1449617159872399538,/odom,doorways,20,0,0,4.75113765379,0.916335149108,0.0,0.0,0.0,0.462529598545,0.886603840771,0.25,0.15,0.0,1.0,0.0,0.0,1.0,2000000000,0,,,0
1449617159960322874,282,1449617159960165212,/odom,doorways,20,0,0,4.76102339788,0.930506514497,0.0,0.0,0.0,0.462529598545,0.886603840771,0.25,0.15,0.0,1.0,0.0,0.0,1.0,2000000000,0,,,0
1449617159960410093,283,1449617159960286263,/odom,doorways,20,0,0,4.76102339788,0.930506514497,0.0,0.0,0.0,0.462529598545,0.886603840771,0.25,0.15,0.0,1.0,0.0,0.0,1.0,2000000000,0,,,0
1449617160033417717,284,1449617160033333934,/odom,doorways,20,0,0,4.76604087435,0.937539565977,0.0,0.0,0.0,0.457838326961,0.889035469689,0.25,0.15,0.0,1.0,0.0,0.0,1.0,2000000000,0,,,0
1449617160033460767,285,1449617160033407890,/odom,doorways,20,0,0,4.76604087435,0.937539565977,0.0,0.0,0.0,0.457838326961,0.889035469689,0.25,0.15,0.0,1.0,0.0,0.0,1.0,2000000000,0,,,0
1449617160175489438,286,1449617160169627865,/odom,doorways,20,0,0,4.7760758273,0.951605668938,0.0,0.0,0.0,0.457838326961,0.889035469689,0.25,0.15,0.0,1.0,0.0,0.0,1.0,2000000000,0,,,0
1449617160175494945,287,1449617160172897007,/odom,doorways,20,0,0,4.7760758273,0.951605668938,0.0,0.0,0.0,0.457838326961,0.889035469689,0.25,0.15,0.0,1.0,0.0,0.0,1.0,2000000000,0,,,0
1449617160175504400,288,1449617160172999010,/odom,doorways,20,0,0,4.7760758273,0.951605668938,0.0,0.0,0.0,0.457838326961,0.889035469689,0.25,0.15,0.0,1.0,0.0,0.0,1.0,2000000000,0,,,0
1449617160336600180,289,1449617160335100136,/odom,doorways,20,0,0,4.78945576456,0.970360472886,0.0,0.0,0.0,0.457838326961,0.889035469689,0.25,0.15,0.0,1.0,0.0,0.0,1.0,2000000000,0,,,0
1449617160336623917,290,1449617160335294670,/odom,doorways,20,0,0,4.78945576456,0.970360472886,0.0,0.0,0.0,0.457838326961,0.889035469689,0.25,0.15,0.0,1.0,0.0,0.0,1.0,2000000000,0,,,0
1449617160436442650,291,1449617160435125545,/odom,doorways,20,0,0,4.7994907175,0.984426575847,0.0,0.0,0.0,0.457838326961,0.889035469689,0.25,0.15,0.0,1.0,0.0,0.0,1.0,2000000000,0,,,0
1449617160436643120,292,1449617160436463753,/odom,doorways,20,0,0,4.7994907175,0.984426575847,0.0,0.0,0.0,0.457838326961,0.889035469689,0.25,0.15,0.0,1.0,0.0,0.0,1.0,2000000000,0,,,0
1449617160560989488,293,1449617160560257448,/odom,doorways,20,0,0,4.7994907175,0.984426575847,0.0,0.0,0.0,0.457838326961,0.889035469689,0.25,0.15,0.0,1.0,0.0,0.0,1.0,2000000000,0,,,0
1449617160560992900,294,1449617160560347344,/odom,doorways,20,0,0,4.7994907175,0.984426575847,0.0,0.0,0.0,0.457838326961,0.889035469689,0.25,0.15,0.0,1.0,0.0,0.0,1.0,2000000000,0,,,0
1449617160560996340,295,1449617160560409024,/odom,doorways,20,0,0,4.7994907175,0.984426575847,0.0,0.0,0.0,0.457838326961,0.889035469689,0.25,0.15,0.0,1.0,0.0,0.0,1.0,2000000000,0,,,0
1449617160663420256,296,1449617160663223592,/odom,doorways,20,0,0,4.81621563908,1.00787008078,0.0,0.0,0.0,0.457838326961,0.889035469689,0.25,0.15,0.0,1.0,0.0,0.0,1.0,2000000000,0,,,0
1449617160663527661,297,1449617160663361394,/odom,doorways,20,0,0,4.81621563908,1.00787008078,0.0,0.0,0.0,0.457838326961,0.889035469689,0.25,0.15,0.0,1.0,0.0,0.0,1.0,2000000000,0,,,0
1449617160750345132,298,1449617160749984557,/odom,doorways,20,0,0,4.81621563908,1.00787008078,0.0,0.0,0.0,0.457838326961,0.889035469689,0.25,0.15,0.0,1.0,0.0,0.0,1.0,2000000000,0,,,0
1449617160750348811,299,1449617160750107090,/odom,doorways,20,0,0,4.81621563908,1.00787008078,0.0,0.0,0.0,0.457838326961,0.889035469689,0.25,0.15,0.0,1.0,0.0,0.0,1.0,2000000000,0,,,0
1449617160889834172,300,1449617160889025521,/odom,doorways,20,0,0,4.83481050365,1.03351549172,0.0,0.0,0.0,0.453134272142,0.891442275983,0.25,0.15,0.0,1.0,0.0,0.0,1.0,2000000000,0,,,0
1449617160889891883,301,1449617160889153808,/odom,doorways,20,0,0,4.83481050365,1.03351549172,0.0,0.0,0.0,0.453134272142,0.891442275983,0.25,0.15,0.0,1.0,0.0,0.0,1.0,2000000000,0,,,0
1449617160889926149,302,1449617160889339216,/odom,doorways,20,0,0,4.83481050365,1.03351549172,0.0,0.0,0.0,0.453134272142,0.891442275983,0.25,0.15,0.0,1.0,0.0,0.0,1.0,2000000000,0,,,0
1449617161065259608,303,1449617161054158779,/odom,doorways,20,0,0,4.8620877389,1.07064988366,0.0,0.0,0.0,0.453134272142,0.891442275983,0.25,0.15,0.0,1.0,0.0,0.0,1.0,2000000000,0,,,0
1449617161065263500,304,1449617161054242200,/odom,doorways,20,0,0,4.8620877389,1.07064988366,0.0,0.0,0.0,0.453134272142,0.891442275983,0.25,0.15,0.0,1.0,0.0,0.0,1.0,2000000000,0,,,0
1449617161254065422,305,1449617161253262403,/odom,doorways,20,0,0,4.88786373512,1.1053132075,0.0,0.0,0.0,0.448417565431,0.893824192453,0.25,0.15,0.0,1.0,0.0,0.0,1.0,2000000000,0,,,0
1449617161254081924,306,1449617161253359023,/odom,doorways,20,0,0,4.88786373512,1.1053132075,0.0,0.0,0.0,0.448417565431,0.893824192453,0.25,0.15,0.0,1.0,0.0,0.0,1.0,2000000000,0,,,0
1449617161254101980,307,1449617161253979240,/odom,doorways,20,0,0,4.88786373512,1.1053132075,0.0,0.0,0.0,0.448417565431,0.893824192453,0.25,0.15,0.0,1.0,0.0,0.0,1.0,2000000000,0,,,0
1449617161425978872,308,1449617161424846059,/odom,doorways,20,0,0,4.90697215038,1.13057821991,0.0,0.0,0.0,0.44368833852,0.896181152592,0.25,0.15,0.0,1.0,0.0,0.0,1.0,2000000000,0,,,0
1449617161425982756,309,1449617161425015083,/odom,doorways,20,0,0,4.90697215038,1.13057821991,0.0,0.0,0.0,0.44368833852,0.896181152592,0.25,0.15,0.0,1.0,0.0,0.0,1.0,2000000000,0,,,0
1449617161564603466,310,1449617161564272927,/odom,doorways,20,0,0,4.93483468943,1.16727569073,0.0,0.0,0.0,0.44368833852,0.896181152592,0.25,0.15,0.0,1.0,0.0,0.0,1.0,2000000000,0,,,0
1449617161564607181,312,1449617161564294410,/odom,doorways,20,0,0,4.93483468943,1.16727569073,0.0,0.0,0.0,0.44368833852,0.896181152592,0.25,0.15,0.0,1.0,0.0,0.0,1.0,2000000000,0,,,0
1449617161765823526,313,1449617161765655415,/odom,doorways,20,0,0,4.96829727606,1.21056571309,0.0,0.0,0.0,0.438946723455,0.898513090594,0.25,0.15,0.0,1.0,0.0,0.0,1.0,2000000000,0,,,0
1449617161765827119,314,1449617161765672125,/odom,doorways,20,0,0,4.96829727606,1.21056571309,0.0,0.0,0.0,0.438946723455,0.898513090594,0.25,0.15,0.0,1.0,0.0,0.0,1.0,2000000000,0,,,0
1449617161862431770,315,1449617161859058559,/odom,doorways,20,0,0,4.98960982927,1.23776814313,0.0,0.0,0.0,0.438946723455,0.898513090594,0.25,0.15,0.0,1.0,0.0,0.0,1.0,2000000000,0,,,0
1449617161862444862,316,1449617161859163541,/odom,doorways,20,0,0,4.98960982927,1.23776814313,0.0,0.0,0.0,0.438946723455,0.898513090594,0.25,0.15,0.0,1.0,0.0,0.0,1.0,2000000000,0,,,0
1449617162062178650,317,1449617162061884220,/odom,doorways,20,0,0,5.023504123,1.28072095313,0.0,0.0,0.0,0.434192852625,0.900819941348,0.25,0.15,0.0,1.0,0.0,0.0,1.0,2000000000,0,,,0
1449617162062181526,319,1449617162061897880,/odom,doorways,20,0,0,5.023504123,1.28072095313,0.0,0.0,0.0,0.434192852625,0.900819941348,0.25,0.15,0.0,1.0,0.0,0.0,1.0,2000000000,0,,,0
1449617162164993389,320,1449617162164652973,/odom,doorways,20,0,0,5.023504123,1.28072095313,0.0,0.0,0.0,0.434192852625,0.900819941348,0.25,0.15,0.0,1.0,0.0,0.0,1.0,2000000000,0,,,0
1449617162165047954,321,1449617162164717639,/odom,doorways,20,0,0,5.023504123,1.28072095313,0.0,0.0,0.0,0.434192852625,0.900819941348,0.25,0.15,0.0,1.0,0.0,0.0,1.0,2000000000,0,,,0
1449617162267098441,322,1449617162266711094,/odom,doorways,20,0,0,5.05780302998,1.32335134325,0.0,0.0,0.0,0.429426858762,0.903101640445,0.25,0.15,0.0,1.0,0.0,0.0,1.0,2000000000,0,,,0
1449617162267103310,323,1449617162266806296,/odom,doorways,20,0,0,5.05780302998,1.32335134325,0.0,0.0,0.0,0.429426858762,0.903101640445,0.25,0.15,0.0,1.0,0.0,0.0,1.0,2000000000,0,,,0
1449617162352838184,324,1449617162352661091,/odom,doorways,20,0,0,5.06870912638,1.33675330559,0.0,0.0,0.0,0.429426858762,0.903101640445,0.25,0.15,0.0,1.0,0.0,0.0,1.0,2000000000,0,,,0
1449617162352848681,325,1449617162352671943,/odom,doorways,20,0,0,5.06870912638,1.33675330559,0.0,0.0,0.0,0.429426858762,0.903101640445,0.25,0.15,0.0,1.0,0.0,0.0,1.0,2000000000,0,,,0
1449617162448136235,326,1449617162447185562,/odom,doorways,20,0,0,5.08695646418,1.35903190829,0.0,0.0,0.0,0.429426858762,0.903101640445,0.25,0.15,0.0,1.0,0.0,0.0,1.0,2000000000,0,,,0
1449617162449563161,328,1449617162447196384,/odom,doorways,20,0,0,5.08695646418,1.35903190829,0.0,0.0,0.0,0.429426858762,0.903101640445,0.25,0.15,0.0,1.0,0.0,0.0,1.0,2000000000,0,,,0
1449617162557082238,329,1449617162556872750,/odom,doorways,20,0,0,5.09793307105,1.37237586943,0.0,0.0,0.0,0.429426858762,0.903101640445,0.25,0.15,0.0,1.0,0.0,0.0,1.0,2000000000,0,,,0
1449617162557098762,330,1449617162556968574,/odom,doorways,20,0,0,5.09793307105,1.37237586943,0.0,0.0,0.0,0.429426858762,0.903101640445,0.25,0.15,0.0,1.0,0.0,0.0,1.0,2000000000,0,,,0
1449617162640112143,331,1449617162639546401,/odom,doorways,20,0,0,5.11247453291,1.39024515255,0.0,0.0,0.0,0.429426858762,0.903101640445,0.25,0.15,0.0,1.0,0.0,0.0,1.0,2000000000,0,,,0
1449617162640142726,332,1449617162639677884,/odom,doorways,20,0,0,5.11247453291,1.39024515255,0.0,0.0,0.0,0.429426858762,0.903101640445,0.25,0.15,0.0,1.0,0.0,0.0,1.0,2000000000,0,,,0
1449617162762778411,333,1449617162762302508,/odom,doorways,20,0,0,5.12526882251,1.40582277408,0.0,0.0,0.0,0.424648874937,0.905358124178,0.25,0.15,0.0,1.0,0.0,0.0,1.0,2000000000,0,,,0
1449617162762792291,334,1449617162762328049,/odom,doorways,20,0,0,5.12526882251,1.40582277408,0.0,0.0,0.0,0.424648874937,0.905358124178,0.25,0.15,0.0,1.0,0.0,0.0,1.0,2000000000,0,,,0
1449617162762808746,335,1449617162762725761,/odom,doorways,20,0,0,5.12526882251,1.40582277408,0.0,0.0,0.0,0.424648874937,0.905358124178,0.25,0.15,0.0,1.0,0.0,0.0,1.0,2000000000,0,,,0
1449617162856224169,336,1449617162855782104,/odom,doorways,20,0,0,5.14167497409,1.42588705012,0.0,0.0,0.0,0.429426858762,0.903101640445,0.25,0.15,0.0,1.0,0.0,0.0,1.0,2000000000,0,,,0
1449617162856280788,337,1449617162856003710,/odom,doorways,20,0,0,5.14167497409,1.42588705012,0.0,0.0,0.0,0.429426858762,0.903101640445,0.25,0.15,0.0,1.0,0.0,0.0,1.0,2000000000,0,,,0
1449617162944926861,338,1449617162944747617,/odom,doorways,20,0,0,5.14167497409,1.42588705012,0.0,0.0,0.0,0.429426858762,0.903101640445,0.25,0.15,0.0,1.0,0.0,0.0,1.0,2000000000,0,,,0
1449617162944932880,339,1449617162944861361,/odom,doorways,20,0,0,5.14167497409,1.42588705012,0.0,0.0,0.0,0.429426858762,0.903101640445,0.25,0.15,0.0,1.0,0.0,0.0,1.0,2000000000,0,,,0
1449617163056352567,340,1449617163056138436,/odom,doorways,20,0,0,5.17025865894,1.46202462491,0.0,0.0,0.0,0.438946723455,0.898513090594,0.25,0.15,0.0,1.0,0.0,0.0,1.0,2000000000,0,,,0
1449617163056356996,341,1449617163056225606,/odom,doorways,20,0,0,5.17025865894,1.46202462491,0.0,0.0,0.0,0.438946723455,0.898513090594,0.25,0.15,0.0,1.0,0.0,0.0,1.0,2000000000,0,,,0
1449617163170794524,342,1449617163170188268,/odom,doorways,20,0,0,5.17898848321,1.47347540653,0.0,0.0,0.0,0.44368833852,0.896181152592,0.25,0.15,0.0,1.0,0.0,0.0,1.0,2000000000,0,,,0
1449617163170798723,344,1449617163170197212,/odom,doorways,20,0,0,5.17898848321,1.47347540653,0.0,0.0,0.0,0.44368833852,0.896181152592,0.25,0.15,0.0,1.0,0.0,0.0,1.0,2000000000,0,,,0
1449617163238265964,345,1449617163238000750,/odom,doorways,20,0,0,5.19962320615,1.5011941951,0.0,0.0,0.0,0.453134272142,0.891442275983,0.25,0.15,0.0,1.0,0.0,0.0,1.0,2000000000,0,,,0
1449617163238270591,346,1449617163238003889,/odom,doorways,20,0,0,5.19962320615,1.5011941951,0.0,0.0,0.0,0.453134272142,0.891442275983,0.25,0.15,0.0,1.0,0.0,0.0,1.0,2000000000,0,,,0
1449617163369728141,347,1449617163369500753,/odom,doorways,20,0,0,5.19962320615,1.5011941951,0.0,0.0,0.0,0.453134272142,0.891442275983,0.25,0.15,0.0,1.0,0.0,0.0,1.0,2000000000,0,,,0
1449617163369732106,348,1449617163369505679,/odom,doorways,20,0,0,5.19962320615,1.5011941951,0.0,0.0,0.0,0.453134272142,0.891442275983,0.25,0.15,0.0,1.0,0.0,0.0,1.0,2000000000,0,,,0
1449617163452209488,349,1449617163451980072,/odom,doorways,20,0,0,5.22787945504,1.5411680698,0.0,0.0,0.0,0.46720795591,0.884147457122,0.25,0.15,0.0,1.0,0.0,0.0,1.0,2000000000,0,,,0
1449617163452760775,350,1449617163452166974,/odom,doorways,20,0,0,5.22787945504,1.5411680698,0.0,0.0,0.0,0.46720795591,0.884147457122,0.25,0.15,0.0,1.0,0.0,0.0,1.0,2000000000,0,,,0
1449617163533279047,351,1449617163533096015,/odom,doorways,20,0,0,5.23911129123,1.55790736032,0.0,0.0,0.0,0.471873268433,0.881666387325,0.25,0.15,0.0,1.0,0.0,0.0,1.0,2000000000,0,,,0
1449617163533786474,352,1449617163533665531,/odom,doorways,20,0,0,5.23911129123,1.55790736032,0.0,0.0,0.0,0.471873268433,0.881666387325,0.25,0.15,0.0,1.0,0.0,0.0,1.0,2000000000,0,,,0
1449617163649576986,353,1449617163649397893,/odom,doorways,20,0,0,5.25454840723,1.58221687426,0.0,0.0,0.0,0.481164238281,0.876630467073,0.25,0.15,0.0,1.0,0.0,0.0,1.0,2000000000,0,,,0
1449617163649580159,354,1449617163649402367,/odom,doorways,20,0,0,5.25454840723,1.58221687426,0.0,0.0,0.0,0.481164238281,0.876630467073,0.25,0.15,0.0,1.0,0.0,0.0,1.0,2000000000,0,,,0
1449617183083141961,355,1449617183082637965,/odom,doorways,20,0,0,4.32587758462,4.69238971108,0.0,0.0,0.0,0.810988880684,0.585061565484,0.25,0.15,0.0,1.0,0.0,0.0,1.0,2000000000,0,,,0
1449617183083145126,356,1449617183082722661,/odom,doorways,20,0,0,4.32587758462,4.69238971108,0.0,0.0,0.0,0.810988880684,0.585061565484,0.25,0.15,0.0,1.0,0.0,0.0,1.0,2000000000,0,,,0
1449617183083148238,357,1449617183082794227,/odom,doorways,20,0,0,4.32587758462,4.69238971108,0.0,0.0,0.0,0.810988880684,0.585061565484,0.25,0.15,0.0,1.0,0.0,0.0,1.0,2000000000,0,,,0
