%time,field.linear.x,field.linear.y,field.linear.z,field.angular.x,field.angular.y,field.angular.z
1449617109077394626,0.0,0.0,0.0,0.0,0.0,0.0
1449617109125991332,0.0,0.0,0.0,0.0,0.0,0.0
1449617109210864695,0.0,0.0,0.0,0.0,0.0,0.0
1449617109261753771,0.0,0.0,0.0,0.0,0.0,0.0
1449617109324217833,0.0,0.0,0.0,0.0,0.0,0.0
1449617109424369314,0.0,0.0,0.0,0.0,0.0,0.0
1449617109525455083,0.0,0.0,0.0,0.0,0.0,0.0
1449617109574040051,0.0,0.0,0.0,0.0,0.0,0.0
1449617109656235787,0.0,0.0,0.0,0.0,0.0,0.0
1449617109777460119,0.0,0.0,0.0,0.0,0.0,0.0
1449617109812256432,0.0,0.0,0.0,0.0,0.0,0.0
1449617109866541767,0.0,0.0,0.0,0.0,0.0,0.0
1449617110016680025,0.0,0.0,0.0,0.0,0.0,0.0
1449617110065683178,0.0,0.0,0.0,0.0,0.0,0.0
1449617110128659399,0.0,0.0,0.0,0.0,0.0,0.0
1449617110228252342,0.0,0.0,0.0,0.0,0.0,0.0
1449617110329354740,0.0,0.0,0.0,0.0,0.0,0.0
1449617110429257355,0.0,0.0,0.0,0.0,0.0,0.0
1449617110531443410,0.0,0.0,0.0,0.0,0.0,0.0
1449617110578639449,0.0,0.0,0.0,0.0,0.0,0.0
1449617110650940442,0.0,0.0,0.0,0.0,0.0,0.0
1449617110751211259,0.0,0.0,0.0,0.0,0.0,0.0
1449617110802772360,0.0,0.0,0.0,0.0,0.0,0.0
1449617110913924053,0.0,0.0,0.0,0.0,0.0,0.0
1449617110961778156,0.0,0.0,0.0,0.0,0.0,0.0
1449617111086510805,0.0,0.0,0.0,0.0,0.0,0.0
1449617111139704552,0.0,0.0,0.0,0.0,0.0,0.0
1449617111312851943,0.0,0.0,0.0,0.0,0.0,0.0
1449617111363132803,0.0,0.0,0.0,0.0,0.0,0.0
1449617111414439422,0.0,0.0,0.0,0.0,0.0,0.0
1449617111468298702,0.0,0.0,0.0,0.0,0.0,0.0
1449617111530038682,0.0,0.0,0.0,0.0,0.0,0.0
1449617111627421133,0.0,0.0,0.0,0.0,0.0,0.0
1449617111677538911,0.0,0.0,0.0,0.0,0.0,0.0
1449617111688733676,0.0,0.0,0.0,0.0,0.0,0.0
1449617111736622764,0.0,0.0,0.0,0.0,0.0,0.0
1449617111822183135,0.0,0.0,0.0,0.0,0.0,0.0
1449617111920812278,0.0,0.0,0.0,0.0,0.0,0.0
1449617112021096008,0.0,0.0,0.0,0.0,0.0,0.0
1449617112071224628,0.0,0.0,0.0,0.0,0.0,0.0
1449617112121889904,0.0,0.0,0.0,0.0,0.0,0.0
1449617112222320252,0.0,0.0,0.0,0.0,0.0,0.0
1449617112322113767,0.0,0.0,0.0,0.0,0.0,0.0
1449617112372203984,0.0,0.0,0.0,0.0,0.0,0.0
1449617112429095404,0.0,0.0,0.0,0.0,0.0,0.0
1449617112524446900,0.0,0.0,0.0,0.0,0.0,0.0
1449617112574837525,0.0,0.0,0.0,0.0,0.0,0.0
1449617112630204827,0.0,0.0,0.0,0.0,0.0,0.0
1449617112680213500,0.0,0.0,0.0,0.0,0.0,0.0
1449617112735877022,0.0,0.0,0.0,0.0,0.0,0.0
1449617112787426458,0.0,0.0,0.0,0.0,0.0,0.0
1449617112950137773,0.0,0.0,0.0,0.0,0.0,0.0
1449617112997091649,0.0,0.0,0.0,0.0,0.0,0.0
1449617113141451925,0.352,0.0,0.0,0.0,0.0,-0.0631578947368
1449617113233349713,0.352,0.0,0.0,0.0,0.0,-0.0631578947368
1449617113293865419,0.352,0.0,0.0,0.0,0.0,-0.0631578947368
1449617113383305245,0.352,0.0,0.0,0.0,0.0,-0.0631578947368
1449617113499408176,0.352,0.0,0.0,0.0,0.0,-0.0631578947368
1449617113607795815,0.352,0.0,0.0,0.0,0.0,-0.0631578947368
1449617113666829679,0.352,0.0,0.0,0.0,0.0,-0.0631578947368
1449617113752377878,0.352,0.0,0.0,0.0,0.0,-0.0631578947368
1449617113829476506,0.352,0.0,0.0,0.0,0.0,-0.0631578947368
1449617113908504103,0.352,0.0,0.0,0.0,0.0,-0.0631578947368
1449617113948352812,0.352,0.0,0.0,0.0,0.0,-0.0631578947368
1449617114016050704,0.352,0.0,0.0,0.0,0.0,-0.0210526315789
1449617114133094672,0.352,0.0,0.0,0.0,0.0,-0.0210526315789
1449617114182839412,0.352,0.0,0.0,0.0,0.0,-0.0210526315789
1449617114264711121,0.352,0.0,0.0,0.0,0.0,-0.0210526315789
1449617114308171718,0.352,0.0,0.0,0.0,0.0,-0.0210526315789
1449617114364306262,0.352,0.0,0.0,0.0,0.0,-0.0210526315789
1449617114430419469,0.352,0.0,0.0,0.0,0.0,-0.0210526315789
1449617114500776533,0.352,0.0,0.0,0.0,0.0,-0.0210526315789
1449617114566953443,0.352,0.0,0.0,0.0,0.0,-0.0210526315789
1449617114668345847,0.352,0.0,0.0,0.0,0.0,-0.0210526315789
1449617114781648812,0.352,0.0,0.0,0.0,0.0,-0.0210526315789
1449617114909784639,0.352,0.0,0.0,0.0,0.0,-0.0631578947368
1449617115064067472,0.352,0.0,0.0,0.0,0.0,-0.105263157895
1449617115179489535,0.352,0.0,0.0,0.0,0.0,-0.105263157895
1449617115299944504,0.352,0.0,0.0,0.0,0.0,-0.147368421053
1449617115391459757,0.352,0.0,0.0,0.0,0.0,-0.147368421053
1449617115496752792,0.352,0.0,0.0,0.0,0.0,-0.105263157895
1449617115590968469,0.352,0.0,0.0,0.0,0.0,-0.147368421053
1449617115663761896,0.352,0.0,0.0,0.0,0.0,-0.147368421053
1449617115744174069,0.352,0.0,0.0,0.0,0.0,-0.147368421053
1449617115817208214,0.352,0.0,0.0,0.0,0.0,-0.189473684211
1449617115891081459,0.352,0.0,0.0,0.0,0.0,-0.189473684211
1449617115968913459,0.352,0.0,0.0,0.0,0.0,-0.189473684211
1449617116070735023,0.352,0.0,0.0,0.0,0.0,-0.189473684211
1449617116177793881,0.352,0.0,0.0,0.0,0.0,-0.189473684211
1449617116256756213,0.352,0.0,0.0,0.0,0.0,-0.189473684211
1449617116334581906,0.352,0.0,0.0,0.0,0.0,-0.147368421053
1449617116424104199,0.352,0.0,0.0,0.0,0.0,-0.147368421053
1449617116492335785,0.352,0.0,0.0,0.0,0.0,-0.147368421053
1449617116573787985,0.352,0.0,0.0,0.0,0.0,-0.147368421053
1449617116641878311,0.352,0.0,0.0,0.0,0.0,-0.147368421053
1449617116741289228,0.352,0.0,0.0,0.0,0.0,-0.147368421053
1449617116827741681,0.352,0.0,0.0,0.0,0.0,-0.147368421053
1449617116909090068,0.352,0.0,0.0,0.0,0.0,-0.147368421053
1449617116972959082,0.352,0.0,0.0,0.0,0.0,-0.147368421053
1449617117068464484,0.352,0.0,0.0,0.0,0.0,-0.147368421053
1449617117171718187,0.352,0.0,0.0,0.0,0.0,-0.147368421053
1449617117284924863,0.352,0.0,0.0,0.0,0.0,-0.147368421053
1449617117363182963,0.352,0.0,0.0,0.0,0.0,-0.147368421053
1449617117490122595,0.352,0.0,0.0,0.0,0.0,-0.147368421053
1449617117574000118,0.352,0.0,0.0,0.0,0.0,-0.147368421053
1449617117710405108,0.352,0.0,0.0,0.0,0.0,-0.147368421053
1449617117798265828,0.352,0.0,0.0,0.0,0.0,-0.105263157895
1449617117892558708,0.352,0.0,0.0,0.0,0.0,-0.105263157895
1449617117991415558,0.352,0.0,0.0,0.0,0.0,-0.105263157895
1449617118157641779,0.352,0.0,0.0,0.0,0.0,-0.105263157895
1449617118291841462,0.352,0.0,0.0,0.0,0.0,-0.105263157895
1449617118398622151,0.352,0.0,0.0,0.0,0.0,-0.0631578947368
1449617118461013676,0.352,0.0,0.0,0.0,0.0,-0.0631578947368
1449617118608185992,0.352,0.0,0.0,0.0,0.0,-0.0210526315789
1449617118733062612,0.352,0.0,0.0,0.0,0.0,-0.0210526315789
1449617118819519152,0.352,0.0,0.0,0.0,0.0,0.0
1449617118912953113,0.352,0.0,0.0,0.0,0.0,0.0210526315789
1449617118970668732,0.352,0.0,0.0,0.0,0.0,0.0210526315789
1449617119051265939,0.352,0.0,0.0,0.0,0.0,0.0210526315789
1449617119144920955,0.352,0.0,0.0,0.0,0.0,0.0210526315789
1449617119411636805,0.352,0.0,0.0,0.0,0.0,0.0631578947368
1449617119525302033,0.352,0.0,0.0,0.0,0.0,0.0631578947368
1449617119627745058,0.352,0.0,0.0,0.0,0.0,0.0631578947368
1449617119695600299,0.352,0.0,0.0,0.0,0.0,0.105263157895
1449617119768459667,0.352,0.0,0.0,0.0,0.0,0.105263157895
1449617119835568627,0.352,0.0,0.0,0.0,0.0,0.105263157895
1449617119920489733,0.352,0.0,0.0,0.0,0.0,0.105263157895
1449617119964963348,0.352,0.0,0.0,0.0,0.0,0.105263157895
1449617120058788124,0.352,0.0,0.0,0.0,0.0,0.105263157895
1449617120138435318,0.352,0.0,0.0,0.0,0.0,0.105263157895
1449617120204674445,0.352,0.0,0.0,0.0,0.0,0.147368421053
1449617120290790304,0.352,0.0,0.0,0.0,0.0,0.147368421053
1449617120445490113,0.352,0.0,0.0,0.0,0.0,0.147368421053
1449617120548392611,0.352,0.0,0.0,0.0,0.0,0.147368421053
1449617120627119856,0.352,0.0,0.0,0.0,0.0,0.147368421053
1449617120707156063,0.352,0.0,0.0,0.0,0.0,0.147368421053
1449617120805796921,0.352,0.0,0.0,0.0,0.0,0.147368421053
1449617120908646807,0.352,0.0,0.0,0.0,0.0,0.189473684211
1449617121008744815,0.352,0.0,0.0,0.0,0.0,0.189473684211
1449617121132469849,0.352,0.0,0.0,0.0,0.0,0.189473684211
1449617121221193823,0.352,0.0,0.0,0.0,0.0,0.189473684211
1449617121317865137,0.352,0.0,0.0,0.0,0.0,0.189473684211
1449617121390813532,0.352,0.0,0.0,0.0,0.0,0.189473684211
1449617121460494781,0.352,0.0,0.0,0.0,0.0,0.189473684211
1449617121540727259,0.352,0.0,0.0,0.0,0.0,0.231578947368
1449617121707943902,0.352,0.0,0.0,0.0,0.0,0.231578947368
1449617121827708886,0.352,0.0,0.0,0.0,0.0,0.231578947368
1449617121918674453,0.352,0.0,0.0,0.0,0.0,0.231578947368
1449617122023404671,0.352,0.0,0.0,0.0,0.0,0.231578947368
1449617122097201843,0.352,0.0,0.0,0.0,0.0,0.189473684211
1449617122185929172,0.352,0.0,0.0,0.0,0.0,0.189473684211
1449617122252738265,0.352,0.0,0.0,0.0,0.0,0.231578947368
1449617122320442963,0.352,0.0,0.0,0.0,0.0,0.231578947368
1449617122377751493,0.352,0.0,0.0,0.0,0.0,0.231578947368
1449617122451341421,0.352,0.0,0.0,0.0,0.0,0.231578947368
1449617122508596800,0.352,0.0,0.0,0.0,0.0,0.231578947368
1449617122570023131,0.352,0.0,0.0,0.0,0.0,0.231578947368
1449617122629305265,0.352,0.0,0.0,0.0,0.0,0.231578947368
1449617122696543335,0.352,0.0,0.0,0.0,0.0,0.231578947368
1449617122767118623,0.352,0.0,0.0,0.0,0.0,0.231578947368
1449617122840957482,0.352,0.0,0.0,0.0,0.0,0.231578947368
1449617122923770095,0.352,0.0,0.0,0.0,0.0,0.231578947368
1449617123052219373,0.352,0.0,0.0,0.0,0.0,0.189473684211
1449617123112523223,0.352,0.0,0.0,0.0,0.0,0.189473684211
1449617123229457595,0.352,0.0,0.0,0.0,0.0,0.189473684211
1449617123282296895,0.352,0.0,0.0,0.0,0.0,0.147368421053
1449617123352397484,0.352,0.0,0.0,0.0,0.0,0.147368421053
1449617123422918565,0.352,0.0,0.0,0.0,0.0,0.147368421053
1449617123489405163,0.352,0.0,0.0,0.0,0.0,0.0631578947368
1449617123588831516,0.352,0.0,0.0,0.0,0.0,0.0631578947368
1449617123655786791,0.352,0.0,0.0,0.0,0.0,0.0631578947368
1449617123752528188,0.352,0.0,0.0,0.0,0.0,0.105263157895
1449617123816574754,0.352,0.0,0.0,0.0,0.0,0.147368421053
1449617123880571324,0.352,0.0,0.0,0.0,0.0,0.147368421053
1449617123996400836,0.352,0.0,0.0,0.0,0.0,0.147368421053
1449617124086552606,0.352,0.0,0.0,0.0,0.0,0.147368421053
1449617124173770818,0.352,0.0,0.0,0.0,0.0,0.147368421053
1449617124238273496,0.2128,0.0,0.0,0.0,0.0,0.0
1449617124305992652,-0.1,0.0,0.0,0.0,0.0,0.0
1449617124370222433,-0.1,0.0,0.0,0.0,0.0,0.0
1449617124440975189,-0.1,0.0,0.0,0.0,0.0,0.0
1449617124537770733,-0.1,0.0,0.0,0.0,0.0,0.0
1449617124607174782,-0.1,0.0,0.0,0.0,0.0,0.0
1449617124652540863,-0.1,0.0,0.0,0.0,0.0,0.0
1449617124698411515,-0.1,0.0,0.0,0.0,0.0,0.0
1449617124774714230,-0.1,0.0,0.0,0.0,0.0,0.0
1449617124815576949,-0.1,0.0,0.0,0.0,0.0,0.0
1449617124897848458,-0.1,0.0,0.0,0.0,0.0,0.0
1449617124943367191,-0.1,0.0,0.0,0.0,0.0,0.0
1449617125037222482,-0.1,0.0,0.0,0.0,0.0,0.0
1449617125107453412,-0.1,0.0,0.0,0.0,0.0,0.0
1449617125121311738,-0.1,0.0,0.0,0.0,0.0,0.0
1449617125202882008,-0.1,0.0,0.0,0.0,0.0,0.0
1449617125246114201,0.310287535053,0.0,0.0,0.0,0.0,0.0210526315789
1449617125319391563,0.308369518203,0.0,0.0,0.0,0.0,0.0210526315789
1449617125370397745,0.305492171664,0.0,0.0,0.0,0.0,0.0210526315789
1449617125440558731,0.303573404785,0.0,0.0,0.0,0.0,0.0210526315789
1449617125506455452,0.300695003963,0.0,0.0,0.0,0.0,0.0210526315789
1449617125545723676,0.299735669992,0.0,0.0,0.0,0.0,0.0210526315789
1449617125593587630,0.296856673754,0.0,0.0,0.0,0.0,0.0210526315789
1449617125667032100,0.294937397547,0.0,0.0,0.0,0.0,0.0210526315789
1449617125782165641,0.293977539346,0.0,0.0,0.0,0.0,0.0
1449617125839910292,0.292058049171,0.0,0.0,0.0,0.0,0.0
1449617125905808863,0.290138406893,0.0,0.0,0.0,0.0,0.0
1449617126018589231,0.0,0.0,0.0,0.0,0.0,0.0
1449617126105749100,0.0,0.0,0.0,0.0,0.0,0.0
1449617126177658916,0.0,0.0,0.0,0.0,0.0,0.0
1449617126283379966,0.0,0.0,0.0,0.0,0.0,0.0
1449617126350347959,0.0,0.0,0.0,0.0,0.0,0.0
1449617126423958906,0.0,0.0,0.0,0.0,0.0,0.0
1449617126481702051,0.0,0.0,0.0,0.0,0.0,0.0
1449617126552011185,0.0,0.0,0.0,0.0,0.0,0.0
1449617126583206838,0.0,0.0,0.0,0.0,0.0,0.0
1449617126643061040,0.0,0.0,0.0,0.0,0.0,0.0
1449617126698773351,0.0,0.0,0.0,0.0,0.0,0.0
1449617126747429409,0.0,0.0,0.0,0.0,0.0,0.0
1449617126810611178,0.0,0.0,0.0,0.0,0.0,0.0
1449617126866129844,0.0,0.0,0.0,0.0,0.0,0.0
1449617126923733710,0.0,0.0,0.0,0.0,0.0,0.0
1449617126952106198,0.0,0.0,0.0,0.0,0.0,0.0
1449617127008536294,0.0,0.0,0.0,0.0,0.0,0.0
1449617127065915383,0.0,0.0,0.0,0.0,0.0,0.0
1449617127140661092,0.0,0.0,0.0,0.0,0.0,0.0
1449617127205417963,0.0,0.0,0.0,0.0,0.0,0.0
1449617127253094505,0.0,0.0,0.0,0.0,0.0,0.0
1449617127318822729,0.0,0.0,0.0,0.0,0.0,0.0
1449617127401115941,0.0,0.0,0.0,0.0,0.0,0.0
1449617127457584819,0.0,0.0,0.0,0.0,0.0,0.0
1449617127536416103,0.0,0.0,0.0,0.0,0.0,0.0
1449617127634903492,0.0,0.0,0.0,0.0,0.0,0.0
1449617127782941930,0.0,0.0,0.0,0.0,0.0,0.0
1449617127864381733,0.0,0.0,0.0,0.0,0.0,0.0
1449617127905829343,0.0,0.0,0.0,0.0,0.0,0.0
1449617127954735002,0.0,0.0,0.0,0.0,0.0,0.0
1449617128048064427,0.0,0.0,0.0,0.0,0.0,0.0
1449617128095769960,0.0,0.0,0.0,0.0,0.0,0.0
1449617128187727544,0.0,0.0,0.0,0.0,0.0,0.0
1449617128288346475,0.0,0.0,0.0,0.0,0.0,0.0
1449617128402185432,0.0,0.0,0.0,0.0,0.0,0.0
1449617128462562820,0.0,0.0,0.0,0.0,0.0,0.0
1449617128540568314,0.0,0.0,0.0,0.0,0.0,0.0
1449617128658730985,0.0,0.0,0.0,0.0,0.0,0.0
1449617128742735439,0.0,0.0,0.0,0.0,0.0,0.0
1449617128800337674,0.0,0.0,0.0,0.0,0.0,0.0
1449617128893788807,0.0,0.0,0.0,0.0,0.0,0.0
1449617129007428868,0.12,0.0,0.0,0.0,0.0,-0.0210526315789
1449617129065878216,0.12,0.0,0.0,0.0,0.0,-0.0210526315789
1449617129126669447,0.12,0.0,0.0,0.0,0.0,-0.0210526315789
1449617129192970430,0.12,0.0,0.0,0.0,0.0,-0.0210526315789
1449617129247329871,0.12,0.0,0.0,0.0,0.0,-0.0210526315789
1449617129315135697,0.12,0.0,0.0,0.0,0.0,-0.0210526315789
1449617129392630116,0.12,0.0,0.0,0.0,0.0,-0.0210526315789
1449617129521673755,0.12,0.0,0.0,0.0,0.0,-0.0210526315789
1449617129608429255,0.12,0.0,0.0,0.0,0.0,-0.0210526315789
1449617129683564971,0.12,0.0,0.0,0.0,0.0,-0.0210526315789
1449617129742496679,0.12,0.0,0.0,0.0,0.0,-0.0210526315789
1449617129810471519,0.12,0.0,0.0,0.0,0.0,-0.0210526315789
1449617129875823456,0.12,0.0,0.0,0.0,0.0,-0.0210526315789
1449617129900250748,0.12,0.0,0.0,0.0,0.0,-0.0210526315789
1449617129939082566,0.12,0.0,0.0,0.0,0.0,-0.0210526315789
1449617129982441207,0.12,0.0,0.0,0.0,0.0,-0.0210526315789
1449617130023460353,0.12,0.0,0.0,0.0,0.0,-0.0210526315789
1449617130065407366,0.12,0.0,0.0,0.0,0.0,-0.0210526315789
1449617130127152471,0.12,0.0,0.0,0.0,0.0,-0.0210526315789
1449617130197621858,0.12,0.0,0.0,0.0,0.0,-0.0210526315789
1449617130265270313,0.136889438528,0.0,0.0,0.0,0.0,-0.0210526315789
1449617130376858998,0.136726315096,0.0,0.0,0.0,0.0,-0.0210526315789
1449617130445172300,0.136726315096,0.0,0.0,0.0,0.0,-0.0210526315789
1449617130504680217,0.0,0.0,0.0,0.0,0.0,0.31
1449617130580945036,0.0,0.0,0.0,0.0,0.0,0.315789473684
1449617130648595217,0.0,0.0,0.0,0.0,0.0,0.315789473684
1449617130736038080,0.0,0.0,0.0,0.0,0.0,0.315789473684
1449617130817007230,0.0,0.0,0.0,0.0,0.0,0.31
1449617130895856286,0.0,0.0,0.0,0.0,0.0,0.31
1449617130966081273,0.0,0.0,0.0,0.0,0.0,0.31
1449617131042326747,0.0,0.0,0.0,0.0,0.0,0.31
1449617131108123595,0.0,0.0,0.0,0.0,0.0,0.31
1449617131201827479,0.0,0.0,0.0,0.0,0.0,0.31
1449617131259741391,0.12,0.0,0.0,0.0,0.0,-0.0210526315789
1449617131400362973,0.12,0.0,0.0,0.0,0.0,-0.0210526315789
1449617131470687793,0.0,0.0,0.0,0.0,0.0,0.31
1449617131522851090,0.0,0.0,0.0,0.0,0.0,0.31
1449617131609079182,0.0,0.0,0.0,0.0,0.0,0.31
1449617131669982644,0.134171405355,0.0,0.0,0.0,0.0,-0.0210526315789
1449617131770940433,0.134171405355,0.0,0.0,0.0,0.0,-0.0210526315789
1449617131855764066,0.161582957698,0.0,0.0,0.0,0.0,-0.0631578947368
1449617131925416428,0.161120708875,0.0,0.0,0.0,0.0,-0.0631578947368
1449617132028108851,0.133551942449,0.0,0.0,0.0,0.0,-0.0210526315789
1449617132140724038,0.186992706394,0.0,0.0,0.0,0.0,-0.0631578947368
1449617132259723808,0.172376232924,0.0,0.0,0.0,0.0,-0.0631578947368
1449617132322258949,0.172376232924,0.0,0.0,0.0,0.0,-0.0631578947368
1449617132416797177,0.17116425045,0.0,0.0,0.0,0.0,-0.0631578947368
1449617132521450593,0.183203892024,0.0,0.0,0.0,0.0,-0.0631578947368
1449617132661830779,0.181700444683,0.0,0.0,0.0,0.0,-0.0631578947368
1449617132748756663,0.14408196311,0.0,0.0,0.0,0.0,-0.0631578947368
1449617132810242241,0.143489568789,0.0,0.0,0.0,0.0,-0.0631578947368
1449617132861633582,0.154350861826,0.0,0.0,0.0,0.0,-0.0631578947368
1449617132906081979,0.153914985386,0.0,0.0,0.0,0.0,-0.0631578947368
1449617132948332402,0.152603461225,0.0,0.0,0.0,0.0,-0.0631578947368
1449617133043437884,0.152603461225,0.0,0.0,0.0,0.0,-0.0631578947368
1449617133110279532,0.161755213562,0.0,0.0,0.0,0.0,-0.0631578947368
1449617133161146825,0.160615277178,0.0,0.0,0.0,0.0,-0.0631578947368
1449617133226743850,0.14002825304,0.0,0.0,0.0,0.0,-0.0631578947368
1449617133288641220,0.159494223207,0.0,0.0,0.0,0.0,-0.0631578947368
1449617133363731429,0.12,0.0,0.0,0.0,0.0,-0.0631578947368
1449617133422156269,0.165906515932,0.0,0.0,0.0,0.0,-0.105263157895
1449617133467475269,0.12,0.0,0.0,0.0,0.0,-0.0631578947368
1449617133532068837,0.164542192428,0.0,0.0,0.0,0.0,-0.105263157895
1449617133577922441,0.12863926835,0.0,0.0,0.0,0.0,-0.0631578947368
1449617133645642728,0.12863926835,0.0,0.0,0.0,0.0,-0.0631578947368
1449617133716149869,0.145117243354,0.0,0.0,0.0,0.0,-0.0631578947368
1449617133755189101,0.152431675508,0.0,0.0,0.0,0.0,-0.105263157895
1449617133835719806,0.151383488508,0.0,0.0,0.0,0.0,-0.105263157895
1449617133920798307,0.150869145748,0.0,0.0,0.0,0.0,-0.105263157895
1449617134017986501,0.15793911872,0.0,0.0,0.0,0.0,-0.105263157895
1449617134071910697,0.157302632125,0.0,0.0,0.0,0.0,-0.105263157895
1449617134124783506,0.156031891581,0.0,0.0,0.0,0.0,-0.105263157895
1449617134204152220,0.156031891581,0.0,0.0,0.0,0.0,-0.105263157895
1449617134292248087,0.154782209987,0.0,0.0,0.0,0.0,-0.105263157895
1449617134343014344,0.140127818332,0.0,0.0,0.0,0.0,-0.105263157895
1449617134429913440,0.140127818332,0.0,0.0,0.0,0.0,-0.105263157895
1449617134491233688,0.15231688561,0.0,0.0,0.0,0.0,-0.105263157895
1449617134580301326,0.151109663468,0.0,0.0,0.0,0.0,-0.105263157895
1449617134669176082,0.143933845727,0.0,0.0,0.0,0.0,-0.105263157895
1449617134722062357,0.148740250981,0.0,0.0,0.0,0.0,-0.147368421053
1449617134768219582,0.147578705422,0.0,0.0,0.0,0.0,-0.147368421053
1449617134795083466,0.146433118409,0.0,0.0,0.0,0.0,-0.147368421053
1449617134871761994,0.146433118409,0.0,0.0,0.0,0.0,-0.147368421053
1449617134953633585,0.140243093346,0.0,0.0,0.0,0.0,-0.105263157895
1449617135067112341,0.144191335461,0.0,0.0,0.0,0.0,-0.147368421053
1449617135176895120,0.137614458894,0.0,0.0,0.0,0.0,-0.147368421053
1449617135250264089,0.13676645193,0.0,0.0,0.0,0.0,-0.147368421053
1449617135304420996,0.139916370502,0.0,0.0,0.0,0.0,-0.147368421053
1449617135383299469,0.135114721966,0.0,0.0,0.0,0.0,-0.147368421053
1449617135527749649,0.130733790968,0.0,0.0,0.0,0.0,-0.147368421053
1449617135599727573,0.133122590103,0.0,0.0,0.0,0.0,-0.147368421053
1449617135740449592,0.126176082757,0.0,0.0,0.0,0.0,-0.147368421053
1449617135809209371,0.133576109419,0.0,0.0,0.0,0.0,-0.147368421053
1449617135861127722,0.133127747721,0.0,0.0,0.0,0.0,-0.147368421053
1449617135909768616,0.130140730622,0.0,0.0,0.0,0.0,-0.147368421053
1449617135997165120,0.129438028621,0.0,0.0,0.0,0.0,-0.147368421053
1449617136053757623,0.128745802299,0.0,0.0,0.0,0.0,-0.147368421053
1449617136101231623,0.126053773068,0.0,0.0,0.0,0.0,-0.147368421053
1449617136169306562,0.126053773068,0.0,0.0,0.0,0.0,-0.147368421053
1449617136232969050,0.123708005027,0.0,0.0,0.0,0.0,-0.147368421053
1449617136327273827,0.12169291407,0.0,0.0,0.0,0.0,-0.147368421053
1449617136397221185,0.127692268721,0.0,0.0,0.0,0.0,-0.147368421053
1449617136482446373,0.124383524435,0.0,0.0,0.0,0.0,-0.147368421053
1449617136532278731,0.126560822535,0.0,0.0,0.0,0.0,-0.147368421053
1449617136590899798,0.122480904279,0.0,0.0,0.0,0.0,-0.147368421053
1449617136670845167,0.124672466415,0.0,0.0,0.0,0.0,-0.147368421053
1449617136744870403,0.12102724983,0.0,0.0,0.0,0.0,-0.147368421053
1449617136808153635,0.120891495966,0.0,0.0,0.0,0.0,-0.147368421053
1449617136868478072,0.12,0.0,0.0,0.0,0.0,-0.147368421053
1449617136913837483,0.12,0.0,0.0,0.0,0.0,-0.147368421053
1449617136972481749,0.12,0.0,0.0,0.0,0.0,-0.147368421053
1449617137025656613,0.12,0.0,0.0,0.0,0.0,-0.147368421053
1449617137081312099,0.12,0.0,0.0,0.0,0.0,-0.147368421053
1449617137162173587,0.120900429203,0.0,0.0,0.0,0.0,-0.147368421053
1449617137240146212,0.12,0.0,0.0,0.0,0.0,-0.147368421053
1449617137355193433,0.12,0.0,0.0,0.0,0.0,-0.147368421053
1449617137459886714,0.12,0.0,0.0,0.0,0.0,-0.147368421053
1449617137504997987,0.12,0.0,0.0,0.0,0.0,-0.147368421053
1449617137550186267,0.12,0.0,0.0,0.0,0.0,-0.147368421053
1449617137612693221,0.12,0.0,0.0,0.0,0.0,-0.147368421053
1449617137665983862,0.0,0.0,0.0,0.0,0.0,0.31
1449617137714293898,0.12,0.0,0.0,0.0,0.0,-0.147368421053
1449617137783037093,0.12,0.0,0.0,0.0,0.0,-0.147368421053
1449617137833352586,0.0,0.0,0.0,0.0,0.0,0.31
1449617137882926687,0.0,0.0,0.0,0.0,0.0,0.31
1449617137960295884,0.0,0.0,0.0,0.0,0.0,0.31
1449617138018835881,0.0,0.0,0.0,0.0,0.0,0.31
1449617138091861725,0.0,0.0,0.0,0.0,0.0,0.31
1449617138181169186,0.0,0.0,0.0,0.0,0.0,0.31
1449617138260166496,0.0,0.0,0.0,0.0,0.0,0.31
1449617138336835459,0.0,0.0,0.0,0.0,0.0,0.31
1449617138416478638,0.0,0.0,0.0,0.0,0.0,0.31
1449617138466419238,0.0,0.0,0.0,0.0,0.0,0.31
1449617138534349829,0.0,0.0,0.0,0.0,0.0,0.31
1449617138609847636,0.0,0.0,0.0,0.0,0.0,0.31
1449617138727742320,0.12,0.0,0.0,0.0,0.0,-0.147368421053
1449617138779758320,0.12,0.0,0.0,0.0,0.0,-0.147368421053
1449617138887135919,0.0,0.0,0.0,0.0,0.0,0.31
1449617138957948183,0.0,0.0,0.0,0.0,0.0,0.31
1449617139014660125,0.0,0.0,0.0,0.0,0.0,0.31
1449617139106343716,0.0,0.0,0.0,0.0,0.0,0.31
1449617139197909917,0.0,0.0,0.0,0.0,0.0,0.31
1449617139232463921,0.0,0.0,0.0,0.0,0.0,0.31
1449617139322511758,0.12,0.0,0.0,0.0,0.0,-0.147368421053
1449617139415732962,0.12,0.0,0.0,0.0,0.0,-0.147368421053
1449617139523971141,0.12,0.0,0.0,0.0,0.0,-0.147368421053
1449617139633909045,0.12,0.0,0.0,0.0,0.0,-0.147368421053
1449617139690617420,0.12,0.0,0.0,0.0,0.0,-0.147368421053
1449617139774823220,0.12,0.0,0.0,0.0,0.0,-0.147368421053
1449617139989170642,0.12,0.0,0.0,0.0,0.0,-0.147368421053
1449617140141752022,0.201262191185,0.0,0.0,0.0,0.0,-0.273684210526
1449617140211552179,0.199503428043,0.0,0.0,0.0,0.0,-0.273684210526
1449617140281914860,0.197743436401,0.0,0.0,0.0,0.0,-0.231578947368
1449617140364823567,0.195096954528,0.0,0.0,0.0,0.0,-0.273684210526
1449617140437258995,0.19334043753,0.0,0.0,0.0,0.0,-0.273684210526
1449617140498370866,0.19158294441,0.0,0.0,0.0,0.0,-0.273684210526
1449617140595170847,0.188940276802,0.0,0.0,0.0,0.0,-0.231578947368
1449617140680509697,0.187182383322,0.0,0.0,0.0,0.0,-0.273684210526
1449617140752462030,0.185423557388,0.0,0.0,0.0,0.0,-0.273684210526
1449617140812121818,0.182785246438,0.0,0.0,0.0,0.0,-0.273684210526
1449617140871304420,0.181903404007,0.0,0.0,0.0,0.0,-0.231578947368
1449617140948857630,0.155550311223,0.0,0.0,0.0,0.0,-0.147368421053
1449617141000233259,0.176600738259,0.0,0.0,0.0,0.0,-0.231578947368
1449617141119674316,0.174832918672,0.0,0.0,0.0,0.0,-0.231578947368
1449617141180454540,0.169501246717,0.0,0.0,0.0,0.0,-0.273684210526
1449617141231075539,0.168611535452,0.0,0.0,0.0,0.0,-0.231578947368
1449617141268085428,0.165943110217,0.0,0.0,0.0,0.0,-0.231578947368
1449617141344453710,0.165943110217,0.0,0.0,0.0,0.0,-0.231578947368
1449617141418995006,0.161479732821,0.0,0.0,0.0,0.0,-0.273684210526
1449617141532371421,0.158807343796,0.0,0.0,0.0,0.0,-0.231578947368
1449617141641885052,0.15257102909,0.0,0.0,0.0,0.0,-0.273684210526
1449617141708390609,0.148998225245,0.0,0.0,0.0,0.0,-0.273684210526
1449617141774488670,0.147211190005,0.0,0.0,0.0,0.0,-0.273684210526
1449617141836444363,0.144525758545,0.0,0.0,0.0,0.0,-0.273684210526
1449617141904524318,0.141836847174,0.0,0.0,0.0,0.0,-0.273684210526
1449617141963313123,0.14093857531,0.0,0.0,0.0,0.0,-0.273684210526
1449617142038058560,0.139148165388,0.0,0.0,0.0,0.0,-0.273684210526
1449617142141639119,0.138248813034,0.0,0.0,0.0,0.0,-0.273684210526
1449617142190726192,0.13100299819,0.0,0.0,0.0,0.0,-0.273684210526
1449617142264547609,0.129567083019,0.0,0.0,0.0,0.0,-0.315789473684
1449617142311106256,0.128847246441,0.0,0.0,0.0,0.0,-0.273684210526
1449617142426825441,0.164772272202,0.0,0.0,0.0,0.0,-0.105263157895
1449617142512410143,0.12,0.0,0.0,0.0,0.0,-0.189473684211
1449617142604616690,0.12,0.0,0.0,0.0,0.0,-0.189473684211
1449617142683885171,0.12,0.0,0.0,0.0,0.0,-0.189473684211
1449617142746518208,0.12,0.0,0.0,0.0,0.0,-0.189473684211
1449617142846952985,0.0,0.0,0.0,0.0,0.0,0.31
1449617142944081228,0.151498316155,0.0,0.0,0.0,0.0,-0.0210526315789
1449617143036952976,0.247027699185,0.0,0.0,0.0,0.0,-0.0210526315789
1449617143102426336,0.163826201582,0.0,0.0,0.0,0.0,-0.105263157895
1449617143182729575,0.162870402384,0.0,0.0,0.0,0.0,-0.105263157895
1449617143229918375,0.162870402384,0.0,0.0,0.0,0.0,-0.105263157895
1449617143298476100,0.162870402384,0.0,0.0,0.0,0.0,-0.105263157895
1449617143365640297,0.161913745705,0.0,0.0,0.0,0.0,-0.105263157895
1449617143409054572,0.161913745705,0.0,0.0,0.0,0.0,-0.105263157895
1449617143515906091,0.161913745705,0.0,0.0,0.0,0.0,-0.105263157895
1449617143603319343,0.160001544884,0.0,0.0,0.0,0.0,-0.105263157895
1449617143663924603,0.159044177472,0.0,0.0,0.0,0.0,-0.0631578947368
1449617143732379066,0.159044177472,0.0,0.0,0.0,0.0,-0.0631578947368
1449617143879255704,0.157129691636,0.0,0.0,0.0,0.0,-0.0631578947368
1449617143949439238,0.154255964658,0.0,0.0,0.0,0.0,-0.0631578947368
1449617144009582556,0.153297463535,0.0,0.0,0.0,0.0,-0.0631578947368
1449617144133507693,0.152338524796,0.0,0.0,0.0,0.0,-0.0631578947368
1449617144201794999,0.149461783154,0.0,0.0,0.0,0.0,-0.0631578947368
1449617144266914420,0.146582910732,0.0,0.0,0.0,0.0,-0.0210526315789
1449617144313677140,0.145623121223,0.0,0.0,0.0,0.0,-0.0210526315789
1449617144372850407,0.144663193614,0.0,0.0,0.0,0.0,-0.0210526315789
1449617144428531477,0.141783431479,0.0,0.0,0.0,0.0,0.0
1449617144494955808,0.137944485748,0.0,0.0,0.0,0.0,0.0210526315789
1449617144557684533,0.13602535717,0.0,0.0,0.0,0.0,0.0210526315789
1449617144633643587,0.131233510276,0.0,0.0,0.0,0.0,0.0
1449617144686055189,0.125923552168,0.0,0.0,0.0,0.0,0.0
1449617144749481594,0.125491722439,0.0,0.0,0.0,0.0,0.0631578947368
1449617144790156279,0.123579149587,0.0,0.0,0.0,0.0,0.0631578947368
1449617144826133302,0.12033419187,0.0,0.0,0.0,0.0,0.0210526315789
1449617144884305051,0.12,0.0,0.0,0.0,0.0,0.105263157895
1449617144980758273,0.12,0.0,0.0,0.0,0.0,-0.0631578947368
1449617145040372398,0.0,0.0,0.0,0.0,0.0,-0.4
1449617145050953412,0.0,0.0,0.0,0.0,0.0,0.0
1449617145085421515,0.0,0.0,0.0,0.0,0.0,0.0
1449617145133909527,0.0,0.0,0.0,0.0,0.0,0.0
1449617145160139636,0.0,0.0,0.0,0.0,0.0,0.0
1449617145212309991,0.0,0.0,0.0,0.0,0.0,0.0
1449617145256043840,0.0,0.0,0.0,0.0,0.0,0.0
1449617145304875415,0.0,0.0,0.0,0.0,0.0,0.0
1449617145403929626,0.0,0.0,0.0,0.0,0.0,0.0
1449617145452178517,0.0,0.0,0.0,0.0,0.0,0.0
1449617145507668912,0.0,0.0,0.0,0.0,0.0,0.0
1449617145607529463,0.0,0.0,0.0,0.0,0.0,0.0
1449617145657893751,0.0,0.0,0.0,0.0,0.0,0.0
1449617145721431672,0.0,0.0,0.0,0.0,0.0,0.0
1449617145824192366,0.0,0.0,0.0,0.0,0.0,0.0
1449617145921316449,0.0,0.0,0.0,0.0,0.0,0.0
1449617145971043685,0.0,0.0,0.0,0.0,0.0,0.0
1449617146027489507,0.0,0.0,0.0,0.0,0.0,0.0
1449617146126851946,0.0,0.0,0.0,0.0,0.0,0.0
1449617146176612867,0.0,0.0,0.0,0.0,0.0,0.0
1449617146312794216,0.0,0.0,0.0,0.0,0.0,-0.315789473684
1449617146405313298,0.154917239471,0.0,0.0,0.0,0.0,0.0
1449617146484770449,0.154917239471,0.0,0.0,0.0,0.0,0.0
1449617146561706449,0.154917239471,0.0,0.0,0.0,0.0,0.0
1449617146640443751,0.154917239471,0.0,0.0,0.0,0.0,0.0
1449617146694577075,0.154917239471,0.0,0.0,0.0,0.0,0.0
1449617146752425945,0.154917239471,0.0,0.0,0.0,0.0,0.0
1449617146815789959,0.154917239471,0.0,0.0,0.0,0.0,0.0
1449617146877920131,0.154917239471,0.0,0.0,0.0,0.0,0.0
1449617146969806534,0.146397909911,0.0,0.0,0.0,0.0,0.0
1449617147093681365,0.152037470382,0.0,0.0,0.0,0.0,0.0
1449617147141872164,0.144094109395,0.0,0.0,0.0,0.0,0.0
1449617147231105618,0.143326255237,0.0,0.0,0.0,0.0,0.0
1449617147291916904,0.141790486771,0.0,0.0,0.0,0.0,0.0
1449617147340885470,0.140254786709,0.0,0.0,0.0,0.0,0.0
1449617147403969162,0.139487149506,0.0,0.0,0.0,0.0,0.0210526315789
1449617147464702400,0.13795175865,0.0,0.0,0.0,0.0,0.0210526315789
1449617147531565362,0.13641644623,0.0,0.0,0.0,0.0,0.0210526315789
1449617147591863649,0.13411427001,0.0,0.0,0.0,0.0,0.0210526315789
1449617147680622804,0.128285059906,0.0,0.0,0.0,0.0,0.0631578947368
1449617147772932338,0.123990427862,0.0,0.0,0.0,0.0,0.0631578947368
1449617147820001802,0.12,0.0,0.0,0.0,0.0,0.0631578947368
1449617147878992343,0.12,0.0,0.0,0.0,0.0,0.0631578947368
1449617147955705112,0.12,0.0,0.0,0.0,0.0,0.0631578947368
1449617148037689051,0.12,0.0,0.0,0.0,0.0,0.105263157895
1449617148080876417,0.12,0.0,0.0,0.0,0.0,0.105263157895
1449617148168329957,0.12,0.0,0.0,0.0,0.0,0.105263157895
1449617148227583140,0.12,0.0,0.0,0.0,0.0,0.105263157895
1449617148285370769,0.12,0.0,0.0,0.0,0.0,0.105263157895
1449617148354843768,0.12,0.0,0.0,0.0,0.0,0.147368421053
1449617148396546625,0.12,0.0,0.0,0.0,0.0,0.147368421053
1449617148503014285,0.12,0.0,0.0,0.0,0.0,0.147368421053
1449617148615466431,0.0,0.0,0.0,0.0,0.0,0.31
1449617148690719659,0.0,0.0,0.0,0.0,0.0,0.315789473684
1449617148745147166,0.0,0.0,0.0,0.0,0.0,0.4
1449617148761195183,0.0,0.0,0.0,0.0,0.0,0.0
1449617148761198239,0.0,0.0,0.0,0.0,0.0,0.0
1449617149039727685,0.260306637983,0.0,0.0,0.0,0.0,0.357894736842
1449617149141899803,0.252142882232,0.0,0.0,0.0,0.0,0.357894736842
1449617149264852556,0.244891838162,0.0,0.0,0.0,0.0,0.357894736842
1449617149382437729,0.236099377842,0.0,0.0,0.0,0.0,0.357894736842
1449617149466919348,0.227369094803,0.0,0.0,0.0,0.0,0.357894736842
1449617149520254664,0.218016388302,0.0,0.0,0.0,0.0,0.357894736842
1449617149571288680,0.21489719478,0.0,0.0,0.0,0.0,0.357894736842
1449617149660143269,0.212591517895,0.0,0.0,0.0,0.0,0.357894736842
1449617149707708683,0.206445009078,0.0,0.0,0.0,0.0,0.357894736842
1449617149872822754,0.20109439686,0.0,0.0,0.0,0.0,0.357894736842
1449617149963653520,0.192003480058,0.0,0.0,0.0,0.0,0.357894736842
1449617150043128539,0.0,0.0,0.0,0.0,0.0,0.0
1449617150110518009,0.0,0.0,0.0,0.0,0.0,0.0
1449617150170121821,0.0,0.0,0.0,0.0,0.0,0.0
1449617150296637252,0.0,0.0,0.0,0.0,0.0,0.0
1449617150427768521,0.0,0.0,0.0,0.0,0.0,0.0
1449617150519094181,0.0,0.0,0.0,0.0,0.0,0.0
1449617150612961718,0.0,0.0,0.0,0.0,0.0,0.0
1449617150693022611,0.0,0.0,0.0,0.0,0.0,0.0
1449617150781663624,0.0,0.0,0.0,0.0,0.0,0.0
1449617150848524362,0.0,0.0,0.0,0.0,0.0,0.0
1449617150993984448,0.0,0.0,0.0,0.0,0.0,0.0
1449617151090401944,0.0,0.0,0.0,0.0,0.0,0.0
1449617151143740533,0.0,0.0,0.0,0.0,0.0,0.0
1449617151195547498,0.0,0.0,0.0,0.0,0.0,0.0
1449617151265818362,0.0,0.0,0.0,0.0,0.0,0.0
1449617151337572477,0.0,0.0,0.0,0.0,0.0,0.0
1449617151413602731,0.0,0.0,0.0,0.0,0.0,0.0
1449617151452091418,0.0,0.0,0.0,0.0,0.0,0.0
1449617151542099548,0.0,0.0,0.0,0.0,0.0,0.0
1449617151654105980,0.0,0.0,0.0,0.0,0.0,0.0
1449617151769318774,0.0,0.0,0.0,0.0,0.0,0.0
1449617151898051317,0.0,0.0,0.0,0.0,0.0,0.0
1449617151963471763,0.0,0.0,0.0,0.0,0.0,0.0
1449617152074690275,0.0,0.0,0.0,0.0,0.0,0.0
1449617152144791548,0.0,0.0,0.0,0.0,0.0,0.0
1449617152216688025,-0.0,0.0,0.0,0.0,0.0,0.0
1449617152336559912,-0.0,0.0,0.0,0.0,0.0,0.0
1449617152415486672,-0.0,0.0,0.0,0.0,0.0,0.0
1449617152508732982,0.0,0.0,0.0,0.0,0.0,0.0
1449617152555262604,0.0,0.0,0.0,0.0,0.0,0.0
1449617152555269907,0.0,0.0,0.0,0.0,0.0,0.0
1449617152599177993,0.0,0.0,0.0,0.0,0.0,0.0
1449617153107123351,0.0,0.0,0.0,0.0,0.0,0.0
1449617153205769546,0.0,0.0,0.0,0.0,0.0,0.0
1449617153255597545,0.0,0.0,0.0,0.0,0.0,0.0
1449617153259802744,0.0,0.0,0.0,0.0,0.0,0.0
1449617153314512422,0.0,0.0,0.0,0.0,0.0,0.0
1449617153391340011,0.0,0.0,0.0,0.0,0.0,0.0
1449617153438484758,0.0,0.0,0.0,0.0,0.0,0.0
1449617153590730205,0.0,0.0,0.0,0.0,0.0,0.0
1449617153746200937,0.0,0.0,0.0,0.0,0.0,0.403224575255
1449617153833262870,0.0,0.0,0.0,0.0,0.0,0.403224575255
1449617153911567006,0.0,0.0,0.0,0.0,0.0,0.403224575255
1449617153984356582,0.0,0.0,0.0,0.0,0.0,0.403224575255
1449617154026024035,0.0,0.0,0.0,0.0,0.0,0.0
1449617154082619552,0.0,0.0,0.0,0.0,0.0,0.0
1449617154144812105,0.0,0.0,0.0,0.0,0.0,0.0
1449617154212300997,0.0,0.0,0.0,0.0,0.0,0.0
1449617154264354940,0.0,0.0,0.0,0.0,0.0,0.0
1449617154332712390,0.0,0.0,0.0,0.0,0.0,0.0
1449617154445733203,0.0,0.0,0.0,0.0,0.0,0.4
1449617154513868509,0.0,0.0,0.0,0.0,0.0,0.4
1449617154634033383,0.0,0.0,0.0,0.0,0.0,0.4
1449617154683926288,0.0,0.0,0.0,0.0,0.0,0.4
1449617154792656675,0.0,0.0,0.0,0.0,0.0,0.4
1449617154875974021,0.0,0.0,0.0,0.0,0.0,0.4
1449617154877331404,0.0,0.0,0.0,0.0,0.0,0.0
1449617154889839929,0.0,0.0,0.0,0.0,0.0,0.0
1449617155587700868,0.12,0.0,0.0,0.0,0.0,0.0
1449617155657991541,0.12,0.0,0.0,0.0,0.0,0.0
1449617155706013463,0.12,0.0,0.0,0.0,0.0,0.0
1449617155745681895,0.12,0.0,0.0,0.0,0.0,0.0
1449617155821803345,0.12,0.0,0.0,0.0,0.0,0.0
1449617155869810066,0.12,0.0,0.0,0.0,0.0,0.0
1449617155921392246,0.12,0.0,0.0,0.0,0.0,0.0
1449617155961751600,0.12,0.0,0.0,0.0,0.0,0.0
1449617156025909838,0.12,0.0,0.0,0.0,0.0,0.0631578947368
1449617156075972138,0.12,0.0,0.0,0.0,0.0,0.0631578947368
1449617156168747820,0.12,0.0,0.0,0.0,0.0,0.0631578947368
1449617156262119839,0.12,0.0,0.0,0.0,0.0,0.0631578947368
1449617156331701089,0.12,0.0,0.0,0.0,0.0,0.0631578947368
1449617156416160864,0.12,0.0,0.0,0.0,0.0,0.0631578947368
1449617156483876116,0.12,0.0,0.0,0.0,0.0,0.0631578947368
1449617156598073480,0.12,0.0,0.0,0.0,0.0,0.0
1449617156665519101,0.12,0.0,0.0,0.0,0.0,0.0210526315789
1449617156760113135,0.12,0.0,0.0,0.0,0.0,0.105263157895
1449617156836645843,0.12,0.0,0.0,0.0,0.0,0.147368421053
1449617156910095369,0.12,0.0,0.0,0.0,0.0,0.0
1449617156965422225,0.12,0.0,0.0,0.0,0.0,-0.147368421053
1449617157025677790,0.12,0.0,0.0,0.0,0.0,0.189473684211
1449617157106766810,0.12,0.0,0.0,0.0,0.0,0.189473684211
1449617157153009742,0.12,0.0,0.0,0.0,0.0,0.231578947368
1449617157221035859,0.0,0.0,0.0,0.0,0.0,0.31
1449617157294485022,0.0,0.0,0.0,0.0,0.0,0.31
1449617157398805231,0.0,0.0,0.0,0.0,0.0,0.31
1449617157403406064,0.0,0.0,0.0,0.0,0.0,0.0
1449617157443205374,0.0,0.0,0.0,0.0,0.0,0.0
1449617160167848014,0.160551463012,0.0,0.0,0.0,0.0,-0.105263157895
1449617160249365119,0.156723713487,0.0,0.0,0.0,0.0,-0.105263157895
1449617160295219087,0.152896549288,0.0,0.0,0.0,0.0,-0.105263157895
1449617160363369052,0.150983214247,0.0,0.0,0.0,0.0,-0.105263157895
1449617160415420798,0.147157039083,0.0,0.0,0.0,0.0,-0.105263157895
1449617160459545385,0.145244227545,0.0,0.0,0.0,0.0,-0.105263157895
1449617160507905645,0.14333169269,0.0,0.0,0.0,0.0,-0.105263157895
1449617160562513016,0.141419266018,0.0,0.0,0.0,0.0,-0.105263157895
1449617160630501953,0.137595033942,0.0,0.0,0.0,0.0,-0.105263157895
1449617160710326827,0.132813262991,0.0,0.0,0.0,0.0,-0.105263157895
1449617160803499976,0.128987336132,0.0,0.0,0.0,0.0,-0.105263157895
1449617160878569910,0.124132070934,0.0,0.0,0.0,0.0,-0.105263157895
1449617160920673951,0.12,0.0,0.0,0.0,0.0,-0.105263157895
1449617160990036212,0.12,0.0,0.0,0.0,0.0,-0.147368421053
1449617161081983100,0.12,0.0,0.0,0.0,0.0,-0.105263157895
1449617161157310817,0.12,0.0,0.0,0.0,0.0,-0.147368421053
1449617161222941771,0.12,0.0,0.0,0.0,0.0,-0.147368421053
1449617161300686108,0.12,0.0,0.0,0.0,0.0,0.0
1449617161387122455,0.12,0.0,0.0,0.0,0.0,-0.231578947368
1449617161461305923,0.12,0.0,0.0,0.0,0.0,-0.273684210526
1449617161529250799,0.12,0.0,0.0,0.0,0.0,-0.357894736842
1449617161595744750,0.12,0.0,0.0,0.0,0.0,-0.357894736842
1449617161666571289,0.0,0.0,0.0,0.0,0.0,-0.315789473684
1449617161724135663,0.0,0.0,0.0,0.0,0.0,-0.315789473684
1449617161725101060,0.0,0.0,0.0,0.0,0.0,0.0
1449617161764929263,0.0,0.0,0.0,0.0,0.0,0.0
1449617165074875936,0.238676094498,0.0,0.0,0.0,0.0,0.0
1449617165175639307,0.226247832779,0.0,0.0,0.0,0.0,-0.0841267658535
1449617165231203640,0.220533098619,0.0,0.0,0.0,0.0,-0.100812270516
1449617165286549308,0.213899340296,0.0,0.0,0.0,0.0,-0.124472151556
1449617165341873605,0.21201416276,0.0,0.0,0.0,0.0,-0.142546748739
1449617165393818909,0.208245708403,0.0,0.0,0.0,0.0,-0.124492644574
1449617165465271491,0.205427171318,0.0,0.0,0.0,0.0,-0.14361134573
1449617165565311750,0.197031048826,0.0,0.0,0.0,0.0,-0.182869550554
1449617165639917375,0.191479733787,0.0,0.0,0.0,0.0,-0.189473684211
1449617165683748413,0.189634803688,0.0,0.0,0.0,0.0,-0.189473684211
1449617165747238331,0.182319357907,0.0,0.0,0.0,0.0,-0.231578947368
1449617165818273055,0.179593667071,0.0,0.0,0.0,0.0,-0.231578947368
1449617165919860859,0.173277357666,0.0,0.0,0.0,0.0,-0.273684210526
1449617166001722038,0.165236895109,0.0,0.0,0.0,0.0,-0.273684210526
1449617166095036847,0.159054637901,0.0,0.0,0.0,0.0,-0.315789473684
1449617166247333349,0.152930464232,0.0,0.0,0.0,0.0,-0.357894736842
1449617166314504786,0.140882155318,0.0,0.0,0.0,0.0,-0.4
1449617166430683009,0.13411612367,0.0,0.0,0.0,0.0,-0.4
1449617166502650726,0.123326649391,0.0,0.0,0.0,0.0,-0.4
1449617166599976200,0.12,0.0,0.0,0.0,0.0,-0.4
1449617166719912100,0.12,0.0,0.0,0.0,0.0,-0.4
1449617166816622712,0.12,0.0,0.0,0.0,0.0,-0.4
1449617166907282472,0.150868655414,0.0,0.0,0.0,0.0,-0.0210526315789
1449617166965278729,0.145114583705,0.0,0.0,0.0,0.0,-0.0210526315789
1449617167011382658,0.137443253662,0.0,0.0,0.0,0.0,-0.0210526315789
1449617167064265343,0.134568416873,0.0,0.0,0.0,0.0,-0.0631578947368
1449617167132813976,0.12858847745,0.0,0.0,0.0,0.0,-0.0631578947368
1449617167209185487,0.125522564229,0.0,0.0,0.0,0.0,-0.0631578947368
1449617167209222999,0.0,0.0,0.0,0.0,0.0,0.0
1449617167235579643,0.0,0.0,0.0,0.0,0.0,0.0
1449617167349996479,0.0,0.0,0.0,0.0,0.0,0.0
1449617167400138767,0.0,0.0,0.0,0.0,0.0,0.0
1449617167528813899,0.0,0.0,0.0,0.0,0.0,0.0
1449617167674772912,0.0,0.0,0.0,0.0,0.0,0.0
1449617167726734166,0.0,0.0,0.0,0.0,0.0,0.0
1449617167831716409,0.0,0.0,0.0,0.0,0.0,0.0
1449617167893191935,0.0,0.0,0.0,0.0,0.0,0.0
1449617168033872423,0.0,0.0,0.0,0.0,0.0,0.0
1449617168083821874,0.0,0.0,0.0,0.0,0.0,0.0
1449617168155863131,0.0,0.0,0.0,0.0,0.0,0.0
1449617168254328914,0.0,0.0,0.0,0.0,0.0,0.0
1449617168301773396,0.0,0.0,0.0,0.0,0.0,0.0
1449617168457367591,0.0,0.0,0.0,0.0,0.0,0.0
1449617168507174941,0.0,0.0,0.0,0.0,0.0,0.0
1449617168571807775,0.0,0.0,0.0,0.0,0.0,0.0
1449617168671833012,0.0,0.0,0.0,0.0,0.0,0.0
1449617168772808163,0.0,0.0,0.0,0.0,0.0,0.0
1449617168871110894,0.0,0.0,0.0,0.0,0.0,0.0
1449617168974118154,0.0,0.0,0.0,0.0,0.0,0.0
1449617169029643906,0.0,0.0,0.0,0.0,0.0,0.0
1449617169237968588,0.0,0.0,0.0,0.0,0.0,0.0
1449617169287992015,0.0,0.0,0.0,0.0,0.0,0.0
1449617169367644691,0.0,0.0,0.0,0.0,0.0,0.0
1449617169423640893,0.0,0.0,0.0,0.0,0.0,0.0
1449617169481865486,0.0,0.0,0.0,0.0,0.0,0.0
1449617169580831321,0.0,0.0,0.0,0.0,0.0,0.0
1449617169635046159,0.0,0.0,0.0,0.0,0.0,0.0
1449617169857763544,0.0,0.0,0.0,0.0,0.0,0.4
1449617169924005547,0.0,0.0,0.0,0.0,0.0,0.4
1449617169993240099,0.0,0.0,0.0,0.0,0.0,0.4
1449617169999303704,0.0,0.0,0.0,0.0,0.0,0.0
1449617170163977179,0.0,0.0,0.0,0.0,0.0,0.0
1449617170197770538,0.0,0.0,0.0,0.0,0.0,0.0
1449617170276701913,0.0,0.0,0.0,0.0,0.0,0.0
1449617170326046773,0.0,0.0,0.0,0.0,0.0,0.0
1449617170449496086,0.0,0.0,0.0,0.0,0.0,0.0
1449617170497235217,0.0,0.0,0.0,0.0,0.0,0.0
1449617170547771266,0.0,0.0,0.0,0.0,0.0,0.0
1449617170648842993,0.0,0.0,0.0,0.0,0.0,0.0
1449617170699071153,0.0,0.0,0.0,0.0,0.0,0.0
1449617170854216587,0.0,0.0,0.0,0.0,0.0,0.0
1449617170903094085,0.0,0.0,0.0,0.0,0.0,0.0
1449617170987084393,0.0,0.0,0.0,0.0,0.0,0.0
1449617171035719423,0.0,0.0,0.0,0.0,0.0,0.0
1449617171238244487,0.12,0.0,0.0,0.0,0.0,0.0
1449617171419924417,0.162008992141,0.0,0.0,0.0,0.0,0.0
1449617171499292078,0.161049149107,0.0,0.0,0.0,0.0,0.0210526315789
1449617171571124129,0.160089551032,0.0,0.0,0.0,0.0,0.0
1449617171680516168,0.160089551032,0.0,0.0,0.0,0.0,0.0
1449617171740078745,0.150536094977,0.0,0.0,0.0,0.0,0.0631578947368
1449617171821549921,0.157210282168,0.0,0.0,0.0,0.0,0.0210526315789
1449617171909580027,0.155290586488,0.0,0.0,0.0,0.0,0.0210526315789
1449617171973793021,0.145929075717,0.0,0.0,0.0,0.0,0.0631578947368
1449617172032303636,0.149531917604,0.0,0.0,0.0,0.0,0.0210526315789
1449617172116455380,0.147612245735,0.0,0.0,0.0,0.0,0.0210526315789
1449617172169877337,0.143773025227,0.0,0.0,0.0,0.0,0.0210526315789
1449617172241899504,0.140893265884,0.0,0.0,0.0,0.0,0.0210526315789
1449617172369696638,0.139933427004,0.0,0.0,0.0,0.0,0.0210526315789
1449617172468438222,0.131294302911,0.0,0.0,0.0,0.0,0.0210526315789
1449617172554498603,0.12553483486,0.0,0.0,0.0,0.0,0.0210526315789
1449617172622170123,0.12,0.0,0.0,0.0,0.0,0.0210526315789
1449617172699297870,0.12,0.0,0.0,0.0,0.0,0.0
1449617172785688033,0.12,0.0,0.0,0.0,0.0,0.0
1449617172867550429,0.12,0.0,0.0,0.0,0.0,0.0
1449617173018694551,0.12,0.0,0.0,0.0,0.0,0.0
1449617173102696326,0.12,0.0,0.0,0.0,0.0,-0.0631578947368
1449617173153110797,0.12,0.0,0.0,0.0,0.0,-0.0631578947368
1449617173192412738,0.12,0.0,0.0,0.0,0.0,0.0
1449617173288539902,0.12,0.0,0.0,0.0,0.0,-0.105263157895
1449617173332450441,0.0,0.0,0.0,0.0,0.0,-0.4
1449617173404333542,0.0,0.0,0.0,0.0,0.0,0.31
1449617173490062550,0.0,0.0,0.0,0.0,0.0,-0.31
1449617173490066069,0.0,0.0,0.0,0.0,0.0,0.0
1449617173584079604,0.0,0.0,0.0,0.0,0.0,0.0
1449617173673703983,0.0,0.0,0.0,0.0,0.0,0.0
1449617173774342991,0.0,0.0,0.0,0.0,0.0,0.0
1449617173828392877,0.0,0.0,0.0,0.0,0.0,0.0
1449617173881707464,0.0,0.0,0.0,0.0,0.0,0.0
1449617173931904592,0.0,0.0,0.0,0.0,0.0,0.0
1449617173990006761,0.0,0.0,0.0,0.0,0.0,0.0
1449617174089991461,0.0,0.0,0.0,0.0,0.0,0.0
1449617174189972300,0.0,0.0,0.0,0.0,0.0,0.0
1449617174290157885,0.0,0.0,0.0,0.0,0.0,0.0
1449617174391729993,0.0,0.0,0.0,0.0,0.0,0.0
1449617174440403580,0.0,0.0,0.0,0.0,0.0,0.0
1449617174497745970,0.0,0.0,0.0,0.0,0.0,0.0
1449617174657642840,0.352,0.0,0.0,0.0,0.0,0.105263157895
1449617174713335910,0.352,0.0,0.0,0.0,0.0,0.105263157895
1449617174769954723,0.352,0.0,0.0,0.0,0.0,0.105263157895
1449617174827471308,0.352,0.0,0.0,0.0,0.0,0.105263157895
1449617174900831768,0.352,0.0,0.0,0.0,0.0,0.105263157895
1449617174996844395,0.352,0.0,0.0,0.0,0.0,0.105263157895
1449617175056536556,0.352,0.0,0.0,0.0,0.0,0.105263157895
1449617175118707156,0.352,0.0,0.0,0.0,0.0,0.105263157895
1449617175181383807,0.352,0.0,0.0,0.0,0.0,0.105263157895
1449617175246530878,0.352,0.0,0.0,0.0,0.0,0.105263157895
1449617175310336505,0.352,0.0,0.0,0.0,0.0,0.105263157895
1449617175373352072,0.352,0.0,0.0,0.0,0.0,0.105263157895
1449617175445509613,0.352,0.0,0.0,0.0,0.0,0.105263157895
1449617175532757210,0.352,0.0,0.0,0.0,0.0,0.105263157895
1449617175598208144,0.352,0.0,0.0,0.0,0.0,0.105263157895
1449617175732719830,0.352,0.0,0.0,0.0,0.0,0.105263157895
1449617175807250572,0.352,0.0,0.0,0.0,0.0,0.105263157895
1449617175908486864,0.352,0.0,0.0,0.0,0.0,0.105263157895
1449617176028782161,0.352,0.0,0.0,0.0,0.0,0.105263157895
1449617176167396055,0.352,0.0,0.0,0.0,0.0,0.0631578947368
1449617176278045696,0.352,0.0,0.0,0.0,0.0,0.0631578947368
1449617176361612448,0.352,0.0,0.0,0.0,0.0,0.0631578947368
1449617176455321047,0.352,0.0,0.0,0.0,0.0,0.0631578947368
1449617176534674185,0.352,0.0,0.0,0.0,0.0,0.0631578947368
1449617176593008280,0.352,0.0,0.0,0.0,0.0,0.0631578947368
1449617176724091315,0.352,0.0,0.0,0.0,0.0,0.0631578947368
1449617176814567117,0.352,0.0,0.0,0.0,0.0,0.0210526315789
1449617176941968946,0.352,0.0,0.0,0.0,0.0,0.0210526315789
1449617177003296757,0.352,0.0,0.0,0.0,0.0,0.0
1449617177078391476,0.352,0.0,0.0,0.0,0.0,0.0210526315789
1449617177174481636,0.352,0.0,0.0,0.0,0.0,-0.0210526315789
1449617177264778036,0.352,0.0,0.0,0.0,0.0,0.0
1449617177361670117,0.352,0.0,0.0,0.0,0.0,-0.0210526315789
1449617177444860767,0.352,0.0,0.0,0.0,0.0,-0.0210526315789
1449617177528227491,0.352,0.0,0.0,0.0,0.0,-0.0210526315789
1449617177623428996,0.352,0.0,0.0,0.0,0.0,-0.0631578947368
1449617177730851895,0.352,0.0,0.0,0.0,0.0,-0.0631578947368
1449617177838026293,0.352,0.0,0.0,0.0,0.0,-0.0631578947368
1449617177873797122,0.352,0.0,0.0,0.0,0.0,-0.0631578947368
1449617178019435923,0.352,0.0,0.0,0.0,0.0,-0.0631578947368
1449617178069465994,0.352,0.0,0.0,0.0,0.0,-0.105263157895
1449617178128695156,0.352,0.0,0.0,0.0,0.0,-0.105263157895
1449617178169534505,0.352,0.0,0.0,0.0,0.0,-0.105263157895
1449617178249246761,0.352,0.0,0.0,0.0,0.0,-0.105263157895
1449617178314282007,0.352,0.0,0.0,0.0,0.0,-0.105263157895
1449617178385293442,0.352,0.0,0.0,0.0,0.0,-0.105263157895
1449617178473918329,0.352,0.0,0.0,0.0,0.0,-0.105263157895
1449617178547403927,0.352,0.0,0.0,0.0,0.0,-0.105263157895
1449617178585394771,0.352,0.0,0.0,0.0,0.0,-0.105263157895
1449617178654250156,0.352,0.0,0.0,0.0,0.0,-0.105263157895
1449617178725679701,0.352,0.0,0.0,0.0,0.0,-0.105263157895
1449617178773952228,0.352,0.0,0.0,0.0,0.0,-0.105263157895
1449617178849743578,0.352,0.0,0.0,0.0,0.0,-0.105263157895
1449617178906883656,0.352,0.0,0.0,0.0,0.0,-0.105263157895
1449617178958911568,0.352,0.0,0.0,0.0,0.0,-0.105263157895
1449617179034571081,0.352,0.0,0.0,0.0,0.0,-0.105263157895
1449617179099062042,0.352,0.0,0.0,0.0,0.0,-0.105263157895
1449617179152545599,0.352,0.0,0.0,0.0,0.0,-0.105263157895
1449617179211110184,0.352,0.0,0.0,0.0,0.0,-0.105263157895
1449617179264323121,0.352,0.0,0.0,0.0,0.0,-0.105263157895
1449617179322691330,0.352,0.0,0.0,0.0,0.0,-0.105263157895
1449617179400582530,0.352,0.0,0.0,0.0,0.0,-0.105263157895
1449617179460350589,0.352,0.0,0.0,0.0,0.0,-0.105263157895
1449617179530466396,0.352,0.0,0.0,0.0,0.0,-0.105263157895
1449617179588386513,0.352,0.0,0.0,0.0,0.0,-0.105263157895
1449617179709940128,0.352,0.0,0.0,0.0,0.0,-0.105263157895
1449617180047954473,0.352,0.0,0.0,0.0,0.0,-0.0631578947368
1449617180154550570,0.352,0.0,0.0,0.0,0.0,-0.0631578947368
1449617180243096213,0.352,0.0,0.0,0.0,0.0,-0.0631578947368
1449617180310658822,0.352,0.0,0.0,0.0,0.0,-0.0631578947368
1449617180410549836,0.352,0.0,0.0,0.0,0.0,-0.0631578947368
1449617180487593325,0.352,0.0,0.0,0.0,0.0,-0.0631578947368
1449617180560631677,0.352,0.0,0.0,0.0,0.0,-0.0631578947368
1449617180637380972,0.352,0.0,0.0,0.0,0.0,-0.0631578947368
1449617180733746518,0.352,0.0,0.0,0.0,0.0,-0.0210526315789
1449617180785193947,0.352,0.0,0.0,0.0,0.0,-0.0210526315789
1449617180845660849,0.352,0.0,0.0,0.0,0.0,0.0
1449617180908428440,0.352,0.0,0.0,0.0,0.0,0.0
1449617181022585889,0.352,0.0,0.0,0.0,0.0,0.0
1449617181083789303,0.352,0.0,0.0,0.0,0.0,0.0
1449617181131066420,0.352,0.0,0.0,0.0,0.0,0.0
1449617181229184854,0.352,0.0,0.0,0.0,0.0,-0.0210526315789
1449617181324275681,0.352,0.0,0.0,0.0,0.0,0.0210526315789
1449617181390530099,0.352,0.0,0.0,0.0,0.0,0.0
1449617181517021828,0.352,0.0,0.0,0.0,0.0,0.0
1449617181626014222,0.352,0.0,0.0,0.0,0.0,0.0210526315789
1449617181665293252,0.352,0.0,0.0,0.0,0.0,0.0210526315789
1449617181737890069,0.352,0.0,0.0,0.0,0.0,0.0631578947368
1449617181818138782,0.352,0.0,0.0,0.0,0.0,0.0631578947368
1449617181883176160,0.352,0.0,0.0,0.0,0.0,0.0631578947368
1449617181960231906,0.352,0.0,0.0,0.0,0.0,0.0631578947368
1449617182036857254,0.352,0.0,0.0,0.0,0.0,0.0631578947368
1449617182110743648,0.352,0.0,0.0,0.0,0.0,0.105263157895
1449617182237894465,0.352,0.0,0.0,0.0,0.0,0.105263157895
1449617182288681707,0.352,0.0,0.0,0.0,0.0,0.105263157895
1449617182347908484,0.352,0.0,0.0,0.0,0.0,0.105263157895
1449617182419189562,0.352,0.0,0.0,0.0,0.0,0.105263157895
1449617182473545412,0.352,0.0,0.0,0.0,0.0,0.105263157895
1449617182524407957,0.352,0.0,0.0,0.0,0.0,0.147368421053
1449617182662142360,0.352,0.0,0.0,0.0,0.0,0.147368421053
1449617182711212844,0.352,0.0,0.0,0.0,0.0,0.105263157895
1449617182798113813,0.352,0.0,0.0,0.0,0.0,0.147368421053
1449617182892668253,0.352,0.0,0.0,0.0,0.0,0.147368421053
1449617182986049208,0.352,0.0,0.0,0.0,0.0,0.147368421053
1449617183054986387,0.352,0.0,0.0,0.0,0.0,0.147368421053
1449617183117540325,0.352,0.0,0.0,0.0,0.0,0.147368421053
1449617183193563450,0.352,0.0,0.0,0.0,0.0,0.147368421053
1449617183249375243,0.345282719935,0.0,0.0,0.0,0.0,0.147368421053
1449617183331560175,0.340582226674,0.0,0.0,0.0,0.0,0.147368421053
1449617183414192862,0.333067617955,0.0,0.0,0.0,0.0,0.147368421053
1449617183509727377,0.326483827078,0.0,0.0,0.0,0.0,0.147368421053
1449617183615591055,0.31424511977,0.0,0.0,0.0,0.0,0.147368421053
1449617183721707070,0.305773531645,0.0,0.0,0.0,0.0,0.147368421053
1449617183843392408,0.295404238359,0.0,0.0,0.0,0.0,0.147368421053
1449617183899639160,0.284103825908,0.0,0.0,0.0,0.0,0.147368421053
1449617184010980102,0.281275717529,0.0,0.0,0.0,0.0,0.147368421053
1449617184084374789,0.270901239049,0.0,0.0,0.0,0.0,0.147368421053
1449617184136187600,0.262400384176,0.0,0.0,0.0,0.0,0.147368421053
1449617184181984134,0.258625188117,0.0,0.0,0.0,0.0,0.147368421053
1449617184242426139,0.255789487411,0.0,0.0,0.0,0.0,0.147368421053
1449617184313735470,0.2501212012,0.0,0.0,0.0,0.0,0.147368421053
1449617184386570326,0.243508196068,0.0,0.0,0.0,0.0,0.147368421053
1449617184444238597,0.240667502896,0.0,0.0,0.0,0.0,0.105263157895
1449617184568385723,0.233097110206,0.0,0.0,0.0,0.0,0.147368421053
1449617184666160108,0.224576955481,0.0,0.0,0.0,0.0,0.147368421053
1449617184741812116,0.217945524947,0.0,0.0,0.0,0.0,0.105263157895
1449617184782237403,0.214156623301,0.0,0.0,0.0,0.0,0.147368421053
1449617184868468609,0.209418124265,0.0,0.0,0.0,0.0,0.105263157895
1449617184936909428,0.205626869794,0.0,0.0,0.0,0.0,0.105263157895
1449617185007423096,0.20277970271,0.0,0.0,0.0,0.0,0.105263157895
1449617185080175065,0.198984996947,0.0,0.0,0.0,0.0,0.105263157895
1449617185143084248,0.194239383304,0.0,0.0,0.0,0.0,0.105263157895
1449617185256878846,0.190442470167,0.0,0.0,0.0,0.0,0.105263157895
1449617185349021832,0.187594341944,0.0,0.0,0.0,0.0,0.105263157895
1449617185392408558,0.183794350702,0.0,0.0,0.0,0.0,0.105263157895
1449617185501150949,0.179996045971,0.0,0.0,0.0,0.0,0.105263157895
1449617185547195198,0.176199440333,0.0,0.0,0.0,0.0,0.147368421053
1449617185640342144,0.175249198761,0.0,0.0,0.0,0.0,0.105263157895
1449617185751895284,0.169545238458,0.0,0.0,0.0,0.0,0.105263157895
1449617185843024709,0.164794198917,0.0,0.0,0.0,0.0,0.105263157895
1449617185938309771,0.161941748493,0.0,0.0,0.0,0.0,0.105263157895
1449617186022036862,0.158136209365,0.0,0.0,0.0,0.0,0.105263157895
1449617186106142164,0.156235451211,0.0,0.0,0.0,0.0,0.105263157895
1449617186194049614,0.152432535378,0.0,0.0,0.0,0.0,0.105263157895
1449617186271869553,0.149577499426,0.0,0.0,0.0,0.0,0.105263157895
1449617186325606234,0.147674583505,0.0,0.0,0.0,0.0,0.105263157895
1449617186400616803,0.144819873712,0.0,0.0,0.0,0.0,0.105263157895
1449617186481341738,0.142916656551,0.0,0.0,0.0,0.0,0.105263157895
1449617186562728851,0.141012669283,0.0,0.0,0.0,0.0,0.105263157895
1449617186649757112,0.139109117951,0.0,0.0,0.0,0.0,0.105263157895
1449617186736564109,0.133002622686,0.0,0.0,0.0,0.0,0.105263157895
1449617186821717175,0.131479673203,0.0,0.0,0.0,0.0,0.105263157895
1449617186872486631,0.129956050924,0.0,0.0,0.0,0.0,0.105263157895
1449617186915751449,0.12843260705,0.0,0.0,0.0,0.0,0.105263157895
1449617186989273534,0.127670144724,0.0,0.0,0.0,0.0,0.105263157895
1449617187063183048,0.126908641126,0.0,0.0,0.0,0.0,0.105263157895
1449617187164761883,0.125385034223,0.0,0.0,0.0,0.0,0.105263157895
1449617187205840976,0.123467189605,0.0,0.0,0.0,0.0,0.105263157895
1449617187285500905,0.122896352082,0.0,0.0,0.0,0.0,0.147368421053
1449617187354803593,0.121549937048,0.0,0.0,0.0,0.0,0.105263157895
1449617187454036894,0.12,0.0,0.0,0.0,0.0,0.105263157895
1449617187476581182,0.12,0.0,0.0,0.0,0.0,0.105263157895
1449617187558450289,0.12,0.0,0.0,0.0,0.0,0.105263157895
1449617187612157150,0.12,0.0,0.0,0.0,0.0,0.105263157895
1449617187729707185,0.12,0.0,0.0,0.0,0.0,0.105263157895
1449617187774134703,0.12,0.0,0.0,0.0,0.0,0.105263157895
1449617187828143234,0.12,0.0,0.0,0.0,0.0,0.105263157895
1449617187890784448,0.12,0.0,0.0,0.0,0.0,0.105263157895
1449617187953252926,0.12,0.0,0.0,0.0,0.0,0.105263157895
1449617188042696607,0.12,0.0,0.0,0.0,0.0,0.105263157895
1449617188094770742,0.12,0.0,0.0,0.0,0.0,0.105263157895
1449617188145892096,0.12,0.0,0.0,0.0,0.0,0.0631578947368
1449617188245051133,0.12,0.0,0.0,0.0,0.0,0.0631578947368
1449617188300988833,0.12,0.0,0.0,0.0,0.0,0.0631578947368
1449617188345152668,0.12,0.0,0.0,0.0,0.0,0.0631578947368
1449617188396080799,0.12,0.0,0.0,0.0,0.0,0.0631578947368
1449617188446161417,0.12,0.0,0.0,0.0,0.0,0.0631578947368
1449617188496614806,0.12,0.0,0.0,0.0,0.0,0.0631578947368
1449617188568586880,0.12,0.0,0.0,0.0,0.0,0.0631578947368
1449617188619928357,0.12,0.0,0.0,0.0,0.0,0.0631578947368
1449617188689815129,0.12,0.0,0.0,0.0,0.0,0.0631578947368
1449617188741186308,0.12,0.0,0.0,0.0,0.0,0.0631578947368
1449617188789641068,0.12,0.0,0.0,0.0,0.0,0.0631578947368
1449617188837887248,0.12,0.0,0.0,0.0,0.0,0.0631578947368
1449617188891109773,0.12,0.0,0.0,0.0,0.0,0.0631578947368
1449617188929776406,0.12,0.0,0.0,0.0,0.0,0.0631578947368
1449617188983784320,0.12,0.0,0.0,0.0,0.0,0.0631578947368
1449617189054123070,0.12,0.0,0.0,0.0,0.0,0.0631578947368
1449617189134412761,0.12,0.0,0.0,0.0,0.0,0.0631578947368
1449617189262777455,0.12,0.0,0.0,0.0,0.0,0.0631578947368
1449617189333969917,0.12,0.0,0.0,0.0,0.0,0.0631578947368
1449617189419331402,0.12,0.0,0.0,0.0,0.0,0.0631578947368
1449617189504183141,0.12,0.0,0.0,0.0,0.0,0.0631578947368
1449617189625602013,0.12,0.0,0.0,0.0,0.0,0.0631578947368
1449617189690327366,0.12,0.0,0.0,0.0,0.0,0.0631578947368
1449617189713271803,0.0,0.0,0.0,0.0,0.0,0.0
1449617189768591747,0.0,0.0,0.0,0.0,0.0,0.0
1449617189942273430,0.0,0.0,0.0,0.0,0.0,0.4
1449617190006787000,0.0,0.0,0.0,0.0,0.0,0.4
1449617190058183093,0.0,0.0,0.0,0.0,0.0,0.4
1449617190172209823,0.0,0.0,0.0,0.0,0.0,0.4
1449617190321634529,0.0,0.0,0.0,0.0,0.0,0.4
1449617190381618723,0.0,0.0,0.0,0.0,0.0,0.4
1449617190493043558,0.0,0.0,0.0,0.0,0.0,0.4
1449617190632049459,0.0,0.0,0.0,0.0,0.0,0.4
1449617190694448657,0.0,0.0,0.0,0.0,0.0,0.4
1449617190783888141,0.0,0.0,0.0,0.0,0.0,0.4
1449617190864347160,0.0,0.0,0.0,0.0,0.0,0.4
1449617190956947027,0.0,0.0,0.0,0.0,0.0,0.4
1449617191053853350,0.0,0.0,0.0,0.0,0.0,0.4
1449617191123520837,0.0,0.0,0.0,0.0,0.0,0.357894736842
1449617191200065464,0.0,0.0,0.0,0.0,0.0,0.4
1449617191285297866,0.0,0.0,0.0,0.0,0.0,0.4
1449617191361364129,0.0,0.0,0.0,0.0,0.0,0.357894736842
1449617191559583951,0.12,0.0,0.0,0.0,0.0,-0.189473684211
1449617191630248324,0.12,0.0,0.0,0.0,0.0,-0.147368421053
1449617191630324299,0.0,0.0,0.0,0.0,0.0,0.0
1449617191669412811,0.0,0.0,0.0,0.0,0.0,0.0
1449617192042848237,0.12,0.0,0.0,0.0,0.0,-0.0631578947368
1449617192157723279,0.12,0.0,0.0,0.0,0.0,-0.0631578947368
1449617192287813076,0.12,0.0,0.0,0.0,0.0,0.0
1449617192425044670,0.12,0.0,0.0,0.0,0.0,-0.0631578947368
1449617192495010684,0.12,0.0,0.0,0.0,0.0,0.0
1449617192638493968,0.12,0.0,0.0,0.0,0.0,-0.0631578947368
1449617192741077329,0.12,0.0,0.0,0.0,0.0,-0.0631578947368
1449617192882877700,0.293431374866,0.0,0.0,0.0,0.0,0.105263157895
1449617192986118179,0.300999205541,0.0,0.0,0.0,0.0,0.105263157895
1449617193050330475,0.308567496622,0.0,0.0,0.0,0.0,0.105263157895
1449617193112337329,0.317079734245,0.0,0.0,0.0,0.0,0.105263157895
1449617193173594985,0.325606973198,0.0,0.0,0.0,0.0,0.105263157895
1449617193301358134,0.329398817169,0.0,0.0,0.0,0.0,0.105263157895
1449617193373905079,0.344576499754,0.0,0.0,0.0,0.0,0.105263157895
1449617193443725658,0.352,0.0,0.0,0.0,0.0,0.105263157895
1449617193502515384,0.352,0.0,0.0,0.0,0.0,0.105263157895
1449617193576097151,0.352,0.0,0.0,0.0,0.0,0.105263157895
1449617193650039994,0.352,0.0,0.0,0.0,0.0,0.105263157895
1449617193708572219,0.352,0.0,0.0,0.0,0.0,0.105263157895
1449617193776302464,0.352,0.0,0.0,0.0,0.0,0.105263157895
1449617193845704707,0.352,0.0,0.0,0.0,0.0,0.0631578947368
1449617193912511809,0.352,0.0,0.0,0.0,0.0,0.0631578947368
1449617193972387447,0.352,0.0,0.0,0.0,0.0,0.0631578947368
1449617194035435638,0.352,0.0,0.0,0.0,0.0,0.0631578947368
1449617194112020258,0.352,0.0,0.0,0.0,0.0,0.0631578947368
1449617194212318556,0.352,0.0,0.0,0.0,0.0,0.0631578947368
1449617194307678804,0.352,0.0,0.0,0.0,0.0,0.0631578947368
1449617194417627797,0.352,0.0,0.0,0.0,0.0,0.0631578947368
1449617194499586027,0.352,0.0,0.0,0.0,0.0,0.0210526315789
1449617194580301006,0.352,0.0,0.0,0.0,0.0,0.0
1449617194629465695,0.352,0.0,0.0,0.0,0.0,0.0
1449617194695432570,0.352,0.0,0.0,0.0,0.0,0.0210526315789
1449617194803593507,0.352,0.0,0.0,0.0,0.0,0.0210526315789
1449617194898218563,0.352,0.0,0.0,0.0,0.0,0.0210526315789
1449617194969964919,0.352,0.0,0.0,0.0,0.0,0.0210526315789
1449617195188885493,0.352,0.0,0.0,0.0,0.0,0.0210526315789
1449617195270739039,0.352,0.0,0.0,0.0,0.0,0.0
1449617195327717152,0.352,0.0,0.0,0.0,0.0,0.0
1449617195397324277,0.352,0.0,0.0,0.0,0.0,0.0
1449617195467247313,0.352,0.0,0.0,0.0,0.0,0.0
1449617195561509760,0.352,0.0,0.0,0.0,0.0,0.0
1449617195716620317,0.352,0.0,0.0,0.0,0.0,0.0210526315789
1449617195716623798,0.0,0.0,0.0,0.0,0.0,0.0
1449617195876879702,0.352,0.0,0.0,0.0,0.0,-0.0210526315789
1449617195948387535,0.352,0.0,0.0,0.0,0.0,-0.0210526315789
1449617195997774817,0.352,0.0,0.0,0.0,0.0,0.0
1449617196101105536,0.352,0.0,0.0,0.0,0.0,-0.0210526315789
1449617196178501398,0.352,0.0,0.0,0.0,0.0,0.0
1449617196265443634,0.352,0.0,0.0,0.0,0.0,-0.0210526315789
1449617196367363332,0.352,0.0,0.0,0.0,0.0,-0.0210526315789
1449617196429498310,0.352,0.0,0.0,0.0,0.0,0.0
1449617196549365827,0.352,0.0,0.0,0.0,0.0,0.0
1449617196610555040,0.352,0.0,0.0,0.0,0.0,-0.0210526315789
1449617196654131714,0.352,0.0,0.0,0.0,0.0,-0.0210526315789
1449617196736846704,0.352,0.0,0.0,0.0,0.0,0.0
1449617196812916990,0.352,0.0,0.0,0.0,0.0,0.0
1449617196873210957,0.352,0.0,0.0,0.0,0.0,-0.0210526315789
1449617196925096856,0.352,0.0,0.0,0.0,0.0,-0.0210526315789
1449617197050602644,0.352,0.0,0.0,0.0,0.0,-0.0210526315789
1449617197123214569,0.352,0.0,0.0,0.0,0.0,-0.0631578947368
1449617197218599261,0.352,0.0,0.0,0.0,0.0,-0.0631578947368
1449617197296005904,0.352,0.0,0.0,0.0,0.0,-0.105263157895
1449617197350634339,0.352,0.0,0.0,0.0,0.0,-0.105263157895
1449617197411931578,0.352,0.0,0.0,0.0,0.0,-0.105263157895
1449617197524258737,0.352,0.0,0.0,0.0,0.0,-0.105263157895
1449617197602473621,0.352,0.0,0.0,0.0,0.0,-0.105263157895
1449617197689922869,0.352,0.0,0.0,0.0,0.0,-0.147368421053
1449617197751473031,0.352,0.0,0.0,0.0,0.0,-0.147368421053
1449617197833876704,0.352,0.0,0.0,0.0,0.0,-0.147368421053
1449617197925067186,0.352,0.0,0.0,0.0,0.0,-0.147368421053
1449617197975212303,0.352,0.0,0.0,0.0,0.0,-0.147368421053
1449617198053295222,0.352,0.0,0.0,0.0,0.0,-0.147368421053
1449617198134549285,0.352,0.0,0.0,0.0,0.0,-0.147368421053
1449617198183289408,0.352,0.0,0.0,0.0,0.0,-0.189473684211
1449617198261632873,0.352,0.0,0.0,0.0,0.0,-0.147368421053
1449617198382165177,0.352,0.0,0.0,0.0,0.0,-0.147368421053
1449617198447266435,0.352,0.0,0.0,0.0,0.0,-0.189473684211
1449617198567036022,0.352,0.0,0.0,0.0,0.0,-0.147368421053
1449617198648446420,0.352,0.0,0.0,0.0,0.0,-0.147368421053
1449617198761069122,0.352,0.0,0.0,0.0,0.0,-0.147368421053
1449617198829635895,0.352,0.0,0.0,0.0,0.0,-0.189473684211
1449617198924495800,0.352,0.0,0.0,0.0,0.0,-0.189473684211
1449617199003566187,0.352,0.0,0.0,0.0,0.0,-0.189473684211
1449617199063900256,0.352,0.0,0.0,0.0,0.0,-0.189473684211
1449617199183511214,0.352,0.0,0.0,0.0,0.0,-0.189473684211
1449617199275083236,0.352,0.0,0.0,0.0,0.0,-0.189473684211
1449617199327515939,0.352,0.0,0.0,0.0,0.0,-0.189473684211
1449617199456507299,0.352,0.0,0.0,0.0,0.0,-0.189473684211
1449617199537007871,0.352,0.0,0.0,0.0,0.0,-0.189473684211
1449617199654153579,0.352,0.0,0.0,0.0,0.0,-0.189473684211
1449617199724123493,0.352,0.0,0.0,0.0,0.0,-0.189473684211
1449617199786848984,0.352,0.0,0.0,0.0,0.0,-0.189473684211
1449617199924020592,0.352,0.0,0.0,0.0,0.0,-0.189473684211
1449617200014866271,0.352,0.0,0.0,0.0,0.0,-0.189473684211
1449617200113090899,0.352,0.0,0.0,0.0,0.0,-0.189473684211
1449617200179722907,0.352,0.0,0.0,0.0,0.0,-0.189473684211
1449617200290694685,0.352,0.0,0.0,0.0,0.0,-0.231578947368
1449617200377196191,0.352,0.0,0.0,0.0,0.0,-0.231578947368
1449617200518743016,0.0,0.0,0.0,0.0,0.0,-0.4
1449617200608451047,0.0,0.0,0.0,0.0,0.0,-0.4
1449617200703404799,0.0,0.0,0.0,0.0,0.0,-0.4
1449617200794760433,0.0,0.0,0.0,0.0,0.0,-0.4
1449617200874290207,0.0,0.0,0.0,0.0,0.0,-0.4
1449617200941033157,0.0,0.0,0.0,0.0,0.0,-0.4
1449617200988101303,0.0,0.0,0.0,0.0,0.0,-0.4
1449617201077907335,0.0,0.0,0.0,0.0,0.0,-0.4
