%time,field.header.seq,field.header.stamp,field.header.frame_id,field.status.goal_id.stamp,field.status.goal_id.id,field.status.status,field.status.text,field.feedback.base_position.header.seq,field.feedback.base_position.header.stamp,field.feedback.base_position.header.frame_id,field.feedback.base_position.pose.position.x,field.feedback.base_position.pose.position.y,field.feedback.base_position.pose.position.z,field.feedback.base_position.pose.orientation.x,field.feedback.base_position.pose.orientation.y,field.feedback.base_position.pose.orientation.z,field.feedback.base_position.pose.orientation.w
1449617109026443049,0,1449617109025092271,,1449617109023397459,/move_base-1-1449617109.23397459,1,This goal has been accepted by the simple action server,0,1449617108985237887,odom,0.0,0.0,0.0,0.0,0.0,0.0,1.0
1449617109077407571,1,1449617109076649148,,1449617109023397459,/move_base-1-1449617109.23397459,1,This goal has been accepted by the simple action server,0,1449617109065231866,odom,0.0,0.0,0.0,0.0,0.0,0.0,1.0
1449617109126040029,2,1449617109125668353,,1449617109023397459,/move_base-1-1449617109.23397459,1,This goal has been accepted by the simple action server,0,1449617109105220664,odom,0.0,0.0,0.0,0.0,0.0,0.0,1.0
1449617109160682412,3,1449617109159786844,,1449617109159414448,/move_base-2-1449617109.159414448,1,This goal has been accepted by the simple action server,0,1449617109145223970,odom,0.0,0.0,0.0,0.0,0.0,0.0,1.0
1449617109210873366,4,1449617109210483076,,1449617109159414448,/move_base-2-1449617109.159414448,1,This goal has been accepted by the simple action server,0,1449617109185220518,odom,0.0,0.0,0.0,0.0,0.0,0.0,1.0
1449617109261764764,5,1449617109261491796,,1449617109159414448,/move_base-2-1449617109.159414448,1,This goal has been accepted by the simple action server,0,1449617109225228182,odom,0.0,0.0,0.0,0.0,0.0,0.0,1.0
1449617109273786831,6,1449617109273326082,,1449617109273202710,/move_base-3-1449617109.273202710,1,This goal has been accepted by the simple action server,0,1449617109265247572,odom,0.0,0.0,0.0,0.0,0.0,0.0,1.0
1449617109324246974,7,1449617109323886311,,1449617109273202710,/move_base-3-1449617109.273202710,1,This goal has been accepted by the simple action server,0,1449617109305233122,odom,0.0,0.0,0.0,0.0,0.0,0.0,1.0
1449617109374734200,8,1449617109374255145,,1449617109359765983,/move_base-5-1449617109.359765983,1,This goal has been accepted by the simple action server,0,1449617109345220545,odom,0.0,0.0,0.0,0.0,0.0,0.0,1.0
1449617109424387984,9,1449617109423742253,,1449617109359765983,/move_base-5-1449617109.359765983,1,This goal has been accepted by the simple action server,0,1449617109385222489,odom,0.0,0.0,0.0,0.0,0.0,0.0,1.0
1449617109474041898,10,1449617109473493368,,1449617109466045284,/move_base-6-1449617109.466045284,1,This goal has been accepted by the simple action server,0,1449617109465234220,odom,0.0,0.0,0.0,0.0,0.0,0.0,1.0
1449617109525468832,11,1449617109523398706,,1449617109466045284,/move_base-6-1449617109.466045284,1,This goal has been accepted by the simple action server,0,1449617109505221618,odom,0.0,0.0,0.0,0.0,0.0,0.0,1.0
1449617109574054324,12,1449617109573407962,,1449617109466045284,/move_base-6-1449617109.466045284,1,This goal has been accepted by the simple action server,0,1449617109545230377,odom,0.0,0.0,0.0,0.0,0.0,0.0,1.0
1449617109605402723,13,1449617109605180919,,1449617109605051448,/move_base-7-1449617109.605051448,1,This goal has been accepted by the simple action server,0,1449617109585237636,odom,0.0,0.0,0.0,0.0,0.0,0.0,1.0
1449617109656367623,14,1449617109655843172,,1449617109605051448,/move_base-7-1449617109.605051448,1,This goal has been accepted by the simple action server,0,1449617109625219677,odom,0.0,0.0,0.0,0.0,0.0,0.0,1.0
1449617109708358781,15,1449617109705732416,,1449617109664050424,/move_base-8-1449617109.664050424,1,This goal has been accepted by the simple action server,0,1449617109665219907,odom,0.0,0.0,0.0,0.0,0.0,0.0,1.0
1449617109777480349,16,1449617109761860380,,1449617109664050424,/move_base-8-1449617109.664050424,1,This goal has been accepted by the simple action server,0,1449617109745250307,odom,0.0,0.0,0.0,0.0,0.0,0.0,1.0
1449617109812293509,17,1449617109809636055,,1449617109664050424,/move_base-8-1449617109.664050424,1,This goal has been accepted by the simple action server,0,1449617109785236301,odom,0.0,0.0,0.0,0.0,0.0,0.0,1.0
1449617109817253584,18,1449617109815157067,,1449617109815045604,/move_base-9-1449617109.815045604,1,This goal has been accepted by the simple action server,0,1449617109785236301,odom,0.0,0.0,0.0,0.0,0.0,0.0,1.0
1449617109866564447,19,1449617109866031779,,1449617109815045604,/move_base-9-1449617109.815045604,1,This goal has been accepted by the simple action server,0,1449617109825225183,odom,0.0,0.0,0.0,0.0,0.0,0.0,1.0
1449617109915608490,20,1449617109915255510,,1449617109912021075,/move_base-10-1449617109.912021075,1,This goal has been accepted by the simple action server,0,1449617109905230671,odom,0.0,0.0,0.0,0.0,0.0,0.0,1.0
1449617109969696514,21,1449617109965498997,,1449617109960730669,/move_base-11-1449617109.960730669,1,This goal has been accepted by the simple action server,0,1449617109945232879,odom,0.0,0.0,0.0,0.0,0.0,0.0,1.0
1449617110016689139,22,1449617110015608346,,1449617109960730669,/move_base-11-1449617109.960730669,1,This goal has been accepted by the simple action server,0,1449617109985228959,odom,0.0,0.0,0.0,0.0,0.0,0.0,1.0
1449617110065725739,23,1449617110065291975,,1449617109960730669,/move_base-11-1449617109.960730669,1,This goal has been accepted by the simple action server,0,1449617110025229655,odom,0.0,0.0,0.0,0.0,0.0,0.0,1.0
1449617110078020378,24,1449617110077729241,,1449617110077652267,/move_base-12-1449617110.77652267,1,This goal has been accepted by the simple action server,0,1449617110065231978,odom,0.0,0.0,0.0,0.0,0.0,0.0,1.0
1449617110130230690,25,1449617110127818519,,1449617110077652267,/move_base-12-1449617110.77652267,1,This goal has been accepted by the simple action server,0,1449617110105224996,odom,0.0,0.0,0.0,0.0,0.0,0.0,1.0
1449617110178041042,26,1449617110177821122,,1449617110170573721,/move_base-13-1449617110.170573721,1,This goal has been accepted by the simple action server,0,1449617110145243721,odom,0.0,0.0,0.0,0.0,0.0,0.0,1.0
1449617110228185283,27,1449617110227814319,,1449617110170573721,/move_base-13-1449617110.170573721,1,This goal has been accepted by the simple action server,0,1449617110225220774,odom,0.0,0.0,0.0,0.0,0.0,0.0,1.0
1449617110278209963,28,1449617110277878600,,1449617110241940977,/move_base-14-1449617110.241940977,1,This goal has been accepted by the simple action server,0,1449617110265239190,odom,0.0,0.0,0.0,0.0,0.0,0.0,1.0
1449617110329524778,29,1449617110328635253,,1449617110241940977,/move_base-14-1449617110.241940977,1,This goal has been accepted by the simple action server,0,1449617110305239404,odom,0.0,0.0,0.0,0.0,0.0,0.0,1.0
1449617110381212688,30,1449617110378918451,,1449617110373066706,/move_base-15-1449617110.373066706,1,This goal has been accepted by the simple action server,0,1449617110345231649,odom,0.0,0.0,0.0,0.0,0.0,0.0,1.0
1449617110429264578,31,1449617110428516028,,1449617110373066706,/move_base-15-1449617110.373066706,1,This goal has been accepted by the simple action server,0,1449617110385216923,odom,0.0,0.0,0.0,0.0,0.0,0.0,1.0
1449617110481546724,32,1449617110478014745,,1449617110465209123,/move_base-16-1449617110.465209123,1,This goal has been accepted by the simple action server,0,1449617110465262456,odom,0.0,0.0,0.0,0.0,0.0,0.0,1.0
1449617110531453759,33,1449617110527853801,,1449617110465209123,/move_base-16-1449617110.465209123,1,This goal has been accepted by the simple action server,0,1449617110505227248,odom,0.0,0.0,0.0,0.0,0.0,0.0,1.0
1449617110578646931,34,1449617110577797182,,1449617110465209123,/move_base-16-1449617110.465209123,1,This goal has been accepted by the simple action server,0,1449617110545233853,odom,0.0,0.0,0.0,0.0,0.0,0.0,1.0
1449617110601110169,35,1449617110600573328,,1449617110600507280,/move_base-17-1449617110.600507280,1,This goal has been accepted by the simple action server,0,1449617110585247615,odom,0.0,0.0,0.0,0.0,0.0,0.0,1.0
1449617110650952114,36,1449617110650635357,,1449617110600507280,/move_base-17-1449617110.600507280,1,This goal has been accepted by the simple action server,0,1449617110625226620,odom,0.0,0.0,0.0,0.0,0.0,0.0,1.0
1449617110704688666,37,1449617110700812533,,1449617110680040354,/move_base-18-1449617110.680040354,1,This goal has been accepted by the simple action server,0,1449617110665237410,odom,0.0,0.0,0.0,0.0,0.0,0.0,1.0
1449617110751236808,38,1449617110750670208,,1449617110680040354,/move_base-18-1449617110.680040354,1,This goal has been accepted by the simple action server,0,1449617110745228185,odom,0.0,0.0,0.0,0.0,0.0,0.0,1.0
1449617110802781881,39,1449617110800653498,,1449617110680040354,/move_base-18-1449617110.680040354,1,This goal has been accepted by the simple action server,0,1449617110785301769,odom,0.0,0.0,0.0,0.0,0.0,0.0,1.0
1449617110812276237,40,1449617110809633586,,1449617110808865016,/move_base-19-1449617110.808865016,1,This goal has been accepted by the simple action server,0,1449617110785301769,odom,0.0,0.0,0.0,0.0,0.0,0.0,1.0
1449617110872653707,41,1449617110859776382,,1449617110849167532,/move_base-20-1449617110.849167532,1,This goal has been accepted by the simple action server,0,1449617110825222425,odom,0.0,0.0,0.0,0.0,0.0,0.0,1.0
1449617110914059771,42,1449617110909713905,,1449617110849167532,/move_base-20-1449617110.849167532,1,This goal has been accepted by the simple action server,0,1449617110905233788,odom,0.0,0.0,0.0,0.0,0.0,0.0,1.0
1449617110961783327,43,1449617110961120078,,1449617110849167532,/move_base-20-1449617110.849167532,1,This goal has been accepted by the simple action server,0,1449617110945243932,odom,0.0,0.0,0.0,0.0,0.0,0.0,1.0
1449617111038549364,44,1449617111034245836,,1449617111033640023,/move_base-21-1449617111.33640023,1,This goal has been accepted by the simple action server,0,1449617111025230543,odom,0.0,0.0,0.0,0.0,0.0,0.0,1.0
1449617111086551872,45,1449617111085674561,,1449617111033640023,/move_base-21-1449617111.33640023,1,This goal has been accepted by the simple action server,0,1449617111065261233,odom,0.0,0.0,0.0,0.0,0.0,0.0,1.0
1449617111139796446,46,1449617111135112808,,1449617111033640023,/move_base-21-1449617111.33640023,1,This goal has been accepted by the simple action server,0,1449617111105240648,odom,0.0,0.0,0.0,0.0,0.0,0.0,1.0
1449617111162466819,47,1449617111162118790,,1449617111161989145,/move_base-22-1449617111.161989145,1,This goal has been accepted by the simple action server,0,1449617111145229931,odom,0.0,0.0,0.0,0.0,0.0,0.0,1.0
1449617111212973976,48,1449617111212479931,,1449617111170197644,/move_base-23-1449617111.170197644,1,This goal has been accepted by the simple action server,0,1449617111185236715,odom,0.0,0.0,0.0,0.0,0.0,0.0,1.0
1449617111265731564,49,1449617111263497152,,1449617111259982131,/move_base-24-1449617111.259982131,1,This goal has been accepted by the simple action server,0,1449617111225242063,odom,0.0,0.0,0.0,0.0,0.0,0.0,1.0
1449617111312897613,50,1449617111312198816,,1449617111259982131,/move_base-24-1449617111.259982131,1,This goal has been accepted by the simple action server,0,1449617111305240569,odom,0.0,0.0,0.0,0.0,0.0,0.0,1.0
1449617111363193631,51,1449617111362481239,,1449617111259982131,/move_base-24-1449617111.259982131,1,This goal has been accepted by the simple action server,0,1449617111345230891,odom,0.0,0.0,0.0,0.0,0.0,0.0,1.0
1449617111363871566,52,1449617111363635723,,1449617111363558621,/move_base-25-1449617111.363558621,1,This goal has been accepted by the simple action server,0,1449617111345230891,odom,0.0,0.0,0.0,0.0,0.0,0.0,1.0
1449617111414482723,53,1449617111414083861,,1449617111363558621,/move_base-25-1449617111.363558621,1,This goal has been accepted by the simple action server,0,1449617111385232582,odom,0.0,0.0,0.0,0.0,0.0,0.0,1.0
1449617111468476537,54,1449617111463709503,,1449617111363558621,/move_base-25-1449617111.363558621,1,This goal has been accepted by the simple action server,0,1449617111425274687,odom,0.0,0.0,0.0,0.0,0.0,0.0,1.0
1449617111477147054,55,1449617111476881851,,1449617111476767642,/move_base-26-1449617111.476767642,1,This goal has been accepted by the simple action server,0,1449617111465255507,odom,0.0,0.0,0.0,0.0,0.0,0.0,1.0
1449617111530554283,56,1449617111526958488,,1449617111476767642,/move_base-26-1449617111.476767642,1,This goal has been accepted by the simple action server,0,1449617111505232060,odom,0.0,0.0,0.0,0.0,0.0,0.0,1.0
1449617111579920160,57,1449617111577100585,,1449617111572444859,/move_base-27-1449617111.572444859,1,This goal has been accepted by the simple action server,0,1449617111545220747,odom,0.0,0.0,0.0,0.0,0.0,0.0,1.0
1449617111627427037,58,1449617111626963766,,1449617111572444859,/move_base-27-1449617111.572444859,1,This goal has been accepted by the simple action server,0,1449617111585219914,odom,0.0,0.0,0.0,0.0,0.0,0.0,1.0
1449617111677736760,59,1449617111677385659,,1449617111572444859,/move_base-27-1449617111.572444859,1,This goal has been accepted by the simple action server,0,1449617111665227863,odom,0.0,0.0,0.0,0.0,0.0,0.0,1.0
1449617111688744059,60,1449617111688210487,,1449617111686330381,/move_base-28-1449617111.686330381,1,This goal has been accepted by the simple action server,0,1449617111665227863,odom,0.0,0.0,0.0,0.0,0.0,0.0,1.0
1449617111736624353,61,1449617111736457266,,1449617111686330381,/move_base-28-1449617111.686330381,1,This goal has been accepted by the simple action server,0,1449617111705228757,odom,0.0,0.0,0.0,0.0,0.0,0.0,1.0
1449617111772631542,62,1449617111770359237,,1449617111770218350,/move_base-29-1449617111.770218350,1,This goal has been accepted by the simple action server,0,1449617111745225920,odom,0.0,0.0,0.0,0.0,0.0,0.0,1.0
1449617111822251310,63,1449617111820450733,,1449617111770218350,/move_base-29-1449617111.770218350,1,This goal has been accepted by the simple action server,0,1449617111785225750,odom,0.0,0.0,0.0,0.0,0.0,0.0,1.0
1449617111875217821,64,1449617111873362701,,1449617111846598991,/move_base-30-1449617111.846598991,1,This goal has been accepted by the simple action server,0,1449617111865234417,odom,0.0,0.0,0.0,0.0,0.0,0.0,1.0
1449617111920820394,65,1449617111920428416,,1449617111846598991,/move_base-30-1449617111.846598991,1,This goal has been accepted by the simple action server,0,1449617111905241473,odom,0.0,0.0,0.0,0.0,0.0,0.0,1.0
1449617111973145027,66,1449617111970515901,,1449617111967932217,/move_base-31-1449617111.967932217,1,This goal has been accepted by the simple action server,0,1449617111945298962,odom,0.0,0.0,0.0,0.0,0.0,0.0,1.0
1449617112021181628,67,1449617112020699428,,1449617111967932217,/move_base-31-1449617111.967932217,1,This goal has been accepted by the simple action server,0,1449617111985219204,odom,0.0,0.0,0.0,0.0,0.0,0.0,1.0
1449617112071228133,68,1449617112070964221,,1449617111967932217,/move_base-31-1449617111.967932217,1,This goal has been accepted by the simple action server,0,1449617112066305289,odom,0.0,0.0,0.0,0.0,0.0,0.0,1.0
1449617112071760825,69,1449617112071601699,,1449617112071521944,/move_base-32-1449617112.71521944,1,This goal has been accepted by the simple action server,0,1449617112066305289,odom,0.0,0.0,0.0,0.0,0.0,0.0,1.0
1449617112121897393,70,1449617112121666985,,1449617112071521944,/move_base-32-1449617112.71521944,1,This goal has been accepted by the simple action server,0,1449617112105232359,odom,0.0,0.0,0.0,0.0,0.0,0.0,1.0
1449617112174359170,71,1449617112172923795,,1449617112167498551,/move_base-33-1449617112.167498551,1,This goal has been accepted by the simple action server,0,1449617112145228402,odom,0.0,0.0,0.0,0.0,0.0,0.0,1.0
1449617112222351759,72,1449617112221688575,,1449617112167498551,/move_base-33-1449617112.167498551,1,This goal has been accepted by the simple action server,0,1449617112185245306,odom,0.0,0.0,0.0,0.0,0.0,0.0,1.0
1449617112273495958,73,1449617112271728804,,1449617112245690632,/move_base-34-1449617112.245690632,1,This goal has been accepted by the simple action server,0,1449617112265230146,odom,0.0,0.0,0.0,0.0,0.0,0.0,1.0
1449617112322277871,74,1449617112321698177,,1449617112245690632,/move_base-34-1449617112.245690632,1,This goal has been accepted by the simple action server,0,1449617112309610919,odom,0.0,0.0,0.0,0.0,0.0,0.0,1.0
1449617112372226680,75,1449617112371713058,,1449617112245690632,/move_base-34-1449617112.245690632,1,This goal has been accepted by the simple action server,0,1449617112345225619,odom,0.0,0.0,0.0,0.0,0.0,0.0,1.0
1449617112375469345,76,1449617112373818635,,1449617112373679977,/move_base-35-1449617112.373679977,1,This goal has been accepted by the simple action server,0,1449617112345225619,odom,0.0,0.0,0.0,0.0,0.0,0.0,1.0
1449617112429179919,77,1449617112423948303,,1449617112373679977,/move_base-35-1449617112.373679977,1,This goal has been accepted by the simple action server,0,1449617112385235527,odom,0.0,0.0,0.0,0.0,0.0,0.0,1.0
1449617112474419878,78,1449617112473988477,,1449617112462465036,/move_base-36-1449617112.462465036,1,This goal has been accepted by the simple action server,0,1449617112465221592,odom,0.0,0.0,0.0,0.0,0.0,0.0,1.0
1449617112524457226,79,1449617112523906385,,1449617112462465036,/move_base-36-1449617112.462465036,1,This goal has been accepted by the simple action server,0,1449617112505227645,odom,0.0,0.0,0.0,0.0,0.0,0.0,1.0
1449617112574859796,80,1449617112573918087,,1449617112462465036,/move_base-36-1449617112.462465036,1,This goal has been accepted by the simple action server,0,1449617112545235983,odom,0.0,0.0,0.0,0.0,0.0,0.0,1.0
1449617112581672583,81,1449617112579566323,,1449617112579425676,/move_base-37-1449617112.579425676,1,This goal has been accepted by the simple action server,0,1449617112545235983,odom,0.0,0.0,0.0,0.0,0.0,0.0,1.0
1449617112630213429,82,1449617112629663313,,1449617112579425676,/move_base-37-1449617112.579425676,1,This goal has been accepted by the simple action server,0,1449617112625227503,odom,0.0,0.0,0.0,0.0,0.0,0.0,1.0
1449617112680215862,83,1449617112679648576,,1449617112579425676,/move_base-37-1449617112.579425676,1,This goal has been accepted by the simple action server,0,1449617112665229758,odom,0.0,0.0,0.0,0.0,0.0,0.0,1.0
1449617112685600848,84,1449617112685376856,,1449617112685288461,/move_base-38-1449617112.685288461,1,This goal has been accepted by the simple action server,0,1449617112665229758,odom,0.0,0.0,0.0,0.0,0.0,0.0,1.0
1449617112735877181,85,1449617112735459115,,1449617112685288461,/move_base-38-1449617112.685288461,1,This goal has been accepted by the simple action server,0,1449617112705228064,odom,0.0,0.0,0.0,0.0,0.0,0.0,1.0
1449617112787655689,86,1449617112785480034,,1449617112685288461,/move_base-38-1449617112.685288461,1,This goal has been accepted by the simple action server,0,1449617112745235383,odom,0.0,0.0,0.0,0.0,0.0,0.0,1.0
1449617112847014433,87,1449617112846641223,,1449617112846156499,/move_base-39-1449617112.846156499,1,This goal has been accepted by the simple action server,0,1449617112825239788,odom,0.0,0.0,0.0,0.0,0.0,0.0,1.0
1449617112897958810,88,1449617112897691010,,1449617112847018202,/move_base-40-1449617112.847018202,1,This goal has been accepted by the simple action server,0,1449617112865647718,odom,0.0,0.0,0.0,0.0,0.0,0.0,1.0
1449617112950148218,89,1449617112949766206,,1449617112847018202,/move_base-40-1449617112.847018202,1,This goal has been accepted by the simple action server,0,1449617112945340184,odom,0.0,0.0,0.0,0.0,0.0,0.0,1.0
1449617112997270244,90,1449617112996886236,,1449617112847018202,/move_base-40-1449617112.847018202,1,This goal has been accepted by the simple action server,0,1449617112985231470,odom,0.0,0.0,0.0,0.0,0.0,0.0,1.0
1449617113009961146,91,1449617113009696266,,1449617113008128126,/move_base-41-1449617113.8128126,1,This goal has been accepted by the simple action server,0,1449617112985231470,odom,0.0,0.0,0.0,0.0,0.0,0.0,1.0
1449617113060757814,92,1449617113060408249,,1449617113008128126,/move_base-41-1449617113.8128126,1,This goal has been accepted by the simple action server,0,1449617113025225149,odom,0.0,0.0,0.0,0.0,0.0,0.0,1.0
1449617113142743876,93,1449617113139159933,,1449617113008128126,/move_base-41-1449617113.8128126,1,This goal has been accepted by the simple action server,0,1449617113105231775,odom,0.0,0.0,0.0,0.0,0.0,0.0,1.0
1449617113237931467,94,1449617113231499853,,1449617113008128126,/move_base-41-1449617113.8128126,1,This goal has been accepted by the simple action server,0,1449617113225238133,odom,0.0,0.0,0.0,0.0,0.0,0.0,1.0
1449617113296916292,95,1449617113293430203,,1449617113008128126,/move_base-41-1449617113.8128126,1,This goal has been accepted by the simple action server,0,1449617113265300337,odom,0.0,0.0,0.0,0.0,0.0,0.0,1.0
1449617113391809564,96,1449617113382254049,,1449617113008128126,/move_base-41-1449617113.8128126,1,This goal has been accepted by the simple action server,0,1449617113345227901,odom,0.0,0.0,0.0,0.0,0.0,0.0,1.0
1449617113514397614,97,1449617113497224684,,1449617113008128126,/move_base-41-1449617113.8128126,1,This goal has been accepted by the simple action server,0,1449617113465231268,odom,0.0,0.0,0.0,0.0,0.0,0.0,1.0
1449617113607937984,98,1449617113602329016,,1449617113008128126,/move_base-41-1449617113.8128126,1,This goal has been accepted by the simple action server,0,1449617113585224297,odom,0.0,0.0,0.0,0.0,0.0,0.0,1.0
1449617113667914902,99,1449617113665893873,,1449617113008128126,/move_base-41-1449617113.8128126,1,This goal has been accepted by the simple action server,0,1449617113625227161,odom,0.0,0.0,0.0,0.0,0.0,0.0,1.0
1449617113763432341,100,1449617113758011461,,1449617113008128126,/move_base-41-1449617113.8128126,1,This goal has been accepted by the simple action server,0,1449617113745230256,odom,0.00287963245437,-3.04332289367e-05,0.0,0.0,0.0,-0.0052839997518,0.999986039576
1449617113836676378,101,1449617113828660428,,1449617113008128126,/move_base-41-1449617113.8128126,1,This goal has been accepted by the simple action server,0,1449617113825228416,odom,0.00287963245437,-3.04332289367e-05,0.0,0.0,0.0,-0.0052839997518,0.999986039576
1449617113908567525,102,1449617113907460700,,1449617113008128126,/move_base-41-1449617113.8128126,1,This goal has been accepted by the simple action server,0,1449617113905225508,odom,0.00287963245437,-3.04332289367e-05,0.0,0.0,0.0,-0.0052839997518,0.999986039576
1449617113950242441,103,1449617113946192664,,1449617113008128126,/move_base-41-1449617113.8128126,1,This goal has been accepted by the simple action server,0,1449617113945226422,odom,0.00575878249245,-9.12962879474e-05,0.0,0.0,0.0,-0.0105678519699,0.999944158693
1449617114020657456,104,1449617114020062746,,1449617113008128126,/move_base-41-1449617113.8128126,1,This goal has been accepted by the simple action server,0,1449617113985237627,odom,0.00575878249245,-9.12962879474e-05,0.0,0.0,0.0,-0.0105678519699,0.999944158693
1449617114136911557,105,1449617114128648953,,1449617113008128126,/move_base-41-1449617113.8128126,1,This goal has been accepted by the simple action server,0,1449617114105222817,odom,0.00863712856322,-0.000182582379687,0.0,0.0,0.0,-0.0158514091245,0.999874358521
1449617114193638450,106,1449617114182343334,,1449617113008128126,/move_base-41-1449617113.8128126,1,This goal has been accepted by the simple action server,0,1449617114145854665,odom,0.0115162786013,-0.000243445438698,0.0,0.0,0.0,-0.0105678519699,0.999944158693
1449617114266369737,107,1449617114256587827,,1449617113008128126,/move_base-41-1449617113.8128126,1,This goal has been accepted by the simple action server,0,1449617114225223168,odom,0.0143946246721,-0.000334731530437,0.0,0.0,0.0,-0.0158514091245,0.999874358521
1449617114312129322,108,1449617114308167645,,1449617113008128126,/move_base-41-1449617113.8128126,1,This goal has been accepted by the simple action server,0,1449617114305889135,odom,0.0201513168136,-0.000517303713916,0.0,0.0,0.0,-0.0158514091245,0.999874358521
1449617114366295156,109,1449617114365519941,,1449617113008128126,/move_base-41-1449617113.8128126,1,This goal has been accepted by the simple action server,0,1449617114345232812,odom,0.0230285374559,-0.000639002643314,0.0,0.0,0.0,-0.0211345236944,0.999776641009
1449617114431970665,110,1449617114426759237,,1449617113008128126,/move_base-41-1449617113.8128126,1,This goal has been accepted by the simple action server,0,1449617114385559547,odom,0.0259068835267,-0.000730288735054,0.0,0.0,0.0,-0.0158514091245,0.999874358521
1449617114500828836,111,1449617114497220456,,1449617113008128126,/move_base-41-1449617113.8128126,1,This goal has been accepted by the simple action server,0,1449617114465225783,odom,0.0345385454535,-0.00109538552325,0.0,0.0,0.0,-0.0211345236944,0.999776641009
1449617114572037059,112,1449617114566214140,,1449617113008128126,/move_base-41-1449617113.8128126,1,This goal has been accepted by the simple action server,0,1449617114545226955,odom,0.0431735836658,-0.00136924379847,0.0,0.0,0.0,-0.0158514091245,0.999874358521
1449617114674967863,113,1449617114667631644,,1449617113008128126,/move_base-41-1449617113.8128126,1,This goal has been accepted by the simple action server,0,1449617114626528675,odom,0.0518091043842,-0.00161266884589,0.0,0.0,0.0,-0.0105678519699,0.999944158693
1449617114789419154,114,1449617114780927905,,1449617113008128126,/move_base-41-1449617113.8128126,1,This goal has been accepted by the simple action server,0,1449617114745223735,odom,0.0690832006453,-0.00200827023268,0.0,0.0,0.0,-0.0105678519699,0.999944158693
1449617114912713427,115,1449617114907548345,,1449617113008128126,/move_base-41-1449617113.8128126,1,This goal has been accepted by the simple action server,0,1449617114865225116,odom,0.0834803980846,-0.00222129603751,0.0,0.0,0.0,-0.0052839997518,0.999986039576
1449617115076914183,116,1449617115056566395,,1449617113008128126,/move_base-41-1449617113.8128126,1,This goal has been accepted by the simple action server,0,1449617115026037619,odom,0.112277526685,-0.00206912989283,0.0,0.0,0.0,0.0052839997518,0.999986039576
1449617115181701781,117,1449617115175201826,,1449617113008128126,/move_base-41-1449617113.8128126,1,This goal has been accepted by the simple action server,0,1449617115145223979,odom,0.129548407077,-0.00155183637512,0.0,0.0,0.0,0.0158514091245,0.999874358521
1449617115302186156,118,1449617115297072611,,1449617113008128126,/move_base-41-1449617113.8128126,1,This goal has been accepted by the simple action server,0,1449617115265229132,odom,0.143930169997,-0.000852143990114,0.0,0.0,0.0,0.0211345236944,0.999776641009
1449617115391648057,119,1449617115386997994,,1449617113008128126,/move_base-41-1449617113.8128126,1,This goal has been accepted by the simple action server,0,1449617115385248904,odom,0.155426193758,-0.000122222251368,0.0,0.0,0.0,0.0316988350601,0.999497465658
1449617115496760440,120,1449617115495178414,,1449617113008128126,/move_base-41-1449617113.8128126,1,This goal has been accepted by the simple action server,0,1449617115465331749,odom,0.164046122664,0.000455580932083,0.0,0.0,0.0,0.0369797368913,0.999316015612
1449617115595659890,121,1449617115591106421,,1449617113008128126,/move_base-41-1449617113.8128126,1,This goal has been accepted by the simple action server,0,1449617115585227130,odom,0.172657054426,0.00115478409153,0.0,0.0,0.0,0.042259606217,0.999106663816
1449617115679995735,122,1449617115662971695,,1449617113008128126,/move_base-41-1449617113.8128126,1,This goal has been accepted by the simple action server,0,1449617115625227412,odom,0.172657054426,0.00115478409153,0.0,0.0,0.0,0.042259606217,0.999106663816
1449617115750167901,123,1449617115749750818,,1449617113008128126,/move_base-41-1449617113.8128126,1,This goal has been accepted by the simple action server,0,1449617115745224972,odom,0.178396069162,0.00164114493689,0.0,0.0,0.0,0.042259606217,0.999106663816
1449617115817231483,124,1449617115816749652,,1449617113008128126,/move_base-41-1449617113.8128126,1,This goal has been accepted by the simple action server,0,1449617115785236093,odom,0.181262846399,0.00191463630916,0.0,0.0,0.0,0.0475382956186,0.998869416115
1449617115893732977,125,1449617115887028803,,1449617113008128126,/move_base-41-1449617113.8128126,1,This goal has been accepted by the simple action server,0,1449617115865236429,odom,0.181262846399,0.00191463630916,0.0,0.0,0.0,0.0475382956186,0.998869416115
1449617115973954788,126,1449617115966590531,,1449617113008128126,/move_base-41-1449617113.8128126,1,This goal has been accepted by the simple action server,0,1449617115945230199,odom,0.181262846399,0.00191463630916,0.0,0.0,0.0,0.0475382956186,0.998869416115
1449617116070783106,127,1449617116063935650,,1449617113008128126,/move_base-41-1449617113.8128126,1,This goal has been accepted by the simple action server,0,1449617116025237837,odom,0.181262846399,0.00191463630916,0.0,0.0,0.0,0.0475382956186,0.998869416115
1449617116178778863,128,1449617116177979380,,1449617113008128126,/move_base-41-1449617113.8128126,1,This goal has been accepted by the simple action server,0,1449617116145227560,odom,0.184132353767,0.00215781673184,0.0,0.0,0.0,0.042259606217,0.999106663816
1449617116263537689,129,1449617116254838910,,1449617113008128126,/move_base-41-1449617113.8128126,1,This goal has been accepted by the simple action server,0,1449617116225229325,odom,0.184132353767,0.00215781673184,0.0,0.0,0.0,0.042259606217,0.999106663816
1449617116350811119,130,1449617116326657456,,1449617113008128126,/move_base-41-1449617113.8128126,1,This goal has been accepted by the simple action server,0,1449617116305228002,odom,0.189871368503,0.00264417757721,0.0,0.0,0.0,0.042259606217,0.999106663816
1449617116424170185,131,1449617116418826811,,1449617113008128126,/move_base-41-1449617113.8128126,1,This goal has been accepted by the simple action server,0,1449617116385530874,odom,0.189871368503,0.00264417757721,0.0,0.0,0.0,0.042259606217,0.999106663816
1449617116498212077,132,1449617116491522938,,1449617113008128126,/move_base-41-1449617113.8128126,1,This goal has been accepted by the simple action server,0,1449617116465963250,odom,0.195610383239,0.00313053842257,0.0,0.0,0.0,0.042259606217,0.999106663816
1449617116573803608,133,1449617116572606694,,1449617113008128126,/move_base-41-1449617113.8128126,1,This goal has been accepted by the simple action server,0,1449617116545231877,odom,0.201351807633,0.00358656115933,0.0,0.0,0.0,0.042259606217,0.999106663816
1449617116650765451,134,1449617116638669258,,1449617113008128126,/move_base-41-1449617113.8128126,1,This goal has been accepted by the simple action server,0,1449617116625231225,odom,0.209962739395,0.00428576431878,0.0,0.0,0.0,0.0369797368913,0.999316015612
1449617116745638269,135,1449617116737961023,,1449617113008128126,/move_base-41-1449617113.8128126,1,This goal has been accepted by the simple action server,0,1449617116705230692,odom,0.221450407498,0.00513713357509,0.0,0.0,0.0,0.0369797368913,0.999316015612
1449617116833615342,136,1449617116826593572,,1449617113008128126,/move_base-41-1449617113.8128126,1,This goal has been accepted by the simple action server,0,1449617116785227535,odom,0.232938075602,0.0059885028314,0.0,0.0,0.0,0.0369797368913,0.999316015612
1449617116915402445,137,1449617116894217605,,1449617113008128126,/move_base-41-1449617113.8128126,1,This goal has been accepted by the simple action server,0,1449617116865230351,odom,0.244425743705,0.00683987208771,0.0,0.0,0.0,0.0369797368913,0.999316015612
1449617116984607184,138,1449617116982598259,,1449617113008128126,/move_base-41-1449617113.8128126,1,This goal has been accepted by the simple action server,0,1449617116947695807,odom,0.258791595577,0.00781299801993,0.0,0.0,0.0,0.0316988350601,0.999497465658
1449617117077231119,139,1449617117066289276,,1449617113008128126,/move_base-41-1449617113.8128126,1,This goal has been accepted by the simple action server,0,1449617117025235999,odom,0.273155358535,0.00881648583153,0.0,0.0,0.0,0.0369797368913,0.999316015612
1449617117171728738,140,1449617117171507560,,1449617113008128126,/move_base-41-1449617113.8128126,1,This goal has been accepted by the simple action server,0,1449617117145225598,odom,0.299021411997,0.0104588097437,0.0,0.0,0.0,0.0316988350601,0.999497465658
1449617117286035338,141,1449617117285653344,,1449617113008128126,/move_base-41-1449617113.8128126,1,This goal has been accepted by the simple action server,0,1449617117265251739,odom,0.324903376901,0.0118276933223,0.0,0.0,0.0,0.0264170481704,0.999651008886
1449617117382920172,142,1449617117382538126,,1449617113008128126,/move_base-41-1449617113.8128126,1,This goal has been accepted by the simple action server,0,1449617117345700627,odom,0.345041027869,0.0127403843201,0.0,0.0,0.0,0.0211345236944,0.999776641009
1449617117490135489,143,1449617117487587560,,1449617113008128126,/move_base-41-1449617113.8128126,1,This goal has been accepted by the simple action server,0,1449617117465338046,odom,0.376696082077,0.0139270083552,0.0,0.0,0.0,0.0158514091245,0.999874358521
1449617117586748549,144,1449617117567377311,,1449617113008128126,/move_base-41-1449617113.8128126,1,This goal has been accepted by the simple action server,0,1449617117545228568,odom,0.399722850643,0.0146572970891,0.0,0.0,0.0,0.0158514091245,0.999874358521
1449617117712428648,145,1449617117707872358,,1449617113008128126,/move_base-41-1449617113.8128126,1,This goal has been accepted by the simple action server,0,1449617117705230080,odom,0.44003432809,0.0152963711048,0.0,0.0,0.0,0.0052839997518,0.999986039576
1449617117813945609,146,1449617117812427238,,1449617113008128126,/move_base-41-1449617113.8128126,1,This goal has been accepted by the simple action server,0,1449617117785239817,odom,0.468831456691,0.0151442049601,0.0,0.0,0.0,-0.0052839997518,0.999986039576
1449617117910193802,147,1449617117884789809,,1449617113008128126,/move_base-41-1449617113.8128126,1,This goal has been accepted by the simple action server,0,1449617117865229698,odom,0.49186899876,0.0149920388154,0.0,0.0,0.0,-0.0052839997518,0.999986039576
1449617117997914382,148,1449617117989673680,,1449617113008128126,/move_base-41-1449617113.8128126,1,This goal has been accepted by the simple action server,0,1449617117985279124,odom,0.52641477938,0.0141095669436,0.0,0.0,0.0,-0.0158514091245,0.999874358521
1449617118176911541,149,1449617118162372100,,1449617113008128126,/move_base-41-1449617113.8128126,1,This goal has been accepted by the simple action server,0,1449617118145226141,odom,0.578197517121,0.0117669899844,0.0,0.0,0.0,-0.0264170481704,0.999651008886
1449617118292807117,150,1449617118292183917,,1449617113008128126,/move_base-41-1449617113.8128126,1,This goal has been accepted by the simple action server,0,1449617118265230934,odom,0.612666788174,0.00930396785368,0.0,0.0,0.0,-0.0369797368913,0.999316015612
1449617118401705763,151,1449617118394176789,,1449617113008128126,/move_base-41-1449617113.8128126,1,This goal has been accepted by the simple action server,0,1449617118385227662,odom,0.647102324827,0.00641622236716,0.0,0.0,0.0,-0.0475382956186,0.998869416115
1449617118485638144,152,1449617118454179477,,1449617113008128126,/move_base-41-1449617113.8128126,1,This goal has been accepted by the simple action server,0,1449617118425238101,odom,0.661420959504,0.0048973634791,0.0,0.0,0.0,-0.0528156577107,0.998604279132
1449617118614834000,153,1449617118605136752,,1449617113008128126,/move_base-41-1449617113.8128126,1,This goal has been accepted by the simple action server,0,1449617118585316800,odom,0.710060505724,-0.000659960971502,0.0,0.0,0.0,-0.0580915451448,0.99831126027
1449617118733125847,154,1449617118728470286,,1449617113008128126,/move_base-41-1449617113.8128126,1,This goal has been accepted by the simple action server,0,1449617118705474596,odom,0.747143474599,-0.00578688782105,0.0,0.0,0.0,-0.0739088866573,0.997264998119
1449617118835926750,155,1449617118826823543,,1449617113008128126,/move_base-41-1449617113.8128126,1,This goal has been accepted by the simple action server,0,1449617118825225400,odom,0.784148556039,-0.0114560379532,0.0,0.0,0.0,-0.0791774028604,0.996860541338
1449617118913524669,156,1449617118909890328,,1449617113008128126,/move_base-41-1449617113.8128126,1,This goal has been accepted by the simple action server,0,1449617118905223469,odom,0.804019618106,-0.01484840376,0.0,0.0,0.0,-0.0844437083633,0.996428251365
1449617118970722666,157,1449617118969735764,,1449617113008128126,/move_base-41-1449617113.8128126,1,This goal has been accepted by the simple action server,0,1449617118945223174,odom,0.818186834121,-0.0174213829136,0.0,0.0,0.0,-0.0897076561262,0.99596814027
1449617119062235219,158,1449617119048588993,,1449617113008128126,/move_base-41-1449617113.8128126,1,This goal has been accepted by the simple action server,0,1449617119025226885,odom,0.843637455386,-0.0223219774437,0.0,0.0,0.0,-0.0949690991753,0.995480220899
1449617119331848260,159,1449617119329751099,,1449617113008128126,/move_base-41-1449617113.8128126,1,This goal has been accepted by the simple action server,0,1449617119305227522,odom,0.925326866904,-0.0396629785048,0.0,0.0,0.0,-0.110736931374,0.993849753247
1449617119420872366,160,1449617119418186589,,1449617113008128126,/move_base-41-1449617113.8128126,1,This goal has been accepted by the simple action server,0,1449617119385225319,odom,0.953314122064,-0.046446142868,0.0,0.0,0.0,-0.121233604752,0.99262400388
1449617119532645832,161,1449617119525382040,,1449617113008128126,/move_base-41-1449617113.8128126,1,This goal has been accepted by the simple action server,0,1449617119505217825,odom,0.984015791428,-0.0542472986627,0.0,0.0,0.0,-0.126476937269,0.991969548091
1449617119628059580,162,1449617119627576908,,1449617113008128126,/move_base-41-1449617113.8128126,1,This goal has been accepted by the simple action server,0,1449617119625236653,odom,1.02015408161,-0.0640236142411,0.0,0.0,0.0,-0.131716738444,0.99128739567
1449617119695642516,163,1449617119692145027,,1449617113008128126,/move_base-41-1449617113.8128126,1,This goal has been accepted by the simple action server,0,1449617119665220183,odom,1.03401291143,-0.06793041184,0.0,0.0,0.0,-0.136952861975,0.990577565664
1449617119772519794,164,1449617119768901208,,1449617113008128126,/move_base-41-1449617113.8128126,1,This goal has been accepted by the simple action server,0,1449617119745221171,odom,1.05891674474,-0.0751088874194,0.0,0.0,0.0,-0.142185161666,0.989840077892
1449617119843269053,165,1449617119834223313,,1449617113008128126,/move_base-41-1449617113.8128126,1,This goal has been accepted by the simple action server,0,1449617119825227631,odom,1.08102357588,-0.0815937474198,0.0,0.0,0.0,-0.142185161666,0.989840077892
1449617119921649581,166,1449617119918830286,,1449617113008128126,/move_base-41-1449617113.8128126,1,This goal has been accepted by the simple action server,0,1449617119905224579,odom,1.10585015747,-0.0890350021677,0.0,0.0,0.0,-0.147413491427,0.989074952946
1449617119966009455,167,1449617119963719241,,1449617113008128126,/move_base-41-1449617113.8128126,1,This goal has been accepted by the simple action server,0,1449617119945228247,odom,1.11686869028,-0.0923940619659,0.0,0.0,0.0,-0.147413491427,0.989074952946
1449617120063829395,168,1449617120055881074,,1449617113008128126,/move_base-41-1449617113.8128126,1,This goal has been accepted by the simple action server,0,1449617120025234116,odom,1.13890575591,-0.0991121815623,0.0,0.0,0.0,-0.147413491427,0.989074952946
1449617120139416867,169,1449617120137757491,,1449617113008128126,/move_base-41-1449617113.8128126,1,This goal has been accepted by the simple action server,0,1449617120105226606,odom,1.16910740946,-0.108669296293,0.0,0.0,0.0,-0.152637705278,0.988282212188
1449617120210047685,170,1449617120202231360,,1449617113008128126,/move_base-41-1449617113.8128126,1,This goal has been accepted by the simple action server,0,1449617120187791763,odom,1.19107224842,-0.115619925188,0.0,0.0,0.0,-0.152637705278,0.988282212188
1449617120301699242,171,1449617120297006331,,1449617113008128126,/move_base-41-1449617113.8128126,1,This goal has been accepted by the simple action server,0,1449617120265239534,odom,1.21024480765,-0.121846558618,0.0,0.0,0.0,-0.157857657354,0.987461877753
1449617120458504179,172,1449617120455210795,,1449617113008128126,/move_base-41-1449617113.8128126,1,This goal has been accepted by the simple action server,0,1449617120425233056,odom,1.25959101553,-0.137717206666,0.0,0.0,0.0,-0.157857657354,0.987461877753
1449617120552736056,173,1449617120548212246,,1449617113008128126,/move_base-41-1449617113.8128126,1,This goal has been accepted by the simple action server,0,1449617120505246657,odom,1.28150917963,-0.144812668708,0.0,0.0,0.0,-0.157857657354,0.987461877753
1449617120628996496,174,1449617120626967440,,1449617113008128126,/move_base-41-1449617113.8128126,1,This goal has been accepted by the simple action server,0,1449617120625223012,odom,1.31715536807,-0.156252273809,0.0,0.0,0.0,-0.152637705278,0.988282212188
1449617120721781125,175,1449617120710168291,,1449617113008128126,/move_base-41-1449617113.8128126,1,This goal has been accepted by the simple action server,0,1449617120705229213,odom,1.33912020703,-0.163202902704,0.0,0.0,0.0,-0.152637705278,0.988282212188
1449617120805934405,176,1449617120805720091,,1449617113008128126,/move_base-41-1449617113.8128126,1,This goal has been accepted by the simple action server,0,1449617120785222860,odom,1.36657625572,-0.171891188823,0.0,0.0,0.0,-0.152637705278,0.988282212188
1449617120908650667,177,1449617120908403155,,1449617113008128126,/move_base-41-1449617113.8128126,1,This goal has been accepted by the simple action server,0,1449617120905217806,odom,1.40234134569,-0.182953451479,0.0,0.0,0.0,-0.147413491427,0.989074952946
1449617121015643808,178,1449617121006335717,,1449617113008128126,/move_base-41-1449617113.8128126,1,This goal has been accepted by the simple action server,0,1449617120985227022,odom,1.42437841131,-0.189671571075,0.0,0.0,0.0,-0.147413491427,0.989074952946
1449617121142663795,179,1449617121133784200,,1449617113008128126,/move_base-41-1449617113.8128126,1,This goal has been accepted by the simple action server,0,1449617121105230204,odom,1.45756389423,-0.199311117135,0.0,0.0,0.0,-0.136952861975,0.990577565664
1449617121222754726,180,1449617121221335625,,1449617113008128126,/move_base-41-1449617113.8128126,1,This goal has been accepted by the simple action server,0,1449617121185230453,odom,1.47973802194,-0.205561993293,0.0,0.0,0.0,-0.136952861975,0.990577565664
1449617121317893059,181,1449617121308075691,,1449617113008128126,/move_base-41-1449617113.8128126,1,This goal has been accepted by the simple action server,0,1449617121305221839,odom,1.51587631212,-0.215338308872,0.0,0.0,0.0,-0.131716738444,0.99128739567
1449617121390845208,182,1449617121390552352,,1449617113008128126,/move_base-41-1449617113.8128126,1,This goal has been accepted by the simple action server,0,1449617121385230227,odom,1.54379032096,-0.222416859624,0.0,0.0,0.0,-0.121233604752,0.99262400388
1449617121460569729,183,1449617121459676135,,1449617113008128126,/move_base-41-1449617113.8128126,1,This goal has been accepted by the simple action server,0,1449617121425485341,odom,1.55497088593,-0.225189280055,0.0,0.0,0.0,-0.121233604752,0.99262400388
1449617121557654609,184,1449617121554004191,,1449617113008128126,/move_base-41-1449617113.8128126,1,This goal has been accepted by the simple action server,0,1449617121548603233,odom,1.58866030362,-0.232884750208,0.0,0.0,0.0,-0.110736931374,0.993849753247
1449617121712801282,185,1449617121693203066,,1449617113008128126,/move_base-41-1449617113.8128126,1,This goal has been accepted by the simple action server,0,1449617121665221508,odom,1.62526449737,-0.240738753214,0.0,0.0,0.0,-0.10548388359,0.994421012601
1449617121827765603,186,1449617121826473690,,1449617113008128126,/move_base-41-1449617113.8128126,1,This goal has been accepted by the simple action server,0,1449617121825236687,odom,1.66768125202,-0.248906228327,0.0,0.0,0.0,-0.0897076561262,0.99596814027
1449617121921952036,187,1449617121918860949,,1449617113008128126,/move_base-41-1449617113.8128126,1,This goal has been accepted by the simple action server,0,1449617121905221657,odom,1.69609329811,-0.253602333854,0.0,0.0,0.0,-0.0791774028604,0.996860541338
1449617122029795690,188,1449617122028954324,,1449617113008128126,/move_base-41-1449617113.8128126,1,This goal has been accepted by the simple action server,0,1449617122025222560,odom,1.73306955484,-0.259451793906,0.0,0.0,0.0,-0.0739088866573,0.997264998119
1449617122102625695,189,1449617122094118697,,1449617113008128126,/move_base-41-1449617113.8128126,1,This goal has been accepted by the simple action server,0,1449617122065238759,odom,1.74162753065,-0.260634981695,0.0,0.0,0.0,-0.0686383068554,0.997641610415
1449617122186051815,190,1449617122178270895,,1449617113008128126,/move_base-41-1449617113.8128126,1,This goal has been accepted by the simple action server,0,1449617122145227318,odom,1.76733753567,-0.263913028585,0.0,0.0,0.0,-0.0633658106137,0.997990367712
1449617122258170032,191,1449617122250364147,,1449617113008128126,/move_base-41-1449617113.8128126,1,This goal has been accepted by the simple action server,0,1449617122225249273,odom,1.79023724076,-0.266433942244,0.0,0.0,0.0,-0.0528156577107,0.998604279132
1449617122320460139,192,1449617122320280686,,1449617113008128126,/move_base-41-1449617113.8128126,1,This goal has been accepted by the simple action server,0,1449617122305221901,odom,1.81317964905,-0.268530940374,0.0,0.0,0.0,-0.042259606217,0.999106663816
1449617122381741282,193,1449617122379393293,,1449617113008128126,/move_base-41-1449617113.8128126,1,This goal has been accepted by the simple action server,0,1449617122345223251,odom,1.82753923418,-0.269595151944,0.0,0.0,0.0,-0.0369797368913,0.999316015612
1449617122451558645,194,1449617122447155123,,1449617113008128126,/move_base-41-1449617113.8128126,1,This goal has been accepted by the simple action server,0,1449617122425239865,odom,1.85054012139,-0.270903084125,0.0,0.0,0.0,-0.0264170481704,0.999651008886
1449617122513549504,195,1449617122508926181,,1449617113008128126,/move_base-41-1449617113.8128126,1,This goal has been accepted by the simple action server,0,1449617122465224704,odom,1.8649262246,-0.271511578772,0.0,0.0,0.0,-0.0211345236944,0.999776641009
1449617122577402059,196,1449617122572474735,,1449617113008128126,/move_base-41-1449617113.8128126,1,This goal has been accepted by the simple action server,0,1449617122545225168,odom,1.88506693052,-0.272333017665,0.0,0.0,0.0,-0.0158514091245,0.999874358521
1449617122629471501,197,1449617122629258177,,1449617113008128126,/move_base-41-1449617113.8128126,1,This goal has been accepted by the simple action server,0,1449617122625226183,odom,1.91386084298,-0.272789499105,0.0,0.0,0.0,-0.0052839997518,0.999986039576
1449617122702096795,198,1449617122696008318,,1449617113008128126,/move_base-41-1449617113.8128126,1,This goal has been accepted by the simple action server,0,1449617122665224244,odom,1.92250022278,-0.272789499105,0.0,0.0,0.0,-4.4408920985e-16,1.0
1449617122773550980,199,1449617122765667029,,1449617113008128126,/move_base-41-1449617113.8128126,1,This goal has been accepted by the simple action server,0,1449617122745230652,odom,1.94553856891,-0.272789499105,0.0,0.0,0.0,-4.4408920985e-16,1.0
1449617122847468256,200,1449617122841557625,,1449617113008128126,/move_base-41-1449617113.8128126,1,This goal has been accepted by the simple action server,0,1449617122825229336,odom,1.97144689941,-0.27208961641,0.0,0.0,0.0,0.0158514091245,0.999874358521
1449617122934074586,201,1449617122930978169,,1449617113008128126,/move_base-41-1449617113.8128126,1,This goal has been accepted by the simple action server,0,1449617122905237779,odom,1.99446032426,-0.271024827237,0.0,0.0,0.0,0.0264170481704,0.999651008886
1449617123052498958,202,1449617123047311706,,1449617113008128126,/move_base-41-1449617113.8128126,1,This goal has been accepted by the simple action server,0,1449617123025249975,odom,2.0289453437,-0.268804761281,0.0,0.0,0.0,0.0369797368913,0.999316015612
1449617123138644151,203,1449617123130814268,,1449617113008128126,/move_base-41-1449617113.8128126,1,This goal has been accepted by the simple action server,0,1449617123105222192,odom,2.05762676672,-0.266221402306,0.0,0.0,0.0,0.0475382956186,0.998869416115
1449617123245559084,204,1449617123229457388,,1449617113008128126,/move_base-41-1449617113.8128126,1,This goal has been accepted by the simple action server,0,1449617123226687731,odom,2.09196115878,-0.262303922661,0.0,0.0,0.0,0.0580915451448,0.99831126027
1449617123295875813,205,1449617123293870837,,1449617113008128126,/move_base-41-1449617113.8128126,1,This goal has been accepted by the simple action server,0,1449617123265234328,odom,2.10053116045,-0.261211240364,0.0,0.0,0.0,0.0633658106137,0.997990367712
1449617123352970793,206,1449617123352609437,,1449617113008128126,/move_base-41-1449617113.8128126,1,This goal has been accepted by the simple action server,0,1449617123345233848,odom,2.12903611041,-0.257116658817,0.0,0.0,0.0,0.0739088866573,0.997264998119
1449617123423473853,207,1449617123423257070,,1449617113008128126,/move_base-41-1449617113.8128126,1,This goal has been accepted by the simple action server,0,1449617123385252293,odom,2.13756716861,-0.255752866561,0.0,0.0,0.0,0.0791774028604,0.996860541338
1449617123498007989,208,1449617123486921108,,1449617113008128126,/move_base-41-1449617113.8128126,1,This goal has been accepted by the simple action server,0,1449617123465232089,odom,2.16313552864,-0.251511358453,0.0,0.0,0.0,0.0844437083633,0.996428251365
1449617123588931240,209,1449617123587348024,,1449617113008128126,/move_base-41-1449617113.8128126,1,This goal has been accepted by the simple action server,0,1449617123585228614,odom,2.19708647951,-0.245066976431,0.0,0.0,0.0,0.0949690991753,0.995480220899
1449617123655808037,210,1449617123646653819,,1449617113008128126,/move_base-41-1449617113.8128126,1,This goal has been accepted by the simple action server,0,1449617123625415207,odom,2.20555228328,-0.24334388334,0.0,0.0,0.0,0.100227890607,0.994964506877
1449617123754903532,211,1449617123752412140,,1449617113008128126,/move_base-41-1449617113.8128126,1,This goal has been accepted by the simple action server,0,1449617123745220265,odom,2.24208357555,-0.23516314807,0.0,0.0,0.0,0.115986887289,0.993250744765
1449617123821158282,212,1449617123812097471,,1449617113008128126,/move_base-41-1449617113.8128126,1,This goal has been accepted by the simple action server,0,1449617123785273133,odom,2.25329281471,-0.23250903701,0.0,0.0,0.0,0.115986887289,0.993250744765
1449617123883539125,213,1449617123879904083,,1449617113008128126,/move_base-41-1449617113.8128126,1,This goal has been accepted by the simple action server,0,1449617123865947492,odom,2.2756315025,-0.226875696344,0.0,0.0,0.0,0.126476937269,0.991969548091
1449617123996419986,214,1449617123987869890,,1449617113008128126,/move_base-41-1449617113.8128126,1,This goal has been accepted by the simple action server,0,1449617123985228119,odom,2.30899678487,-0.217881076237,0.0,0.0,0.0,0.136952861975,0.990577565664
1449617124093812615,215,1449617124070499678,,1449617113008128126,/move_base-41-1449617113.8128126,1,This goal has been accepted by the simple action server,0,1449617124065223733,odom,2.3338669699,-0.210585608737,0.0,0.0,0.0,0.142185161666,0.989840077892
1449617124176142583,216,1449617124170361083,,1449617113008128126,/move_base-41-1449617113.8128126,1,This goal has been accepted by the simple action server,0,1449617124145234488,odom,2.35585889386,-0.203722170829,0.0,0.0,0.0,0.152637705278,0.988282212188
1449617124238302069,217,1449617124233737254,,1449617113008128126,/move_base-41-1449617113.8128126,1,This goal has been accepted by the simple action server,0,1449617124225223485,odom,2.37501278315,-0.19743760414,0.0,0.0,0.0,0.157857657354,0.987461877753
1449617124312278417,218,1449617124305648323,,1449617113008128126,/move_base-41-1449617113.8128126,1,This goal has been accepted by the simple action server,0,1449617124265584565,odom,2.38587952016,-0.193615906254,0.0,0.0,0.0,0.168284193326,0.985738520236
1449617124375587129,219,1449617124365156393,,1449617113008128126,/move_base-41-1449617113.8128126,1,This goal has been accepted by the simple action server,0,1449617124345222967,odom,2.40486556447,-0.186841966458,0.0,0.0,0.0,0.173490486104,0.984835545272
1449617124441863585,220,1449617124421946645,,1449617113008128126,/move_base-41-1449617113.8128126,1,This goal has been accepted by the simple action server,0,1449617124385229615,odom,2.41834498956,-0.181778831975,0.0,0.0,0.0,0.17869193488,0.983905072865
1449617124537776023,221,1449617124535093870,,1449617113008128126,/move_base-41-1449617113.8128126,1,This goal has been accepted by the simple action server,0,1449617124506941708,odom,2.45057533998,-0.169314893179,0.0,0.0,0.0,0.189079719651,0.981961740404
1449617124607205342,222,1449617124602041404,,1449617113008128126,/move_base-41-1449617113.8128126,1,This goal has been accepted by the simple action server,0,1449617124585225467,odom,2.46925815934,-0.161744662033,0.0,0.0,0.0,0.194265765611,0.98094893461
1449617124657748748,223,1449617124641827378,,1449617113008128126,/move_base-41-1449617113.8128126,1,This goal has been accepted by the simple action server,0,1449617124625226086,odom,2.47981271837,-0.157130268063,0.0,0.0,0.0,0.204621440688,0.978841185285
1449617124709100868,224,1449617124698337216,,1449617113008128126,/move_base-41-1449617113.8128126,1,This goal has been accepted by the simple action server,0,1449617124665395181,odom,2.4903672774,-0.152515874094,0.0,0.0,0.0,0.204621440688,0.978841185285
1449617124782200046,225,1449617124771550506,,1449617113008128126,/move_base-41-1449617113.8128126,1,This goal has been accepted by the simple action server,0,1449617124745221349,odom,2.50877606369,-0.144301582967,0.0,0.0,0.0,0.209790780666,0.977746300606
1449617124819650379,226,1449617124814945001,,1449617113008128126,/move_base-41-1449617113.8128126,1,This goal has been accepted by the simple action server,0,1449617124785335010,odom,2.51661707261,-0.140674261307,0.0,0.0,0.0,0.214954263107,0.976624116419
1449617124898508870,227,1449617124894177668,,1449617113008128126,/move_base-41-1449617113.8128126,1,This goal has been accepted by the simple action server,0,1449617124865233139,odom,2.53229909045,-0.133419617985,0.0,0.0,0.0,0.214954263107,0.976624116419
1449617124949917717,228,1449617124949686977,,1449617113008128126,/move_base-41-1449617113.8128126,1,This goal has been accepted by the simple action server,0,1449617124945258715,odom,2.54530282056,-0.127236315105,0.0,0.0,0.0,0.220111743843,0.97547466406
1449617125037471054,229,1449617125032009422,,1449617113008128126,/move_base-41-1449617113.8128126,1,This goal has been accepted by the simple action server,0,1449617125025255506,odom,2.56078750307,-0.119570037994,0.0,0.0,0.0,0.230408124366,0.973094083954
1449617125107862098,230,1449617125081769858,,1449617113008128126,/move_base-41-1449617113.8128126,1,This goal has been accepted by the simple action server,0,1449617125065887510,odom,2.56593556085,-0.116987338224,0.0,0.0,0.0,0.230408124366,0.973094083954
1449617125137214067,231,1449617125117996064,,1449617113008128126,/move_base-41-1449617113.8128126,1,This goal has been accepted by the simple action server,0,1449617125105227739,odom,2.57108361863,-0.114404638454,0.0,0.0,0.0,0.230408124366,0.973094083954
1449617125203223944,232,1449617125199639547,,1449617113008128126,/move_base-41-1449617113.8128126,1,This goal has been accepted by the simple action server,0,1449617125185519927,odom,2.58388481043,-0.1078122398,0.0,0.0,0.0,0.235546736669,0.971863022676
1449617125269442017,233,1449617125251597480,,1449617113008128126,/move_base-41-1449617113.8128126,1,This goal has been accepted by the simple action server,0,1449617125225226791,odom,2.58900528714,-0.105175280338,0.0,0.0,0.0,0.235546736669,0.971863022676
1449617125319564610,234,1449617125313921585,,1449617113008128126,/move_base-41-1449617113.8128126,1,This goal has been accepted by the simple action server,0,1449617125309836056,odom,2.59667192575,-0.101192858551,0.0,0.0,0.0,0.240678772307,0.970604826158
1449617125376336689,235,1449617125373867825,,1449617113008128126,/move_base-41-1449617113.8128126,1,This goal has been accepted by the simple action server,0,1449617125345221121,odom,2.60176424954,-0.0985019339011,0.0,0.0,0.0,0.240678772307,0.970604826158
1449617125440582296,236,1449617125430871575,,1449617113008128126,/move_base-41-1449617113.8128126,1,This goal has been accepted by the simple action server,0,1449617125425228265,odom,2.60938837439,-0.094438714596,0.0,0.0,0.0,0.24580408799,0.96931952953
1449617125510378914,237,1449617125506182982,,1449617113008128126,/move_base-41-1449617113.8128126,1,This goal has been accepted by the simple action server,0,1449617125465222933,odom,2.61193453628,-0.0930932522708,0.0,0.0,0.0,0.240678772307,0.970604826158
1449617125557230369,238,1449617125556958083,,1449617113008128126,/move_base-41-1449617113.8128126,1,This goal has been accepted by the simple action server,0,1449617125545221711,odom,2.61952993948,-0.0889763683066,0.0,0.0,0.0,0.24580408799,0.96931952953
1449617125615407405,239,1449617125609007205,,1449617113008128126,/move_base-41-1449617113.8128126,1,This goal has been accepted by the simple action server,0,1449617125585234113,odom,2.62459354161,-0.0862317789971,0.0,0.0,0.0,0.24580408799,0.96931952953
1449617125684717500,240,1449617125681746579,,1449617113008128126,/move_base-41-1449617113.8128126,1,This goal has been accepted by the simple action server,0,1449617125665224852,odom,2.62711069909,-0.0848328052742,0.0,0.0,0.0,0.250922540614,0.968007168678
1449617125790197113,241,1449617125783682586,,1449617113008128126,/move_base-41-1449617113.8128126,1,This goal has been accepted by the simple action server,0,1449617125745227567,odom,2.63215965763,-0.0820615368965,0.0,0.0,0.0,0.250922540614,0.968007168678
1449617125840048138,242,1449617125839513395,,1449617113008128126,/move_base-41-1449617113.8128126,1,This goal has been accepted by the simple action server,0,1449617125825239881,odom,2.63719397259,-0.0792635894507,0.0,0.0,0.0,0.250922540614,0.968007168678
1449617125920584535,243,1449617125919096788,,1449617125866828464,/move_base-42-1449617125.866828464,1,This goal has been accepted by the simple action server,0,1449617125905235389,odom,2.64222828755,-0.0764656420049,0.0,0.0,0.0,0.250922540614,0.968007168678
1449617125936922878,244,1449617125933636101,,1449617125866828464,/move_base-42-1449617125.866828464,1,This goal has been accepted by the simple action server,0,1449617125905235389,odom,2.64222828755,-0.0764656420049,0.0,0.0,0.0,0.250922540614,0.968007168678
1449617126023504085,245,1449617126020613866,,1449617125866828464,/move_base-42-1449617125.866828464,1,This goal has been accepted by the simple action server,0,1449617125985228335,odom,2.64976483528,-0.0722421980091,0.0,0.0,0.0,0.256033987268,0.966667780245
1449617126105781158,246,1449617126104296526,,1449617125866828464,/move_base-42-1449617125.866828464,1,This goal has been accepted by the simple action server,0,1449617126065219259,odom,2.65476930082,-0.0693912049091,0.0,0.0,0.0,0.256033987268,0.966667780245
1449617126180466113,247,1449617126173893206,,1449617125866828464,/move_base-42-1449617125.866828464,1,This goal has been accepted by the simple action server,0,1449617126145226779,odom,2.66226079497,-0.0650883516351,0.0,0.0,0.0,0.261138285236,0.965301401628
