%time,field.header.seq,field.header.stamp,field.header.frame_id,field.polygon.points0.x,field.polygon.points0.y,field.polygon.points0.z,field.polygon.points1.x,field.polygon.points1.y,field.polygon.points1.z,field.polygon.points2.x,field.polygon.points2.y,field.polygon.points2.z,field.polygon.points3.x,field.polygon.points3.y,field.polygon.points3.z,field.polygon.points4.x,field.polygon.points4.y,field.polygon.points4.z
1449617106939867519,1,1449617106939539754,odom,0.479999989271,0.0,0.0,0.329999983311,-0.264999985695,0.0,-0.539999961853,-0.264999985695,0.0,-0.539999961853,0.264999985695,0.0,0.329999983311,0.264999985695,0.0
1449617107140764597,2,1449617107139786671,odom,0.479999989271,0.0,0.0,0.329999983311,-0.264999985695,0.0,-0.539999961853,-0.264999985695,0.0,-0.539999961853,0.264999985695,0.0,0.329999983311,0.264999985695,0.0
1449617107441950478,3,1449617107441116048,odom,0.479999989271,0.0,0.0,0.329999983311,-0.264999985695,0.0,-0.539999961853,-0.264999985695,0.0,-0.539999961853,0.264999985695,0.0,0.329999983311,0.264999985695,0.0
1449617107638288377,4,1449617107636888148,odom,0.479999989271,0.0,0.0,0.329999983311,-0.264999985695,0.0,-0.539999961853,-0.264999985695,0.0,-0.539999961853,0.264999985695,0.0,0.329999983311,0.264999985695,0.0
1449617107865967892,5,1449617107864315018,odom,0.479999989271,0.0,0.0,0.329999983311,-0.264999985695,0.0,-0.539999961853,-0.264999985695,0.0,-0.539999961853,0.264999985695,0.0,0.329999983311,0.264999985695,0.0
1449617108027154762,6,1449617108026162047,odom,0.479999989271,0.0,0.0,0.329999983311,-0.264999985695,0.0,-0.539999961853,-0.264999985695,0.0,-0.539999961853,0.264999985695,0.0,0.329999983311,0.264999985695,0.0
1449617108234381442,7,1449617108233547758,odom,0.479999989271,0.0,0.0,0.329999983311,-0.264999985695,0.0,-0.539999961853,-0.264999985695,0.0,-0.539999961853,0.264999985695,0.0,0.329999983311,0.264999985695,0.0
1449617108500323654,8,1449617108497156978,odom,0.479999989271,0.0,0.0,0.329999983311,-0.264999985695,0.0,-0.539999961853,-0.264999985695,0.0,-0.539999961853,0.264999985695,0.0,0.329999983311,0.264999985695,0.0
1449617108652101987,9,1449617108651702715,odom,0.479999989271,0.0,0.0,0.329999983311,-0.264999985695,0.0,-0.539999961853,-0.264999985695,0.0,-0.539999961853,0.264999985695,0.0,0.329999983311,0.264999985695,0.0
1449617108903808652,10,1449617108903628445,odom,0.479999989271,0.0,0.0,0.329999983311,-0.264999985695,0.0,-0.539999961853,-0.264999985695,0.0,-0.539999961853,0.264999985695,0.0,0.329999983311,0.264999985695,0.0
1449617109099055884,11,1449617109095313187,odom,0.479999989271,0.0,0.0,0.329999983311,-0.264999985695,0.0,-0.539999961853,-0.264999985695,0.0,-0.539999961853,0.264999985695,0.0,0.329999983311,0.264999985695,0.0
1449617109260880219,12,1449617109258386944,odom,0.479999989271,0.0,0.0,0.329999983311,-0.264999985695,0.0,-0.539999961853,-0.264999985695,0.0,-0.539999961853,0.264999985695,0.0,0.329999983311,0.264999985695,0.0
1449617109457347452,13,1449617109456836318,odom,0.479999989271,0.0,0.0,0.329999983311,-0.264999985695,0.0,-0.539999961853,-0.264999985695,0.0,-0.539999961853,0.264999985695,0.0,0.329999983311,0.264999985695,0.0
1449617109635780131,14,1449617109635520116,odom,0.479999989271,0.0,0.0,0.329999983311,-0.264999985695,0.0,-0.539999961853,-0.264999985695,0.0,-0.539999961853,0.264999985695,0.0,0.329999983311,0.264999985695,0.0
1449617109861774689,15,1449617109853714719,odom,0.479999989271,0.0,0.0,0.329999983311,-0.264999985695,0.0,-0.539999961853,-0.264999985695,0.0,-0.539999961853,0.264999985695,0.0,0.329999983311,0.264999985695,0.0
1449617110060488139,16,1449617110060133007,odom,0.479999989271,0.0,0.0,0.329999983311,-0.264999985695,0.0,-0.539999961853,-0.264999985695,0.0,-0.539999961853,0.264999985695,0.0,0.329999983311,0.264999985695,0.0
1449617110269311067,17,1449617110269011413,odom,0.479999989271,0.0,0.0,0.329999983311,-0.264999985695,0.0,-0.539999961853,-0.264999985695,0.0,-0.539999961853,0.264999985695,0.0,0.329999983311,0.264999985695,0.0
1449617110469047881,18,1449617110468630055,odom,0.479999989271,0.0,0.0,0.329999983311,-0.264999985695,0.0,-0.539999961853,-0.264999985695,0.0,-0.539999961853,0.264999985695,0.0,0.329999983311,0.264999985695,0.0
1449617110674423103,19,1449617110674239061,odom,0.479999989271,0.0,0.0,0.329999983311,-0.264999985695,0.0,-0.539999961853,-0.264999985695,0.0,-0.539999961853,0.264999985695,0.0,0.329999983311,0.264999985695,0.0
1449617110872660901,20,1449617110867071959,odom,0.479999989271,0.0,0.0,0.329999983311,-0.264999985695,0.0,-0.539999961853,-0.264999985695,0.0,-0.539999961853,0.264999985695,0.0,0.329999983311,0.264999985695,0.0
1449617111085787495,21,1449617111083687466,odom,0.479999989271,0.0,0.0,0.329999983311,-0.264999985695,0.0,-0.539999961853,-0.264999985695,0.0,-0.539999961853,0.264999985695,0.0,0.329999983311,0.264999985695,0.0
1449617111266809289,22,1449617111266612131,odom,0.479999989271,0.0,0.0,0.329999983311,-0.264999985695,0.0,-0.539999961853,-0.264999985695,0.0,-0.539999961853,0.264999985695,0.0,0.329999983311,0.264999985695,0.0
1449617111427516030,23,1449617111427098769,odom,0.479999989271,0.0,0.0,0.329999983311,-0.264999985695,0.0,-0.539999961853,-0.264999985695,0.0,-0.539999961853,0.264999985695,0.0,0.329999983311,0.264999985695,0.0
1449617111645978932,24,1449617111644034197,odom,0.479999989271,0.0,0.0,0.329999983311,-0.264999985695,0.0,-0.539999961853,-0.264999985695,0.0,-0.539999961853,0.264999985695,0.0,0.329999983311,0.264999985695,0.0
1449617111840231305,25,1449617111838321911,odom,0.479999989271,0.0,0.0,0.329999983311,-0.264999985695,0.0,-0.539999961853,-0.264999985695,0.0,-0.539999961853,0.264999985695,0.0,0.329999983311,0.264999985695,0.0
1449617112023913423,26,1449617112023487272,odom,0.479999989271,0.0,0.0,0.329999983311,-0.264999985695,0.0,-0.539999961853,-0.264999985695,0.0,-0.539999961853,0.264999985695,0.0,0.329999983311,0.264999985695,0.0
1449617112239901356,27,1449617112239500330,odom,0.479999989271,0.0,0.0,0.329999983311,-0.264999985695,0.0,-0.539999961853,-0.264999985695,0.0,-0.539999961853,0.264999985695,0.0,0.329999983311,0.264999985695,0.0
1449617112439797306,28,1449617112439475279,odom,0.479999989271,0.0,0.0,0.329999983311,-0.264999985695,0.0,-0.539999961853,-0.264999985695,0.0,-0.539999961853,0.264999985695,0.0,0.329999983311,0.264999985695,0.0
1449617112644336607,29,1449617112640768098,odom,0.479999989271,0.0,0.0,0.329999983311,-0.264999985695,0.0,-0.539999961853,-0.264999985695,0.0,-0.539999961853,0.264999985695,0.0,0.329999983311,0.264999985695,0.0
1449617112862301795,30,1449617112861541723,odom,0.479999989271,0.0,0.0,0.329999983311,-0.264999985695,0.0,-0.539999961853,-0.264999985695,0.0,-0.539999961853,0.264999985695,0.0,0.329999983311,0.264999985695,0.0
1449617113042895416,31,1449617113042433047,odom,0.479999989271,0.0,0.0,0.329999983311,-0.264999985695,0.0,-0.539999961853,-0.264999985695,0.0,-0.539999961853,0.264999985695,0.0,0.329999983311,0.264999985695,0.0
1449617113345852312,32,1449617113343926254,odom,0.479999989271,0.0,0.0,0.329999983311,-0.264999985695,0.0,-0.539999961853,-0.264999985695,0.0,-0.539999961853,0.264999985695,0.0,0.329999983311,0.264999985695,0.0
1449617113515527509,33,1449617113502809565,odom,0.479999989271,0.0,0.0,0.329999983311,-0.264999985695,0.0,-0.539999961853,-0.264999985695,0.0,-0.539999961853,0.264999985695,0.0,0.329999983311,0.264999985695,0.0
1449617113842130939,34,1449617113841772593,odom,0.479999989271,0.0,0.0,0.329999983311,-0.264999985695,0.0,-0.539999961853,-0.264999985695,0.0,-0.539999961853,0.264999985695,0.0,0.329999983311,0.264999985695,0.0
1449617114177702070,35,1449617114171602048,odom,0.485651582479,-0.0102358674631,0.0,0.33008441329,-0.272006481886,0.0,-0.539721250534,-0.253619462252,0.0,-0.528519928455,0.276262164116,0.0,0.341285705566,0.257875114679,0.0
1449617114426094404,36,1449617114422687455,odom,0.494153410196,-0.0155501719564,0.0,0.335828602314,-0.275662183762,0.0,-0.53373414278,-0.248084187508,0.0,-0.51693379879,0.281649470329,0.0,0.352628976107,0.254071474075,0.0
1449617114844865451,37,1449617114843310424,odom,0.522932350636,-0.0165846850723,0.0,0.364607542753,-0.276696681976,0.0,-0.504955232143,-0.249118700624,0.0,-0.488154828548,0.280614942312,0.0,0.381407916546,0.253036975861,0.0
1449617115107977200,38,1449617115105266589,odom,0.572119772434,-0.00222129607573,0.0,0.422119766474,-0.267221301794,0.0,-0.44788017869,-0.267221301794,0.0,-0.44788017869,0.262778699398,0.0,0.422119766474,0.262778699398,0.0
1449617115595684401,39,1449617115594312887,odom,0.623501360416,0.0194324664772,0.0,0.484834164381,-0.251669734716,0.0,-0.384388595819,-0.288435578346,0.0,-0.406786203384,0.241090923548,0.0,0.462436556816,0.27785679698,0.0
1449617115837437138,40,1449617115836930734,odom,0.650942623615,0.0416877642274,0.0,0.523855924606,-0.235032275319,0.0,-0.343036592007,-0.308498293161,0.0,-0.387791752815,0.219608664513,0.0,0.4791007936,0.293074697256,0.0
1449617116073686782,41,1449617116072921903,odom,0.659093379974,0.0474998019636,0.0,0.534938097,-0.230547815561,0.0,-0.331129640341,-0.313170939684,0.0,-0.381463259459,0.214433580637,0.0,0.484604507685,0.29705670476,0.0
1449617116460299258,42,1449617116459184177,odom,0.662417888641,0.042690794915,0.0,0.535331249237,-0.234029248357,0.0,-0.331561297178,-0.307495266199,0.0,-0.376316457987,0.220611691475,0.0,0.490576088428,0.294077724218,0.0
1449617116884289901,43,1449617116877721824,odom,0.679637372494,0.044119540602,0.0,0.552550733089,-0.232600495219,0.0,-0.314341843128,-0.306066513062,0.0,-0.359097003937,0.222040444613,0.0,0.507795512676,0.295506477356,0.0
1449617117191678376,44,1449617117187024884,odom,0.737826943398,0.0382285863161,0.0,0.604920327663,-0.23574373126,0.0,-0.263331234455,-0.290871977806,0.0,-0.296915113926,0.238062903285,0.0,0.571336448193,0.293191164732,0.0
1449617117490137873,45,1449617117485814184,odom,0.804233431816,0.0371792092919,0.0,0.668438911438,-0.235373273492,0.0,-0.200346753001,-0.281322896481,0.0,-0.228339061141,0.247937366366,0.0,0.640446603298,0.293886989355,0.0
1449617117992842428,46,1449617117986486646,odom,0.948804676533,0.0100716361776,0.0,0.79601252079,-0.253328382969,0.0,-0.0739388391376,-0.244134351611,0.0,-0.068337880075,0.285836040974,0.0,0.801613509655,0.276642024517,0.0
1449617118328454647,47,1449617118327968705,odom,1.05752754211,-0.0135845253244,0.0,0.893740773201,-0.270292311907,0.0,0.02495508641,-0.224342688918,0.0,0.052947383374,0.304917573929,0.0,0.921733081341,0.258967965841,0.0
1449617118688221184,48,1449617118685864613,odom,1.13874304295,-0.0457349009812,0.0,0.961626648903,-0.293433874846,0.0,0.0964804142714,-0.201662912965,0.0,0.15238687396,0.325380206108,0.0,1.01753306389,0.233609244227,0.0
1449617118978159454,49,1449617118976768898,odom,1.24468612671,-0.0799415260553,0.0,1.05726027489,-0.319934368134,0.0,0.196765109897,-0.191684633493,0.0,0.274894267321,0.332525074482,0.0,1.13538944721,0.204275354743,0.0
1449617119535133304,50,1449617119534947727,odom,1.3935546875,-0.145316615701,0.0,1.1889039278,-0.370800644159,0.0,0.340240955353,-0.17930342257,0.0,0.456900179386,0.3376981318,0.0,1.30556309223,0.146200925112,0.0
1449617119975829958,51,1449617119975389271,odom,1.48349881172,-0.189369991422,0.0,1.26950192451,-0.406004101038,0.0,0.429689705372,-0.178813815117,0.0,0.568093001842,0.332795917988,0.0,1.40790522099,0.105605617166,0.0
1449617120167697968,52,1449617120163401066,odom,1.59804427624,-0.239083051682,0.0,1.37728786469,-0.448824852705,0.0,0.545099377632,-0.195127665997,0.0,0.699650585651,0.311837732792,0.0,1.5318390131,0.0581405498087,0.0
1449617120460067756,53,1449617120459251479,odom,1.65419709682,-0.262172758579,0.0,1.43123650551,-0.469569921494,0.0,0.601775586605,-0.207092449069,0.0,0.761675655842,0.298211395741,0.0,1.59113657475,0.0357339084148,0.0
1449617120847081686,54,1449617120846713465,odom,1.77478897572,-0.301067441702,0.0,1.55182850361,-0.508464634418,0.0,0.722367465496,-0.245987132192,0.0,0.882267534733,0.259316682816,0.0,1.71172857285,-0.00316078402102,0.0
1449617121201758587,55,1449617121201235523,odom,1.88351690769,-0.329642444849,0.0,1.66276049614,-0.539384245872,0.0,0.830572068691,-0.285687059164,0.0,0.985123217106,0.221278354526,0.0,1.81731164455,-0.0324188396335,0.0
1449617121414080606,56,1449617121412869002,odom,1.9417321682,-0.335797935724,0.0,1.72545790672,-0.550158441067,0.0,0.888093531132,-0.314105838537,0.0,1.03189575672,0.196012690663,0.0,1.86926007271,-0.0400399267673,0.0
1449617121662284965,57,1449617121661233634,odom,2.04565143585,-0.336002886295,0.0,1.84100067616,-0.561486899853,0.0,0.992337763309,-0.369989693165,0.0,1.10899698734,0.147011876106,0.0,1.95765984058,-0.0444853380322,0.0
1449617122104336106,58,1449617122101449612,odom,2.19280958176,-0.33310085535,0.0,2.00285792351,-0.571099638939,0.0,1.14376628399,-0.433763444424,0.0,1.22743082047,0.08959133178,0.0,2.08652257919,-0.0477448254824,0.0
1449617122350966629,59,1449617122347350035,odom,2.25267887115,-0.320588797331,0.0,2.07295489311,-0.566402196884,0.0,1.20882666111,-0.465493619442,0.0,1.27029979229,0.0609292760491,0.0,2.13442778587,-0.0399793125689,0.0
1449617122613442904,60,1449617122613036567,odom,2.31519651413,-0.300558179617,0.0,2.14870619774,-0.555520772934,0.0,1.28045451641,-0.500392496586,0.0,1.31403839588,0.0285423845053,0.0,2.18229007721,-0.0265858676285,0.0
1449617123029548142,61,1449617123028270599,odom,2.45120573044,-0.25687417388,0.0,2.30968117714,-0.526495814323,0.0,1.44011843204,-0.554073810577,0.0,1.42331814766,-0.0243401639163,0.0,2.29288077354,0.0032378223259,0.0
1449617123174899355,62,1449617123171487902,odom,2.50763249397,-0.233328491449,0.0,2.37762856483,-0.508690059185,0.0,1.51000809669,-0.572990775108,0.0,1.47083640099,-0.0444403402507,0.0,2.33845686913,0.0198603905737,0.0
1449617123363800518,63,1449617123357479204,odom,2.56872153282,-0.206630215049,0.0,2.45047044754,-0.487239688635,0.0,1.58634233475,-0.588148295879,0.0,1.52486920357,-0.061725396663,0.0,2.38899731636,0.0391831919551,0.0
1449617123736291448,64,1449617123736048472,odom,2.67590856552,-0.147609621286,0.0,2.58177542686,-0.437202394009,0.0,1.7292548418,-0.61072075367,0.0,1.62354826927,-0.0913691148162,0.0,2.47606897354,0.0821492373943,0.0
1449617124129169709,65,1449617124128756231,odom,2.73315882683,-0.113517701626,0.0,2.6513478756,-0.406829804182,0.0,1.80692183971,-0.616220295429,0.0,1.67936205864,-0.10179977119,0.0,2.52378821373,0.10759075731,0.0
1449617124298000667,66,1449617124297564326,odom,2.81349253654,-0.0589070059359,0.0,2.75043201447,-0.356813669205,0.0,1.92097103596,-0.619291126728,0.0,1.76107096672,-0.113987311721,0.0,2.59053206444,0.148490160704,0.0
1449617124375596169,67,1449617124363770791,odom,2.84955954552,-0.0305453650653,0.0,2.79597401619,-0.330301254988,0.0,1.97525000572,-0.618939757347,0.0,1.79941284657,-0.11895852536,0.0,2.62013673782,0.169679999352,0.0
1449617124579209975,68,1449617124578830496,odom,2.87847495079,-0.00894505996257,0.0,2.83123660088,-0.309766501188,0.0,2.01679635048,-0.615686178207,0.0,1.83043146133,-0.119532823563,0.0,2.64487171173,0.186386838555,0.0
1449617124821940065,69,1449617124820974350,odom,2.93017220497,0.0397643446922,0.0,2.8988878727,-0.263132154942,0.0,2.10174155235,-0.611640036106,0.0,1.88943207264,-0.126022174954,0.0,2.68657851219,0.22248570621,0.0
1449617124984772824,70,1449617124984369386,odom,2.97359013557,0.0764152556658,0.0,2.95192289352,-0.227320700884,0.0,2.16622447968,-0.600922048092,0.0,1.93862831593,-0.1222781986,0.0,2.72432684898,0.251323163509,0.0
1449617125152571092,71,1449617125152380195,odom,2.98982310295,0.0956703945994,0.0,2.97458004951,-0.208455651999,0.0,2.19695305824,-0.598578929901,0.0,1.95929181576,-0.124852105975,0.0,2.73691892624,0.265271157026,0.0
1449617125440588008,72,1449617125433422457,odom,3.01574230194,0.114587113261,0.0,3.00371408463,-0.189683035016,0.0,2.2302532196,-0.588002383709,0.0,1.98759901524,-0.116813570261,0.0,2.76105976105,0.281505763531,0.0
1449617125589022242,73,1449617125588318097,odom,3.04152703285,0.139755830169,0.0,3.03593230247,-0.164700567722,0.0,2.27106237411,-0.579277634621,0.0,2.01850390434,-0.113322488964,0.0,2.7833738327,0.301254600286,0.0
1449617125747466868,74,1449617125745813789,odom,3.04659056664,0.142500415444,0.0,3.04099583626,-0.161955982447,0.0,2.2761259079,-0.576533079147,0.0,2.02356767654,-0.110577903688,0.0,2.78843736649,0.303999185562,0.0
1449617125956375879,75,1449617125953201514,odom,3.05675029755,0.153915435076,0.0,3.05437326431,-0.150583088398,0.0,2.29392743111,-0.573220074177,0.0,2.0364587307,-0.10995990783,0.0,2.79690480232,0.312677055597,0.0
1449617126155828980,76,1449617126155010050,odom,3.07183814049,0.168208613992,0.0,3.07267904282,-0.136298030615,0.0,2.31674194336,-0.566947698593,0.0,2.05439209938,-0.106434285641,0.0,2.81032919884,0.324215352535,0.0
1449617126333504452,77,1449617126332993599,odom,3.0867433548,0.182713150978,0.0,3.09080219269,-0.12176758796,0.0,2.33945846558,-0.560381829739,0.0,2.07225680351,-0.10266662389,0.0,2.82360053062,0.335947602987,0.0
1449617126552069593,78,1449617126527387694,odom,3.10640692711,0.200382933021,0.0,3.11368322372,-0.10403791815,0.0,2.36701655388,-0.550567746162,0.0,2.09499263763,-0.0957018509507,0.0,2.84165930748,0.35082796216,0.0
1449617126810703585,79,1449617126808952205,odom,3.12591385841,0.218207463622,0.0,3.1364068985,-0.0861194953322,0.0,2.39450097084,-0.540515065193,0.0,2.11768507957,-0.0885492712259,0.0,2.85959124565,0.365846276283,0.0
1449617126959590986,80,1449617126954971845,odom,3.13999319077,0.239119231701,0.0,3.15691566467,-0.0649179890752,0.0,2.42477869987,-0.5348919034,0.0,2.13847279549,-0.0888774171472,0.0,2.87060976028,0.381096482277,0.0
1449617127152508787,81,1449617127148344345,odom,3.14482355118,0.242256075144,0.0,3.16174602509,-0.0617811381817,0.0,2.42960906029,-0.531755030155,0.0,2.1433031559,-0.0857405662537,0.0,2.8754401207,0.38423332572,0.0
1449617127312428671,82,1449617127309933715,odom,3.14446759224,0.24809153378,0.0,3.16460227966,-0.0557498633862,0.0,2.43747282028,-0.53343462944,0.0,2.14646935463,-0.0904707089067,0.0,2.87359881401,0.387214064598,0.0
1449617127536512785,83,1449617127519564267,odom,3.14480686188,0.242281600833,0.0,3.16172933578,-0.0617556124926,0.0,2.42959260941,-0.531729519367,0.0,2.1432864666,-0.0857150480151,0.0,2.8754234314,0.384258836508,0.0
1449617127829873660,84,1449617127829433297,odom,3.14480686188,0.242281600833,0.0,3.16172933578,-0.0617556124926,0.0,2.42959260941,-0.531729519367,0.0,2.1432864666,-0.0857150480151,0.0,2.8754234314,0.384258836508,0.0
1449617127955808090,85,1449617127948209528,odom,3.14480686188,0.242281600833,0.0,3.16172933578,-0.0617556124926,0.0,2.42959260941,-0.531729519367,0.0,2.1432864666,-0.0857150480151,0.0,2.8754234314,0.384258836508,0.0
1449617128166049547,86,1449617128164388851,odom,3.14480686188,0.242281600833,0.0,3.16172933578,-0.0617556124926,0.0,2.42959260941,-0.531729519367,0.0,2.1432864666,-0.0857150480151,0.0,2.8754234314,0.384258836508,0.0
1449617128346365875,87,1449617128346143114,odom,3.14480686188,0.242281600833,0.0,3.16172933578,-0.0617556124926,0.0,2.42959260941,-0.531729519367,0.0,2.1432864666,-0.0857150480151,0.0,2.8754234314,0.384258836508,0.0
1449617128543915123,88,1449617128528837757,odom,3.14480686188,0.242281600833,0.0,3.16172933578,-0.0617556124926,0.0,2.42959260941,-0.531729519367,0.0,2.1432864666,-0.0857150480151,0.0,2.8754234314,0.384258836508,0.0
1449617128742906448,89,1449617128735957547,odom,3.14480686188,0.242281600833,0.0,3.16172933578,-0.0617556124926,0.0,2.42959260941,-0.531729519367,0.0,2.1432864666,-0.0857150480151,0.0,2.8754234314,0.384258836508,0.0
1449617128937436613,90,1449617128930596319,odom,3.14480686188,0.242281600833,0.0,3.16172933578,-0.0617556124926,0.0,2.42959260941,-0.531729519367,0.0,2.1432864666,-0.0857150480151,0.0,2.8754234314,0.384258836508,0.0
1449617129134427980,91,1449617129125287426,odom,3.14480686188,0.242281600833,0.0,3.16172933578,-0.0617556124926,0.0,2.42959260941,-0.531729519367,0.0,2.1432864666,-0.0857150480151,0.0,2.8754234314,0.384258836508,0.0
1449617129394041356,92,1449617129391571812,odom,3.14480686188,0.242281600833,0.0,3.16172933578,-0.0617556124926,0.0,2.42959260941,-0.531729519367,0.0,2.1432864666,-0.0857150480151,0.0,2.8754234314,0.384258836508,0.0
1449617129697353829,93,1449617129690789926,odom,3.14480686188,0.242281600833,0.0,3.16172933578,-0.0617556124926,0.0,2.42959260941,-0.531729519367,0.0,2.1432864666,-0.0857150480151,0.0,2.8754234314,0.384258836508,0.0
1449617129940303446,94,1449617129927659184,odom,3.14480686188,0.242281600833,0.0,3.16172933578,-0.0617556124926,0.0,2.42959260941,-0.531729519367,0.0,2.1432864666,-0.0857150480151,0.0,2.8754234314,0.384258836508,0.0
1449617130077055119,95,1449617130076814635,odom,3.14445114136,0.248117059469,0.0,3.16458559036,-0.0557243414223,0.0,2.43745613098,-0.533409118652,0.0,2.14645290375,-0.0904451906681,0.0,2.87358236313,0.387239575386,0.0
1449617130343256788,96,1449617130342992051,odom,3.14963722229,0.245418459177,0.0,3.1665596962,-0.0586187615991,0.0,2.4344227314,-0.528592646122,0.0,2.14811682701,-0.082578189671,0.0,2.88025379181,0.387395709753,0.0
1449617130482582176,97,1449617130481834171,odom,3.14928150177,0.251253902912,0.0,3.16941595078,-0.0525874905288,0.0,2.44228649139,-0.530272245407,0.0,2.15128326416,-0.087308332324,0.0,2.87841248512,0.390376418829,0.0
1449617130550664968,98,1449617130550202623,odom,3.1544675827,0.24855530262,0.0,3.17139005661,-0.0554819107056,0.0,2.43925309181,-0.525455772877,0.0,2.15294718742,-0.0794413387775,0.0,2.88508415222,0.390532553196,0.0
1449617130736534704,99,1449617130730715611,odom,3.15411162376,0.254390776157,0.0,3.17424631119,-0.04945063591,0.0,2.44711685181,-0.527135372162,0.0,2.15611338615,-0.0841714814305,0.0,2.88324284554,0.393513292074,0.0
1449617130977977576,100,1449617130965728912,odom,3.15890860558,0.257578492165,0.0,3.179043293,-0.0462629161775,0.0,2.45191383362,-0.523947656155,0.0,2.16091036797,-0.0809837579727,0.0,2.88803982735,0.396701008081,0.0
1449617131207818208,101,1449617131206996738,odom,3.16328811646,0.266597598791,0.0,3.18663239479,-0.0370140708983,0.0,2.46459174156,-0.522356331348,0.0,2.16892337799,-0.0824924558401,0.0,2.89096403122,0.402849823236,0.0
1449617131340321915,102,1449617131337060044,odom,3.16806817055,0.269810646772,0.0,3.19141244888,-0.0338010005653,0.0,2.46937179565,-0.519143283367,0.0,2.17370343208,-0.0792793855071,0.0,2.89574408531,0.40606290102,0.0
1449617131737920291,103,1449617131734833745,odom,3.18186068535,0.285377174616,0.0,3.20841217041,-0.0179708283395,0.0,2.49154090881,-0.510916411877,0.0,2.19124078751,-0.0742016732693,0.0,2.9081120491,0.418743938208,0.0
1449617132106550661,104,1449617132104857683,odom,3.18604850769,0.294486820698,0.0,3.21580433846,-0.00856365729123,0.0,2.50418233871,-0.50905752182,0.0,2.19928383827,-0.075540676713,0.0,2.91090583801,0.424953192472,0.0
1449617132209532109,105,1449617132208553828,odom,3.19017481804,0.303590416908,0.0,3.22313165665,0.000871320953593,0.0,2.51683855057,-0.507114887238,0.0,2.20737552643,-0.0768444016576,0.0,2.91366863251,0.43114182353,0.0
1449617132445089047,106,1449617132444931688,odom,3.20016384125,0.304451555014,0.0,3.22991967201,0.00140108866617,0.0,2.51829767227,-0.499092787504,0.0,2.21339917183,-0.0655759349465,0.0,2.92502117157,0.434917926788,0.0
1449617132609956976,107,1449617132609610065,odom,3.20425510406,0.313604950905,0.0,3.23721194267,0.0108858533204,0.0,2.53091883659,-0.497100383043,0.0,2.22145605087,-0.066829867661,0.0,2.92774891853,0.441156357527,0.0
1449617132934508725,108,1449617132934197908,odom,3.20894861221,0.316943138838,0.0,3.24190545082,0.0142240300775,0.0,2.53561234474,-0.49376219511,0.0,2.2261493206,-0.0634916871786,0.0,2.93244242668,0.44449454546,0.0
1449617133008364945,109,1449617133008114583,odom,3.22763395309,0.330419659615,0.0,3.2605907917,0.0277005545795,0.0,2.55429768562,-0.480285674334,0.0,2.24483466148,-0.0500151664019,0.0,2.95112776756,0.457971066236,0.0
1449617133187925793,110,1449617133186677391,odom,3.23161029816,0.339640378952,0.0,3.26776432991,0.0372864641249,0.0,2.56687903404,-0.478135406971,0.0,2.25288653374,-0.051159273833,0.0,2.95377182961,0.464262604713,0.0
1449617133633379068,111,1449617133632977540,odom,3.25865268707,0.366012275219,0.0,3.29799985886,0.0640573203564,0.0,2.60260057449,-0.458742618561,0.0,2.28411316872,-0.0351085588336,0.0,2.97951245308,0.487691372633,0.0
1449617133801295270,112,1449617133801098742,odom,3.26785993576,0.372934371233,0.0,3.30720710754,0.0709794163704,0.0,2.61180782318,-0.451820522547,0.0,2.29332065582,-0.0281864628196,0.0,2.98871994019,0.494613468647,0.0
1449617134057119946,113,1449617134056261200,odom,3.27704906464,0.379880696535,0.0,3.31639623642,0.0779257416725,0.0,2.62099695206,-0.444874197245,0.0,2.30250954628,-0.0212401375175,0.0,2.99790883064,0.501559793949,0.0
1449617134265751114,114,1449617134264001357,odom,3.28084802628,0.389159172773,0.0,3.32338404655,0.0876368954778,0.0,2.63354849815,-0.442482709885,0.0,2.31060194969,-0.0222380515188,0.0,3.00043773651,0.507881581783,0.0
1449617134406503158,115,1449617134405964472,odom,3.28998184204,0.39617818594,0.0,3.33251786232,0.0946559086442,0.0,2.64268231392,-0.435463726521,0.0,2.31973576546,-0.015219040215,0.0,3.00957131386,0.514900565147,0.0
1449617134797382475,116,1449617134795854898,odom,3.29913377762,0.403172969818,0.0,3.34167003632,0.101650685072,0.0,2.6518342495,-0.428468942642,0.0,2.32888793945,-0.00822425726801,0.0,3.01872348785,0.521895349026,0.0
1449617135118392707,117,1449617135116930953,odom,3.33110189438,0.427739500999,0.0,3.37363791466,0.126217231154,0.0,2.68380236626,-0.403902381659,0.0,2.36085581779,0.0163422822952,0.0,3.05069160461,0.546461880207,0.0
1449617135357616421,118,1449617135356942268,odom,3.34480237961,0.43826803565,0.0,3.38733863831,0.136745750904,0.0,2.69750285149,-0.39337387681,0.0,2.37455654144,0.0268707983196,0.0,3.06439208984,0.55699044466,0.0
1449617135622675357,119,1449617135622489934,odom,3.35930776596,0.442979127169,0.0,3.39865493774,0.141024157405,0.0,2.70325565338,-0.381775766611,0.0,2.3847682476,0.0418582782149,0.0,3.08016753197,0.564658224583,0.0
1449617135861140404,120,1449617135857226805,odom,3.37764883041,0.456920206547,0.0,3.4169960022,0.154965266585,0.0,2.72159671783,-0.367834657431,0.0,2.40310931206,0.0557993836701,0.0,3.09850859642,0.578599333763,0.0
1449617135962999739,121,1449617135956256454,odom,3.38681936264,0.463890761137,0.0,3.42616653442,0.161935821176,0.0,2.73076725006,-0.360864132643,0.0,2.41227984428,0.062769934535,0.0,3.10767912865,0.585569858551,0.0
1449617136179457429,122,1449617136179125799,odom,3.39602661133,0.470812857151,0.0,3.43537402153,0.16885791719,0.0,2.73997473717,-0.353942036629,0.0,2.42148733139,0.069692030549,0.0,3.11688661575,0.592491984367,0.0
1449617136424626381,123,1449617136424143517,odom,3.40985608101,0.481171578169,0.0,3.44920325279,0.179216638207,0.0,2.75380396843,-0.343583315611,0.0,2.43531656265,0.0800507515669,0.0,3.13071584702,0.602850675583,0.0
1449617136535709225,124,1449617136534839148,odom,3.41982460022,0.482243657112,0.0,3.45597863197,0.179889753461,0.0,2.75509333611,-0.335532128811,0.0,2.44110059738,0.0914440080523,0.0,3.14198589325,0.606865882874,0.0
1449617136748497039,125,1449617136748061822,odom,3.42908644676,0.489092499018,0.0,3.46524047852,0.186738580465,0.0,2.76435518265,-0.328683286905,0.0,2.45036244392,0.0982928350568,0.0,3.15124773979,0.613714694977,0.0
1449617137172216999,126,1449617137159337536,odom,3.44304227829,0.499279856682,0.0,3.47919631004,0.196925967932,0.0,2.77831101418,-0.318495899439,0.0,2.46431827545,0.108480222523,0.0,3.16520357132,0.623902082443,0.0
1449617137533112953,127,1449617137531869651,odom,3.46766901016,0.504495441914,0.0,3.49742484093,0.201444983482,0.0,2.78580284119,-0.299048870802,0.0,2.48090434074,0.134467959404,0.0,3.19252610207,0.634961843491,0.0
1449617137619800642,128,1449617137617173251,odom,3.47707343102,0.511147022247,0.0,3.50682926178,0.208096534014,0.0,2.79520726204,-0.292397320271,0.0,2.4903087616,0.141119509935,0.0,3.20193076134,0.64161336422,0.0
1449617137836202493,129,1449617137834195139,odom,3.48653054237,0.517723798752,0.0,3.51628637314,0.214673325419,0.0,2.8046643734,-0.285820543766,0.0,2.49976563454,0.147696301341,0.0,3.21138763428,0.648190140724,0.0
1449617138098013508,130,1449617138097508997,odom,3.49656248093,0.518429160118,0.0,3.52311420441,0.215081170201,0.0,2.80624270439,-0.277864426374,0.0,2.50594258308,0.158850327134,0.0,3.22281384468,0.65179592371,0.0
1449617138257937418,131,1449617138255480676,odom,3.50656747818,0.51907902956,0.0,3.52991199493,0.215467348695,0.0,2.80787110329,-0.269874930382,0.0,2.51220297813,0.169988974929,0.0,3.23424363136,0.655331254005,0.0
1449617138529711198,132,1449617138528146608,odom,3.51133060455,0.522317230701,0.0,3.53467488289,0.21870559454,0.0,2.81263422966,-0.266636699438,0.0,2.51696586609,0.173227205873,0.0,3.23900651932,0.658569514751,0.0
1449617138691811624,133,1449617138691593294,odom,3.51133060455,0.522317230701,0.0,3.53467488289,0.21870559454,0.0,2.81263422966,-0.266636699438,0.0,2.51696586609,0.173227205873,0.0,3.23900651932,0.658569514751,0.0
1449617138866058201,134,1449617138865178283,odom,3.51133060455,0.522317230701,0.0,3.53467488289,0.21870559454,0.0,2.81263422966,-0.266636699438,0.0,2.51696586609,0.173227205873,0.0,3.23900651932,0.658569514751,0.0
1449617139087980160,135,1449617139087456811,odom,3.51133060455,0.522317230701,0.0,3.53467488289,0.21870559454,0.0,2.81263422966,-0.266636699438,0.0,2.51696586609,0.173227205873,0.0,3.23900651932,0.658569514751,0.0
1449617139253218535,136,1449617139252502085,odom,3.51133060455,0.522317230701,0.0,3.53467488289,0.21870559454,0.0,2.81263422966,-0.266636699438,0.0,2.51696586609,0.173227205873,0.0,3.23900651932,0.658569514751,0.0
1449617139478836154,137,1449617139478575164,odom,3.51133060455,0.522317230701,0.0,3.53467488289,0.21870559454,0.0,2.81263422966,-0.266636699438,0.0,2.51696586609,0.173227205873,0.0,3.23900651932,0.658569514751,0.0
1449617139833368458,138,1449617139832730024,odom,3.51133060455,0.522317230701,0.0,3.53467488289,0.21870559454,0.0,2.81263422966,-0.266636699438,0.0,2.51696586609,0.173227205873,0.0,3.23900651932,0.658569514751,0.0
1449617140046809505,139,1449617140046527195,odom,3.51609349251,0.525555491447,0.0,3.53943777084,0.221943825483,0.0,2.81739711761,-0.263398468494,0.0,2.52172875404,0.176465451717,0.0,3.24376964569,0.661807715893,0.0
1449617140212393953,140,1449617140209858904,odom,3.53088498116,0.529312610626,0.0,3.55101943016,0.225471228361,0.0,2.82388997078,-0.252213537693,0.0,2.53288650513,0.19075037539,0.0,3.26001596451,0.668435156345,0.0
1449617140415702729,141,1449617140415358037,odom,3.54573178291,0.53288769722,0.0,3.56265425682,0.228850513697,0.0,2.83051729202,-0.241123378277,0.0,2.54421138763,0.204891070724,0.0,3.27634835243,0.674864947796,0.0
1449617140546271051,142,1449617140545579818,odom,3.55540895462,0.539135932922,0.0,3.57233142853,0.235098689795,0.0,2.84019446373,-0.234875202179,0.0,2.55388855934,0.211139261723,0.0,3.28602552414,0.681113123894,0.0
1449617140769197582,143,1449617140769013910,odom,3.5703253746,0.542502522469,0.0,3.58403396606,0.238303422928,0.0,2.84697127342,-0.223907098174,0.0,2.56539463997,0.225108087063,0.0,3.30245733261,0.687318623066,0.0
1449617140936670795,144,1449617140936266583,odom,3.60040020943,0.542863845825,0.0,3.60445904732,0.238383114338,0.0,2.85311532021,-0.20023111999,0.0,2.58591341972,0.257484078407,0.0,3.33725738525,0.696098327637,0.0
1449617141085336102,145,1449617141084733013,odom,3.61041069031,0.542798817158,0.0,3.61125159264,0.238292187452,0.0,2.85531449318,-0.192357465625,0.0,2.59296488762,0.268155932426,0.0,3.34890174866,0.698805570602,0.0
1449617141532916474,146,1449617141527589792,odom,3.66564178467,0.543335795403,0.0,3.65039873123,0.239209771156,0.0,2.87277173996,-0.150913491845,0.0,2.63511037827,0.322813302279,0.0,3.41273736954,0.712936580181,0.0
1449617141578425598,147,1449617141577666564,odom,3.69598293304,0.546833336353,0.0,3.67431569099,0.243097379804,0.0,2.88861727715,-0.130503982306,0.0,2.66102099419,0.348139882088,0.0,3.44671940804,0.721741259098,0.0
1449617141778557756,148,1449617141778444415,odom,3.71070957184,0.542434453964,0.0,3.68262815475,0.239224255085,0.0,2.88920927048,-0.117688283324,0.0,2.67177987099,0.365658819675,0.0,3.46519851685,0.722571372986,0.0
1449617142089382851,149,1449617142089021820,odom,3.74120736122,0.544562697411,0.0,3.70672392845,0.242013692856,0.0,2.90593910217,-0.0980506017804,0.0,2.69877338409,0.389783799648,0.0,3.49955821037,0.729848086834,0.0
1449617142318832329,150,1449617142318337333,odom,3.77104187012,0.539974451065,0.0,3.72698521614,0.238670617342,0.0,2.91582322121,-0.0758388489485,0.0,2.72422552109,0.418317317963,0.0,3.53538751602,0.732826769352,0.0
1449617142507789143,151,1449617142506337567,odom,3.79081630707,0.536467313766,0.0,3.74040150642,0.236161902547,0.0,2.92277383804,-0.0611337907612,0.0,2.74166250229,0.436961323023,0.0,3.55929040909,0.734256982803,0.0
1449617142761229550,152,1449617142757611791,odom,3.80505871773,0.530689716339,0.0,3.74830842018,0.231516867876,0.0,2.9245800972,-0.0484322384,0.0,2.75403642654,0.453379303217,0.0,3.57776474953,0.733328402042,0.0
1449617142954697168,153,1449617142953677279,odom,3.81485509872,0.528629422188,0.0,3.75494647026,0.230073019862,0.0,2.92830562592,-0.0411554165184,0.0,2.76307439804,0.462430387735,0.0,3.58971524239,0.733658850193,0.0
1449617143101676874,154,1449617143092289414,odom,3.82462930679,0.526465773582,0.0,3.76156878471,0.228559091687,0.0,2.93210792542,-0.0339183732867,0.0,2.77220773697,0.471385449171,0.0,3.60166883469,0.733862936497,0.0
1449617143341322034,155,1449617143337130464,odom,3.83011126518,0.528232395649,0.0,3.7670507431,0.230325728655,0.0,2.93758964539,-0.0321517512202,0.0,2.77768969536,0.473152071238,0.0,3.60715055466,0.735629558563,0.0
1449617143476530624,156,1449617143476149554,odom,3.8343706131,0.52422785759,0.0,3.76816534996,0.227004244924,0.0,2.93597698212,-0.0266929492354,0.0,2.78142571449,0.480272471905,0.0,3.61361432076,0.733969628811,0.0
1449617143661816061,157,1449617143658394195,odom,3.84408783913,0.521887123585,0.0,3.77474522591,0.225379765034,0.0,2.93992209435,-0.0195088181645,0.0,2.7907371521,0.489061564207,0.0,3.62556028366,0.733950138092,0.0
1449617143973640703,158,1449617143972295678,odom,3.85378837585,0.519414663315,0.0,3.78131628036,0.22365668416,0.0,2.94395184517,-0.0123959360644,0.0,2.80014967918,0.49772259593,0.0,3.63751411438,0.73377519846,0.0
1449617144105768008,159,1449617144101812507,odom,3.86754870415,0.512658894062,0.0,3.78884220123,0.218498647213,0.0,2.94667577744,0.000196041684831,0.0,2.81368684769,0.513239860535,0.0,3.65585303307,0.731542408466,0.0
1449617144341916375,160,1449617144341620921,odom,3.89071178436,0.502661943436,0.0,3.8027203083,0.211144387722,0.0,2.95405745506,0.0196471791714,0.0,2.83739805222,0.536648750305,0.0,3.68606114388,0.728145956993,0.0
1449617144583988511,161,1449617144580824369,odom,3.91357827187,0.491786926985,0.0,3.81639003754,0.203205108643,0.0,2.96208333969,0.0387057550251,0.0,2.86187124252,0.559145450592,0.0,3.71617794037,0.723644793034,0.0
1449617144802113949,162,1449617144800574844,odom,3.95252466202,0.467041611671,0.0,3.83724570274,0.185198158026,0.0,2.97423219681,0.0751632228494,0.0,2.90719938278,0.600907087326,0.0,3.77021288872,0.710942029953,0.0
1449617144882916889,163,1449617144881010118,odom,3.98569774628,0.455349773169,0.0,3.86154270172,0.177302151918,0.0,2.99547481537,0.0946790352464,0.0,2.94514131546,0.622283518314,0.0,3.81120896339,0.704906642437,0.0
1449617145085510329,164,1449617145085190183,odom,4.01276016235,0.441943973303,0.0,3.87985372543,0.167971655726,0.0,3.01160216331,0.112843394279,0.0,2.97801828384,0.641778290272,0.0,3.84626984596,0.696906507015,0.0
1449617145257744268,165,1449617145257377637,odom,4.03938055038,0.427778273821,0.0,3.8978562355,0.158156618476,0.0,3.02829360962,0.130578637123,0.0,3.01149320602,0.66031229496,0.0,3.88105583191,0.687890291214,0.0
1449617145457142263,166,1449617145456583037,odom,4.05111217499,0.417848408222,0.0,3.90392112732,0.151278048754,0.0,3.03396964073,0.142084017396,0.0,3.02836871147,0.672054409981,0.0,3.89832019806,0.681248426437,0.0
1449617145647324099,167,1449617145647027222,odom,4.0597782135,0.412836700678,0.0,3.90977811813,0.147836714983,0.0,3.03977799416,0.147836714983,0.0,3.03977799416,0.677836716175,0.0,3.90977811813,0.677836716175,0.0
1449617145889229899,168,1449617145889045320,odom,4.0597782135,0.412836700678,0.0,3.90977811813,0.147836714983,0.0,3.03977799416,0.147836714983,0.0,3.03977799416,0.677836716175,0.0,3.90977811813,0.677836716175,0.0
1449617146065813928,169,1449617146062896641,odom,4.0597782135,0.412836700678,0.0,3.90977811813,0.147836714983,0.0,3.03977799416,0.147836714983,0.0,3.03977799416,0.677836716175,0.0,3.90977811813,0.677836716175,0.0
1449617146264789545,170,1449617146261803411,odom,4.0597782135,0.412836700678,0.0,3.90977811813,0.147836714983,0.0,3.03977799416,0.147836714983,0.0,3.03977799416,0.677836716175,0.0,3.90977811813,0.677836716175,0.0
1449617146578143362,171,1449617146577083907,odom,4.0597782135,0.412836700678,0.0,3.90977811813,0.147836714983,0.0,3.03977799416,0.147836714983,0.0,3.03977799416,0.677836716175,0.0,3.90977811813,0.677836716175,0.0
1449617146760114300,172,1449617146759170741,odom,4.0597782135,0.412836700678,0.0,3.90977811813,0.147836714983,0.0,3.03977799416,0.147836714983,0.0,3.03977799416,0.677836716175,0.0,3.90977811813,0.677836716175,0.0
1449617146942854515,173,1449617146942659437,odom,4.0597782135,0.412836700678,0.0,3.90977811813,0.147836714983,0.0,3.03977799416,0.147836714983,0.0,3.03977799416,0.677836716175,0.0,3.90977811813,0.677836716175,0.0
1449617147250434853,174,1449617147249275728,odom,4.06839036942,0.407703280449,0.0,3.91559815407,0.144303262234,0.0,3.0456469059,0.153497293591,0.0,3.05124783516,0.683467686176,0.0,3.92119908333,0.67427366972,0.0
1449617147416608337,175,1449617147416201633,odom,4.09120941162,0.39710393548,0.0,3.93288445473,0.136991947889,0.0,3.06332159042,0.164569929242,0.0,3.08012199402,0.694303572178,0.0,3.94968485832,0.666725575924,0.0
1449617147570891334,176,1449617147569431362,odom,4.10272264481,0.396738797426,0.0,3.94439792633,0.136626794934,0.0,3.07483506203,0.164204776287,0.0,3.09163546562,0.693938434124,0.0,3.96119832993,0.66636043787,0.0
1449617147724968076,177,1449617147724793897,odom,4.12213230133,0.380534768105,0.0,3.95564174652,0.12557220459,0.0,3.0873901844,0.180700451136,0.0,3.12097406387,0.709635317326,0.0,3.98922562599,0.654507100582,0.0
1449617148057134239,178,1449617148051107084,odom,4.16973495483,0.361595422029,0.0,3.99524617195,0.112038522959,0.0,3.12917852402,0.19466163218,0.0,3.17951202393,0.7222661376,0.0,4.04557991028,0.639643013477,0.0
1449617148264047489,179,1449617148263760279,odom,4.21219491959,0.352112859488,0.0,4.03507852554,0.104413881898,0.0,3.169932127,0.19618485868,0.0,3.22583842278,0.723227977753,0.0,4.09098482132,0.631457030773,0.0
1449617148600181518,180,1449617148599604805,odom,4.32011556625,0.311713814735,0.0,4.13016414642,0.0737150683999,0.0,3.2710723877,0.211051225662,0.0,3.35473704338,0.734405994415,0.0,4.21382856369,0.597069859505,0.0
1449617148823223160,181,1449617148817660870,odom,4.38084316254,0.290961921215,0.0,4.18590402603,0.0570308864117,0.0,3.32990670204,0.212492868304,0.0,3.4246134758,0.733962535858,0.0,4.28061103821,0.578500568867,0.0
1449617149033813429,182,1449617149032782209,odom,4.43368434906,0.275869429111,0.0,4.23628377914,0.0440115183592,0.0,3.38197731972,0.208510860801,0.0,3.48218941689,0.728950560093,0.0,4.33649635315,0.564451217651,0.0
1449617149256382140,183,1449617149256010228,odom,4.48841333389,0.270868837833,0.0,4.29347419739,0.0369377806783,0.0,3.4374768734,0.19239975512,0.0,3.53218364716,0.713869452477,0.0,4.38818120956,0.558407485485,0.0
1449617149538885657,184,1449617149537170801,odom,4.56396007538,0.268479585648,0.0,4.37400865555,0.0304808318615,0.0,3.51491689682,0.167816981673,0.0,3.59858155251,0.691171765327,0.0,4.45767307281,0.553835630417,0.0
1449617149854979427,185,1449617149854597880,odom,4.60743951797,0.267004847527,0.0,4.42001390457,0.0270120166242,0.0,3.55951881409,0.15526175499,0.0,3.6376478672,0.679471492767,0.0,4.49814319611,0.551221728325,0.0
1449617150232325051,186,1449617150231123381,odom,4.70253372192,0.286936193705,0.0,4.53069162369,0.0355492681265,0.0,3.66379928589,0.109015293419,0.0,3.7085545063,0.637122273445,0.0,4.57544708252,0.563656210899,0.0
1449617150535485373,187,1449617150532794752,odom,4.74450731277,0.325522631407,0.0,4.59450721741,0.060522634536,0.0,3.72450733185,0.060522634536,0.0,3.72450733185,0.590522646904,0.0,4.59450721741,0.590522646904,0.0
1449617150849975631,188,1449617150841803881,odom,4.75290346146,0.340920656919,0.0,4.61137866974,0.0712990015745,0.0,3.74181604385,0.0437210202217,0.0,3.72501564026,0.573454678059,0.0,4.59457826614,0.601032674313,0.0
1449617150940911819,189,1449617150939419798,odom,4.75559282303,0.346111536026,0.0,4.6169257164,0.075009316206,0.0,3.74770283699,0.0382434651256,0.0,3.72530531883,0.567770004272,0.0,4.59452819824,0.6045358181,0.0
1449617151176424292,190,1449617151175517499,odom,4.75758266449,0.361485630274,0.0,4.62757873535,0.0861240848899,0.0,3.75995802879,0.0218233540654,0.0,3.72078633308,0.550373792648,0.0,4.58840703964,0.614674508572,0.0
1449617151464957347,191,1449617151464122414,odom,4.75908136368,0.376945406199,0.0,4.63787126541,0.0976012572646,0.0,3.77272510529,0.00583028513938,0.0,3.71681857109,0.532873392105,0.0,4.58196496964,0.624644398689,0.0
1449617151874320895,192,1449617151872386833,odom,4.75676870346,0.427891731262,0.0,4.66570138931,0.137320354581,0.0,3.81506204605,-0.0451976172626,0.0,3.70387291908,0.473007917404,0.0,4.55451202393,0.655525863171,0.0
1449617152093855743,193,1449617152080096880,odom,4.75358915329,0.453231424093,0.0,4.67799568176,0.158255800605,0.0,3.83818364143,-0.0689345002174,0.0,3.69978022575,0.442675232887,0.0,4.53959226608,0.669865548611,0.0
1449617152339678268,194,1449617152339286057,odom,4.73778247833,0.501407504082,0.0,4.69372558594,0.200103655457,0.0,3.882563591,-0.114405803382,0.0,3.69096589088,0.379750341177,0.0,4.50212812424,0.694259822369,0.0
1449617152517215221,195,1449617152514288359,odom,4.73004961014,0.520165264606,0.0,4.69876527786,0.217268750072,0.0,3.90161895752,-0.131239131093,0.0,3.68930959702,0.354378730059,0.0,4.48645591736,0.702886641026,0.0
1449617152628216390,196,1449617152627881505,odom,4.71670627594,0.541834115982,0.0,4.7014632225,0.237708076835,0.0,3.92383623123,-0.152415201068,0.0,3.68617486954,0.321311622858,0.0,4.46380186081,0.711434900761,0.0
1449617152728222295,197,1449617152728068069,odom,4.71222782135,0.556644380093,0.0,4.70663309097,0.2521879673,0.0,3.94176340103,-0.162389114499,0.0,3.68920493126,0.303566038609,0.0,4.45407485962,0.718143105507,0.0
1449617152924220167,198,1449617152924057007,odom,4.70215463638,0.57432615757,0.0,4.70943069458,0.269905328751,0.0,3.96276426315,-0.176624491811,0.0,3.69074034691,0.27824139595,0.0,4.43740701675,0.724771201611,0.0
1449617153134333648,199,1449617153134081333,odom,4.69707202911,0.57716178894,0.0,4.70756530762,0.272834837437,0.0,3.96565914154,-0.181560710073,0.0,3.68884348869,0.270405054092,0.0,4.43074941635,0.724800646305,0.0
1449617153325173092,200,1449617153324962927,odom,4.69707202911,0.57716178894,0.0,4.70756530762,0.272834837437,0.0,3.96565914154,-0.181560710073,0.0,3.68884348869,0.270405054092,0.0,4.43074941635,0.724800646305,0.0
1449617153529270532,201,1449617153528972952,odom,4.69707202911,0.57716178894,0.0,4.70756530762,0.272834837437,0.0,3.96565914154,-0.181560710073,0.0,3.68884348869,0.270405054092,0.0,4.43074941635,0.724800646305,0.0
1449617153733894383,202,1449617153733605986,odom,4.69707202911,0.57716178894,0.0,4.70756530762,0.272834837437,0.0,3.96565914154,-0.181560710073,0.0,3.68884348869,0.270405054092,0.0,4.43074941635,0.724800646305,0.0
1449617153982271731,203,1449617153967769004,odom,4.69707202911,0.57716178894,0.0,4.70756530762,0.272834837437,0.0,3.96565914154,-0.181560710073,0.0,3.68884348869,0.270405054092,0.0,4.43074941635,0.724800646305,0.0
1449617154214577457,204,1449617154212553202,odom,4.69707202911,0.57716178894,0.0,4.70756530762,0.272834837437,0.0,3.96565914154,-0.181560710073,0.0,3.68884348869,0.270405054092,0.0,4.43074941635,0.724800646305,0.0
1449617154397494557,205,1449617154396996147,odom,4.69683980942,0.583003461361,0.0,4.71054840088,0.278804391623,0.0,3.97348546982,-0.183406129479,0.0,3.69190907478,0.265609055758,0.0,4.42897176743,0.727819621563,0.0
1449617154620089363,206,1449617154618317586,odom,4.69169855118,0.58573102951,0.0,4.70862102509,0.281693816185,0.0,3.97648406029,-0.188280060887,0.0,3.6901781559,0.257734388113,0.0,4.4223151207,0.727708280087,0.0
1449617154877345052,207,1449617154868890185,odom,4.68566608429,0.600011467934,0.0,4.71221780777,0.296663433313,0.0,3.99534630775,-0.196282163262,0.0,3.69504594803,0.240432590246,0.0,4.41191720963,0.733378171921,0.0
1449617154942832322,208,1449617154942696759,odom,4.66839408875,0.618864536285,0.0,4.71093034744,0.317342281342,0.0,4.02109479904,-0.212777331471,0.0,3.69814825058,0.207467332482,0.0,4.38798379898,0.737586975098,0.0
1449617155123716606,209,1449617155123301011,odom,4.65018892288,0.636731684208,0.0,4.70859050751,0.337876796722,0.0,4.04771661758,-0.227937027812,0.0,3.70302510262,0.174664467573,0.0,4.36389923096,0.740478277206,0.0
1449617155339492849,210,1449617155339081758,odom,4.63669157028,0.651839137077,0.0,4.70767068863,0.355719268322,0.0,4.07129764557,-0.237517371774,0.0,3.7099006176,0.150157943368,0.0,4.34627342224,0.743394613266,0.0
1449617155535850770,211,1449617155535658102,odom,4.62254619598,0.666384160519,0.0,4.70597553253,0.373528420925,0.0,4.09524154663,-0.246071144938,0.0,3.71778416634,0.125985354185,0.0,4.32851839066,0.745584905148,0.0
1449617155826459921,212,1449617155807208942,odom,4.62254619598,0.666384160519,0.0,4.70597553253,0.373528420925,0.0,4.09524154663,-0.246071144938,0.0,3.71778416634,0.125985354185,0.0,4.32851839066,0.745584905148,0.0
1449617156153057418,213,1449617156152847189,odom,4.62661075592,0.670464575291,0.0,4.71004056931,0.377608805895,0.0,4.09930610657,-0.241990745068,0.0,3.72184896469,0.130065768957,0.0,4.33258295059,0.74966531992,0.0
1449617156404798508,214,1449617156393625293,odom,4.63635540009,0.672951281071,0.0,4.7166852951,0.379230171442,0.0,4.09943723679,-0.233880624175,0.0,3.72593307495,0.142144009471,0.0,4.34318113327,0.755254805088,0.0
1449617156550191331,215,1449617156547998246,odom,4.64865684509,0.68508464098,0.0,4.72898721695,0.391363531351,0.0,4.11173915863,-0.221747264266,0.0,3.73823475838,0.15427736938,0.0,4.35548257828,0.767388164997,0.0
1449617156835391007,216,1449617156826356506,odom,4.65934371948,0.702892363071,0.0,4.74277353287,0.410036593676,0.0,4.13203907013,-0.209562972188,0.0,3.75458192825,0.162493526936,0.0,4.36531591415,0.7820931077,0.0
1449617156975114922,217,1449617156974584809,odom,4.68175363541,0.733330130577,0.0,4.76827335358,0.441372394562,0.0,4.16412067413,-0.184646710753,0.0,3.78275299072,0.18340010941,0.0,4.38690519333,0.809419214725,0.0
1449617157165893202,218,1449617157165617570,odom,4.70186853409,0.769789636135,0.0,4.7945394516,0.479725658894,0.0,4.2037525177,-0.158922076225,0.0,3.81469130516,0.200982496142,0.0,4.40547800064,0.839630246162,0.0
1449617157371414541,219,1449617157370891145,odom,4.72912073135,0.815040409565,0.0,4.82790136337,0.526999771595,0.0,4.25074386597,-0.123991347849,0.0,3.85416340828,0.227610215545,0.0,4.43132066727,0.878601312637,0.0
1449617157523155892,220,1449617157522999029,odom,4.7553653717,0.860897600651,0.0,4.86021137238,0.57500898838,0.0,4.2969417572,-0.0880346521735,0.0,3.89301848412,0.255106836557,0.0,4.45628833771,0.918150484562,0.0
1449617157736742026,221,1449617157735822707,odom,4.77709293365,0.902753591537,0.0,4.88795757294,0.61914473772,0.0,4.33882665634,-0.0556552708149,0.0,3.92774152756,0.278872847557,0.0,4.47687292099,0.95367282629,0.0
1449617157924131413,222,1449617157923517146,odom,4.80370998383,0.94417321682,0.0,4.91756534576,0.661751747131,0.0,4.37559604645,-0.0188136938959,0.0,3.96099901199,0.311351448298,0.0,4.50296831131,0.991916894913,0.0
1449617158132832456,223,1449617158132225055,odom,4.82478141785,0.997011840343,0.0,4.94753217697,0.71834141016,0.0,4.42740821838,0.0209382027388,0.0,4.00255346298,0.337795197964,0.0,4.52267742157,1.03519845009,0.0
1449617158337207324,224,1449617158336659602,odom,4.85323905945,1.04401051998,0.0,4.97892808914,0.766652882099,0.0,4.46620368958,0.0637920126319,0.0,4.03802394867,0.376141488552,0.0,4.55074834824,1.07900238037,0.0
1449617158530397052,225,1449617158529917894,odom,4.88184833527,1.10142350197,0.0,5.01337099075,0.826784193516,0.0,4.51561546326,0.113244101405,0.0,4.080930233,0.416474461555,0.0,4.5786857605,1.13001453876,0.0
1449617158753946969,226,1449617158750219082,odom,4.91480016708,1.14866054058,0.0,5.04632282257,0.874021291733,0.0,4.54856729507,0.160481199622,0.0,4.11388206482,0.46371152997,0.0,4.61163759232,1.17725157738,0.0
1449617158926477809,227,1449617158925427488,odom,4.9441819191,1.19136476517,0.0,5.07570457458,0.916725456715,0.0,4.57794904709,0.203185364604,0.0,4.14326381683,0.506415724754,0.0,4.64101934433,1.21995580196,0.0
1449617159123113638,228,1449617159122439836,odom,4.967689991,1.23462176323,0.0,5.10210800171,0.961387753487,0.0,4.61192083359,0.242627292871,0.0,4.17405509949,0.541247010231,0.0,4.66424226761,1.26000750065,0.0
1449617159339039098,229,1449617159338764895,odom,4.98716115952,1.26317191124,0.0,5.12157869339,0.989937841892,0.0,4.63139152527,0.271177381277,0.0,4.19352626801,0.569797098637,0.0,4.68371295929,1.28855752945,0.0
1449617159537643229,230,1449617159537375074,odom,5.00026702881,1.28211891651,0.0,5.13468456268,1.00888478756,0.0,4.64449739456,0.290124386549,0.0,4.2066321373,0.588744103909,0.0,4.69681882858,1.30750453472,0.0
1449617159724860841,231,1449617159724462086,odom,5.01917076111,1.30056488514,0.0,5.1506934166,1.02592551708,0.0,4.65293836594,0.312385469675,0.0,4.21825265884,0.615615785122,0.0,4.71600818634,1.32915592194,0.0
1449617159924941583,232,1449617159924726585,odom,5.03235197067,1.31946003437,0.0,5.16387462616,1.04482066631,0.0,4.66611909866,0.331280618906,0.0,4.23143386841,0.634510934353,0.0,4.7291893959,1.34805107117,0.0
1449617160167838099,233,1449617160166610720,odom,5.05149936676,1.33767008781,0.0,5.18011283875,1.06165623665,0.0,4.67484426498,0.35341617465,0.0,4.24338769913,0.661223292351,0.0,4.74865627289,1.36946332455,0.0
1449617160391780994,234,1449617160385948941,odom,5.06822443008,1.36111354828,0.0,5.19683742523,1.08509969711,0.0,4.69156932831,0.376859664917,0.0,4.26011276245,0.684666752815,0.0,4.76538085938,1.39290678501,0.0
1449617160618025542,235,1449617160617587638,odom,5.08494949341,1.38455712795,0.0,5.21356248856,1.10854315758,0.0,4.70829439163,0.400303184986,0.0,4.27683782578,0.708110272884,0.0,4.7821059227,1.41635024548,0.0
1449617160765743835,236,1449617160764293744,odom,5.10758399963,1.40728807449,0.0,5.23327302933,1.12993049622,0.0,4.72054862976,0.427069604397,0.0,4.29236888885,0.739419102669,0.0,4.80509328842,1.44227993488,0.0
1449617160977264510,237,1449617160976739242,odom,5.13372898102,1.43452131748,0.0,5.25647974014,1.1558508873,0.0,4.73635625839,0.458447664976,0.0,4.31150150299,0.775304615498,0.0,4.83162498474,1.47270786762,0.0
1449617161182335935,238,1449617161181077205,odom,5.15761184692,1.46700263023,0.0,5.28036260605,1.18833220005,0.0,4.7602391243,0.490928947926,0.0,4.3353843689,0.807785928249,0.0,4.85550785065,1.50518918037,0.0
1449617161607196175,239,1449617161603490691,odom,5.21886587143,1.53983521461,0.0,5.33866500854,1.25988304615,0.0,4.81120014191,0.568015396595,0.0,4.38971757889,0.889344513416,0.0,4.91718244553,1.58121216297,0.0
1449617161787085699,240,1449617161783601973,odom,5.27041006088,1.59827542305,0.0,5.38724422455,1.31707298756,0.0,4.85249757767,0.630818068981,0.0,4.43443393707,0.956583380699,0.0,4.96918106079,1.64283823967,0.0
1449617161992364869,241,1449617161985621389,odom,5.30816984177,1.63818335533,0.0,5.42202568054,1.35576188564,0.0,4.88005638123,0.67519646883,0.0,4.46545886993,1.00536167622,0.0,5.00742816925,1.68592703342,0.0
1449617162205103623,242,1449617162203420009,odom,5.34046125412,1.6787327528,0.0,5.4543170929,1.39631128311,0.0,4.91234779358,0.715745925903,0.0,4.49775075912,1.04591107368,0.0,5.0397195816,1.7264765501,0.0
1449617162387811501,243,1449617162387568122,odom,5.37894868851,1.71799135208,0.0,5.48981332779,1.43438255787,0.0,4.94068241119,0.759582519531,0.0,4.52959728241,1.0941106081,0.0,5.07872819901,1.76891064644,0.0
1449617162577457743,244,1449617162577012534,odom,5.40453720093,1.74914669991,0.0,5.51540184021,1.46553778648,0.0,4.96627092361,0.790737748146,0.0,4.55518579483,1.12526583672,0.0,5.10431718826,1.80006587505,0.0
1449617162785089789,245,1449617162783767146,odom,5.43583774567,1.77933239937,0.0,5.54369878769,1.49456775188,0.0,4.98746728897,0.825608551502,0.0,4.5799407959,1.16446220875,0.0,5.13617229462,1.83342146873,0.0
1449617162977441031,246,1449617162977203318,odom,5.45688581467,1.82160794735,0.0,5.57074117661,1.53918647766,0.0,5.02877235413,0.858621060848,0.0,4.61417484283,1.18878626823,0.0,5.15614414215,1.86935162544,0.0
1449617163189965973,247,1449617163189629594,odom,5.47698736191,1.86435616016,0.0,5.59678649902,1.58440411091,0.0,5.06932163239,0.892536401749,0.0,4.64783906937,1.21386551857,0.0,5.175303936,1.90573310852,0.0
1449617163383916001,248,1449617163383526272,odom,5.49359226227,1.9129396677,0.0,5.62220525742,1.63692569733,0.0,5.11693716049,0.928685724735,0.0,4.68548059464,1.23649287224,0.0,5.19074869156,1.94473278522,0.0
1449617163580787172,249,1449617163580462814,odom,5.50583362579,1.96733093262,0.0,5.64599609375,1.6969987154,0.0,5.17110919952,0.968038916588,0.0,4.72703027725,1.25733780861,0.0,5.20191717148,1.98629760742,0.0
1449617163811355193,250,1449617163810916720,odom,5.50968456268,2.02241802216,0.0,5.66392946243,1.75986588001,0.0,5.22820568085,1.00684201717,0.0,4.76946687698,1.27228283882,0.0,5.20519065857,2.02530670166,0.0
1449617163984632827,251,1449617163983089498,odom,5.51075315475,2.07755637169,0.0,5.67864942551,1.82351720333,0.0,5.28330516815,1.04853141308,0.0,4.8111872673,1.28937315941,0.0,5.20653152466,2.06435894966,0.0
1449617164194046204,252,1449617164193241901,odom,5.51481342316,2.13316726685,0.0,5.69329500198,1.88645017147,0.0,5.3310546875,1.09544968605,0.0,4.84918117523,1.31612479687,0.0,5.21142101288,2.10712528229,0.0
1449617164389274146,253,1449617164388745026,odom,5.50412464142,2.18762540817,0.0,5.69788122177,1.95271384716,0.0,5.38649129868,1.14034926891,0.0,4.89160251617,1.33004653454,0.0,5.20299243927,2.14241123199,0.0
1449617164588981319,254,1449617164588833314,odom,5.48592758179,2.24555873871,0.0,5.69651603699,2.02560997009,0.0,5.44601869583,1.19245278835,0.0,4.93846321106,1.34505450726,0.0,5.18896055222,2.17821192741,0.0
1449617164839897884,255,1449617164839514118,odom,5.46808719635,2.29798555374,0.0,5.69218969345,2.09182310104,0.0,5.49498939514,1.24446713924,0.0,4.97878408432,1.36460053921,0.0,5.17598438263,2.21195650101,0.0
1449617165074980551,256,1449617165071879777,odom,5.44687128067,2.34919595718,0.0,5.68358707428,2.15764808655,0.0,5.54047679901,1.2994992733,0.0,5.01769638062,1.3866815567,0.0,5.16080713272,2.24483036995,0.0
1449617165236767105,257,1449617165233607708,odom,5.42239236832,2.3989648819,0.0,5.6707701683,2.22280168533,0.0,5.58232450485,1.35730910301,0.0,5.05507040024,1.41118979454,0.0,5.14351606369,2.27668237686,0.0
1449617165434979892,258,1449617165434707442,odom,5.39480924606,2.44708156586,0.0,5.65385055542,2.28701114655,0.0,5.6204252243,1.41765344143,0.0,5.0908164978,1.43801593781,0.0,5.12424182892,2.30737352371,0.0
1449617165761636539,259,1449617165741734446,odom,5.36964988708,2.49057841301,0.0,5.63678407669,2.34441280365,0.0,5.64932107925,1.47450304031,0.0,5.11937618256,1.46686553955,0.0,5.10683917999,2.33677506447,0.0
1449617166081839271,260,1449617166073457536,odom,5.33397054672,2.58116197586,0.0,5.60982990265,2.45221734047,0.0,5.67746400833,1.58485031128,0.0,5.14906835556,1.5436476469,0.0,5.08143377304,2.4110147953,0.0
1449617166479894638,261,1449617166460048153,odom,5.31623220444,2.66053748131,0.0,5.59475469589,2.53745174408,0.0,5.68070554733,1.67170786858,0.0,5.15329837799,1.61934709549,0.0,5.06734752655,2.48509097099,0.0
1449617166708169844,262,1449617166705827891,odom,5.2955365181,2.75676298141,0.0,5.57659816742,2.63959097862,0.0,5.68082714081,1.77585709095,0.0,5.15464401245,1.71236145496,0.0,5.0504155159,2.57609534264,0.0
1449617166954866067,263,1449617166954354540,odom,5.28953790665,2.80825018883,0.0,5.57060003281,2.69107842445,0.0,5.67482852936,1.82734441757,0.0,5.14864587784,1.76384878159,0.0,5.04441690445,2.62758278847,0.0
1449617167111534214,264,1449617167106808545,odom,5.27854967117,2.85620832443,0.0,5.56083393097,2.74201321602,0.0,5.67418432236,1.87942898273,0.0,5.14870214462,1.81037628651,0.0,5.0353512764,2.67296051979,0.0
1449617167325885979,265,1449617167324203011,odom,5.27329683304,2.89618182182,0.0,5.55558109283,2.78198671341,0.0,5.66893148422,1.91940248013,0.0,5.14344930649,1.8503497839,0.0,5.03009843826,2.71293401718,0.0
1449617167462963680,266,1449617167461622886,odom,5.26549339294,2.91546034813,0.0,5.5489692688,2.80425477028,0.0,5.67142915726,1.9429166317,0.0,5.14670562744,1.86831462383,0.0,5.02424573898,2.72965288162,0.0
1449617167545253692,267,1449617167544030359,odom,5.26306152344,2.9325671196,0.0,5.54653692245,2.82136154175,0.0,5.66899681091,1.96002340317,0.0,5.14427375793,1.8854213953,0.0,5.02181386948,2.74675965309,0.0
1449617167776644330,268,1449617167775379289,odom,5.26062917709,2.94967389107,0.0,5.54410457611,2.83846831322,0.0,5.66656494141,1.97713017464,0.0,5.14184141159,1.90252804756,0.0,5.01938152313,2.76386618614,0.0
1449617167953911063,269,1449617167953791940,odom,5.25978851318,2.95537161827,0.0,5.5432639122,2.84416604042,0.0,5.66572380066,1.98282790184,0.0,5.14100074768,1.90822589397,0.0,5.01854085922,2.76956415176,0.0
1449617168223094452,270,1449617168222610644,odom,5.25978851318,2.95537161827,0.0,5.5432639122,2.84416604042,0.0,5.66572380066,1.98282790184,0.0,5.14100074768,1.90822589397,0.0,5.01854085922,2.76956415176,0.0
1449617168352401979,271,1449617168352162429,odom,5.26062917709,2.94967389107,0.0,5.54410457611,2.83846831322,0.0,5.66656494141,1.97713017464,0.0,5.14184141159,1.90252804756,0.0,5.01938152313,2.76386618614,0.0
1449617168555903941,272,1449617168555545470,odom,5.25517559052,2.9517800808,0.0,5.53981018066,2.84357643127,0.0,5.67136621475,1.98358047009,0.0,5.14746046066,1.90343737602,0.0,5.01590490341,2.763433218,0.0
1449617168782787124,273,1449617168781184807,odom,5.26059913635,2.94966936111,0.0,5.54407453537,2.83846378326,0.0,5.66653442383,1.97712564468,0.0,5.14181137085,1.90252363682,0.0,5.01935148239,2.76386189461,0.0
1449617168947212275,274,1449617168946908732,odom,5.26059913635,2.94966936111,0.0,5.54407453537,2.83846378326,0.0,5.66653442383,1.97712564468,0.0,5.14181137085,1.90252363682,0.0,5.01935148239,2.76386189461,0.0
1449617169132911868,275,1449617169131964205,odom,5.26059913635,2.94966936111,0.0,5.54407453537,2.83846378326,0.0,5.66653442383,1.97712564468,0.0,5.14181137085,1.90252363682,0.0,5.01935148239,2.76386189461,0.0
1449617169401800177,276,1449617169397016896,odom,5.26059913635,2.94966936111,0.0,5.54407453537,2.83846378326,0.0,5.66653442383,1.97712564468,0.0,5.14181137085,1.90252363682,0.0,5.01935148239,2.76386189461,0.0
1449617169555852315,277,1449617169555586737,odom,5.26059913635,2.94966936111,0.0,5.54407453537,2.83846378326,0.0,5.66653442383,1.97712564468,0.0,5.14181137085,1.90252363682,0.0,5.01935148239,2.76386189461,0.0
1449617169814584589,278,1449617169814296551,odom,5.26059913635,2.94966936111,0.0,5.54407453537,2.83846378326,0.0,5.66653442383,1.97712564468,0.0,5.14181137085,1.90252363682,0.0,5.01935148239,2.76386189461,0.0
