%time,field.header.seq,field.header.stamp,field.header.frame_id,field.polygon.points0.x,field.polygon.points0.y,field.polygon.points0.z,field.polygon.points1.x,field.polygon.points1.y,field.polygon.points1.z,field.polygon.points2.x,field.polygon.points2.y,field.polygon.points2.z,field.polygon.points3.x,field.polygon.points3.y,field.polygon.points3.z,field.polygon.points4.x,field.polygon.points4.y,field.polygon.points4.z
1449617106849905264,1,1449617106849416785,odom,0.479999989271,0.0,0.0,0.329999983311,-0.264999985695,0.0,-0.539999961853,-0.264999985695,0.0,-0.539999961853,0.264999985695,0.0,0.329999983311,0.264999985695,0.0
1449617107050157035,2,1449617107049558419,odom,0.479999989271,0.0,0.0,0.329999983311,-0.264999985695,0.0,-0.539999961853,-0.264999985695,0.0,-0.539999961853,0.264999985695,0.0,0.329999983311,0.264999985695,0.0
1449617107350658899,3,1449617107350105982,odom,0.479999989271,0.0,0.0,0.329999983311,-0.264999985695,0.0,-0.539999961853,-0.264999985695,0.0,-0.539999961853,0.264999985695,0.0,0.329999983311,0.264999985695,0.0
1449617107557313265,4,1449617107552068826,odom,0.479999989271,0.0,0.0,0.329999983311,-0.264999985695,0.0,-0.539999961853,-0.264999985695,0.0,-0.539999961853,0.264999985695,0.0,0.329999983311,0.264999985695,0.0
1449617107763483670,5,1449617107756035539,odom,0.479999989271,0.0,0.0,0.329999983311,-0.264999985695,0.0,-0.539999961853,-0.264999985695,0.0,-0.539999961853,0.264999985695,0.0,0.329999983311,0.264999985695,0.0
1449617107962553319,6,1449617107960249810,odom,0.479999989271,0.0,0.0,0.329999983311,-0.264999985695,0.0,-0.539999961853,-0.264999985695,0.0,-0.539999961853,0.264999985695,0.0,0.329999983311,0.264999985695,0.0
1449617108170443136,7,1449617108169992554,odom,0.479999989271,0.0,0.0,0.329999983311,-0.264999985695,0.0,-0.539999961853,-0.264999985695,0.0,-0.539999961853,0.264999985695,0.0,0.329999983311,0.264999985695,0.0
1449617108334100715,8,1449617108333488362,odom,0.479999989271,0.0,0.0,0.329999983311,-0.264999985695,0.0,-0.539999961853,-0.264999985695,0.0,-0.539999961853,0.264999985695,0.0,0.329999983311,0.264999985695,0.0
1449617108582681980,9,1449617108582240526,odom,0.479999989271,0.0,0.0,0.329999983311,-0.264999985695,0.0,-0.539999961853,-0.264999985695,0.0,-0.539999961853,0.264999985695,0.0,0.329999983311,0.264999985695,0.0
1449617108826506501,10,1449617108824481002,odom,0.479999989271,0.0,0.0,0.329999983311,-0.264999985695,0.0,-0.539999961853,-0.264999985695,0.0,-0.539999961853,0.264999985695,0.0,0.329999983311,0.264999985695,0.0
1449617108972492246,11,1449617108971881843,odom,0.479999989271,0.0,0.0,0.329999983311,-0.264999985695,0.0,-0.539999961853,-0.264999985695,0.0,-0.539999961853,0.264999985695,0.0,0.329999983311,0.264999985695,0.0
1449617109161962912,12,1449617109160839615,odom,0.479999989271,0.0,0.0,0.329999983311,-0.264999985695,0.0,-0.539999961853,-0.264999985695,0.0,-0.539999961853,0.264999985695,0.0,0.329999983311,0.264999985695,0.0
1449617109366201859,13,1449617109366063163,odom,0.479999989271,0.0,0.0,0.329999983311,-0.264999985695,0.0,-0.539999961853,-0.264999985695,0.0,-0.539999961853,0.264999985695,0.0,0.329999983311,0.264999985695,0.0
1449617109556182370,14,1449617109555285329,odom,0.479999989271,0.0,0.0,0.329999983311,-0.264999985695,0.0,-0.539999961853,-0.264999985695,0.0,-0.539999961853,0.264999985695,0.0,0.329999983311,0.264999985695,0.0
1449617109743180034,15,1449617109742137805,odom,0.479999989271,0.0,0.0,0.329999983311,-0.264999985695,0.0,-0.539999961853,-0.264999985695,0.0,-0.539999961853,0.264999985695,0.0,0.329999983311,0.264999985695,0.0
1449617109963804013,16,1449617109963592405,odom,0.479999989271,0.0,0.0,0.329999983311,-0.264999985695,0.0,-0.539999961853,-0.264999985695,0.0,-0.539999961853,0.264999985695,0.0,0.329999983311,0.264999985695,0.0
1449617110166451683,17,1449617110165654845,odom,0.479999989271,0.0,0.0,0.329999983311,-0.264999985695,0.0,-0.539999961853,-0.264999985695,0.0,-0.539999961853,0.264999985695,0.0,0.329999983311,0.264999985695,0.0
1449617110375407162,18,1449617110375093485,odom,0.479999989271,0.0,0.0,0.329999983311,-0.264999985695,0.0,-0.539999961853,-0.264999985695,0.0,-0.539999961853,0.264999985695,0.0,0.329999983311,0.264999985695,0.0
1449617110581488758,19,1449617110581239244,odom,0.479999989271,0.0,0.0,0.329999983311,-0.264999985695,0.0,-0.539999961853,-0.264999985695,0.0,-0.539999961853,0.264999985695,0.0,0.329999983311,0.264999985695,0.0
1449617110749175320,20,1449617110748678379,odom,0.479999989271,0.0,0.0,0.329999983311,-0.264999985695,0.0,-0.539999961853,-0.264999985695,0.0,-0.539999961853,0.264999985695,0.0,0.329999983311,0.264999985695,0.0
1449617110954986001,21,1449617110946248050,odom,0.479999989271,0.0,0.0,0.329999983311,-0.264999985695,0.0,-0.539999961853,-0.264999985695,0.0,-0.539999961853,0.264999985695,0.0,0.329999983311,0.264999985695,0.0
1449617111189894622,22,1449617111187886780,odom,0.479999989271,0.0,0.0,0.329999983311,-0.264999985695,0.0,-0.539999961853,-0.264999985695,0.0,-0.539999961853,0.264999985695,0.0,0.329999983311,0.264999985695,0.0
1449617111358585556,23,1449617111358317697,odom,0.479999989271,0.0,0.0,0.329999983311,-0.264999985695,0.0,-0.539999961853,-0.264999985695,0.0,-0.539999961853,0.264999985695,0.0,0.329999983311,0.264999985695,0.0
1449617111557413786,24,1449617111554882349,odom,0.479999989271,0.0,0.0,0.329999983311,-0.264999985695,0.0,-0.539999961853,-0.264999985695,0.0,-0.539999961853,0.264999985695,0.0,0.329999983311,0.264999985695,0.0
1449617111752434073,25,1449617111752225926,odom,0.479999989271,0.0,0.0,0.329999983311,-0.264999985695,0.0,-0.539999961853,-0.264999985695,0.0,-0.539999961853,0.264999985695,0.0,0.329999983311,0.264999985695,0.0
1449617111950160930,26,1449617111949588081,odom,0.479999989271,0.0,0.0,0.329999983311,-0.264999985695,0.0,-0.539999961853,-0.264999985695,0.0,-0.539999961853,0.264999985695,0.0,0.329999983311,0.264999985695,0.0
1449617112150163948,27,1449617112149956155,odom,0.479999989271,0.0,0.0,0.329999983311,-0.264999985695,0.0,-0.539999961853,-0.264999985695,0.0,-0.539999961853,0.264999985695,0.0,0.329999983311,0.264999985695,0.0
1449617112357724467,28,1449617112357497211,odom,0.479999989271,0.0,0.0,0.329999983311,-0.264999985695,0.0,-0.539999961853,-0.264999985695,0.0,-0.539999961853,0.264999985695,0.0,0.329999983311,0.264999985695,0.0
1449617112540037514,29,1449617112539648751,odom,0.479999989271,0.0,0.0,0.329999983311,-0.264999985695,0.0,-0.539999961853,-0.264999985695,0.0,-0.539999961853,0.264999985695,0.0,0.329999983311,0.264999985695,0.0
1449617112775913287,30,1449617112771223902,odom,0.479999989271,0.0,0.0,0.329999983311,-0.264999985695,0.0,-0.539999961853,-0.264999985695,0.0,-0.539999961853,0.264999985695,0.0,0.329999983311,0.264999985695,0.0
1449617113007619562,31,1449617113007227798,odom,0.479999989271,0.0,0.0,0.329999983311,-0.264999985695,0.0,-0.539999961853,-0.264999985695,0.0,-0.539999961853,0.264999985695,0.0,0.329999983311,0.264999985695,0.0
1449617113148474304,32,1449617113143742736,odom,0.479999989271,0.0,0.0,0.329999983311,-0.264999985695,0.0,-0.539999961853,-0.264999985695,0.0,-0.539999961853,0.264999985695,0.0,0.329999983311,0.264999985695,0.0
1449617113413642279,33,1449617113410379706,odom,0.479999989271,0.0,0.0,0.329999983311,-0.264999985695,0.0,-0.539999961853,-0.264999985695,0.0,-0.539999961853,0.264999985695,0.0,0.329999983311,0.264999985695,0.0
1449617113678807104,34,1449617113677737315,odom,0.479999989271,0.0,0.0,0.329999983311,-0.264999985695,0.0,-0.539999961853,-0.264999985695,0.0,-0.539999961853,0.264999985695,0.0,0.329999983311,0.264999985695,0.0
1449617113817569554,35,1449617113817210471,odom,0.479999989271,0.0,0.0,0.329999983311,-0.264999985695,0.0,-0.539999961853,-0.264999985695,0.0,-0.539999961853,0.264999985695,0.0,0.329999983311,0.264999985695,0.0
1449617113970108885,36,1449617113969772450,odom,0.482852816582,-0.00510300230235,0.0,0.330060720444,-0.268503010273,0.0,-0.539890646935,-0.259308993816,0.0,-0.534289717674,0.27066141367,0.0,0.335661679506,0.261467367411,0.0
1449617114206110222,37,1449617114199044767,odom,0.485651582479,-0.0102358674631,0.0,0.33008441329,-0.272006481886,0.0,-0.539721250534,-0.253619462252,0.0,-0.528519928455,0.276262164116,0.0,0.341285705566,0.257875114679,0.0
1449617114387555784,38,1449617114387235246,odom,0.494153410196,-0.0155501719564,0.0,0.335828602314,-0.275662183762,0.0,-0.53373414278,-0.248084187508,0.0,-0.51693379879,0.281649470329,0.0,0.352628976107,0.254071474075,0.0
1449617114599371344,39,1449617114598621708,odom,0.5083553195,-0.0211365986615,0.0,0.347290486097,-0.279560923576,0.0,-0.521932244301,-0.242795065045,0.0,-0.499534666538,0.28673145175,0.0,0.369688093662,0.24996560812,0.0
1449617114778258269,40,1449617114774854799,odom,0.531701862812,-0.0117572406307,0.0,0.376134753227,-0.273527860641,0.0,-0.493670910597,-0.255140841007,0.0,-0.48246961832,0.27474078536,0.0,0.387336045504,0.256353735924,0.0
1449617114996976359,41,1449617114996447760,odom,0.55769431591,-0.00723299849778,0.0,0.404902219772,-0.270633012056,0.0,-0.465049177408,-0.2614389956,0.0,-0.459448188543,0.268531411886,0.0,0.410503178835,0.259337365627,0.0
1449617115236588058,42,1449617115234809959,odom,0.592250704765,0.00300343893468,0.0,0.44505956769,-0.263566941023,0.0,-0.424891799688,-0.272760957479,0.0,-0.430492758751,0.257209420204,0.0,0.439458608627,0.266403466463,0.0
1449617115360838275,43,1449617115360522738,odom,0.620383024216,0.0243776720017,0.0,0.484588503838,-0.248174801469,0.0,-0.384197175503,-0.294124424458,0.0,-0.412189483643,0.235135838389,0.0,0.456596195698,0.281085461378,0.0
1449617115615017129,44,1449617115614050622,odom,0.640209555626,0.0306583270431,0.0,0.507302939892,-0.243313983083,0.0,-0.360948622227,-0.29844224453,0.0,-0.394532501698,0.230492651463,0.0,0.473719090223,0.285620898008,0.0
1449617115771157684,45,1449617115770047366,odom,0.650942623615,0.0416877642274,0.0,0.523855924606,-0.235032275319,0.0,-0.343036592007,-0.308498293161,0.0,-0.387791752815,0.219608664513,0.0,0.4791007936,0.293074697256,0.0
1449617115997932558,46,1449617115994428436,odom,0.659093379974,0.0474998019636,0.0,0.534938097,-0.230547815561,0.0,-0.331129640341,-0.313170939684,0.0,-0.381463259459,0.214433580637,0.0,0.484604507685,0.29705670476,0.0
1449617116153846889,47,1449617116153453680,odom,0.659093379974,0.0474998019636,0.0,0.534938097,-0.230547815561,0.0,-0.331129640341,-0.313170939684,0.0,-0.381463259459,0.214433580637,0.0,0.484604507685,0.29705670476,0.0
1449617116448302617,48,1449617116447985985,odom,0.662417888641,0.042690794915,0.0,0.535331249237,-0.234029248357,0.0,-0.331561297178,-0.307495266199,0.0,-0.376316457987,0.220611691475,0.0,0.490576088428,0.294077724218,0.0
1449617116600894753,49,1449617116599343893,odom,0.673895955086,0.0436635166407,0.0,0.546809256077,-0.233056515455,0.0,-0.320083260536,-0.306522548199,0.0,-0.364838421345,0.221584424376,0.0,0.502054095268,0.295050442219,0.0
1449617116809760990,50,1449617116807771718,odom,0.688649952412,0.039762031287,0.0,0.558646023273,-0.235599517822,0.0,-0.308974474669,-0.299900263548,0.0,-0.34814620018,0.228650182486,0.0,0.519474327564,0.292950928211,0.0
1449617117041964686,51,1449617117029362162,odom,0.71736907959,0.0418904535472,0.0,0.587365210056,-0.233471095562,0.0,-0.280255317688,-0.297771841288,0.0,-0.319427013397,0.230778604746,0.0,0.548193514347,0.295079350471,0.0
1449617117211798706,52,1449617117211454920,odom,0.751842558384,0.0442927516997,0.0,0.621838629246,-0.23106880486,0.0,-0.245781853795,-0.295369535685,0.0,-0.284953564405,0.233180910349,0.0,0.582666933537,0.297481626272,0.0
1449617117369147599,53,1449617117368906629,odom,0.792730331421,0.0365708172321,0.0,0.656935811043,-0.235981658101,0.0,-0.211849853396,-0.28193128109,0.0,-0.239842146635,0.247328981757,0.0,0.628943562508,0.293278604746,0.0
1449617117588176911,54,1449617117576404176,odom,0.841875553131,0.0337551906705,0.0,0.703208327293,-0.237347006798,0.0,-0.166014418006,-0.27411288023,0.0,-0.18841201067,0.255413651466,0.0,0.680810749531,0.292179495096,0.0
1449617117813962848,55,1449617117794750468,odom,0.899769663811,0.0252279099077,0.0,0.7554038167,-0.242883071303,0.0,-0.114401809871,-0.261270105839,0.0,-0.125603109598,0.268611490726,0.0,0.744202554226,0.286998540163,0.0
1449617117969093731,56,1449617117968095968,odom,0.957470834255,0.0151442047209,0.0,0.807470858097,-0.249855786562,0.0,-0.0625291317701,-0.249855786562,0.0,-0.0625291317701,0.28014421463,0.0,0.807470858097,0.28014421463,0.0
1449617118218053221,57,1449617118216537012,odom,1.02037203312,-0.00678353849798,0.0,0.859307289124,-0.265207856894,0.0,-0.00991548225284,-0.228441998363,0.0,0.0124821085483,0.301084518433,0.0,0.881704866886,0.264318674803,0.0
1449617118382315994,58,1449617118380976861,odom,1.07986629009,-0.0253209285438,0.0,0.91069072485,-0.278509825468,0.0,0.0430701971054,-0.214209079742,0.0,0.0822419077158,0.314341366291,0.0,0.949862420559,0.250040620565,0.0
1449617118650701757,59,1449617118640759545,odom,1.13874304295,-0.0457349009812,0.0,0.961626648903,-0.293433874846,0.0,0.0964804142714,-0.201662912965,0.0,0.15238687396,0.325380206108,0.0,1.01753306389,0.233609244227,0.0
1449617118854358585,60,1449617118854059500,odom,1.20048928261,-0.0631900280714,0.0,1.0181773901,-0.307090401649,0.0,0.155163928866,-0.197055473924,0.0,0.222196698189,0.328688383102,0.0,1.08521020412,0.218653440475,0.0
1449617118986919551,61,1449617118986594568,odom,1.25813031197,-0.0872277095914,0.0,1.06817865372,-0.325226455927,0.0,0.209086894989,-0.187890306115,0.0,0.292751461267,0.335464477539,0.0,1.15184319019,0.198128327727,0.0
1449617119212158760,62,1449617119211825678,odom,1.31497907639,-0.113080240786,0.0,1.11757874489,-0.344938129187,0.0,0.263272017241,-0.180438786745,0.0,0.36348426342,0.340000927448,0.0,1.21779096127,0.175501570106,0.0
1449617119377103554,63,1449617119376402752,odom,1.37498092651,-0.135925412178,0.0,1.17272436619,-0.363559573889,0.0,0.322085171938,-0.18104159832,0.0,0.433274298906,0.337163925171,0.0,1.28391349316,0.154645964503,0.0
1449617119578718857,64,1449617119578336434,odom,1.42632055283,-0.169056773186,0.0,1.21462500095,-0.38794028759,0.0,0.372458785772,-0.169637694955,0.0,0.505447745323,0.343406111002,0.0,1.3476139307,0.125103503466,0.0
1449617119764127604,65,1449617119761169663,odom,1.48349881172,-0.189369991422,0.0,1.26950192451,-0.406004101038,0.0,0.429689705372,-0.178813815117,0.0,0.568093001842,0.332795917988,0.0,1.40790522099,0.105605617166,0.0
1449617119989699697,66,1449617119987722277,odom,1.54161560535,-0.216704696417,0.0,1.32308804989,-0.428767710924,0.0,0.488265037537,-0.183879122138,0.0,0.637450039387,0.324691236019,0.0,1.47227311134,0.0798026621342,0.0
1449617120180229933,67,1449617120179860907,odom,1.59804427624,-0.239083051682,0.0,1.37728786469,-0.448824852705,0.0,0.545099377632,-0.195127665997,0.0,0.699650585651,0.311837732792,0.0,1.5318390131,0.0581405498087,0.0
1449617120445503162,68,1449617120435458294,odom,1.65419709682,-0.262172758579,0.0,1.43123650551,-0.469569921494,0.0,0.601775586605,-0.207092449069,0.0,0.761675655842,0.298211395741,0.0,1.59113657475,0.0357339084148,0.0
1449617120559254555,69,1449617120558934891,odom,1.71566867828,-0.287360489368,0.0,1.49052894115,-0.492389857769,0.0,0.663888037205,-0.221161425114,0.0,0.82911914587,0.282424390316,0.0,1.65576004982,0.0111959436908,0.0
1449617120788519735,70,1449617120784657287,odom,1.77478897572,-0.301067441702,0.0,1.55182850361,-0.508464634418,0.0,0.722367465496,-0.245987132192,0.0,0.882267534733,0.259316682816,0.0,1.71172857285,-0.00316078402102,0.0
1449617120945640940,71,1449617120944778536,odom,1.83397865295,-0.314381361008,0.0,1.6132222414,-0.524123132229,0.0,0.781033813953,-0.270425975323,0.0,0.935584962368,0.236539438367,0.0,1.76777338982,-0.0171577520669,0.0
1449617121154955297,72,1449617121154695288,odom,1.89878726006,-0.32883554697,0.0,1.68025970459,-0.540898561478,0.0,0.845436632633,-0.296009987593,0.0,0.994621634483,0.212560385466,0.0,1.82944464684,-0.0323281958699,0.0
1449617121346322966,73,1449617121332058690,odom,1.95698201656,-0.33466848731,0.0,1.74298512936,-0.551302611828,0.0,0.903172969818,-0.324112325907,0.0,1.04157626629,0.187497422099,0.0,1.88138842583,-0.0396928787231,0.0
1449617121581303164,74,1449617121580423495,odom,2.02086114883,-0.3407150805,0.0,1.81149065495,-0.561823546886,0.0,0.96706444025,-0.352433025837,0.0,1.09462416172,0.161987528205,0.0,1.93905031681,-0.0474030002952,0.0
1449617121752936155,75,1449617121752464012,odom,2.08331990242,-0.339021712542,0.0,1.88106334209,-0.566655874252,0.0,1.03042411804,-0.384137898684,0.0,1.14161324501,0.134067639709,0.0,1.99225246906,-0.0484503284097,0.0
1449617122025531032,76,1449617122009725332,odom,2.13995575905,-0.334678351879,0.0,1.94501650333,-0.568609416485,0.0,1.08901917934,-0.413147419691,0.0,1.1837259531,0.108322247863,0.0,2.0397233963,-0.0471397265792,0.0
1449617122134225416,77,1449617122133912404,odom,2.20782542229,-0.330210268497,0.0,2.02039980888,-0.570203125477,0.0,1.15990447998,-0.441953361034,0.0,1.23803365231,0.082256346941,0.0,2.098528862,-0.0459933876991,0.0
1449617122394281342,78,1449617122394127504,odom,2.26755928993,-0.317066192627,0.0,2.09044289589,-0.56476521492,0.0,1.22529673576,-0.472994208336,0.0,1.28120315075,0.0540489144623,0.0,2.14634943008,-0.0377220585942,0.0
1449617122578354995,79,1449617122577435519,odom,2.329870224,-0.296254605055,0.0,2.16608333588,-0.552962362766,0.0,1.29729771614,-0.507012784481,0.0,1.32528996468,0.022247498855,0.0,2.19407558441,-0.0237021222711,0.0
1449617122791926265,80,1449617122791475290,odom,2.39383411407,-0.277862071991,0.0,2.24104189873,-0.541262090206,0.0,1.37109053135,-0.53206807375,0.0,1.37669146061,-0.00209766230546,0.0,2.24664282799,-0.0112916929647,0.0
1449617122960237363,81,1449617122959787921,odom,2.45120573044,-0.25687417388,0.0,2.30968117714,-0.526495814323,0.0,1.44011843204,-0.554073810577,0.0,1.42331814766,-0.0243401639163,0.0,2.29288077354,0.0032378223259,0.0
1449617123126397370,82,1449617123125462207,odom,2.50763249397,-0.233328491449,0.0,2.37762856483,-0.508690059185,0.0,1.51000809669,-0.572990775108,0.0,1.47083640099,-0.0444403402507,0.0,2.33845686913,0.0198603905737,0.0
1449617123326942455,83,1449617123326714647,odom,2.56872153282,-0.206630215049,0.0,2.45047044754,-0.487239688635,0.0,1.58634233475,-0.588148295879,0.0,1.52486920357,-0.061725396663,0.0,2.38899731636,0.0391831919551,0.0
1449617123529448404,84,1449617123525552540,odom,2.62292361259,-0.178162798285,0.0,2.51663661003,-0.463518857956,0.0,1.6575448513,-0.600854992867,0.0,1.57388019562,-0.0775002166629,0.0,2.43297195435,0.0598359405994,0.0
1449617123729603223,85,1449617123729350329,odom,2.67590856552,-0.147609621286,0.0,2.58177542686,-0.437202394009,0.0,1.7292548418,-0.61072075367,0.0,1.62354826927,-0.0913691148162,0.0,2.47606897354,0.0821492373943,0.0
1449617123925792211,86,1449617123918417628,odom,2.73315882683,-0.113517701626,0.0,2.6513478756,-0.406829804182,0.0,1.80692183971,-0.616220295429,0.0,1.67936205864,-0.10179977119,0.0,2.52378821373,0.10759075731,0.0
1449617124093853795,87,1449617124091954727,odom,2.78340554237,-0.0787170901895,0.0,2.71406316757,-0.37522444129,0.0,1.87924003601,-0.620113015175,0.0,1.73005497456,-0.111542664468,0.0,2.56487798691,0.133345916867,0.0
1449617124316975257,88,1449617124314924481,odom,2.83109045029,-0.0477943234146,0.0,2.77118182182,-0.346350759268,0.0,1.94454097748,-0.617579162121,0.0,1.77930986881,-0.113993383944,0.0,2.60595059395,0.157235056162,0.0
1449617124530446967,89,1449617124494704382,odom,2.87847495079,-0.00894505996257,0.0,2.83123660088,-0.309766501188,0.0,2.01679635048,-0.615686178207,0.0,1.83043146133,-0.119532823563,0.0,2.64487171173,0.186386838555,0.0
1449617124708926690,90,1449617124699945672,odom,2.91961765289,0.0351499505341,0.0,2.88833332062,-0.267746537924,0.0,2.09118700027,-0.616254448891,0.0,1.87887752056,-0.130636572838,0.0,2.67602396011,0.217871308327,0.0
1449617124925520046,91,1449617124921378928,odom,2.96271467209,0.0656945034862,0.0,2.9378387928,-0.237795516849,0.0,2.14823627472,-0.603072881699,0.0,1.92571091652,-0.122050531209,0.0,2.71531367302,0.24322681129,0.0
1449617125140747193,92,1449617125134737793,odom,2.98982310295,0.0956703945994,0.0,2.97458004951,-0.208455651999,0.0,2.19695305824,-0.598578929901,0.0,1.95929181576,-0.124852105975,0.0,2.73691892624,0.265271157026,0.0
1449617125361856097,93,1449617125358803094,odom,3.01574230194,0.114587113261,0.0,3.00371408463,-0.189683035016,0.0,2.2302532196,-0.588002383709,0.0,1.98759901524,-0.116813570261,0.0,2.76105976105,0.281505763531,0.0
1449617125510392401,94,1449617125506987622,odom,3.03138542175,0.134293481708,0.0,3.02579069138,-0.170162916183,0.0,2.26092076302,-0.584739983082,0.0,2.00836229324,-0.118784837425,0.0,2.7732322216,0.295792251825,0.0
1449617125723615456,95,1449617125722970259,odom,3.04659056664,0.142500415444,0.0,3.04099583626,-0.161955982447,0.0,2.2761259079,-0.576533079147,0.0,2.02356767654,-0.110577903688,0.0,2.78843736649,0.303999185562,0.0
1449617125957329248,96,1449617125957028503,odom,3.05675029755,0.153915435076,0.0,3.05437326431,-0.150583088398,0.0,2.29392743111,-0.573220074177,0.0,2.0364587307,-0.10995990783,0.0,2.79690480232,0.312677055597,0.0
1449617126124713181,97,1449617126120453240,odom,3.07183814049,0.168208613992,0.0,3.07267904282,-0.136298030615,0.0,2.31674194336,-0.566947698593,0.0,2.05439209938,-0.106434285641,0.0,2.81032919884,0.324215352535,0.0
1449617126330773106,98,1449617126330249749,odom,3.0867433548,0.182713150978,0.0,3.09080219269,-0.12176758796,0.0,2.33945846558,-0.560381829739,0.0,2.07225680351,-0.10266662389,0.0,2.82360053062,0.335947602987,0.0
1449617126552086271,99,1449617126529355430,odom,3.10640692711,0.200382933021,0.0,3.11368322372,-0.10403791815,0.0,2.36701655388,-0.550567746162,0.0,2.09499263763,-0.0957018509507,0.0,2.84165930748,0.35082796216,0.0
1449617126715288247,100,1449617126713875099,odom,3.12591385841,0.218207463622,0.0,3.1364068985,-0.0861194953322,0.0,2.39450097084,-0.540515065193,0.0,2.11768507957,-0.0885492712259,0.0,2.85959124565,0.365846276283,0.0
1449617126923513980,101,1449617126910088542,odom,3.13514637947,0.236007899046,0.0,3.15206885338,-0.0680293142796,0.0,2.41993188858,-0.538003206253,0.0,2.13362598419,-0.0919887498021,0.0,2.86576271057,0.377985149622,0.0
1449617127162669733,102,1449617127161277511,odom,3.14482355118,0.242256075144,0.0,3.16174602509,-0.0617811381817,0.0,2.42960906029,-0.531755030155,0.0,2.1433031559,-0.0857405662537,0.0,2.8754401207,0.38423332572,0.0
1449617127337013002,103,1449617127336438693,odom,3.14446759224,0.24809153378,0.0,3.16460227966,-0.0557498633862,0.0,2.43747282028,-0.53343462944,0.0,2.14646935463,-0.0904707089067,0.0,2.87359881401,0.387214064598,0.0
1449617127513493343,104,1449617127513217767,odom,3.14480686188,0.242281600833,0.0,3.16172933578,-0.0617556124926,0.0,2.42959260941,-0.531729519367,0.0,2.1432864666,-0.0857150480151,0.0,2.8754234314,0.384258836508,0.0
1449617127742719687,105,1449617127742467937,odom,3.14480686188,0.242281600833,0.0,3.16172933578,-0.0617556124926,0.0,2.42959260941,-0.531729519367,0.0,2.1432864666,-0.0857150480151,0.0,2.8754234314,0.384258836508,0.0
1449617127920766217,106,1449617127919755003,odom,3.14480686188,0.242281600833,0.0,3.16172933578,-0.0617556124926,0.0,2.42959260941,-0.531729519367,0.0,2.1432864666,-0.0857150480151,0.0,2.8754234314,0.384258836508,0.0
1449617128127137431,107,1449617128125731276,odom,3.14480686188,0.242281600833,0.0,3.16172933578,-0.0617556124926,0.0,2.42959260941,-0.531729519367,0.0,2.1432864666,-0.0857150480151,0.0,2.8754234314,0.384258836508,0.0
1449617128328136283,108,1449617128327628680,odom,3.14480686188,0.242281600833,0.0,3.16172933578,-0.0617556124926,0.0,2.42959260941,-0.531729519367,0.0,2.1432864666,-0.0857150480151,0.0,2.8754234314,0.384258836508,0.0
1449617128496625842,109,1449617128495945869,odom,3.14480686188,0.242281600833,0.0,3.16172933578,-0.0617556124926,0.0,2.42959260941,-0.531729519367,0.0,2.1432864666,-0.0857150480151,0.0,2.8754234314,0.384258836508,0.0
1449617128712254586,110,1449617128711907265,odom,3.14480686188,0.242281600833,0.0,3.16172933578,-0.0617556124926,0.0,2.42959260941,-0.531729519367,0.0,2.1432864666,-0.0857150480151,0.0,2.8754234314,0.384258836508,0.0
1449617128900995112,111,1449617128900763265,odom,3.14480686188,0.242281600833,0.0,3.16172933578,-0.0617556124926,0.0,2.42959260941,-0.531729519367,0.0,2.1432864666,-0.0857150480151,0.0,2.8754234314,0.384258836508,0.0
1449617129138172422,112,1449617129134888783,odom,3.14480686188,0.242281600833,0.0,3.16172933578,-0.0617556124926,0.0,2.42959260941,-0.531729519367,0.0,2.1432864666,-0.0857150480151,0.0,2.8754234314,0.384258836508,0.0
1449617129316193985,113,1449617129307264530,odom,3.14480686188,0.242281600833,0.0,3.16172933578,-0.0617556124926,0.0,2.42959260941,-0.531729519367,0.0,2.1432864666,-0.0857150480151,0.0,2.8754234314,0.384258836508,0.0
1449617129506210297,114,1449617129504855697,odom,3.14480686188,0.242281600833,0.0,3.16172933578,-0.0617556124926,0.0,2.42959260941,-0.531729519367,0.0,2.1432864666,-0.0857150480151,0.0,2.8754234314,0.384258836508,0.0
1449617129711268991,115,1449617129706067076,odom,3.14480686188,0.242281600833,0.0,3.16172933578,-0.0617556124926,0.0,2.42959260941,-0.531729519367,0.0,2.1432864666,-0.0857150480151,0.0,2.8754234314,0.384258836508,0.0
1449617129945709683,116,1449617129945329551,odom,3.14480686188,0.242281600833,0.0,3.16172933578,-0.0617556124926,0.0,2.42959260941,-0.531729519367,0.0,2.1432864666,-0.0857150480151,0.0,2.8754234314,0.384258836508,0.0
1449617130108077330,117,1449617130107852129,odom,3.14445114136,0.248117059469,0.0,3.16458559036,-0.0557243414223,0.0,2.43745613098,-0.533409118652,0.0,2.14645290375,-0.0904451906681,0.0,2.87358236313,0.387239575386,0.0
1449617130325002578,118,1449617130324093975,odom,3.14928150177,0.251253902912,0.0,3.16941595078,-0.0525874905288,0.0,2.44228649139,-0.530272245407,0.0,2.15128326416,-0.087308332324,0.0,2.87841248512,0.390376418829,0.0
1449617130504671270,119,1449617130501702289,odom,3.1544675827,0.24855530262,0.0,3.17139005661,-0.0554819107056,0.0,2.43925309181,-0.525455772877,0.0,2.15294718742,-0.0794413387775,0.0,2.88508415222,0.390532553196,0.0
1449617130718879449,120,1449617130717369662,odom,3.15411162376,0.254390776157,0.0,3.17424631119,-0.04945063591,0.0,2.44711685181,-0.527135372162,0.0,2.15611338615,-0.0841714814305,0.0,2.88324284554,0.393513292074,0.0
1449617130941667284,121,1449617130940162747,odom,3.15890860558,0.257578492165,0.0,3.179043293,-0.0462629161775,0.0,2.45191383362,-0.523947656155,0.0,2.16091036797,-0.0809837579727,0.0,2.88803982735,0.396701008081,0.0
1449617131127364719,122,1449617131123335386,odom,3.16370558739,0.260766208172,0.0,3.18384003639,-0.0430751927197,0.0,2.45671057701,-0.520759940147,0.0,2.16570734978,-0.0777960345149,0.0,2.89283680916,0.399888724089,0.0
1449617131361061207,123,1449617131354776963,odom,3.16806817055,0.269810646772,0.0,3.19141244888,-0.0338010005653,0.0,2.46937179565,-0.519143283367,0.0,2.17370343208,-0.0792793855071,0.0,2.89574408531,0.40606290102,0.0
1449617131520279194,124,1449617131516142730,odom,3.17235183716,0.278875529766,0.0,3.19890356064,-0.0244724731892,0.0,2.48203206062,-0.517418086529,0.0,2.18173193932,-0.080703318119,0.0,2.89860320091,0.412242293358,0.0
1449617131729930456,125,1449617131729010773,odom,3.18186068535,0.285377174616,0.0,3.20841217041,-0.0179708283395,0.0,2.49154090881,-0.510916411877,0.0,2.19124078751,-0.0742016732693,0.0,2.9081120491,0.418743938208,0.0
1449617131931944344,126,1449617131916470461,odom,3.18604850769,0.294486820698,0.0,3.21580433846,-0.00856365729123,0.0,2.50418233871,-0.50905752182,0.0,2.19928383827,-0.075540676713,0.0,2.91090583801,0.424953192472,0.0
1449617132156006458,127,1449617132147594183,odom,3.19077706337,0.29777520895,0.0,3.22053289413,-0.00527526624501,0.0,2.50891089439,-0.505769133568,0.0,2.20401215553,-0.0722522884607,0.0,2.91563415527,0.428241580725,0.0
1449617132315968556,128,1449617132315227384,odom,3.1954703331,0.301113396883,0.0,3.22522616386,-0.001937088673,0.0,2.51360416412,-0.502430975437,0.0,2.20870566368,-0.0689141079783,0.0,2.92032766342,0.431579768658,0.0
1449617132537642351,129,1449617132537238221,odom,3.19956159592,0.310266762972,0.0,3.23251843452,0.00754767563194,0.0,2.52622532845,-0.500438570976,0.0,2.21676254272,-0.0701680406928,0.0,2.9230556488,0.437818199396,0.0
1449617132711884314,130,1449617132710278214,odom,3.20894861221,0.316943138838,0.0,3.24190545082,0.0142240300775,0.0,2.53561234474,-0.49376219511,0.0,2.2261493206,-0.0634916871786,0.0,2.93244242668,0.44449454546,0.0
1449617132923264231,131,1449617132923001509,odom,3.21763658524,0.329477608204,0.0,3.25379061699,0.0271236933768,0.0,2.55290532112,-0.488298177719,0.0,2.2389125824,-0.0613220445812,0.0,2.93979811668,0.454099833965,0.0
1449617133110613389,132,1449617133105689612,odom,3.23161029816,0.339640378952,0.0,3.26776432991,0.0372864641249,0.0,2.56687903404,-0.478135406971,0.0,2.25288653374,-0.051159273833,0.0,2.95377182961,0.464262604713,0.0
1449617133348101669,133,1449617133347738701,odom,3.24553012848,0.349876791239,0.0,3.28168416023,0.0475228838623,0.0,2.58079886436,-0.467898994684,0.0,2.26680612564,-0.0409228540957,0.0,2.96769142151,0.474499017,0.0
1449617133502766042,134,1449617133502435371,odom,3.25404882431,0.362551242113,0.0,3.29339623451,0.0605962723494,0.0,2.59799695015,-0.462203651667,0.0,2.27950954437,-0.0385696068406,0.0,2.97490882874,0.484230339527,0.0
1449617133765012894,135,1449617133764375476,odom,3.26325631142,0.369473338127,0.0,3.3026034832,0.0675183683634,0.0,2.60720419884,-0.455281555653,0.0,2.28871703148,-0.0316475108266,0.0,2.98411631584,0.491152435541,0.0
1449617133901311500,136,1449617133900802773,odom,3.27167749405,0.382188618183,0.0,3.31421351433,0.0806663408875,0.0,2.62437796593,-0.449453264475,0.0,2.30143141747,-0.0292086042464,0.0,2.99126720428,0.500910997391,0.0
1449617134129462525,137,1449617134118038232,odom,3.28163433075,0.383365988731,0.0,3.32098150253,0.0814110189676,0.0,2.62558221817,-0.441388905048,0.0,2.30709481239,-0.017754862085,0.0,3.00249409676,0.505045056343,0.0
1449617134343091711,138,1449617134341178572,odom,3.28541493416,0.392668664455,0.0,3.32795095444,0.091146402061,0.0,2.63811540604,-0.438973218203,0.0,2.31516885757,-0.0187285449356,0.0,3.00500440598,0.511391043663,0.0
1449617134510192067,139,1449617134504557804,odom,3.29456710815,0.399663448334,0.0,3.33710312843,0.0981411859393,0.0,2.64726758003,-0.431978434324,0.0,2.32432103157,-0.0117337629199,0.0,3.01415657997,0.518385827541,0.0
1449617134726088903,140,1449617134722280366,odom,3.30826759338,0.410191982985,0.0,3.35080361366,0.108669698238,0.0,2.66096806526,-0.421449929476,0.0,2.3380215168,-0.00120524631348,0.0,3.02785730362,0.528914391994,0.0
1449617134916742348,141,1449617134914390101,odom,3.32196807861,0.420720487833,0.0,3.36450433731,0.119198217988,0.0,2.67466855049,-0.410921394825,0.0,2.35172224045,0.00932327099144,0.0,3.04155778885,0.539442896843,0.0
1449617135149944828,142,1449617135148965688,odom,3.33110189438,0.427739500999,0.0,3.37363791466,0.126217231154,0.0,2.68380236626,-0.403902381659,0.0,2.36085581779,0.0163422822952,0.0,3.05069160461,0.546461880207,0.0
1449617135307979478,143,1449617135294915835,odom,3.34480237961,0.43826803565,0.0,3.38733863831,0.136745750904,0.0,2.69750285149,-0.39337387681,0.0,2.37455654144,0.0268707983196,0.0,3.06439208984,0.55699044466,0.0
1449617135513568053,144,1449617135511539222,odom,3.35930776596,0.442979127169,0.0,3.39865493774,0.141024157405,0.0,2.70325565338,-0.381775766611,0.0,2.3847682476,0.0418582782149,0.0,3.08016753197,0.564658224583,0.0
1449617135718456133,145,1449617135717946150,odom,3.36769199371,0.455742865801,0.0,3.41022801399,0.154220581055,0.0,2.72039246559,-0.375899046659,0.0,2.39744615555,0.0443456396461,0.0,3.08728170395,0.574465274811,0.0
1449617135935219294,146,1449617135933683407,odom,3.38223409653,0.460405498743,0.0,3.42158126831,0.15845054388,0.0,2.72618198395,-0.364349395037,0.0,2.40769457817,0.0592846609652,0.0,3.10309386253,0.582084596157,0.0
1449617136166399167,147,1449617136163717520,odom,3.39602661133,0.470812857151,0.0,3.43537402153,0.16885791719,0.0,2.73997473717,-0.353942036629,0.0,2.42148733139,0.069692030549,0.0,3.11688661575,0.592491984367,0.0
1449617136331804335,148,1449617136329132744,odom,3.40525221825,0.477710545063,0.0,3.44459939003,0.1757555902,0.0,2.74920010567,-0.347044348717,0.0,2.43071293831,0.0765897035599,0.0,3.12611222267,0.599389672279,0.0
1449617136521975966,149,1449617136521727080,odom,3.41447782516,0.484608203173,0.0,3.45382499695,0.182653263211,0.0,2.75842571259,-0.340146690607,0.0,2.43993854523,0.0834873840213,0.0,3.13533782959,0.606287300587,0.0
1449617136704028471,150,1449617136703836364,odom,3.42908644676,0.489092499018,0.0,3.46524047852,0.186738580465,0.0,2.76435518265,-0.328683286905,0.0,2.45036244392,0.0982928350568,0.0,3.15124773979,0.613714694977,0.0
1449617136929815851,151,1449617136926289597,odom,3.43838429451,0.495892286301,0.0,3.47453832626,0.193538367748,0.0,2.7736530304,-0.321883499622,0.0,2.45966053009,0.10509262979,0.0,3.16054582596,0.620514512062,0.0
1449617137181156504,152,1449617137176818785,odom,3.44770026207,0.502667486668,0.0,3.48385429382,0.200313553214,0.0,2.78296899796,-0.315108299255,0.0,2.46897625923,0.111867815256,0.0,3.1698615551,0.627289652824,0.0
1449617137355331146,153,1449617137341815426,odom,3.45769762993,0.503609538078,0.0,3.49065423012,0.200890406966,0.0,2.78436112404,-0.307095825672,0.0,2.47489833832,0.123174697161,0.0,3.1811914444,0.631160914898,0.0
1449617137539862265,154,1449617137539332816,odom,3.47236251831,0.507833659649,0.0,3.50211834908,0.204783156514,0.0,2.79049634933,-0.295710712671,0.0,2.48559761047,0.137806132436,0.0,3.19721961021,0.638300001621,0.0
1449617137714743561,155,1449617137714435243,odom,3.48180198669,0.5144354105,0.0,3.51155781746,0.211384922266,0.0,2.79993581772,-0.289108932018,0.0,2.49503731728,0.144407913089,0.0,3.20665931702,0.644901752472,0.0
1449617137927966987,156,1449617137927041503,odom,3.49179959297,0.515190958977,0.0,3.51835107803,0.211842924356,0.0,2.80147981644,-0.281102657318,0.0,2.50117945671,0.155612081289,0.0,3.21805095673,0.648557662964,0.0
1449617138123810707,157,1449617138122160064,odom,3.50132536888,0.521667420864,0.0,3.52787709236,0.218319401145,0.0,2.81100559235,-0.274626195431,0.0,2.51070547104,0.162088558078,0.0,3.22757697105,0.655034184456,0.0
1449617138336408001,158,1449617138328590487,odom,3.51133060455,0.522317230701,0.0,3.53467488289,0.21870559454,0.0,2.81263422966,-0.266636699438,0.0,2.51696586609,0.173227205873,0.0,3.23900651932,0.658569514751,0.0
1449617138507359307,159,1449617138506633972,odom,3.51133060455,0.522317230701,0.0,3.53467488289,0.21870559454,0.0,2.81263422966,-0.266636699438,0.0,2.51696586609,0.173227205873,0.0,3.23900651932,0.658569514751,0.0
1449617138747135750,160,1449617138743317481,odom,3.51133060455,0.522317230701,0.0,3.53467488289,0.21870559454,0.0,2.81263422966,-0.266636699438,0.0,2.51696586609,0.173227205873,0.0,3.23900651932,0.658569514751,0.0
1449617138940254181,161,1449617138939743056,odom,3.51133060455,0.522317230701,0.0,3.53467488289,0.21870559454,0.0,2.81263422966,-0.266636699438,0.0,2.51696586609,0.173227205873,0.0,3.23900651932,0.658569514751,0.0
1449617139123923579,162,1449617139122083993,odom,3.51133060455,0.522317230701,0.0,3.53467488289,0.21870559454,0.0,2.81263422966,-0.266636699438,0.0,2.51696586609,0.173227205873,0.0,3.23900651932,0.658569514751,0.0
1449617139329745589,163,1449617139327360483,odom,3.51133060455,0.522317230701,0.0,3.53467488289,0.21870559454,0.0,2.81263422966,-0.266636699438,0.0,2.51696586609,0.173227205873,0.0,3.23900651932,0.658569514751,0.0
1449617139508587107,164,1449617139508021627,odom,3.51133060455,0.522317230701,0.0,3.53467488289,0.21870559454,0.0,2.81263422966,-0.266636699438,0.0,2.51696586609,0.173227205873,0.0,3.23900651932,0.658569514751,0.0
1449617139702408122,165,1449617139702068612,odom,3.51133060455,0.522317230701,0.0,3.53467488289,0.21870559454,0.0,2.81263422966,-0.266636699438,0.0,2.51696586609,0.173227205873,0.0,3.23900651932,0.658569514751,0.0
1449617139901541163,166,1449617139900894478,odom,3.51609349251,0.525555491447,0.0,3.53943777084,0.221943825483,0.0,2.81739711761,-0.263398468494,0.0,2.52172875404,0.176465451717,0.0,3.24376964569,0.661807715893,0.0
1449617140107342947,167,1449617140106742017,odom,3.52608799934,0.526124894619,0.0,3.54622244835,0.222283497453,0.0,2.81909298897,-0.2554012537,0.0,2.52808976173,0.187562659383,0.0,3.25521922112,0.665247440338,0.0
1449617140306289225,168,1449617140303590034,odom,3.5408847332,0.529776394367,0.0,3.55780720711,0.225739181042,0.0,2.82567048073,-0.244234710932,0.0,2.53936433792,0.20177975297,0.0,3.27150130272,0.671753644943,0.0
1449617140534789311,169,1449617140534419164,odom,3.55540895462,0.539135932922,0.0,3.57233142853,0.235098689795,0.0,2.84019446373,-0.234875202179,0.0,2.55388855934,0.211139261723,0.0,3.28602552414,0.681113123894,0.0
1449617140716532541,170,1449617140714282386,odom,3.57545351982,0.539694905281,0.0,3.58594632149,0.235367938876,0.0,2.84404039383,-0.219027623534,0.0,2.56722474098,0.232938155532,0.0,3.30913066864,0.687333703041,0.0
1449617140916036023,171,1449617140914872255,odom,3.59542608261,0.53996014595,0.0,3.5994849205,0.235479384661,0.0,2.84814119339,-0.203134834766,0.0,2.58093953133,0.25458034873,0.0,3.33228325844,0.693194568157,0.0
1449617141150089208,172,1449617141149731945,odom,3.62540721893,0.539526760578,0.0,3.61981225014,0.235070392489,0.0,2.8549425602,-0.179506704211,0.0,2.60238409042,0.286448448896,0.0,3.36725378036,0.701025545597,0.0
1449617141295884833,173,1449617141293233844,odom,3.65047287941,0.541401028633,0.0,3.63844490051,0.237130880356,0.0,2.86498403549,-0.161188453436,0.0,2.62232971191,0.31000033021,0.0,3.39579057693,0.708319664001,0.0
1449617141561726022,174,1449617141560015439,odom,3.68080306053,0.545164763927,0.0,3.6623468399,0.241216763854,0.0,2.88064050674,-0.140666872263,0.0,2.64799880981,0.335545063019,0.0,3.42970514297,0.717428684235,0.0
1449617141733034327,175,1449617141731666486,odom,3.71070957184,0.542434453964,0.0,3.68262815475,0.239224255085,0.0,2.88920927048,-0.117688283324,0.0,2.67177987099,0.365658819675,0.0,3.46519851685,0.722571372986,0.0
1449617141902116706,176,1449617141896113679,odom,3.73589420319,0.54233944416,0.0,3.70141077042,0.239790469408,0.0,2.90062594414,-0.100273825228,0.0,2.69346022606,0.3875605762,0.0,3.49424505234,0.727624893188,0.0
1449617142112146236,177,1449617142111809728,odom,3.7557580471,0.539488971233,0.0,3.71488785744,0.23773637414,0.0,2.90709495544,-0.0853277593851,0.0,2.71028590202,0.40677601099,0.0,3.51807880402,0.729840159416,0.0
1449617142316062284,178,1449617142315278722,odom,3.77554655075,0.536247909069,0.0,3.72830820084,0.235426440835,0.0,2.91386795044,-0.0704932138324,0.0,2.72750306129,0.425660133362,0.0,3.54194331169,0.731579780579,0.0
1449617142532501563,179,1449617142519029259,odom,3.79081630707,0.536467313766,0.0,3.74040150642,0.236161902547,0.0,2.92277383804,-0.0611337907612,0.0,2.74166250229,0.436961323023,0.0,3.55929040909,0.734256982803,0.0
1449617142744510913,180,1449617142733282741,odom,3.80505871773,0.530689716339,0.0,3.74830842018,0.231516867876,0.0,2.9245800972,-0.0484322384,0.0,2.75403642654,0.453379303217,0.0,3.57776474953,0.733328402042,0.0
1449617142944534980,181,1449617142929644731,odom,3.82032775879,0.530425012112,0.0,3.76041889191,0.231868609786,0.0,2.93377804756,-0.0393598265946,0.0,2.76854705811,0.464225977659,0.0,3.59518790245,0.735454440117,0.0
1449617143108759161,182,1449617143108381396,odom,3.82580971718,0.532191693783,0.0,3.7659008503,0.233635231853,0.0,2.93926000595,-0.0375932045281,0.0,2.77402901649,0.465992599726,0.0,3.60066986084,0.737221062183,0.0
1449617143321943535,183,1449617143321578388,odom,3.83011126518,0.528232395649,0.0,3.7670507431,0.230325728655,0.0,2.93758964539,-0.0321517512202,0.0,2.77768969536,0.473152071238,0.0,3.60715055466,0.735629558563,0.0
1449617143539472038,184,1449617143538869557,odom,3.83561134338,0.529940962791,0.0,3.7725508213,0.232034310699,0.0,2.94308996201,-0.0304431580007,0.0,2.78318977356,0.474860668182,0.0,3.61265087128,0.737338125706,0.0
1449617143748606206,185,1449617143737329326,odom,3.84408783913,0.521887123585,0.0,3.77474522591,0.225379765034,0.0,2.93992209435,-0.0195088181645,0.0,2.7907371521,0.489061564207,0.0,3.62556028366,0.733950138092,0.0
1449617143961761718,186,1449617143958872397,odom,3.85933184624,0.520977377892,0.0,3.78685975075,0.225219398737,0.0,2.94949531555,-0.0108332168311,0.0,2.80569314957,0.499285310507,0.0,3.64305758476,0.735337972641,0.0
1449617144132589835,187,1449617144122256505,odom,3.86902976036,0.518314480782,0.0,3.79343628883,0.223338887095,0.0,2.95362401009,-0.00385140767321,0.0,2.81522083282,0.507758319378,0.0,3.65503287315,0.734948635101,0.0
1449617144313761995,188,1449617144312994305,odom,3.89071178436,0.502661943436,0.0,3.8027203083,0.211144387722,0.0,2.95405745506,0.0196471791714,0.0,2.83739805222,0.536648750305,0.0,3.68606114388,0.728145956993,0.0
1449617144534178743,189,1449617144533682253,odom,3.91734457016,0.487315386534,0.0,3.81711196899,0.199776753783,0.0,2.961114645,0.0443147718906,0.0,2.86640787125,0.565784454346,0.0,3.72240543365,0.721246421337,0.0
1449617144703099561,190,1449617144702759192,odom,3.95252466202,0.467041611671,0.0,3.83724570274,0.185198158026,0.0,2.97423219681,0.0751632228494,0.0,2.90719938278,0.600907087326,0.0,3.77021288872,0.710942029953,0.0
1449617144929036902,191,1449617144928799304,odom,3.98569774628,0.455349773169,0.0,3.86154270172,0.177302151918,0.0,2.99547481537,0.0946790352464,0.0,2.94514131546,0.622283518314,0.0,3.81120896339,0.704906642437,0.0
1449617145117131603,192,1449617145116434802,odom,4.01593065262,0.437031984329,0.0,3.88013625145,0.164479508996,0.0,3.01135063171,0.118529886007,0.0,2.98335838318,0.647790133953,0.0,3.85214400291,0.693739771843,0.0
1449617145313058157,193,1449617145312413875,odom,4.04239368439,0.422768265009,0.0,3.89802789688,0.154657274485,0.0,3.02822232246,0.136270239949,0.0,3.0170211792,0.666151821613,0.0,3.88682675362,0.684538900852,0.0
1449617145508362584,194,1449617145508126487,odom,4.05687141418,0.417909294367,0.0,3.90968036652,0.151338905096,0.0,3.03972887993,0.142144873738,0.0,3.03412795067,0.672115266323,0.0,3.90407943726,0.68130928278,0.0
1449617145715708647,195,1449617145713676680,odom,4.0597782135,0.412836700678,0.0,3.90977811813,0.147836714983,0.0,3.03977799416,0.147836714983,0.0,3.03977799416,0.677836716175,0.0,3.90977811813,0.677836716175,0.0
1449617145929400669,196,1449617145925502301,odom,4.0597782135,0.412836700678,0.0,3.90977811813,0.147836714983,0.0,3.03977799416,0.147836714983,0.0,3.03977799416,0.677836716175,0.0,3.90977811813,0.677836716175,0.0
1449617146115325606,197,1449617146115093488,odom,4.0597782135,0.412836700678,0.0,3.90977811813,0.147836714983,0.0,3.03977799416,0.147836714983,0.0,3.03977799416,0.677836716175,0.0,3.90977811813,0.677836716175,0.0
1449617146338445948,198,1449617146333741232,odom,4.0597782135,0.412836700678,0.0,3.90977811813,0.147836714983,0.0,3.03977799416,0.147836714983,0.0,3.03977799416,0.677836716175,0.0,3.90977811813,0.677836716175,0.0
1449617146509744655,199,1449617146508590309,odom,4.0597782135,0.412836700678,0.0,3.90977811813,0.147836714983,0.0,3.03977799416,0.147836714983,0.0,3.03977799416,0.677836716175,0.0,3.90977811813,0.677836716175,0.0
1449617146738062869,200,1449617146736964997,odom,4.0597782135,0.412836700678,0.0,3.90977811813,0.147836714983,0.0,3.03977799416,0.147836714983,0.0,3.03977799416,0.677836716175,0.0,3.90977811813,0.677836716175,0.0
1449617146967632972,201,1449617146964489457,odom,4.06263113022,0.40773370862,0.0,3.90983867645,0.144333690405,0.0,3.03988742828,0.153527721763,0.0,3.04548835754,0.68349814415,0.0,3.91543984413,0.674304068089,0.0
1449617147130339859,202,1449617147129229664,odom,4.06839036942,0.407703280449,0.0,3.91559815407,0.144303262234,0.0,3.0456469059,0.153497293591,0.0,3.05124783516,0.683467686176,0.0,3.92119908333,0.67427366972,0.0
1449617147356122273,203,1449617147354812128,odom,4.08270645142,0.402387827635,0.0,3.92713952065,0.140617191792,0.0,3.05733394623,0.159004226327,0.0,3.06853508949,0.688885867596,0.0,3.93834066391,0.670498788357,0.0
1449617147571288386,204,1449617147569559148,odom,4.10272264481,0.396738797426,0.0,3.94439792633,0.136626794934,0.0,3.07483506203,0.164204776287,0.0,3.09163546562,0.693938434124,0.0,3.96119832993,0.66636043787,0.0
1449617147752942117,205,1449617147752675235,odom,4.12788009644,0.380169808865,0.0,3.96138978004,0.12520724535,0.0,3.09313821793,0.180335491896,0.0,3.1267220974,0.709270358086,0.0,3.99497365952,0.654142141342,0.0
1449617147926864899,206,1449617147926595768,odom,4.1615896225,0.367468059063,0.0,3.9897480011,0.116081148386,0.0,3.12285542488,0.189547166228,0.0,3.16761064529,0.717654109001,0.0,4.03450298309,0.64418810606,0.0
1449617148149550832,207,1449617148148897622,odom,4.20646715164,0.352720409632,0.0,4.0293507576,0.105021424592,0.0,3.16420459747,0.196792393923,0.0,3.22011113167,0.723835527897,0.0,4.08525753021,0.632064521313,0.0
1449617148355432593,208,1449617148334457721,odom,4.25321340561,0.331665337086,0.0,4.06833410263,0.0897052139044,0.0,3.20653176308,0.208854198456,0.0,3.27911686897,0.733860313892,0.0,4.14091920853,0.614711344242,0.0
1449617148564516239,209,1449617148562755401,odom,4.3123588562,0.318090796471,0.0,4.1249332428,0.0780979692936,0.0,3.26443791389,0.206347703934,0.0,3.34256720543,0.730557441711,0.0,4.20306253433,0.602307677269,0.0
1449617148756185744,210,1449617148750189681,odom,4.36188936234,0.299559831619,0.0,4.16943311691,0.0635817497969,0.0,3.31184077263,0.209988996387,0.0,3.40103125572,0.732430398464,0.0,4.25862360001,0.586023151875,0.0
1449617148938647985,211,1449617148938351439,odom,4.41106176376,0.280225485563,0.0,4.21366119385,0.048367600888,0.0,3.359354496,0.212866947055,0.0,3.45956683159,0.733306646347,0.0,4.31387329102,0.568807303905,0.0
1449617149193005033,212,1449617149192756409,odom,4.46200180054,0.270633727312,0.0,4.26460170746,0.0387758165598,0.0,3.41029500961,0.203275159001,0.0,3.51050710678,0.723714888096,0.0,4.36481380463,0.559215545654,0.0
1449617149399062294,213,1449617149365079092,odom,4.52048778534,0.270353853703,0.0,4.32803153992,0.0343757793307,0.0,3.47043919563,0.18078301847,0.0,3.55962967873,0.703224420547,0.0,4.41722202301,0.556817173958,0.0
1449617149561010162,214,1449617149556668823,odom,4.57533502579,0.266661196947,0.0,4.38538360596,0.0286624412984,0.0,3.52629160881,0.165998592973,0.0,3.6099562645,0.689353406429,0.0,4.46904802322,0.552017211914,0.0
1449617149727087480,215,1449617149726021915,odom,4.63166236877,0.273989737034,0.0,4.44935035706,0.0300893504173,0.0,3.58633708954,0.14012427628,0.0,3.65336990356,0.665868103504,0.0,4.51638317108,0.555833220482,0.0
1449617149953489077,216,1449617149953292399,odom,4.67862796783,0.278933912516,0.0,4.50151157379,0.0312349274755,0.0,3.63636517525,0.123005904257,0.0,3.69227170944,0.650049030781,0.0,4.55741786957,0.558278083801,0.0
1449617150157340694,217,1449617150153745283,odom,4.7147731781,0.296232581139,0.0,4.54828262329,0.041270006448,0.0,3.68003106117,0.0963982567191,0.0,3.71361494064,0.62533313036,0.0,4.58186674118,0.570204913616,0.0
1449617150393615033,218,1449617150391757311,odom,4.73562765121,0.310398489237,0.0,4.57730293274,0.0502864867449,0.0,3.70774006844,0.0778644755483,0.0,3.72454023361,0.607598125935,0.0,4.5941028595,0.580020129681,0.0
1449617150558585778,219,1449617150556732527,odom,4.74450731277,0.325522631407,0.0,4.59450721741,0.060522634536,0.0,3.72450733185,0.060522634536,0.0,3.72450733185,0.590522646904,0.0,4.59450721741,0.590522646904,0.0
1449617150784053081,220,1449617150779865910,odom,4.75015878677,0.335758507252,0.0,4.60579299927,0.0676475167274,0.0,3.73598742485,0.0492604784667,0.0,3.72478604317,0.579142093658,0.0,4.59459161758,0.597529113293,0.0
1449617150954948107,221,1449617150952032044,odom,4.75559282303,0.346111536026,0.0,4.6169257164,0.075009316206,0.0,3.74770283699,0.0382434651256,0.0,3.72530531883,0.567770004272,0.0,4.59452819824,0.6045358181,0.0
1449617151155915564,222,1449617151155402711,odom,4.75758266449,0.361485630274,0.0,4.62757873535,0.0861240848899,0.0,3.75995802879,0.0218233540654,0.0,3.72078633308,0.550373792648,0.0,4.58840703964,0.614674508572,0.0
1449617151357874210,223,1449617151356519472,odom,4.75908136368,0.376945406199,0.0,4.63787126541,0.0976012572646,0.0,3.77272510529,0.00583028513938,0.0,3.71681857109,0.532873392105,0.0,4.58196496964,0.624644398689,0.0
1449617151582370315,224,1449617151556799143,odom,4.75859355927,0.402479201555,0.0,4.6523065567,0.117123171687,0.0,3.79321455956,-0.0202129837126,0.0,3.70955014229,0.503141820431,0.0,4.5686416626,0.640477955341,0.0
1449617151747838304,225,1449617151746787749,odom,4.75676870346,0.427891731262,0.0,4.66570138931,0.137320354581,0.0,3.81506204605,-0.0451976172626,0.0,3.70387291908,0.473007917404,0.0,4.55451202393,0.655525863171,0.0
1449617151944127917,226,1449617151943681100,odom,4.75210809708,0.447575837374,0.0,4.67340183258,0.153415545821,0.0,3.83123540878,-0.064887046814,0.0,3.69824647903,0.448156744242,0.0,4.54041290283,0.666459321976,0.0
1449617152161099851,227,1449617152160503356,odom,4.74787855148,0.472700208426,0.0,4.68481779099,0.174793541431,0.0,3.85535693169,-0.0876839309931,0.0,3.69545674324,0.417619884014,0.0,4.52491760254,0.680097341537,0.0
1449617152357993392,228,1449617152356992446,odom,4.73778247833,0.501407504082,0.0,4.69372558594,0.200103655457,0.0,3.882563591,-0.114405803382,0.0,3.69096589088,0.379750341177,0.0,4.50212812424,0.694259822369,0.0
1449617152555292738,229,1449617152552143444,odom,4.72588777542,0.529417395592,0.0,4.70101165771,0.225927352905,0.0,3.91140913963,-0.139349997044,0.0,3.68888378143,0.341672331095,0.0,4.47848653793,0.706949710846,0.0
1449617152724165267,230,1449617152724025339,odom,4.71222782135,0.556644380093,0.0,4.70663309097,0.2521879673,0.0,3.94176340103,-0.162389114499,0.0,3.68920493126,0.303566038609,0.0,4.45407485962,0.718143105507,0.0
1449617152917350489,231,1449617152917059701,odom,4.70226335526,0.568480908871,0.0,4.70632219315,0.264000147581,0.0,3.95497846603,-0.174614086747,0.0,3.68777680397,0.28310111165,0.0,4.43912029266,0.721715331078,0.0
1449617153104691323,232,1449617153104233017,odom,4.69707202911,0.57716178894,0.0,4.70756530762,0.272834837437,0.0,3.96565914154,-0.181560710073,0.0,3.68884348869,0.270405054092,0.0,4.43074941635,0.724800646305,0.0
1449617153302786659,233,1449617153302396288,odom,4.69707202911,0.57716178894,0.0,4.70756530762,0.272834837437,0.0,3.96565914154,-0.181560710073,0.0,3.68884348869,0.270405054092,0.0,4.43074941635,0.724800646305,0.0
1449617153521919243,234,1449617153521511848,odom,4.69707202911,0.57716178894,0.0,4.70756530762,0.272834837437,0.0,3.96565914154,-0.181560710073,0.0,3.68884348869,0.270405054092,0.0,4.43074941635,0.724800646305,0.0
1449617153719731089,235,1449617153718982419,odom,4.69707202911,0.57716178894,0.0,4.70756530762,0.272834837437,0.0,3.96565914154,-0.181560710073,0.0,3.68884348869,0.270405054092,0.0,4.43074941635,0.724800646305,0.0
1449617153929816155,236,1449617153925446059,odom,4.69707202911,0.57716178894,0.0,4.70756530762,0.272834837437,0.0,3.96565914154,-0.181560710073,0.0,3.68884348869,0.270405054092,0.0,4.43074941635,0.724800646305,0.0
1449617154126063674,237,1449617154124365383,odom,4.69707202911,0.57716178894,0.0,4.70756530762,0.272834837437,0.0,3.96565914154,-0.181560710073,0.0,3.68884348869,0.270405054092,0.0,4.43074941635,0.724800646305,0.0
1449617154355582964,238,1449617154354091940,odom,4.69707202911,0.57716178894,0.0,4.70756530762,0.272834837437,0.0,3.96565914154,-0.181560710073,0.0,3.68884348869,0.270405054092,0.0,4.43074941635,0.724800646305,0.0
1449617154553030273,239,1449617154551495083,odom,4.69169855118,0.58573102951,0.0,4.70862102509,0.281693816185,0.0,3.97648406029,-0.188280060887,0.0,3.6901781559,0.257734388113,0.0,4.4223151207,0.727708280087,0.0
1449617154785689208,240,1449617154782713979,odom,4.68614530563,0.594184815884,0.0,4.70948934555,0.29057314992,0.0,3.98744869232,-0.194769129157,0.0,3.69178056717,0.245094761252,0.0,4.4138212204,0.730437040329,0.0
1449617154935105941,241,1449617154934870239,odom,4.67449045181,0.610755443573,0.0,4.71064472198,0.308401554823,0.0,4.00975942612,-0.207020312548,0.0,3.69576668739,0.219955801964,0.0,4.39665174484,0.735377669334,0.0
1449617155101611506,242,1449617155100569213,odom,4.65670490265,0.628955900669,0.0,4.70877742767,0.328933447599,0.0,4.03609275818,-0.222786739469,0.0,3.6999874115,0.187009721994,0.0,4.37267208099,0.738729894161,0.0
1449617155303197513,243,1449617155302881238,odom,4.64223718643,0.650074124336,0.0,4.71008300781,0.35322073102,0.0,4.06747627258,-0.233257710934,0.0,3.71019649506,0.158215150237,0.0,4.35280275345,0.74469357729,0.0
1449617155518185468,244,1449617155517915719,odom,4.62254619598,0.666384160519,0.0,4.70597553253,0.373528420925,0.0,4.09524154663,-0.246071144938,0.0,3.71778416634,0.125985354185,0.0,4.32851839066,0.745584905148,0.0
1449617155710256755,245,1449617155704427931,odom,4.62254619598,0.666384160519,0.0,4.70597553253,0.373528420925,0.0,4.09524154663,-0.246071144938,0.0,3.71778416634,0.125985354185,0.0,4.32851839066,0.745584905148,0.0
1449617155925493798,246,1449617155920411629,odom,4.62254619598,0.666384160519,0.0,4.70597553253,0.373528420925,0.0,4.09524154663,-0.246071144938,0.0,3.71778416634,0.125985354185,0.0,4.32851839066,0.745584905148,0.0
1449617156137951219,247,1449617156136821788,odom,4.62818288803,0.664833664894,0.0,4.70851325989,0.371112555265,0.0,4.09126520157,-0.241998255253,0.0,3.71776080132,0.134026393294,0.0,4.33500862122,0.747137188911,0.0
1449617156298724886,248,1449617156298479624,odom,4.63786792755,0.667304039001,0.0,4.71508932114,0.372750431299,0.0,4.09139680862,-0.233803167939,0.0,3.72188711166,0.146147623658,0.0,4.34558010101,0.752701222897,0.0
1449617156520641154,249,1449617156519747476,odom,4.64457082748,0.68102568388,0.0,4.7249007225,0.387304633856,0.0,4.10765266418,-0.225806191564,0.0,3.73414850235,0.150218456984,0.0,4.35139656067,0.763329267502,0.0
1449617156706699597,250,1449617156706154845,odom,4.66091585159,0.69726139307,0.0,4.74124622345,0.403540313244,0.0,4.12399816513,-0.209570482373,0.0,3.75049376488,0.166454151273,0.0,4.36774158478,0.779564976692,0.0
1449617156931310567,251,1449617156929748274,odom,4.67375421524,0.725041389465,0.0,4.76027393341,0.43308365345,0.0,4.1561217308,-0.192935466766,0.0,3.77475357056,0.175111353397,0.0,4.37890577316,0.801130473614,0.0
1449617157115015802,252,1449617157114609822,odom,4.69404602051,0.761333703995,0.0,4.78671693802,0.471269696951,0.0,4.19593000412,-0.167378053069,0.0,3.80686903,0.1925265342,0.0,4.39765548706,0.831174254417,0.0
1449617157319530675,253,1449617157315896308,odom,4.72147893906,0.806420981884,0.0,4.82025957108,0.518380343914,0.0,4.24310207367,-0.132610753179,0.0,3.84652137756,0.218990817666,0.0,4.42367887497,0.869981944561,0.0
1449617157512801223,254,1449617157512345793,odom,4.74989175797,0.846619307995,0.0,4.85171079636,0.559638619423,0.0,4.28146505356,-0.0974154323339,0.0,3.88119077682,0.24997548759,0.0,4.45143651962,0.907029569149,0.0
1449617157700532550,255,1449617157699848974,odom,4.77555751801,0.892830133438,0.0,4.88341903687,0.60806542635,0.0,4.32718753815,-0.0608937218785,0.0,3.91966056824,0.277960002422,0.0,4.47589206696,0.946919202805,0.0
1449617157898709506,256,1449617157897875240,odom,4.79434299469,0.940553963184,0.0,4.91117715836,0.659351527691,0.0,4.37643003464,-0.0269033890218,0.0,3.95836687088,0.298861920834,0.0,4.49311351776,0.985116839409,0.0
1449617158101481952,257,1449617158100982215,odom,4.82022333145,0.982415378094,0.0,4.94002199173,0.702463269234,0.0,4.41255760193,0.0105955982581,0.0,3.99107480049,0.331924676895,0.0,4.51853942871,1.02379238605,0.0
1449617158306706759,258,1449617158305881386,odom,4.84645032883,1.03470432758,0.0,4.97213935852,0.757346689701,0.0,4.45941495895,0.054485835135,0.0,4.03123521805,0.366835325956,0.0,4.54395961761,1.06969618797,0.0
1449617158515883629,259,1449617158515583474,odom,4.8777551651,1.08668982983,0.0,5.00636816025,0.810675978661,0.0,4.50110006332,0.102435939014,0.0,4.06964349747,0.410243034363,0.0,4.57491159439,1.11848306656,0.0
1449617158719171830,260,1449617158717121813,odom,4.90238618851,1.13973128796,0.0,5.03680419922,0.866497218609,0.0,4.5466170311,0.147736802697,0.0,4.108751297,0.446356534958,0.0,4.59893846512,1.16511702538,0.0
1449617158901104039,261,1449617158900942612,odom,4.93759155273,1.18191719055,0.0,5.06911420822,0.907277882099,0.0,4.57135868073,0.193737789989,0.0,4.13667345047,0.496968150139,0.0,4.63442897797,1.21050822735,0.0
1449617159111064842,262,1449617159110638519,odom,4.96119976044,1.22510516644,0.0,5.09561777115,0.951871037483,0.0,4.60543060303,0.23311060667,0.0,4.16756486893,0.531730353832,0.0,4.65775203705,1.25049078465,0.0
1449617159306074409,263,1449617159305249945,odom,4.98067045212,1.25365519524,0.0,5.11508846283,0.980421125889,0.0,4.62490129471,0.261660695076,0.0,4.18703556061,0.560280442238,0.0,4.67722272873,1.27904081345,0.0
1449617159516132171,264,1449617159515883713,odom,5.00282001495,1.27685952187,0.0,5.13434267044,1.00222015381,0.0,4.63658714294,0.288680106401,0.0,4.20190191269,0.591910481453,0.0,4.69965744019,1.30545055866,0.0
1449617159708049402,265,1449617159707304502,odom,5.01587581635,1.29584109783,0.0,5.14739847183,1.02120172977,0.0,4.64964294434,0.307661682367,0.0,4.21495771408,0.610891997814,0.0,4.71271324158,1.32443213463,0.0
1449617159916196551,266,1449617159916009873,odom,5.02905654907,1.31473624706,0.0,5.16057920456,1.04009687901,0.0,4.66282367706,0.326556831598,0.0,4.22813844681,0.629787147045,0.0,4.7258939743,1.34332728386,0.0
1449617160128754544,267,1449617160128535509,odom,5.0481543541,1.33298134804,0.0,5.17676782608,1.05696749687,0.0,4.67149925232,0.348727464676,0.0,4.24004268646,0.656534552574,0.0,4.74531126022,1.36477458477,0.0
1449617160353617279,268,1449617160348100402,odom,5.06487941742,1.35642492771,0.0,5.19349241257,1.08041095734,0.0,4.68822431564,0.372170984745,0.0,4.25676774979,0.679978072643,0.0,4.76203584671,1.38821804523,0.0
1449617160508685381,269,1449617160508477403,odom,5.08160448074,1.37986838818,0.0,5.21021747589,1.10385453701,0.0,4.70494937897,0.395614475012,0.0,4.27349281311,0.703421592712,0.0,4.77876091003,1.41166162491,0.0
1449617160724856012,270,1449617160723328193,odom,5.10418987274,1.4026350975,0.0,5.22987890244,1.12527740002,0.0,4.71715402603,0.422416508198,0.0,4.28897428513,0.73476600647,0.0,4.80169916153,1.43762683868,0.0
1449617160927150284,271,1449617160923116446,odom,5.12448167801,1.43060696125,0.0,5.2501707077,1.15324938297,0.0,4.73744630814,0.450388461351,0.0,4.30926656723,0.762737929821,0.0,4.8219909668,1.46559882164,0.0
1449617161160199159,272,1449617161152338203,odom,5.14836454391,1.463088274,0.0,5.27405357361,1.18573057652,0.0,4.76132917404,0.482869774103,0.0,4.33314943314,0.795219242573,0.0,4.8458738327,1.49808013439,0.0
1449617161311190812,273,1449617161306902484,odom,5.1817150116,1.49932134151,0.0,5.30446624756,1.22065091133,0.0,4.78434228897,0.523247659206,0.0,4.35948753357,0.84010463953,0.0,4.87961149216,1.53750789165,0.0
1449617161510083666,274,1449617161509130335,odom,5.21886587143,1.53983521461,0.0,5.33866500854,1.25988304615,0.0,4.81120014191,0.568015396595,0.0,4.38971757889,0.889344513416,0.0,4.91718244553,1.58121216297,0.0
1449617161698224916,275,1449617161697148761,odom,5.25046205521,1.58092796803,0.0,5.37026119232,1.30097579956,0.0,4.84279632568,0.609108150005,0.0,4.42131376266,0.930437266827,0.0,4.9487786293,1.62230491638,0.0
1449617161904565220,276,1449617161904281577,odom,5.29172277451,1.62547791004,0.0,5.40855693817,1.34427535534,0.0,4.87380981445,0.658020496368,0.0,4.4557466507,0.983785808086,0.0,4.99049329758,1.67004072666,0.0
1449617162109513032,277,1449617162108062989,odom,5.32969760895,1.66521632671,0.0,5.44355344772,1.38279485703,0.0,4.90158414841,0.702229440212,0.0,4.48698663712,1.03239452839,0.0,5.02895593643,1.71296000481,0.0
