%time,field.header.seq,field.header.stamp,field.header.frame_id,field.ns,field.id,field.type,field.action,field.pose.position.x,field.pose.position.y,field.pose.position.z,field.pose.orientation.x,field.pose.orientation.y,field.pose.orientation.z,field.pose.orientation.w,field.scale.x,field.scale.y,field.scale.z,field.color.r,field.color.g,field.color.b,field.color.a,field.lifetime,field.frame_locked,field.text,field.mesh_resource,field.mesh_use_embedded_materials
1449617109349063704,0,1449617109298692521,/odom,doorways,0,1,0,2.5176961422,-0.168818712234,1.0,0.0,0.0,0.247383210118,0.968917719598,0.2,0.678749084473,1.8,0.0,1.0,0.0,1.0,2000000000,0,,,0
1449617109468089625,1,1449617109417870912,/odom,doorways,0,1,0,2.56450867653,-0.159320145845,1.0,0.0,0.0,0.281473770948,0.959568922104,0.2,0.698267281055,1.8,0.0,1.0,0.0,1.0,2000000000,0,,,0
1449617109656592878,2,1449617109606379850,/odom,doorways,0,1,0,2.52930855751,-0.161319151521,1.0,0.0,0.0,0.264105942462,0.964493676058,0.2,0.698978722095,1.8,0.0,1.0,0.0,1.0,2000000000,0,,,0
1449617109849683889,3,1449617109790670604,/odom,doorways,0,1,0,2.56725215912,-0.141617238522,1.0,0.0,0.0,0.292592545849,0.95623721017,0.2,0.707691609859,1.8,0.0,1.0,0.0,1.0,2000000000,0,,,0
1449617109990687999,4,1449617109933547046,/odom,doorways,0,1,0,2.50345468521,-0.173120170832,1.0,0.0,0.0,0.239723783088,0.970841134183,0.2,0.678393661976,1.8,0.0,1.0,0.0,1.0,2000000000,0,,,0
1449617110157931670,5,1449617110106740138,/odom,doorways,0,1,0,2.46728110313,-0.187435433269,1.0,0.0,0.0,0.228148519935,0.973626341494,0.2,0.658840596676,1.8,0.0,1.0,0.0,1.0,2000000000,0,,,0
1449617110397001343,6,1449617110346806675,/odom,doorways,0,1,0,2.51611542702,-0.180857270956,1.0,0.0,0.0,0.242084039995,0.970255284747,0.2,0.658511400223,1.8,0.0,1.0,0.0,1.0,2000000000,0,,,0
1449617110770760579,7,1449617110720159262,/odom,doorways,0,1,0,2.54430294037,-0.172237038612,1.0,0.0,0.0,0.278305485908,0.960492611379,0.2,0.677949428558,1.8,0.0,1.0,0.0,1.0,2000000000,0,,,0
1449617111010019179,8,1449617110940567961,/odom,doorways,0,1,0,2.49997663498,-0.1843752563,1.0,0.0,0.0,0.259757897022,0.965673772521,0.2,0.677766919136,1.8,0.0,1.0,0.0,1.0,2000000000,0,,,0
1449617111454130434,9,1449617111403044333,/odom,doorways,0,1,0,2.54340839386,-0.167333200574,1.0,0.0,0.0,0.270405232578,0.962746597083,0.2,0.697396993637,1.8,0.0,1.0,0.0,1.0,2000000000,0,,,0
1449617111572248038,10,1449617111520714083,/odom,doorways,0,1,0,2.54091191292,-0.165088862181,1.0,0.0,0.0,0.267892949234,0.963448684544,0.2,0.69844520092,1.8,0.0,1.0,0.0,1.0,2000000000,0,,,0
1449617111681784258,11,1449617111630213944,/odom,doorways,0,1,0,2.57478809357,-0.152842521667,1.0,0.0,0.0,0.284660590727,0.958628368079,0.2,0.727826833725,1.8,0.0,1.0,0.0,1.0,2000000000,0,,,0
1449617112082436924,12,1449617112032173144,/odom,doorways,0,1,0,2.53011059761,-0.177938818932,1.0,0.0,0.0,0.287739296149,0.957708774864,0.2,0.698984801769,1.8,0.0,1.0,0.0,1.0,2000000000,0,,,0
1449617112261314805,13,1449617112211002838,/odom,doorways,0,1,0,2.52160835266,-0.178190618753,1.0,0.0,0.0,0.26332746585,0.96470650756,0.2,0.688546419144,1.8,0.0,1.0,0.0,1.0,2000000000,0,,,0
1449617112459844379,14,1449617112409603015,/odom,doorways,0,1,0,2.53038549423,-0.165323346853,1.0,0.0,0.0,0.269340262408,0.963045078408,0.2,0.687845468521,1.8,0.0,1.0,0.0,1.0,2000000000,0,,,0
1449617112684167182,15,1449617112633180247,/odom,doorways,0,1,0,2.54886889458,-0.145743533969,1.0,0.0,0.0,0.276817012733,0.960922651133,0.2,0.678089976311,1.8,0.0,1.0,0.0,1.0,2000000000,0,,,0
1449617112743526912,16,1449617112693278601,/odom,doorways,0,1,0,2.5314745903,-0.155206590891,1.0,0.0,0.0,0.264100277347,0.964495227311,0.2,0.668439984322,1.8,0.0,1.0,0.0,1.0,2000000000,0,,,0
1449617112968795984,17,1449617112918161551,/odom,doorways,0,1,0,2.57789897919,-0.141501560807,1.0,0.0,0.0,0.316591143819,0.948562094781,0.2,0.688725709915,1.8,0.0,1.0,0.0,1.0,2000000000,0,,,0
1449617113169558367,18,1449617113115019093,/odom,doorways,0,1,0,2.51619005203,-0.162337750196,1.0,0.0,0.0,0.262533544745,0.964922866287,0.2,0.667843163013,1.8,0.0,1.0,0.0,1.0,2000000000,0,,,0
1449617113376782720,19,1449617113326415176,/odom,doorways,0,1,0,2.6159863472,-0.122726291418,1.0,0.0,0.0,0.31307418635,0.949728673802,0.2,0.737676620483,1.8,0.0,1.0,0.0,1.0,2000000000,0,,,0
1449617113574897123,20,1449617113524563390,/odom,doorways,0,1,0,2.5297305584,-0.156563431025,1.0,0.0,0.0,0.27058344672,0.96269652454,0.2,0.677589416504,1.8,0.0,1.0,0.0,1.0,2000000000,0,,,0
1449617113888086313,21,1449617113837853350,/odom,doorways,0,1,0,2.54064917564,-0.14553886652,1.0,0.0,0.0,0.271510442951,0.962435493614,0.2,0.688477158546,1.8,0.0,1.0,0.0,1.0,2000000000,0,,,0
1449617114072026626,22,1449617114021579531,/odom,doorways,0,1,0,2.558365345,-0.139726221561,1.0,0.0,0.0,0.291038700382,0.956711280837,0.2,0.678362667561,1.8,0.0,1.0,0.0,1.0,2000000000,0,,,0
1449617114426720832,23,1449617114372735487,/odom,doorways,0,1,0,2.49097967148,-0.164316624403,1.0,0.0,0.0,0.269735550751,0.962934438402,0.2,0.668481767178,1.8,0.0,1.0,0.0,1.0,2000000000,0,,,0
1449617114567941339,24,1449617114517166281,/odom,doorways,0,1,0,2.52247238159,-0.184789121151,1.0,0.0,0.0,0.264571065443,0.964366191511,0.2,0.678634524345,1.8,0.0,1.0,0.0,1.0,2000000000,0,,,0
1449617114682334638,25,1449617114632130705,/odom,doorways,0,1,0,2.54790616035,-0.163739979267,1.0,0.0,0.0,0.281448055217,0.959576465017,0.2,0.669314146042,1.8,0.0,1.0,0.0,1.0,2000000000,0,,,0
1449617115024213943,26,1449617114967729627,/odom,doorways,0,1,0,2.60024499893,-0.178765684366,1.0,0.0,0.0,0.288585983555,0.957453983278,0.2,0.70897758007,1.8,0.0,1.0,0.0,1.0,2000000000,0,,,0
1449617115401884083,27,1449617115345872498,/odom,doorways,0,1,0,2.53793907166,-0.191531538963,1.0,0.0,0.0,0.287301957875,0.957840062328,0.2,0.66783618927,1.8,0.0,1.0,0.0,1.0,2000000000,0,,,0
1449617115577966867,28,1449617115525198833,/odom,doorways,0,1,0,2.53020715714,-0.194777697325,1.0,0.0,0.0,0.265299261255,0.964166117418,0.2,0.717770814896,1.8,0.0,1.0,0.0,1.0,2000000000,0,,,0
1449617115689136425,29,1449617115631237584,/odom,doorways,0,1,0,2.49477338791,-0.196726173162,1.0,0.0,0.0,0.257878418532,0.96617737567,0.2,0.679064810276,1.8,0.0,1.0,0.0,1.0,2000000000,0,,,0
1449617115878808440,30,1449617115827481184,/odom,doorways,0,1,0,2.53587388992,-0.181867837906,1.0,0.0,0.0,0.292319326907,0.9563207679,0.2,0.70732229948,1.8,0.0,1.0,0.0,1.0,2000000000,0,,,0
1449617116090876432,31,1449617116038889705,/odom,doorways,0,1,0,2.53059267998,-0.180060744286,1.0,0.0,0.0,0.292313486486,0.956322553126,0.2,0.69862639904,1.8,0.0,1.0,0.0,1.0,2000000000,0,,,0
1449617116270646202,32,1449617116219694730,/odom,doorways,0,1,0,2.55872964859,-0.178313702345,1.0,0.0,0.0,0.275088614547,0.961418875489,0.2,0.688699901104,1.8,0.0,1.0,0.0,1.0,2000000000,0,,,0
1449617116361957130,33,1449617116311652628,/odom,doorways,0,1,0,2.55029392242,-0.163205265999,1.0,0.0,0.0,0.282180844023,0.959361230854,0.2,0.688052892685,1.8,0.0,1.0,0.0,1.0,2000000000,0,,,0
1449617116489656811,34,1449617116439140695,/odom,doorways,0,1,0,2.39890956879,-0.226671844721,1.0,0.0,0.0,0.174934702252,0.98458003735,0.2,0.669893145561,1.8,0.0,1.0,0.0,1.0,2000000000,0,,,0
1449617116703671278,35,1449617116652392691,/odom,doorways,0,1,0,2.53707265854,-0.179848253727,1.0,0.0,0.0,0.284043167041,0.958811493077,0.2,0.709289610386,1.8,0.0,1.0,0.0,1.0,2000000000,0,,,0
1449617116861656580,36,1449617116808801225,/odom,doorways,0,1,0,2.62654542923,-0.141029819846,1.0,0.0,0.0,0.313046182793,0.949737904603,0.2,0.768353700638,1.8,0.0,1.0,0.0,1.0,2000000000,0,,,0
1449617117074343713,37,1449617117021038661,/odom,doorways,0,1,0,2.53199934959,-0.185900583863,1.0,0.0,0.0,0.266273147369,0.963897614371,0.2,0.698400199413,1.8,0.0,1.0,0.0,1.0,2000000000,0,,,0
1449617117252733397,38,1449617117202162458,/odom,doorways,0,1,0,2.54132199287,-0.176157474518,1.0,0.0,0.0,0.297222139161,0.954808357731,0.2,0.69779330492,1.8,0.0,1.0,0.0,1.0,2000000000,0,,,0
1449617117449759314,39,1449617117399552023,/odom,doorways,0,1,0,2.58079767227,-0.160792917013,1.0,0.0,0.0,0.294094247728,0.955776424407,0.2,0.71803355217,1.8,0.0,1.0,0.0,1.0,2000000000,0,,,0
1449617117753649096,40,1449617117703318086,/odom,doorways,0,1,0,2.51805233955,-0.185463517904,1.0,0.0,0.0,0.256812427629,0.96646126514,0.2,0.698538720608,1.8,0.0,1.0,0.0,1.0,2000000000,0,,,0
1449617118011016019,41,1449617117960228515,/odom,doorways,0,1,0,2.53471541405,-0.196472406387,1.0,0.0,0.0,0.261999386145,0.965068039912,0.2,0.67838537693,1.8,0.0,1.0,0.0,1.0,2000000000,0,,,0
1449617118157588267,42,1449617118100406767,/odom,doorways,0,1,0,2.56354045868,-0.165771245956,1.0,0.0,0.0,0.295466278225,0.955353169478,0.2,0.699233949184,1.8,0.0,1.0,0.0,1.0,2000000000,0,,,0
1449617118375326976,43,1449617118325092428,/odom,doorways,0,1,0,2.46687626839,-0.203712016344,1.0,0.0,0.0,0.239333400299,0.97093744572,0.2,0.668994307518,1.8,0.0,1.0,0.0,1.0,2000000000,0,,,0
1449617150150011611,44,1449617150099619455,/odom,doorways,0,1,0,8.54617404938,-1.13511419296,1.0,0.0,0.0,-0.286523788819,0.958073127919,0.2,0.908275842667,1.8,0.0,1.0,0.0,1.0,2000000000,0,,,0
1449617151819779802,45,1449617151769394864,/odom,doorways,0,1,0,8.31539535522,-0.486131519079,1.0,0.0,0.0,-0.689886501664,0.723917546977,0.2,1.04674017429,1.8,0.0,1.0,0.0,1.0,2000000000,0,,,0
1449617152094808101,46,1449617152044518849,/odom,doorways,0,1,0,7.11709785461,-0.445016413927,1.0,0.0,0.0,-0.698116313153,0.715984366666,0.2,1.07830905914,1.8,0.0,1.0,0.0,1.0,2000000000,0,,,0
1449617152102868032,47,1449617152051972475,/odom,doorways,1,1,0,8.31483650208,-0.414743214846,1.0,0.0,0.0,-0.698116313153,0.715984366666,0.2,0.918559551239,1.8,0.0,1.0,0.0,1.0,2000000000,0,,,0
1449617152287998724,48,1449617152236899564,/odom,doorways,0,1,0,8.24184036255,-0.700929760933,1.0,0.0,0.0,-0.782238095019,0.622979584498,0.2,0.757404744625,1.8,0.0,1.0,0.0,1.0,2000000000,0,,,0
1449617162842058516,49,1449617162791951618,/odom,doorways,0,1,0,6.30976676941,5.2099776268,1.0,0.0,0.0,0.864595069735,0.502469268105,0.2,0.669616937637,1.8,0.0,1.0,0.0,1.0,2000000000,0,,,0
1449617163441340334,50,1449617163391045303,/odom,doorways,0,1,0,6.27090072632,5.3185839653,1.0,0.0,0.0,0.818962030198,0.573847708973,0.2,0.648399710655,1.8,0.0,1.0,0.0,1.0,2000000000,0,,,0
1449617165004888092,51,1449617164953694818,/odom,doorways,0,1,0,5.20926952362,5.19084405899,1.0,0.0,0.0,0.802458176559,0.596708366686,0.2,1.03789067268,1.8,0.0,1.0,0.0,1.0,2000000000,0,,,0
1449617165500107940,52,1449617165448739869,/odom,doorways,0,1,0,5.26671028137,5.11320447922,1.0,0.0,0.0,0.813674259673,0.581321080941,0.2,0.909527122974,1.8,0.0,1.0,0.0,1.0,2000000000,0,,,0
1449617165593410265,53,1449617165542580921,/odom,doorways,0,1,0,4.27829742432,4.8168129921,1.0,0.0,0.0,0.841986324566,0.539498868621,0.2,0.658522427082,1.8,0.0,1.0,0.0,1.0,2000000000,0,,,0
1449617165729977244,54,1449617165679384354,/odom,doorways,0,1,0,4.27695083618,4.81922101974,1.0,0.0,0.0,0.842076104205,0.539358725457,0.2,0.647927641869,1.8,0.0,1.0,0.0,1.0,2000000000,0,,,0
1449617165861838353,55,1449617165805251615,/odom,doorways,0,1,0,4.29744720459,4.83097648621,1.0,0.0,0.0,0.840100592594,0.542430635494,0.2,0.64784771204,1.8,0.0,1.0,0.0,1.0,2000000000,0,,,0
1449617165944845551,56,1449617165888590508,/odom,doorways,0,1,0,4.30073308945,4.84962797165,1.0,0.0,0.0,0.835744407411,0.549118644267,0.2,0.657749772072,1.8,0.0,1.0,0.0,1.0,2000000000,0,,,0
1449617166003831454,57,1449617165953438963,/odom,doorways,0,1,0,4.25858259201,4.84703683853,1.0,0.0,0.0,0.837075556309,0.547087299276,0.2,0.647700548172,1.8,0.0,1.0,0.0,1.0,2000000000,0,,,0
1449617166224447252,58,1449617166173973780,/odom,doorways,0,1,0,4.25008201599,4.85457611084,1.0,0.0,0.0,0.836278769841,0.548304494887,0.2,0.677653372288,1.8,0.0,1.0,0.0,1.0,2000000000,0,,,0
1449617166368367697,59,1449617166310049675,/odom,doorways,0,1,0,4.25443792343,4.85262489319,1.0,0.0,0.0,0.837754460106,0.546047126696,0.2,0.657936275005,1.8,0.0,1.0,0.0,1.0,2000000000,0,,,0
1449617166449773731,60,1449617166396808958,/odom,doorways,0,1,0,4.3377494812,4.77585744858,1.0,0.0,0.0,0.852204701133,0.523208512322,0.2,0.72771281004,1.8,0.0,1.0,0.0,1.0,2000000000,0,,,0
1449617166552584205,61,1449617166497943508,/odom,doorways,0,1,0,4.25607776642,4.83060789108,1.0,0.0,0.0,0.84062544064,0.541616902015,0.2,0.648381948471,1.8,0.0,1.0,0.0,1.0,2000000000,0,,,0
1449617166650079546,62,1449617166597785070,/odom,doorways,0,1,0,4.28268671036,4.85502338409,1.0,0.0,0.0,0.835916737415,0.548856272725,0.2,0.667792737484,1.8,0.0,1.0,0.0,1.0,2000000000,0,,,0
1449617166735603783,63,1449617166683417483,/odom,doorways,0,1,0,4.26684093475,4.86712312698,1.0,0.0,0.0,0.835628808155,0.549294543011,0.2,0.677524268627,1.8,0.0,1.0,0.0,1.0,2000000000,0,,,0
1449617166770721721,64,1449617166720476186,/odom,doorways,1,1,0,6.18867874146,5.48894405365,1.0,0.0,0.0,0.841986784753,0.539498150415,0.2,0.717481732368,1.8,0.0,1.0,0.0,1.0,2000000000,0,,,0
1449617166864702489,65,1449617166811898984,/odom,doorways,0,1,0,4.25545597076,4.88694667816,1.0,0.0,0.0,0.835386864281,0.54966243003,0.2,0.707919418812,1.8,0.0,1.0,0.0,1.0,2000000000,0,,,0
1449617167089100673,66,1449617167038951162,/odom,doorways,0,1,0,4.25704956055,4.88965606689,1.0,0.0,0.0,0.830134983755,0.557562470712,0.2,0.668189167976,1.8,0.0,1.0,0.0,1.0,2000000000,0,,,0
1449617167506826031,67,1449617167456629407,/odom,doorways,0,1,0,4.27640724182,4.85599517822,1.0,0.0,0.0,0.839102328574,0.543973604307,0.2,0.678548753262,1.8,0.0,1.0,0.0,1.0,2000000000,0,,,0
1449617167570319002,68,1449617167519279200,/odom,doorways,0,1,0,4.23978471756,4.8790397644,1.0,0.0,0.0,0.834240209764,0.551401190072,0.2,0.697613537312,1.8,0.0,1.0,0.0,1.0,2000000000,0,,,0
1449617167655001071,69,1449617167603302010,/odom,doorways,0,1,0,4.29580402374,4.81175899506,1.0,0.0,0.0,0.852692205694,0.522413631472,0.2,0.689377486706,1.8,0.0,1.0,0.0,1.0,2000000000,0,,,0
1449617167763834805,70,1449617167713594834,/odom,doorways,0,1,0,4.28691196442,4.83634185791,1.0,0.0,0.0,0.845882990397,0.533368509153,0.2,0.688894629478,1.8,0.0,1.0,0.0,1.0,2000000000,0,,,0
1449617167911502228,71,1449617167861083645,/odom,doorways,0,1,0,4.33703756332,4.75169992447,1.0,0.0,0.0,0.868307039241,0.496027101684,0.2,0.759662270546,1.8,0.0,1.0,0.0,1.0,2000000000,0,,,0
1449617167950346901,72,1449617167900239004,/odom,doorways,1,1,0,4.29088687897,4.85806941986,1.0,0.0,0.0,0.837388791991,0.546607730505,0.2,0.657514929771,1.8,0.0,1.0,0.0,1.0,2000000000,0,,,0
1449617167961725887,73,1449617167910056842,/odom,doorways,2,1,0,5.33056545258,5.31512355804,1.0,0.0,0.0,0.837388871756,0.546607608308,0.2,0.657514512539,1.8,0.0,1.0,0.0,1.0,2000000000,0,,,0
1449617168001702717,74,1449617167949560645,/odom,doorways,0,1,0,4.26765346527,4.89654397964,1.0,0.0,0.0,0.832901435322,0.553421357592,0.2,0.66790497303,1.8,0.0,1.0,0.0,1.0,2000000000,0,,,0
1449617168091123069,75,1449617168040624167,/odom,doorways,0,1,0,4.32304286957,4.74240493774,1.0,0.0,0.0,0.86472889252,0.502238929635,0.2,0.749592781067,1.8,0.0,1.0,0.0,1.0,2000000000,0,,,0
1449617168220343515,76,1449617168169962893,/odom,doorways,0,1,0,4.27632522583,4.90569877625,1.0,0.0,0.0,0.833830950146,0.55201987879,0.2,0.668577671051,1.8,0.0,1.0,0.0,1.0,2000000000,0,,,0
1449617168397970990,77,1449617168347567226,/odom,doorways,0,1,0,4.46348237991,4.81209850311,1.0,0.0,0.0,0.860512329764,0.509429612729,0.2,1.01802563667,1.8,0.0,1.0,0.0,1.0,2000000000,0,,,0
1449617168509759306,78,1449617168459572444,/odom,doorways,0,1,0,4.30199861526,4.83111572266,1.0,0.0,0.0,0.860456546453,0.50952382836,0.2,0.678010582924,1.8,0.0,1.0,0.0,1.0,2000000000,0,,,0
1449617168586192273,79,1449617168533700488,/odom,doorways,0,1,0,4.24777364731,4.88457584381,1.0,0.0,0.0,0.83700031356,0.547202407798,0.2,0.667969465256,1.8,0.0,1.0,0.0,1.0,2000000000,0,,,0
1449617168647375117,80,1449617168597114042,/odom,doorways,0,1,0,4.27998542786,4.86393547058,1.0,0.0,0.0,0.837563254446,0.546340365342,0.2,0.667698383331,1.8,0.0,1.0,0.0,1.0,2000000000,0,,,0
1449617168692733394,81,1449617168642447893,/odom,doorways,0,1,0,4.27543067932,4.87897205353,1.0,0.0,0.0,0.835530342959,0.549444306546,0.2,0.667631387711,1.8,0.0,1.0,0.0,1.0,2000000000,0,,,0
1449617168777162299,82,1449617168726243143,/odom,doorways,0,1,0,4.25357484818,4.85505962372,1.0,0.0,0.0,0.842104285314,0.53931472505,0.2,0.668705224991,1.8,0.0,1.0,0.0,1.0,2000000000,0,,,0
1449617168881801570,83,1449617168831581756,/odom,doorways,0,1,0,4.34083461761,4.75386428833,1.0,0.0,0.0,0.857781180488,0.514015025462,0.2,0.748734354973,1.8,0.0,1.0,0.0,1.0,2000000000,0,,,0
1449617168903852119,84,1449617168853597231,/odom,doorways,1,1,0,4.29135847092,4.85667848587,1.0,0.0,0.0,0.856533314265,0.516091737537,0.2,0.678059697151,1.8,0.0,1.0,0.0,1.0,2000000000,0,,,0
1449617168975643290,85,1449617168925282690,/odom,doorways,0,1,0,4.27359676361,4.88897514343,1.0,0.0,0.0,0.835342247512,0.549730233407,0.2,0.677607119083,1.8,0.0,1.0,0.0,1.0,2000000000,0,,,0
1449617169073731753,86,1449617169020267422,/odom,doorways,0,1,0,4.26449918747,4.90414524078,1.0,0.0,0.0,0.832009457113,0.554761447177,0.2,0.667663455009,1.8,0.0,1.0,0.0,1.0,2000000000,0,,,0
1449617169157725866,87,1449617169104896312,/odom,doorways,0,1,0,4.32339191437,4.79313325882,1.0,0.0,0.0,0.855289059964,0.518151159321,0.2,0.699666500092,1.8,0.0,1.0,0.0,1.0,2000000000,0,,,0
1449617169197176942,88,1449617169144306887,/odom,doorways,1,1,0,4.30052042007,4.7620139122,1.0,0.0,0.0,0.884699708461,0.466161373183,0.2,0.778879821301,1.8,0.0,1.0,0.0,1.0,2000000000,0,,,0
1449617169334471171,89,1449617169258719777,/odom,doorways,0,1,0,4.26006889343,4.87745666504,1.0,0.0,0.0,0.836531169875,0.547919338796,0.2,0.648016929626,1.8,0.0,1.0,0.0,1.0,2000000000,0,,,0
1449617169424041203,90,1449617169373713751,/odom,doorways,0,1,0,4.27512121201,4.87628746033,1.0,0.0,0.0,0.840191724197,0.542289467527,0.2,0.667672753334,1.8,0.0,1.0,0.0,1.0,2000000000,0,,,0
1449617169713815590,91,1449617169661759490,/odom,doorways,0,1,0,4.30884599686,4.83726930618,1.0,0.0,0.0,0.844047839735,0.536267884773,0.2,0.687567830086,1.8,0.0,1.0,0.0,1.0,2000000000,0,,,0
1449617169744664475,92,1449617169689810513,/odom,doorways,1,1,0,4.32755756378,4.77492904663,1.0,0.0,0.0,0.881082858632,0.47296193951,0.2,0.758284747601,1.8,0.0,1.0,0.0,1.0,2000000000,0,,,0
1449617169772359418,93,1449617169722012962,/odom,doorways,0,1,0,4.26215362549,4.90442562103,1.0,0.0,0.0,0.833522580902,0.552485390872,0.2,0.667636036873,1.8,0.0,1.0,0.0,1.0,2000000000,0,,,0
1449617169923606719,94,1449617169863632669,/odom,doorways,0,1,0,4.25377559662,4.92176246643,1.0,0.0,0.0,0.826608928454,0.562776758049,0.2,0.688346862793,1.8,0.0,1.0,0.0,1.0,2000000000,0,,,0
1449617170016951835,95,1449617169965339786,/odom,doorways,0,1,0,4.26873159409,4.88050746918,1.0,0.0,0.0,0.83530574302,0.549785699775,0.2,0.658119082451,1.8,0.0,1.0,0.0,1.0,2000000000,0,,,0
1449617170104362165,96,1449617170054190411,/odom,doorways,0,1,0,4.26927995682,4.89232349396,1.0,0.0,0.0,0.833213431996,0.552951513915,0.2,0.6675978899,1.8,0.0,1.0,0.0,1.0,2000000000,0,,,0
1449617170201957539,97,1449617170150797229,/odom,doorways,0,1,0,4.2706785202,4.90044212341,1.0,0.0,0.0,0.830421609635,0.55713548644,0.2,0.668196797371,1.8,0.0,1.0,0.0,1.0,2000000000,0,,,0
1449617170362034278,98,1449617170311947673,/odom,doorways,0,1,0,4.27271318436,4.89833927155,1.0,0.0,0.0,0.83131942434,0.555794939447,0.2,0.6674939394,1.8,0.0,1.0,0.0,1.0,2000000000,0,,,0
1449617170398798890,99,1449617170347015185,/odom,doorways,0,1,0,4.27975463867,4.90660429001,1.0,0.0,0.0,0.832239092608,0.554416894345,0.2,0.66758275032,1.8,0.0,1.0,0.0,1.0,2000000000,0,,,0
1449617170447077400,100,1449617170384629766,/odom,doorways,0,1,0,4.26324367523,4.91368484497,1.0,0.0,0.0,0.830180371989,0.557494887838,0.2,0.677892029285,1.8,0.0,1.0,0.0,1.0,2000000000,0,,,0
1449617170613561167,101,1449617170563394683,/odom,doorways,0,1,0,4.29286623001,4.88365077972,1.0,0.0,0.0,0.836981261863,0.54723154815,0.2,0.68752604723,1.8,0.0,1.0,0.0,1.0,2000000000,0,,,0
1449617170672731872,102,1449617170621474407,/odom,doorways,0,1,0,4.27685689926,4.88627290726,1.0,0.0,0.0,0.835519892827,0.549460197548,0.2,0.687621295452,1.8,0.0,1.0,0.0,1.0,2000000000,0,,,0
1449617170765857694,103,1449617170713394028,/odom,doorways,0,1,0,4.27840614319,4.89379692078,1.0,0.0,0.0,0.832898290793,0.553426090092,0.2,0.677975773811,1.8,0.0,1.0,0.0,1.0,2000000000,0,,,0
1449617170915488620,104,1449617170865157325,/odom,doorways,0,1,0,4.28711032867,4.87312221527,1.0,0.0,0.0,0.841112543961,0.540860137551,0.2,0.678364038467,1.8,0.0,1.0,0.0,1.0,2000000000,0,,,0
1449617171018746718,105,1449617170968413582,/odom,doorways,0,1,0,4.27354955673,4.88707399368,1.0,0.0,0.0,0.835145324838,0.550029350491,0.2,0.67799705267,1.8,0.0,1.0,0.0,1.0,2000000000,0,,,0
1449617171071774347,106,1449617171021322365,/odom,doorways,0,1,0,4.28928279877,4.86713409424,1.0,0.0,0.0,0.84378631438,0.536679285668,0.2,0.677866876125,1.8,0.0,1.0,0.0,1.0,2000000000,0,,,0
1449617171197646767,107,1449617171143749760,/odom,doorways,0,1,0,4.2882604599,4.87102603912,1.0,0.0,0.0,0.839665556426,0.543103814526,0.2,0.677791774273,1.8,0.0,1.0,0.0,1.0,2000000000,0,,,0
1449617171248988682,108,1449617171197238552,/odom,doorways,0,1,0,4.2661447525,4.91174221039,1.0,0.0,0.0,0.828331232353,0.560238671915,0.2,0.687969982624,1.8,0.0,1.0,0.0,1.0,2000000000,0,,,0
1449617171504842670,109,1449617171452099745,/odom,doorways,0,1,0,4.27629613876,4.8909535408,1.0,0.0,0.0,0.82907717418,0.559134187163,0.2,0.677505970001,1.8,0.0,1.0,0.0,1.0,2000000000,0,,,0
1449617171621835181,110,1449617171568073883,/odom,doorways,0,1,0,4.28288173676,4.88864421844,1.0,0.0,0.0,0.836101401468,0.548574923291,0.2,0.67760437727,1.8,0.0,1.0,0.0,1.0,2000000000,0,,,0
1449617171749634885,111,1449617171699017174,/odom,doorways,0,1,0,4.27983570099,4.88774776459,1.0,0.0,0.0,0.836199351408,0.548425605443,0.2,0.667812347412,1.8,0.0,1.0,0.0,1.0,2000000000,0,,,0
1449617171977696694,112,1449617171925406212,/odom,doorways,0,1,0,4.33240032196,4.77129554749,1.0,0.0,0.0,0.861663972218,0.507479259656,0.2,0.649443268776,1.8,0.0,1.0,0.0,1.0,2000000000,0,,,0
1449617172010362807,113,1449617171955318944,/odom,doorways,1,1,0,4.28684997559,4.86770629883,1.0,0.0,0.0,0.836387999441,0.548137860754,0.2,0.66811722517,1.8,0.0,1.0,0.0,1.0,2000000000,0,,,0
1449617172076596693,114,1449617172025722927,/odom,doorways,0,1,0,4.34635591507,4.78264808655,1.0,0.0,0.0,0.872388480204,0.488813195001,0.2,0.707619011402,1.8,0.0,1.0,0.0,1.0,2000000000,0,,,0
1449617172183110841,115,1449617172132869656,/odom,doorways,0,1,0,4.29956436157,4.87696123123,1.0,0.0,0.0,0.836443422231,0.548053283364,0.2,0.667966961861,1.8,0.0,1.0,0.0,1.0,2000000000,0,,,0
1449617172328558786,116,1449617172278241827,/odom,doorways,0,1,0,4.29044723511,4.86936044693,1.0,0.0,0.0,0.838113528323,0.545495842002,0.2,0.67770075798,1.8,0.0,1.0,0.0,1.0,2000000000,0,,,0
1449617172414495006,117,1449617172363762566,/odom,doorways,0,1,0,4.39756155014,4.77281284332,1.0,0.0,0.0,0.864026844689,0.503445738542,0.2,0.87976706028,1.8,0.0,1.0,0.0,1.0,2000000000,0,,,0
1449617172637916372,118,1449617172578905201,/odom,doorways,0,1,0,4.32343196869,4.77266550064,1.0,0.0,0.0,0.877030157383,0.480435326596,0.2,0.757421374321,1.8,0.0,1.0,0.0,1.0,2000000000,0,,,0
1449617172670016668,119,1449617172619749491,/odom,doorways,1,1,0,4.28593397141,4.86901187897,1.0,0.0,0.0,0.839059601318,0.544039507238,0.2,0.669431447983,1.8,0.0,1.0,0.0,1.0,2000000000,0,,,0
1449617172699110245,120,1449617172630562510,/odom,doorways,2,1,0,5.06585550308,5.21759176254,1.0,0.0,0.0,0.839059482725,0.544039690142,0.2,0.699406683445,1.8,0.0,1.0,0.0,1.0,2000000000,0,,,0
1449617172720903088,121,1449617172670437983,/odom,doorways,0,1,0,4.26649665833,4.90719556808,1.0,0.0,0.0,0.82830372106,0.56027934611,0.2,0.678426861763,1.8,0.0,1.0,0.0,1.0,2000000000,0,,,0
1449617172950423671,122,1449617172891546061,/odom,doorways,0,1,0,4.28989124298,4.87284517288,1.0,0.0,0.0,0.840286883111,0.542142005448,0.2,0.678528308868,1.8,0.0,1.0,0.0,1.0,2000000000,0,,,0
1449617173148012494,123,1449617173097254476,/odom,doorways,0,1,0,4.32178783417,4.72699403763,1.0,0.0,0.0,0.865507438536,0.500896070895,0.2,0.668580114841,1.8,0.0,1.0,0.0,1.0,2000000000,0,,,0
1449617173313677300,124,1449617173262908272,/odom,doorways,0,1,0,4.30460596085,4.84191131592,1.0,0.0,0.0,0.84490995306,0.53490856342,0.2,0.679205834866,1.8,0.0,1.0,0.0,1.0,2000000000,0,,,0
1449617173480174836,125,1449617173429146805,/odom,doorways,0,1,0,4.3082075119,4.86332559586,1.0,0.0,0.0,0.837391763837,0.546603177688,0.2,0.677583992481,1.8,0.0,1.0,0.0,1.0,2000000000,0,,,0
1449617173584017322,126,1449617173523946519,/odom,doorways,0,1,0,4.29305315018,4.85717248917,1.0,0.0,0.0,0.841575472379,0.540139541499,0.2,0.659274041653,1.8,0.0,1.0,0.0,1.0,2000000000,0,,,0
1449617173735591066,127,1449617173685211424,/odom,doorways,0,1,0,4.3558049202,4.7763299942,1.0,0.0,0.0,0.86248114459,0.506089196908,0.2,0.698439359665,1.8,0.0,1.0,0.0,1.0,2000000000,0,,,0
1449617173921034072,128,1449617173870683457,/odom,doorways,0,1,0,4.30728769302,4.76634120941,1.0,0.0,0.0,0.868242919875,0.496139327294,0.2,0.74922066927,1.8,0.0,1.0,0.0,1.0,2000000000,0,,,0
1449617174108757183,129,1449617174058655015,/odom,doorways,0,1,0,4.28368139267,4.77511405945,1.0,0.0,0.0,0.874658485396,0.48473965582,0.2,0.728354454041,1.8,0.0,1.0,0.0,1.0,2000000000,0,,,0
1449617174180654784,130,1449617174129412976,/odom,doorways,0,1,0,4.30435371399,4.78351354599,1.0,0.0,0.0,0.872065311539,0.48938950991,0.2,0.738369524479,1.8,0.0,1.0,0.0,1.0,2000000000,0,,,0
1449617174307237300,131,1449617174256840308,/odom,doorways,0,1,0,4.29864597321,4.78339529037,1.0,0.0,0.0,0.871204457422,0.490920353385,0.2,0.739105582237,1.8,0.0,1.0,0.0,1.0,2000000000,0,,,0
1449617174377336770,132,1449617174326543790,/odom,doorways,0,1,0,4.33332014084,4.76167678833,1.0,0.0,0.0,0.861194271264,0.508275936025,0.2,0.777939975262,1.8,0.0,1.0,0.0,1.0,2000000000,0,,,0
1449617174407025235,133,1449617174356513816,/odom,doorways,1,1,0,4.26337099075,4.87355709076,1.0,0.0,0.0,0.852456646095,0.522797921312,0.2,0.687696099281,1.8,0.0,1.0,0.0,1.0,2000000000,0,,,0
1449617174489790815,134,1449617174439501857,/odom,doorways,0,1,0,4.29096794128,4.78349161148,1.0,0.0,0.0,0.873653804009,0.486548076495,0.2,0.718670845032,1.8,0.0,1.0,0.0,1.0,2000000000,0,,,0
1449617174632157096,135,1449617174581865019,/odom,doorways,0,1,0,4.27909612656,4.78550577164,1.0,0.0,0.0,0.875307401911,0.483566905568,0.2,0.728058755398,1.8,0.0,1.0,0.0,1.0,2000000000,0,,,0
1449617174797068836,136,1449617174746356287,/odom,doorways,0,1,0,4.3002204895,4.78494596481,1.0,0.0,0.0,0.866773240885,0.498702465289,0.2,0.739290058613,1.8,0.0,1.0,0.0,1.0,2000000000,0,,,0
1449617174996759350,137,1449617174935022431,/odom,doorways,0,1,0,4.29963207245,4.78387355804,1.0,0.0,0.0,0.869804068881,0.493397285924,0.2,0.738839924335,1.8,0.0,1.0,0.0,1.0,2000000000,0,,,0
1449617175097460117,138,1449617175046961064,/odom,doorways,0,1,0,4.31148529053,4.79314661026,1.0,0.0,0.0,0.870403655281,0.492338782621,0.2,0.738723874092,1.8,0.0,1.0,0.0,1.0,2000000000,0,,,0
1449617175184195985,139,1449617175134010830,/odom,doorways,0,1,0,4.30806303024,4.78033447266,1.0,0.0,0.0,0.870995362312,0.491291236265,0.2,0.749249756336,1.8,0.0,1.0,0.0,1.0,2000000000,0,,,0
1449617175402163502,140,1449617175351767950,/odom,doorways,0,1,0,4.2399520874,4.92020654678,1.0,0.0,0.0,0.835479196048,0.549522076873,0.2,0.678952813148,1.8,0.0,1.0,0.0,1.0,2000000000,0,,,0
1449617175541712946,141,1449617175489304151,/odom,doorways,0,1,0,4.29334259033,4.79092502594,1.0,0.0,0.0,0.873435647582,0.486939595364,0.2,0.73789280653,1.8,0.0,1.0,0.0,1.0,2000000000,0,,,0
1449617175692931395,142,1449617175640783929,/odom,doorways,0,1,0,4.29904603958,4.78505754471,1.0,0.0,0.0,0.868674719845,0.495382913616,0.2,0.738023579121,1.8,0.0,1.0,0.0,1.0,2000000000,0,,,0
1449617175841992797,143,1449617175789916919,/odom,doorways,0,1,0,4.28046369553,4.78556346893,1.0,0.0,0.0,0.873874007289,0.486152465164,0.2,0.708489596844,1.8,0.0,1.0,0.0,1.0,2000000000,0,,,0
1449617176028186357,144,1449617175978067129,/odom,doorways,0,1,0,4.28857803345,4.7976026535,1.0,0.0,0.0,0.876754141105,0.480938848562,0.2,0.737701654434,1.8,0.0,1.0,0.0,1.0,2000000000,0,,,0
1449617176052124857,145,1449617176001643763,/odom,doorways,1,1,0,5.00899457932,5.26826047897,1.0,0.0,0.0,0.815407740626,0.578887049887,0.2,0.737969279289,1.8,0.0,1.0,0.0,1.0,2000000000,0,,,0
1449617176210012566,146,1449617176155100988,/odom,doorways,0,1,0,4.32333087921,4.80967855453,1.0,0.0,0.0,0.87329442191,0.487192829033,0.2,0.688368201256,1.8,0.0,1.0,0.0,1.0,2000000000,0,,,0
1449617176328589583,147,1449617176273966175,/odom,doorways,0,1,0,4.29292726517,4.77817296982,1.0,0.0,0.0,0.870714017165,0.491789691141,0.2,0.73874938488,1.8,0.0,1.0,0.0,1.0,2000000000,0,,,0
1449617176492734559,148,1449617176441606248,/odom,doorways,0,1,0,4.28138780594,4.77711582184,1.0,0.0,0.0,0.871816428456,0.489832741938,0.2,0.718490421772,1.8,0.0,1.0,0.0,1.0,2000000000,0,,,0
1449617176603881083,149,1449617176552924976,/odom,doorways,0,1,0,4.27351331711,4.77820158005,1.0,0.0,0.0,0.873786007318,0.48631061413,0.2,0.727749347687,1.8,0.0,1.0,0.0,1.0,2000000000,0,,,0
1449617176680544033,150,1449617176630334219,/odom,doorways,0,1,0,4.28682374954,4.78862190247,1.0,0.0,0.0,0.870866824129,0.491519048086,0.2,0.719172298908,1.8,0.0,1.0,0.0,1.0,2000000000,0,,,0
1449617176781771272,151,1449617176731578954,/odom,doorways,0,1,0,4.28568315506,4.78788042068,1.0,0.0,0.0,0.872448429747,0.488706187225,0.2,0.717692434788,1.8,0.0,1.0,0.0,1.0,2000000000,0,,,0
1449617176913668782,152,1449617176863408938,/odom,doorways,0,1,0,4.30181932449,4.79826927185,1.0,0.0,0.0,0.870211992429,0.492677468769,0.2,0.727588891983,1.8,0.0,1.0,0.0,1.0,2000000000,0,,,0
1449617176987874183,153,1449617176936783652,/odom,doorways,0,1,0,4.28391933441,4.79170894623,1.0,0.0,0.0,0.872608220364,0.488420816257,0.2,0.727749764919,1.8,0.0,1.0,0.0,1.0,2000000000,0,,,0
1449617177100843411,154,1449617177047884622,/odom,doorways,0,1,0,4.28404855728,4.79116296768,1.0,0.0,0.0,0.871641771842,0.490143470404,0.2,0.737344443798,1.8,0.0,1.0,0.0,1.0,2000000000,0,,,0
1449617177298170376,155,1449617177247235544,/odom,doorways,0,1,0,4.29078722,4.79255199432,1.0,0.0,0.0,0.868273318832,0.49608612539,0.2,0.717750132084,1.8,0.0,1.0,0.0,1.0,2000000000,0,,,0
1449617177415939074,156,1449617177364591531,/odom,doorways,0,1,0,4.29600858688,4.78532981873,1.0,0.0,0.0,0.869718920066,0.493547363562,0.2,0.728258490562,1.8,0.0,1.0,0.0,1.0,2000000000,0,,,0
1449617177591404953,157,1449617177541177847,/odom,doorways,0,1,0,4.27882385254,4.79980564117,1.0,0.0,0.0,0.873962533053,0.485993303266,0.2,0.708330750465,1.8,0.0,1.0,0.0,1.0,2000000000,0,,,0
1449617177706143403,158,1449617177648185297,/odom,doorways,0,1,0,4.28220081329,4.79532384872,1.0,0.0,0.0,0.870928608183,0.491409563855,0.2,0.717677652836,1.8,0.0,1.0,0.0,1.0,2000000000,0,,,0
1449617177833050505,159,1449617177781190894,/odom,doorways,0,1,0,4.27456951141,4.79332780838,1.0,0.0,0.0,0.869772931182,0.49345217416,0.2,0.677560448647,1.8,0.0,1.0,0.0,1.0,2000000000,0,,,0
1449617178019266125,160,1449617177957270258,/odom,doorways,0,1,0,4.28311538696,4.80077457428,1.0,0.0,0.0,0.870621815431,0.491952898655,0.2,0.727668166161,1.8,0.0,1.0,0.0,1.0,2000000000,0,,,0
1449617178094417083,161,1449617178038603238,/odom,doorways,0,1,0,4.29250335693,4.80723714828,1.0,0.0,0.0,0.869601097968,0.493754929507,0.2,0.727686166763,1.8,0.0,1.0,0.0,1.0,2000000000,0,,,0
1449617178222134810,162,1449617178170871804,/odom,doorways,0,1,0,4.29003190994,4.80452823639,1.0,0.0,0.0,0.871681974586,0.49007196939,0.2,0.727452039719,1.8,0.0,1.0,0.0,1.0,2000000000,0,,,0
1449617178398651638,163,1449617178348029850,/odom,doorways,0,1,0,4.28176403046,4.8065237999,1.0,0.0,0.0,0.871510415475,0.490376993463,0.2,0.707815349102,1.8,0.0,1.0,0.0,1.0,2000000000,0,,,0
1449617178493988275,164,1449617178442743577,/odom,doorways,0,1,0,4.27559185028,4.80102682114,1.0,0.0,0.0,0.872483039609,0.488644395849,0.2,0.728091835976,1.8,0.0,1.0,0.0,1.0,2000000000,0,,,0
1449617178574580777,165,1449617178524353450,/odom,doorways,0,1,0,4.28401660919,4.81214523315,1.0,0.0,0.0,0.871749387818,0.489952043408,0.2,0.727859675884,1.8,0.0,1.0,0.0,1.0,2000000000,0,,,0
1449617178687937305,166,1449617178637587002,/odom,doorways,0,1,0,4.28882884979,4.80312824249,1.0,0.0,0.0,0.87272462738,0.48821278636,0.2,0.727716803551,1.8,0.0,1.0,0.0,1.0,2000000000,0,,,0
1449617178777692596,167,1449617178725908350,/odom,doorways,0,1,0,4.28136253357,4.8163728714,1.0,0.0,0.0,0.873521137896,0.486786217604,0.2,0.718064188957,1.8,0.0,1.0,0.0,1.0,2000000000,0,,,0
1449617178875952772,168,1449617178825520641,/odom,doorways,0,1,0,4.27026891708,4.81133317947,1.0,0.0,0.0,0.873768794832,0.486341539639,0.2,0.698048233986,1.8,0.0,1.0,0.0,1.0,2000000000,0,,,0
1449617178985869759,169,1449617178935436904,/odom,doorways,0,1,0,4.27826309204,4.8181552887,1.0,0.0,0.0,0.874847568588,0.484398319295,0.2,0.727971196175,1.8,0.0,1.0,0.0,1.0,2000000000,0,,,0
1449617179135426076,170,1449617179081162782,/odom,doorways,0,1,0,4.26438474655,4.81118965149,1.0,0.0,0.0,0.874741792236,0.484589307472,0.2,0.69810116291,1.8,0.0,1.0,0.0,1.0,2000000000,0,,,0
1449617179950757835,171,1449617179900369287,/odom,doorways,0,1,0,4.27889347076,4.83726882935,1.0,0.0,0.0,0.87865047467,0.477465541545,0.2,0.727336764336,1.8,0.0,1.0,0.0,1.0,2000000000,0,,,0
1449617180095872053,172,1449617180043718001,/odom,doorways,0,1,0,4.28045320511,4.83863353729,1.0,0.0,0.0,0.878371902013,0.477977825587,0.2,0.727494120598,1.8,0.0,1.0,0.0,1.0,2000000000,0,,,0
1449617180169516973,173,1449617180113030697,/odom,doorways,0,1,0,4.27774238586,4.84349727631,1.0,0.0,0.0,0.882153182156,0.470962592159,0.2,0.727290272713,1.8,0.0,1.0,0.0,1.0,2000000000,0,,,0
1449617180280792446,174,1449617180230448705,/odom,doorways,0,1,0,4.27991008759,4.8362402916,1.0,0.0,0.0,0.879333865275,0.476205788898,0.2,0.727323651314,1.8,0.0,1.0,0.0,1.0,2000000000,0,,,0
1449617180487536763,175,1449617180430181220,/odom,doorways,0,1,0,4.28836774826,4.83860635757,1.0,0.0,0.0,0.875347242364,0.483494783101,0.2,0.738567769527,1.8,0.0,1.0,0.0,1.0,2000000000,0,,,0
1449617180726552276,176,1449617180674770285,/odom,doorways,0,1,0,4.28753995895,4.84363651276,1.0,0.0,0.0,0.879425041989,0.476037388786,0.2,0.727215349674,1.8,0.0,1.0,0.0,1.0,2000000000,0,,,0
1449617180853856875,177,1449617180793410806,/odom,doorways,0,1,0,4.29360151291,4.83795642853,1.0,0.0,0.0,0.878461672253,0.477812819399,0.2,0.718438744545,1.8,0.0,1.0,0.0,1.0,2000000000,0,,,0
1449617180963392051,178,1449617180907490789,/odom,doorways,0,1,0,4.31105613708,4.83211660385,1.0,0.0,0.0,0.881329855336,0.472501519672,0.2,0.727269649506,1.8,0.0,1.0,0.0,1.0,2000000000,0,,,0
1449617181075766431,179,1449617181024204044,/odom,doorways,0,1,0,4.29394197464,4.84944152832,1.0,0.0,0.0,0.87049460681,0.492177955129,0.2,0.727888286114,1.8,0.0,1.0,0.0,1.0,2000000000,0,,,0
1449617181181548670,180,1449617181131095799,/odom,doorways,0,1,0,4.29879999161,4.84557533264,1.0,0.0,0.0,0.879929809603,0.47510370465,0.2,0.728350818157,1.8,0.0,1.0,0.0,1.0,2000000000,0,,,0
1449617181253692123,181,1449617181202699996,/odom,doorways,0,1,0,4.30183315277,4.84214305878,1.0,0.0,0.0,0.876733878874,0.480975784873,0.2,0.737536489964,1.8,0.0,1.0,0.0,1.0,2000000000,0,,,0
1449617181366797046,182,1449617181316415630,/odom,doorways,0,1,0,4.31678915024,4.83157205582,1.0,0.0,0.0,0.884511634358,0.466518133287,0.2,0.737246215343,1.8,0.0,1.0,0.0,1.0,2000000000,0,,,0
1449617181453647728,183,1449617181399553336,/odom,doorways,0,1,0,4.28234767914,4.86696624756,1.0,0.0,0.0,0.882829715654,0.469693190454,0.2,0.729913115501,1.8,0.0,1.0,0.0,1.0,2000000000,0,,,0
1449617181549733988,184,1449617181499285185,/odom,doorways,0,1,0,4.30797100067,4.84366321564,1.0,0.0,0.0,0.890655861108,0.454678058711,0.2,0.73924523592,1.8,0.0,1.0,0.0,1.0,2000000000,0,,,0
1449617181685107089,185,1449617181634640827,/odom,doorways,0,1,0,4.30050945282,4.84609699249,1.0,0.0,0.0,0.8920447644,0.451947052547,0.2,0.709805607796,1.8,0.0,1.0,0.0,1.0,2000000000,0,,,0
1449617182905109549,186,1449617182854633013,/odom,doorways,0,1,0,1.81987524033,7.34545993805,1.0,0.0,0.0,-0.971235914807,0.238119293188,0.2,1.07998168468,1.8,0.0,1.0,0.0,1.0,2000000000,0,,,0
1449617182994021886,187,1449617182943339094,/odom,doorways,0,1,0,1.80220723152,7.37410020828,1.0,0.0,0.0,-0.970927862362,0.239372275103,0.2,1.03998756409,1.8,0.0,1.0,0.0,1.0,2000000000,0,,,0
1449617183078850246,188,1449617183028592033,/odom,doorways,0,1,0,1.85294508934,7.33403873444,1.0,0.0,0.0,-0.971161800383,0.238421386365,0.2,0.85980206728,1.8,0.0,1.0,0.0,1.0,2000000000,0,,,0
1449617183173974038,189,1449617183122587320,/odom,doorways,0,1,0,1.81125676632,7.4097738266,1.0,0.0,0.0,-0.972212781605,0.234098926276,0.2,1.02994787693,1.8,0.0,1.0,0.0,1.0,2000000000,0,,,0
1449617183413927187,190,1449617183349261825,/odom,doorways,0,1,0,1.81301093102,7.38979101181,1.0,0.0,0.0,-0.970963464965,0.23922781967,0.2,0.989940166473,1.8,0.0,1.0,0.0,1.0,2000000000,0,,,0
1449617183615346160,191,1449617183564665206,/odom,doorways,0,1,0,1.88491976261,7.24681568146,1.0,0.0,0.0,-0.970632141955,0.240568586901,0.2,0.649995088577,1.8,0.0,1.0,0.0,1.0,2000000000,0,,,0
1449617183899625201,192,1449617183848672517,/odom,doorways,0,1,0,1.8804807663,7.24194145203,1.0,0.0,0.0,-0.969558249494,0.244860778482,0.2,0.649832725525,1.8,0.0,1.0,0.0,1.0,2000000000,0,,,0
1449617185270963771,193,1449617185220270538,/odom,doorways,0,1,0,1.19351029396,8.43951225281,1.0,0.0,0.0,-0.968406742232,0.249375984408,0.2,0.689956784248,1.8,0.0,1.0,0.0,1.0,2000000000,0,,,0
1449617186259729719,194,1449617186205596756,/odom,doorways,0,1,0,1.18297815323,8.37718582153,1.0,0.0,0.0,-0.967088120287,0.25444167819,0.2,0.649853885174,1.8,0.0,1.0,0.0,1.0,2000000000,0,,,0
1449617186768906968,195,1449617186718252678,/odom,doorways,0,1,0,1.13605761528,8.47020149231,1.0,0.0,0.0,-0.967268343509,0.253755692833,0.2,0.689821541309,1.8,0.0,1.0,0.0,1.0,2000000000,0,,,0
1449617186952747949,196,1449617186899802010,/odom,doorways,0,1,0,1.19011163712,8.49746704102,1.0,0.0,0.0,-0.969445169784,0.245308097672,0.2,0.669943571091,1.8,0.0,1.0,0.0,1.0,2000000000,0,,,0
1449617188292067332,197,1449617188240794771,/odom,doorways,0,1,0,1.14208841324,8.45596694946,1.0,0.0,0.0,-0.967645715151,0.252312841429,0.2,0.649880945683,1.8,0.0,1.0,0.0,1.0,2000000000,0,,,0
1449617189981881488,198,1449617189931678221,/odom,doorways,0,1,0,1.14195466042,8.45920848846,1.0,0.0,0.0,-0.967211624439,0.253971796763,0.2,0.659851014614,1.8,0.0,1.0,0.0,1.0,2000000000,0,,,0
1449617190994620434,199,1449617190944279941,/odom,doorways,0,1,0,1.0678101778,8.46354198456,1.0,0.0,0.0,-0.96519149643,0.261544212743,0.2,0.679910182953,1.8,0.0,1.0,0.0,1.0,2000000000,0,,,0
1449617191747628374,200,1449617191693940563,/odom,doorways,0,1,0,1.0970209837,8.43084335327,1.0,0.0,0.0,-0.96613566143,0.258034656031,0.2,0.759963512421,1.8,0.0,1.0,0.0,1.0,2000000000,0,,,0
1449617192088141315,201,1449617192034933988,/odom,doorways,0,1,0,1.13798570633,8.42618083954,1.0,0.0,0.0,-0.967373755028,0.253353543655,0.2,0.699950993061,1.8,0.0,1.0,0.0,1.0,2000000000,0,,,0
1449617192603506837,202,1449617192553194921,/odom,doorways,0,1,0,1.16935575008,8.40324687958,1.0,0.0,0.0,-0.967036612088,0.254637371336,0.2,0.660002708435,1.8,0.0,1.0,0.0,1.0,2000000000,0,,,0
1449617194349615854,203,1449617194298059493,/odom,doorways,0,1,0,1.76570296288,7.32011890411,1.0,0.0,0.0,-0.966670425181,0.256024000985,0.2,0.83989739418,1.8,0.0,1.0,0.0,1.0,2000000000,0,,,0
1449617195119493023,204,1449617195069273181,/odom,doorways,0,1,0,1.79270088673,7.32129573822,1.0,0.0,0.0,-0.970721926229,0.240206040595,0.2,0.929977416992,1.8,0.0,1.0,0.0,1.0,2000000000,0,,,0
1449617195222449872,205,1449617195166965399,/odom,doorways,0,1,0,1.82913446426,7.26903438568,1.0,0.0,0.0,-0.972186226488,0.2342091822,0.2,0.829743087292,1.8,0.0,1.0,0.0,1.0,2000000000,0,,,0
1449617195482048075,206,1449617195420224844,/odom,doorways,0,1,0,4.30547809601,4.89130353928,1.0,0.0,0.0,0.881637050091,0.471928079168,0.2,0.727983295918,1.8,0.0,1.0,0.0,1.0,2000000000,0,,,0
1449617195617805634,207,1449617195557620709,/odom,doorways,0,1,0,4.30170631409,4.88738250732,1.0,0.0,0.0,0.880756066506,0.473570217933,0.2,0.727853417397,1.8,0.0,1.0,0.0,1.0,2000000000,0,,,0
1449617195629343668,208,1449617195578161375,/odom,doorways,1,1,0,1.80443191528,7.40016078949,1.0,0.0,0.0,-0.971784129906,0.235872009495,0.2,0.959845781326,1.8,0.0,1.0,0.0,1.0,2000000000,0,,,0
1449617195827150239,209,1449617195776105966,/odom,doorways,0,1,0,4.26861000061,4.88564825058,1.0,0.0,0.0,0.875289567744,0.483599185896,0.2,0.727490127087,1.8,0.0,1.0,0.0,1.0,2000000000,0,,,0
1449617195948164920,210,1449617195878933154,/odom,doorways,0,1,0,4.28495836258,4.87657546997,1.0,0.0,0.0,0.880347033199,0.474330160476,0.2,0.727608203888,1.8,0.0,1.0,0.0,1.0,2000000000,0,,,0
1449617196013768252,211,1449617195958983199,/odom,doorways,0,1,0,4.29942941666,4.88183641434,1.0,0.0,0.0,0.88117936431,0.47278211463,0.2,0.737429022789,1.8,0.0,1.0,0.0,1.0,2000000000,0,,,0
1449617196115645866,212,1449617196063448709,/odom,doorways,0,1,0,4.28451251984,4.87010383606,1.0,0.0,0.0,0.879599756287,0.475714482373,0.2,0.737445294857,1.8,0.0,1.0,0.0,1.0,2000000000,0,,,0
1449617196211945729,213,1449617196161700721,/odom,doorways,0,1,0,4.28411483765,4.87189769745,1.0,0.0,0.0,0.880353645382,0.474317888197,0.2,0.737800836563,1.8,0.0,1.0,0.0,1.0,2000000000,0,,,0
1449617196307274190,214,1449617196254514197,/odom,doorways,0,1,0,4.28061819077,4.86237812042,1.0,0.0,0.0,0.879725311989,0.475482255659,0.2,0.727274417877,1.8,0.0,1.0,0.0,1.0,2000000000,0,,,0
1449617196475020267,215,1449617196423120196,/odom,doorways,0,1,0,4.3073348999,4.87077140808,1.0,0.0,0.0,0.877613755738,0.479368434234,0.2,0.727664589882,1.8,0.0,1.0,0.0,1.0,2000000000,0,,,0
1449617196610453453,216,1449617196556960253,/odom,doorways,0,1,0,4.28060626984,4.857006073,1.0,0.0,0.0,0.878095127011,0.478486100027,0.2,0.70739543438,1.8,0.0,1.0,0.0,1.0,2000000000,0,,,0
1449617196734016876,217,1449617196682100092,/odom,doorways,0,1,0,4.31286907196,4.87313652039,1.0,0.0,0.0,0.878951402233,0.476911346597,0.2,0.727394044399,1.8,0.0,1.0,0.0,1.0,2000000000,0,,,0
1449617196847662973,218,1449617196796810493,/odom,doorways,0,1,0,4.28789806366,4.85506629944,1.0,0.0,0.0,0.879849035151,0.475253274942,0.2,0.727522194386,1.8,0.0,1.0,0.0,1.0,2000000000,0,,,0
1449617197006178099,219,1449617196952355717,/odom,doorways,0,1,0,4.29027700424,4.85780715942,1.0,0.0,0.0,0.879896439903,0.475165502795,0.2,0.737585604191,1.8,0.0,1.0,0.0,1.0,2000000000,0,,,0
1449617197123634226,220,1449617197073228042,/odom,doorways,0,1,0,4.30864238739,4.87449741364,1.0,0.0,0.0,0.879035044633,0.47675716073,0.2,0.737737119198,1.8,0.0,1.0,0.0,1.0,2000000000,0,,,0
1449617197240026651,221,1449617197187342990,/odom,doorways,0,1,0,4.29296922684,4.86356687546,1.0,0.0,0.0,0.877941408394,0.478768089399,0.2,0.717756867409,1.8,0.0,1.0,0.0,1.0,2000000000,0,,,0
1449617197329428750,222,1449617197279105802,/odom,doorways,0,1,0,4.2915802002,4.8628821373,1.0,0.0,0.0,0.87694278378,0.480594791873,0.2,0.727808237076,1.8,0.0,1.0,0.0,1.0,2000000000,0,,,0
1449617197418435912,223,1449617197361279848,/odom,doorways,0,1,0,4.29132461548,4.86779022217,1.0,0.0,0.0,0.876392245082,0.481597999123,0.2,0.728026688099,1.8,0.0,1.0,0.0,1.0,2000000000,0,,,0
1449617197508051488,224,1449617197457378975,/odom,doorways,0,1,0,4.30783176422,4.88218212128,1.0,0.0,0.0,0.877043872423,0.480410289071,0.2,0.728169322014,1.8,0.0,1.0,0.0,1.0,2000000000,0,,,0
1449617197658832626,225,1449617197606120812,/odom,doorways,0,1,0,4.28869485855,4.87316989899,1.0,0.0,0.0,0.877371973601,0.479810816822,0.2,0.728228509426,1.8,0.0,1.0,0.0,1.0,2000000000,0,,,0
1449617197845274883,226,1449617197793369101,/odom,doorways,0,1,0,4.28126573563,4.87759637833,1.0,0.0,0.0,0.877368591148,0.479817001853,0.2,0.738155066967,1.8,0.0,1.0,0.0,1.0,2000000000,0,,,0
1449617197933543978,227,1449617197883085088,/odom,doorways,0,1,0,4.27330970764,4.87239646912,1.0,0.0,0.0,0.87938104239,0.47611866408,0.2,0.728249132633,1.8,0.0,1.0,0.0,1.0,2000000000,0,,,0
1449617198013572794,228,1449617197961859401,/odom,doorways,0,1,0,4.28642225266,4.88376951218,1.0,0.0,0.0,0.879570756118,0.475768100004,0.2,0.718400895596,1.8,0.0,1.0,0.0,1.0,2000000000,0,,,0
1449617198154960869,229,1449617198095967219,/odom,doorways,0,1,0,4.27507305145,4.87579917908,1.0,0.0,0.0,0.878363718813,0.477992863412,0.2,0.72843003273,1.8,0.0,1.0,0.0,1.0,2000000000,0,,,0
1449617198265947993,230,1449617198214475457,/odom,doorways,0,1,0,4.26560688019,4.87285375595,1.0,0.0,0.0,0.87914235073,0.476559258805,0.2,0.738584816456,1.8,0.0,1.0,0.0,1.0,2000000000,0,,,0
1449617198381880576,231,1449617198321144073,/odom,doorways,0,1,0,4.25986194611,4.87610816956,1.0,0.0,0.0,0.879278426232,0.476308145178,0.2,0.718684852123,1.8,0.0,1.0,0.0,1.0,2000000000,0,,,0
1449617198566976129,232,1449617198510514166,/odom,doorways,0,1,0,4.28301620483,4.88827371597,1.0,0.0,0.0,0.877540999514,0.479501610187,0.2,0.728846430779,1.8,0.0,1.0,0.0,1.0,2000000000,0,,,0
1449617198712438000,233,1449617198658410362,/odom,doorways,0,1,0,4.25888252258,4.87403249741,1.0,0.0,0.0,0.877295669136,0.479950319216,0.2,0.718800365925,1.8,0.0,1.0,0.0,1.0,2000000000,0,,,0
1449617198823518590,234,1449617198773136064,/odom,doorways,0,1,0,4.25079965591,4.86970901489,1.0,0.0,0.0,0.878355194587,0.478008527269,0.2,0.728662490845,1.8,0.0,1.0,0.0,1.0,2000000000,0,,,0
1449617198979928908,235,1449617198928559120,/odom,doorways,0,1,0,4.25111246109,4.87632656097,1.0,0.0,0.0,0.876953071253,0.480576019814,0.2,0.728859126568,1.8,0.0,1.0,0.0,1.0,2000000000,0,,,0
1449617199154410377,236,1449617199102335599,/odom,doorways,0,1,0,4.25157546997,4.87181329727,1.0,0.0,0.0,0.87781491413,0.478999975502,0.2,0.718980550766,1.8,0.0,1.0,0.0,1.0,2000000000,0,,,0
1449617199230265930,237,1449617199178649511,/odom,doorways,0,1,0,4.2590713501,4.87819623947,1.0,0.0,0.0,0.877609309603,0.479376573998,0.2,0.728523015976,1.8,0.0,1.0,0.0,1.0,2000000000,0,,,0
1449617199329920138,238,1449617199278684317,/odom,doorways,0,1,0,4.26986980438,4.89062213898,1.0,0.0,0.0,0.877142124824,0.480230874538,0.2,0.718627035618,1.8,0.0,1.0,0.0,1.0,2000000000,0,,,0
1449617199562416110,239,1449617199512049313,/odom,doorways,0,1,0,4.28078126907,4.89088010788,1.0,0.0,0.0,0.876906928896,0.4806602106,0.2,0.659225285053,1.8,0.0,1.0,0.0,1.0,2000000000,0,,,0
1449617199804686787,240,1449617199752522841,/odom,doorways,0,1,0,4.26252269745,4.85164260864,1.0,0.0,0.0,0.869533283817,0.493874344681,0.2,0.729108691216,1.8,0.0,1.0,0.0,1.0,2000000000,0,,,0
1449617199968183224,241,1449617199917959466,/odom,doorways,0,1,0,4.25181055069,4.85506916046,1.0,0.0,0.0,0.875914142085,0.482467009956,0.2,0.709033727646,1.8,0.0,1.0,0.0,1.0,2000000000,0,,,0
1449617200043233875,242,1449617199993021034,/odom,doorways,0,1,0,4.26488399506,4.87664699554,1.0,0.0,0.0,0.875904666072,0.482484213164,0.2,0.689473152161,1.8,0.0,1.0,0.0,1.0,2000000000,0,,,0
1449617200298739899,243,1449617200240671050,/odom,doorways,0,1,0,4.25075626373,4.84028530121,1.0,0.0,0.0,0.870997716443,0.491287062674,0.2,0.709213078022,1.8,0.0,1.0,0.0,1.0,2000000000,0,,,0
1449617200443407454,244,1449617200393167606,/odom,doorways,0,1,0,2.20594882965,5.37814664841,1.0,0.0,0.0,0.888271655937,0.459318479117,0.2,1.0797637701,1.8,0.0,1.0,0.0,1.0,2000000000,0,,,0
1449617200681523854,245,1449617200631317725,/odom,doorways,0,1,0,2.20343255997,5.31851768494,1.0,0.0,0.0,0.877207483055,0.48011147838,0.2,1.07996618748,1.8,0.0,1.0,0.0,1.0,2000000000,0,,,0
1449617200717330597,246,1449617200666497667,/odom,doorways,1,1,0,3.64342665672,3.94290471077,1.0,0.0,0.0,-0.969039384545,0.246906199194,0.2,0.727718174458,1.8,0.0,1.0,0.0,1.0,2000000000,0,,,0
1449617202545696977,247,1449617202494422126,/odom,doorways,0,1,0,3.87217473984,4.24083948135,1.0,0.0,0.0,0.637475351902,0.770470749424,0.2,0.679320394993,1.8,0.0,1.0,0.0,1.0,2000000000,0,,,0
1449617206577636662,248,1449617206525710250,/odom,doorways,0,1,0,1.59501123428,2.55425214767,1.0,0.0,0.0,-0.969903126639,0.243491118802,0.2,0.648055255413,1.8,0.0,1.0,0.0,1.0,2000000000,0,,,0
1449617206755894961,249,1449617206704655519,/odom,doorways,0,1,0,2.82113170624,0.0714881122112,1.0,0.0,0.0,-0.971947478641,0.235197999061,0.2,0.639320254326,1.8,0.0,1.0,0.0,1.0,2000000000,0,,,0
1449617206925658355,250,1449617206875357586,/odom,doorways,0,1,0,1.38398230076,2.95358490944,1.0,0.0,0.0,-0.974051184893,0.22632783569,0.2,1.05704247952,1.8,0.0,1.0,0.0,1.0,2000000000,0,,,0
1449617207076388200,251,1449617207015729073,/odom,doorways,0,1,0,2.33584952354,0.776656866074,1.0,0.0,0.0,-0.953951548118,0.299960737169,0.2,0.907579958439,1.8,0.0,1.0,0.0,1.0,2000000000,0,,,0
1449617207076414572,252,1449617207023724605,/odom,doorways,1,1,0,2.86952328682,0.0119523406029,1.0,0.0,0.0,-0.953951478712,0.299960957898,0.2,0.638297557831,1.8,0.0,1.0,0.0,1.0,2000000000,0,,,0
1449617207102621367,253,1449617207052201509,/odom,doorways,2,1,0,1.7232260704,1.58128762245,1.0,0.0,0.0,-0.974520471829,0.224298573302,0.2,0.809221744537,1.8,0.0,1.0,0.0,1.0,2000000000,0,,,0
1449617207222006569,254,1449617207170530507,/odom,doorways,0,1,0,2.18427157402,0.612650632858,1.0,0.0,0.0,-0.972501108873,0.232898246539,0.2,0.899874210358,1.8,0.0,1.0,0.0,1.0,2000000000,0,,,0
1449617207291550707,255,1449617207241422720,/odom,doorways,0,1,0,2.79905653,-0.0981092453003,1.0,0.0,0.0,-0.964444091857,0.264286953296,0.2,0.648610055447,1.8,0.0,1.0,0.0,1.0,2000000000,0,,,0
1449617207482478155,256,1449617207431727507,/odom,doorways,0,1,0,2.80204510689,-0.119964003563,1.0,0.0,0.0,-0.96291973637,0.269788030331,0.2,0.679772853851,1.8,0.0,1.0,0.0,1.0,2000000000,0,,,0
1449617207545856038,257,1449617207491982914,/odom,doorways,1,1,0,1.86520648003,1.89035701752,1.0,0.0,0.0,-0.983686147344,0.179893200328,0.2,0.836951732635,1.8,0.0,1.0,0.0,1.0,2000000000,0,,,0
1449617207589431100,258,1449617207539132723,/odom,doorways,0,1,0,1.72996306419,1.81238150597,1.0,0.0,0.0,-0.969256032451,0.246054350821,0.2,0.638865530491,1.8,0.0,1.0,0.0,1.0,2000000000,0,,,0
1449617207600981257,259,1449617207547187671,/odom,doorways,1,1,0,2.79172158241,-0.144115746021,1.0,0.0,0.0,-0.969256973368,0.246050644335,0.2,0.678787171841,1.8,0.0,1.0,0.0,1.0,2000000000,0,,,0
1449617207646822517,260,1449617207579820311,/odom,doorways,2,1,0,2.89934372902,-0.231496632099,1.0,0.0,0.0,-0.954404118696,0.298517634681,0.2,1.00849187374,1.8,0.0,1.0,0.0,1.0,2000000000,0,,,0
1449617207693454126,261,1449617207643223241,/odom,doorways,0,1,0,2.7919754982,-0.133714333177,1.0,0.0,0.0,-0.960672567551,0.277683665266,0.2,0.649543702602,1.8,0.0,1.0,0.0,1.0,2000000000,0,,,0
1449617207819265703,262,1449617207769001207,/odom,doorways,0,1,0,1.63159167767,1.78736591339,1.0,0.0,0.0,-0.963262378745,0.268562077918,0.2,0.639941811562,1.8,0.0,1.0,0.0,1.0,2000000000,0,,,0
1449617207861521065,263,1449617207811163984,/odom,doorways,1,1,0,2.80337715149,-0.15073159337,1.0,0.0,0.0,-0.963262463337,0.268561774507,0.2,0.689938008785,1.8,0.0,1.0,0.0,1.0,2000000000,0,,,0
1449617207910203261,264,1449617207860040123,/odom,doorways,2,1,0,2.20759177208,0.580551624298,1.0,0.0,0.0,-0.963222415612,0.268705374087,0.2,0.919845104218,1.8,0.0,1.0,0.0,1.0,2000000000,0,,,0
1449617207989310599,265,1449617207937297272,/odom,doorways,0,1,0,2.82743501663,-0.151294931769,1.0,0.0,0.0,-0.961328269625,0.275405079874,0.2,0.69747120142,1.8,0.0,1.0,0.0,1.0,2000000000,0,,,0
1449617208068591198,266,1449617208017864698,/odom,doorways,0,1,0,2.78341460228,-0.161454916,1.0,0.0,0.0,-0.96650004999,0.256666424314,0.2,0.699950814247,1.8,0.0,1.0,0.0,1.0,2000000000,0,,,0
1449617208135744799,267,1449617208085250525,/odom,doorways,0,1,0,2.75837874413,-0.152109622955,1.0,0.0,0.0,-0.964832929703,0.262863876865,0.2,0.739959478378,1.8,0.0,1.0,0.0,1.0,2000000000,0,,,0
1449617208219452880,268,1449617208165444100,/odom,doorways,0,1,0,2.7699303627,-0.137936294079,1.0,0.0,0.0,-0.96613863307,0.258023529332,0.2,0.679815709591,1.8,0.0,1.0,0.0,1.0,2000000000,0,,,0
1449617208333830194,269,1449617208282802791,/odom,doorways,0,1,0,2.78357291222,-0.12851947546,1.0,0.0,0.0,-0.964225131053,0.265084697118,0.2,0.71978533268,1.8,0.0,1.0,0.0,1.0,2000000000,0,,,0
1449617208498134616,270,1449617208439726647,/odom,doorways,0,1,0,2.78949999809,-0.123682692647,1.0,0.0,0.0,-0.960233262949,0.279198998432,0.2,0.677716076374,1.8,0.0,1.0,0.0,1.0,2000000000,0,,,0
1449617208499279625,271,1449617208449081281,/odom,doorways,1,1,0,3.40672206879,-1.09533822536,1.0,0.0,0.0,-0.960233203701,0.279199202203,0.2,0.667749226093,1.8,0.0,1.0,0.0,1.0,2000000000,0,,,0
1449617208548125814,272,1449617208487870736,/odom,doorways,2,1,0,3.35433411598,-1.21375644207,1.0,0.0,0.0,-0.971200339609,0.238264349713,0.2,0.648411393166,1.8,0.0,1.0,0.0,1.0,2000000000,0,,,0
1449617208626992254,273,1449617208575528295,/odom,doorways,0,1,0,2.79126286507,-0.182245075703,1.0,0.0,0.0,-0.963890497372,0.266298909267,0.2,0.689226746559,1.8,0.0,1.0,0.0,1.0,2000000000,0,,,0
1449617208777667598,274,1449617208725695565,/odom,doorways,0,1,0,2.81540060043,-0.164841204882,1.0,0.0,0.0,-0.959996787986,0.280011012386,0.2,0.717497050762,1.8,0.0,1.0,0.0,1.0,2000000000,0,,,0
1449617208783372140,275,1449617208733039384,/odom,doorways,1,1,0,3.41276216507,-1.10172867775,1.0,0.0,0.0,-0.95999695056,0.280010455011,0.2,0.647741556168,1.8,0.0,1.0,0.0,1.0,2000000000,0,,,0
1449617208818760591,276,1449617208759019614,/odom,doorways,2,1,0,2.40600657463,0.534531474113,1.0,0.0,0.0,-0.972777828724,0.231739715938,0.2,0.659457504749,1.8,0.0,1.0,0.0,1.0,2000000000,0,,,0
1449617208818765373,277,1449617208767091965,/odom,doorways,3,1,0,2.77315759659,-0.192334920168,1.0,0.0,0.0,-0.972777903044,0.231739403964,0.2,0.729400873184,1.8,0.0,1.0,0.0,1.0,2000000000,0,,,0
1449617208860978838,278,1449617208799871401,/odom,doorways,4,1,0,3.98405122757,-1.97393107414,1.0,0.0,0.0,-0.92749467625,0.373836361967,0.2,0.640001296997,1.8,0.0,1.0,0.0,1.0,2000000000,0,,,0
1449617208914184257,279,1449617208862744185,/odom,doorways,0,1,0,2.79401898384,-0.210771247745,1.0,0.0,0.0,-0.966608745711,0.256256771064,0.2,0.699138104916,1.8,0.0,1.0,0.0,1.0,2000000000,0,,,0
1449617208918496068,280,1449617208867965161,/odom,doorways,1,1,0,3.38034534454,-1.23887002468,1.0,0.0,0.0,-0.966608621662,0.256257238979,0.2,0.649198532104,1.8,0.0,1.0,0.0,1.0,2000000000,0,,,0
1449617208999656211,281,1449617208949393005,/odom,doorways,0,1,0,2.83910560608,-0.229532599449,1.0,0.0,0.0,-0.962821301744,0.270139113992,0.2,0.819909512997,1.8,0.0,1.0,0.0,1.0,2000000000,0,,,0
1449617209006115236,282,1449617208955918328,/odom,doorways,1,1,0,3.41905498505,-1.18169307709,1.0,0.0,0.0,-0.962821322175,0.270139041172,0.2,0.669926226139,1.8,0.0,1.0,0.0,1.0,2000000000,0,,,0
1449617209063123760,283,1449617209011485458,/odom,doorways,2,1,0,2.23409628868,0.546451926231,1.0,0.0,0.0,-0.962896328788,0.269871562056,0.2,0.849980592728,1.8,0.0,1.0,0.0,1.0,2000000000,0,,,0
1449617209076677560,284,1449617209021765346,/odom,doorways,3,1,0,2.7174217701,-0.248064517975,1.0,0.0,0.0,-0.962896284101,0.269871721499,0.2,0.689983904362,1.8,0.0,1.0,0.0,1.0,2000000000,0,,,0
1449617209086043066,285,1449617209034423447,/odom,doorways,4,1,0,3.35925722122,-1.30314648151,1.0,0.0,0.0,-0.962895920613,0.269873018411,0.2,0.639982223511,1.8,0.0,1.0,0.0,1.0,2000000000,0,,,0
1449617209142854190,286,1449617209083353061,/odom,doorways,0,1,0,2.87219285965,-0.248626470566,1.0,0.0,0.0,-0.963291775124,0.26845661843,0.2,0.908904612064,1.8,0.0,1.0,0.0,1.0,2000000000,0,,,0
1449617209142863330,287,1449617209088883673,/odom,doorways,1,1,0,3.45076417923,-1.20603644848,1.0,0.0,0.0,-0.963291439158,0.268457823958,0.2,0.729118287563,1.8,0.0,1.0,0.0,1.0,2000000000,0,,,0
1449617209247165228,288,1449617209195277585,/odom,doorways,0,1,0,2.7843337059,-0.165577679873,1.0,0.0,0.0,-0.963938078739,0.266126624668,0.2,0.739337623119,1.8,0.0,1.0,0.0,1.0,2000000000,0,,,0
1449617209257892734,289,1449617209207607398,/odom,doorways,1,1,0,3.41739463806,-1.2246940136,1.0,0.0,0.0,-0.963937764851,0.266127761601,0.2,0.649415612221,1.8,0.0,1.0,0.0,1.0,2000000000,0,,,0
1449617209280379457,290,1449617209229676272,/odom,doorways,2,1,0,3.50942540169,-1.43062198162,1.0,0.0,0.0,-0.9359465802,0.352142015402,0.2,0.957128882408,1.8,0.0,1.0,0.0,1.0,2000000000,0,,,0
1449617209297766051,291,1449617209247241874,/odom,doorways,3,1,0,3.24184465408,-1.22920370102,1.0,0.0,0.0,-0.976321056311,0.216326593382,0.2,0.907632529736,1.8,0.0,1.0,0.0,1.0,2000000000,0,,,0
1449617209380740592,292,1449617209330620840,/odom,doorways,0,1,0,2.76205587387,-0.184814080596,1.0,0.0,0.0,-0.966819390578,0.255460889379,0.2,0.719910860062,1.8,0.0,1.0,0.0,1.0,2000000000,0,,,0
1449617209480406621,293,1449617209429674860,/odom,doorways,0,1,0,2.78062486649,-0.140360414982,1.0,0.0,0.0,-0.96544477558,0.260607723036,0.2,0.728584110737,1.8,0.0,1.0,0.0,1.0,2000000000,0,,,0
1449617209493162316,294,1449617209441982361,/odom,doorways,1,1,0,3.39334392548,-1.1925996542,1.0,0.0,0.0,-0.965444781604,0.260607700719,0.2,0.648739337921,1.8,0.0,1.0,0.0,1.0,2000000000,0,,,0
1449617209512798129,295,1449617209462531020,/odom,doorways,2,1,0,3.41673183441,-1.28788733482,1.0,0.0,0.0,-0.945048183316,0.326931080216,0.2,0.768903315067,1.8,0.0,1.0,0.0,1.0,2000000000,0,,,0
1449617209548719319,296,1449617209498470396,/odom,doorways,0,1,0,2.78488230705,-0.187551364303,1.0,0.0,0.0,-0.965010403375,0.262211596573,0.2,0.689796030521,1.8,0.0,1.0,0.0,1.0,2000000000,0,,,0
1449617209568218690,297,1449617209517217967,/odom,doorways,1,1,0,3.43216252327,-1.31845128536,1.0,0.0,0.0,-0.942679746471,0.333698809698,0.2,0.718577444553,1.8,0.0,1.0,0.0,1.0,2000000000,0,,,0
1449617209607993159,298,1449617209556134856,/odom,doorways,0,1,0,2.78571367264,-0.184210151434,1.0,0.0,0.0,-0.962130606711,0.272588876569,0.2,0.718642652035,1.8,0.0,1.0,0.0,1.0,2000000000,0,,,0
1449617209724665794,299,1449617209673488318,/odom,doorways,0,1,0,2.78248953819,-0.188183069229,1.0,0.0,0.0,-0.962741990821,0.270421632104,0.2,0.719854056835,1.8,0.0,1.0,0.0,1.0,2000000000,0,,,0
1449617209822702389,300,1449617209729583003,/odom,doorways,1,1,0,3.35247993469,-1.31964814663,1.0,0.0,0.0,-0.972741613537,0.2318916844,0.2,0.638740420341,1.8,0.0,1.0,0.0,1.0,2000000000,0,,,0
1449617209825260944,301,1449617209773621439,/odom,doorways,0,1,0,2.76447153091,-0.176426813006,1.0,0.0,0.0,-0.966748527477,0.25572892801,0.2,0.699906051159,1.8,0.0,1.0,0.0,1.0,2000000000,0,,,0
1449617209922935550,302,1449617209871914880,/odom,doorways,0,1,0,2.76400923729,-0.183076620102,1.0,0.0,0.0,-0.96664751609,0.256110483261,0.2,0.719807386398,1.8,0.0,1.0,0.0,1.0,2000000000,0,,,0
1449617209944323882,303,1449617209893947062,/odom,doorways,1,1,0,3.39131402969,-1.31611847878,1.0,0.0,0.0,-0.945393497456,0.325931181339,0.2,0.709393262863,1.8,0.0,1.0,0.0,1.0,2000000000,0,,,0
1449617209982852700,304,1449617209931062659,/odom,doorways,0,1,0,2.79474520683,-0.193207412958,1.0,0.0,0.0,-0.964809262767,0.262950730138,0.2,0.719740450382,1.8,0.0,1.0,0.0,1.0,2000000000,0,,,0
1449617210100363671,305,1449617210047183700,/odom,doorways,0,1,0,2.76200699806,-0.164665520191,1.0,0.0,0.0,-0.964506701832,0.264058368776,0.2,0.729773938656,1.8,0.0,1.0,0.0,1.0,2000000000,0,,,0
1449617210183421173,306,1449617210129473272,/odom,doorways,0,1,0,2.76219987869,-0.180085211992,1.0,0.0,0.0,-0.962322789613,0.271909633135,0.2,0.719900369644,1.8,0.0,1.0,0.0,1.0,2000000000,0,,,0
1449617210187946183,307,1449617210134815449,/odom,doorways,1,1,0,3.40057373047,-1.2195404768,1.0,0.0,0.0,-0.962322801048,0.271909592664,0.2,0.679906010628,1.8,0.0,1.0,0.0,1.0,2000000000,0,,,0
1449617210274831028,308,1449617210224583399,/odom,doorways,0,1,0,2.76273775101,-0.163781404495,1.0,0.0,0.0,-0.96519187966,0.261542798482,0.2,0.699896991253,1.8,0.0,1.0,0.0,1.0,2000000000,0,,,0
1449617210285216734,309,1449617210233572073,/odom,doorways,1,1,0,3.35588216782,-1.17788100243,1.0,0.0,0.0,-0.965191857169,0.261542881482,0.2,0.669901192188,1.8,0.0,1.0,0.0,1.0,2000000000,0,,,0
1449617210386710919,310,1449617210335515092,/odom,doorways,0,1,0,2.76874542236,-0.175465226173,1.0,0.0,0.0,-0.964366972627,0.264568218247,0.2,0.719906926155,1.8,0.0,1.0,0.0,1.0,2000000000,0,,,0
