%time,field.header.seq,field.header.stamp,field.header.frame_id,field.ns,field.id,field.type,field.action,field.pose.position.x,field.pose.position.y,field.pose.position.z,field.pose.orientation.x,field.pose.orientation.y,field.pose.orientation.z,field.pose.orientation.w,field.scale.x,field.scale.y,field.scale.z,field.color.r,field.color.g,field.color.b,field.color.a,field.lifetime,field.frame_locked,field.text,field.mesh_resource,field.mesh_use_embedded_materials
1449617114603980737,0,0,/odom,ucmd_vector,0,0,0,0.0431735836658,-0.00136924379847,0.0,0.0,0.0,-0.0158514091245,0.999874358521,0.00559730190992,0.05,0.05,0.0,0.0,1.0,1.0,0,0,,,0
1449617114667863329,1,0,/odom,ucmd_vector,0,0,0,0.046050804308,-0.00149094272787,0.0,0.0,0.0,-0.0211345236944,0.999776641009,0.00559730190992,0.05,0.05,0.0,0.0,1.0,1.0,0,0,,,0
1449617114688386201,2,0,/odom,ucmd_vector,0,0,0,0.054687450455,-0.00170395493763,0.0,0.0,0.0,-0.0158514091245,0.999874358521,0.00559730190992,0.05,0.05,0.0,0.0,1.0,1.0,0,0,,,0
1449617114722973132,3,0,/odom,ucmd_vector,0,0,0,0.054687450455,-0.00170395493763,0.0,0.0,0.0,-0.0158514091245,0.999874358521,0.00559730190992,0.05,0.05,0.0,0.0,1.0,1.0,0,0,,,0
1449617114827182586,4,0,/odom,ucmd_vector,0,0,0,0.0633249005692,-0.00188654411466,0.0,0.0,0.0,-0.0105678519699,0.999944158693,0.00559730190992,0.05,0.05,0.0,0.0,1.0,1.0,0,0,,,0
1449617114842674809,5,0,/odom,ucmd_vector,0,0,0,0.0748415007215,-0.0021299963507,0.0,0.0,0.0,-0.0105678519699,0.999944158693,0.00559730190992,0.05,0.05,0.0,0.0,1.0,1.0,0,0,,,0
1449617114856505379,6,0,/odom,ucmd_vector,0,0,0,0.0777211331759,-0.00216042957964,0.0,0.0,0.0,-0.00845852683232,0.999964226022,0.00559730190992,0.05,0.05,0.0,0.0,1.0,1.0,0,0,,,0
1449617114881580995,7,0,/odom,ucmd_vector,0,0,0,0.0777211331759,-0.00216042957964,0.0,0.0,0.0,-0.00845852683232,0.999964226022,0.00559730190992,0.05,0.05,0.0,0.0,1.0,1.0,0,0,,,0
1449617114968874715,8,0,/odom,ucmd_vector,0,0,0,0.0834803980846,-0.00222129603751,0.0,0.0,0.0,-0.00845852683232,0.999964226022,0.00559730190992,0.05,0.05,0.0,0.0,1.0,1.0,0,0,,,0
1449617114986587253,9,0,/odom,ucmd_vector,0,0,0,0.0978793644136,-0.00222129603751,0.0,0.0,0.0,-0.00317459802558,0.999994960951,0.00559730190992,0.05,0.05,0.0,0.0,1.0,1.0,0,0,,,0
1449617115006025294,10,0,/odom,ucmd_vector,0,0,0,0.106518261777,-0.0021299963507,0.0,0.0,0.0,0.00210941941862,0.999997775172,0.0111846038198,0.05,0.05,0.0,0.0,1.0,1.0,0,0,,,0
1449617115114133045,11,0,/odom,ucmd_vector,0,0,0,0.106518261777,-0.0021299963507,0.0,0.0,0.0,0.00210941941862,0.999997775172,0.0111846038198,0.05,0.05,0.0,0.0,1.0,1.0,0,0,,,0
1449617115124721944,12,0,/odom,ucmd_vector,0,0,0,0.123791714936,-0.0017344085586,0.0,0.0,0.0,0.0126771300841,0.999919641958,0.0111846038198,0.05,0.05,0.0,0.0,1.0,1.0,0,0,,,0
1449617115135578848,13,0,/odom,ucmd_vector,0,0,0,0.123791714936,-0.0017344085586,0.0,0.0,0.0,0.0126771300841,0.999919641958,0.0111846038198,0.05,0.05,0.0,0.0,1.0,1.0,0,0,,,0
1449617115200530887,14,0,/odom,ucmd_vector,0,0,0,0.123791714936,-0.0017344085586,0.0,0.0,0.0,0.0126771300841,0.999919641958,0.0111846038198,0.05,0.05,0.0,0.0,1.0,1.0,0,0,,,0
1449617115212153724,15,0,/odom,ucmd_vector,0,0,0,0.13242562772,-0.00143013744572,0.0,0.0,0.0,0.0179605282459,0.999838696703,0.0111846038198,0.05,0.05,0.0,0.0,1.0,1.0,0,0,,,0
1449617115247769197,16,0,/odom,ucmd_vector,0,0,0,0.13242562772,-0.00143013744572,0.0,0.0,0.0,0.0179605282459,0.999838696703,0.0111846038198,0.05,0.05,0.0,0.0,1.0,1.0,0,0,,,0
1449617115289928951,17,0,/odom,ucmd_vector,0,0,0,0.141052949354,-0.000973842919513,0.0,0.0,0.0,0.0232434249345,0.999729835104,0.0111846038198,0.05,0.05,0.0,0.0,1.0,1.0,0,0,,,0
1449617115420848395,18,0,/odom,ucmd_vector,0,0,0,0.143930169997,-0.000852143990114,0.0,0.0,0.0,0.0179605282459,0.999838696703,0.0111846038198,0.05,0.05,0.0,0.0,1.0,1.0,0,0,,,0
1449617115431701391,19,0,/odom,ucmd_vector,0,0,0,0.155426193758,-0.000122222251368,0.0,0.0,0.0,0.028525672647,0.9995930602,0.0111846038198,0.05,0.05,0.0,0.0,1.0,1.0,0,0,,,0
1449617115478968484,20,0,/odom,ucmd_vector,0,0,0,0.161174205638,0.000242738618005,0.0,0.0,0.0,0.0316988350601,0.999497465658,0.00559730190992,0.05,0.05,0.0,0.0,1.0,1.0,0,0,,,0
1449617115507811244,21,0,/odom,ucmd_vector,0,0,0,0.164046122664,0.000455580932083,0.0,0.0,0.0,0.0369797368913,0.999316015612,0.00559730190992,0.05,0.05,0.0,0.0,1.0,1.0,0,0,,,0
1449617115570285396,22,0,/odom,ucmd_vector,0,0,0,0.166915630032,0.000698761354766,0.0,0.0,0.0,0.042259606217,0.999106663816,0.00559730190992,0.05,0.05,0.0,0.0,1.0,1.0,0,0,,,0
1449617115595516937,23,0,/odom,ucmd_vector,0,0,0,0.169787547058,0.000911603668844,0.0,0.0,0.0,0.0369797368913,0.999316015612,0.00559730190992,0.05,0.05,0.0,0.0,1.0,1.0,0,0,,,0
1449617124549194067,24,0,/odom,ucmd_vector,0,0,0,2.42912852962,-0.177728324389,0.0,0.0,0.0,-0.0171677260025,0.999852623732,1e-05,0.05,0.05,0.0,0.0,1.0,1.0,0,0,,,0
1449617124568374812,25,0,/odom,ucmd_vector,0,0,0,2.45057533998,-0.169314893179,0.0,0.0,0.0,-0.00660047281497,0.999978216642,1e-05,0.05,0.05,0.0,0.0,1.0,1.0,0,0,,,0
1449617124592749775,26,0,/odom,ucmd_vector,0,0,0,2.46127086589,-0.165037385327,0.0,0.0,0.0,-0.00660047281497,0.999978216642,1e-05,0.05,0.05,0.0,0.0,1.0,1.0,0,0,,,0
1449617124651864080,27,0,/odom,ucmd_vector,0,0,0,2.46127086589,-0.165037385327,0.0,0.0,0.0,-0.00660047281497,0.999978216642,1e-05,0.05,0.05,0.0,0.0,1.0,1.0,0,0,,,0
1449617124676438220,28,0,/odom,ucmd_vector,0,0,0,2.47981271837,-0.157130268063,0.0,0.0,0.0,0.00925142030578,0.999957204695,1e-05,0.05,0.05,0.0,0.0,1.0,1.0,0,0,,,0
1449617124731011875,29,0,/odom,ucmd_vector,0,0,0,2.47981271837,-0.157130268063,0.0,0.0,0.0,0.00925142030578,0.999957204695,1e-05,0.05,0.05,0.0,0.0,1.0,1.0,0,0,,,0
1449617124762603460,30,0,/odom,ucmd_vector,0,0,0,2.49564455692,-0.150208677109,0.0,0.0,0.0,0.00925142030578,0.999957204695,1e-05,0.05,0.05,0.0,0.0,1.0,1.0,0,0,,,0
1449617124801702907,31,0,/odom,ucmd_vector,0,0,0,2.50877606369,-0.144301582967,0.0,0.0,0.0,0.0145350647735,0.999894360366,0.00559730190992,0.05,0.05,0.0,0.0,1.0,1.0,0,0,,,0
1449617124840682354,32,0,/odom,ucmd_vector,0,0,0,2.51661707261,-0.140674261307,0.0,0.0,0.0,0.0198183034098,0.999803598138,0.00559730190992,0.05,0.05,0.0,0.0,1.0,1.0,0,0,,,0
1449617124888987623,33,0,/odom,ucmd_vector,0,0,0,2.52707175117,-0.135837832425,0.0,0.0,0.0,0.0198183034098,0.999803598138,0.00559730190992,0.05,0.05,0.0,0.0,1.0,1.0,0,0,,,0
1449617124913154423,34,0,/odom,ucmd_vector,0,0,0,2.53229909045,-0.133419617985,0.0,0.0,0.0,0.0198183034098,0.999803598138,0.00559730190992,0.05,0.05,0.0,0.0,1.0,1.0,0,0,,,0
1449617124954095294,35,0,/odom,ucmd_vector,0,0,0,2.53229909045,-0.133419617985,0.0,0.0,0.0,0.0198183034098,0.999803598138,0.00559730190992,0.05,0.05,0.0,0.0,1.0,1.0,0,0,,,0
1449617125005214187,36,0,/odom,ucmd_vector,0,0,0,2.54010132851,-0.129709636257,0.0,0.0,0.0,0.0251009887023,0.999684920546,0.00559730190992,0.05,0.05,0.0,0.0,1.0,1.0,0,0,,,0
1449617125059886568,37,0,/odom,ucmd_vector,0,0,0,2.5530654164,-0.12344408765,0.0,0.0,0.0,0.0303829731539,0.999538330902,0.00559730190992,0.05,0.05,0.0,0.0,1.0,1.0,0,0,,,0
1449617125107939057,38,0,/odom,ucmd_vector,0,0,0,2.56078750307,-0.119570037994,0.0,0.0,0.0,0.0356641092871,0.9993638333,0.00559730190992,0.05,0.05,0.0,0.0,1.0,1.0,0,0,,,0
1449617125137226231,39,0,/odom,ucmd_vector,0,0,0,2.56593556085,-0.116987338224,0.0,0.0,0.0,0.0356641092871,0.9993638333,0.00559730190992,0.05,0.05,0.0,0.0,1.0,1.0,0,0,,,0
1449617125170712948,40,0,/odom,ucmd_vector,0,0,0,2.57108361863,-0.114404638454,0.0,0.0,0.0,0.0356641092871,0.9993638333,0.00559730190992,0.05,0.05,0.0,0.0,1.0,1.0,0,0,,,0
1449617125213814354,41,0,/odom,ucmd_vector,0,0,0,2.57876433371,-0.110449199261,0.0,0.0,0.0,0.0441159788671,0.999026416272,0.00559730190992,0.05,0.05,0.0,0.0,1.0,1.0,0,0,,,0
1449617125269458770,42,0,/odom,ucmd_vector,0,0,0,2.58388481043,-0.1078122398,0.0,0.0,0.0,0.0441159788671,0.999026416272,0.00559730190992,0.05,0.05,0.0,0.0,1.0,1.0,0,0,,,0
1449617125279344707,43,0,/odom,ucmd_vector,0,0,0,2.58900528714,-0.105175280338,0.0,0.0,0.0,0.0409442496481,0.999161432613,0.00559730190992,0.05,0.05,0.0,0.0,1.0,1.0,0,0,,,0
1449617125374429623,44,0,/odom,ucmd_vector,0,0,0,2.59412576386,-0.102538320877,0.0,0.0,0.0,0.0409442496481,0.999161432613,0.00559730190992,0.05,0.05,0.0,0.0,1.0,1.0,0,0,,,0
1449617125396544379,45,0,/odom,ucmd_vector,0,0,0,2.60176424954,-0.0985019339011,0.0,0.0,0.0,0.046223246811,0.99893113449,0.00559730190992,0.05,0.05,0.0,0.0,1.0,1.0,0,0,,,0
1449617125425964586,46,0,/odom,ucmd_vector,0,0,0,2.60176424954,-0.0985019339011,0.0,0.0,0.0,0.046223246811,0.99893113449,0.00559730190992,0.05,0.05,0.0,0.0,1.0,1.0,0,0,,,0
1449617125461256911,47,0,/odom,ucmd_vector,0,0,0,2.60685657333,-0.0958110092508,0.0,0.0,0.0,0.046223246811,0.99893113449,0.00559730190992,0.05,0.05,0.0,0.0,1.0,1.0,0,0,,,0
1449617125502861512,48,0,/odom,ucmd_vector,0,0,0,2.60938837439,-0.094438714596,0.0,0.0,0.0,0.0546710786543,0.998504418197,0.00559730190992,0.05,0.05,0.0,0.0,1.0,1.0,0,0,,,0
1449617125531140615,49,0,/odom,ucmd_vector,0,0,0,2.61193453628,-0.0930932522708,0.0,0.0,0.0,0.0493942183249,0.998779360618,0.00559730190992,0.05,0.05,0.0,0.0,1.0,1.0,0,0,,,0
1449617125560870297,50,0,/odom,ucmd_vector,0,0,0,2.61446633735,-0.0917209576161,0.0,0.0,0.0,0.0546710786543,0.998504418197,0.00559730190992,0.05,0.05,0.0,0.0,1.0,1.0,0,0,,,0
1449617125598925796,51,0,/odom,ucmd_vector,0,0,0,2.61952993948,-0.0889763683066,0.0,0.0,0.0,0.0515009533816,0.998672945363,0.00559730190992,0.05,0.05,0.0,0.0,1.0,1.0,0,0,,,0
1449617125656360357,52,0,/odom,ucmd_vector,0,0,0,2.61952993948,-0.0889763683066,0.0,0.0,0.0,0.0515009533816,0.998672945363,0.00559730190992,0.05,0.05,0.0,0.0,1.0,1.0,0,0,,,0
1449617125731910722,53,0,/odom,ucmd_vector,0,0,0,2.62459354161,-0.0862317789971,0.0,0.0,0.0,0.0515009533816,0.998672945363,0.00559730190992,0.05,0.05,0.0,0.0,1.0,1.0,0,0,,,0
1449617125758944159,54,0,/odom,ucmd_vector,0,0,0,2.62964250016,-0.0834605106194,0.0,0.0,0.0,0.0515009533816,0.998672945363,0.00559730190992,0.05,0.05,0.0,0.0,1.0,1.0,0,0,,,0
1449617125793976416,55,0,/odom,ucmd_vector,0,0,0,2.63215965763,-0.0820615368965,0.0,0.0,0.0,0.0694502314767,0.99758541757,0.00559730190992,0.05,0.05,0.0,0.0,1.0,1.0,0,0,,,0
1449617125835127863,56,0,/odom,ucmd_vector,0,0,0,2.63215965763,-0.0820615368965,0.0,0.0,0.0,0.0694502314767,0.99758541757,0.00559730190992,0.05,0.05,0.0,0.0,1.0,1.0,0,0,,,0
1449617125899166092,57,0,/odom,ucmd_vector,0,0,0,2.63719397259,-0.0792635894507,0.0,0.0,0.0,0.0694502314767,0.99758541757,0.00559730190992,0.05,0.05,0.0,0.0,1.0,1.0,0,0,,,0
1449617125931227256,58,0,/odom,ucmd_vector,0,0,0,2.64222828755,-0.0764656420049,0.0,0.0,0.0,0.0567772220018,0.998386872441,0.00559730190992,0.05,0.05,0.0,0.0,1.0,1.0,0,0,,,0
1449617125976398615,59,0,/odom,ucmd_vector,0,0,0,2.64222828755,-0.0764656420049,0.0,0.0,0.0,0.0567772220018,0.998386872441,0.00559730190992,0.05,0.05,0.0,0.0,1.0,1.0,0,0,,,0
1449617126030208271,60,0,/odom,ucmd_vector,0,0,0,2.64726260251,-0.0736676945591,0.0,0.0,0.0,0.0821120422755,0.996623104545,0.00559730190992,0.05,0.05,0.0,0.0,1.0,1.0,0,0,,,0
1449617126056704336,61,0,/odom,ucmd_vector,0,0,0,2.64976483528,-0.0722421980091,0.0,0.0,0.0,0.0873770521936,0.996175311253,0.00559730190992,0.05,0.05,0.0,0.0,1.0,1.0,0,0,,,0
1449617126124709245,62,0,/odom,ucmd_vector,0,0,0,2.65476930082,-0.0693912049091,0.0,0.0,0.0,0.0620519053539,0.998072923709,0.00559730190992,0.05,0.05,0.0,0.0,1.0,1.0,0,0,,,0
1449617126140859846,63,0,/odom,ucmd_vector,0,0,0,2.65977376637,-0.066540211809,0.0,0.0,0.0,0.0620519053539,0.998072923709,0.00559730190992,0.05,0.05,0.0,0.0,1.0,1.0,0,0,,,0
1449617126171749077,64,0,/odom,ucmd_vector,0,0,0,2.65977376637,-0.066540211809,0.0,0.0,0.0,0.0842141560913,0.996447678463,0.00559730190992,0.05,0.05,0.0,0.0,1.0,1.0,0,0,,,0
1449617126234742505,65,0,/odom,ucmd_vector,0,0,0,2.66226079497,-0.0650883516351,0.0,0.0,0.0,0.0894782097117,0.995988780051,0.00559730190992,0.05,0.05,0.0,0.0,1.0,1.0,0,0,,,0
1449617126260946259,66,0,/odom,ucmd_vector,0,0,0,2.66723485219,-0.0621846312872,0.0,0.0,0.0,0.0894782097117,0.995988780051,0.00559730190992,0.05,0.05,0.0,0.0,1.0,1.0,0,0,,,0
1449617126356538344,67,0,/odom,ucmd_vector,0,0,0,2.6722089094,-0.0592809109394,0.0,0.0,0.0,0.0673248561642,0.997731107936,1e-05,0.05,0.05,0.0,0.0,1.0,1.0,0,0,,,0
1449617126407364561,68,0,/odom,ucmd_vector,0,0,0,2.67962354945,-0.0548467259884,0.0,0.0,0.0,0.0725959272073,0.997361434663,1e-05,0.05,0.05,0.0,0.0,1.0,1.0,0,0,,,0
1449617126449271995,69,0,/odom,ucmd_vector,0,0,0,2.68950973619,-0.0489344793871,0.0,0.0,0.0,0.0947397650245,0.995502072787,0.00559730190992,0.05,0.05,0.0,0.0,1.0,1.0,0,0,,,0
1449617126503322123,70,0,/odom,ucmd_vector,0,0,0,2.69445282955,-0.0459783560864,0.0,0.0,0.0,0.0947397650245,0.995502072787,0.00559730190992,0.05,0.05,0.0,0.0,1.0,1.0,0,0,,,0
1449617126555693633,71,0,/odom,ucmd_vector,0,0,0,2.69939592292,-0.0430222327858,0.0,0.0,0.0,0.0725959272073,0.997361434663,1e-05,0.05,0.05,0.0,0.0,1.0,1.0,0,0,,,0
1449617126611190118,72,0,/odom,ucmd_vector,0,0,0,2.70676328912,-0.038509938627,0.0,0.0,0.0,0.0778649713106,0.996963914213,1e-05,0.05,0.05,0.0,0.0,1.0,1.0,0,0,,,0
1449617126666734516,73,0,/odom,ucmd_vector,0,0,0,2.71167486659,-0.0355017425212,0.0,0.0,0.0,0.0778649713106,0.996963914213,0.00559730190992,0.05,0.05,0.0,0.0,1.0,1.0,0,0,,,0
1449617126725036800,74,0,/odom,ucmd_vector,0,0,0,2.71658644405,-0.0324935464153,0.0,0.0,0.0,0.0778649713106,0.996963914213,0.00559730190992,0.05,0.05,0.0,0.0,1.0,1.0,0,0,,,0
1449617126765905670,75,0,/odom,ucmd_vector,0,0,0,2.72390571359,-0.0279036469936,0.0,0.0,0.0,0.0831318413578,0.996538557685,0.00559730190992,0.05,0.05,0.0,0.0,1.0,1.0,0,0,,,0
1449617126799810853,76,0,/odom,ucmd_vector,0,0,0,2.72878522662,-0.0248437140457,0.0,0.0,0.0,0.0831318413578,0.996538557685,1e-05,0.05,0.05,0.0,0.0,1.0,1.0,0,0,,,0
1449617126832383099,77,0,/odom,ucmd_vector,0,0,0,2.73120867843,-0.0232880500215,0.0,0.0,0.0,0.0883963902935,0.996085376955,1e-05,0.05,0.05,0.0,0.0,1.0,1.0,0,0,,,0
1449617126878112464,78,0,/odom,ucmd_vector,0,0,0,2.73120867843,-0.0232880500215,0.0,0.0,0.0,0.0883963902935,0.996085376955,1e-05,0.05,0.05,0.0,0.0,1.0,1.0,0,0,,,0
1449617126910768417,79,0,/odom,ucmd_vector,0,0,0,2.73120867843,-0.0232880500215,0.0,0.0,0.0,0.0883963902935,0.996085376955,0.00559730190992,0.05,0.05,0.0,0.0,1.0,1.0,0,0,,,0
1449617126932943212,80,0,/odom,ucmd_vector,0,0,0,2.73605558206,-0.0201767219729,0.0,0.0,0.0,0.0883963902935,0.996085376955,0.00559730190992,0.05,0.05,0.0,0.0,1.0,1.0,0,0,,,0
1449617126977312970,81,0,/odom,ucmd_vector,0,0,0,2.73605558206,-0.0201767219729,0.0,0.0,0.0,0.0883963902935,0.996085376955,0.00559730190992,0.05,0.05,0.0,0.0,1.0,1.0,0,0,,,0
1449617127011922950,82,0,/odom,ucmd_vector,0,0,0,2.73846245852,-0.0185955341389,0.0,0.0,0.0,0.0968186425205,0.995302039815,0.00559730190992,0.05,0.05,0.0,0.0,1.0,1.0,0,0,,,0
1449617127038981413,83,0,/odom,ucmd_vector,0,0,0,2.74088591033,-0.0170398701147,0.0,0.0,0.0,0.0915581151598,0.99579973466,0.00559730190992,0.05,0.05,0.0,0.0,1.0,1.0,0,0,,,0
1449617127119560956,84,0,/odom,ucmd_vector,0,0,0,2.74088591033,-0.0170398701147,0.0,0.0,0.0,0.0915581151598,0.99579973466,0.00559730190992,0.05,0.05,0.0,0.0,1.0,1.0,0,0,,,0
1449617127165500974,85,0,/odom,ucmd_vector,0,0,0,2.74329278679,-0.0154586822807,0.0,0.0,0.0,0.0968186425205,0.995302039815,0.00559730190992,0.05,0.05,0.0,0.0,1.0,1.0,0,0,,,0
1449617127192935522,86,0,/odom,ucmd_vector,0,0,0,2.74329278679,-0.0154586822807,0.0,0.0,0.0,0.093658471127,0.995604384676,0.00559730190992,0.05,0.05,0.0,0.0,1.0,1.0,0,0,,,0
1449617127218973191,87,0,/odom,ucmd_vector,0,0,0,2.74329278679,-0.0154586822807,0.0,0.0,0.0,0.093658471127,0.995604384676,0.00559730190992,0.05,0.05,0.0,0.0,1.0,1.0,0,0,,,0
1449617127298786994,88,0,/odom,ucmd_vector,0,0,0,2.74329278679,-0.0154586822807,0.0,0.0,0.0,0.093658471127,0.995604384676,0.00559730190992,0.05,0.05,0.0,0.0,1.0,1.0,0,0,,,0
1449617127369646391,89,0,/odom,ucmd_vector,0,0,0,2.74329278679,-0.0154586822807,0.0,0.0,0.0,0.093658471127,0.995604384676,0.00559730190992,0.05,0.05,0.0,0.0,1.0,1.0,0,0,,,0
1449617127432954514,90,0,/odom,ucmd_vector,0,0,0,2.74329278679,-0.0154586822807,0.0,0.0,0.0,0.093658471127,0.995604384676,0.00559730190992,0.05,0.05,0.0,0.0,1.0,1.0,0,0,,,0
1449617127484602202,91,0,/odom,ucmd_vector,0,0,0,2.74086933498,-0.0170143463049,0.0,0.0,0.0,0.0915581151598,0.99579973466,0.00559730190992,0.05,0.05,0.0,0.0,1.0,1.0,0,0,,,0
1449617127536744066,92,0,/odom,ucmd_vector,0,0,0,2.74086933498,-0.0170143463049,0.0,0.0,0.0,0.0915581151598,0.99579973466,1e-05,0.05,0.05,0.0,0.0,1.0,1.0,0,0,,,0
1449617127554368477,93,0,/odom,ucmd_vector,0,0,0,2.74086933498,-0.0170143463049,0.0,0.0,0.0,0.0915581151598,0.99579973466,1e-05,0.05,0.05,0.0,0.0,1.0,1.0,0,0,,,0
1449617127587091042,94,0,/odom,ucmd_vector,0,0,0,2.74086933498,-0.0170143463049,0.0,0.0,0.0,0.0915581151598,0.99579973466,0.00559730190992,0.05,0.05,0.0,0.0,1.0,1.0,0,0,,,0
1449617127651723756,95,0,/odom,ucmd_vector,0,0,0,2.74086933498,-0.0170143463049,0.0,0.0,0.0,0.0915581151598,0.99579973466,0.00559730190992,0.05,0.05,0.0,0.0,1.0,1.0,0,0,,,0
1449617127674421173,96,0,/odom,ucmd_vector,0,0,0,2.74086933498,-0.0170143463049,0.0,0.0,0.0,0.0915581151598,0.99579973466,0.00559730190992,0.05,0.05,0.0,0.0,1.0,1.0,0,0,,,0
1449617127730960028,97,0,/odom,ucmd_vector,0,0,0,2.74086933498,-0.0170143463049,0.0,0.0,0.0,0.0915581151598,0.99579973466,0.00559730190992,0.05,0.05,0.0,0.0,1.0,1.0,0,0,,,0
1449617127758829159,98,0,/odom,ucmd_vector,0,0,0,2.74086933498,-0.0170143463049,0.0,0.0,0.0,0.0915581151598,0.99579973466,0.00559730190992,0.05,0.05,0.0,0.0,1.0,1.0,0,0,,,0
1449617127811452695,99,0,/odom,ucmd_vector,0,0,0,2.74086933498,-0.0170143463049,0.0,0.0,0.0,0.0915581151598,0.99579973466,0.00559730190992,0.05,0.05,0.0,0.0,1.0,1.0,0,0,,,0
1449617127863367880,100,0,/odom,ucmd_vector,0,0,0,2.74086933498,-0.0170143463049,0.0,0.0,0.0,0.0915581151598,0.99579973466,0.00559730190992,0.05,0.05,0.0,0.0,1.0,1.0,0,0,,,0
1449617127926043107,101,0,/odom,ucmd_vector,0,0,0,2.74086933498,-0.0170143463049,0.0,0.0,0.0,0.0915581151598,0.99579973466,0.00559730190992,0.05,0.05,0.0,0.0,1.0,1.0,0,0,,,0
1449617127959689743,102,0,/odom,ucmd_vector,0,0,0,2.74086933498,-0.0170143463049,0.0,0.0,0.0,0.0883963902935,0.996085376955,0.00559730190992,0.05,0.05,0.0,0.0,1.0,1.0,0,0,,,0
1449617127990747365,103,0,/odom,ucmd_vector,0,0,0,2.74086933498,-0.0170143463049,0.0,0.0,0.0,0.0883963902935,0.996085376955,0.00559730190992,0.05,0.05,0.0,0.0,1.0,1.0,0,0,,,0
1449617128068111410,104,0,/odom,ucmd_vector,0,0,0,2.74086933498,-0.0170143463049,0.0,0.0,0.0,0.0883963902935,0.996085376955,0.00559730190992,0.05,0.05,0.0,0.0,1.0,1.0,0,0,,,0
1449617128130788904,105,0,/odom,ucmd_vector,0,0,0,2.74086933498,-0.0170143463049,0.0,0.0,0.0,0.0883963902935,0.996085376955,0.00559730190992,0.05,0.05,0.0,0.0,1.0,1.0,0,0,,,0
1449617128152644044,106,0,/odom,ucmd_vector,0,0,0,2.74086933498,-0.0170143463049,0.0,0.0,0.0,0.0883963902935,0.996085376955,0.00559730190992,0.05,0.05,0.0,0.0,1.0,1.0,0,0,,,0
1449617128218848164,107,0,/odom,ucmd_vector,0,0,0,2.74086933498,-0.0170143463049,0.0,0.0,0.0,0.0883963902935,0.996085376955,0.00559730190992,0.05,0.05,0.0,0.0,1.0,1.0,0,0,,,0
1449617128251658613,108,0,/odom,ucmd_vector,0,0,0,2.74086933498,-0.0170143463049,0.0,0.0,0.0,0.0883963902935,0.996085376955,0.00559730190992,0.05,0.05,0.0,0.0,1.0,1.0,0,0,,,0
1449617128321904835,109,0,/odom,ucmd_vector,0,0,0,2.74086933498,-0.0170143463049,0.0,0.0,0.0,0.0915581151598,0.99579973466,0.00559730190992,0.05,0.05,0.0,0.0,1.0,1.0,0,0,,,0
1449617128380694852,110,0,/odom,ucmd_vector,0,0,0,2.74086933498,-0.0170143463049,0.0,0.0,0.0,0.0915581151598,0.99579973466,0.00559730190992,0.05,0.05,0.0,0.0,1.0,1.0,0,0,,,0
1449617128399262204,111,0,/odom,ucmd_vector,0,0,0,2.74086933498,-0.0170143463049,0.0,0.0,0.0,0.0915581151598,0.99579973466,0.00559730190992,0.05,0.05,0.0,0.0,1.0,1.0,0,0,,,0
1449617128456319259,112,0,/odom,ucmd_vector,0,0,0,2.74086933498,-0.0170143463049,0.0,0.0,0.0,0.0915581151598,0.99579973466,0.00559730190992,0.05,0.05,0.0,0.0,1.0,1.0,0,0,,,0
1449617128505098521,113,0,/odom,ucmd_vector,0,0,0,2.74086933498,-0.0170143463049,0.0,0.0,0.0,0.0915581151598,0.99579973466,0.00559730190992,0.05,0.05,0.0,0.0,1.0,1.0,0,0,,,0
1449617128530994085,114,0,/odom,ucmd_vector,0,0,0,2.74086933498,-0.0170143463049,0.0,0.0,0.0,0.10419546881,0.994556838134,0.00559730190992,0.05,0.05,0.0,0.0,1.0,1.0,0,0,,,0
1449617128573013060,115,0,/odom,ucmd_vector,0,0,0,2.74086933498,-0.0170143463049,0.0,0.0,0.0,0.10419546881,0.994556838134,0.00559730190992,0.05,0.05,0.0,0.0,1.0,1.0,0,0,,,0
1449617128606129772,116,0,/odom,ucmd_vector,0,0,0,2.74086933498,-0.0170143463049,0.0,0.0,0.0,0.113662569562,0.993519411124,0.296136987457,0.05,0.05,0.0,0.0,1.0,1.0,0,0,,,0
1449617128681042855,117,0,/odom,ucmd_vector,0,0,0,2.74086933498,-0.0170143463049,0.0,0.0,0.0,0.113662569562,0.993519411124,0.296136987457,0.05,0.05,0.0,0.0,1.0,1.0,0,0,,,0
1449617128724988766,118,0,/odom,ucmd_vector,0,0,0,2.74086933498,-0.0170143463049,0.0,0.0,0.0,0.113662569562,0.993519411124,0.296136987457,0.05,0.05,0.0,0.0,1.0,1.0,0,0,,,0
1449617128782551591,119,0,/odom,ucmd_vector,0,0,0,2.74086933498,-0.0170143463049,0.0,0.0,0.0,0.116816021202,0.993153571806,0.301724288712,0.05,0.05,0.0,0.0,1.0,1.0,0,0,,,0
1449617128815626275,120,0,/odom,ucmd_vector,0,0,0,2.74086933498,-0.0170143463049,0.0,0.0,0.0,0.141998585116,0.989866860656,0.251438577423,0.05,0.05,0.0,0.0,1.0,1.0,0,0,,,0
1449617128894487252,121,0,/odom,ucmd_vector,0,0,0,2.74086933498,-0.0170143463049,0.0,0.0,0.0,0.141998585116,0.989866860656,0.251438577423,0.05,0.05,0.0,0.0,1.0,1.0,0,0,,,0
1449617128935139662,122,0,/odom,ucmd_vector,0,0,0,2.74086933498,-0.0170143463049,0.0,0.0,0.0,0.116816021202,0.993153571806,0.296136987457,0.05,0.05,0.0,0.0,1.0,1.0,0,0,,,0
1449617128976074417,123,0,/odom,ucmd_vector,0,0,0,2.74086933498,-0.0170143463049,0.0,0.0,0.0,0.116816021202,0.993153571806,0.296136987457,0.05,0.05,0.0,0.0,1.0,1.0,0,0,,,0
1449617129029727754,124,0,/odom,ucmd_vector,0,0,0,2.74086933498,-0.0170143463049,0.0,0.0,0.0,0.116816021202,0.993153571806,0.301724288712,0.05,0.05,0.0,0.0,1.0,1.0,0,0,,,0
1449617129093820364,125,0,/odom,ucmd_vector,0,0,0,2.74086933498,-0.0170143463049,0.0,0.0,0.0,0.116816021202,0.993153571806,0.301724288712,0.05,0.05,0.0,0.0,1.0,1.0,0,0,,,0
1449617129146672679,126,0,/odom,ucmd_vector,0,0,0,2.74086933498,-0.0170143463049,0.0,0.0,0.0,0.116816021202,0.993153571806,0.296136987457,0.05,0.05,0.0,0.0,1.0,1.0,0,0,,,0
1449617129174619638,127,0,/odom,ucmd_vector,0,0,0,2.74086933498,-0.0170143463049,0.0,0.0,0.0,0.116816021202,0.993153571806,0.296136987457,0.05,0.05,0.0,0.0,1.0,1.0,0,0,,,0
1449617129226899543,128,0,/odom,ucmd_vector,0,0,0,2.74086933498,-0.0170143463049,0.0,0.0,0.0,0.116816021202,0.993153571806,0.301724288712,0.05,0.05,0.0,0.0,1.0,1.0,0,0,,,0
1449617129249517851,129,0,/odom,ucmd_vector,0,0,0,2.74086933498,-0.0170143463049,0.0,0.0,0.0,0.116816021202,0.993153571806,0.301724288712,0.05,0.05,0.0,0.0,1.0,1.0,0,0,,,0
1449617129306239703,130,0,/odom,ucmd_vector,0,0,0,2.74086933498,-0.0170143463049,0.0,0.0,0.0,0.116816021202,0.993153571806,0.296136987457,0.05,0.05,0.0,0.0,1.0,1.0,0,0,,,0
1449617129331241860,131,0,/odom,ucmd_vector,0,0,0,2.74086933498,-0.0170143463049,0.0,0.0,0.0,0.116816021202,0.993153571806,0.296136987457,0.05,0.05,0.0,0.0,1.0,1.0,0,0,,,0
1449617129403597663,132,0,/odom,ucmd_vector,0,0,0,2.74086933498,-0.0170143463049,0.0,0.0,0.0,0.116816021202,0.993153571806,0.296136987457,0.05,0.05,0.0,0.0,1.0,1.0,0,0,,,0
1449617129487587778,133,0,/odom,ucmd_vector,0,0,0,2.74086933498,-0.0170143463049,0.0,0.0,0.0,0.113662569562,0.993519411124,0.296136987457,0.05,0.05,0.0,0.0,1.0,1.0,0,0,,,0
1449617129543860405,134,0,/odom,ucmd_vector,0,0,0,2.74086933498,-0.0170143463049,0.0,0.0,0.0,0.113662569562,0.993519411124,0.296136987457,0.05,0.05,0.0,0.0,1.0,1.0,0,0,,,0
1449617129577683570,135,0,/odom,ucmd_vector,0,0,0,2.74086933498,-0.0170143463049,0.0,0.0,0.0,0.116816021202,0.993153571806,0.296136987457,0.05,0.05,0.0,0.0,1.0,1.0,0,0,,,0
1449617129626728652,136,0,/odom,ucmd_vector,0,0,0,2.74086933498,-0.0170143463049,0.0,0.0,0.0,0.116816021202,0.993153571806,0.296136987457,0.05,0.05,0.0,0.0,1.0,1.0,0,0,,,0
1449617129662601384,137,0,/odom,ucmd_vector,0,0,0,2.74086933498,-0.0170143463049,0.0,0.0,0.0,0.116816021202,0.993153571806,0.296136987457,0.05,0.05,0.0,0.0,1.0,1.0,0,0,,,0
1449617129697112377,138,0,/odom,ucmd_vector,0,0,0,2.74086933498,-0.0170143463049,0.0,0.0,0.0,0.113662569562,0.993519411124,0.301724288712,0.05,0.05,0.0,0.0,1.0,1.0,0,0,,,0
1449617129707109118,139,0,/odom,ucmd_vector,0,0,0,2.74086933498,-0.0170143463049,0.0,0.0,0.0,0.113662569562,0.993519411124,0.301724288712,0.05,0.05,0.0,0.0,1.0,1.0,0,0,,,0
1449617129766706219,140,0,/odom,ucmd_vector,0,0,0,2.74086933498,-0.0170143463049,0.0,0.0,0.0,0.113662569562,0.993519411124,0.301724288712,0.05,0.05,0.0,0.0,1.0,1.0,0,0,,,0
1449617129795848505,141,0,/odom,ucmd_vector,0,0,0,2.74086933498,-0.0170143463049,0.0,0.0,0.0,0.113662569562,0.993519411124,0.301724288712,0.05,0.05,0.0,0.0,1.0,1.0,0,0,,,0
1449617129827077438,142,0,/odom,ucmd_vector,0,0,0,2.74086933498,-0.0170143463049,0.0,0.0,0.0,0.132564984961,0.991174316032,0.268200481186,0.05,0.05,0.0,0.0,1.0,1.0,0,0,,,0
1449617129875522600,143,0,/odom,ucmd_vector,0,0,0,2.74086933498,-0.0170143463049,0.0,0.0,0.0,0.132564984961,0.991174316032,0.268200481186,0.05,0.05,0.0,0.0,1.0,1.0,0,0,,,0
1449617129906238718,144,0,/odom,ucmd_vector,0,0,0,2.74086933498,-0.0170143463049,0.0,0.0,0.0,0.116816021202,0.993153571806,0.296136987457,0.05,0.05,0.0,0.0,1.0,1.0,0,0,,,0
1449617129944014155,145,0,/odom,ucmd_vector,0,0,0,2.74086933498,-0.0170143463049,0.0,0.0,0.0,0.116816021202,0.993153571806,0.296136987457,0.05,0.05,0.0,0.0,1.0,1.0,0,0,,,0
1449617129991815429,146,0,/odom,ucmd_vector,0,0,0,2.74327621144,-0.015433158471,0.0,0.0,0.0,0.122062213628,0.992522451134,0.296136987457,0.05,0.05,0.0,0.0,1.0,1.0,0,0,,,0
1449617130037292493,147,0,/odom,ucmd_vector,0,0,0,2.74327621144,-0.015433158471,0.0,0.0,0.0,0.118910739106,0.992904948182,0.301724288712,0.05,0.05,0.0,0.0,1.0,1.0,0,0,,,0
1449617130062638178,148,0,/odom,ucmd_vector,0,0,0,2.74327621144,-0.015433158471,0.0,0.0,0.0,0.118910739106,0.992904948182,0.301724288712,0.05,0.05,0.0,0.0,1.0,1.0,0,0,,,0
1449617130101816662,149,0,/odom,ucmd_vector,0,0,0,2.74327621144,-0.015433158471,0.0,0.0,0.0,0.147227059002,0.989102721206,0.245851276169,0.05,0.05,0.0,0.0,1.0,1.0,0,0,,,0
1449617130168191116,150,0,/odom,ucmd_vector,0,0,0,2.74327621144,-0.015433158471,0.0,0.0,0.0,0.147227059002,0.989102721206,0.245851276169,0.05,0.05,0.0,0.0,1.0,1.0,0,0,,,0
1449617130227111576,151,0,/odom,ucmd_vector,0,0,0,2.74569966325,-0.0138774944467,0.0,0.0,0.0,0.141998585116,0.989866860656,0.245851276169,0.05,0.05,0.0,0.0,1.0,1.0,0,0,,,0
1449617130288031048,152,0,/odom,ucmd_vector,0,0,0,2.74569966325,-0.0138774944467,0.0,0.0,0.0,0.113662569562,0.993519411124,0.296136987457,0.05,0.05,0.0,0.0,1.0,1.0,0,0,,,0
1449617130321348398,153,0,/odom,ucmd_vector,0,0,0,2.74810653971,-0.0122963066127,0.0,0.0,0.0,0.118910739106,0.992904948182,0.301724288712,0.05,0.05,0.0,0.0,1.0,1.0,0,0,,,0
1449617130346752275,154,0,/odom,ucmd_vector,0,0,0,2.74810653971,-0.0122963066127,0.0,0.0,0.0,0.118910739106,0.992904948182,0.301724288712,0.05,0.05,0.0,0.0,1.0,1.0,0,0,,,0
1449617130415333358,155,0,/odom,ucmd_vector,0,0,0,2.74810653971,-0.0122963066127,0.0,0.0,0.0,0.122062213628,0.992522451134,0.296136987457,0.05,0.05,0.0,0.0,1.0,1.0,0,0,,,0
1449617130451867971,156,0,/odom,ucmd_vector,0,0,0,2.74810653971,-0.0122963066127,0.0,0.0,0.0,0.122062213628,0.992522451134,0.296136987457,0.05,0.05,0.0,0.0,1.0,1.0,0,0,,,0
1449617130481116050,157,0,/odom,ucmd_vector,0,0,0,2.75052999153,-0.0107406425884,0.0,0.0,0.0,0.116816021202,0.993153571806,0.296136987457,0.05,0.05,0.0,0.0,1.0,1.0,0,0,,,0
1449617130509235821,158,0,/odom,ucmd_vector,0,0,0,2.75052999153,-0.0107406425884,0.0,0.0,0.0,0.116816021202,0.993153571806,0.296136987457,0.05,0.05,0.0,0.0,1.0,1.0,0,0,,,0
1449617130567438903,159,0,/odom,ucmd_vector,0,0,0,2.75052999153,-0.0107406425884,0.0,0.0,0.0,0.116816021202,0.993153571806,0.296136987457,0.05,0.05,0.0,0.0,1.0,1.0,0,0,,,0
1449617130577542228,160,0,/odom,ucmd_vector,0,0,0,2.75293686798,-0.00915945475446,0.0,0.0,0.0,0.122062213628,0.992522451134,0.296136987457,0.05,0.05,0.0,0.0,1.0,1.0,0,0,,,0
1449617130630187234,161,0,/odom,ucmd_vector,0,0,0,2.75293686798,-0.00915945475446,0.0,0.0,0.0,0.122062213628,0.992522451134,0.296136987457,0.05,0.05,0.0,0.0,1.0,1.0,0,0,,,0
1449617130671681004,162,0,/odom,ucmd_vector,0,0,0,2.75293686798,-0.00915945475446,0.0,0.0,0.0,0.122062213628,0.992522451134,0.296136987457,0.05,0.05,0.0,0.0,1.0,1.0,0,0,,,0
1449617130711442691,163,0,/odom,ucmd_vector,0,0,0,2.75293686798,-0.00915945475446,0.0,0.0,0.0,0.118910739106,0.992904948182,0.296136987457,0.05,0.05,0.0,0.0,1.0,1.0,0,0,,,0
1449617130757579788,164,0,/odom,ucmd_vector,0,0,0,2.75293686798,-0.00915945475446,0.0,0.0,0.0,0.118910739106,0.992904948182,0.296136987457,0.05,0.05,0.0,0.0,1.0,1.0,0,0,,,0
1449617130813529551,165,0,/odom,ucmd_vector,0,0,0,2.75532690028,-0.00755291970194,0.0,0.0,0.0,0.124155588562,0.992262762492,0.296136987457,0.05,0.05,0.0,0.0,1.0,1.0,0,0,,,0
1449617130843914883,166,0,/odom,ucmd_vector,0,0,0,2.75532690028,-0.00755291970194,0.0,0.0,0.0,0.127304997973,0.991863618393,0.301724288712,0.05,0.05,0.0,0.0,1.0,1.0,0,0,,,0
1449617130872655274,167,0,/odom,ucmd_vector,0,0,0,2.75773377674,-0.00597173186796,0.0,0.0,0.0,0.122062213628,0.992522451134,0.301724288712,0.05,0.05,0.0,0.0,1.0,1.0,0,0,,,0
1449617130915363387,168,0,/odom,ucmd_vector,0,0,0,2.75773377674,-0.00597173186796,0.0,0.0,0.0,0.122062213628,0.992522451134,0.296136987457,0.05,0.05,0.0,0.0,1.0,1.0,0,0,,,0
1449617130942512540,169,0,/odom,ucmd_vector,0,0,0,2.75773377674,-0.00597173186796,0.0,0.0,0.0,0.122062213628,0.992522451134,0.296136987457,0.05,0.05,0.0,0.0,1.0,1.0,0,0,,,0
1449617131003709609,170,0,/odom,ucmd_vector,0,0,0,2.75773377674,-0.00597173186796,0.0,0.0,0.0,0.118910739106,0.992904948182,0.296136987457,0.05,0.05,0.0,0.0,1.0,1.0,0,0,,,0
1449617131024952369,171,0,/odom,ucmd_vector,0,0,0,2.76253068549,-0.00278400898145,0.0,0.0,0.0,0.118910739106,0.992904948182,0.296136987457,0.05,0.05,0.0,0.0,1.0,1.0,0,0,,,0
1449617131078604425,172,0,/odom,ucmd_vector,0,0,0,2.76253068549,-0.00278400898145,0.0,0.0,0.0,0.118910739106,0.992904948182,0.296136987457,0.05,0.05,0.0,0.0,1.0,1.0,0,0,,,0
1449617131132379094,173,0,/odom,ucmd_vector,0,0,0,2.76253068549,-0.00278400898145,0.0,0.0,0.0,0.122062213628,0.992522451134,0.296136987457,0.05,0.05,0.0,0.0,1.0,1.0,0,0,,,0
1449617131166981444,174,0,/odom,ucmd_vector,0,0,0,2.76492071779,-0.00117747392894,0.0,0.0,0.0,0.127304997973,0.991863618393,0.296136987457,0.05,0.05,0.0,0.0,1.0,1.0,0,0,,,0
1449617131207835901,175,0,/odom,ucmd_vector,0,0,0,2.76492071779,-0.00117747392894,0.0,0.0,0.0,0.127304997973,0.991863618393,0.296136987457,0.05,0.05,0.0,0.0,1.0,1.0,0,0,,,0
1449617131228621594,176,0,/odom,ucmd_vector,0,0,0,2.76970078238,0.0020355961761,0.0,0.0,0.0,0.127304997973,0.991863618393,0.296136987457,0.05,0.05,0.0,0.0,1.0,1.0,0,0,,,0
1449617131270734885,177,0,/odom,ucmd_vector,0,0,0,2.76970078238,0.0020355961761,0.0,0.0,0.0,0.127304997973,0.991863618393,0.296136987457,0.05,0.05,0.0,0.0,1.0,1.0,0,0,,,0
1449617131303800718,178,0,/odom,ucmd_vector,0,0,0,2.76970078238,0.0020355961761,0.0,0.0,0.0,0.127304997973,0.991863618393,0.301724288712,0.05,0.05,0.0,0.0,1.0,1.0,0,0,,,0
1449617131354961441,179,0,/odom,ucmd_vector,0,0,0,2.77207370359,0.00366729902511,0.0,0.0,0.0,0.132544227855,0.991177091978,0.301724288712,0.05,0.05,0.0,0.0,1.0,1.0,0,0,,,0
1449617131394640296,180,0,/odom,ucmd_vector,0,0,0,2.77446373589,0.00527383407762,0.0,0.0,0.0,0.127304997973,0.991863618393,0.301724288712,0.05,0.05,0.0,0.0,1.0,1.0,0,0,,,0
1449617131427619977,181,0,/odom,ucmd_vector,0,0,0,2.77446373589,0.00527383407762,0.0,0.0,0.0,0.155588143644,0.987822013096,0.251438577423,0.05,0.05,0.0,0.0,1.0,1.0,0,0,,,0
1449617131485885648,182,0,/odom,ucmd_vector,0,0,0,2.7768366571,0.00690553692664,0.0,0.0,0.0,0.160805622839,0.98698609497,0.251438577423,0.05,0.05,0.0,0.0,1.0,1.0,0,0,,,0
1449617131504874581,183,0,/odom,ucmd_vector,0,0,0,2.7768366571,0.00690553692664,0.0,0.0,0.0,0.129396971488,0.991592871984,0.301724288712,0.05,0.05,0.0,0.0,1.0,1.0,0,0,,,0
1449617131542192947,184,0,/odom,ucmd_vector,0,0,0,2.78158249952,0.0101689426247,0.0,0.0,0.0,0.129396971488,0.991592871984,0.301724288712,0.05,0.05,0.0,0.0,1.0,1.0,0,0,,,0
1449617131598087034,185,0,/odom,ucmd_vector,0,0,0,2.78158249952,0.0101689426247,0.0,0.0,0.0,0.129396971488,0.991592871984,0.301724288712,0.05,0.05,0.0,0.0,1.0,1.0,0,0,,,0
1449617131627566229,186,0,/odom,ucmd_vector,0,0,0,2.78397253182,0.0117754776772,0.0,0.0,0.0,0.127304997973,0.991863618393,0.301724288712,0.05,0.05,0.0,0.0,1.0,1.0,0,0,,,0
1449617131676240313,187,0,/odom,ucmd_vector,0,0,0,2.78634545302,0.0134071805262,0.0,0.0,0.0,0.132544227855,0.991177091978,0.301724288712,0.05,0.05,0.0,0.0,1.0,1.0,0,0,,,0
1449617131712880277,188,0,/odom,ucmd_vector,0,0,0,2.78634545302,0.0134071805262,0.0,0.0,0.0,0.154535845715,0.9879871823,0.212327468643,0.05,0.05,0.0,0.0,1.0,1.0,0,0,,,0
1449617131793932584,189,0,/odom,ucmd_vector,0,0,0,2.78634545302,0.0134071805262,0.0,0.0,0.0,0.154535845715,0.9879871823,0.212327468643,0.05,0.05,0.0,0.0,1.0,1.0,0,0,,,0
1449617131844802813,190,0,/odom,ucmd_vector,0,0,0,2.79107391934,0.0166955717879,0.0,0.0,0.0,0.154535845715,0.9879871823,0.212327468643,0.05,0.05,0.0,0.0,1.0,1.0,0,0,,,0
1449617131883778196,191,0,/odom,ucmd_vector,0,0,0,2.79342946445,0.0183522602005,0.0,0.0,0.0,0.112583417919,0.993642276682,0.0167719050741,0.05,0.05,0.0,0.0,1.0,1.0,0,0,,,0
1449617131943264669,192,0,/odom,ucmd_vector,0,0,0,2.79342946445,0.0183522602005,0.0,0.0,0.0,0.109428436166,0.993994676725,0.0111846038198,0.05,0.05,0.0,0.0,1.0,1.0,0,0,,,0
1449617131987326853,193,0,/odom,ucmd_vector,0,0,0,2.79580238566,0.0199839630496,0.0,0.0,0.0,0.104174640873,0.994559019968,0.0111846038198,0.05,0.05,0.0,0.0,1.0,1.0,0,0,,,0
1449617132070392720,194,0,/odom,ucmd_vector,0,0,0,2.79815793077,0.0216406514622,0.0,0.0,0.0,0.112583417919,0.993642276682,0.0111846038198,0.05,0.05,0.0,0.0,1.0,1.0,0,0,,,0
1449617132179054697,195,0,/odom,ucmd_vector,0,0,0,2.79815793077,0.0216406514622,0.0,0.0,0.0,0.112583417919,0.993642276682,0.0111846038198,0.05,0.05,0.0,0.0,1.0,1.0,0,0,,,0
1449617132243395582,196,0,/odom,ucmd_vector,0,0,0,2.80285138181,0.0249788288279,0.0,0.0,0.0,0.125191680877,0.992132573318,0.00559730190992,0.05,0.05,0.0,0.0,1.0,1.0,0,0,,,0
1449617132303017472,197,0,/odom,ucmd_vector,0,0,0,2.80285138181,0.0249788288279,0.0,0.0,0.0,0.109428436166,0.993994676725,0.0111846038198,0.05,0.05,0.0,0.0,1.0,1.0,0,0,,,0
1449617132372275693,198,0,/odom,ucmd_vector,0,0,0,2.80518928774,0.026660317781,0.0,0.0,0.0,0.143011439196,0.989721035575,0.00559730190992,0.05,0.05,0.0,0.0,1.0,1.0,0,0,,,0
1449617132395076231,199,0,/odom,ucmd_vector,0,0,0,2.80754483285,0.0283170061937,0.0,0.0,0.0,0.137779756989,0.990462891059,0.00559730190992,0.05,0.05,0.0,0.0,1.0,1.0,0,0,,,0
1449617132428327398,200,0,/odom,ucmd_vector,0,0,0,2.80754483285,0.0283170061937,0.0,0.0,0.0,0.109428436166,0.993994676725,0.0111846038198,0.05,0.05,0.0,0.0,1.0,1.0,0,0,,,0
1449617132485719253,201,0,/odom,ucmd_vector,0,0,0,2.80988273879,0.0299984951467,0.0,0.0,0.0,0.114679176124,0.993402580309,0.0111846038198,0.05,0.05,0.0,0.0,1.0,1.0,0,0,,,0
1449617132516927130,202,0,/odom,ucmd_vector,0,0,0,2.81223828389,0.0316551835594,0.0,0.0,0.0,0.137779756989,0.990462891059,0.0111846038198,0.05,0.05,0.0,0.0,1.0,1.0,0,0,,,0
1449617132594426917,203,0,/odom,ucmd_vector,0,0,0,2.81223828389,0.0316551835594,0.0,0.0,0.0,0.137779756989,0.990462891059,0.0111846038198,0.05,0.05,0.0,0.0,1.0,1.0,0,0,,,0
1449617132651204086,204,0,/odom,ucmd_vector,0,0,0,2.81693173494,0.0349933609251,0.0,0.0,0.0,0.109428436166,0.993994676725,0.00559730190992,0.05,0.05,0.0,0.0,1.0,1.0,0,0,,,0
1449617132680825721,205,0,/odom,ucmd_vector,0,0,0,2.81926964087,0.0366748498781,0.0,0.0,0.0,0.114679176124,0.993402580309,0.00559730190992,0.05,0.05,0.0,0.0,1.0,1.0,0,0,,,0
1449617132713929194,206,0,/odom,ucmd_vector,0,0,0,2.81926964087,0.0366748498781,0.0,0.0,0.0,0.143011439196,0.989721035575,0.0111846038198,0.05,0.05,0.0,0.0,1.0,1.0,0,0,,,0
1449617132762488921,207,0,/odom,ucmd_vector,0,0,0,2.81926964087,0.0366748498781,0.0,0.0,0.0,0.143011439196,0.989721035575,0.0111846038198,0.05,0.05,0.0,0.0,1.0,1.0,0,0,,,0
1449617132821537229,208,0,/odom,ucmd_vector,0,0,0,2.8286212646,0.0434008056903,0.0,0.0,0.0,0.114679176124,0.993402580309,0.0111846038198,0.05,0.05,0.0,0.0,1.0,1.0,0,0,,,0
1449617132839761360,209,0,/odom,ucmd_vector,0,0,0,2.8286212646,0.0434008056903,0.0,0.0,0.0,0.114679176124,0.993402580309,0.0111846038198,0.05,0.05,0.0,0.0,1.0,1.0,0,0,,,0
1449617132857816062,210,0,/odom,ucmd_vector,0,0,0,2.8286212646,0.0434008056903,0.0,0.0,0.0,0.143011439196,0.989721035575,0.0111846038198,0.05,0.05,0.0,0.0,1.0,1.0,0,0,,,0
1449617132905931907,211,0,/odom,ucmd_vector,0,0,0,2.83094127026,0.0451069073906,0.0,0.0,0.0,0.148239128402,0.98895154624,0.0111846038198,0.05,0.05,0.0,0.0,1.0,1.0,0,0,,,0
1449617132937461727,212,0,/odom,ucmd_vector,0,0,0,2.83327917619,0.0467883963436,0.0,0.0,0.0,0.143011439196,0.989721035575,0.0111846038198,0.05,0.05,0.0,0.0,1.0,1.0,0,0,,,0
1449617133007473574,213,0,/odom,ucmd_vector,0,0,0,2.83795498806,0.0501513742497,0.0,0.0,0.0,0.143011439196,0.989721035575,0.0111846038198,0.05,0.05,0.0,0.0,1.0,1.0,0,0,,,0
1449617133052932731,214,0,/odom,ucmd_vector,0,0,0,2.84027499372,0.05185747595,0.0,0.0,0.0,0.123077795604,0.992397025504,0.00559730190992,0.05,0.05,0.0,0.0,1.0,1.0,0,0,,,0
1449617133106456903,215,0,/odom,ucmd_vector,0,0,0,2.84491500503,0.0552696793507,0.0,0.0,0.0,0.123077795604,0.992397025504,0.00559730190992,0.05,0.05,0.0,0.0,1.0,1.0,0,0,,,0
1449617133139905727,216,0,/odom,ucmd_vector,0,0,0,2.84725291096,0.0569511683037,0.0,0.0,0.0,0.143011439196,0.989721035575,0.0111846038198,0.05,0.05,0.0,0.0,1.0,1.0,0,0,,,0
1449617133187933446,217,0,/odom,ucmd_vector,0,0,0,2.84957291662,0.058657270004,0.0,0.0,0.0,0.148239128402,0.98895154624,0.0111846038198,0.05,0.05,0.0,0.0,1.0,1.0,0,0,,,0
1449617133216970829,218,0,/odom,ucmd_vector,0,0,0,2.85187476289,0.0603877939097,0.0,0.0,0.0,0.128319903023,0.991732828179,0.0111846038198,0.05,0.05,0.0,0.0,1.0,1.0,0,0,,,0
1449617133273672656,219,0,/odom,ucmd_vector,0,0,0,2.85419476855,0.0620938956101,0.0,0.0,0.0,0.123077795604,0.992397025504,0.0111846038198,0.05,0.05,0.0,0.0,1.0,1.0,0,0,,,0
1449617133317607758,220,0,/odom,ucmd_vector,0,0,0,2.85883477986,0.0655060990107,0.0,0.0,0.0,0.148239128402,0.98895154624,0.0111846038198,0.05,0.05,0.0,0.0,1.0,1.0,0,0,,,0
1449617133364509888,221,0,/odom,ucmd_vector,0,0,0,2.86113662613,0.0672366229164,0.0,0.0,0.0,0.153462678645,0.988154444539,0.0111846038198,0.05,0.05,0.0,0.0,1.0,1.0,0,0,,,0
1449617133403891350,222,0,/odom,ucmd_vector,0,0,0,2.86575847806,0.0706732485225,0.0,0.0,0.0,0.125170903704,0.992135194853,0.00559730190992,0.05,0.05,0.0,0.0,1.0,1.0,0,0,,,0
1449617133462357824,223,0,/odom,ucmd_vector,0,0,0,2.86807848371,0.0723793502228,0.0,0.0,0.0,0.119926714141,0.992782747249,0.00559730190992,0.05,0.05,0.0,0.0,1.0,1.0,0,0,,,0
1449617133525376136,224,0,/odom,ucmd_vector,0,0,0,2.87038032999,0.0741098741285,0.0,0.0,0.0,0.125170903704,0.992135194853,0.00559730190992,0.05,0.05,0.0,0.0,1.0,1.0,0,0,,,0
1449617133549526825,225,0,/odom,ucmd_vector,0,0,0,2.87498402253,0.0775709219399,0.0,0.0,0.0,0.125170903704,0.992135194853,0.00559730190992,0.05,0.05,0.0,0.0,1.0,1.0,0,0,,,0
1449617133639805430,226,0,/odom,ucmd_vector,0,0,0,2.87498402253,0.0775709219399,0.0,0.0,0.0,0.125170903704,0.992135194853,0.0111846038198,0.05,0.05,0.0,0.0,1.0,1.0,0,0,,,0
1449617133707136611,227,0,/odom,ucmd_vector,0,0,0,2.87958771508,0.0810319697513,0.0,0.0,0.0,0.125170903704,0.992135194853,0.0111846038198,0.05,0.05,0.0,0.0,1.0,1.0,0,0,,,0
1449617133743991604,228,0,/odom,ucmd_vector,0,0,0,2.88419140763,0.0844930175628,0.0,0.0,0.0,0.128319903023,0.991732828179,0.0111846038198,0.05,0.05,0.0,0.0,1.0,1.0,0,0,,,0
1449617133783810156,229,0,/odom,ucmd_vector,0,0,0,2.88419140763,0.0844930175628,0.0,0.0,0.0,0.128319903023,0.991732828179,0.0111846038198,0.05,0.05,0.0,0.0,1.0,1.0,0,0,,,0
1449617133805184494,230,0,/odom,ucmd_vector,0,0,0,2.88879510017,0.0879540653742,0.0,0.0,0.0,0.128319903023,0.991732828179,0.00559730190992,0.05,0.05,0.0,0.0,1.0,1.0,0,0,,,0
1449617133866562877,231,0,/odom,ucmd_vector,0,0,0,2.88879510017,0.0879540653742,0.0,0.0,0.0,0.128319903023,0.991732828179,0.00559730190992,0.05,0.05,0.0,0.0,1.0,1.0,0,0,,,0
1449617133902514417,232,0,/odom,ucmd_vector,0,0,0,2.89107852999,0.0897088182159,0.0,0.0,0.0,0.13355842764,0.991040940833,0.00559730190992,0.05,0.05,0.0,0.0,1.0,1.0,0,0,,,0
1449617133942896233,233,0,/odom,ucmd_vector,0,0,0,2.89338037626,0.0914393421216,0.0,0.0,0.0,0.125170903704,0.992135194853,0.00559730190992,0.05,0.05,0.0,0.0,1.0,1.0,0,0,,,0
1449617133971007868,234,0,/odom,ucmd_vector,0,0,0,2.89338037626,0.0914393421216,0.0,0.0,0.0,0.125170903704,0.992135194853,0.00559730190992,0.05,0.05,0.0,0.0,1.0,1.0,0,0,,,0
1449617134040303998,235,0,/odom,ucmd_vector,0,0,0,2.89566380608,0.0931940949632,0.0,0.0,0.0,0.13355842764,0.991040940833,0.0111846038198,0.05,0.05,0.0,0.0,1.0,1.0,0,0,,,0
1449617134081945895,236,0,/odom,ucmd_vector,0,0,0,2.89566380608,0.0931940949632,0.0,0.0,0.0,0.13355842764,0.991040940833,0.0111846038198,0.05,0.05,0.0,0.0,1.0,1.0,0,0,,,0
1449617134115690152,237,0,/odom,ucmd_vector,0,0,0,2.89796565235,0.0949246188689,0.0,0.0,0.0,0.125170903704,0.992135194853,0.0111846038198,0.05,0.05,0.0,0.0,1.0,1.0,0,0,,,0
1449617134212341491,238,0,/odom,ucmd_vector,0,0,0,2.90024908216,0.0966793717106,0.0,0.0,0.0,0.130411598388,0.991459941201,0.0111846038198,0.05,0.05,0.0,0.0,1.0,1.0,0,0,,,0
1449617134252677144,239,0,/odom,ucmd_vector,0,0,0,2.90481594179,0.100188877394,0.0,0.0,0.0,0.13355842764,0.991040940833,0.0111846038198,0.05,0.05,0.0,0.0,1.0,1.0,0,0,,,0
1449617134306223110,240,0,/odom,ucmd_vector,0,0,0,2.90481594179,0.100188877394,0.0,0.0,0.0,0.13355842764,0.991040940833,0.0111846038198,0.05,0.05,0.0,0.0,1.0,1.0,0,0,,,0
1449617134355837337,241,0,/odom,ucmd_vector,0,0,0,2.90938280142,0.103698383077,0.0,0.0,0.0,0.13355842764,0.991040940833,0.0111846038198,0.05,0.05,0.0,0.0,1.0,1.0,0,0,,,0
1449617134378568554,242,0,/odom,ucmd_vector,0,0,0,2.90938280142,0.103698383077,0.0,0.0,0.0,0.13355842764,0.991040940833,0.0111846038198,0.05,0.05,0.0,0.0,1.0,1.0,0,0,,,0
1449617134424545045,243,0,/odom,ucmd_vector,0,0,0,2.91168464769,0.105428906983,0.0,0.0,0.0,0.125170903704,0.992135194853,0.0111846038198,0.05,0.05,0.0,0.0,1.0,1.0,0,0,,,0
1449617134451346444,244,0,/odom,ucmd_vector,0,0,0,2.91396807751,0.107183659825,0.0,0.0,0.0,0.130411598388,0.991459941201,0.0111846038198,0.05,0.05,0.0,0.0,1.0,1.0,0,0,,,0
1449617134480375494,245,0,/odom,ucmd_vector,0,0,0,2.91396807751,0.107183659825,0.0,0.0,0.0,0.130411598388,0.991459941201,0.00559730190992,0.05,0.05,0.0,0.0,1.0,1.0,0,0,,,0
1449617134521363199,246,0,/odom,ucmd_vector,0,0,0,2.91396807751,0.107183659825,0.0,0.0,0.0,0.130411598388,0.991459941201,0.00559730190992,0.05,0.05,0.0,0.0,1.0,1.0,0,0,,,0
1449617134561569745,247,0,/odom,ucmd_vector,0,0,0,2.91853493714,0.110693165508,0.0,0.0,0.0,0.130411598388,0.991459941201,0.00559730190992,0.05,0.05,0.0,0.0,1.0,1.0,0,0,,,0
1449617134631277454,248,0,/odom,ucmd_vector,0,0,0,2.91853493714,0.110693165508,0.0,0.0,0.0,0.13355842764,0.991040940833,0.00559730190992,0.05,0.05,0.0,0.0,1.0,1.0,0,0,,,0
1449617134685308551,249,0,/odom,ucmd_vector,0,0,0,2.9276686564,0.117712176875,0.0,0.0,0.0,0.13355842764,0.991040940833,0.00559730190992,0.05,0.05,0.0,0.0,1.0,1.0,0,0,,,0
1449617134699303388,250,0,/odom,ucmd_vector,0,0,0,2.93223551603,0.121221682558,0.0,0.0,0.0,0.130411598388,0.991459941201,0.00559730190992,0.05,0.05,0.0,0.0,1.0,1.0,0,0,,,0
1449617134733706405,251,0,/odom,ucmd_vector,0,0,0,2.93223551603,0.121221682558,0.0,0.0,0.0,0.130411598388,0.991459941201,0.00559730190992,0.05,0.05,0.0,0.0,1.0,1.0,0,0,,,0
1449617134758296297,252,0,/odom,ucmd_vector,0,0,0,2.93223551603,0.121221682558,0.0,0.0,0.0,0.130411598388,0.991459941201,0.00559730190992,0.05,0.05,0.0,0.0,1.0,1.0,0,0,,,0
1449617134800306029,253,0,/odom,ucmd_vector,0,0,0,2.93223551603,0.121221682558,0.0,0.0,0.0,0.130411598388,0.991459941201,0.0111846038198,0.05,0.05,0.0,0.0,1.0,1.0,0,0,,,0
1449617134886229758,254,0,/odom,ucmd_vector,0,0,0,2.93680237566,0.124731188241,0.0,0.0,0.0,0.130411598388,0.991459941201,0.0111846038198,0.05,0.05,0.0,0.0,1.0,1.0,0,0,,,0
1449617134927640879,255,0,/odom,ucmd_vector,0,0,0,2.94136923528,0.128240693925,0.0,0.0,0.0,0.130411598388,0.991459941201,0.0111846038198,0.05,0.05,0.0,0.0,1.0,1.0,0,0,,,0
1449617134967637260,256,0,/odom,ucmd_vector,0,0,0,2.94593609491,0.131750199608,0.0,0.0,0.0,0.130411598388,0.991459941201,0.0111846038198,0.05,0.05,0.0,0.0,1.0,1.0,0,0,,,0
1449617135021528422,257,0,/odom,ucmd_vector,0,0,0,2.94593609491,0.131750199608,0.0,0.0,0.0,0.130411598388,0.991459941201,0.0111846038198,0.05,0.05,0.0,0.0,1.0,1.0,0,0,,,0
1449617135078700575,258,0,/odom,ucmd_vector,0,0,0,2.95050295454,0.135259705291,0.0,0.0,0.0,0.130411598388,0.991459941201,0.0111846038198,0.05,0.05,0.0,0.0,1.0,1.0,0,0,,,0
1449617135115730597,259,0,/odom,ucmd_vector,0,0,0,2.95050295454,0.135259705291,0.0,0.0,0.0,0.13355842764,0.991040940833,0.0111846038198,0.05,0.05,0.0,0.0,1.0,1.0,0,0,,,0
1449617135145535628,260,0,/odom,ucmd_vector,0,0,0,2.95506981417,0.138769210975,0.0,0.0,0.0,0.13355842764,0.991040940833,0.0111846038198,0.05,0.05,0.0,0.0,1.0,1.0,0,0,,,0
1449617135186024213,261,0,/odom,ucmd_vector,0,0,0,2.95506981417,0.138769210975,0.0,0.0,0.0,0.13355842764,0.991040940833,0.0111846038198,0.05,0.05,0.0,0.0,1.0,1.0,0,0,,,0
1449617135213519338,262,0,/odom,ucmd_vector,0,0,0,2.9596366738,0.142278716658,0.0,0.0,0.0,0.13355842764,0.991040940833,0.0111846038198,0.05,0.05,0.0,0.0,1.0,1.0,0,0,,,0
1449617135299799245,263,0,/odom,ucmd_vector,0,0,0,2.9596366738,0.142278716658,0.0,0.0,0.0,0.13355842764,0.991040940833,0.0111846038198,0.05,0.05,0.0,0.0,1.0,1.0,0,0,,,0
1449617135349768580,264,0,/odom,ucmd_vector,0,0,0,2.96420353343,0.145788222341,0.0,0.0,0.0,0.130411598388,0.991459941201,0.0111846038198,0.05,0.05,0.0,0.0,1.0,1.0,0,0,,,0
1449617135424205211,265,0,/odom,ucmd_vector,0,0,0,2.96877039306,0.149297728025,0.0,0.0,0.0,0.130411598388,0.991459941201,0.0111846038198,0.05,0.05,0.0,0.0,1.0,1.0,0,0,,,0
1449617135464003852,266,0,/odom,ucmd_vector,0,0,0,2.97333725269,0.152807233708,0.0,0.0,0.0,0.13355842764,0.991040940833,0.0111846038198,0.05,0.05,0.0,0.0,1.0,1.0,0,0,,,0
1449617135489999154,267,0,/odom,ucmd_vector,0,0,0,2.97563909896,0.154537757614,0.0,0.0,0.0,0.125170903704,0.992135194853,0.0111846038198,0.05,0.05,0.0,0.0,1.0,1.0,0,0,,,0
1449617135524677277,268,0,/odom,ucmd_vector,0,0,0,2.97792252878,0.156292510455,0.0,0.0,0.0,0.130411598388,0.991459941201,0.0111846038198,0.05,0.05,0.0,0.0,1.0,1.0,0,0,,,0
1449617135553374915,269,0,/odom,ucmd_vector,0,0,0,2.98022437505,0.158023034361,0.0,0.0,0.0,0.125170903704,0.992135194853,0.0111846038198,0.05,0.05,0.0,0.0,1.0,1.0,0,0,,,0
1449617135579783653,270,0,/odom,ucmd_vector,0,0,0,2.98022437505,0.158023034361,0.0,0.0,0.0,0.125170903704,0.992135194853,0.0111846038198,0.05,0.05,0.0,0.0,1.0,1.0,0,0,,,0
1449617135649192609,271,0,/odom,ucmd_vector,0,0,0,2.98250780487,0.159777787203,0.0,0.0,0.0,0.130411598388,0.991459941201,0.0111846038198,0.05,0.05,0.0,0.0,1.0,1.0,0,0,,,0
1449617135691643420,272,0,/odom,ucmd_vector,0,0,0,2.98709308095,0.16326306395,0.0,0.0,0.0,0.130411598388,0.991459941201,0.0111846038198,0.05,0.05,0.0,0.0,1.0,1.0,0,0,,,0
1449617135724948225,273,0,/odom,ucmd_vector,0,0,0,2.98939492723,0.164993587856,0.0,0.0,0.0,0.128319903023,0.991732828179,0.0111846038198,0.05,0.05,0.0,0.0,1.0,1.0,0,0,,,0
1449617135796890399,274,0,/odom,ucmd_vector,0,0,0,2.99167835704,0.166748340698,0.0,0.0,0.0,0.13355842764,0.991040940833,0.0111846038198,0.05,0.05,0.0,0.0,1.0,1.0,0,0,,,0
1449617135830079974,275,0,/odom,ucmd_vector,0,0,0,2.99398020331,0.168478864603,0.0,0.0,0.0,0.125170903704,0.992135194853,0.0111846038198,0.05,0.05,0.0,0.0,1.0,1.0,0,0,,,0
1449617135870516223,276,0,/odom,ucmd_vector,0,0,0,2.99626363313,0.170233617445,0.0,0.0,0.0,0.130411598388,0.991459941201,0.0111846038198,0.05,0.05,0.0,0.0,1.0,1.0,0,0,,,0
1449617135906385882,277,0,/odom,ucmd_vector,0,0,0,2.9985654794,0.171964141351,0.0,0.0,0.0,0.128319903023,0.991732828179,0.0111846038198,0.05,0.05,0.0,0.0,1.0,1.0,0,0,,,0
1449617135950610832,278,0,/odom,ucmd_vector,0,0,0,3.00084890922,0.173718894192,0.0,0.0,0.0,0.13355842764,0.991040940833,0.0111846038198,0.05,0.05,0.0,0.0,1.0,1.0,0,0,,,0
1449617135990207985,279,0,/odom,ucmd_vector,0,0,0,3.00315075549,0.175449418098,0.0,0.0,0.0,0.128319903023,0.991732828179,0.0111846038198,0.05,0.05,0.0,0.0,1.0,1.0,0,0,,,0
1449617136055312967,280,0,/odom,ucmd_vector,0,0,0,3.00775444804,0.178910465909,0.0,0.0,0.0,0.128319903023,0.991732828179,0.0111846038198,0.05,0.05,0.0,0.0,1.0,1.0,0,0,,,0
1449617136111718748,281,0,/odom,ucmd_vector,0,0,0,3.01235814058,0.182371513721,0.0,0.0,0.0,0.128319903023,0.991732828179,0.0111846038198,0.05,0.05,0.0,0.0,1.0,1.0,0,0,,,0
1449617136161847689,282,0,/odom,ucmd_vector,0,0,0,3.01235814058,0.182371513721,0.0,0.0,0.0,0.128319903023,0.991732828179,0.0111846038198,0.05,0.05,0.0,0.0,1.0,1.0,0,0,,,0
1449617136186411859,283,0,/odom,ucmd_vector,0,0,0,3.01235814058,0.182371513721,0.0,0.0,0.0,0.128319903023,0.991732828179,0.0111846038198,0.05,0.05,0.0,0.0,1.0,1.0,0,0,,,0
1449617136247313137,284,0,/odom,ucmd_vector,0,0,0,3.01696183313,0.185832561532,0.0,0.0,0.0,0.125170903704,0.992135194853,0.0111846038198,0.05,0.05,0.0,0.0,1.0,1.0,0,0,,,0
1449617136304782534,285,0,/odom,ucmd_vector,0,0,0,3.02158368506,0.189269187138,0.0,0.0,0.0,0.125170903704,0.992135194853,0.0111846038198,0.05,0.05,0.0,0.0,1.0,1.0,0,0,,,0
1449617136353149473,286,0,/odom,ucmd_vector,0,0,0,3.02158368506,0.189269187138,0.0,0.0,0.0,0.128319903023,0.991732828179,0.0111846038198,0.05,0.05,0.0,0.0,1.0,1.0,0,0,,,0
1449617136389621896,287,0,/odom,ucmd_vector,0,0,0,3.0261873776,0.19273023495,0.0,0.0,0.0,0.128319903023,0.991732828179,0.0111846038198,0.05,0.05,0.0,0.0,1.0,1.0,0,0,,,0
1449617136442067367,288,0,/odom,ucmd_vector,0,0,0,3.0261873776,0.19273023495,0.0,0.0,0.0,0.128319903023,0.991732828179,0.0111846038198,0.05,0.05,0.0,0.0,1.0,1.0,0,0,,,0
1449617136502268568,289,0,/odom,ucmd_vector,0,0,0,3.03080922953,0.196166860556,0.0,0.0,0.0,0.128319903023,0.991732828179,0.0111846038198,0.05,0.05,0.0,0.0,1.0,1.0,0,0,,,0
1449617136520513552,290,0,/odom,ucmd_vector,0,0,0,3.03312923519,0.197872962256,0.0,0.0,0.0,0.119926714141,0.992782747249,0.0111846038198,0.05,0.05,0.0,0.0,1.0,1.0,0,0,,,0
1449617136560628030,291,0,/odom,ucmd_vector,0,0,0,3.03312923519,0.197872962256,0.0,0.0,0.0,0.119926714141,0.992782747249,0.0111846038198,0.05,0.05,0.0,0.0,1.0,1.0,0,0,,,0
1449617136603721218,292,0,/odom,ucmd_vector,0,0,0,3.03543108146,0.199603486162,0.0,0.0,0.0,0.128319903023,0.991732828179,0.0111846038198,0.05,0.05,0.0,0.0,1.0,1.0,0,0,,,0
1449617136650294171,293,0,/odom,ucmd_vector,0,0,0,3.03775108712,0.201309587862,0.0,0.0,0.0,0.123077795604,0.992397025504,0.0111846038198,0.05,0.05,0.0,0.0,1.0,1.0,0,0,,,0
1449617136670464456,294,0,/odom,ucmd_vector,0,0,0,3.04239109843,0.204721791263,0.0,0.0,0.0,0.123077795604,0.992397025504,0.0111846038198,0.05,0.05,0.0,0.0,1.0,1.0,0,0,,,0
1449617136704779804,295,0,/odom,ucmd_vector,0,0,0,3.04239109843,0.204721791263,0.0,0.0,0.0,0.119926714141,0.992782747249,0.0111846038198,0.05,0.05,0.0,0.0,1.0,1.0,0,0,,,0
1449617136759526143,296,0,/odom,ucmd_vector,0,0,0,3.04239109843,0.204721791263,0.0,0.0,0.0,0.119926714141,0.992782747249,0.0111846038198,0.05,0.05,0.0,0.0,1.0,1.0,0,0,,,0
1449617136788494479,297,0,/odom,ucmd_vector,0,0,0,3.04703110974,0.208133994663,0.0,0.0,0.0,0.119926714141,0.992782747249,0.0111846038198,0.05,0.05,0.0,0.0,1.0,1.0,0,0,,,0
1449617136848695003,298,0,/odom,ucmd_vector,0,0,0,3.04703110974,0.208133994663,0.0,0.0,0.0,0.123077795604,0.992397025504,0.0111846038198,0.05,0.05,0.0,0.0,1.0,1.0,0,0,,,0
1449617136902656510,299,0,/odom,ucmd_vector,0,0,0,3.05168902133,0.211521585317,0.0,0.0,0.0,0.123077795604,0.992397025504,0.0111846038198,0.05,0.05,0.0,0.0,1.0,1.0,0,0,,,0
1449617136937029957,300,0,/odom,ucmd_vector,0,0,0,3.05168902133,0.211521585317,0.0,0.0,0.0,0.123077795604,0.992397025504,0.0111846038198,0.05,0.05,0.0,0.0,1.0,1.0,0,0,,,0
1449617136957896913,301,0,/odom,ucmd_vector,0,0,0,3.05402692726,0.21320307427,0.0,0.0,0.0,0.11783225175,0.993033514262,0.0111846038198,0.05,0.05,0.0,0.0,1.0,1.0,0,0,,,0
1449617137002459820,302,0,/odom,ucmd_vector,0,0,0,3.05402692726,0.21320307427,0.0,0.0,0.0,0.11783225175,0.993033514262,0.0111846038198,0.05,0.05,0.0,0.0,1.0,1.0,0,0,,,0
1449617137043452716,303,0,/odom,ucmd_vector,0,0,0,3.05634693292,0.21490917597,0.0,0.0,0.0,0.123077795604,0.992397025504,0.0111846038198,0.05,0.05,0.0,0.0,1.0,1.0,0,0,,,0
1449617137115682793,304,0,/odom,ucmd_vector,0,0,0,3.06100484451,0.218296766624,0.0,0.0,0.0,0.123077795604,0.992397025504,0.0111846038198,0.05,0.05,0.0,0.0,1.0,1.0,0,0,,,0
1449617137172263413,305,0,/odom,ucmd_vector,0,0,0,3.06334275044,0.219978255577,0.0,0.0,0.0,0.11783225175,0.993033514262,0.0111846038198,0.05,0.05,0.0,0.0,1.0,1.0,0,0,,,0
1449617137199744017,306,0,/odom,ucmd_vector,0,0,0,3.06334275044,0.219978255577,0.0,0.0,0.0,0.114679176124,0.993402580309,0.00559730190992,0.05,0.05,0.0,0.0,1.0,1.0,0,0,,,0
1449617137296656363,307,0,/odom,ucmd_vector,0,0,0,3.06801856231,0.223341233483,0.0,0.0,0.0,0.114679176124,0.993402580309,0.00559730190992,0.05,0.05,0.0,0.0,1.0,1.0,0,0,,,0
1449617137392183598,308,0,/odom,ucmd_vector,0,0,0,3.07269437418,0.226704211389,0.0,0.0,0.0,0.114679176124,0.993402580309,0.00559730190992,0.05,0.05,0.0,0.0,1.0,1.0,0,0,,,0
1449617137416070236,309,0,/odom,ucmd_vector,0,0,0,3.07504991928,0.228360899801,0.0,0.0,0.0,0.109428436166,0.993994676725,0.0111846038198,0.05,0.05,0.0,0.0,1.0,1.0,0,0,,,0
1449617137526778659,310,0,/odom,ucmd_vector,0,0,0,3.07738782522,0.230042388754,0.0,0.0,0.0,0.114679176124,0.993402580309,0.00559730190992,0.05,0.05,0.0,0.0,1.0,1.0,0,0,,,0
1449617137552936091,311,0,/odom,ucmd_vector,0,0,0,3.08445446054,0.235012453992,0.0,0.0,0.0,0.109428436166,0.993994676725,0.00559730190992,0.05,0.05,0.0,0.0,1.0,1.0,0,0,,,0
1449617137605672979,312,0,/odom,ucmd_vector,0,0,0,3.08445446054,0.235012453992,0.0,0.0,0.0,0.109428436166,0.993994676725,0.00559730190992,0.05,0.05,0.0,0.0,1.0,1.0,0,0,,,0
1449617137630160257,313,0,/odom,ucmd_vector,0,0,0,3.08682738175,0.236644156841,0.0,0.0,0.0,0.104174640873,0.994559019968,0.00559730190992,0.05,0.05,0.0,0.0,1.0,1.0,0,0,,,0
1449617137686024522,314,0,/odom,ucmd_vector,0,0,0,3.08682738175,0.236644156841,0.0,0.0,0.0,0.104174640873,0.994559019968,0.00559730190992,0.05,0.05,0.0,0.0,1.0,1.0,0,0,,,0
1449617137722102071,315,0,/odom,ucmd_vector,0,0,0,3.08918292686,0.238300845254,0.0,0.0,0.0,0.109428436166,0.993994676725,0.00559730190992,0.05,0.05,0.0,0.0,1.0,1.0,0,0,,,0
1449617137755997902,316,0,/odom,ucmd_vector,0,0,0,3.08918292686,0.238300845254,0.0,0.0,0.0,0.109428436166,0.993994676725,0.00559730190992,0.05,0.05,0.0,0.0,1.0,1.0,0,0,,,0
1449617137807400691,317,0,/odom,ucmd_vector,0,0,0,3.09155584807,0.239932548103,0.0,0.0,0.0,0.107331440663,0.994223295767,0.0111846038198,0.05,0.05,0.0,0.0,1.0,1.0,0,0,,,0
1449617137837668101,318,0,/odom,ucmd_vector,0,0,0,3.09628431439,0.243220939365,0.0,0.0,0.0,0.107331440663,0.994223295767,0.0111846038198,0.05,0.05,0.0,0.0,1.0,1.0,0,0,,,0
1449617137877731961,319,0,/odom,ucmd_vector,0,0,0,3.09628431439,0.243220939365,0.0,0.0,0.0,0.107331440663,0.994223295767,0.0111846038198,0.05,0.05,0.0,0.0,1.0,1.0,0,0,,,0
1449617137939963721,320,0,/odom,ucmd_vector,0,0,0,3.09628431439,0.243220939365,0.0,0.0,0.0,0.107331440663,0.994223295767,0.0111846038198,0.05,0.05,0.0,0.0,1.0,1.0,0,0,,,0
1449617137976368636,321,0,/odom,ucmd_vector,0,0,0,3.10104726789,0.246459177266,0.0,0.0,0.0,0.107331440663,0.994223295767,0.0111846038198,0.05,0.05,0.0,0.0,1.0,1.0,0,0,,,0
1449617138014839565,322,0,/odom,ucmd_vector,0,0,0,3.10104726789,0.246459177266,0.0,0.0,0.0,0.104174640873,0.994559019968,0.0111846038198,0.05,0.05,0.0,0.0,1.0,1.0,0,0,,,0
1449617138059622454,323,0,/odom,ucmd_vector,0,0,0,3.10343730019,0.248065712319,0.0,0.0,0.0,0.0989179369366,0.995095594278,0.0111846038198,0.05,0.05,0.0,0.0,1.0,1.0,0,0,,,0
1449617138098807420,324,0,/odom,ucmd_vector,0,0,0,3.1058102214,0.249697415168,0.0,0.0,0.0,0.104174640873,0.994559019968,0.0111846038198,0.05,0.05,0.0,0.0,1.0,1.0,0,0,,,0
1449617138117067474,325,0,/odom,ucmd_vector,0,0,0,3.1058102214,0.249697415168,0.0,0.0,0.0,0.104174640873,0.994559019968,0.0111846038198,0.05,0.05,0.0,0.0,1.0,1.0,0,0,,,0
1449617138162876116,326,0,/odom,ucmd_vector,0,0,0,3.1058102214,0.249697415168,0.0,0.0,0.0,0.104174640873,0.994559019968,0.0111846038198,0.05,0.05,0.0,0.0,1.0,1.0,0,0,,,0
1449617138227841891,327,0,/odom,ucmd_vector,0,0,0,3.1082002537,0.25130395022,0.0,0.0,0.0,0.102076466623,0.994776555294,0.0111846038198,0.05,0.05,0.0,0.0,1.0,1.0,0,0,,,0
1449617138284368323,328,0,/odom,ucmd_vector,0,0,0,3.1105731749,0.252935653069,0.0,0.0,0.0,0.107331440663,0.994223295767,0.0111846038198,0.05,0.05,0.0,0.0,1.0,1.0,0,0,,,0
1449617138323494032,329,0,/odom,ucmd_vector,0,0,0,3.1129632072,0.254542188122,0.0,0.0,0.0,0.0989179369366,0.995095594278,0.0111846038198,0.05,0.05,0.0,0.0,1.0,1.0,0,0,,,0
1449617138343693839,330,0,/odom,ucmd_vector,0,0,0,3.1129632072,0.254542188122,0.0,0.0,0.0,0.0989179369366,0.995095594278,0.0111846038198,0.05,0.05,0.0,0.0,1.0,1.0,0,0,,,0
1449617138389181679,331,0,/odom,ucmd_vector,0,0,0,3.1129632072,0.254542188122,0.0,0.0,0.0,0.117853047737,0.993031046413,0.0111846038198,0.05,0.05,0.0,0.0,1.0,1.0,0,0,,,0
1449617138422113413,332,0,/odom,ucmd_vector,0,0,0,3.1129632072,0.254542188122,0.0,0.0,0.0,0.117853047737,0.993031046413,0.0111846038198,0.05,0.05,0.0,0.0,1.0,1.0,0,0,,,0
1449617138444110885,333,0,/odom,ucmd_vector,0,0,0,3.1129632072,0.254542188122,0.0,0.0,0.0,0.117853047737,0.993031046413,0.0111846038198,0.05,0.05,0.0,0.0,1.0,1.0,0,0,,,0
1449617138489766003,334,0,/odom,ucmd_vector,0,0,0,3.1129632072,0.254542188122,0.0,0.0,0.0,0.102076466623,0.994776555294,0.0111846038198,0.05,0.05,0.0,0.0,1.0,1.0,0,0,,,0
1449617138525078771,335,0,/odom,ucmd_vector,0,0,0,3.1129632072,0.254542188122,0.0,0.0,0.0,0.102076466623,0.994776555294,0.0111846038198,0.05,0.05,0.0,0.0,1.0,1.0,0,0,,,0
1449617138559107851,336,0,/odom,ucmd_vector,0,0,0,3.1129632072,0.254542188122,0.0,0.0,0.0,0.102076466623,0.994776555294,0.0111846038198,0.05,0.05,0.0,0.0,1.0,1.0,0,0,,,0
1449617138623194732,337,0,/odom,ucmd_vector,0,0,0,3.1129632072,0.254542188122,0.0,0.0,0.0,0.127304997973,0.991863618393,0.0111846038198,0.05,0.05,0.0,0.0,1.0,1.0,0,0,,,0
1449617138640483662,338,0,/odom,ucmd_vector,0,0,0,3.1129632072,0.254542188122,0.0,0.0,0.0,0.127304997973,0.991863618393,0.0111846038198,0.05,0.05,0.0,0.0,1.0,1.0,0,0,,,0
1449617138678535537,339,0,/odom,ucmd_vector,0,0,0,3.1129632072,0.254542188122,0.0,0.0,0.0,0.0989179369366,0.995095594278,0.0111846038198,0.05,0.05,0.0,0.0,1.0,1.0,0,0,,,0
1449617138705224023,340,0,/odom,ucmd_vector,0,0,0,3.1129632072,0.254542188122,0.0,0.0,0.0,0.0989179369366,0.995095594278,0.0111846038198,0.05,0.05,0.0,0.0,1.0,1.0,0,0,,,0
1449617138755701824,341,0,/odom,ucmd_vector,0,0,0,3.1129632072,0.254542188122,0.0,0.0,0.0,0.0989179369366,0.995095594278,0.0111846038198,0.05,0.05,0.0,0.0,1.0,1.0,0,0,,,0
1449617138812046038,342,0,/odom,ucmd_vector,0,0,0,3.1129632072,0.254542188122,0.0,0.0,0.0,0.0989179369366,0.995095594278,0.0111846038198,0.05,0.05,0.0,0.0,1.0,1.0,0,0,,,0
1449617138853987907,343,0,/odom,ucmd_vector,0,0,0,3.1129632072,0.254542188122,0.0,0.0,0.0,0.127304997973,0.991863618393,0.0111846038198,0.05,0.05,0.0,0.0,1.0,1.0,0,0,,,0
1449617138880721450,344,0,/odom,ucmd_vector,0,0,0,3.1129632072,0.254542188122,0.0,0.0,0.0,0.127304997973,0.991863618393,0.296136987457,0.05,0.05,0.0,0.0,1.0,1.0,0,0,,,0
1449617138931242805,345,0,/odom,ucmd_vector,0,0,0,3.1129632072,0.254542188122,0.0,0.0,0.0,0.127304997973,0.991863618393,0.296136987457,0.05,0.05,0.0,0.0,1.0,1.0,0,0,,,0
