%time,field.header.seq,field.header.stamp,field.header.frame_id,field.ns,field.id,field.type,field.action,field.pose.position.x,field.pose.position.y,field.pose.position.z,field.pose.orientation.x,field.pose.orientation.y,field.pose.orientation.z,field.pose.orientation.w,field.scale.x,field.scale.y,field.scale.z,field.color.r,field.color.g,field.color.b,field.color.a,field.lifetime,field.frame_locked,field.text,field.mesh_resource,field.mesh_use_embedded_materials
1449617108835935462,0,1449617108834782336,/odom,ga,1,0,0,nan,nan,0.0,nan,nan,nan,nan,0.25,0.15,0.0,1.0,0.0,0.0,1.0,2000000000,0,,,0
1449617108835939434,1,1449617108835133238,/odom,ga,2,2,0,nan,nan,0.0,0.0,0.0,0.0,0.0,0.15,0.15,0.01,0.0,1.0,0.0,1.0,2000000000,0,,,0
1449617108914045980,2,1449617108912884091,/odom,ga,1,0,0,nan,nan,0.0,nan,nan,nan,nan,0.25,0.15,0.0,1.0,0.0,0.0,1.0,2000000000,0,,,0
1449617108914074199,3,1449617108913303033,/odom,ga,2,2,0,nan,nan,0.0,0.0,0.0,0.0,0.0,0.15,0.15,0.01,0.0,1.0,0.0,1.0,2000000000,0,,,0
1449617108976339782,4,1449617108975917192,/odom,ga,1,0,0,0.0,0.0,0.0,0.0,0.0,0.0,1.0,0.25,0.15,0.0,1.0,0.0,0.0,1.0,2000000000,0,,,0
1449617108976468635,5,1449617108976210125,/odom,ga,2,2,0,0.0,0.0,0.0,0.0,0.0,0.0,0.0,0.15,0.15,0.01,0.0,1.0,0.0,1.0,2000000000,0,,,0
1449617109077512128,6,1449617109076842372,/odom,ga,1,0,0,0.0,0.0,0.0,0.0,0.0,0.0,1.0,0.25,0.15,0.0,1.0,0.0,0.0,1.0,2000000000,0,,,0
1449617109077516651,7,1449617109077078890,/odom,ga,2,2,0,0.0,0.0,0.0,0.0,0.0,0.0,0.0,0.15,0.15,0.01,0.0,1.0,0.0,1.0,2000000000,0,,,0
1449617109181932619,8,1449617109181118625,/odom,ga,1,0,0,0.0,0.0,0.0,0.0,0.0,0.0,1.0,0.25,0.15,0.0,1.0,0.0,0.0,1.0,2000000000,0,,,0
1449617109181952293,9,1449617109181266912,/odom,ga,2,2,0,0.0,0.0,0.0,0.0,0.0,0.0,0.0,0.15,0.15,0.01,0.0,1.0,0.0,1.0,2000000000,0,,,0
1449617109277871881,10,1449617109277308601,/odom,ga,1,0,0,0.0,0.0,0.0,0.0,0.0,0.0,1.0,0.25,0.15,0.0,1.0,0.0,0.0,1.0,2000000000,0,,,0
1449617109278023917,11,1449617109277426595,/odom,ga,2,2,0,0.0,0.0,0.0,0.0,0.0,0.0,0.0,0.15,0.15,0.01,0.0,1.0,0.0,1.0,2000000000,0,,,0
1449617109330270295,12,1449617109329737097,/odom,ga,1,0,0,0.0,0.0,0.0,0.0,0.0,0.0,1.0,0.25,0.15,0.0,1.0,0.0,0.0,1.0,2000000000,0,,,0
1449617109330274058,13,1449617109329916044,/odom,ga,2,2,0,0.0,0.0,0.0,0.0,0.0,0.0,0.0,0.15,0.15,0.01,0.0,1.0,0.0,1.0,2000000000,0,,,0
1449617109424380528,14,1449617109423994585,/odom,ga,1,0,0,0.0,0.0,0.0,0.0,0.0,0.0,1.0,0.25,0.15,0.0,1.0,0.0,0.0,1.0,2000000000,0,,,0
1449617109424383683,15,1449617109424128393,/odom,ga,2,2,0,0.0,0.0,0.0,0.0,0.0,0.0,0.0,0.15,0.15,0.01,0.0,1.0,0.0,1.0,2000000000,0,,,0
1449617109545112195,16,1449617109543660319,/odom,ga,1,0,0,0.0,0.0,0.0,0.0,0.0,0.0,1.0,0.25,0.15,0.0,1.0,0.0,0.0,1.0,2000000000,0,,,0
1449617109545115811,17,1449617109544469482,/odom,ga,2,2,0,0.0,0.0,0.0,0.0,0.0,0.0,0.0,0.15,0.15,0.01,0.0,1.0,0.0,1.0,2000000000,0,,,0
1449617109624607265,18,1449617109624467326,/odom,ga,1,0,0,0.0,0.0,0.0,0.0,0.0,0.0,1.0,0.25,0.15,0.0,1.0,0.0,0.0,1.0,2000000000,0,,,0
1449617109625285587,19,1449617109624848725,/odom,ga,2,2,0,0.0,0.0,0.0,0.0,0.0,0.0,0.0,0.15,0.15,0.01,0.0,1.0,0.0,1.0,2000000000,0,,,0
1449617109784482185,20,1449617109783107288,/odom,ga,1,0,0,0.0,0.0,0.0,0.0,0.0,0.0,1.0,0.25,0.15,0.0,1.0,0.0,0.0,1.0,2000000000,0,,,0
1449617109784487299,21,1449617109784022458,/odom,ga,2,2,0,0.0,0.0,0.0,0.0,0.0,0.0,0.0,0.15,0.15,0.01,0.0,1.0,0.0,1.0,2000000000,0,,,0
1449617109817263625,22,1449617109817026900,/odom,ga,1,0,0,0.0,0.0,0.0,0.0,0.0,0.0,1.0,0.25,0.15,0.0,1.0,0.0,0.0,1.0,2000000000,0,,,0
1449617109817724654,23,1449617109817456132,/odom,ga,2,2,0,0.0,0.0,0.0,0.0,0.0,0.0,0.0,0.15,0.15,0.01,0.0,1.0,0.0,1.0,2000000000,0,,,0
1449617109923672943,24,1449617109922762258,/odom,ga,1,0,0,0.0,0.0,0.0,0.0,0.0,0.0,1.0,0.25,0.15,0.0,1.0,0.0,0.0,1.0,2000000000,0,,,0
1449617109923677901,25,1449617109922994060,/odom,ga,2,2,0,0.0,0.0,0.0,0.0,0.0,0.0,0.0,0.15,0.15,0.01,0.0,1.0,0.0,1.0,2000000000,0,,,0
1449617110024150227,26,1449617110022887085,/odom,ga,1,0,0,0.0,0.0,0.0,0.0,0.0,0.0,1.0,0.25,0.15,0.0,1.0,0.0,0.0,1.0,2000000000,0,,,0
1449617110024154214,27,1449617110023247096,/odom,ga,2,2,0,0.0,0.0,0.0,0.0,0.0,0.0,0.0,0.15,0.15,0.01,0.0,1.0,0.0,1.0,2000000000,0,,,0
1449617110118572581,28,1449617110117335863,/odom,ga,1,0,0,0.0,0.0,0.0,0.0,0.0,0.0,1.0,0.25,0.15,0.0,1.0,0.0,0.0,1.0,2000000000,0,,,0
1449617110118578242,29,1449617110117519905,/odom,ga,2,2,0,0.0,0.0,0.0,0.0,0.0,0.0,0.0,0.15,0.15,0.01,0.0,1.0,0.0,1.0,2000000000,0,,,0
1449617110223943152,30,1449617110223466100,/odom,ga,1,0,0,0.0,0.0,0.0,0.0,0.0,0.0,1.0,0.25,0.15,0.0,1.0,0.0,0.0,1.0,2000000000,0,,,0
1449617110223965175,31,1449617110223840371,/odom,ga,2,2,0,0.0,0.0,0.0,0.0,0.0,0.0,0.0,0.15,0.15,0.01,0.0,1.0,0.0,1.0,2000000000,0,,,0
1449617110351669768,32,1449617110349748641,/odom,ga,1,0,0,0.0,0.0,0.0,0.0,0.0,0.0,1.0,0.25,0.15,0.0,1.0,0.0,0.0,1.0,2000000000,0,,,0
1449617110355059038,33,1449617110350566950,/odom,ga,2,2,0,0.0,0.0,0.0,0.0,0.0,0.0,0.0,0.15,0.15,0.01,0.0,1.0,0.0,1.0,2000000000,0,,,0
1449617110422198356,34,1449617110421235615,/odom,ga,1,0,0,0.0,0.0,0.0,0.0,0.0,0.0,1.0,0.25,0.15,0.0,1.0,0.0,0.0,1.0,2000000000,0,,,0
1449617110422201283,35,1449617110422002372,/odom,ga,2,2,0,0.0,0.0,0.0,0.0,0.0,0.0,0.0,0.15,0.15,0.01,0.0,1.0,0.0,1.0,2000000000,0,,,0
1449617110583132161,36,1449617110582858535,/odom,ga,1,0,0,0.0,0.0,0.0,0.0,0.0,0.0,1.0,0.25,0.15,0.0,1.0,0.0,0.0,1.0,2000000000,0,,,0
1449617110583587585,37,1449617110583420872,/odom,ga,2,2,0,0.0,0.0,0.0,0.0,0.0,0.0,0.0,0.15,0.15,0.01,0.0,1.0,0.0,1.0,2000000000,0,,,0
1449617110637429246,38,1449617110636692676,/odom,ga,1,0,0,0.0,0.0,0.0,0.0,0.0,0.0,1.0,0.25,0.15,0.0,1.0,0.0,0.0,1.0,2000000000,0,,,0
1449617110637432064,39,1449617110636886778,/odom,ga,2,2,0,0.0,0.0,0.0,0.0,0.0,0.0,0.0,0.15,0.15,0.01,0.0,1.0,0.0,1.0,2000000000,0,,,0
1449617110736956852,40,1449617110736719796,/odom,ga,1,0,0,0.0,0.0,0.0,0.0,0.0,0.0,1.0,0.25,0.15,0.0,1.0,0.0,0.0,1.0,2000000000,0,,,0
1449617110737780718,41,1449617110737014836,/odom,ga,2,2,0,0.0,0.0,0.0,0.0,0.0,0.0,0.0,0.15,0.15,0.01,0.0,1.0,0.0,1.0,2000000000,0,,,0
1449617110824468543,42,1449617110823894138,/odom,ga,1,0,0,0.0,0.0,0.0,0.0,0.0,0.0,1.0,0.25,0.15,0.0,1.0,0.0,0.0,1.0,2000000000,0,,,0
1449617110824472442,43,1449617110824245216,/odom,ga,2,2,0,0.0,0.0,0.0,0.0,0.0,0.0,0.0,0.15,0.15,0.01,0.0,1.0,0.0,1.0,2000000000,0,,,0
1449617110931561928,44,1449617110930124557,/odom,ga,1,0,0,0.0,0.0,0.0,0.0,0.0,0.0,1.0,0.25,0.15,0.0,1.0,0.0,0.0,1.0,2000000000,0,,,0
1449617110931566282,45,1449617110930400436,/odom,ga,2,2,0,0.0,0.0,0.0,0.0,0.0,0.0,0.0,0.15,0.15,0.01,0.0,1.0,0.0,1.0,2000000000,0,,,0
1449617111027347967,46,1449617111027018298,/odom,ga,1,0,0,0.0,0.0,0.0,0.0,0.0,0.0,1.0,0.25,0.15,0.0,1.0,0.0,0.0,1.0,2000000000,0,,,0
1449617111027957352,47,1449617111027415959,/odom,ga,2,2,0,0.0,0.0,0.0,0.0,0.0,0.0,0.0,0.15,0.15,0.01,0.0,1.0,0.0,1.0,2000000000,0,,,0
1449617111126586824,48,1449617111125928652,/odom,ga,1,0,0,0.0,0.0,0.0,0.0,0.0,0.0,1.0,0.25,0.15,0.0,1.0,0.0,0.0,1.0,2000000000,0,,,0
1449617111126590642,49,1449617111126325002,/odom,ga,2,2,0,0.0,0.0,0.0,0.0,0.0,0.0,0.0,0.15,0.15,0.01,0.0,1.0,0.0,1.0,2000000000,0,,,0
1449617111233552012,50,1449617111232481512,/odom,ga,1,0,0,0.0,0.0,0.0,0.0,0.0,0.0,1.0,0.25,0.15,0.0,1.0,0.0,0.0,1.0,2000000000,0,,,0
1449617111233555940,51,1449617111232838764,/odom,ga,2,2,0,0.0,0.0,0.0,0.0,0.0,0.0,0.0,0.15,0.15,0.01,0.0,1.0,0.0,1.0,2000000000,0,,,0
1449617111326766910,52,1449617111326248852,/odom,ga,1,0,0,0.0,0.0,0.0,0.0,0.0,0.0,1.0,0.25,0.15,0.0,1.0,0.0,0.0,1.0,2000000000,0,,,0
1449617111326772147,53,1449617111326585855,/odom,ga,2,2,0,0.0,0.0,0.0,0.0,0.0,0.0,0.0,0.15,0.15,0.01,0.0,1.0,0.0,1.0,2000000000,0,,,0
1449617111424145905,54,1449617111423078655,/odom,ga,1,0,0,0.0,0.0,0.0,0.0,0.0,0.0,1.0,0.25,0.15,0.0,1.0,0.0,0.0,1.0,2000000000,0,,,0
1449617111424160820,55,1449617111423392503,/odom,ga,2,2,0,0.0,0.0,0.0,0.0,0.0,0.0,0.0,0.15,0.15,0.01,0.0,1.0,0.0,1.0,2000000000,0,,,0
1449617111530543044,56,1449617111525553824,/odom,ga,1,0,0,0.0,0.0,0.0,0.0,0.0,0.0,1.0,0.25,0.15,0.0,1.0,0.0,0.0,1.0,2000000000,0,,,0
1449617111530558250,57,1449617111525942040,/odom,ga,2,2,0,0.0,0.0,0.0,0.0,0.0,0.0,0.0,0.15,0.15,0.01,0.0,1.0,0.0,1.0,2000000000,0,,,0
1449617111650493264,58,1449617111645972204,/odom,ga,1,0,0,0.0,0.0,0.0,0.0,0.0,0.0,1.0,0.25,0.15,0.0,1.0,0.0,0.0,1.0,2000000000,0,,,0
1449617111650554016,59,1449617111646377995,/odom,ga,2,2,0,0.0,0.0,0.0,0.0,0.0,0.0,0.0,0.15,0.15,0.01,0.0,1.0,0.0,1.0,2000000000,0,,,0
1449617111727990786,60,1449617111727590298,/odom,ga,1,0,0,0.0,0.0,0.0,0.0,0.0,0.0,1.0,0.25,0.15,0.0,1.0,0.0,0.0,1.0,2000000000,0,,,0
1449617111727994940,61,1449617111727756115,/odom,ga,2,2,0,0.0,0.0,0.0,0.0,0.0,0.0,0.0,0.15,0.15,0.01,0.0,1.0,0.0,1.0,2000000000,0,,,0
1449617111817390004,62,1449617111817174312,/odom,ga,1,0,0,0.0,0.0,0.0,0.0,0.0,0.0,1.0,0.25,0.15,0.0,1.0,0.0,0.0,1.0,2000000000,0,,,0
1449617111822017623,63,1449617111817346645,/odom,ga,2,2,0,0.0,0.0,0.0,0.0,0.0,0.0,0.0,0.15,0.15,0.01,0.0,1.0,0.0,1.0,2000000000,0,,,0
1449617111920519052,64,1449617111919735364,/odom,ga,1,0,0,0.0,0.0,0.0,0.0,0.0,0.0,1.0,0.25,0.15,0.0,1.0,0.0,0.0,1.0,2000000000,0,,,0
1449617111920522969,65,1449617111920046492,/odom,ga,2,2,0,0.0,0.0,0.0,0.0,0.0,0.0,0.0,0.15,0.15,0.01,0.0,1.0,0.0,1.0,2000000000,0,,,0
1449617112030561434,66,1449617112030387089,/odom,ga,1,0,0,0.0,0.0,0.0,0.0,0.0,0.0,1.0,0.25,0.15,0.0,1.0,0.0,0.0,1.0,2000000000,0,,,0
1449617112030884417,67,1449617112030607568,/odom,ga,2,2,0,0.0,0.0,0.0,0.0,0.0,0.0,0.0,0.15,0.15,0.01,0.0,1.0,0.0,1.0,2000000000,0,,,0
1449617112121316766,68,1449617112120200193,/odom,ga,1,0,0,0.0,0.0,0.0,0.0,0.0,0.0,1.0,0.25,0.15,0.0,1.0,0.0,0.0,1.0,2000000000,0,,,0
1449617112121339849,69,1449617112120391205,/odom,ga,2,2,0,0.0,0.0,0.0,0.0,0.0,0.0,0.0,0.15,0.15,0.01,0.0,1.0,0.0,1.0,2000000000,0,,,0
1449617112220877172,70,1449617112220072233,/odom,ga,1,0,0,0.0,0.0,0.0,0.0,0.0,0.0,1.0,0.25,0.15,0.0,1.0,0.0,0.0,1.0,2000000000,0,,,0
1449617112220912341,71,1449617112220433330,/odom,ga,2,2,0,0.0,0.0,0.0,0.0,0.0,0.0,0.0,0.15,0.15,0.01,0.0,1.0,0.0,1.0,2000000000,0,,,0
1449617112340177224,72,1449617112339156838,/odom,ga,1,0,0,0.0,0.0,0.0,0.0,0.0,0.0,1.0,0.25,0.15,0.0,1.0,0.0,0.0,1.0,2000000000,0,,,0
1449617112340181243,73,1449617112339568052,/odom,ga,2,2,0,0.0,0.0,0.0,0.0,0.0,0.0,0.0,0.15,0.15,0.01,0.0,1.0,0.0,1.0,2000000000,0,,,0
1449617112420408791,74,1449617112419620713,/odom,ga,1,0,0,0.0,0.0,0.0,0.0,0.0,0.0,1.0,0.25,0.15,0.0,1.0,0.0,0.0,1.0,2000000000,0,,,0
1449617112420411794,75,1449617112419939108,/odom,ga,2,2,0,0.0,0.0,0.0,0.0,0.0,0.0,0.0,0.15,0.15,0.01,0.0,1.0,0.0,1.0,2000000000,0,,,0
1449617112522912209,76,1449617112521216964,/odom,ga,1,0,0,0.0,0.0,0.0,0.0,0.0,0.0,1.0,0.25,0.15,0.0,1.0,0.0,0.0,1.0,2000000000,0,,,0
1449617112522927367,77,1449617112521491956,/odom,ga,2,2,0,0.0,0.0,0.0,0.0,0.0,0.0,0.0,0.15,0.15,0.01,0.0,1.0,0.0,1.0,2000000000,0,,,0
1449617112639468063,78,1449617112638238878,/odom,ga,1,0,0,0.0,0.0,0.0,0.0,0.0,0.0,1.0,0.25,0.15,0.0,1.0,0.0,0.0,1.0,2000000000,0,,,0
1449617112639471815,79,1449617112638946266,/odom,ga,2,2,0,0.0,0.0,0.0,0.0,0.0,0.0,0.0,0.15,0.15,0.01,0.0,1.0,0.0,1.0,2000000000,0,,,0
1449617112718154697,80,1449617112718070581,/odom,ga,1,0,0,0.0,0.0,0.0,0.0,0.0,0.0,1.0,0.25,0.15,0.0,1.0,0.0,0.0,1.0,2000000000,0,,,0
1449617112718775686,81,1449617112718421616,/odom,ga,2,2,0,0.0,0.0,0.0,0.0,0.0,0.0,0.0,0.15,0.15,0.01,0.0,1.0,0.0,1.0,2000000000,0,,,0
1449617112829841052,82,1449617112828909997,/odom,ga,1,0,0,0.0,0.0,0.0,0.0,0.0,0.0,1.0,0.25,0.15,0.0,1.0,0.0,0.0,1.0,2000000000,0,,,0
1449617112829844354,83,1449617112829481916,/odom,ga,2,2,0,0.0,0.0,0.0,0.0,0.0,0.0,0.0,0.15,0.15,0.01,0.0,1.0,0.0,1.0,2000000000,0,,,0
1449617112952686497,84,1449617112950722847,/odom,ga,1,0,0,0.0,0.0,0.0,0.0,0.0,0.0,1.0,0.25,0.15,0.0,1.0,0.0,0.0,1.0,2000000000,0,,,0
1449617112952753325,85,1449617112951646518,/odom,ga,2,2,0,2.5314745903,-0.155206590891,0.668439984322,0.0,0.0,0.0,0.0,0.15,0.15,0.01,0.0,1.0,0.0,1.0,2000000000,0,,,0
1449617113018182568,86,1449617113018019318,/odom,ga,1,0,0,0.0,0.0,0.0,0.0,0.0,0.0,1.0,0.25,0.15,0.0,1.0,0.0,0.0,1.0,2000000000,0,,,0
1449617113019166741,87,1449617113018745416,/odom,ga,2,2,0,2.5314745903,-0.155206590891,0.668439984322,0.0,0.0,0.0,0.0,0.15,0.15,0.01,0.0,1.0,0.0,1.0,2000000000,0,,,0
1449617113123452816,88,1449617113121816634,/odom,ga,1,0,0,0.0,0.0,0.0,0.0,0.0,0.0,1.0,0.25,0.15,0.0,1.0,0.0,0.0,1.0,2000000000,0,,,0
1449617113123637583,89,1449617113122274858,/odom,ga,2,2,0,2.5314745903,-0.155206590891,0.668439984322,0.0,0.0,0.0,0.0,0.15,0.15,0.01,0.0,1.0,0.0,1.0,2000000000,0,,,0
1449617113221500457,90,1449617113220466343,/odom,ga,1,0,0,0.0,0.0,0.0,0.0,0.0,0.0,1.0,0.25,0.15,0.0,1.0,0.0,0.0,1.0,2000000000,0,,,0
1449617113221504746,91,1449617113220844702,/odom,ga,2,2,0,2.57789897919,-0.141501560807,0.688725709915,0.0,0.0,0.0,0.0,0.15,0.15,0.01,0.0,1.0,0.0,1.0,2000000000,0,,,0
1449617113331453425,92,1449617113330712945,/odom,ga,1,0,0,0.0,0.0,0.0,0.0,0.0,0.0,1.0,0.25,0.15,0.0,1.0,0.0,0.0,1.0,2000000000,0,,,0
1449617113331458445,93,1449617113331167596,/odom,ga,2,2,0,2.57789897919,-0.141501560807,0.688725709915,0.0,0.0,0.0,0.0,0.15,0.15,0.01,0.0,1.0,0.0,1.0,2000000000,0,,,0
1449617113417796576,94,1449617113417652312,/odom,ga,1,0,0,0.0,0.0,0.0,0.0,0.0,0.0,1.0,0.25,0.15,0.0,1.0,0.0,0.0,1.0,2000000000,0,,,0
1449617113418221321,95,1449617113418110658,/odom,ga,2,2,0,2.51619005203,-0.162337750196,0.667843163013,0.0,0.0,0.0,0.0,0.15,0.15,0.01,0.0,1.0,0.0,1.0,2000000000,0,,,0
1449617113533818610,96,1449617113533185755,/odom,ga,1,0,0,0.0,0.0,0.0,0.0,0.0,0.0,1.0,0.25,0.15,0.0,1.0,0.0,0.0,1.0,2000000000,0,,,0
1449617113533832953,97,1449617113533358296,/odom,ga,2,2,0,2.51619005203,-0.162337750196,0.667843163013,0.0,0.0,0.0,0.0,0.15,0.15,0.01,0.0,1.0,0.0,1.0,2000000000,0,,,0
1449617113618257994,98,1449617113618115579,/odom,ga,1,0,0,0.0,0.0,0.0,0.0,0.0,0.0,1.0,0.25,0.15,0.0,1.0,0.0,0.0,1.0,2000000000,0,,,0
1449617113618771885,99,1449617113618479555,/odom,ga,2,2,0,2.6159863472,-0.122726291418,0.737676620483,0.0,0.0,0.0,0.0,0.15,0.15,0.01,0.0,1.0,0.0,1.0,2000000000,0,,,0
1449617113722504386,100,1449617113721790716,/odom,ga,1,0,0,0.0,0.0,0.0,0.0,0.0,0.0,1.0,0.25,0.15,0.0,1.0,0.0,0.0,1.0,2000000000,0,,,0
1449617113722508084,101,1449617113722250688,/odom,ga,2,2,0,2.5297305584,-0.156563431025,0.677589416504,0.0,0.0,0.0,0.0,0.15,0.15,0.01,0.0,1.0,0.0,1.0,2000000000,0,,,0
1449617113845261394,102,1449617113845021231,/odom,ga,1,0,0,0.0,0.0,0.0,0.0,0.0,0.0,1.0,0.25,0.15,0.0,1.0,0.0,0.0,1.0,2000000000,0,,,0
1449617113845904738,103,1449617113845578351,/odom,ga,2,2,0,2.5297305584,-0.156563431025,0.677589416504,0.0,0.0,0.0,0.0,0.15,0.15,0.01,0.0,1.0,0.0,1.0,2000000000,0,,,0
1449617113920397427,104,1449617113920143005,/odom,ga,1,0,0,0.00287963245437,-3.04332289367e-05,0.0,0.0,0.0,-0.0052839997518,0.999986039576,0.25,0.15,0.0,1.0,0.0,0.0,1.0,2000000000,0,,,0
1449617113921013641,105,1449617113920846359,/odom,ga,2,2,0,2.5297305584,-0.156563431025,0.677589416504,0.0,0.0,0.0,0.0,0.15,0.15,0.01,0.0,1.0,0.0,1.0,2000000000,0,,,0
1449617114027448987,106,1449617114024219135,/odom,ga,1,0,0,0.00287963245437,-3.04332289367e-05,0.0,0.0,0.0,-0.0052839997518,0.999986039576,0.25,0.15,0.0,1.0,0.0,0.0,1.0,2000000000,0,,,0
1449617114027453980,107,1449617114024970857,/odom,ga,2,2,0,2.5297305584,-0.156563431025,0.677589416504,0.0,0.0,0.0,0.0,0.15,0.15,0.01,0.0,1.0,0.0,1.0,2000000000,0,,,0
1449617114159982970,108,1449617114156690368,/odom,ga,1,0,0,0.00575878249245,-9.12962879474e-05,0.0,0.0,0.0,-0.0105678519699,0.999944158693,0.25,0.15,0.0,1.0,0.0,0.0,1.0,2000000000,0,,,0
1449617114159986043,109,1449617114157557654,/odom,ga,2,2,0,2.54064917564,-0.14553886652,0.688477158546,0.0,0.0,0.0,0.0,0.15,0.15,0.01,0.0,1.0,0.0,1.0,2000000000,0,,,0
1449617114221585780,110,1449617114221409154,/odom,ga,1,0,0,0.0115162786013,-0.000243445438698,0.0,0.0,0.0,-0.0105678519699,0.999944158693,0.25,0.15,0.0,1.0,0.0,0.0,1.0,2000000000,0,,,0
1449617114223346902,111,1449617114221899838,/odom,ga,2,2,0,2.558365345,-0.139726221561,0.678362667561,0.0,0.0,0.0,0.0,0.15,0.15,0.01,0.0,1.0,0.0,1.0,2000000000,0,,,0
1449617114372331034,112,1449617114371576212,/odom,ga,1,0,0,0.0143946246721,-0.000334731530437,0.0,0.0,0.0,-0.0158514091245,0.999874358521,0.25,0.15,0.0,1.0,0.0,0.0,1.0,2000000000,0,,,0
1449617114372336729,113,1449617114371996984,/odom,ga,2,2,0,2.558365345,-0.139726221561,0.678362667561,0.0,0.0,0.0,0.0,0.15,0.15,0.01,0.0,1.0,0.0,1.0,2000000000,0,,,0
1449617114422876183,114,1449617114421927070,/odom,ga,1,0,0,0.0230285374559,-0.000639002643314,0.0,0.0,0.0,-0.0211345236944,0.999776641009,0.25,0.15,0.0,1.0,0.0,0.0,1.0,2000000000,0,,,0
1449617114422882232,115,1449617114422539787,/odom,ga,2,2,0,2.558365345,-0.139726221561,0.678362667561,0.0,0.0,0.0,0.0,0.15,0.15,0.01,0.0,1.0,0.0,1.0,2000000000,0,,,0
1449617114528964635,116,1449617114526180254,/odom,ga,1,0,0,0.0259068835267,-0.000730288735054,0.0,0.0,0.0,-0.0158514091245,0.999874358521,0.25,0.15,0.0,1.0,0.0,0.0,1.0,2000000000,0,,,0
1449617114528990130,117,1449617114526478433,/odom,ga,2,2,0,2.558365345,-0.139726221561,0.678362667561,0.0,0.0,0.0,0.0,0.15,0.15,0.01,0.0,1.0,0.0,1.0,2000000000,0,,,0
1449617114632585601,118,1449617114631700566,/odom,ga,1,0,0,0.0374168915242,-0.00118667161499,0.0,0.0,0.0,-0.0158514091245,0.999874358521,0.25,0.15,0.0,1.0,0.0,0.0,1.0,2000000000,0,,,0
1449617114632594013,119,1449617114631944944,/odom,ga,2,2,0,2.49097967148,-0.164316624403,0.668481767178,0.0,0.0,0.0,0.0,0.15,0.15,0.01,0.0,1.0,0.0,1.0,2000000000,0,,,0
1449617114722965795,120,1449617114722644128,/odom,ga,1,0,0,0.057308562288,-0.00172892323573,0.0,0.0,0.0,-0.0105678519699,0.999944158693,0.25,0.15,0.0,1.0,0.0,0.0,1.0,2000000000,0,,,0
1449617114724535898,121,1449617114723442861,/odom,ga,2,2,0,2.52247238159,-0.184789121151,0.678634524345,0.0,0.0,0.0,0.0,0.15,0.15,0.01,0.0,1.0,0.0,1.0,2000000000,0,,,0
1449617114829990840,122,1449617114828633772,/odom,ga,1,0,0,0.0706242089316,-0.00204084598491,0.0,0.0,0.0,-0.0105678519699,0.999944158693,0.25,0.15,0.0,1.0,0.0,0.0,1.0,2000000000,0,,,0
1449617114830032673,123,1449617114829121410,/odom,ga,2,2,0,2.54790616035,-0.163739979267,0.669314146042,0.0,0.0,0.0,0.0,0.15,0.15,0.01,0.0,1.0,0.0,1.0,2000000000,0,,,0
1449617114968869133,124,1449617114968142159,/odom,ga,1,0,0,0.0885433504952,-0.00227480355705,0.0,0.0,0.0,-0.0052839997518,0.999986039576,0.25,0.15,0.0,1.0,0.0,0.0,1.0,2000000000,0,,,0
1449617114970257475,125,1449617114968671897,/odom,ga,2,2,0,2.54790616035,-0.163739979267,0.669314146042,0.0,0.0,0.0,0.0,0.15,0.15,0.01,0.0,1.0,0.0,1.0,2000000000,0,,,0
1449617115031024731,126,1449617115029858876,/odom,ga,1,0,0,0.109082053901,-0.00224336563066,0.0,0.0,0.0,-0.00180585414206,0.999998369444,0.25,0.15,0.0,1.0,0.0,0.0,1.0,2000000000,0,,,0
1449617115031028971,127,1449617115030586430,/odom,ga,2,2,0,2.54790616035,-0.163739979267,0.669314146042,0.0,0.0,0.0,0.0,0.15,0.15,0.01,0.0,1.0,0.0,1.0,2000000000,0,,,0
1449617115127851941,128,1449617115125397978,/odom,ga,1,0,0,0.12788199339,-0.00196395976271,0.0,0.0,0.0,0.0017746517078,0.999998425304,0.25,0.15,0.0,1.0,0.0,0.0,1.0,2000000000,0,,,0
1449617115127856487,129,1449617115125976561,/odom,ga,2,2,0,2.54790616035,-0.163739979267,0.669314146042,0.0,0.0,0.0,0.0,0.15,0.15,0.01,0.0,1.0,0.0,1.0,2000000000,0,,,0
1449617115228232561,130,1449617115226858852,/odom,ga,1,0,0,0.141614303641,-0.00125420963503,0.0,0.0,0.0,0.0114817158874,0.999934082928,0.25,0.15,0.0,1.0,0.0,0.0,1.0,2000000000,0,,,0
1449617115228262003,131,1449617115227244027,/odom,ga,2,2,0,2.54790616035,-0.163739979267,0.669314146042,0.0,0.0,0.0,0.0,0.15,0.15,0.01,0.0,1.0,0.0,1.0,2000000000,0,,,0
1449617115373819661,132,1449617115365427446,/odom,ga,1,0,0,0.161567711563,-1.03877902724e-05,0.0,0.0,0.0,0.0210004050433,0.999779467177,0.25,0.15,0.0,1.0,0.0,0.0,1.0,2000000000,0,,,0
1449617115373827656,133,1449617115365945291,/odom,ga,2,2,0,2.60024499893,-0.178765684366,0.70897758007,0.0,0.0,0.0,0.0,0.15,0.15,0.01,0.0,1.0,0.0,1.0,2000000000,0,,,0
1449617115428126742,134,1449617115427144561,/odom,ga,1,0,0,0.178453484947,0.0011786097455,0.0,0.0,0.0,0.025305506764,0.999679764388,0.25,0.15,0.0,1.0,0.0,0.0,1.0,2000000000,0,,,0
1449617115428131133,135,1449617115427654447,/odom,ga,2,2,0,2.60024499893,-0.178765684366,0.70897758007,0.0,0.0,0.0,0.0,0.15,0.15,0.01,0.0,1.0,0.0,1.0,2000000000,0,,,0
1449617115522119846,136,1449617115521948757,/odom,ga,1,0,0,0.185195801049,0.00158961412008,0.0,0.0,0.0,0.0249204536148,0.999689437271,0.25,0.15,0.0,1.0,0.0,0.0,1.0,2000000000,0,,,0
1449617115523050340,137,1449617115522330622,/odom,ga,2,2,0,2.60024499893,-0.178765684366,0.70897758007,0.0,0.0,0.0,0.0,0.15,0.15,0.01,0.0,1.0,0.0,1.0,2000000000,0,,,0
1449617115626291045,138,1449617115625945555,/odom,ga,1,0,0,0.189262286569,0.00244940169413,0.0,0.0,0.0,0.0364305398735,0.999336187559,0.25,0.15,0.0,1.0,0.0,0.0,1.0,2000000000,0,,,0
1449617115626794163,139,1449617115626497008,/odom,ga,2,2,0,2.53793907166,-0.191531538963,0.66783618927,0.0,0.0,0.0,0.0,0.15,0.15,0.01,0.0,1.0,0.0,1.0,2000000000,0,,,0
1449617115720951252,140,1449617115719745369,/odom,ga,1,0,0,0.187123212066,0.00232072480422,0.0,0.0,0.0,0.0384856384019,0.999259153392,0.25,0.15,0.0,1.0,0.0,0.0,1.0,2000000000,0,,,0
1449617115720958096,141,1449617115720299993,/odom,ga,2,2,0,2.53020715714,-0.194777697325,0.717770814896,0.0,0.0,0.0,0.0,0.15,0.15,0.01,0.0,1.0,0.0,1.0,2000000000,0,,,0
1449617115833864795,142,1449617115833697364,/odom,ga,1,0,0,0.18567204347,0.00224257048839,0.0,0.0,0.0,0.0403611896563,0.999185155199,0.25,0.15,0.0,1.0,0.0,0.0,1.0,2000000000,0,,,0
1449617115835192974,143,1449617115834191393,/odom,ga,2,2,0,2.53020715714,-0.194777697325,0.717770814896,0.0,0.0,0.0,0.0,0.15,0.15,0.01,0.0,1.0,0.0,1.0,2000000000,0,,,0
1449617115935907950,144,1449617115934858264,/odom,ga,1,0,0,0.186449604181,0.00240171427067,0.0,0.0,0.0,0.0461839868491,0.998932950382,0.25,0.15,0.0,1.0,0.0,0.0,1.0,2000000000,0,,,0
1449617115936015833,145,1449617115935081139,/odom,ga,2,2,0,2.49477338791,-0.196726173162,0.679064810276,0.0,0.0,0.0,0.0,0.15,0.15,0.01,0.0,1.0,0.0,1.0,2000000000,0,,,0
1449617116046574164,146,1449617116044704874,/odom,ga,1,0,0,0.183999491667,0.00217355801254,0.0,0.0,0.0,0.0468236969347,0.998903169184,0.25,0.15,0.0,1.0,0.0,0.0,1.0,2000000000,0,,,0
1449617116046579771,147,1449617116045401806,/odom,ga,2,2,0,2.49477338791,-0.196726173162,0.679064810276,0.0,0.0,0.0,0.0,0.15,0.15,0.01,0.0,1.0,0.0,1.0,2000000000,0,,,0
1449617116149798523,148,1449617116148410561,/odom,ga,1,0,0,0.183177737425,0.00209626228453,0.0,0.0,0.0,0.0470382666212,0.99889308811,0.25,0.15,0.0,1.0,0.0,0.0,1.0,2000000000,0,,,0
1449617116149802993,149,1449617116148996583,/odom,ga,2,2,0,2.53587388992,-0.181867837906,0.70732229948,0.0,0.0,0.0,0.0,0.15,0.15,0.01,0.0,1.0,0.0,1.0,2000000000,0,,,0
1449617116242232610,150,1449617116240704805,/odom,ga,1,0,0,0.185465077963,0.00227025063366,0.0,0.0,0.0,0.0419118396788,0.999121312802,0.25,0.15,0.0,1.0,0.0,0.0,1.0,2000000000,0,,,0
1449617116242238739,151,1449617116241739463,/odom,ga,2,2,0,2.53587388992,-0.181867837906,0.70732229948,0.0,0.0,0.0,0.0,0.15,0.15,0.01,0.0,1.0,0.0,1.0,2000000000,0,,,0
1449617116319834843,152,1449617116319230425,/odom,ga,1,0,0,0.184870559967,0.00222022067005,0.0,0.0,0.0,0.0420669735293,0.999114793073,0.25,0.15,0.0,1.0,0.0,0.0,1.0,2000000000,0,,,0
1449617116319838063,153,1449617116319612135,/odom,ga,2,2,0,2.53059267998,-0.180060744286,0.69862639904,0.0,0.0,0.0,0.0,0.15,0.15,0.01,0.0,1.0,0.0,1.0,2000000000,0,,,0
1449617116424057822,154,1449617116418043693,/odom,ga,1,0,0,0.190277263479,0.00267852843744,0.0,0.0,0.0,0.0421536884898,0.999111138236,0.25,0.15,0.0,1.0,0.0,0.0,1.0,2000000000,0,,,0
1449617116424061223,155,1449617116418422223,/odom,ga,2,2,0,2.55872964859,-0.178313702345,0.688699901104,0.0,0.0,0.0,0.0,0.15,0.15,0.01,0.0,1.0,0.0,1.0,2000000000,0,,,0
1449617116521273702,156,1449617116518513851,/odom,ga,1,0,0,0.190094890669,0.00266310593871,0.0,0.0,0.0,0.042201278222,0.999109129233,0.25,0.15,0.0,1.0,0.0,0.0,1.0,2000000000,0,,,0
1449617116521283500,157,1449617116518778705,/odom,ga,2,2,0,2.55029392242,-0.163205265999,0.688052892685,0.0,0.0,0.0,0.0,0.15,0.15,0.01,0.0,1.0,0.0,1.0,2000000000,0,,,0
1449617116650707027,158,1449617116647791318,/odom,ga,1,0,0,0.198641428694,0.00335516674784,0.0,0.0,0.0,0.0369382384911,0.9993175504,0.25,0.15,0.0,1.0,0.0,0.0,1.0,2000000000,0,,,0
1449617116650720015,159,1449617116649043157,/odom,ga,2,2,0,2.55029392242,-0.163205265999,0.688052892685,0.0,0.0,0.0,0.0,0.15,0.15,0.01,0.0,1.0,0.0,1.0,2000000000,0,,,0
1449617116747282095,160,1449617116741391418,/odom,ga,1,0,0,0.210071645518,0.00429383212877,0.0,0.0,0.0,0.0369513357212,0.999317066195,0.25,0.15,0.0,1.0,0.0,0.0,1.0,2000000000,0,,,0
1449617116747293111,161,1449617116742034835,/odom,ga,2,2,0,2.39890956879,-0.226671844721,0.669893145561,0.0,0.0,0.0,0.0,0.15,0.15,0.01,0.0,1.0,0.0,1.0,2000000000,0,,,0
1449617116820247402,162,1449617116819713312,/odom,ga,1,0,0,0.221526588969,0.00514277784313,0.0,0.0,0.0,0.0369598698351,0.999316750596,0.25,0.15,0.0,1.0,0.0,0.0,1.0,2000000000,0,,,0
1449617116820443487,163,1449617116820233287,/odom,ga,2,2,0,2.39890956879,-0.226671844721,0.669893145561,0.0,0.0,0.0,0.0,0.15,0.15,0.01,0.0,1.0,0.0,1.0,2000000000,0,,,0
1449617116922050708,164,1449617116920882622,/odom,ga,1,0,0,0.232979932248,0.00599160439221,0.0,0.0,0.0,0.0369688212604,0.999316419486,0.25,0.15,0.0,1.0,0.0,0.0,1.0,2000000000,0,,,0
1449617116922054725,165,1449617116921678891,/odom,ga,2,2,0,2.53707265854,-0.179848253727,0.709289610386,0.0,0.0,0.0,0.0,0.15,0.15,0.01,0.0,1.0,0.0,1.0,2000000000,0,,,0
1449617117027514897,166,1449617117027151376,/odom,ga,1,0,0,0.250192773523,0.00726727563682,0.0,0.0,0.0,0.0369736877564,0.999316239443,0.25,0.15,0.0,1.0,0.0,0.0,1.0,2000000000,0,,,0
1449617117027523087,167,1449617117027355669,/odom,ga,2,2,0,2.53707265854,-0.179848253727,0.709289610386,0.0,0.0,0.0,0.0,0.15,0.15,0.01,0.0,1.0,0.0,1.0,2000000000,0,,,0
1449617117140979451,168,1449617117140647356,/odom,ga,1,0,0,0.27317154136,0.0088176850913,0.0,0.0,0.0,0.0369755166341,0.999316171774,0.25,0.15,0.0,1.0,0.0,0.0,1.0,2000000000,0,,,0
1449617117141375981,169,1449617117141190208,/odom,ga,2,2,0,2.62654542923,-0.141029819846,0.768353700638,0.0,0.0,0.0,0.0,0.15,0.15,0.01,0.0,1.0,0.0,1.0,2000000000,0,,,0
1449617117221578530,170,1449617117221410022,/odom,ga,1,0,0,0.287536722693,0.0097296076316,0.0,0.0,0.0,0.0316958808019,0.999497559347,0.25,0.15,0.0,1.0,0.0,0.0,1.0,2000000000,0,,,0
1449617117224717242,171,1449617117222328309,/odom,ga,2,2,0,2.62654542923,-0.141029819846,0.768353700638,0.0,0.0,0.0,0.0,0.15,0.15,0.01,0.0,1.0,0.0,1.0,2000000000,0,,,0
1449617117322651887,172,1449617117320642752,/odom,ga,1,0,0,0.307654964582,0.0109154338105,0.0,0.0,0.0,0.0264154248597,0.999651051782,0.25,0.15,0.0,1.0,0.0,0.0,1.0,2000000000,0,,,0
1449617117322662487,173,1449617117320875085,/odom,ga,2,2,0,2.53199934959,-0.185900583863,0.698400199413,0.0,0.0,0.0,0.0,0.15,0.15,0.01,0.0,1.0,0.0,1.0,2000000000,0,,,0
1449617117420407938,174,1449617117419361288,/odom,ga,1,0,0,0.330658345628,0.0121320706031,0.0,0.0,0.0,0.0264161569264,0.999651032437,0.25,0.15,0.0,1.0,0.0,0.0,1.0,2000000000,0,,,0
1449617117420414274,175,1449617117419946698,/odom,ga,2,2,0,2.54132199287,-0.176157474518,0.69779330492,0.0,0.0,0.0,0.0,0.15,0.15,0.01,0.0,1.0,0.0,1.0,2000000000,0,,,0
1449617117518612818,176,1449617117517556422,/odom,ga,1,0,0,0.356551799648,0.0132272599454,0.0,0.0,0.0,0.021134031696,0.99977665141,0.25,0.15,0.0,1.0,0.0,0.0,1.0,2000000000,0,,,0
1449617117518618241,177,1449617117517983926,/odom,ga,2,2,0,2.54132199287,-0.176157474518,0.69779330492,0.0,0.0,0.0,0.0,0.15,0.15,0.01,0.0,1.0,0.0,1.0,2000000000,0,,,0
1449617117671260364,178,1449617117670268207,/odom,ga,1,0,0,0.388210787139,0.0142921946099,0.0,0.0,0.0,0.0158510652607,0.999874363973,0.25,0.15,0.0,1.0,0.0,0.0,1.0,2000000000,0,,,0
1449617117671266079,179,1449617117670910385,/odom,ga,2,2,0,2.58079767227,-0.160792917013,0.71803355217,0.0,0.0,0.0,0.0,0.15,0.15,0.01,0.0,1.0,0.0,1.0,2000000000,0,,,0
1449617117720427896,180,1449617117719151506,/odom,ga,1,0,0,0.43427611746,0.0152355157887,0.0,0.0,0.0,0.00528372536316,0.999986041026,0.25,0.15,0.0,1.0,0.0,0.0,1.0,2000000000,0,,,0
1449617117720455575,181,1449617117719368255,/odom,ga,2,2,0,2.58079767227,-0.160792917013,0.71803355217,0.0,0.0,0.0,0.0,0.15,0.15,0.01,0.0,1.0,0.0,1.0,2000000000,0,,,0
1449617117824131530,182,1449617117823476140,/odom,ga,1,0,0,0.440034673913,0.0152963747596,0.0,0.0,0.0,0.00528390974719,0.999986040051,0.25,0.15,0.0,1.0,0.0,0.0,1.0,2000000000,0,,,0
1449617117824307790,183,1449617117823898631,/odom,ga,2,2,0,2.58079767227,-0.160792917013,0.71803355217,0.0,0.0,0.0,0.0,0.15,0.15,0.01,0.0,1.0,0.0,1.0,2000000000,0,,,0
1449617117971473983,184,1449617117970450673,/odom,ga,1,0,0,0.468831698445,0.0151442024051,0.0,0.0,0.0,-0.00528406267129,0.999986039243,0.25,0.15,0.0,1.0,0.0,0.0,1.0,2000000000,0,,,0
1449617117971478302,185,1449617117970893995,/odom,ga,2,2,0,2.58079767227,-0.160792917013,0.71803355217,0.0,0.0,0.0,0.0,0.15,0.15,0.01,0.0,1.0,0.0,1.0,2000000000,0,,,0
1449617118027842410,186,1449617118026921007,/odom,ga,1,0,0,0.512023217978,0.0145659938308,0.0,0.0,0.0,-0.010567895947,0.999944158228,0.25,0.15,0.0,1.0,0.0,0.0,1.0,2000000000,0,,,0
1449617118027857133,187,1449617118027206716,/odom,ga,2,2,0,2.51805233955,-0.185463517904,0.698538720608,0.0,0.0,0.0,0.0,0.15,0.15,0.01,0.0,1.0,0.0,1.0,2000000000,0,,,0
1449617118118726917,188,1449617118117922795,/odom,ga,1,0,0,0.526414872641,0.0141095639859,0.0,0.0,0.0,-0.0158514334048,0.999874358137,0.25,0.15,0.0,1.0,0.0,0.0,1.0,2000000000,0,,,0
1449617118118741265,189,1449617118118371950,/odom,ga,2,2,0,2.51805233955,-0.185463517904,0.698538720608,0.0,0.0,0.0,0.0,0.15,0.15,0.01,0.0,1.0,0.0,1.0,2000000000,0,,,0
1449617118221455345,190,1449617118220965720,/odom,ga,1,0,0,0.563818699443,0.0125274786741,0.0,0.0,0.0,-0.0211345371617,0.999776640725,0.25,0.15,0.0,1.0,0.0,0.0,1.0,2000000000,0,,,0
1449617118223642253,191,1449617118222157452,/odom,ga,2,2,0,2.53471541405,-0.196472406387,0.67838537693,0.0,0.0,0.0,0.0,0.15,0.15,0.01,0.0,1.0,0.0,1.0,2000000000,0,,,0
1449617118349521113,192,1449617118348500046,/odom,ga,1,0,0,0.58681957082,0.0112195464023,0.0,0.0,0.0,-0.0316988444115,0.999497465361,0.25,0.15,0.0,1.0,0.0,0.0,1.0,2000000000,0,,,0
1449617118349524566,193,1449617118349193865,/odom,ga,2,2,0,2.53471541405,-0.196472406387,0.67838537693,0.0,0.0,0.0,0.0,0.15,0.15,0.01,0.0,1.0,0.0,1.0,2000000000,0,,,0
1449617118418989218,194,1449617118418511415,/odom,ga,1,0,0,0.624154481368,0.0084525967378,0.0,0.0,0.0,-0.0369797434348,0.99931601537,0.25,0.15,0.0,1.0,0.0,0.0,1.0,2000000000,0,,,0
1449617118419473626,195,1449617118419123320,/odom,ga,2,2,0,2.56354045868,-0.165771245956,0.699233949184,0.0,0.0,0.0,0.0,0.15,0.15,0.01,0.0,1.0,0.0,1.0,2000000000,0,,,0
1449617118530492870,196,1449617118528477421,/odom,ga,1,0,0,0.647102333121,0.00641622157592,0.0,0.0,0.0,-0.0475382977845,0.998869416012,0.25,0.15,0.0,1.0,0.0,0.0,1.0,2000000000,0,,,0
1449617118530499395,197,1449617118528850140,/odom,ga,2,2,0,2.56354045868,-0.165771245956,0.699233949184,0.0,0.0,0.0,0.0,0.15,0.15,0.01,0.0,1.0,0.0,1.0,2000000000,0,,,0
1449617118630960933,198,1449617118628161068,/odom,ga,1,0,0,0.68717765705,0.00201218440971,0.0,0.0,0.0,-0.0580915466551,0.998311260183,0.25,0.15,0.0,1.0,0.0,0.0,1.0,2000000000,0,,,0
1449617118630996601,199,1449617118628916608,/odom,ga,2,2,0,2.46687626839,-0.203712016344,0.668994307518,0.0,0.0,0.0,0.0,0.15,0.15,0.01,0.0,1.0,0.0,1.0,2000000000,0,,,0
1449617118725864816,200,1449617118720929109,/odom,ga,1,0,0,0.710060509754,-0.00065996144215,0.0,0.0,0.0,-0.058091546199,0.998311260209,0.25,0.15,0.0,1.0,0.0,0.0,1.0,2000000000,0,,,0
1449617118725871402,201,1449617118721250065,/odom,ga,2,2,0,2.46687626839,-0.203712016344,0.668994307518,0.0,0.0,0.0,0.0,0.15,0.15,0.01,0.0,1.0,0.0,1.0,2000000000,0,,,0
1449617118830286932,202,1449617118821919799,/odom,ga,1,0,0,0.747143476829,-0.00578688815344,0.0,0.0,0.0,-0.0739088872425,0.997264998076,0.25,0.15,0.0,1.0,0.0,0.0,1.0,2000000000,0,,,0
1449617118830425138,203,1449617118822295929,/odom,ga,2,2,0,2.46687626839,-0.203712016344,0.668994307518,0.0,0.0,0.0,0.0,0.15,0.15,0.01,0.0,1.0,0.0,1.0,2000000000,0,,,0
1449617118921046539,204,1449617118920081755,/odom,ga,1,0,0,0.769930127259,-0.00918305109109,0.0,0.0,0.0,-0.0739088870638,0.997264998089,0.25,0.15,0.0,1.0,0.0,0.0,1.0,2000000000,0,,,0
1449617118921052029,205,1449617118920629520,/odom,ga,2,2,0,2.46687626839,-0.203712016344,0.668994307518,0.0,0.0,0.0,0.0,0.15,0.15,0.01,0.0,1.0,0.0,1.0,2000000000,0,,,0
1449617119074996565,206,1449617119074210905,/odom,ga,1,0,0,0.804019618958,-0.0148484039056,0.0,0.0,0.0,-0.0844437085876,0.996428251346,0.25,0.15,0.0,1.0,0.0,0.0,1.0,2000000000,0,,,0
1449617119331831622,207,1449617119329776353,/odom,ga,2,2,0,2.46687626839,-0.203712016344,0.668994307518,0.0,0.0,0.0,0.0,0.15,0.15,0.01,0.0,1.0,0.0,1.0,2000000000,0,,,0
1449617119344634592,208,1449617119343685215,/odom,ga,1,0,0,0.925326867732,-0.0396629786917,0.0,0.0,0.0,-0.110736931594,0.993849753223,0.25,0.15,0.0,1.0,0.0,0.0,1.0,2000000000,0,,,0
1449617119344639740,209,1449617119344240935,/odom,ga,2,2,0,2.46687626839,-0.203712016344,0.668994307518,0.0,0.0,0.0,0.0,0.15,0.15,0.01,0.0,1.0,0.0,1.0,2000000000,0,,,0
1449617119448079320,210,1449617119447344987,/odom,ga,1,0,0,0.925326867182,-0.0396629785675,0.0,0.0,0.0,-0.110736931448,0.993849753239,0.25,0.15,0.0,1.0,0.0,0.0,1.0,2000000000,0,,,0
1449617119448083060,211,1449617119447808086,/odom,ga,2,2,0,2.46687626839,-0.203712016344,0.668994307518,0.0,0.0,0.0,0.0,0.15,0.15,0.01,0.0,1.0,0.0,1.0,2000000000,0,,,0
1449617119550289383,212,1449617119537154850,/odom,ga,1,0,0,0.961677103792,-0.0486139580353,0.0,0.0,0.0,-0.12647693731,0.991969548085,0.25,0.15,0.0,1.0,0.0,0.0,1.0,2000000000,0,,,0
1449617119550304447,213,1449617119537394426,/odom,ga,2,2,0,2.46687626839,-0.203712016344,0.668994307518,0.0,0.0,0.0,0.0,0.15,0.15,0.01,0.0,1.0,0.0,1.0,2000000000,0,,,0
1449617119657816561,214,1449617119656680670,/odom,ga,1,0,0,0.984015791511,-0.0542472986842,0.0,0.0,0.0,-0.126476937292,0.991969548088,0.25,0.15,0.0,1.0,0.0,0.0,1.0,2000000000,0,,,0
1449617119657820395,215,1449617119657150942,/odom,ga,2,2,0,2.46687626839,-0.203712016344,0.668994307518,0.0,0.0,0.0,0.0,0.15,0.15,0.01,0.0,1.0,0.0,1.0,2000000000,0,,,0
1449617119734784435,216,1449617119734160613,/odom,ga,1,0,0,1.02015408167,-0.0640236142567,0.0,0.0,0.0,-0.131716738459,0.991287395668,0.25,0.15,0.0,1.0,0.0,0.0,1.0,2000000000,0,,,0
1449617119734795199,217,1449617119734548544,/odom,ga,2,2,0,2.46687626839,-0.203712016344,0.668994307518,0.0,0.0,0.0,0.0,0.15,0.15,0.01,0.0,1.0,0.0,1.0,2000000000,0,,,0
1449617119843285645,218,1449617119842250822,/odom,ga,1,0,0,1.04509997531,-0.0710558499282,0.0,0.0,0.0,-0.136952861983,0.990577565663,0.25,0.15,0.0,1.0,0.0,0.0,1.0,2000000000,0,,,0
1449617119843289418,219,1449617119842618414,/odom,ga,2,2,0,2.46687626839,-0.203712016344,0.668994307518,0.0,0.0,0.0,0.0,0.15,0.15,0.01,0.0,1.0,0.0,1.0,2000000000,0,,,0
1449617119941313905,220,1449617119936341884,/odom,ga,1,0,0,1.08102357591,-0.0815937474263,0.0,0.0,0.0,-0.142185161672,0.989840077892,0.25,0.15,0.0,1.0,0.0,0.0,1.0,2000000000,0,,,0
1449617119941329587,221,1449617119936773221,/odom,ga,2,2,0,2.46687626839,-0.203712016344,0.668994307518,0.0,0.0,0.0,0.0,0.15,0.15,0.01,0.0,1.0,0.0,1.0,2000000000,0,,,0
1449617120042797967,222,1449617120042451213,/odom,ga,1,0,0,1.10585015748,-0.0890350021715,0.0,0.0,0.0,-0.14741349143,0.989074952946,0.25,0.15,0.0,1.0,0.0,0.0,1.0,2000000000,0,,,0
1449617120045364046,223,1449617120043265636,/odom,ga,2,2,0,2.46687626839,-0.203712016344,0.668994307518,0.0,0.0,0.0,0.0,0.15,0.15,0.01,0.0,1.0,0.0,1.0,2000000000,0,,,0
1449617120144365885,224,1449617120139274584,/odom,ga,1,0,0,1.13890575591,-0.0991121815649,0.0,0.0,0.0,-0.147413491429,0.989074952946,0.25,0.15,0.0,1.0,0.0,0.0,1.0,2000000000,0,,,0
1449617120144368810,225,1449617120139530691,/odom,ga,2,2,0,2.46687626839,-0.203712016344,0.668994307518,0.0,0.0,0.0,0.0,0.15,0.15,0.01,0.0,1.0,0.0,1.0,2000000000,0,,,0
1449617120253377581,226,1449617120252873007,/odom,ga,1,0,0,1.16910740947,-0.108669296295,0.0,0.0,0.0,-0.152637705279,0.988282212188,0.25,0.15,0.0,1.0,0.0,0.0,1.0,2000000000,0,,,0
1449617120257779026,227,1449617120254201103,/odom,ga,2,2,0,2.46687626839,-0.203712016344,0.668994307518,0.0,0.0,0.0,0.0,0.15,0.15,0.01,0.0,1.0,0.0,1.0,2000000000,0,,,0
1449617120337779027,228,1449617120336598894,/odom,ga,1,0,0,1.19656345816,-0.117357582413,0.0,0.0,0.0,-0.152637705278,0.988282212188,0.25,0.15,0.0,1.0,0.0,0.0,1.0,2000000000,0,,,0
1449617120337787633,229,1449617120336846665,/odom,ga,2,2,0,2.46687626839,-0.203712016344,0.668994307518,0.0,0.0,0.0,0.0,0.15,0.15,0.01,0.0,1.0,0.0,1.0,2000000000,0,,,0
1449617120441151249,230,1449617120435403305,/odom,ga,1,0,0,1.223972832,-0.126190701678,0.0,0.0,0.0,-0.152637705278,0.988282212188,0.25,0.15,0.0,1.0,0.0,0.0,1.0,2000000000,0,,,0
1449617120441268383,231,1449617120435839520,/odom,ga,2,2,0,2.46687626839,-0.203712016344,0.668994307518,0.0,0.0,0.0,0.0,0.15,0.15,0.01,0.0,1.0,0.0,1.0,2000000000,0,,,0
1449617120544483732,232,1449617120543418416,/odom,ga,1,0,0,1.25959101553,-0.137717206667,0.0,0.0,0.0,-0.157857657355,0.987461877752,0.25,0.15,0.0,1.0,0.0,0.0,1.0,2000000000,0,,,0
1449617120544487261,233,1449617120544036207,/odom,ga,2,2,0,2.46687626839,-0.203712016344,0.668994307518,0.0,0.0,0.0,0.0,0.15,0.15,0.01,0.0,1.0,0.0,1.0,2000000000,0,,,0
1449617120638969373,234,1449617120636277682,/odom,ga,1,0,0,1.28150917963,-0.144812668708,0.0,0.0,0.0,-0.157857657355,0.987461877753,0.25,0.15,0.0,1.0,0.0,0.0,1.0,2000000000,0,,,0
1449617120638977363,235,1449617120637369878,/odom,ga,2,2,0,2.46687626839,-0.203712016344,0.668994307518,0.0,0.0,0.0,0.0,0.15,0.15,0.01,0.0,1.0,0.0,1.0,2000000000,0,,,0
1449617120735344048,236,1449617120734730661,/odom,ga,1,0,0,1.31715536808,-0.156252273809,0.0,0.0,0.0,-0.152637705278,0.988282212188,0.25,0.15,0.0,1.0,0.0,0.0,1.0,2000000000,0,,,0
1449617120735348234,237,1449617120734888067,/odom,ga,2,2,0,2.46687626839,-0.203712016344,0.668994307518,0.0,0.0,0.0,0.0,0.15,0.15,0.01,0.0,1.0,0.0,1.0,2000000000,0,,,0
1449617120835469077,238,1449617120834501933,/odom,ga,1,0,0,1.33912020703,-0.163202902704,0.0,0.0,0.0,-0.152637705278,0.988282212188,0.25,0.15,0.0,1.0,0.0,0.0,1.0,2000000000,0,,,0
1449617120835512256,239,1449617120835045973,/odom,ga,2,2,0,2.46687626839,-0.203712016344,0.668994307518,0.0,0.0,0.0,0.0,0.15,0.15,0.01,0.0,1.0,0.0,1.0,2000000000,0,,,0
1449617120962827484,240,1449617120962327668,/odom,ga,1,0,0,1.37484015533,-0.174410483672,0.0,0.0,0.0,-0.147413491427,0.989074952946,0.25,0.15,0.0,1.0,0.0,0.0,1.0,2000000000,0,,,0
1449617120964139958,241,1449617120962930097,/odom,ga,2,2,0,2.46687626839,-0.203712016344,0.668994307518,0.0,0.0,0.0,0.0,0.15,0.15,0.01,0.0,1.0,0.0,1.0,2000000000,0,,,0
1449617121088385711,242,1449617121086831779,/odom,ga,1,0,0,1.4133598785,-0.186312511277,0.0,0.0,0.0,-0.147413491427,0.989074952946,0.25,0.15,0.0,1.0,0.0,0.0,1.0,2000000000,0,,,0
1449617121088396195,243,1449617121087914873,/odom,ga,2,2,0,2.46687626839,-0.203712016344,0.668994307518,0.0,0.0,0.0,0.0,0.15,0.15,0.01,0.0,1.0,0.0,1.0,2000000000,0,,,0
1449617121135588135,244,1449617121134435455,/odom,ga,1,0,0,1.44924859634,-0.196967038576,0.0,0.0,0.0,-0.142185161666,0.989840077892,0.25,0.15,0.0,1.0,0.0,0.0,1.0,2000000000,0,,,0
1449617121135591513,245,1449617121134916662,/odom,ga,2,2,0,2.46687626839,-0.203712016344,0.668994307518,0.0,0.0,0.0,0.0,0.15,0.15,0.01,0.0,1.0,0.0,1.0,2000000000,0,,,0
1449617121233904030,246,1449617121233506380,/odom,ga,1,0,0,1.45756389423,-0.199311117135,0.0,0.0,0.0,-0.136952861975,0.990577565664,0.25,0.15,0.0,1.0,0.0,0.0,1.0,2000000000,0,,,0
1449617121234498063,247,1449617121233959740,/odom,ga,2,2,0,2.46687626839,-0.203712016344,0.668994307518,0.0,0.0,0.0,0.0,0.15,0.15,0.01,0.0,1.0,0.0,1.0,2000000000,0,,,0
1449617121346249236,248,1449617121335700029,/odom,ga,1,0,0,1.49363736432,-0.20932211467,0.0,0.0,0.0,-0.131716738444,0.99128739567,0.25,0.15,0.0,1.0,0.0,0.0,1.0,2000000000,0,,,0
1449617121346255872,249,1449617121336114896,/odom,ga,2,2,0,2.46687626839,-0.203712016344,0.668994307518,0.0,0.0,0.0,0.0,0.15,0.15,0.01,0.0,1.0,0.0,1.0,2000000000,0,,,0
1449617121485842940,250,1449617121484658634,/odom,ga,1,0,0,1.51587631212,-0.215338308872,0.0,0.0,0.0,-0.131716738444,0.99128739567,0.25,0.15,0.0,1.0,0.0,0.0,1.0,2000000000,0,,,0
1449617121485848771,251,1449617121485350864,/odom,ga,2,2,0,2.46687626839,-0.203712016344,0.668994307518,0.0,0.0,0.0,0.0,0.15,0.15,0.01,0.0,1.0,0.0,1.0,2000000000,0,,,0
1449617121535977839,252,1449617121535292105,/odom,ga,1,0,0,1.5633778153,-0.227179863349,0.0,0.0,0.0,-0.115986887289,0.993250744765,0.25,0.15,0.0,1.0,0.0,0.0,1.0,2000000000,0,,,0
1449617121535982692,253,1449617121535659908,/odom,ga,2,2,0,2.46687626839,-0.203712016344,0.668994307518,0.0,0.0,0.0,0.0,0.15,0.15,0.01,0.0,1.0,0.0,1.0,2000000000,0,,,0
1449617121645747472,254,1449617121645316155,/odom,ga,1,0,0,1.57742364214,-0.230349244938,0.0,0.0,0.0,-0.110736931374,0.993849753247,0.25,0.15,0.0,1.0,0.0,0.0,1.0,2000000000,0,,,0
1449617121646245969,255,1449617121645926372,/odom,ga,2,2,0,2.46687626839,-0.203712016344,0.668994307518,0.0,0.0,0.0,0.0,0.15,0.15,0.01,0.0,1.0,0.0,1.0,2000000000,0,,,0
1449617121758004560,256,1449617121757850795,/odom,ga,1,0,0,1.61400166853,-0.238322136905,0.0,0.0,0.0,-0.10548388359,0.994421012601,0.25,0.15,0.0,1.0,0.0,0.0,1.0,2000000000,0,,,0
1449617121758312409,257,1449617121758056230,/odom,ga,2,2,0,2.46687626839,-0.203712016344,0.668994307518,0.0,0.0,0.0,0.0,0.15,0.15,0.01,0.0,1.0,0.0,1.0,2000000000,0,,,0
1449617121848030930,258,1449617121846344462,/odom,ga,1,0,0,1.64786953518,-0.245184398822,0.0,0.0,0.0,-0.0949690991753,0.995480220899,0.25,0.15,0.0,1.0,0.0,0.0,1.0,2000000000,0,,,0
1449617121848070112,259,1449617121846697292,/odom,ga,2,2,0,2.46687626839,-0.203712016344,0.668994307518,0.0,0.0,0.0,0.0,0.15,0.15,0.01,0.0,1.0,0.0,1.0,2000000000,0,,,0
1449617121962366442,260,1449617121962115855,/odom,ga,1,0,0,1.66768125202,-0.248906228327,0.0,0.0,0.0,-0.0897076561262,0.99596814027,0.25,0.15,0.0,1.0,0.0,0.0,1.0,2000000000,0,,,0
1449617121963584717,261,1449617121962416898,/odom,ga,2,2,0,2.46687626839,-0.203712016344,0.668994307518,0.0,0.0,0.0,0.0,0.15,0.15,0.01,0.0,1.0,0.0,1.0,2000000000,0,,,0
1449617122038674939,262,1449617122037672228,/odom,ga,1,0,0,1.70460946757,-0.255056204914,0.0,0.0,0.0,-0.0844437083633,0.996428251365,0.25,0.15,0.0,1.0,0.0,0.0,1.0,2000000000,0,,,0
1449617122038681925,263,1449617122038170366,/odom,ga,2,2,0,2.46687626839,-0.203712016344,0.668994307518,0.0,0.0,0.0,0.0,0.15,0.15,0.01,0.0,1.0,0.0,1.0,2000000000,0,,,0
1449617122142631552,264,1449617122141699052,/odom,ga,1,0,0,1.73306955484,-0.259451793906,0.0,0.0,0.0,-0.0739088866573,0.997264998119,0.25,0.15,0.0,1.0,0.0,0.0,1.0,2000000000,0,,,0
1449617122142635720,265,1449617122142202262,/odom,ga,2,2,0,2.46687626839,-0.203712016344,0.668994307518,0.0,0.0,0.0,0.0,0.15,0.15,0.01,0.0,1.0,0.0,1.0,2000000000,0,,,0
1449617122258369370,266,1449617122257085663,/odom,ga,1,0,0,1.75591086677,-0.262456118856,0.0,0.0,0.0,-0.0633658106137,0.997990367712,0.25,0.15,0.0,1.0,0.0,0.0,1.0,2000000000,0,,,0
1449617122258381782,267,1449617122257373416,/odom,ga,2,2,0,2.46687626839,-0.203712016344,0.668994307518,0.0,0.0,0.0,0.0,0.15,0.15,0.01,0.0,1.0,0.0,1.0,2000000000,0,,,0
1449617122341033092,268,1449617122338019054,/odom,ga,1,0,0,1.79023724076,-0.266433942244,0.0,0.0,0.0,-0.0528156577107,0.998604279132,0.25,0.15,0.0,1.0,0.0,0.0,1.0,2000000000,0,,,0
1449617122341072771,269,1449617122338519451,/odom,ga,2,2,0,2.46687626839,-0.203712016344,0.668994307518,0.0,0.0,0.0,0.0,0.15,0.15,0.01,0.0,1.0,0.0,1.0,2000000000,0,,,0
1449617122476575004,270,1449617122475129139,/odom,ga,1,0,0,1.81317964905,-0.268530940374,0.0,0.0,0.0,-0.042259606217,0.999106663816,0.25,0.15,0.0,1.0,0.0,0.0,1.0,2000000000,0,,,0
1449617122476583329,271,1449617122476000398,/odom,ga,2,2,0,2.46687626839,-0.203712016344,0.668994307518,0.0,0.0,0.0,0.0,0.15,0.15,0.01,0.0,1.0,0.0,1.0,2000000000,0,,,0
1449617122546075654,272,1449617122545023764,/odom,ga,1,0,0,1.85054012139,-0.270903084125,0.0,0.0,0.0,-0.0264170481704,0.999651008886,0.25,0.15,0.0,1.0,0.0,0.0,1.0,2000000000,0,,,0
1449617122546080423,273,1449617122545701751,/odom,ga,2,2,0,2.46687626839,-0.203712016344,0.668994307518,0.0,0.0,0.0,0.0,0.15,0.15,0.01,0.0,1.0,0.0,1.0,2000000000,0,,,0
1449617122635208641,274,1449617122634935336,/odom,ga,1,0,0,1.87355354624,-0.271967873298,0.0,0.0,0.0,-0.0264170481704,0.999651008886,0.25,0.15,0.0,1.0,0.0,0.0,1.0,2000000000,0,,,0
1449617122635624816,275,1449617122635418261,/odom,ga,2,2,0,2.46687626839,-0.203712016344,0.668994307518,0.0,0.0,0.0,0.0,0.15,0.15,0.01,0.0,1.0,0.0,1.0,2000000000,0,,,0
1449617122752942536,276,1449617122751711664,/odom,ga,1,0,0,1.89946268071,-0.27263733296,0.0,0.0,0.0,-0.0105678519699,0.999944158693,0.25,0.15,0.0,1.0,0.0,0.0,1.0,2000000000,0,,,0
1449617122752948831,277,1449617122751941420,/odom,ga,2,2,0,2.46687626839,-0.203712016344,0.668994307518,0.0,0.0,0.0,0.0,0.15,0.15,0.01,0.0,1.0,0.0,1.0,2000000000,0,,,0
1449617122913165980,278,1449617122898431362,/odom,ga,1,0,0,1.93401939584,-0.272789499105,0.0,0.0,0.0,-4.4408920985e-16,1.0,0.25,0.15,0.0,1.0,0.0,0.0,1.0,2000000000,0,,,0
1449617122913181346,279,1449617122898790859,/odom,ga,2,2,0,2.46687626839,-0.203712016344,0.668994307518,0.0,0.0,0.0,0.0,0.15,0.15,0.01,0.0,1.0,0.0,1.0,2000000000,0,,,0
1449617122938679063,280,1449617122936396612,/odom,ga,1,0,0,1.98583300262,-0.271481121763,0.0,0.0,0.0,0.0211345236944,0.999776641009,0.25,0.15,0.0,1.0,0.0,0.0,1.0,2000000000,0,,,0
1449617122938683546,281,1449617122937110490,/odom,ga,2,2,0,2.46687626839,-0.203712016344,0.668994307518,0.0,0.0,0.0,0.0,0.15,0.15,0.01,0.0,1.0,0.0,1.0,2000000000,0,,,0
1449617123052485313,282,1449617123048568656,/odom,ga,1,0,0,1.99446032426,-0.271024827237,0.0,0.0,0.0,0.0264170481704,0.999651008886,0.25,0.15,0.0,1.0,0.0,0.0,1.0,2000000000,0,,,0
1449617123052492778,283,1449617123049248765,/odom,ga,2,2,0,2.46687626839,-0.203712016344,0.668994307518,0.0,0.0,0.0,0.0,0.15,0.15,0.01,0.0,1.0,0.0,1.0,2000000000,0,,,0
1449617123138624067,284,1449617123137648879,/odom,ga,1,0,0,2.0289453437,-0.268804761281,0.0,0.0,0.0,0.0369797368913,0.999316015612,0.25,0.15,0.0,1.0,0.0,0.0,1.0,2000000000,0,,,0
1449617123138628352,285,1449617123138090714,/odom,ga,2,2,0,2.46687626839,-0.203712016344,0.668994307518,0.0,0.0,0.0,0.0,0.15,0.15,0.01,0.0,1.0,0.0,1.0,2000000000,0,,,0
1449617123258612392,286,1449617123257092496,/odom,ga,1,0,0,2.05762676672,-0.266221402306,0.0,0.0,0.0,0.0475382956186,0.998869416115,0.25,0.15,0.0,1.0,0.0,0.0,1.0,2000000000,0,,,0
1449617123258639697,287,1449617123258353331,/odom,ga,2,2,0,2.46687626839,-0.203712016344,0.668994307518,0.0,0.0,0.0,0.0,0.15,0.15,0.01,0.0,1.0,0.0,1.0,2000000000,0,,,0
1449617123509095474,288,1449617123507699302,/odom,ga,1,0,0,2.09196115878,-0.262303922661,0.0,0.0,0.0,0.0580915451448,0.99831126027,0.25,0.15,0.0,1.0,0.0,0.0,1.0,2000000000,0,,,0
1449617123509099677,289,1449617123508300286,/odom,ga,2,2,0,2.46687626839,-0.203712016344,0.668994307518,0.0,0.0,0.0,0.0,0.15,0.15,0.01,0.0,1.0,0.0,1.0,2000000000,0,,,0
1449617123706323943,290,1449617123704750588,/odom,ga,1,0,0,2.16313552864,-0.251511358453,0.0,0.0,0.0,0.0844437083633,0.996428251365,0.25,0.15,0.0,1.0,0.0,0.0,1.0,2000000000,0,,,0
1449617123706327616,291,1449617123705150566,/odom,ga,2,2,0,2.46687626839,-0.203712016344,0.668994307518,0.0,0.0,0.0,0.0,0.15,0.15,0.01,0.0,1.0,0.0,1.0,2000000000,0,,,0
1449617123814404086,292,1449617123810724953,/odom,ga,1,0,0,2.21963081934,-0.240323112953,0.0,0.0,0.0,0.10548388359,0.994421012601,0.25,0.15,0.0,1.0,0.0,0.0,1.0,2000000000,0,,,0
1449617123814425664,293,1449617123811825301,/odom,ga,2,2,0,2.46687626839,-0.203712016344,0.668994307518,0.0,0.0,0.0,0.0,0.15,0.15,0.01,0.0,1.0,0.0,1.0,2000000000,0,,,0
1449617123963965012,294,1449617123961508828,/odom,ga,1,0,0,2.25329281471,-0.23250903701,0.0,0.0,0.0,0.115986887289,0.993250744765,0.25,0.15,0.0,1.0,0.0,0.0,1.0,2000000000,0,,,0
1449617123964026651,295,1449617123961986634,/odom,ga,2,2,0,2.46687626839,-0.203712016344,0.668994307518,0.0,0.0,0.0,0.0,0.15,0.15,0.01,0.0,1.0,0.0,1.0,2000000000,0,,,0
1449617124078168265,296,1449617124077972498,/odom,ga,1,0,0,2.30068148698,-0.220225154796,0.0,0.0,0.0,0.131716738444,0.99128739567,0.25,0.15,0.0,1.0,0.0,0.0,1.0,2000000000,0,,,0
1449617124210148646,297,1449617124209072156,/odom,ga,2,2,0,2.46687626839,-0.203712016344,0.668994307518,0.0,0.0,0.0,0.0,0.15,0.15,0.01,0.0,1.0,0.0,1.0,2000000000,0,,,0
1449617125137196683,298,1449617125131257434,/odom,ga,1,0,0,2.36406770355,-0.201028785105,0.0,0.0,0.0,0.157857657354,0.987461877753,0.25,0.15,0.0,1.0,0.0,0.0,1.0,2000000000,0,,,0
1449617125137199808,299,1449617125131437216,/odom,ga,2,2,0,2.46687626839,-0.203712016344,0.668994307518,0.0,0.0,0.0,0.0,0.15,0.15,0.01,0.0,1.0,0.0,1.0,2000000000,0,,,0
1449617125350909987,300,1449617125349196338,/odom,ga,1,0,0,2.57108568283,-0.114403603097,0.0,0.0,0.0,0.230328962136,0.973112824498,0.25,0.15,0.0,1.0,0.0,0.0,1.0,2000000000,0,,,0
1449617125350914548,301,1449617125349523949,/odom,ga,2,2,0,2.46687626839,-0.203712016344,0.668994307518,0.0,0.0,0.0,0.0,0.15,0.15,0.01,0.0,1.0,0.0,1.0,2000000000,0,,,0
1449617125523791508,302,1449617125522919128,/odom,ga,1,0,0,2.6033182777,-0.0996023883646,0.0,0.0,0.0,-6.06881324981e-05,0.999999998158,0.25,0.15,0.0,1.0,0.0,0.0,1.0,2000000000,0,,,0
1449617125523795487,303,1449617125523103196,/odom,ga,2,2,0,2.46687626839,-0.203712016344,0.668994307518,0.0,0.0,0.0,0.0,0.15,0.15,0.01,0.0,1.0,0.0,1.0,2000000000,0,,,0
1449617125629250324,304,1449617125627355776,/odom,ga,1,0,0,2.6242085445,-0.0904104071091,0.0,0.0,0.0,-0.10271266577,0.994711067743,0.25,0.15,0.0,1.0,0.0,0.0,1.0,2000000000,0,,,0
1449617125629270676,305,1449617125627591493,/odom,ga,2,2,0,2.46687626839,-0.203712016344,0.668994307518,0.0,0.0,0.0,0.0,0.15,0.15,0.01,0.0,1.0,0.0,1.0,2000000000,0,,,0
1449617125821190905,306,1449617125818992946,/odom,ga,1,0,0,2.6416054195,-0.0892925073434,0.0,0.0,0.0,-0.393592640873,0.919284957481,0.25,0.15,0.0,1.0,0.0,0.0,1.0,2000000000,0,,,0
1449617125821244849,307,1449617125819215153,/odom,ga,2,2,0,2.6416054195,-0.0892925073434,0.0,0.0,0.0,0.0,0.0,0.15,0.15,0.01,0.0,1.0,0.0,1.0,2000000000,0,,,0
1449617126058510521,308,1449617126058237806,/odom,ga,1,0,0,2.65560972872,-0.0836059532966,0.0,0.0,0.0,-0.445108941993,0.895476426132,0.25,0.15,0.0,1.0,0.0,0.0,1.0,2000000000,0,,,0
1449617126058856522,309,1449617126058391085,/odom,ga,2,2,0,2.65560972872,-0.0836059532966,0.0,0.0,0.0,0.0,0.0,0.15,0.15,0.01,0.0,1.0,0.0,1.0,2000000000,0,,,0
1449617126189511870,310,1449617126187271609,/odom,ga,1,0,0,2.67372973104,-0.0743368740549,0.0,0.0,0.0,-0.469798389021,0.882773738663,0.25,0.15,0.0,1.0,0.0,0.0,1.0,2000000000,0,,,0
1449617126189535588,311,1449617126187733377,/odom,ga,2,2,0,2.67372973104,-0.0743368740549,0.0,0.0,0.0,0.0,0.0,0.15,0.15,0.01,0.0,1.0,0.0,1.0,2000000000,0,,,0
1449617126440736904,312,1449617126439088012,/odom,ga,1,0,0,2.68314630401,-0.0722034900246,0.0,0.0,0.0,-0.535259742374,0.844687521036,0.25,0.15,0.0,1.0,0.0,0.0,1.0,2000000000,0,,,0
1449617126440743677,313,1449617126439402208,/odom,ga,2,2,0,2.68314630401,-0.0722034900246,0.0,0.0,0.0,0.0,0.0,0.15,0.15,0.01,0.0,1.0,0.0,1.0,2000000000,0,,,0
1449617126722548656,314,1449617126719651303,/odom,ga,1,0,0,2.71596720547,-0.0537505203986,0.0,0.0,0.0,-0.554269512267,0.832337256028,0.25,0.15,0.0,1.0,0.0,0.0,1.0,2000000000,0,,,0
1449617126722552925,315,1449617126719957105,/odom,ga,2,2,0,2.71596720547,-0.0537505203986,0.0,0.0,0.0,0.0,0.0,0.15,0.15,0.01,0.0,1.0,0.0,1.0,2000000000,0,,,0
1449617126904693702,316,1449617126903905223,/odom,ga,1,0,0,2.74569845477,-0.0358896462343,0.0,0.0,0.0,-0.56613370738,0.824313426658,0.25,0.15,0.0,1.0,0.0,0.0,1.0,2000000000,0,,,0
1449617126904697698,317,1449617126904065685,/odom,ga,2,2,0,2.74569845477,-0.0358896462343,0.0,0.0,0.0,0.0,0.0,0.15,0.15,0.01,0.0,1.0,0.0,1.0,2000000000,0,,,0
1449617127078519587,318,1449617127069634514,/odom,ga,1,0,0,2.75804543487,-0.0287852647808,0.0,0.0,0.0,-0.587463180671,0.809250895184,0.25,0.15,0.0,1.0,0.0,0.0,1.0,2000000000,0,,,0
1449617127078526077,319,1449617127069931018,/odom,ga,2,2,0,2.75804543487,-0.0287852647808,0.0,0.0,0.0,0.0,0.0,0.15,0.15,0.01,0.0,1.0,0.0,1.0,2000000000,0,,,0
1449617127258840948,320,1449617127252419837,/odom,ga,1,0,0,2.76300511859,-0.0267735614492,0.0,0.0,0.0,-0.619409485389,0.785068079475,0.25,0.15,0.0,1.0,0.0,0.0,1.0,2000000000,0,,,0
1449617127258862538,321,1449617127252607036,/odom,ga,2,2,0,2.76300511859,-0.0267735614492,0.0,0.0,0.0,0.0,0.0,0.15,0.15,0.01,0.0,1.0,0.0,1.0,2000000000,0,,,0
1449617127499725382,322,1449617127499348201,/odom,ga,1,0,0,2.76550687872,-0.0259317555996,0.0,0.0,0.0,-0.64275434868,0.766072351187,0.25,0.15,0.0,1.0,0.0,0.0,1.0,2000000000,0,,,0
1449617127500633983,323,1449617127499828209,/odom,ga,2,2,0,2.76550687872,-0.0259317555996,0.0,0.0,0.0,0.0,0.0,0.15,0.15,0.01,0.0,1.0,0.0,1.0,2000000000,0,,,0
1449617127667509851,324,1449617127666492314,/odom,ga,1,0,0,2.76070922478,-0.0270041757762,0.0,0.0,0.0,-0.658038162114,0.752984579657,0.25,0.15,0.0,1.0,0.0,0.0,1.0,2000000000,0,,,0
1449617127667513537,325,1449617127666614862,/odom,ga,2,2,0,2.76070922478,-0.0270041757762,0.0,0.0,0.0,0.0,0.0,0.15,0.15,0.01,0.0,1.0,0.0,1.0,2000000000,0,,,0
1449617127863254489,326,1449617127851124985,/odom,ga,1,0,0,2.76120412899,-0.0280948425263,0.0,0.0,0.0,-0.681356701108,0.73195153245,0.25,0.15,0.0,1.0,0.0,0.0,1.0,2000000000,0,,,0
1449617127863274503,327,1449617127851301214,/odom,ga,2,2,0,2.76120412899,-0.0280948425263,0.0,0.0,0.0,0.0,0.0,0.15,0.15,0.01,0.0,1.0,0.0,1.0,2000000000,0,,,0
1449617128072107835,328,1449617128070205635,/odom,ga,1,0,0,2.76149472624,-0.0288507073095,0.0,0.0,0.0,-0.696825412682,0.717240785399,0.25,0.15,0.0,1.0,0.0,0.0,1.0,2000000000,0,,,0
1449617128072112428,329,1449617128070697060,/odom,ga,2,2,0,2.76149472624,-0.0288507073095,0.0,0.0,0.0,0.0,0.0,0.15,0.15,0.01,0.0,1.0,0.0,1.0,2000000000,0,,,0
1449617128240986689,330,1449617128240049477,/odom,ga,1,0,0,2.76157037071,-0.0292059570368,0.0,0.0,0.0,-0.704595972906,0.709608705531,0.25,0.15,0.0,1.0,0.0,0.0,1.0,2000000000,0,,,0
1449617128241212568,331,1449617128240729249,/odom,ga,2,2,0,2.76157037071,-0.0292059570368,0.0,0.0,0.0,0.0,0.0,0.15,0.15,0.01,0.0,1.0,0.0,1.0,2000000000,0,,,0
1449617128453125468,332,1449617128450245159,/odom,ga,1,0,0,2.76169353766,-0.0299039928137,0.0,0.0,0.0,-0.71954443468,0.694446402914,0.25,0.15,0.0,1.0,0.0,0.0,1.0,2000000000,0,,,0
1449617128453129098,333,1449617128450433057,/odom,ga,2,2,0,2.76169353766,-0.0299039928137,0.0,0.0,0.0,0.0,0.0,0.15,0.15,0.01,0.0,1.0,0.0,1.0,2000000000,0,,,0
1449617128600346745,334,1449617128599625736,/odom,ga,1,0,0,2.76177614512,-0.030152044736,0.0,0.0,0.0,-0.724084723291,0.689711036229,0.25,0.15,0.0,1.0,0.0,0.0,1.0,2000000000,0,,,0
1449617128603136486,335,1449617128599906223,/odom,ga,2,2,0,2.76177614512,-0.030152044736,0.0,0.0,0.0,0.0,0.0,0.15,0.15,0.01,0.0,1.0,0.0,1.0,2000000000,0,,,0
1449617128806536281,336,1449617128805139273,/odom,ga,1,0,0,3.0313112141,-0.192617316905,0.0,0.0,0.0,-0.712483777141,0.701688582857,0.25,0.15,0.0,1.0,0.0,0.0,1.0,2000000000,0,,,0
1449617128806547927,337,1449617128805330032,/odom,ga,2,2,0,3.0313112141,-0.192617316905,0.0,0.0,0.0,0.0,0.0,0.15,0.15,0.01,0.0,1.0,0.0,1.0,2000000000,0,,,0
1449617129052737331,338,1449617129050950717,/odom,ga,1,0,0,3.15309395584,-0.247527027297,0.0,0.0,0.0,-0.689073202223,0.724691742728,0.25,0.15,0.0,1.0,0.0,0.0,1.0,2000000000,0,,,0
1449617129052740887,339,1449617129051422534,/odom,ga,2,2,0,3.15309395584,-0.247527027297,0.0,0.0,0.0,0.0,0.0,0.15,0.15,0.01,0.0,1.0,0.0,1.0,2000000000,0,,,0
1449617129231893995,340,1449617129230884268,/odom,ga,1,0,0,3.20395122727,-0.176146786285,0.0,0.0,0.0,-0.549289067259,0.835632407575,0.25,0.15,0.0,1.0,0.0,0.0,1.0,2000000000,0,,,0
1449617129231926653,341,1449617129231176773,/odom,ga,2,2,0,3.20395122727,-0.176146786285,0.0,0.0,0.0,0.0,0.0,0.15,0.15,0.01,0.0,1.0,0.0,1.0,2000000000,0,,,0
1449617129329994009,342,1449617129328661730,/odom,ga,1,0,0,3.27550721651,-0.147435484824,0.0,0.0,0.0,-0.470625265919,0.882333190512,0.25,0.15,0.0,1.0,0.0,0.0,1.0,2000000000,0,,,0
1449617129329997553,343,1449617129328832610,/odom,ga,2,2,0,3.27550721651,-0.147435484824,0.0,0.0,0.0,0.0,0.0,0.15,0.15,0.01,0.0,1.0,0.0,1.0,2000000000,0,,,0
1449617129431157865,344,1449617129428439327,/odom,ga,1,0,0,3.35881673094,0.00271554718101,0.0,0.0,0.0,-0.21783273057,0.975986117469,0.25,0.15,0.0,1.0,0.0,0.0,1.0,2000000000,0,,,0
1449617129431167565,345,1449617129429437086,/odom,ga,2,2,0,3.35881673094,0.00271554718101,0.0,0.0,0.0,0.0,0.0,0.15,0.15,0.01,0.0,1.0,0.0,1.0,2000000000,0,,,0
1449617129530069182,346,1449617129525690193,/odom,ga,1,0,0,3.39578474553,0.0319124289947,0.0,0.0,0.0,-0.176186825981,0.984356745469,0.25,0.15,0.0,1.0,0.0,0.0,1.0,2000000000,0,,,0
1449617129530080767,347,1449617129526206966,/odom,ga,2,2,0,3.39578474553,0.0319124289947,0.0,0.0,0.0,0.0,0.0,0.15,0.15,0.01,0.0,1.0,0.0,1.0,2000000000,0,,,0
1449617129569799838,348,1449617129564355134,/odom,ga,1,0,0,3.45182798535,0.0359460502487,0.0,0.0,0.0,-0.176383423672,0.984321536823,0.25,0.15,0.0,1.0,0.0,0.0,1.0,2000000000,0,,,0
1449617129569803484,349,1449617129565378005,/odom,ga,2,2,0,3.45182798535,0.0359460502487,0.0,0.0,0.0,0.0,0.0,0.15,0.15,0.01,0.0,1.0,0.0,1.0,2000000000,0,,,0
1449617129618627339,350,1449617129616841816,/odom,ga,1,0,0,3.47730523546,0.0407121139184,0.0,0.0,0.0,-0.172829986073,0.984951671867,0.25,0.15,0.0,1.0,0.0,0.0,1.0,2000000000,0,,,0
1449617129618993305,351,1449617129617618834,/odom,ga,2,2,0,3.47730523546,0.0407121139184,0.0,0.0,0.0,0.0,0.0,0.15,0.15,0.01,0.0,1.0,0.0,1.0,2000000000,0,,,0
1449617129679850444,352,1449617129678141748,/odom,ga,1,0,0,3.42766265556,0.0680846862412,0.0,0.0,0.0,-0.128392760362,0.991723398477,0.25,0.15,0.0,1.0,0.0,0.0,1.0,2000000000,0,,,0
1449617129679867759,353,1449617129678364770,/odom,ga,2,2,0,3.42766265556,0.0680846862412,0.0,0.0,0.0,0.0,0.0,0.15,0.15,0.01,0.0,1.0,0.0,1.0,2000000000,0,,,0
1449617129772538311,354,1449617129772304495,/odom,ga,1,0,0,3.43912051392,0.0675285231214,0.0,0.0,0.0,-0.13095104535,0.991388835786,0.25,0.15,0.0,1.0,0.0,0.0,1.0,2000000000,0,,,0
1449617129773144608,355,1449617129772760289,/odom,ga,2,2,0,3.43912051392,0.0675285231214,0.0,0.0,0.0,0.0,0.0,0.15,0.15,0.01,0.0,1.0,0.0,1.0,2000000000,0,,,0
1449617129864188680,356,1449617129863827396,/odom,ga,1,0,0,3.44456181793,0.0672417133927,0.0,0.0,0.0,-0.132166242648,0.991227564338,0.25,0.15,0.0,1.0,0.0,0.0,1.0,2000000000,0,,,0
1449617129874399297,357,1449617129864166302,/odom,ga,2,2,0,3.44456181793,0.0672417133927,0.0,0.0,0.0,0.0,0.0,0.15,0.15,0.01,0.0,1.0,0.0,1.0,2000000000,0,,,0
1449617129968432734,358,1449617129964759804,/odom,ga,1,0,0,3.47711363422,0.0591591992535,0.0,0.0,0.0,-0.149955543265,0.988692740463,0.25,0.15,0.0,1.0,0.0,0.0,1.0,2000000000,0,,,0
1449617129968436928,359,1449617129965368533,/odom,ga,2,2,0,3.47711363422,0.0591591992535,0.0,0.0,0.0,0.0,0.0,0.15,0.15,0.01,0.0,1.0,0.0,1.0,2000000000,0,,,0
1449617130075993278,360,1449617130072948506,/odom,ga,1,0,0,3.49002271857,0.0648265101145,0.0,0.0,0.0,-0.150808901687,0.988562934351,0.25,0.15,0.0,1.0,0.0,0.0,1.0,2000000000,0,,,0
1449617130076040645,361,1449617130073169694,/odom,ga,2,2,0,3.49002271857,0.0648265101145,0.0,0.0,0.0,0.0,0.0,0.15,0.15,0.01,0.0,1.0,0.0,1.0,2000000000,0,,,0
1449617130184994039,362,1449617130182639830,/odom,ga,1,0,0,3.46141955936,0.0735082270428,0.0,0.0,0.0,-0.135908827987,0.990721348551,0.25,0.15,0.0,1.0,0.0,0.0,1.0,2000000000,0,,,0
1449617130185010676,363,1449617130183697400,/odom,ga,2,2,0,3.46141955936,0.0735082270428,0.0,0.0,0.0,0.0,0.0,0.15,0.15,0.01,0.0,1.0,0.0,1.0,2000000000,0,,,0
1449617130301944885,364,1449617130299356315,/odom,ga,1,0,0,3.48630979096,0.0586449380158,0.0,0.0,0.0,-0.157372623957,0.987539294018,0.25,0.15,0.0,1.0,0.0,0.0,1.0,2000000000,0,,,0
1449617130301971954,365,1449617130299735594,/odom,ga,2,2,0,3.48630979096,0.0586449380158,0.0,0.0,0.0,0.0,0.0,0.15,0.15,0.01,0.0,1.0,0.0,1.0,2000000000,0,,,0
