%time,field.x,field.y,field.z
1449617102796651413,6.0,6.0,0.0
1449617102830032725,6.0,6.0,0.0
1449617102863360156,6.0,6.0,0.0
1449617102896644088,6.0,6.0,0.0
1449617102930009159,6.0,6.0,0.0
1449617102963311107,6.0,6.0,0.0
1449617102996667521,6.0,6.0,0.0
1449617103029931949,6.0,6.0,0.0
1449617103063248196,6.0,6.0,0.0
1449617103096666400,6.0,6.0,0.0
1449617103129956803,6.0,6.0,0.0
1449617103163273959,6.0,6.0,0.0
1449617103196668500,6.0,6.0,0.0
1449617103230011949,6.0,6.0,0.0
1449617103263326718,6.0,6.0,0.0
1449617103296680625,6.0,6.0,0.0
1449617103330019448,6.0,6.0,0.0
1449617103363268531,6.0,6.0,0.0
1449617103396624975,6.0,6.0,0.0
1449617103429974613,6.0,6.0,0.0
1449617103463483293,6.0,6.0,0.0
1449617103496616614,6.0,6.0,0.0
1449617103529917722,6.0,6.0,0.0
1449617103563261604,6.0,6.0,0.0
1449617103596587049,6.0,6.0,0.0
1449617103629891347,6.0,6.0,0.0
1449617103663350385,6.0,6.0,0.0
1449617103696665016,6.0,6.0,0.0
1449617103729948720,6.0,6.0,0.0
1449617103763244731,6.0,6.0,0.0
1449617103796682420,6.0,6.0,0.0
1449617103829994974,6.0,6.0,0.0
1449617103863316420,6.0,6.0,0.0
1449617103896586541,6.0,6.0,0.0
1449617103929983106,6.0,6.0,0.0
1449617103963472923,6.0,6.0,0.0
1449617103996713425,6.0,6.0,0.0
1449617104029971298,6.0,6.0,0.0
1449617104063337252,6.0,6.0,0.0
1449617104096633833,6.0,6.0,0.0
1449617104130097444,6.0,6.0,0.0
1449617104163364832,6.0,6.0,0.0
1449617104196632294,6.0,6.0,0.0
1449617104229919667,6.0,6.0,0.0
1449617104263308998,6.0,6.0,0.0
1449617104296674903,6.0,6.0,0.0
1449617104329999068,6.0,6.0,0.0
1449617104363291379,6.0,6.0,0.0
1449617104396793653,6.0,6.0,0.0
1449617104429998104,6.0,6.0,0.0
1449617104463323519,6.0,6.0,0.0
1449617104496726962,6.0,6.0,0.0
1449617104529974412,6.0,6.0,0.0
1449617104563371437,6.0,6.0,0.0
1449617104596597028,6.0,6.0,0.0
1449617104630030535,6.0,6.0,0.0
1449617104663373329,6.0,6.0,0.0
1449617104696849766,6.0,6.0,0.0
1449617104729961685,6.0,6.0,0.0
1449617104763355798,6.0,6.0,0.0
1449617104796668492,6.0,6.0,0.0
1449617104830010667,6.0,6.0,0.0
1449617104863253570,6.0,6.0,0.0
1449617104896587819,6.0,6.0,0.0
1449617104929971771,6.0,6.0,0.0
1449617104963318859,6.0,6.0,0.0
1449617104996634109,6.0,6.0,0.0
1449617105030017051,6.0,6.0,0.0
1449617105063276044,6.0,6.0,0.0
1449617105096613515,6.0,6.0,0.0
1449617105130278066,6.0,6.0,0.0
1449617105163236650,6.0,6.0,0.0
1449617105196607626,6.0,6.0,0.0
1449617105229882902,6.0,6.0,0.0
1449617105263235377,6.0,6.0,0.0
1449617105296660693,6.0,6.0,0.0
1449617105330884402,6.0,6.0,0.0
1449617105363359464,6.0,6.0,0.0
1449617105396788122,6.0,6.0,0.0
1449617105429943806,6.0,6.0,0.0
1449617105463289255,6.0,6.0,0.0
1449617105496658876,6.0,6.0,0.0
1449617105529947450,6.0,6.0,0.0
1449617105563266275,6.0,6.0,0.0
1449617105596587226,6.0,6.0,0.0
1449617105629869385,6.0,6.0,0.0
1449617105663347695,6.0,6.0,0.0
1449617105696591156,6.0,6.0,0.0
1449617105729926675,6.0,6.0,0.0
1449617105763315760,6.0,6.0,0.0
1449617105796569848,6.0,6.0,0.0
1449617105829886208,6.0,6.0,0.0
1449617105863271037,6.0,6.0,0.0
1449617105896577226,6.0,6.0,0.0
1449617105929924383,6.0,6.0,0.0
1449617105963222119,6.0,6.0,0.0
1449617105996548963,6.0,6.0,0.0
1449617106029940813,6.0,6.0,0.0
1449617106063291800,6.0,6.0,0.0
1449617106096603243,6.0,6.0,0.0
1449617106129969536,6.0,6.0,0.0
1449617106163270954,6.0,6.0,0.0
1449617106196619918,6.0,6.0,0.0
1449617106229899171,6.0,6.0,0.0
1449617106263627828,6.0,6.0,0.0
1449617106296699194,6.0,6.0,0.0
1449617106330311543,6.0,6.0,0.0
1449617106363451290,6.0,6.0,0.0
1449617106396746246,6.0,6.0,0.0
1449617106430055458,6.0,6.0,0.0
1449617106463491078,6.0,6.0,0.0
1449617106497046542,6.0,6.0,0.0
1449617106531072262,6.0,6.0,0.0
1449617106563565277,6.0,6.0,0.0
1449617106596747943,6.0,6.0,0.0
1449617106630068879,6.0,6.0,0.0
1449617106663376052,6.0,6.0,0.0
1449617106697056771,6.0,6.0,0.0
1449617106730258280,6.0,6.0,0.0
1449617106763444128,6.0,6.0,0.0
1449617106796814291,6.0,6.0,0.0
1449617106830101514,6.0,6.0,0.0
1449617106863643422,6.0,6.0,0.0
1449617106897305047,6.0,6.0,0.0
1449617106930270494,6.0,6.0,0.0
1449617106963312349,6.0,6.0,0.0
1449617106996873960,6.0,6.0,0.0
1449617107030238212,6.0,6.0,0.0
1449617107063444875,6.0,6.0,0.0
1449617107096935840,6.0,6.0,0.0
1449617107130144628,6.0,6.0,0.0
1449617107163761018,6.0,6.0,0.0
1449617107196878607,6.0,6.0,0.0
1449617107230927087,6.0,6.0,0.0
1449617107263800995,6.0,6.0,0.0
1449617107297109847,6.0,6.0,0.0
1449617107330241347,6.0,6.0,0.0
1449617107363473580,6.0,6.0,0.0
1449617107396988591,6.0,6.0,0.0
1449617107430274469,6.0,6.0,0.0
1449617107463629429,6.0,6.0,0.0
1449617107496937708,6.0,6.0,0.0
1449617107530392542,6.0,6.0,0.0
1449617107563664652,6.0,6.0,0.0
1449617107596667437,6.0,6.0,0.0
1449617107630110058,6.0,6.0,0.0
1449617107663477326,6.0,6.0,0.0
1449617107696876640,6.0,6.0,0.0
1449617107730297965,6.0,6.0,0.0
1449617107763474916,6.0,6.0,0.0
1449617107796973180,6.0,6.0,0.0
1449617107830796714,6.0,6.0,0.0
1449617107863756065,6.0,6.0,0.0
1449617107896745237,6.0,6.0,0.0
1449617107930370002,6.0,6.0,0.0
1449617107963640809,6.0,6.0,0.0
1449617107997191074,6.0,6.0,0.0
1449617108030234040,6.0,6.0,0.0
1449617108063732053,6.0,6.0,0.0
1449617108097233129,6.0,6.0,0.0
1449617108130339236,6.0,6.0,0.0
1449617108163581860,6.0,6.0,0.0
1449617108197285555,6.0,6.0,0.0
1449617108230968617,6.0,6.0,0.0
1449617108264398318,6.0,6.0,0.0
1449617108297116209,6.0,6.0,0.0
1449617108330384867,6.0,6.0,0.0
1449617108363877521,6.0,6.0,0.0
1449617108397204867,6.0,6.0,0.0
1449617108430839757,6.0,6.0,0.0
1449617108463668327,6.0,6.0,0.0
1449617108496858848,6.0,6.0,0.0
1449617108530734587,6.0,6.0,0.0
1449617108564233126,6.0,6.0,0.0
1449617108598017301,6.0,6.0,0.0
1449617108630289000,6.0,6.0,0.0
1449617108664187613,6.0,6.0,0.0
1449617108698920780,6.0,6.0,0.0
1449617108730465511,6.0,6.0,0.0
1449617108764105749,6.0,6.0,0.0
1449617108797231162,6.0,6.0,0.0
1449617108830351321,6.0,6.0,0.0
1449617108865722258,6.0,6.0,0.0
1449617108896781407,6.0,6.0,0.0
1449617108930702866,6.0,6.0,0.0
1449617108964533637,6.0,6.0,0.0
1449617108998067883,6.0,6.0,0.0
1449617109030439347,6.0,6.0,0.0
1449617109064819140,6.0,6.0,0.0
1449617109099028708,6.0,6.0,0.0
1449617109130284012,6.0,6.0,0.0
1449617109166136351,6.0,6.0,0.0
1449617109196902044,6.0,6.0,0.0
1449617109230545882,6.0,6.0,0.0
1449617109263753642,6.0,6.0,0.0
1449617109297406804,6.0,6.0,0.0
1449617109330256782,6.0,6.0,0.0
1449617109363510238,6.0,6.0,0.0
1449617109398389191,6.0,6.0,0.0
1449617109431891685,6.0,6.0,0.0
1449617109463618531,6.0,6.0,0.0
1449617109496793781,6.0,6.0,0.0
1449617109530306130,6.0,6.0,0.0
1449617109564589743,6.0,6.0,0.0
1449617109597438559,6.0,6.0,0.0
1449617109630352299,6.0,6.0,0.0
1449617109666213910,6.0,6.0,0.0
1449617109697454794,6.0,6.0,0.0
1449617109730779013,6.0,6.0,0.0
1449617109777499149,6.0,6.0,0.0
1449617109803310479,6.0,6.0,0.0
1449617109830854107,6.0,6.0,0.0
1449617109864662395,6.0,6.0,0.0
1449617109898467074,6.0,6.0,0.0
1449617109930307042,6.0,6.0,0.0
1449617109965619381,6.0,6.0,0.0
1449617109996856168,6.0,6.0,0.0
1449617110031355775,6.0,6.0,0.0
1449617110064070327,6.0,6.0,0.0
1449617110097381881,6.0,6.0,0.0
1449617110130247293,6.0,6.0,0.0
1449617110164026687,6.0,6.0,0.0
1449617110197945529,6.0,6.0,0.0
1449617110230431917,6.0,6.0,0.0
1449617110263750731,6.0,6.0,0.0
1449617110298391710,6.0,6.0,0.0
1449617110330675941,6.0,6.0,0.0
1449617110363857764,6.0,6.0,0.0
1449617110398205502,6.0,6.0,0.0
1449617110432086654,6.0,6.0,0.0
1449617110464294684,6.0,6.0,0.0
1449617110497126269,6.0,6.0,0.0
1449617110531341907,6.0,6.0,0.0
1449617110563968572,6.0,6.0,0.0
1449617110596735578,6.0,6.0,0.0
1449617110630516609,6.0,6.0,0.0
1449617110666093209,6.0,6.0,0.0
1449617110697045084,6.0,6.0,0.0
1449617110730476394,6.0,6.0,0.0
1449617110765868882,6.0,6.0,0.0
1449617110798257412,6.0,6.0,0.0
1449617110830305309,6.0,6.0,0.0
1449617110871323982,6.0,6.0,0.0
1449617110897314466,6.0,6.0,0.0
1449617110930636278,6.0,6.0,0.0
1449617110966472296,6.0,6.0,0.0
1449617111010234250,6.0,6.0,0.0
1449617111030631176,6.0,6.0,0.0
1449617111066693760,6.0,6.0,0.0
1449617111097600100,6.0,6.0,0.0
1449617111130458248,6.0,6.0,0.0
1449617111165980786,6.0,6.0,0.0
1449617111197392466,6.0,6.0,0.0
1449617111230151530,6.0,6.0,0.0
1449617111263819250,6.0,6.0,0.0
1449617111297094332,6.0,6.0,0.0
1449617111333638875,6.0,6.0,0.0
1449617111363363048,6.0,6.0,0.0
1449617111396997873,6.0,6.0,0.0
1449617111430548380,6.0,6.0,0.0
1449617111463575397,6.0,6.0,0.0
1449617111496924080,6.0,6.0,0.0
1449617111530832130,6.0,6.0,0.0
1449617111569634878,6.0,6.0,0.0
1449617111596674370,6.0,6.0,0.0
1449617111630301287,6.0,6.0,0.0
1449617111663708006,6.0,6.0,0.0
1449617111696907520,6.0,6.0,0.0
1449617111730243380,6.0,6.0,0.0
1449617111763611323,6.0,6.0,0.0
1449617111797052282,6.0,6.0,0.0
1449617111831088675,6.0,6.0,0.0
1449617111863851818,6.0,6.0,0.0
1449617111896860826,6.0,6.0,0.0
1449617111930070719,6.0,6.0,0.0
1449617111963500720,6.0,6.0,0.0
1449617111997558302,6.0,6.0,0.0
1449617112031155002,6.0,6.0,0.0
1449617112063739119,6.0,6.0,0.0
1449617112097954568,6.0,6.0,0.0
1449617112132215463,6.0,6.0,0.0
1449617112163890111,6.0,6.0,0.0
1449617112197204011,6.0,6.0,0.0
1449617112230684009,6.0,6.0,0.0
1449617112263841753,6.0,6.0,0.0
1449617112297254894,6.0,6.0,0.0
1449617112330231698,6.0,6.0,0.0
1449617112363798030,6.0,6.0,0.0
1449617112396837854,6.0,6.0,0.0
1449617112430285542,6.0,6.0,0.0
1449617112463502317,6.0,6.0,0.0
1449617112496756977,6.0,6.0,0.0
1449617112530212560,6.0,6.0,0.0
1449617112564316321,6.0,6.0,0.0
1449617112597175502,6.0,6.0,0.0
1449617112630219310,6.0,6.0,0.0
1449617112663460696,6.0,6.0,0.0
1449617112699485892,6.0,6.0,0.0
1449617112730340190,6.0,6.0,0.0
1449617112763998204,6.0,6.0,0.0
1449617112796725458,6.0,6.0,0.0
1449617112830808292,6.0,6.0,0.0
1449617112864053423,6.0,6.0,0.0
1449617112897109108,6.0,6.0,0.0
1449617112930697718,6.0,6.0,0.0
1449617112964279702,6.0,6.0,0.0
1449617112996758794,6.0,6.0,0.0
1449617113030446287,6.0,6.0,0.0
1449617113064397792,6.0,6.0,0.0
1449617113096815292,6.0,6.0,0.0
1449617113130318927,6.0,6.0,0.0
1449617113163801053,6.0,6.0,0.0
1449617113196684199,6.0,6.0,0.0
1449617113233327443,6.0,6.0,0.0
1449617113264117816,6.0,6.0,0.0
1449617113305796006,6.61952,6.10586842105,0.0
1449617113330037036,6.61952,6.10586842105,0.0
1449617113363809474,6.61952,6.10586842105,0.0
1449617113402318598,6.61952,6.10586842105,0.0
1449617113430662852,6.61952,6.10586842105,0.0
1449617113464054899,6.61952,6.10586842105,0.0
1449617113497117531,6.61952,6.10586842105,0.0
1449617113530034313,6.61952,6.10586842105,0.0
1449617113563458474,6.61952,6.10586842105,0.0
1449617113598092572,6.61952,6.10586842105,0.0
1449617113635351211,6.61952,6.10586842105,0.0
1449617113664566288,6.61952,6.10586842105,0.0
1449617113697729074,6.61952,6.10586842105,0.0
1449617113732802009,6.61952,6.10586842105,0.0
1449617113763443682,6.61952,6.10586842105,0.0
1449617113797225134,6.61952,6.10586842105,0.0
1449617113830652119,6.61952,6.10586842105,0.0
1449617113863519824,6.61952,6.10586842105,0.0
1449617113896916562,6.61952,6.10586842105,0.0
1449617113930186418,6.61952,6.10586842105,0.0
1449617113963828160,6.61952,6.10586842105,0.0
1449617113996763663,6.61952,6.10586842105,0.0
1449617114030908164,6.61952,6.10586842105,0.0
1449617114063679518,6.61952,6.10586842105,0.0
1449617114119797732,6.61952,6.10586842105,0.0
1449617114131152550,6.61952,6.10586842105,0.0
1449617114163784782,6.61952,6.03528947368,0.0
1449617114205933619,6.61952,6.03528947368,0.0
1449617114230064644,6.61952,6.03528947368,0.0
1449617114264682473,6.61952,6.03528947368,0.0
1449617114297271655,6.61952,6.03528947368,0.0
1449617114330362514,6.61952,6.03528947368,0.0
1449617114364299082,6.61952,6.03528947368,0.0
1449617114397761993,6.61952,6.03528947368,0.0
1449617114430384563,6.61952,6.03528947368,0.0
1449617114463779623,6.61952,6.03528947368,0.0
1449617114500710667,6.61952,6.03528947368,0.0
1449617114530625714,6.61952,6.03528947368,0.0
1449617114563612361,6.61952,6.03528947368,0.0
1449617114599343324,6.61952,6.03528947368,0.0
1449617114630392856,6.61952,6.03528947368,0.0
1449617114665028815,6.01773968356,6.0,0.0
1449617114696818089,6.01773968356,6.0,0.0
1449617114731314982,6.01773968356,6.0,0.0
1449617114764265370,6.01773968356,6.0,0.0
1449617114816339256,6.01773968356,6.0,0.0
1449617114830192360,6.01773968356,6.0,0.0
1449617114863292277,6.01773968356,6.0,0.0
1449617114897924655,6.01773968356,6.01064285776,0.0
1449617114934393219,6.01773968356,6.01064285776,0.0
1449617114963684190,6.01773968356,6.01064285776,0.0
1449617114996989824,6.01773968356,6.01064285776,0.0
1449617115030960267,6.01773968356,6.01064285776,0.0
1449617115064019193,6.03547936713,6.01064285776,0.0
1449617115101209147,6.03547936713,6.01064285776,0.0
1449617115130106415,6.03547936713,6.01064285776,0.0
1449617115163813022,6.03547936713,6.01064285776,0.0
1449617115197189019,6.03547936713,6.01064285776,0.0
1449617115230964798,6.03547936713,6.01064285776,0.0
1449617115264354816,6.03547936713,6.01064285776,0.0
1449617115296882239,6.03547936713,6.01064285776,0.0
1449617115332749255,6.03547936713,6.01064285776,0.0
1449617115363468149,6.03547936713,6.01064285776,0.0
1449617115402049336,6.03547936713,6.01064285776,0.0
1449617115430021695,6.03547936713,6.01064285776,0.0
1449617115463803526,6.03547936713,6.01064285776,0.0
1449617115497622768,6.03547936713,6.01064285776,0.0
1449617115533887708,6.01773968356,6.0,0.0
1449617115566906520,6.01773968356,6.0,0.0
1449617115596963488,6.01773968356,6.0,0.0
1449617115631221251,6.01773968356,6.0,0.0
1449617115670727355,6.61952,6.17644736842,0.0
1449617115697606669,6.61952,6.17644736842,0.0
1449617115730114538,6.61952,6.17644736842,0.0
1449617115763510805,6.61952,6.24702631579,0.0
1449617115796976844,6.61952,6.24702631579,0.0
1449617115830075696,6.61952,6.24702631579,0.0
1449617115863609579,6.61952,6.24702631579,0.0
1449617115900245775,6.61952,6.24702631579,0.0
1449617115933334816,6.61952,6.24702631579,0.0
1449617115963779712,6.61952,6.31760526316,0.0
1449617115998387374,6.61952,6.31760526316,0.0
1449617116030189494,6.61952,6.31760526316,0.0
1449617116064401364,6.61952,6.31760526316,0.0
1449617116098140707,6.61952,6.31760526316,0.0
1449617116130305078,6.61952,6.31760526316,0.0
1449617116164318155,6.61952,6.31760526316,0.0
1449617116197465432,6.61952,6.31760526316,0.0
1449617116230299595,6.61952,6.31760526316,0.0
1449617116263465835,6.61952,6.31760526316,0.0
1449617116296776205,6.61952,6.31760526316,0.0
1449617116331001849,6.61952,6.31760526316,0.0
1449617116364688702,6.61952,6.31760526316,0.0
1449617116397571705,6.61952,6.31760526316,0.0
1449617116430582155,6.61952,6.31760526316,0.0
1449617116463612116,6.61952,6.24702631579,0.0
1449617116498242495,6.61952,6.24702631579,0.0
1449617116530563691,6.61952,6.24702631579,0.0
1449617116564828881,6.61952,6.24702631579,0.0
1449617116598980173,6.61952,6.24702631579,0.0
1449617116630245898,6.61952,6.24702631579,0.0
1449617116664887125,6.61952,6.24702631579,0.0
1449617116698518594,6.61952,6.24702631579,0.0
1449617116730440916,6.61952,6.24702631579,0.0
1449617116764207863,6.61952,6.24702631579,0.0
1449617116796959227,6.61952,6.24702631579,0.0
1449617116831404875,6.61952,6.24702631579,0.0
1449617116864994056,6.61952,6.24702631579,0.0
1449617116906075206,6.61952,6.24702631579,0.0
1449617116930103194,6.61952,6.24702631579,0.0
1449617116964465444,6.61952,6.24702631579,0.0
1449617116997414506,6.61952,6.24702631579,0.0
1449617117037956734,6.61952,6.24702631579,0.0
1449617117068217533,6.61952,6.24702631579,0.0
1449617117111254249,6.61952,6.24702631579,0.0
1449617117130337226,6.61952,6.24702631579,0.0
1449617117165142698,6.61952,6.24702631579,0.0
1449617117197513545,6.61952,6.24702631579,0.0
1449617117230123766,6.61952,6.24702631579,0.0
1449617117266027553,6.61952,6.24702631579,0.0
1449617117299760859,6.61952,6.24702631579,0.0
1449617117330963753,6.61952,6.24702631579,0.0
1449617117363692637,6.61952,6.24702631579,0.0
1449617117397264240,6.61952,6.24702631579,0.0
1449617117432220008,6.61952,6.24702631579,0.0
1449617117466340439,6.61952,6.24702631579,0.0
1449617117496884838,6.61952,6.24702631579,0.0
1449617117530300699,6.61952,6.24702631579,0.0
1449617117564354416,6.61952,6.24702631579,0.0
1449617117597655245,6.61952,6.24702631579,0.0
1449617117632315803,6.61952,6.24702631579,0.0
1449617117663717174,6.61952,6.24702631579,0.0
1449617117696883399,6.61952,6.24702631579,0.0
1449617117730039359,6.61952,6.24702631579,0.0
1449617117764394484,6.61952,6.24702631579,0.0
1449617117797708599,6.61952,6.24702631579,0.0
1449617117831351530,6.61952,6.24702631579,0.0
1449617117863569808,6.61952,6.24702631579,0.0
1449617117902612971,6.61952,6.24702631579,0.0
1449617117933647858,6.61952,6.24702631579,0.0
1449617117964399450,6.61952,6.17644736842,0.0
1449617117997926351,6.61952,6.17644736842,0.0
1449617118033800767,6.61952,6.17644736842,0.0
1449617118064174016,6.61952,6.17644736842,0.0
1449617118098360752,6.61952,6.17644736842,0.0
1449617118131759172,6.61952,6.17644736842,0.0
1449617118176831293,6.61952,6.17644736842,0.0
1449617118197313843,6.61952,6.17644736842,0.0
1449617118230444428,6.61952,6.17644736842,0.0
1449617118264750449,6.61952,6.17644736842,0.0
1449617118301187864,6.61952,6.17644736842,0.0
1449617118330548183,6.61952,6.17644736842,0.0
1449617118363388994,6.61952,6.17644736842,0.0
1449617118397025878,6.61952,6.17644736842,0.0
1449617118430319973,6.61952,6.17644736842,0.0
1449617118486413499,6.61952,6.17644736842,0.0
1449617118497426463,6.61952,6.17644736842,0.0
1449617118530769347,6.61952,6.17644736842,0.0
1449617118563768635,6.61952,6.10586842105,0.0
1449617118597066918,6.61952,6.10586842105,0.0
1449617118630685340,6.61952,6.10586842105,0.0
1449617118664063665,6.61952,6.10586842105,0.0
1449617118697738103,6.61952,6.10586842105,0.0
1449617118732977958,6.61952,6.10586842105,0.0
1449617118764062119,6.61952,6.03528947368,0.0
1449617118797236490,6.61952,6.03528947368,0.0
1449617118835533871,6.61952,6.03528947368,0.0
1449617118863840511,6.61952,6.03528947368,0.0
1449617118897604892,6.61952,6.03528947368,0.0
1449617118930392963,6.61952,6.03528947368,0.0
1449617118963993087,6.61952,6.0,0.0
1449617118997441243,6.61952,6.0,0.0
1449617119031147498,6.61952,6.0,0.0
1449617119067016730,6.61952,5.96471052632,0.0
1449617119096842738,6.61952,5.96471052632,0.0
1449617119130575051,6.61952,5.96471052632,0.0
1449617119166854777,6.61952,5.96471052632,0.0
1449617119197659930,6.61952,5.96471052632,0.0
1449617119231553673,6.61952,5.96471052632,0.0
1449617119265058224,6.61952,5.96471052632,0.0
1449617119296931773,6.61952,5.96471052632,0.0
1449617119331991651,6.61952,5.96471052632,0.0
1449617119363651815,6.61952,5.96471052632,0.0
1449617119397241233,6.61952,5.96471052632,0.0
1449617119431407485,6.61952,5.96471052632,0.0
1449617119463693898,6.61952,5.96471052632,0.0
1449617119497667510,6.61952,5.96471052632,0.0
1449617119532796229,6.61952,5.96471052632,0.0
1449617119563791956,6.61952,5.89413157895,0.0
1449617119597173031,6.61952,5.89413157895,0.0
1449617119631320106,6.61952,5.89413157895,0.0
1449617119663384730,6.61952,5.89413157895,0.0
1449617119697437187,6.61952,5.89413157895,0.0
1449617119730478554,6.61952,5.89413157895,0.0
1449617119764186134,6.61952,5.89413157895,0.0
1449617119797179577,6.61952,5.89413157895,0.0
1449617119834012299,6.61952,5.82355263158,0.0
1449617119865674420,6.61952,5.82355263158,0.0
1449617119896765865,6.61952,5.82355263158,0.0
1449617119930239809,6.61952,5.82355263158,0.0
1449617119964933068,6.61952,5.82355263158,0.0
1449617119997171723,6.61952,5.82355263158,0.0
1449617120030461357,6.61952,5.82355263158,0.0
1449617120065114617,6.61952,5.82355263158,0.0
1449617120097476359,6.61952,5.82355263158,0.0
1449617120130793990,6.61952,5.82355263158,0.0
1449617120163684598,6.61952,5.82355263158,0.0
1449617120197302419,6.61952,5.82355263158,0.0
1449617120232690303,6.61952,5.82355263158,0.0
1449617120263632706,6.61952,5.82355263158,0.0
1449617120301470229,6.61952,5.82355263158,0.0
1449617120330269330,6.61952,5.82355263158,0.0
1449617120363476477,6.61952,5.75297368421,0.0
1449617120397284218,6.61952,5.75297368421,0.0
1449617120430713522,6.61952,5.75297368421,0.0
1449617120464403780,6.61952,5.75297368421,0.0
1449617120496904321,6.61952,5.75297368421,0.0
1449617120530786599,6.61952,5.75297368421,0.0
1449617120563712723,6.61952,5.75297368421,0.0
1449617120597047770,6.61952,5.75297368421,0.0
1449617120630304297,6.61952,5.75297368421,0.0
1449617120664372711,6.61952,5.75297368421,0.0
1449617120697651566,6.61952,5.75297368421,0.0
1449617120730664815,6.61952,5.75297368421,0.0
1449617120763380110,6.61952,5.75297368421,0.0
1449617120797976324,6.61952,5.75297368421,0.0
1449617120830254781,6.61952,5.75297368421,0.0
1449617120863588347,6.61952,5.75297368421,0.0
1449617120898348108,6.61952,5.75297368421,0.0
1449617120930452925,6.61952,5.75297368421,0.0
1449617120965152449,6.61952,5.75297368421,0.0
1449617120997680645,6.61952,5.75297368421,0.0
1449617121031518711,6.61952,5.75297368421,0.0
1449617121065876584,6.61952,5.68239473684,0.0
1449617121097669708,6.61952,5.68239473684,0.0
1449617121130517141,6.61952,5.68239473684,0.0
1449617121163633748,6.61952,5.68239473684,0.0
1449617121199770177,6.61952,5.68239473684,0.0
1449617121230541307,6.61952,5.68239473684,0.0
1449617121263580000,6.61952,5.68239473684,0.0
1449617121296912957,6.61952,5.68239473684,0.0
1449617121330053563,6.61952,5.68239473684,0.0
1449617121365434553,6.61952,5.68239473684,0.0
1449617121396878459,6.61952,5.68239473684,0.0
1449617121432070597,6.61952,5.68239473684,0.0
1449617121463610128,6.61952,5.68239473684,0.0
1449617121497151377,6.61952,5.68239473684,0.0
1449617121530479342,6.61952,5.68239473684,0.0
1449617121566111871,6.61952,5.68239473684,0.0
1449617121597698974,6.61952,5.68239473684,0.0
1449617121630349143,6.61952,5.68239473684,0.0
1449617121664025967,6.61952,5.68239473684,0.0
1449617121698050271,6.61952,5.61181578947,0.0
1449617121731450055,6.61952,5.61181578947,0.0
1449617121764079206,6.61952,5.61181578947,0.0
1449617121797005453,6.61952,5.61181578947,0.0
1449617121830505481,6.61952,5.61181578947,0.0
1449617121863612197,6.61952,5.61181578947,0.0
1449617121897947223,6.61952,5.61181578947,0.0
1449617121932067665,6.61952,5.61181578947,0.0
1449617121963742767,6.61952,5.61181578947,0.0
1449617121998674917,6.61952,5.61181578947,0.0
1449617122030836327,6.61952,5.61181578947,0.0
1449617122063940591,6.61952,5.61181578947,0.0
1449617122097135847,6.61952,5.61181578947,0.0
1449617122130053657,6.61952,5.61181578947,0.0
1449617122163900697,6.61952,5.61181578947,0.0
1449617122199404127,6.61952,5.61181578947,0.0
1449617122230578959,6.61952,5.68239473684,0.0
1449617122267008331,6.61952,5.68239473684,0.0
1449617122297493114,6.61952,5.68239473684,0.0
1449617122330374457,6.61952,5.68239473684,0.0
1449617122363431648,6.61952,5.68239473684,0.0
1449617122396685193,6.61952,5.61181578947,0.0
1449617122437518935,6.61952,5.61181578947,0.0
1449617122465312621,6.61952,5.61181578947,0.0
1449617122496987196,6.61952,5.61181578947,0.0
1449617122530926460,6.61952,5.61181578947,0.0
1449617122565136446,6.61952,5.61181578947,0.0
1449617122597697543,6.61952,5.61181578947,0.0
1449617122634102569,6.61952,5.61181578947,0.0
1449617122664231809,6.61952,5.61181578947,0.0
1449617122701734552,6.61952,5.61181578947,0.0
1449617122730337547,6.61952,5.61181578947,0.0
1449617122764233981,6.61952,5.61181578947,0.0
1449617122797762780,6.61952,5.61181578947,0.0
1449617122831291733,6.61952,5.61181578947,0.0
1449617122863446061,6.61952,5.61181578947,0.0
1449617122897621052,6.61952,5.61181578947,0.0
1449617122930154849,6.61952,5.61181578947,0.0
1449617122965429447,6.61952,5.61181578947,0.0
1449617122997315161,6.61952,5.61181578947,0.0
1449617123030907578,6.61952,5.61181578947,0.0
1449617123065113337,6.61952,5.61181578947,0.0
1449617123097039362,6.61952,5.61181578947,0.0
1449617123138522024,6.61952,5.61181578947,0.0
1449617123164142922,6.61952,5.61181578947,0.0
1449617123197785028,6.61952,5.68239473684,0.0
1449617123245408148,6.61952,5.68239473684,0.0
1449617123263498966,6.61952,5.68239473684,0.0
1449617123300215969,6.61952,5.68239473684,0.0
1449617123330814471,6.61952,5.68239473684,0.0
1449617123363688565,6.61952,5.68239473684,0.0
1449617123396813348,6.61952,5.68239473684,0.0
1449617123430978282,6.61952,5.75297368421,0.0
1449617123463753056,6.61952,5.75297368421,0.0
1449617123497299224,6.61952,5.75297368421,0.0
1449617123531410073,6.61952,5.75297368421,0.0
1449617123563682096,6.61952,5.75297368421,0.0
1449617123597074039,6.61952,5.75297368421,0.0
1449617123630384780,6.61952,5.89413157895,0.0
1449617123666253642,6.61952,5.89413157895,0.0
1449617123697673927,6.61952,5.89413157895,0.0
1449617123730880133,6.61952,5.89413157895,0.0
1449617123763748419,6.61952,5.89413157895,0.0
1449617123797359893,6.61952,5.89413157895,0.0
1449617123832290498,6.61952,5.89413157895,0.0
1449617123863905359,6.61952,5.89413157895,0.0
1449617123899093678,6.61952,5.82355263158,0.0
1449617123933146187,6.61952,5.82355263158,0.0
1449617123963902628,6.61952,5.75297368421,0.0
1449617123997280866,6.61952,5.75297368421,0.0
1449617124030375837,6.61952,5.75297368421,0.0
1449617124064959830,6.61952,5.75297368421,0.0
1449617124096762034,6.61952,5.75297368421,0.0
1449617124210006038,6.61952,5.75297368421,0.0
1449617124210026749,6.61952,5.75297368421,0.0
1449617124246029410,6.61952,5.75297368421,0.0
1449617124276295313,6.61952,5.75297368421,0.0
1449617124310242752,6.61952,5.75297368421,0.0
1449617124342839910,6.61952,5.75297368421,0.0
1449617124376161542,6.374528,6.0,0.0
1449617124410205613,6.374528,6.0,0.0
1449617124443721256,6.374528,6.0,0.0
1449617124477635663,5.6825,6.0,0.0
1449617124510343310,5.6825,6.0,0.0
1449617124543618692,5.6825,6.0,0.0
1449617124576268608,5.6825,6.0,0.0
1449617124609249615,5.84125,6.32992857175,0.0
1449617124646088138,5.84125,6.32992857175,0.0
1449617124676265378,5.84125,6.32992857175,0.0
1449617124709731257,5.84125,6.32992857175,0.0
1449617124742899345,5.84125,6.32992857175,0.0
1449617124776467208,5.84125,6.32992857175,0.0
1449617124809134986,5.84125,6.32992857175,0.0
1449617124844819349,5.76630992089,6.16496428587,0.0
1449617124876009995,5.76630992089,6.16496428587,0.0
1449617124909078060,5.76630992089,6.16496428587,0.0
1449617124943287265,5.76630992089,6.16496428587,0.0
1449617124976029614,5.76630992089,6.16496428587,0.0
1449617125011145491,5.76630992089,6.16496428587,0.0
1449617125042764013,5.76630992089,6.16496428587,0.0
1449617125076061880,5.76630992089,6.16496428587,0.0
1449617125109289954,5.76630992089,6.16496428587,0.0
1449617125150193216,5.76630992089,6.16496428587,0.0
1449617125176005509,5.76630992089,6.16496428587,0.0
1449617125210087273,5.76630992089,6.16496428587,0.0
1449617125243116023,5.76630992089,6.16496428587,0.0
1449617125276211685,5.76630992089,6.16230357175,0.0
1449617125311658574,5.76630992089,6.16230357175,0.0
1449617125343080759,5.76630992089,6.16496428587,0.0
1449617125376316055,5.76630992089,6.16496428587,0.0
1449617125409347616,6.54610606169,5.96471052632,0.0
1449617125445248865,6.54610606169,5.96471052632,0.0
1449617125475981027,6.53766622213,5.96471052632,0.0
1449617125510407819,6.53766622213,5.96471052632,0.0
1449617125545239739,6.53766622213,5.96471052632,0.0
1449617125575886707,6.53428919242,5.96471052632,0.0
1449617125615249570,6.53428919242,5.96471052632,0.0
1449617125643867279,6.52922320698,5.96471052632,0.0
1449617125675918794,6.52922320698,5.96471052632,0.0
1449617125710120855,6.52753477919,5.96471052632,0.0
1449617125742703302,6.52753477919,5.96471052632,0.0
1449617125776117409,6.52246774581,5.96471052632,0.0
1449617125809450993,6.52246774581,5.96471052632,0.0
1449617125842969306,6.51908981968,5.96471052632,0.0
1449617125875905786,6.51908981968,5.96471052632,0.0
1449617125909861570,6.51908981968,5.96471052632,0.0
1449617125943279902,6.51740046925,6.0,0.0
1449617125978847176,6.51740046925,6.0,0.0
1449617126011089843,6.51740046925,6.0,0.0
1449617126042588975,6.51402216654,6.0,0.0
1449617126076066440,6.51064359613,6.0,0.0
1449617126109254625,6.51064359613,6.0,0.0
1449617126143516449,6.51064359613,6.0,0.0
1449617126177647127,6.0,6.0,0.0
1449617126209407495,6.0,6.0,0.0
1449617126243147775,6.0,6.0,0.0
1449617126276117799,6.0,6.0,0.0
1449617126309174577,6.0,6.0,0.0
1449617126347161575,6.0,6.0,0.0
1449617126376297029,6.0,6.0,0.0
1449617126409164131,6.0,6.0,0.0
1449617126442598850,6.0,6.0,0.0
1449617126481539146,6.0,6.0,0.0
1449617126510157231,6.0,6.0,0.0
1449617126545413314,6.0,6.0,0.0
1449617126575855883,6.0,6.0,0.0
1449617126611088132,6.0,6.0,0.0
1449617126644935645,6.0,6.0,0.0
1449617126676339930,6.0,6.0,0.0
1449617126713735065,6.0,6.0,0.0
1449617126742762634,6.0,6.0,0.0
1449617126776426260,6.0,6.0,0.0
1449617126810563777,6.0,6.0,0.0
1449617126842989100,6.0,6.0,0.0
1449617126878045587,6.0,6.0,0.0
1449617126909397584,6.0,6.0,0.0
1449617126949686581,6.0,6.0,0.0
1449617126977276702,6.0,6.0,0.0
1449617127009463354,6.0,6.0,0.0
1449617127042691892,6.0,6.0,0.0
1449617127078331209,6.0,6.0,0.0
1449617127110054330,6.0,6.0,0.0
1449617127142674131,6.0,6.0,0.0
1449617127179329265,6.0,6.0,0.0
1449617127210345900,6.0,6.0,0.0
1449617127242948706,6.0,6.0,0.0
1449617127276023801,6.0,6.0,0.0
1449617127309437014,6.0,6.0,0.0
1449617127345633250,6.0,6.0,0.0
1449617127375933960,6.0,6.0,0.0
1449617127409460253,6.0,6.0,0.0
1449617127442612360,6.0,6.0,0.0
1449617127479324865,6.0,6.0,0.0
1449617127509817463,6.0,6.0,0.0
1449617127542398932,6.0,6.0,0.0
1449617127576082156,6.0,6.0,0.0
1449617127610351315,6.0,6.0,0.0
1449617127642859053,6.0,6.0,0.0
1449617127675974432,6.0,6.0,0.0
1449617127712193469,6.0,6.0,0.0
1449617127743165039,6.0,6.0,0.0
1449617127777040020,6.0,6.0,0.0
1449617127809467579,6.0,6.0,0.0
1449617127843392211,6.0,6.0,0.0
1449617127877732671,6.0,6.0,0.0
1449617127909221125,6.0,6.0,0.0
1449617127946012103,6.0,6.0,0.0
1449617127975996969,6.0,6.0,0.0
1449617128009528857,6.0,6.0,0.0
1449617128043224258,6.0,6.0,0.0
1449617128077541152,6.0,6.0,0.0
1449617128111910901,6.0,6.0,0.0
1449617128142620896,6.0,6.0,0.0
1449617128176019331,6.0,6.0,0.0
1449617128212275113,6.0,6.0,0.0
1449617128242844075,6.0,6.0,0.0
1449617128276525639,6.0,6.0,0.0
1449617128309645145,6.0,6.0,0.0
1449617128342648809,6.0,6.0,0.0
1449617128378199690,6.0,6.0,0.0
1449617128415683965,6.0,6.0,0.0
1449617128443468469,6.0,6.0,0.0
1449617128476237431,6.0,6.0,0.0
1449617128509373887,6.0,6.0,0.0
1449617128544258716,6.0,6.0,0.0
1449617128575915330,6.0,6.0,0.0
1449617128610370917,6.0,6.0,0.0
1449617128642609220,6.0,6.0,0.0
1449617128676302625,6.0,6.0,0.0
1449617128709184626,6.0,6.0,0.0
1449617128743171293,6.0,6.0,0.0
1449617128776467924,6.0,6.0,0.0
1449617128809411988,6.0,6.0,0.0
1449617128843322212,6.0,6.0,0.0
1449617128875802198,6.0,6.0,0.0
1449617128909861223,6.0,6.0,0.0
1449617128943480400,6.0,6.0,0.0
1449617128976070102,6.0,6.0,0.0
1449617129009838211,6.0,6.0,0.0
1449617129042922497,6.0,6.0,0.0
1449617129075891537,6.0,6.0,0.0
1449617129109514577,6.0,6.0,0.0
1449617129142702542,6.0,6.0,0.0
1449617129175903636,6.0,6.0,0.0
1449617129209188970,6.2112,6.03528947368,0.0
1449617129242590644,6.2112,6.03528947368,0.0
1449617129276300649,6.2112,6.03528947368,0.0
1449617129309630466,6.2112,6.03528947368,0.0
1449617129342781729,6.2112,6.03528947368,0.0
1449617129376171785,6.2112,6.03528947368,0.0
1449617129409744510,6.2112,6.03528947368,0.0
1449617129444851256,6.2112,6.03528947368,0.0
1449617129476296203,6.2112,6.03528947368,0.0
1449617129509717218,6.2112,6.03528947368,0.0
1449617129542641756,6.2112,6.03528947368,0.0
1449617129576047856,6.2112,6.03528947368,0.0
1449617129613846808,6.2112,6.03528947368,0.0
1449617129645734562,6.2112,6.03528947368,0.0
1449617129676604400,6.2112,6.03528947368,0.0
1449617129709234213,6.2112,6.03528947368,0.0
1449617129743025819,6.2112,6.03528947368,0.0
1449617129776216332,6.2112,6.03528947368,0.0
1449617129809933719,6.2112,6.03528947368,0.0
1449617129843012038,6.2112,6.03528947368,0.0
1449617129880280697,6.2112,6.03528947368,0.0
1449617129909415816,6.2112,6.03528947368,0.0
1449617129942485300,6.2112,6.03528947368,0.0
1449617129976684764,6.2112,6.03528947368,0.0
1449617130010348576,6.2112,6.03528947368,0.0
1449617130042693458,6.2112,6.03528947368,0.0
1449617130076139232,6.2112,6.03528947368,0.0
1449617130109539041,6.2112,6.03528947368,0.0
1449617130144028261,6.2112,6.03528947368,0.0
1449617130177668182,6.2112,6.03528947368,0.0
1449617130209614925,6.2112,6.03528947368,0.0
1449617130243560291,6.2112,6.03528947368,0.0
1449617130276512740,6.2112,6.03528947368,0.0
1449617130310762857,6.2112,6.03528947368,0.0
1449617130342924924,6.2112,6.03528947368,0.0
1449617130376828348,6.2112,6.03528947368,0.0
1449617130409776984,6.24092541181,6.03528947368,0.0
1449617130443884268,6.24092541181,6.03528947368,0.0
1449617130477159269,6.24092541181,6.03528947368,0.0
1449617130509612015,6.24092541181,6.03528947368,0.0
1449617130543795499,6.24063831457,6.03528947368,0.0
1449617130576339886,6.24063831457,6.03528947368,0.0
1449617130609936866,6.24063831457,6.03528947368,0.0
1449617130642640392,6.26059174896,6.02221696746,0.0
1449617130676527157,6.26059174896,6.02221696746,0.0
1449617130709234483,6.26059174896,6.02221696746,0.0
1449617130745411149,6.26059174896,6.02221696746,0.0
1449617130776319427,6.26059174896,6.02268609308,0.0
1449617130810049186,6.26059174896,6.02268609308,0.0
1449617130843789137,6.26059174896,6.02268609308,0.0
1449617130880330153,6.26059174896,6.02268609308,0.0
1449617130910760930,6.26550857407,6.01736466483,0.0
1449617130942485936,6.26550857407,6.01736466483,0.0
1449617130976050611,6.26059174896,6.02221696746,0.0
1449617131009455679,6.26059174896,6.02221696746,0.0
1449617131045584235,6.26059174896,6.02753839571,0.0
1449617131075874946,6.26059174896,6.02753839571,0.0
1449617131109734836,6.26059174896,6.02753839571,0.0
1449617131143131503,6.26059174896,6.02753839571,0.0
1449617131176299213,6.26059174896,6.02221696746,0.0
1449617131209579085,6.26059174896,6.02221696746,0.0
1449617131242629319,6.26059174896,6.02221696746,0.0
1449617131276195657,6.26059174896,6.02221696746,0.0
1449617131310068689,6.26059174896,6.02221696746,0.0
1449617131343274916,6.26550857407,6.02221696746,0.0
1449617131375775848,6.26550857407,6.02221696746,0.0
1449617131409427913,6.2112,6.03528947368,0.0
1449617131443495903,6.2112,6.03528947368,0.0
1449617131485697499,6.2112,6.03528947368,0.0
1449617131511165317,6.2112,6.03528947368,0.0
1449617131542533502,6.2112,6.03528947368,0.0
1449617131576099055,6.26550857407,6.02753839571,0.0
1449617131612225542,6.26550857407,6.02753839571,0.0
1449617131642694282,6.26550857407,6.02753839571,0.0
1449617131676429701,6.26550857407,6.02221696746,0.0
1449617131710991454,6.26550857407,6.02221696746,0.0
1449617131743764612,6.26550857407,6.02221696746,0.0
1449617131782482055,6.18683937241,5.98496696968,0.0
1449617131809548834,6.18683937241,5.98496696968,0.0
1449617131842671812,6.23614167342,6.03528947368,0.0
1449617131875946082,6.23614167342,6.03528947368,0.0
1449617131909994524,6.23614167342,6.03528947368,0.0
1449617131942585631,6.23614167342,6.03528947368,0.0
1449617131977557669,6.23614167342,6.03528947368,0.0
1449617132009231927,6.23614167342,6.03528947368,0.0
1449617132043056049,6.28438600555,6.10586842105,0.0
1449617132076085479,6.28438600555,6.10586842105,0.0
1449617132109405311,6.28357244762,6.10586842105,0.0
1449617132154789149,6.28357244762,6.10586842105,0.0
1449617132176785783,6.28357244762,6.10586842105,0.0
1449617132209526670,6.28357244762,6.10586842105,0.0
1449617132243379080,6.28357244762,6.10586842105,0.0
1449617132276107975,6.28357244762,6.10586842105,0.0
1449617132309855505,6.23505141871,6.03528947368,0.0
1449617132349879022,6.32910716325,6.10586842105,0.0
1449617132376074514,6.32910716325,6.10586842105,0.0
1449617132416775889,6.32910716325,6.10586842105,0.0
1449617132443174738,6.30338216995,6.10586842105,0.0
1449617132476381617,6.30338216995,6.10586842105,0.0
1449617132509524339,6.30338216995,6.10586842105,0.0
1449617132542966032,6.30338216995,6.10586842105,0.0
1449617132576174014,6.30124908079,6.10586842105,0.0
1449617132609319722,6.30124908079,6.10586842105,0.0
1449617132646080870,6.30124908079,6.10586842105,0.0
1449617132675899596,6.30124908079,6.10586842105,0.0
1449617132709187455,6.30124908079,6.10586842105,0.0
1449617132745253961,6.32243884996,6.10586842105,0.0
1449617132776386330,6.32243884996,6.10586842105,0.0
1449617132809319603,6.31979278264,6.10586842105,0.0
1449617132842676156,6.31979278264,6.10586842105,0.0
1449617132875756773,6.25358425507,6.10586842105,0.0
1449617132910410348,6.25254164107,6.10586842105,0.0
1449617132942471959,6.25254164107,6.10586842105,0.0
1449617132976676771,6.25254164107,6.10586842105,0.0
1449617133009139875,6.25254164107,6.10586842105,0.0
1449617133043419342,6.27165751681,6.10586842105,0.0
1449617133077033921,6.27165751681,6.10586842105,0.0
1449617133110019959,6.27089037428,6.10586842105,0.0
1449617133144005255,6.26858209176,6.10586842105,0.0
1449617133176446069,6.26858209176,6.10586842105,0.0
1449617133210056147,6.26858209176,6.10586842105,0.0
1449617133242914607,6.26858209176,6.10586842105,0.0
1449617133276440734,6.28468917587,6.10586842105,0.0
1449617133310811960,6.28268288783,6.10586842105,0.0
1449617133344168881,6.28268288783,6.10586842105,0.0
1449617133376298214,6.28268288783,6.10586842105,0.0
1449617133410510555,6.24644972535,6.10586842105,0.0
1449617133442653998,6.28070983284,6.10586842105,0.0
1449617133478987973,6.28070983284,6.10586842105,0.0
1449617133511258399,6.2112,6.10586842105,0.0
1449617133542594783,6.2112,6.10586842105,0.0
1449617133577910366,6.2112,6.10586842105,0.0
1449617133610534185,6.29199546804,6.17644736842,0.0
1449617133643254867,6.29199546804,6.17644736842,0.0
1449617133676097135,6.2112,6.10586842105,0.0
1449617133716135388,6.2112,6.10586842105,0.0
1449617133742650460,6.28959425867,6.17644736842,0.0
1449617133777447005,6.28959425867,6.17644736842,0.0
1449617133809511233,6.2264051123,6.10586842105,0.0
1449617133845774741,6.2554063483,6.10586842105,0.0
1449617133875930883,6.2554063483,6.10586842105,0.0
1449617133909394088,6.26827974889,6.17644736842,0.0
1449617133942720316,6.26827974889,6.17644736842,0.0
1449617133977583711,6.26827974889,6.17644736842,0.0
1449617134015891226,6.26643493977,6.17644736842,0.0
1449617134042443084,6.26643493977,6.17644736842,0.0
1449617134077229277,6.26552969652,6.17644736842,0.0
1449617134109624003,6.26552969652,6.17644736842,0.0
1449617134142813578,6.26552969652,6.17644736842,0.0
1449617134178162874,6.27797284895,6.17644736842,0.0
1449617134210457366,6.27797284895,6.17644736842,0.0
1449617134242789150,6.27797284895,6.17644736842,0.0
1449617134276175658,6.27685263254,6.17644736842,0.0
1449617134309310269,6.27685263254,6.17644736842,0.0
1449617134342927386,6.27461612918,6.17644736842,0.0
1449617134375943962,6.27461612918,6.17644736842,0.0
1449617134409565465,6.27461612918,6.17644736842,0.0
1449617134444227930,6.27241668958,6.17644736842,0.0
1449617134476690083,6.24662496026,6.17644736842,0.0
1449617134510169742,6.24662496026,6.17644736842,0.0
1449617134542908002,6.24662496026,6.17644736842,0.0
1449617134576823884,6.24662496026,6.17644736842,0.0
1449617134614282638,6.24662496026,6.17644736842,0.0
1449617134645148517,6.24662496026,6.17644736842,0.0
1449617134677133207,6.26807771867,6.17644736842,0.0
1449617134709622898,6.26807771867,6.17644736842,0.0
1449617134742502018,6.2659530077,6.17644736842,0.0
1449617134776942163,6.25332356848,6.17644736842,0.0
1449617134809649474,6.25332356848,6.17644736842,0.0
1449617134843739129,6.26178284173,6.24702631579,0.0
1449617134876648482,6.26178284173,6.24702631579,0.0
1449617134909294037,6.26178284173,6.24702631579,0.0
1449617134944350716,6.26178284173,6.24702631579,0.0
1449617134977385963,6.2577222884,6.24702631579,0.0
1449617135009665392,6.2577222884,6.24702631579,0.0
1449617135042682011,6.2577222884,6.24702631579,0.0
1449617135079000433,6.2577222884,6.24702631579,0.0
1449617135109498599,6.24682784429,6.17644736842,0.0
1449617135142894989,6.24682784429,6.17644736842,0.0
1449617135176365881,6.24682784429,6.17644736842,0.0
1449617135210440768,6.25377675041,6.24702631579,0.0
1449617135250112787,6.25377675041,6.24702631579,0.0
1449617135276420061,6.25377675041,6.24702631579,0.0
1449617135309562336,6.25377675041,6.24702631579,0.0
1449617135345965441,6.25377675041,6.24702631579,0.0
1449617135376369976,6.25377675041,6.24702631579,0.0
1449617135422968868,6.24220144765,6.24702631579,0.0
1449617135458133713,6.24220144765,6.24702631579,0.0
1449617135476021908,6.2407089554,6.24702631579,0.0
1449617135509387300,6.24625281208,6.24702631579,0.0
1449617135542862956,6.23780191066,6.24702631579,0.0
1449617135576209261,6.23780191066,6.24702631579,0.0
1449617135609358192,6.23780191066,6.24702631579,0.0
1449617135649466719,6.23780191066,6.24702631579,0.0
1449617135676188145,6.23780191066,6.24702631579,0.0
1449617135709875634,6.2300914721,6.24702631579,0.0
1449617135743486033,6.2300914721,6.24702631579,0.0
1449617135776069206,6.23429575858,6.24702631579,0.0
1449617135812208968,6.23429575858,6.24702631579,0.0
1449617135845822664,6.23429575858,6.24702631579,0.0
1449617135875894981,6.23429575858,6.24702631579,0.0
1449617135909606584,6.22206990565,6.24702631579,0.0
1449617135942852849,6.23509395258,6.24702631579,0.0
1449617135976552117,6.23509395258,6.24702631579,0.0
1449617136009979939,6.23430483599,6.24702631579,0.0
1449617136053713938,6.23430483599,6.24702631579,0.0
1449617136076042443,6.23430483599,6.24702631579,0.0
1449617136109435934,6.22904768589,6.24702631579,0.0
1449617136145281531,6.22904768589,6.24702631579,0.0
1449617136176896139,6.22904768589,6.24702631579,0.0
1449617136209680247,6.22659261205,6.24702631579,0.0
1449617136242927979,6.2218546406,6.24702631579,0.0
1449617136276268752,6.2218546406,6.24702631579,0.0
1449617136309228148,6.2218546406,6.24702631579,0.0
1449617136344849363,6.2218546406,6.24702631579,0.0
1449617136375792096,6.2218546406,6.24702631579,0.0
1449617136410505280,6.21772608885,6.24702631579,0.0
1449617136442427439,6.21772608885,6.24702631579,0.0
1449617136477018938,6.21417952876,6.24702631579,0.0
1449617136509711349,6.21417952876,6.24702631579,0.0
1449617136543065264,6.21417952876,6.24702631579,0.0
1449617136576601758,6.22473839295,6.24702631579,0.0
1449617136609296822,6.21891500301,6.24702631579,0.0
1449617136643230839,6.21891500301,6.24702631579,0.0
1449617136682483120,6.21891500301,6.24702631579,0.0
1449617136709862541,6.21556639153,6.24702631579,0.0
1449617136744864073,6.21556639153,6.24702631579,0.0
1449617136776001432,6.21556639153,6.24702631579,0.0
1449617136810248881,6.21556639153,6.24702631579,0.0
1449617136843609809,6.21942354089,6.24702631579,0.0
1449617136883051129,6.21942354089,6.24702631579,0.0
1449617136912026488,6.2130079597,6.24702631579,0.0
1449617136942819428,6.2130079597,6.24702631579,0.0
1449617136976591954,6.2127690329,6.24702631579,0.0
1449617137009755047,6.2112,6.24702631579,0.0
1449617137043066400,6.2112,6.24702631579,0.0
1449617137077672082,6.2112,6.24702631579,0.0
1449617137111392090,6.2112,6.24702631579,0.0
1449617137142406932,6.2112,6.24702631579,0.0
1449617137176108858,6.2112,6.24702631579,0.0
1449617137209443328,6.2112,6.24702631579,0.0
1449617137245276653,6.2112,6.24702631579,0.0
1449617137277142688,6.2112,6.24702631579,0.0
1449617137309541825,6.2112,6.24702631579,0.0
1449617137343162842,6.2112,6.24702631579,0.0
1449617137379974716,6.2112,6.24702631579,0.0
1449617137409483580,6.2112,6.24702631579,0.0
1449617137443988119,6.2127847554,6.24702631579,0.0
1449617137476445706,6.2112,6.24702631579,0.0
1449617137515968578,6.2112,6.24702631579,0.0
1449617137542507818,6.2112,6.24702631579,0.0
1449617137581782046,6.2112,6.24702631579,0.0
1449617137611342461,6.2112,6.24702631579,0.0
1449617137642897579,6.2112,6.24702631579,0.0
1449617137676759994,6.2112,6.24702631579,0.0
1449617137710060345,6.2112,6.24702631579,0.0
1449617137743072224,6.2112,6.24702631579,0.0
1449617137782891449,6.2112,6.24702631579,0.0
1449617137809715448,6.00443492089,5.77523616087,0.0
1449617137842718531,6.2112,6.24702631579,0.0
1449617137875797697,6.2112,6.24702631579,0.0
1449617137909417653,6.2112,6.24702631579,0.0
1449617137943352620,6.2112,6.24702631579,0.0
1449617137976567864,6.00886984178,5.77257544675,0.0
1449617138010020652,6.00886984178,5.77257544675,0.0
1449617138044864710,6.00886984178,5.77257544675,0.0
1449617138078444199,6.00886984178,5.77523616087,0.0
1449617138109124230,6.00886984178,5.77523616087,0.0
1449617138143197208,6.00886984178,5.77523616087,0.0
1449617138176037505,6.00886984178,5.77523616087,0.0
1449617138210298301,6.00886984178,5.77523616087,0.0
1449617138242985419,6.00886984178,5.77523616087,0.0
1449617138277209036,6.00886984178,5.77257544675,0.0
1449617138310752405,6.00886984178,5.77257544675,0.0
1449617138343682005,6.00886984178,5.77257544675,0.0
1449617138376006375,6.00886984178,5.77523616087,0.0
1449617138409488310,6.00886984178,5.77523616087,0.0
1449617138443129889,6.00886984178,5.75927187611,0.0
1449617138475990593,6.00886984178,5.75927187611,0.0
1449617138509270363,6.00886984178,5.75927187611,0.0
1449617138543098449,6.00886984178,5.77257544675,0.0
1449617138576346733,6.00886984178,5.77257544675,0.0
1449617138609836325,6.00886984178,5.77257544675,0.0
1449617138642785188,6.00886984178,5.77257544675,0.0
1449617138676295809,6.00886984178,5.75128973373,0.0
1449617138709196323,6.00886984178,5.75128973373,0.0
1449617138742656313,6.00886984178,5.77523616087,0.0
1449617138779621340,6.00886984178,5.77523616087,0.0
1449617138809901882,6.00886984178,5.77523616087,0.0
1449617138842664909,6.00886984178,5.77523616087,0.0
1449617138876111550,6.00886984178,5.77523616087,0.0
1449617138912882883,6.2112,6.24702631579,0.0
1449617138942605760,6.2112,6.24702631579,0.0
1449617138976382557,6.2112,6.24702631579,0.0
1449617139010079039,6.2112,6.24702631579,0.0
1449617139042568371,6.2112,6.24702631579,0.0
1449617139076063509,6.26059174896,6.02221696746,0.0
1449617139110156456,6.3982628611,6.29314420119,0.0
1449617139196341725,6.3982628611,6.29314420119,0.0
1449617139196372018,6.3982628611,6.29314420119,0.0
1449617139232212302,6.3982628611,6.29314420119,0.0
1449617139242631215,6.3982628611,6.29314420119,0.0
1449617139276224638,6.26059174896,6.02221696746,0.0
1449617139309619992,6.26059174896,6.02221696746,0.0
1449617139343443869,6.26059174896,6.02221696746,0.0
1449617139376077764,6.26059174896,6.02221696746,0.0
1449617139409785890,6.26059174896,6.02753839571,0.0
1449617139443000936,6.22125714813,5.97964554142,0.0
1449617139478602827,6.22125714813,5.97964554142,0.0
1449617139509097432,6.22125714813,5.97964554142,0.0
1449617139544040456,6.26059174896,6.02221696746,0.0
1449617139579174660,6.26059174896,6.02221696746,0.0
1449617139610925064,6.26059174896,6.02221696746,0.0
1449617139643597962,6.26059174896,6.02221696746,0.0
1449617139675865349,6.26059174896,6.02753839571,0.0
1449617139709776190,6.26059174896,6.02753839571,0.0
1449617139742839362,6.52118349792,6.55342857841,0.0
1449617139775957130,6.52118349792,6.55342857841,0.0
1449617139809657953,6.52118349792,6.55342857841,0.0
1449617139842878881,6.52118349792,6.57471429142,0.0
1449617139876847153,6.52118349792,6.57471429142,0.0
1449617139909260741,6.52118349792,6.57471429142,0.0
1449617139942707683,6.52118349792,6.57471429142,0.0
1449617139978636437,6.53101714813,6.56407143492,0.0
1449617140009340887,6.53101714813,6.56407143492,0.0
1449617140043216501,6.0,6.0,0.0
1449617140076690036,6.2112,6.24702631579,0.0
1449617140109402228,6.2112,6.24702631579,0.0
1449617140142755269,6.2112,6.24702631579,0.0
1449617140176449817,6.2112,6.24702631579,0.0
1449617140209876775,6.2112,6.24702631579,0.0
1449617140243168102,6.2112,6.24702631579,0.0
1449617140275800003,6.2112,6.24702631579,0.0
1449617140309265274,6.35422145649,6.45876315789,0.0
1449617140343649823,6.35422145649,6.45876315789,0.0
1449617140375952759,6.35112603336,6.45876315789,0.0
1449617140409375432,6.35112603336,6.45876315789,0.0
1449617140442868423,6.34802844806,6.38818421053,0.0
1449617140476314239,6.34802844806,6.38818421053,0.0
1449617140509595315,6.34802844806,6.38818421053,0.0
1449617140543248186,6.34337063997,6.45876315789,0.0
1449617140576161798,6.34337063997,6.45876315789,0.0
1449617140609652528,6.34027917005,6.45876315789,0.0
1449617140643110740,6.33718598216,6.45876315789,0.0
1449617140676031278,6.33718598216,6.45876315789,0.0
1449617140710675274,6.33718598216,6.45876315789,0.0
1449617140742723210,6.33253488717,6.38818421053,0.0
1449617140775900314,6.33253488717,6.38818421053,0.0
1449617140810223926,6.32944099465,6.45876315789,0.0
1449617140843788591,6.32944099465,6.45876315789,0.0
1449617140876466785,6.32944099465,6.45876315789,0.0
1449617140909371844,6.326345461,6.45876315789,0.0
1449617140943166976,6.57035174896,6.30864285873,0.0
1449617140975983488,6.57035174896,6.30864285873,0.0
1449617141015540627,6.57035174896,6.30864285873,0.0
1449617141042826544,6.57035174896,6.30864285873,0.0
1449617141076457714,6.59985269958,6.05321428754,0.0
1449617141109191574,6.59985269958,6.05321428754,0.0
1449617141144301696,6.59001904938,6.12771428809,0.0
1449617141176797493,6.59001904938,6.12771428809,0.0
1449617141209830330,6.59001904938,6.12771428809,0.0
1449617141242634831,6.59001904938,6.12771428809,0.0
1449617141276259072,6.30770593686,6.38818421053,0.0
1449617141311700126,6.29832219422,6.45876315789,0.0
1449617141344403738,6.29832219422,6.45876315789,0.0
1449617141376082047,6.29832219422,6.45876315789,0.0
1449617141409833712,6.29675630239,6.38818421053,0.0
1449617141442773000,6.29205987398,6.38818421053,0.0
1449617141477498592,6.29205987398,6.38818421053,0.0
1449617141509497001,6.29205987398,6.38818421053,0.0
1449617141544071291,6.29205987398,6.38818421053,0.0
1449617141576239775,6.28420432977,6.45876315789,0.0
1449617141609369316,6.28420432977,6.45876315789,0.0
1449617141642930542,6.27950092508,6.38818421053,0.0
1449617141676337092,6.27950092508,6.38818421053,0.0
1449617141711863611,6.27950092508,6.38818421053,0.0
1449617141742450171,6.27950092508,6.38818421053,0.0
1449617141777913325,6.27950092508,6.38818421053,0.0
1449617141809493159,6.2685250112,6.45876315789,0.0
1449617141843402733,6.26223687643,6.45876315789,0.0
1449617141876574810,6.26223687643,6.45876315789,0.0
1449617141910005377,6.26223687643,6.45876315789,0.0
1449617141944377263,6.59985269958,6.05321428754,0.0
1449617141977139849,6.59985269958,6.05321428754,0.0
1449617142009653855,6.59985269958,6.05321428754,0.0
1449617142045239867,6.59985269958,6.05321428754,0.0
1449617142077148409,6.60968634979,6.05321428754,0.0
1449617142109333909,6.60968634979,6.05321428754,0.0
1449617142142800592,6.24805189255,6.45876315789,0.0
1449617142176227133,6.24805189255,6.45876315789,0.0
1449617142210016099,6.24490077108,6.45876315789,0.0
1449617142242877893,6.24490077108,6.45876315789,0.0
1449617142277685538,6.24490077108,6.45876315789,0.0
1449617142310767795,6.24490077108,6.45876315789,0.0
1449617142342941575,6.22803806611,6.52934210526,0.0
1449617142376091729,6.22803806611,6.52934210526,0.0
1449617142411298916,6.22803806611,6.52934210526,0.0
1449617142443308775,6.22803806611,6.52934210526,0.0
1449617142476078329,6.22677115374,6.45876315789,0.0
1449617142509411016,6.22677115374,6.45876315789,0.0
1449617142542710835,6.22677115374,6.45876315789,0.0
1449617142576240659,6.0,6.0,0.0
1449617142610003269,6.0,6.0,0.0
1449617142642922097,6.00886984178,6.00532142888,0.0
1449617142675887334,6.33434414398,6.04257143103,0.0
1449617142709785959,6.59985269958,6.04257143103,0.0
1449617142743324468,6.59985269958,6.04257143103,0.0
1449617142778561983,6.59985269958,6.04257143103,0.0
1449617142811950554,6.59985269958,6.04257143103,0.0
1449617142842784732,6.59985269958,6.04257143103,0.0
1449617142876397097,6.0,6.0,0.0
1449617142911020097,6.0,6.0,0.0
1449617142943949115,6.2112,6.31760526316,0.0
1449617142976293190,6.20650666821,5.96587634107,0.0
1449617143009393592,6.20650666821,5.96587634107,0.0
1449617143047436390,6.20650666821,5.96587634107,0.0
1449617143078574556,6.26663703643,6.03528947368,0.0
1449617143109614664,6.26663703643,6.03528947368,0.0
1449617143143762130,6.37472279707,6.08682330914,0.0
1449617143177295303,6.31467684357,6.1383571446,0.0
1449617143210866824,6.31467684357,6.1383571446,0.0
1449617143243652872,6.31467684357,6.1383571446,0.0
1449617143276294604,6.32451049377,6.1383571446,0.0
1449617143309842250,6.32451049377,6.1383571446,0.0
1449617143343842680,6.32451049377,6.1383571446,0.0
1449617143377818048,6.32451049377,6.1383571446,0.0
1449617143412927538,6.32451049377,6.1383571446,0.0
1449617143442771767,6.32451049377,6.1383571446,0.0
1449617143476165291,6.16717207199,6.20221429364,0.0
1449617143509926675,6.16717207199,6.20221429364,0.0
1449617143543131161,6.20650667282,6.23414286317,0.0
1449617143575895314,6.20650667282,6.23414286317,0.0
1449617143609426813,6.20650667282,6.23414286317,0.0
1449617143644117221,6.20650667282,6.23414286317,0.0
1449617143675731372,6.3048431749,6.32992857175,0.0
1449617143709381927,6.3048431749,6.32992857175,0.0
1449617143744762896,6.52118349792,6.56407143492,0.0
1449617143776174200,6.52118349792,6.56407143492,0.0
1449617143809989307,6.52118349792,6.56407143492,0.0
1449617143842965384,6.52118349792,6.56407143492,0.0
1449617143879085120,6.52118349792,6.56407143492,0.0
1449617143909710044,6.52118349792,6.56407143492,0.0
1449617143944317167,6.52118349792,6.56407143492,0.0
1449617143977513879,6.52118349792,6.56407143492,0.0
1449617144011263769,6.52118349792,6.56407143492,0.0
1449617144044157762,6.52118349792,6.56407143492,0.0
1449617144076134299,6.52118349792,6.56407143492,0.0
1449617144109643322,6.52118349792,6.56407143492,0.0
1449617144143306402,6.52118349792,6.56407143492,0.0
1449617144176389213,6.53101714813,6.57471429142,0.0
1449617144209692209,6.53101714813,6.57471429142,0.0
1449617144242969210,6.53101714813,6.57471429142,0.0
1449617144275797368,6.52118349792,6.56407143492,0.0
1449617144313652666,6.52118349792,6.56407143492,0.0
1449617144342748114,6.53101714813,6.57471429142,0.0
1449617144376322750,6.53101714813,6.57471429142,0.0
1449617144409639695,6.53101714813,6.57471429142,0.0
1449617144443166698,6.53101714813,6.57471429142,0.0
1449617144482094324,6.52118349792,6.56407143492,0.0
1449617144514102903,6.52118349792,6.56407143492,0.0
1449617144542653680,6.52118349792,6.56407143492,0.0
1449617144576176984,6.58018539917,6.21285715015,0.0
1449617144609666657,6.58018539917,6.21285715015,0.0
1449617144655227591,6.58018539917,6.21285715015,0.0
1449617144676554990,6.05321904861,6.02128571551,0.0
1449617144709696355,6.05321904861,6.02128571551,0.0
1449617144749350806,6.01773968356,6.0,0.0
1449617144776119519,6.01773968356,6.0,0.0
1449617144809702186,6.01773968356,6.0,0.0
1449617144843127985,6.01773968356,6.0,0.0
1449617144875985094,6.01773968356,6.0,0.0
1449617144909281227,6.01773968356,6.0,0.0
1449617144942955672,6.0,6.0,0.0
1449617144975912834,6.0,6.0,0.0
1449617145009249005,6.0,6.0,0.0
1449617145044291423,6.0,6.0,0.0
1449617145075851068,6.0,6.0,0.0
1449617145109800230,6.0,6.0,0.0
1449617145143277674,6.0,6.0,0.0
1449617145176774156,6.0,6.0,0.0
1449617145210223676,6.0,6.0,0.0
1449617145243845213,6.0,6.0,0.0
1449617145275810359,6.0,6.0,0.0
1449617145309607286,6.0,6.0,0.0
1449617145342513736,6.0,6.0,0.0
1449617145376264870,6.0,6.0,0.0
1449617145409381354,6.0,6.0,0.0
1449617145444433645,6.0,6.0,0.0
1449617145476060585,6.0,6.0,0.0
1449617145509118263,6.0,6.0,0.0
1449617145542668727,6.0,6.0,0.0
1449617145575940680,6.0,6.0,0.0
1449617145610574913,6.0,6.0,0.0
1449617145642603325,6.0,6.0,0.0
1449617145677897317,6.0,6.0,0.0
1449617145709369831,6.0,6.0,0.0
1449617145743526838,6.0,6.0,0.0
1449617145778120327,6.0,6.0,0.0
1449617145809512245,6.0,6.0,0.0
1449617145843877090,6.0,6.0,0.0
1449617145887560790,6.0,6.0,0.0
1449617145909959306,6.0,6.0,0.0
1449617145942990106,6.0,6.0,0.0
1449617145975856891,6.0,6.0,0.0
1449617146009439799,6.07095873426,6.01064285776,0.0
1449617146042983049,6.07095873426,6.01064285776,0.0
1449617146076151906,6.61952,6.01064285776,0.0
1449617146109578279,6.61952,6.01064285776,0.0
1449617146142701149,6.61952,6.01064285776,0.0
1449617146175860569,6.61952,6.01064285776,0.0
1449617146209438490,6.60968634979,6.01064285776,0.0
1449617146242808631,6.60968634979,6.01064285776,0.0
1449617146277523678,6.60968634979,6.01064285776,0.0
1449617146310347596,6.60968634979,6.01064285776,0.0
1449617146343294406,6.60968634979,6.01064285776,0.0
1449617146376637244,6.60968634979,6.01064285776,0.0
1449617146411769336,6.60968634979,6.01064285776,0.0
1449617146443879855,6.60968634979,6.01064285776,0.0
1449617146476348725,6.60968634979,6.01064285776,0.0
1449617146510639583,6.60968634979,6.01064285776,0.0
1449617146542568687,6.60968634979,6.01064285776,0.0
1449617146576535474,6.60968634979,6.01064285776,0.0
1449617146611111442,6.60968634979,6.01064285776,0.0
1449617146645764582,6.60968634979,6.01064285776,0.0
1449617146675894609,6.60968634979,6.01064285776,0.0
1449617146709244834,6.60968634979,6.01064285776,0.0
1449617146742628742,6.60968634979,6.01064285776,0.0
1449617146775910257,6.60968634979,6.01064285776,0.0
1449617146809660286,6.60968634979,6.01064285776,0.0
1449617146842931051,6.60968634979,6.01064285776,0.0
1449617146877912506,6.60968634979,6.01064285776,0.0
1449617146909773999,6.60968634979,6.01064285776,0.0
1449617146942713311,6.60968634979,6.01064285776,0.0
1449617146976865285,6.60968634979,6.01064285776,0.0
1449617147009863161,6.60968634979,6.01064285776,0.0
1449617147042552336,6.60968634979,6.01064285776,0.0
1449617147076216104,6.60968634979,6.01064285776,0.0
1449617147109698965,6.60968634979,6.01064285776,0.0
1449617147143409070,6.60968634979,6.01064285776,0.0
1449617147175950614,6.60968634979,6.01064285776,0.0
1449617147210774784,6.60968634979,6.01064285776,0.0
1449617147242762343,6.60968634979,6.01064285776,0.0
1449617147275900326,6.60968634979,6.01064285776,0.0
1449617147309332566,6.60968634979,6.01064285776,0.0
1449617147344207498,6.54085079834,6.0,0.0
1449617147376238506,6.54085079834,6.0,0.0
1449617147409312432,6.54085079834,6.0,0.0
1449617147442910679,6.54085079834,6.0,0.0
1449617147476990099,6.5189768685,6.00798214332,0.0
1449617147509425188,6.5189768685,6.00798214332,0.0
1449617147544176649,6.54085079834,6.01064285776,0.0
1449617147576675782,6.54085079834,6.01064285776,0.0
1449617147614537149,6.54085079834,6.01064285776,0.0
1449617147643552981,6.54085079834,6.01064285776,0.0
1449617147677732251,6.60968634979,6.01064285776,0.0
1449617147715488981,6.60968634979,6.01064285776,0.0
1449617147743997620,6.57035174896,6.0,0.0
1449617147776275054,6.57035174896,6.0,0.0
1449617147809943043,6.57035174896,6.0,0.0
1449617147842962998,6.57035174896,6.0,0.0
1449617147876379907,6.60968634979,6.01064285776,0.0
1449617147909324986,6.60968634979,6.01064285776,0.0
1449617147942540532,6.60968634979,6.0,0.0
1449617147978622432,6.60968634979,6.0,0.0
1449617148011671262,6.60968634979,6.0,0.0
1449617148049794549,6.60968634979,6.0,0.0
1449617148076397611,6.60968634979,6.01064285776,0.0
1449617148109973410,6.60968634979,6.01064285776,0.0
1449617148142496418,6.53101714813,5.97871428449,0.0
1449617148176057185,6.53101714813,5.97871428449,0.0
1449617148209731655,6.53101714813,5.97871428449,0.0
1449617148242689323,6.53101714813,5.97871428449,0.0
1449617148276274595,6.52118349792,5.43592856508,0.0
1449617148312088294,6.52118349792,5.43592856508,0.0
1449617148353722263,6.52118349792,5.42528570858,0.0
1449617148376967688,6.52118349792,5.42528570858,0.0
1449617148411812372,6.52118349792,5.42528570858,0.0
1449617148443064238,6.52118349792,5.42528570858,0.0
1449617148476421303,6.52118349792,5.42528570858,0.0
1449617148517501380,6.52118349792,5.42528570858,0.0
1449617148542965621,6.52118349792,5.42528570858,0.0
1449617148576318210,6.53101714813,5.42528570858,0.0
1449617148609975089,6.52118349792,5.43592856508,0.0
1449617148643535249,6.52118349792,5.43592856508,0.0
1449617148676761450,6.52118349792,5.43592856508,0.0
1449617148709287028,6.52118349792,5.43592856508,0.0
1449617148744257763,6.53101714813,5.42528570858,0.0
1449617148780844441,6.53101714813,5.42528570858,0.0
1449617148814127473,6.53101714813,5.42528570858,0.0
1449617148842806298,6.53101714813,5.42528570858,0.0
