%time,field.linear.x,field.linear.y,field.linear.z,field.angular.x,field.angular.y,field.angular.z
1449615730614983080,-0.0,0.0,0.0,0.0,0.0,-0.0
1449615730655253924,-0.0,0.0,0.0,0.0,0.0,-0.0
1449615730696143236,-0.0,0.0,0.0,0.0,0.0,-0.0
1449615730735022668,-0.0,0.0,0.0,0.0,0.0,-0.0
1449615730775287398,-0.0,0.0,0.0,0.0,0.0,-0.0
1449615730815138005,-0.0,0.0,0.0,0.0,0.0,-0.0
1449615730855143727,-0.0,0.0,0.0,0.0,0.0,-0.0
1449615730894538554,-0.0,0.0,0.0,0.0,0.0,-0.0
1449615730937111535,-0.0,0.0,0.0,0.0,0.0,-0.0
1449615730975685979,-0.0,0.0,0.0,0.0,0.0,-0.0
1449615731014707446,-0.0,0.0,0.0,0.0,0.0,-0.0
1449615731055344966,-0.0,0.0,0.0,0.0,0.0,-0.0
1449615731094779312,-0.0,0.0,0.0,0.0,0.0,-0.0
1449615731134947379,-0.0,0.0,0.0,0.0,0.0,-0.0
1449615731174793743,-0.0,0.0,0.0,0.0,0.0,-0.0
1449615731214430762,-0.0,0.0,0.0,0.0,0.0,-0.0
1449615731255360337,-0.0,0.0,0.0,0.0,0.0,-0.0
1449615731294736670,-0.0,0.0,0.0,0.0,0.0,-0.0
1449615731335043131,-0.0,0.0,0.0,0.0,0.0,-0.0
1449615731374922657,-0.0,0.0,0.0,0.0,0.0,-0.0
1449615731414999518,-0.0,0.0,0.0,0.0,0.0,-0.0
1449615731454898543,-0.0,0.0,0.0,0.0,0.0,-0.0
1449615731495903604,-0.0,0.0,0.0,0.0,0.0,-0.0
1449615731534931264,-0.0,0.0,0.0,0.0,0.0,-0.0
1449615731576504496,-0.0,0.0,0.0,0.0,0.0,-0.0
1449615731614842829,-0.0,0.0,0.0,0.0,0.0,-0.0
1449615731654882794,-0.0,0.0,0.0,0.0,0.0,-0.0
1449615731694953349,-0.0,0.0,0.0,0.0,0.0,-0.0
1449615731734909565,-0.0,0.0,0.0,0.0,0.0,-0.0
1449615731775507079,-0.0,0.0,0.0,0.0,0.0,-0.0
1449615731816509482,-0.0,0.0,0.0,0.0,0.0,-0.0
1449615731855697678,-0.0,0.0,0.0,0.0,0.0,-0.0
1449615731895330974,-0.0,0.0,0.0,0.0,0.0,-0.0
1449615731934657954,-0.0,0.0,0.0,0.0,0.0,-0.0
1449615731975669405,-0.0,0.0,0.0,0.0,0.0,-0.0
1449615732014696649,-0.0,0.0,0.0,0.0,0.0,-0.0
1449615732055690410,-0.0,0.0,0.0,0.0,0.0,-0.0
1449615732094636419,-0.0,0.0,0.0,0.0,0.0,-0.0
1449615732135320453,-0.0,0.0,0.0,0.0,0.0,-0.0
1449615732176508087,-0.0,0.0,0.0,0.0,0.0,-0.0
1449615732214726756,-0.0,0.0,0.0,0.0,0.0,-0.0
1449615732254672119,-0.0,0.0,0.0,0.0,0.0,-0.0
1449615732295311390,-0.0,0.0,0.0,0.0,0.0,-0.0
1449615732334835670,-0.0,0.0,0.0,0.0,0.0,-0.0
1449615732374663051,-0.0,0.0,0.0,0.0,0.0,-0.0
1449615732414684365,-0.0,0.0,0.0,0.0,0.0,-0.0
1449615732455112605,-0.0,0.0,0.0,0.0,0.0,-0.0
1449615732494753580,-0.0,0.0,0.0,0.0,0.0,-0.0
1449615732534998836,-0.0,0.0,0.0,0.0,0.0,-0.0
1449615732575409569,-0.0,0.0,0.0,0.0,0.0,-0.0
1449615732614760123,-0.0,0.0,0.0,0.0,0.0,-0.0
1449615732655349864,-0.0,0.0,0.0,0.0,0.0,-0.0
1449615732695271542,-0.0,0.0,0.0,0.0,0.0,-0.0
1449615732734915436,-0.0,0.0,0.0,0.0,0.0,-0.0
1449615732774910687,-0.0,0.0,0.0,0.0,0.0,-0.0
1449615732817655828,-0.0,0.0,0.0,0.0,0.0,-0.0
1449615732854377347,-0.0,0.0,0.0,0.0,0.0,-0.0
1449615732894638107,-0.0,0.0,0.0,0.0,0.0,-0.0
1449615732934925872,-0.0,0.0,0.0,0.0,0.0,-0.0
1449615732975246840,-0.0,0.0,0.0,0.0,0.0,-0.0
1449615733015004651,-0.0,0.0,0.0,0.0,0.0,-0.0
1449615733054846850,-0.0,0.0,0.0,0.0,0.0,-0.0
1449615733094446249,-0.0,0.0,0.0,0.0,0.0,-0.0
1449615733137368919,-0.0,0.0,0.0,0.0,0.0,-0.0
1449615733174722802,-0.0,0.0,0.0,0.0,0.0,-0.0
1449615733215733547,-0.0,0.0,0.0,0.0,0.0,-0.0
1449615733254925366,-0.0,0.0,0.0,0.0,0.0,-0.0
1449615733294597214,-0.0,0.0,0.0,0.0,0.0,-0.0
1449615733334635076,-0.0,0.0,0.0,0.0,0.0,-0.0
1449615733374794380,-0.0,0.0,0.0,0.0,0.0,-0.0
1449615733418040525,-0.0,0.0,0.0,0.0,0.0,-0.0
1449615733454942637,-0.0,0.0,0.0,0.0,0.0,-0.0
1449615733495639691,-0.0,0.0,0.0,0.0,0.0,-0.0
1449615733536604853,-0.0,0.0,0.0,0.0,0.0,-0.0
1449615733575023760,-0.0,0.0,0.0,0.0,0.0,-0.0
1449615733614540296,-0.0,0.0,0.0,0.0,0.0,-0.0
1449615733656077410,-0.0,0.0,0.0,0.0,0.0,-0.0
1449615733695233707,-0.0,0.0,0.0,0.0,0.0,-0.0
1449615733734941190,-0.0,0.0,0.0,0.0,0.0,-0.0
1449615733776840677,-0.0,0.0,0.0,0.0,0.0,-0.0
1449615733815678830,-0.0,0.0,0.0,0.0,0.0,-0.0
1449615733854724810,-0.0,0.0,0.0,0.0,0.0,-0.0
1449615733894767284,-0.0,0.0,0.0,0.0,0.0,-0.0
1449615733934617688,-0.0,0.0,0.0,0.0,0.0,-0.0
1449615733974975883,-0.0,0.0,0.0,0.0,0.0,-0.0
1449615734014840887,-0.0,0.0,0.0,0.0,0.0,-0.0
1449615734054800548,-0.0,0.0,0.0,0.0,0.0,-0.0
1449615734094679789,-0.0,0.0,0.0,0.0,0.0,-0.0
1449615734134691549,-0.0,0.0,0.0,0.0,0.0,-0.0
1449615734174634983,-0.0,0.0,0.0,0.0,0.0,-0.0
1449615734215369022,-0.0,0.0,0.0,0.0,0.0,-0.0
1449615734255272203,-0.0,0.0,0.0,0.0,0.0,-0.0
1449615734294761517,-0.0,0.0,0.0,0.0,0.0,-0.0
1449615734336261758,-0.0,0.0,0.0,0.0,0.0,-0.0
1449615734375403638,-0.0,0.0,0.0,0.0,0.0,-0.0
1449615734415167969,-0.0,0.0,0.0,0.0,0.0,-0.0
1449615734454485696,-0.0,0.0,0.0,0.0,0.0,-0.0
1449615734494752409,-0.0,0.0,0.0,0.0,0.0,-0.0
1449615734535745320,-0.0,0.0,0.0,0.0,0.0,-0.0
1449615734575542591,-0.0,0.0,0.0,0.0,0.0,-0.0
1449615734615342146,-0.0,0.0,0.0,0.0,0.0,-0.0
1449615734654639253,-0.0,0.0,0.0,0.0,0.0,-0.0
1449615734695674505,-0.0,0.0,0.0,0.0,0.0,-0.0
1449615734737054967,-0.0,0.0,0.0,0.0,0.0,-0.0
1449615734775508184,-0.0,0.0,0.0,0.0,0.0,-0.0
1449615734814710264,-0.0,0.0,0.0,0.0,0.0,-0.0
1449615734855615547,-0.0,0.0,0.0,0.0,0.0,-0.0
1449615734894873261,-0.0,0.0,0.0,0.0,0.0,-0.0
1449615734934896955,-0.0,0.0,0.0,0.0,0.0,-0.0
1449615734975430527,-0.0,0.0,0.0,0.0,0.0,-0.0
1449615735014875906,-0.0,0.0,0.0,0.0,0.0,-0.0
1449615735054475076,-0.0,0.0,0.0,0.0,0.0,-0.0
1449615735095285917,-0.0,0.0,0.0,0.0,0.0,-0.0
1449615735135135101,-0.0,0.0,0.0,0.0,0.0,-0.0
1449615735175815660,-0.0,0.0,0.0,0.0,0.0,-0.0
1449615735214819386,-0.0,0.0,0.0,0.0,0.0,-0.0
1449615735255396956,-0.0,0.0,0.0,0.0,0.0,-0.0
1449615735294824251,-0.0,0.0,0.0,0.0,0.0,-0.0
1449615735335965282,-0.0,0.0,0.0,0.0,0.0,-0.0
1449615735375008774,-0.0,0.0,0.0,0.0,0.0,-0.0
1449615735414593508,-0.0,0.0,0.0,0.0,0.0,-0.0
1449615735456286326,-0.0,0.0,0.0,0.0,0.0,-0.0
1449615735494560673,-0.0,0.0,0.0,0.0,0.0,-0.0
1449615735535446729,-0.0,0.0,0.0,0.0,0.0,-0.0
1449615735574992230,-0.0,0.0,0.0,0.0,0.0,-0.0
1449615735614999636,-0.0,0.0,0.0,0.0,0.0,-0.0
1449615735655300840,-0.0,0.0,0.0,0.0,0.0,-0.0
1449615735694818373,-0.0,0.0,0.0,0.0,0.0,-0.0
1449615735735736842,-0.0,0.0,0.0,0.0,0.0,-0.0
1449615735776166448,-0.0,0.0,0.0,0.0,0.0,-0.0
1449615735815976629,-0.0,0.0,0.0,0.0,0.0,-0.0
1449615735856101550,-0.0,0.0,0.0,0.0,0.0,-0.0
1449615735894799541,-0.0,0.0,0.0,0.0,0.0,-0.0
1449615735935027673,-0.0,0.0,0.0,0.0,0.0,-0.0
1449615735974501887,-0.0,0.0,0.0,0.0,0.0,-0.0
1449615736014959587,-0.0,0.0,0.0,0.0,0.0,-0.0
1449615736054792578,-0.0,0.0,0.0,0.0,0.0,-0.0
1449615736095840737,-0.0,0.0,0.0,0.0,0.0,-0.0
1449615736135203261,-0.0,0.0,0.0,0.0,0.0,-0.0
1449615736176675319,-0.0,0.0,0.0,0.0,0.0,-0.0
1449615736215402269,-0.0,0.0,0.0,0.0,0.0,-0.0
1449615736254825025,-0.0,0.0,0.0,0.0,0.0,-0.0
1449615736295438438,-0.0,0.0,0.0,0.0,0.0,-0.0
1449615736336397915,-0.0,0.0,0.0,0.0,0.0,-0.0
1449615736374736546,-0.0,0.0,0.0,0.0,0.0,-0.0
1449615736415683142,-0.0,0.0,0.0,0.0,0.0,-0.0
1449615736455270955,-0.0,0.0,0.0,0.0,0.0,-0.0
1449615736494844013,-0.0,0.0,0.0,0.0,0.0,-0.0
1449615736534945206,-0.0,0.0,0.0,0.0,0.0,-0.0
1449615736575452678,-0.0,0.0,0.0,0.0,0.0,-0.0
1449615736615072851,-0.0,0.0,0.0,0.0,0.0,-0.0
1449615736655328520,-0.0,0.0,0.0,0.0,0.0,-0.0
1449615736695255031,-0.0,0.0,0.0,0.0,0.0,-0.0
1449615736734796947,-0.0,0.0,0.0,0.0,0.0,-0.0
1449615736774844125,-0.0,0.0,0.0,0.0,0.0,-0.0
1449615736814731171,-0.0,0.0,0.0,0.0,0.0,-0.0
1449615736855090978,-0.0,0.0,0.0,0.0,0.0,-0.0
1449615736894668477,-0.0,0.0,0.0,0.0,0.0,-0.0
1449615736934761330,-0.0,0.0,0.0,0.0,0.0,-0.0
1449615736976268043,-0.0,0.0,0.0,0.0,0.0,-0.0
1449615737014630696,-0.0,0.0,0.0,0.0,0.0,-0.0
1449615737054547858,-0.0,0.0,0.0,0.0,0.0,-0.0
1449615737094626148,-0.0,0.0,0.0,0.0,0.0,-0.0
1449615737135096858,-0.0,0.0,0.0,0.0,0.0,-0.0
1449615737175291451,-0.0,0.0,0.0,0.0,0.0,-0.0
1449615737215981797,-0.0,0.0,0.0,0.0,0.0,-0.0
1449615737258900248,-0.0,0.0,0.0,0.0,0.0,-0.0
1449615737294851173,-0.0,0.0,0.0,0.0,0.0,-0.0
1449615737334764329,-0.0,0.0,0.0,0.0,0.0,-0.0
1449615737375010504,-0.0,0.0,0.0,0.0,0.0,-0.0
1449615737415510028,-0.0,0.0,0.0,0.0,0.0,-0.0
1449615737455707086,-0.0,0.0,0.0,0.0,0.0,-0.0
1449615737494611119,-0.0,0.0,0.0,0.0,0.0,-0.0
1449615737534936878,-0.0,0.0,0.0,0.0,0.0,-0.0
1449615737575125336,-0.0,0.0,0.0,0.0,0.0,-0.0
1449615737614707719,-0.0,0.0,0.0,0.0,0.0,-0.0
1449615737655015522,-0.0,0.0,0.0,0.0,0.0,-0.0
1449615737694747128,-0.0,0.0,0.0,0.0,0.0,-0.0
1449615737735429533,-0.0,0.0,0.0,0.0,0.0,-0.0
1449615737774663134,-0.0,0.0,0.0,0.0,0.0,-0.0
1449615737815389045,-0.0,0.0,0.0,0.0,0.0,-0.0
1449615737860119594,-0.0,0.0,0.0,0.0,0.0,-0.0
1449615737895256771,-0.0,0.0,0.0,0.0,0.0,-0.0
1449615737935187819,-0.0,0.0,0.0,0.0,0.0,-0.0
1449615737975030166,-0.0,0.0,0.0,0.0,0.0,-0.0
1449615738015274346,-0.0,0.0,0.0,0.0,0.0,-0.0
1449615738055039149,-0.0,0.0,0.0,0.0,0.0,-0.0
1449615738094814796,-0.0,0.0,0.0,0.0,0.0,-0.0
1449615738136194319,-0.0,0.0,0.0,0.0,0.0,-0.0
1449615738174952785,-0.0,0.0,0.0,0.0,0.0,-0.0
1449615738215550285,-0.0,0.0,0.0,0.0,0.0,-0.0
1449615738254547627,-0.0,0.0,0.0,0.0,0.0,-0.0
1449615738294572304,-0.0,0.0,0.0,0.0,0.0,-0.0
1449615738335380148,-0.0,0.0,0.0,0.0,0.0,-0.0
1449615738375268754,-0.0,0.0,0.0,0.0,0.0,-0.0
1449615738418954312,-0.0,0.0,0.0,0.0,0.0,-0.0
1449615738454887800,-0.0,0.0,0.0,0.0,0.0,-0.0
1449615738495290581,-0.0,0.0,0.0,0.0,0.0,-0.0
1449615738534568211,-0.0,0.0,0.0,0.0,0.0,-0.0
1449615738575049213,-0.0,0.0,0.0,0.0,0.0,-0.0
1449615738616020516,-0.0,0.0,0.0,0.0,0.0,-0.0
1449615738654587768,-0.0,0.0,0.0,0.0,0.0,-0.0
1449615738694897704,-0.0,0.0,0.0,0.0,0.0,-0.0
1449615738734658370,-0.0,0.0,0.0,0.0,0.0,-0.0
1449615738777119040,-0.0,0.0,0.0,0.0,0.0,-0.0
1449615738815149978,-0.0,0.0,0.0,0.0,0.0,-0.0
1449615738855206714,-0.0,0.0,0.0,0.0,0.0,-0.0
1449615738895720784,-0.0,0.0,0.0,0.0,0.0,-0.0
1449615738934693762,-0.0,0.0,0.0,0.0,0.0,-0.0
1449615738975000330,-0.0,0.0,0.0,0.0,0.0,-0.0
1449615739014644818,-0.0,0.0,0.0,0.0,0.0,-0.0
1449615739054620589,-0.0,0.0,0.0,0.0,0.0,-0.0
1449615739094719132,-0.0,0.0,0.0,0.0,0.0,-0.0
1449615739136041307,-0.0,0.0,0.0,0.0,0.0,-0.0
1449615739174869198,-0.0,0.0,0.0,0.0,0.0,-0.0
1449615739215207389,-0.0,0.0,0.0,0.0,0.0,-0.0
1449615739255383124,-0.0,0.0,0.0,0.0,0.0,-0.0
1449615739295236960,-0.0,0.0,0.0,0.0,0.0,-0.0
1449615739336217750,-0.0,0.0,0.0,0.0,0.0,-0.0
1449615739375233883,-0.0,0.0,0.0,0.0,0.0,-0.0
1449615739414890432,-0.0,0.0,0.0,0.0,0.0,-0.0
1449615739454938114,-0.0,0.0,0.0,0.0,0.0,-0.0
1449615739494738813,-0.0,0.0,0.0,0.0,0.0,-0.0
1449615739535123745,-0.0,0.0,0.0,0.0,0.0,-0.0
1449615739576320264,-0.0,0.0,0.0,0.0,0.0,-0.0
1449615739614800102,-0.0,0.0,0.0,0.0,0.0,-0.0
1449615739655002552,-0.0,0.0,0.0,0.0,0.0,-0.0
1449615739694622316,-0.0,0.0,0.0,0.0,0.0,-0.0
1449615739734425073,-0.0,0.0,0.0,0.0,0.0,-0.0
1449615739775116814,-0.0,0.0,0.0,0.0,0.0,-0.0
1449615739816867709,-0.0,0.0,0.0,0.0,0.0,-0.0
1449615739854589712,-0.0,0.0,0.0,0.0,0.0,-0.0
1449615739895153722,-0.0,0.0,0.0,0.0,0.0,-0.0
1449615739934631695,-0.0,0.0,0.0,0.0,0.0,-0.0
1449615739974517270,-0.0,0.0,0.0,0.0,0.0,-0.0
1449615740015071563,-0.0,0.0,0.0,0.0,0.0,-0.0
1449615740055205601,-0.0,0.0,0.0,0.0,0.0,-0.0
1449615740094378339,-0.0,0.0,0.0,0.0,0.0,-0.0
1449615740135378475,-0.0,0.0,0.0,0.0,0.0,-0.0
1449615740175275517,-0.0,0.0,0.0,0.0,0.0,-0.0
1449615740215008669,-0.0,0.0,0.0,0.0,0.0,-0.0
1449615740256441286,-0.0,0.0,0.0,0.0,0.0,-0.0
1449615740294965751,-0.0,0.0,0.0,0.0,0.0,-0.0
1449615740334744662,-0.0,0.0,0.0,0.0,0.0,-0.0
1449615740375393723,-0.0,0.0,0.0,0.0,0.0,-0.0
1449615740415421140,-0.0,0.0,0.0,0.0,0.0,-0.0
1449615740455364338,-0.0,0.0,0.0,0.0,0.0,-0.0
1449615740494857284,-0.0,0.0,0.0,0.0,0.0,-0.0
1449615740535811852,-0.0,0.0,0.0,0.0,0.0,-0.0
1449615740576163112,-0.0,0.0,0.0,0.0,0.0,-0.0
1449615740615088359,-0.0,0.0,0.0,0.0,0.0,-0.0
1449615740655386451,-0.0,0.0,0.0,0.0,0.0,-0.0
1449615740694349768,-0.0,0.0,0.0,0.0,0.0,-0.0
1449615740734648111,-0.0,0.0,0.0,0.0,0.0,-0.0
1449615740776147882,-0.0,0.0,0.0,0.0,0.0,-0.0
1449615740814598340,-0.0,0.0,0.0,0.0,0.0,-0.0
1449615740855951489,-0.0,0.0,0.0,0.0,0.0,-0.0
1449615740895633896,-0.0,0.0,0.0,0.0,0.0,-0.0
1449615740935371606,-0.0,0.0,0.0,0.0,0.0,-0.0
1449615740975018059,-0.0,0.0,0.0,0.0,0.0,-0.0
1449615741014475538,-0.0,0.0,0.0,0.0,0.0,-0.0
1449615741055068585,-0.0,0.0,0.0,0.0,0.0,-0.0
1449615741094773448,-0.0,0.0,0.0,0.0,0.0,-0.0
1449615741134735250,-0.0,0.0,0.0,0.0,0.0,-0.0
1449615741176273615,-0.0,0.0,0.0,0.0,0.0,-0.0
1449615741215442351,-0.0,0.0,0.0,0.0,0.0,-0.0
1449615741256263858,-0.0,0.0,0.0,0.0,0.0,-0.0
1449615741294865206,-0.0,0.0,0.0,0.0,0.0,-0.0
1449615741334770731,-0.0,0.0,0.0,0.0,0.0,-0.0
1449615741374573999,-0.0,0.0,0.0,0.0,0.0,-0.0
1449615741414682831,-0.0,0.0,0.0,0.0,0.0,-0.0
1449615741456814731,-0.0,0.0,0.0,0.0,0.0,-0.0
1449615741494656108,-0.0,0.0,0.0,0.0,0.0,-0.0
1449615741534660335,-0.0,0.0,0.0,0.0,0.0,-0.0
1449615741574883133,-0.0,0.0,0.0,0.0,0.0,-0.0
1449615741614988042,-0.0,0.0,0.0,0.0,0.0,-0.0
1449615741655277356,-0.0,0.0,0.0,0.0,0.0,-0.0
1449615741694885543,-0.0,0.0,0.0,0.0,0.0,-0.0
1449615741735018832,-0.0,0.0,0.0,0.0,0.0,-0.0
1449615741774615356,-0.0,0.0,0.0,0.0,0.0,-0.0
1449615741815021176,-0.0,0.0,0.0,0.0,0.0,-0.0
1449615741855281981,-0.0,0.0,0.0,0.0,0.0,-0.0
1449615741895515628,-0.0,0.0,0.0,0.0,0.0,-0.0
1449615741934809553,-0.0,0.0,0.0,0.0,0.0,-0.0
1449615741975335798,-0.0,0.0,0.0,0.0,0.0,-0.0
1449615742015390448,-0.0,0.0,0.0,0.0,0.0,-0.0
1449615742054646733,-0.0,0.0,0.0,0.0,0.0,-0.0
1449615742094882250,-0.0,0.0,0.0,0.0,0.0,-0.0
1449615742135998733,-0.0,0.0,0.0,0.0,0.0,-0.0
1449615742175321056,-0.0,0.0,0.0,0.0,0.0,-0.0
1449615742214877677,-0.0,0.0,0.0,0.0,0.0,-0.0
1449615742254969997,-0.0,0.0,0.0,0.0,0.0,-0.0
1449615742295243620,-0.0,0.0,0.0,0.0,0.0,-0.0
1449615742335184081,-0.0,0.0,0.0,0.0,0.0,-0.0
1449615742374888790,-0.0,0.0,0.0,0.0,0.0,-0.0
1449615742416349232,-0.0,0.0,0.0,0.0,0.0,-0.0
1449615742456785300,-0.0,0.0,0.0,0.0,0.0,-0.0
1449615742494995988,-0.0,0.0,0.0,0.0,0.0,-0.0
1449615742534825078,-0.0,0.0,0.0,0.0,0.0,-0.0
1449615742574568311,-0.0,0.0,0.0,0.0,0.0,-0.0
1449615742614560783,-0.0,0.0,0.0,0.0,0.0,-0.0
1449615742655757446,-0.0,0.0,0.0,0.0,0.0,-0.0
1449615742694725525,-0.0,0.0,0.0,0.0,0.0,-0.0
1449615742734690349,-0.0,0.0,0.0,0.0,0.0,-0.0
1449615742774513014,-0.0,0.0,0.0,0.0,0.0,-0.0
1449615742815863162,-0.0,0.0,0.0,0.0,0.0,-0.0
1449615742855367855,-0.0,0.0,0.0,0.0,0.0,-0.0
1449615742894816782,-0.0,0.0,0.0,0.0,0.0,-0.0
1449615742934751886,-0.0,0.0,0.0,0.0,0.0,-0.0
1449615742974808850,-0.0,0.0,0.0,0.0,0.0,-0.0
1449615743014920875,-0.0,0.0,0.0,0.0,0.0,-0.0
1449615743061620363,-0.0,0.0,0.0,0.0,0.0,-0.0
1449615743094637907,-0.0,0.0,0.0,0.0,0.0,-0.0
1449615743134555584,-0.0,0.0,0.0,0.0,0.0,-0.0
1449615743175293394,-0.0,0.0,0.0,0.0,0.0,-0.0
1449615743214726864,-0.0,0.0,0.0,0.0,0.0,-0.0
1449615743254635830,-0.0,0.0,0.0,0.0,0.0,-0.0
1449615743294751243,-0.0,0.0,0.0,0.0,0.0,-0.0
1449615743334526798,-0.0,0.0,0.0,0.0,0.0,-0.0
1449615743374647593,-0.0,0.0,0.0,0.0,0.0,-0.0
1449615743414877867,-0.0,0.0,0.0,0.0,0.0,-0.0
1449615743454647169,-0.0,0.0,0.0,0.0,0.0,-0.0
1449615743494678505,-0.0,0.0,0.0,0.0,0.0,-0.0
1449615743536015138,-0.0,0.0,0.0,0.0,0.0,-0.0
1449615743575304661,-0.0,0.0,0.0,0.0,0.0,-0.0
1449615743614858544,-0.0,0.0,0.0,0.0,0.0,-0.0
1449615743654824838,-0.0,0.0,0.0,0.0,0.0,-0.0
1449615743695143922,-0.0,0.0,0.0,0.0,0.0,-0.0
1449615743736731518,-0.0,0.0,0.0,0.0,0.0,-0.0
1449615743775372306,-0.0,0.0,0.0,0.0,0.0,-0.0
1449615743819304575,-0.0,0.0,0.0,0.0,0.0,-0.0
1449615743855768729,-0.0,0.0,0.0,0.0,0.0,-0.0
1449615743894567563,-0.0,0.0,0.0,0.0,0.0,-0.0
1449615743934636266,-0.0,0.0,0.0,0.0,0.0,-0.0
1449615743975417282,-0.0,0.0,0.0,0.0,0.0,-0.0
1449615744015041148,-0.0,0.0,0.0,0.0,0.0,-0.0
1449615744058889283,-0.0,0.0,0.0,0.0,0.0,-0.0
1449615744095911123,-0.0,0.0,0.0,0.0,0.0,-0.0
1449615744134632860,-0.0,0.0,0.0,0.0,0.0,-0.0
1449615744174742739,-0.0,0.0,0.0,0.0,0.0,-0.0
1449615744215243768,-0.0,0.0,0.0,0.0,0.0,-0.0
1449615744255313093,-0.0,0.0,0.0,0.0,0.0,-0.0
1449615744294556621,-0.0,0.0,0.0,0.0,0.0,-0.0
1449615744334902346,-0.0,0.0,0.0,0.0,0.0,-0.0
1449615744374564779,-0.0,0.0,0.0,0.0,0.0,-0.0
1449615744415118857,-0.0,0.0,0.0,0.0,0.0,-0.0
1449615744457191134,-0.0,0.0,0.0,0.0,0.0,-0.0
1449615744494471434,-0.0,0.0,0.0,0.0,0.0,-0.0
1449615744535157900,-0.0,0.0,0.0,0.0,0.0,-0.0
1449615744574951127,-0.0,0.0,0.0,0.0,0.0,-0.0
1449615744616233557,-0.0,0.0,0.0,0.0,0.0,-0.0
1449615744654526901,-0.0,0.0,0.0,0.0,0.0,-0.0
1449615744695055677,-0.0,0.0,0.0,0.0,0.0,-0.0
1449615744734949740,-0.0,0.0,0.0,0.0,0.0,-0.0
1449615744775653915,-0.0,0.0,0.0,0.0,0.0,-0.0
1449615744814832466,-0.0,0.0,0.0,0.0,0.0,-0.0
1449615744855267003,-0.0,0.0,0.0,0.0,0.0,-0.0
1449615744894569499,-0.0,0.0,0.0,0.0,0.0,-0.0
1449615744934586062,-0.0,0.0,0.0,0.0,0.0,-0.0
1449615744975715181,-0.0,0.0,0.0,0.0,0.0,-0.0
1449615745014506428,-0.0,0.0,0.0,0.0,0.0,-0.0
1449615745054582642,-0.0,0.0,0.0,0.0,0.0,-0.0
1449615745094988711,-0.0,0.0,0.0,0.0,0.0,-0.0
1449615745134604094,-0.0,0.0,0.0,0.0,0.0,-0.0
1449615745174908933,-0.0,0.0,0.0,0.0,0.0,-0.0
1449615745214700419,-0.0,0.0,0.0,0.0,0.0,-0.0
1449615745254685356,-0.0,0.0,0.0,0.0,0.0,-0.0
1449615745295089720,-0.0,0.0,0.0,0.0,0.0,-0.0
1449615745337823630,-0.0,0.0,0.0,0.0,0.0,-0.0
1449615745374868199,-0.0,0.0,0.0,0.0,0.0,-0.0
1449615745414699984,-0.0,0.0,0.0,0.0,0.0,-0.0
1449615745454675374,-0.0,0.0,0.0,0.0,0.0,-0.0
1449615745494796070,-0.0,0.0,0.0,0.0,0.0,-0.0
1449615745535150224,-0.0,0.0,0.0,0.0,0.0,-0.0
1449615745574547225,-0.0,0.0,0.0,0.0,0.0,-0.0
1449615745614580461,-0.0,0.0,0.0,0.0,0.0,-0.0
1449615745656805362,-0.0,0.0,0.0,0.0,0.0,-0.0
1449615745694681479,-0.0,0.0,0.0,0.0,0.0,-0.0
1449615745736042306,-0.0,0.0,0.0,0.0,0.0,-0.0
1449615745774696985,-0.0,0.0,0.0,0.0,0.0,-0.0
1449615745815059126,-0.0,0.0,0.0,0.0,0.0,-0.0
1449615745854804587,-0.0,0.0,0.0,0.0,0.0,-0.0
1449615745894666717,-0.0,0.0,0.0,0.0,0.0,-0.0
1449615745934796214,-0.0,0.0,0.0,0.0,0.0,-0.0
1449615745974540096,-0.0,0.0,0.0,0.0,0.0,-0.0
1449615746015666873,-0.0,0.0,0.0,0.0,0.0,-0.0
1449615746054594292,-0.0,0.0,0.0,0.0,0.0,-0.0
1449615746101134151,-0.0,0.0,0.0,0.0,0.0,-0.0
1449615746136582852,-0.0,0.0,0.0,0.0,0.0,-0.0
1449615746175037544,-0.0,0.0,0.0,0.0,0.0,-0.0
1449615746215161205,-0.0,0.0,0.0,0.0,0.0,-0.0
1449615746254737252,-0.0,0.0,0.0,0.0,0.0,-0.0
1449615746295401445,-0.0,0.0,0.0,0.0,0.0,-0.0
1449615746334832180,-0.0,0.0,0.0,0.0,0.0,-0.0
1449615746374865704,-0.0,0.0,0.0,0.0,0.0,-0.0
1449615746414515430,-0.0,0.0,0.0,0.0,0.0,-0.0
1449615746455217898,-0.0,0.0,0.0,0.0,0.0,-0.0
1449615746496449250,-0.0,0.0,0.0,0.0,0.0,-0.0
1449615746535298550,-0.0,0.0,0.0,0.0,0.0,-0.0
1449615746575185891,-0.0,0.0,0.0,0.0,0.0,-0.0
1449615746614710087,-0.0,0.0,0.0,0.0,0.0,-0.0
1449615746654383558,-0.0,0.0,0.0,0.0,0.0,-0.0
1449615746695903737,-0.0,0.0,0.0,0.0,0.0,-0.0
1449615746734754610,-0.0,0.0,0.0,0.0,0.0,-0.0
1449615746776513301,-0.0,0.0,0.0,0.0,0.0,-0.0
1449615746816964715,-0.0,0.0,0.0,0.0,0.0,-0.0
1449615746854934050,-0.0,0.0,0.0,0.0,0.0,-0.0
1449615746895381089,-0.0,0.0,0.0,0.0,0.0,-0.0
1449615746935046837,-0.0,0.0,0.0,0.0,0.0,-0.0
1449615746975055378,-0.0,0.0,0.0,0.0,0.0,-0.0
1449615747014801664,-0.0,0.0,0.0,0.0,0.0,-0.0
1449615747054806954,-0.0,0.0,0.0,0.0,0.0,-0.0
1449615747095641991,-0.0,0.0,0.0,0.0,0.0,-0.0
1449615747137881681,-0.0,0.0,0.0,0.0,0.0,-0.0
1449615747174886898,-0.0,0.0,0.0,0.0,0.0,-0.0
1449615747214852795,-0.0,0.0,0.0,0.0,0.0,-0.0
1449615747254549687,-0.0,0.0,0.0,0.0,0.0,-0.0
1449615747296023431,-0.0,0.0,0.0,0.0,0.0,-0.0
1449615747335666479,-0.0,0.0,0.0,0.0,0.0,-0.0
1449615747374833350,-0.0,0.0,0.0,0.0,0.0,-0.0
1449615747414688106,-0.0,0.0,0.0,0.0,0.0,-0.0
1449615747454521807,-0.0,0.0,0.0,0.0,0.0,-0.0
1449615747494922662,-0.0,0.0,0.0,0.0,0.0,-0.0
1449615747535340614,-0.0,0.0,0.0,0.0,0.0,-0.0
1449615747575466361,-0.0,0.0,0.0,0.0,0.0,-0.0
1449615747614568260,-0.0,0.0,0.0,0.0,0.0,-0.0
1449615747657801033,-0.0,0.0,0.0,0.0,0.0,-0.0
1449615747694623037,-0.0,0.0,0.0,0.0,0.0,-0.0
1449615747734644687,-0.0,0.0,0.0,0.0,0.0,-0.0
1449615747774683891,-0.0,0.0,0.0,0.0,0.0,-0.0
1449615747814877072,-0.0,0.0,0.0,0.0,0.0,-0.0
1449615747855014298,-0.0,0.0,0.0,0.0,0.0,-0.0
1449615747894969910,-0.0,0.0,0.0,0.0,0.0,-0.0
1449615747934574331,-0.0,0.0,0.0,0.0,0.0,-0.0
1449615747974933776,-0.0,0.0,0.0,0.0,0.0,-0.0
1449615748015329677,-0.0,0.0,0.0,0.0,0.0,-0.0
1449615748054992145,-0.0,0.0,0.0,0.0,0.0,-0.0
1449615748094728848,-0.0,0.0,0.0,0.0,0.0,-0.0
1449615748135194065,-0.0,0.0,0.0,0.0,0.0,-0.0
1449615748175568364,-0.0,0.0,0.0,0.0,0.0,-0.0
1449615748214848067,-0.0,0.0,0.0,0.0,0.0,-0.0
1449615748254997198,-0.0,0.0,0.0,0.0,0.0,-0.0
1449615748297043101,-0.0,0.0,0.0,0.0,0.0,-0.0
1449615748335337030,-0.0,0.0,0.0,0.0,0.0,-0.0
1449615748374573958,-0.0,0.0,0.0,0.0,0.0,-0.0
1449615748414686458,-0.0,0.0,0.0,0.0,0.0,-0.0
1449615748455308079,-0.0,0.0,0.0,0.0,0.0,-0.0
1449615748496843331,-0.0,0.0,0.0,0.0,0.0,-0.0
1449615748536732739,-0.0,0.0,0.0,0.0,0.0,-0.0
1449615748575333558,-0.0,0.0,0.0,0.0,0.0,-0.0
1449615748615516643,-0.0,0.0,0.0,0.0,0.0,-0.0
1449615748655009204,-0.0,0.0,0.0,0.0,0.0,-0.0
1449615748697996001,-0.0,0.0,0.0,0.0,0.0,-0.0
1449615748734971684,-0.0,0.0,0.0,0.0,0.0,-0.0
1449615748775095016,-0.0,0.0,0.0,0.0,0.0,-0.0
1449615748814935076,-0.0,0.0,0.0,0.0,0.0,-0.0
1449615748855459246,-0.0,0.0,0.0,0.0,0.0,-0.0
1449615748894985450,-0.0,0.0,0.0,0.0,0.0,-0.0
1449615748934567265,-0.0,0.0,0.0,0.0,0.0,-0.0
1449615748974646165,-0.0,0.0,0.0,0.0,0.0,-0.0
1449615749014422171,-0.0,0.0,0.0,0.0,0.0,-0.0
1449615749055311246,-0.0,0.0,0.0,0.0,0.0,-0.0
1449615749094566522,-0.0,0.0,0.0,0.0,0.0,-0.0
1449615749135051579,-0.0,0.0,0.0,0.0,0.0,-0.0
1449615749175016119,-0.0,0.0,0.0,0.0,0.0,-0.0
1449615749214825800,-0.0,0.0,0.0,0.0,0.0,-0.0
1449615749254873483,-0.0,0.0,0.0,0.0,0.0,-0.0
1449615749294652726,-0.0,0.0,0.0,0.0,0.0,-0.0
1449615749334895963,0.00558730190992,0.0,0.0,0.0,0.0,0.0
1449615749375313548,0.00558730190992,0.0,0.0,0.0,0.0,0.0
1449615749414950116,0.00558730190992,0.0,0.0,0.0,0.0,0.0
1449615749455973795,0.00558730190992,0.0,0.0,0.0,0.0,0.0
1449615749500319567,0.00558730190992,0.0,0.0,0.0,0.0,0.0
1449615749535209530,0.00558730190992,0.0,0.0,0.0,0.0,0.0
1449615749575605540,0.00558730190992,0.0,0.0,0.0,0.0,0.0
1449615749615189738,0.00558730190992,0.0,0.0,0.0,0.0,0.0
1449615749654754196,0.00558730190992,0.0,0.0,0.0,0.0,0.0
1449615749694962137,0.00558730190992,0.0,0.0,0.0,0.0,0.0
1449615749734813148,0.0111746038198,0.0,0.0,0.0,0.0,0.0
1449615749775203512,0.0111746038198,0.0,0.0,0.0,0.0,0.0
1449615749814662716,0.0111746038198,0.0,0.0,0.0,0.0,0.0
1449615749855205258,0.0167619050741,0.0,0.0,0.0,0.0,0.0
1449615749895189324,0.0167619050741,0.0,0.0,0.0,0.0,0.0
1449615749934517823,0.078222222805,0.0,0.0,0.0,0.0,0.0
1449615749976749792,0.078222222805,0.0,0.0,0.0,0.0,0.0
1449615750014837318,0.078222222805,0.0,0.0,0.0,0.0,0.0
1449615750056686301,0.189968263626,0.0,0.0,0.0,0.0,0.0
1449615750094590282,0.189968263626,0.0,0.0,0.0,0.0,0.0
1449615750135217644,0.189968263626,0.0,0.0,0.0,0.0,0.0
1449615750175304040,0.189968263626,0.0,0.0,0.0,0.0,0.0
1449615750214591842,0.189968263626,0.0,0.0,0.0,0.0,0.0
1449615750257195013,0.189968263626,0.0,0.0,0.0,0.0,0.0
1449615750295378753,0.189968263626,0.0,0.0,0.0,0.0,0.0
1449615750336904790,0.189968263626,0.0,0.0,0.0,0.0,0.0
1449615750375340293,0.189968263626,0.0,0.0,0.0,0.0,0.0
1449615750414734215,0.189968263626,0.0,0.0,0.0,0.0,0.0
1449615750455529212,0.189968263626,0.0,0.0,0.0,0.0,0.0
1449615750495301493,0.189968263626,0.0,0.0,0.0,0.0,0.0
1449615750535415729,0.189968263626,0.0,0.0,0.0,0.0,0.0
1449615750575865724,0.189968263626,0.0,0.0,0.0,0.0,0.0
1449615750616780687,0.189968263626,0.0,0.0,0.0,0.0,0.0
1449615750654982616,0.184380962372,0.0,0.0,0.0,0.0,0.0
1449615750694696086,0.184380962372,0.0,0.0,0.0,0.0,0.0
1449615750735037268,0.189968263626,0.0,0.0,0.0,0.0,0.0
1449615750775121971,0.189968263626,0.0,0.0,0.0,0.0,0.0
1449615750814941416,0.189968263626,0.0,0.0,0.0,0.0,0.0
1449615750854655376,0.189968263626,0.0,0.0,0.0,0.0,0.0
1449615750895081721,0.189968263626,0.0,0.0,0.0,0.0,0.0
1449615750934529599,0.184380962372,0.0,0.0,0.0,0.0,0.0
1449615750974683763,0.184380962372,0.0,0.0,0.0,0.0,0.0
1449615751014896798,0.184380962372,0.0,0.0,0.0,0.0,0.0
1449615751055564812,0.189968263626,0.0,0.0,0.0,0.0,0.0
1449615751094729322,0.189968263626,0.0,0.0,0.0,0.0,0.0
1449615751135602186,0.189968263626,0.0,0.0,0.0,0.0,0.0
1449615751174402856,0.189968263626,0.0,0.0,0.0,0.0,0.0
1449615751214629027,0.189968263626,0.0,0.0,0.0,0.0,0.0
1449615751255349789,0.189968263626,0.0,0.0,0.0,0.0,0.0
1449615751295004626,0.189968263626,0.0,0.0,0.0,0.0,0.0
1449615751337462271,0.189968263626,0.0,0.0,0.0,0.0,0.0
1449615751375000156,0.189968263626,0.0,0.0,0.0,0.0,0.0
1449615751415155025,0.189968263626,0.0,0.0,0.0,0.0,0.0
1449615751458157774,0.184380962372,0.0,0.0,0.0,0.0,0.0
1449615751495468464,0.184380962372,0.0,0.0,0.0,0.0,0.0
1449615751537495435,0.189968263626,0.0,0.0,0.0,0.0,0.0
1449615751574689366,0.189968263626,0.0,0.0,0.0,0.0,0.0
1449615751615332446,0.189968263626,0.0,0.0,0.0,0.0,0.0
1449615751655302720,0.184380962372,0.0,0.0,0.0,0.0,0.0
1449615751695947943,0.184380962372,0.0,0.0,0.0,0.0,0.0
1449615751735592900,0.128507939339,0.0,0.0,0.0,0.0,0.00634920671582
1449615751779077766,0.128507939339,0.0,0.0,0.0,0.0,0.00634920671582
1449615751815522816,0.128507939339,0.0,0.0,0.0,0.0,0.00634920671582
1449615751854674640,0.078222222805,0.0,0.0,0.0,0.0,0.0126984134316
1449615751896649480,0.078222222805,0.0,0.0,0.0,0.0,0.0126984134316
1449615751936066808,0.11733333683,0.0,0.0,0.0,0.0,0.0126984134316
1449615751975238418,0.11733333683,0.0,0.0,0.0,0.0,0.0126984134316
1449615752014987888,0.11733333683,0.0,0.0,0.0,0.0,0.0126984134316
1449615752054644349,0.128507939339,0.0,0.0,0.0,0.0,0.0126984134316
1449615752094767688,0.128507939339,0.0,0.0,0.0,0.0,0.0126984134316
1449615752134873158,0.128507939339,0.0,0.0,0.0,0.0,0.0126984134316
1449615752174445947,0.128507939339,0.0,0.0,0.0,0.0,0.0126984134316
1449615752215032386,0.128507939339,0.0,0.0,0.0,0.0,0.0126984134316
1449615752255154716,0.184380962372,0.0,0.0,0.0,0.0,0.0126984134316
1449615752295681221,0.184380962372,0.0,0.0,0.0,0.0,0.0126984134316
1449615752334729531,0.324063493729,0.0,0.0,0.0,0.0,0.184126985073
1449615752375241928,0.324063493729,0.0,0.0,0.0,0.0,0.184126985073
1449615752415165759,0.324063493729,0.0,0.0,0.0,0.0,0.184126985073
1449615752454878243,0.301714288712,0.0,0.0,0.0,0.0,0.336507940292
1449615752494583795,0.301714288712,0.0,0.0,0.0,0.0,0.336507940292
1449615752534832670,0.301714288712,0.0,0.0,0.0,0.0,0.342857146263
1449615752575672669,0.301714288712,0.0,0.0,0.0,0.0,0.342857146263
1449615752616243824,0.301714288712,0.0,0.0,0.0,0.0,0.342857146263
1449615752656582151,0.296126987457,0.0,0.0,0.0,0.0,0.336507940292
1449615752697214948,0.296126987457,0.0,0.0,0.0,0.0,0.336507940292
1449615752734658085,0.301714288712,0.0,0.0,0.0,0.0,0.342857146263
1449615752775262634,0.301714288712,0.0,0.0,0.0,0.0,0.342857146263
1449615752820600070,0.301714288712,0.0,0.0,0.0,0.0,0.342857146263
1449615752856795481,0.245841276169,0.0,0.0,0.0,0.0,0.285714292526
1449615752895965702,0.245841276169,0.0,0.0,0.0,0.0,0.285714292526
1449615752934866913,0.329650794983,0.0,0.0,0.0,0.0,0.126984131336
1449615752974885424,0.329650794983,0.0,0.0,0.0,0.0,0.126984131336
1449615753014826317,0.329650794983,0.0,0.0,0.0,0.0,0.126984131336
1449615753054934221,0.340825397491,0.0,0.0,0.0,0.0,0.0507936537266
1449615753094711333,0.340825397491,0.0,0.0,0.0,0.0,0.0507936537266
1449615753136386118,0.346412698746,0.0,0.0,0.0,0.0,0.0126984134316
1449615753176270442,0.346412698746,0.0,0.0,0.0,0.0,0.0126984134316
1449615753214574245,0.346412698746,0.0,0.0,0.0,0.0,0.0126984134316
1449615753254992159,0.340825397491,0.0,0.0,0.0,0.0,0.0126984134316
1449615753296459934,0.340825397491,0.0,0.0,0.0,0.0,0.0126984134316
1449615753335328585,0.346412698746,0.0,0.0,0.0,0.0,0.00634920671582
1449615753375411015,0.346412698746,0.0,0.0,0.0,0.0,0.00634920671582
1449615753414589299,0.346412698746,0.0,0.0,0.0,0.0,0.00634920671582
1449615753455766111,0.346412698746,0.0,0.0,0.0,0.0,0.00634920671582
1449615753495287527,0.346412698746,0.0,0.0,0.0,0.0,0.00634920671582
1449615753534682515,0.340825397491,0.0,0.0,0.0,0.0,0.00634920671582
1449615753574670509,0.340825397491,0.0,0.0,0.0,0.0,0.00634920671582
1449615753614895981,0.340825397491,0.0,0.0,0.0,0.0,0.00634920671582
1449615753655942098,0.31288889122,0.0,0.0,0.0,0.0,0.0
1449615753694749188,0.31288889122,0.0,0.0,0.0,0.0,0.0
1449615753735994453,0.352,0.0,0.0,0.0,0.0,0.0
1449615753775387703,0.352,0.0,0.0,0.0,0.0,0.0
1449615753814857433,0.352,0.0,0.0,0.0,0.0,0.0
1449615753854696845,0.31288889122,0.0,0.0,0.0,0.0,0.0
1449615753894663222,0.31288889122,0.0,0.0,0.0,0.0,0.0
1449615753934889471,0.346412698746,0.0,0.0,0.0,0.0,0.0
1449615753974700668,0.346412698746,0.0,0.0,0.0,0.0,0.0
1449615754014868376,0.346412698746,0.0,0.0,0.0,0.0,0.0
1449615754056534305,0.346412698746,0.0,0.0,0.0,0.0,0.0
1449615754096061511,0.346412698746,0.0,0.0,0.0,0.0,0.0
1449615754135673252,0.346412698746,0.0,0.0,0.0,0.0,0.0
1449615754175828995,0.346412698746,0.0,0.0,0.0,0.0,0.0
1449615754214709896,0.346412698746,0.0,0.0,0.0,0.0,0.0
1449615754254880804,0.346412698746,0.0,0.0,0.0,0.0,0.0
1449615754302244049,0.346412698746,0.0,0.0,0.0,0.0,0.0
1449615754334516568,0.346412698746,0.0,0.0,0.0,0.0,-0.00634920671582
1449615754374947307,0.346412698746,0.0,0.0,0.0,0.0,-0.00634920671582
1449615754415208152,0.346412698746,0.0,0.0,0.0,0.0,-0.00634920671582
1449615754454776255,0.340825397491,0.0,0.0,0.0,0.0,-0.0317460328341
1449615754497539579,0.340825397491,0.0,0.0,0.0,0.0,-0.0317460328341
1449615754534646253,0.329650794983,0.0,0.0,0.0,0.0,-0.120634925365
1449615754574563600,0.329650794983,0.0,0.0,0.0,0.0,-0.120634925365
1449615754616252331,0.329650794983,0.0,0.0,0.0,0.0,-0.120634925365
1449615754656454483,0.251428577423,0.0,0.0,0.0,0.0,-0.279365086555
1449615754696915390,0.251428577423,0.0,0.0,0.0,0.0,-0.279365086555
1449615754734474993,0.296126987457,0.0,0.0,0.0,0.0,-0.342857146263
1449615754774906945,0.296126987457,0.0,0.0,0.0,0.0,-0.342857146263
1449615754817149466,0.296126987457,0.0,0.0,0.0,0.0,-0.342857146263
1449615754855979814,0.296126987457,0.0,0.0,0.0,0.0,-0.342857146263
1449615754898653103,0.296126987457,0.0,0.0,0.0,0.0,-0.342857146263
1449615754936935933,0.251428577423,0.0,0.0,0.0,0.0,-0.285714292526
1449615754975297988,0.251428577423,0.0,0.0,0.0,0.0,-0.285714292526
1449615755014863383,0.251428577423,0.0,0.0,0.0,0.0,-0.285714292526
1449615755054990017,0.296126987457,0.0,0.0,0.0,0.0,-0.342857146263
1449615755096630328,0.296126987457,0.0,0.0,0.0,0.0,-0.342857146263
1449615755136955079,0.162031746864,0.0,0.0,0.0,0.0,-0.361904764175
1449615755175372564,0.162031746864,0.0,0.0,0.0,0.0,-0.361904764175
1449615755215978967,0.162031746864,0.0,0.0,0.0,0.0,-0.361904764175
1449615755255247469,0.11733333683,0.0,0.0,0.0,0.0,-0.311111116409
1449615755295236492,0.11733333683,0.0,0.0,0.0,0.0,-0.311111116409
1449615755335654397,0.106158734322,0.0,0.0,0.0,0.0,-0.374603176117
1449615755375065220,0.106158734322,0.0,0.0,0.0,0.0,-0.374603176117
1449615755415194636,0.106158734322,0.0,0.0,0.0,0.0,-0.374603176117
1449615755454595787,0.111746035576,0.0,0.0,0.0,0.0,-0.374603176117
1449615755495608887,0.111746035576,0.0,0.0,0.0,0.0,-0.374603176117
1449615755534446553,0.106158734322,0.0,0.0,0.0,0.0,-0.368253970146
1449615755574548776,0.106158734322,0.0,0.0,0.0,0.0,-0.368253970146
1449615755614921029,0.106158734322,0.0,0.0,0.0,0.0,-0.368253970146
1449615755654628107,0.111746035576,0.0,0.0,0.0,0.0,-0.374603176117
1449615755695091347,0.111746035576,0.0,0.0,0.0,0.0,-0.374603176117
1449615755735183141,0.15644444561,0.0,0.0,0.0,0.0,-0.361904764175
1449615755774715548,0.15644444561,0.0,0.0,0.0,0.0,-0.361904764175
1449615755817883833,0.15644444561,0.0,0.0,0.0,0.0,-0.361904764175
1449615755854708480,0.15644444561,0.0,0.0,0.0,0.0,-0.361904764175
1449615755894982731,0.15644444561,0.0,0.0,0.0,0.0,-0.361904764175
1449615755934936084,0.257015878677,0.0,0.0,0.0,0.0,-0.292063498497
1449615755974850109,0.257015878677,0.0,0.0,0.0,0.0,-0.292063498497
1449615756014694769,0.257015878677,0.0,0.0,0.0,0.0,-0.292063498497
1449615756054729739,0.340825397491,0.0,0.0,0.0,0.0,-0.0571428596973
1449615756094740917,0.340825397491,0.0,0.0,0.0,0.0,-0.0571428596973
1449615756136082807,0.318476192474,0.0,0.0,0.0,0.0,-0.0126984134316
1449615756177191542,0.318476192474,0.0,0.0,0.0,0.0,-0.0126984134316
1449615756215403562,0.318476192474,0.0,0.0,0.0,0.0,-0.0126984134316
1449615756256143632,0.346412698746,0.0,0.0,0.0,0.0,-0.00634920671582
1449615756295917371,0.346412698746,0.0,0.0,0.0,0.0,-0.00634920671582
1449615756334909252,0.301714288712,0.0,0.0,0.0,0.0,-0.00634920671582
1449615756376653478,0.301714288712,0.0,0.0,0.0,0.0,-0.00634920671582
1449615756414646964,0.301714288712,0.0,0.0,0.0,0.0,-0.00634920671582
1449615756454962394,0.346412698746,0.0,0.0,0.0,0.0,0.0
1449615756494814155,0.346412698746,0.0,0.0,0.0,0.0,0.0
1449615756536013697,0.290539686203,0.0,0.0,0.0,0.0,0.0253968268633
1449615756577016683,0.290539686203,0.0,0.0,0.0,0.0,0.0253968268633
1449615756614910767,0.290539686203,0.0,0.0,0.0,0.0,0.0253968268633
1449615756654841353,0.340825397491,0.0,0.0,0.0,0.0,0.0317460328341
1449615756696806278,0.340825397491,0.0,0.0,0.0,0.0,0.0317460328341
1449615756736224667,0.290539686203,0.0,0.0,0.0,0.0,0.0253968268633
1449615756775391265,0.290539686203,0.0,0.0,0.0,0.0,0.0253968268633
1449615756814660829,0.290539686203,0.0,0.0,0.0,0.0,0.0253968268633
1449615756855657790,0.346412698746,0.0,0.0,0.0,0.0,0.0126984134316
1449615756894964213,0.346412698746,0.0,0.0,0.0,0.0,0.0126984134316
1449615756934695064,0.346412698746,0.0,0.0,0.0,0.0,0.00634920671582
1449615756975392381,0.346412698746,0.0,0.0,0.0,0.0,0.00634920671582
1449615757014863535,0.346412698746,0.0,0.0,0.0,0.0,0.00634920671582
1449615757055180393,0.340825397491,0.0,0.0,0.0,0.0,0.00634920671582
1449615757095217269,0.340825397491,0.0,0.0,0.0,0.0,0.00634920671582
1449615757135123021,0.346412698746,0.0,0.0,0.0,0.0,0.00634920671582
1449615757174965904,0.346412698746,0.0,0.0,0.0,0.0,0.00634920671582
1449615757214951452,0.346412698746,0.0,0.0,0.0,0.0,0.00634920671582
1449615757255108797,0.346412698746,0.0,0.0,0.0,0.0,0.00634920671582
1449615757294578938,0.346412698746,0.0,0.0,0.0,0.0,0.00634920671582
1449615757335871759,0.318476192474,0.0,0.0,0.0,0.0,0.184126985073
1449615757375393893,0.318476192474,0.0,0.0,0.0,0.0,0.184126985073
1449615757415862245,0.318476192474,0.0,0.0,0.0,0.0,0.184126985073
1449615757455178520,0.301714288712,0.0,0.0,0.0,0.0,0.342857146263
1449615757495064587,0.301714288712,0.0,0.0,0.0,0.0,0.342857146263
1449615757534498329,0.301714288712,0.0,0.0,0.0,0.0,0.336507940292
1449615757575337378,0.301714288712,0.0,0.0,0.0,0.0,0.336507940292
1449615757615646637,0.301714288712,0.0,0.0,0.0,0.0,0.336507940292
1449615757654978563,0.301714288712,0.0,0.0,0.0,0.0,0.342857146263
1449615757695129257,0.301714288712,0.0,0.0,0.0,0.0,0.342857146263
1449615757735371003,0.301714288712,0.0,0.0,0.0,0.0,0.336507940292
1449615757775710519,0.301714288712,0.0,0.0,0.0,0.0,0.336507940292
1449615757815790090,0.301714288712,0.0,0.0,0.0,0.0,0.336507940292
1449615757857160581,0.301714288712,0.0,0.0,0.0,0.0,0.342857146263
1449615757894701082,0.301714288712,0.0,0.0,0.0,0.0,0.342857146263
1449615757935718937,0.296126987457,0.0,0.0,0.0,0.0,0.336507940292
1449615757974927813,0.296126987457,0.0,0.0,0.0,0.0,0.336507940292
1449615758014710371,0.296126987457,0.0,0.0,0.0,0.0,0.336507940292
1449615758055121892,0.296126987457,0.0,0.0,0.0,0.0,0.342857146263
1449615758094415453,0.296126987457,0.0,0.0,0.0,0.0,0.342857146263
1449615758134909912,0.301714288712,0.0,0.0,0.0,0.0,0.336507940292
1449615758175253175,0.301714288712,0.0,0.0,0.0,0.0,0.336507940292
1449615758214626158,0.301714288712,0.0,0.0,0.0,0.0,0.336507940292
1449615758255123632,0.251428577423,0.0,0.0,0.0,0.0,0.285714292526
1449615758296426227,0.251428577423,0.0,0.0,0.0,0.0,0.285714292526
1449615758334742076,0.296126987457,0.0,0.0,0.0,0.0,0.336507940292
1449615758376763858,0.296126987457,0.0,0.0,0.0,0.0,0.336507940292
1449615758414990189,0.296126987457,0.0,0.0,0.0,0.0,0.336507940292
1449615758454664822,0.301714288712,0.0,0.0,0.0,0.0,0.336507940292
1449615758494934113,0.301714288712,0.0,0.0,0.0,0.0,0.336507940292
1449615758536540010,0.245841276169,0.0,0.0,0.0,0.0,0.285714292526
1449615758574449580,0.245841276169,0.0,0.0,0.0,0.0,0.285714292526
1449615758614875555,0.245841276169,0.0,0.0,0.0,0.0,0.285714292526
1449615758655044830,0.301714288712,0.0,0.0,0.0,0.0,0.336507940292
1449615758697626768,0.301714288712,0.0,0.0,0.0,0.0,0.336507940292
1449615758736036499,0.324063493729,0.0,0.0,0.0,0.0,0.177777779102
1449615758774674089,0.324063493729,0.0,0.0,0.0,0.0,0.177777779102
1449615758817291646,0.324063493729,0.0,0.0,0.0,0.0,0.177777779102
1449615758854906680,0.346412698746,0.0,0.0,0.0,0.0,0.0126984134316
1449615758894537466,0.346412698746,0.0,0.0,0.0,0.0,0.0126984134316
1449615758935457729,0.346412698746,0.0,0.0,0.0,0.0,0.00634920671582
1449615758975301475,0.346412698746,0.0,0.0,0.0,0.0,0.00634920671582
1449615759014909164,0.346412698746,0.0,0.0,0.0,0.0,0.00634920671582
1449615759057672749,0.346412698746,0.0,0.0,0.0,0.0,0.00634920671582
1449615759095050392,0.346412698746,0.0,0.0,0.0,0.0,0.00634920671582
1449615759135537172,0.346412698746,0.0,0.0,0.0,0.0,0.0
1449615759175387615,0.346412698746,0.0,0.0,0.0,0.0,0.0
1449615759215657191,0.346412698746,0.0,0.0,0.0,0.0,0.0
1449615759255134559,0.346412698746,0.0,0.0,0.0,0.0,-0.0126984134316
1449615759295324172,0.346412698746,0.0,0.0,0.0,0.0,-0.0126984134316
1449615759335283946,0.340825397491,0.0,0.0,0.0,0.0,-0.0190476194024
1449615759378524768,0.340825397491,0.0,0.0,0.0,0.0,-0.0190476194024
1449615759415170881,0.340825397491,0.0,0.0,0.0,0.0,-0.0190476194024
1449615759455683093,0.340825397491,0.0,0.0,0.0,0.0,-0.0761904776096
1449615759494666394,0.340825397491,0.0,0.0,0.0,0.0,-0.0761904776096
1449615759534416861,0.340825397491,0.0,0.0,0.0,0.0,-0.0761904776096
1449615759575115824,0.340825397491,0.0,0.0,0.0,0.0,-0.0761904776096
1449615759615582071,0.340825397491,0.0,0.0,0.0,0.0,-0.0761904776096
1449615759654546392,0.335238096237,0.0,0.0,0.0,0.0,-0.0761904776096
1449615759694660771,0.335238096237,0.0,0.0,0.0,0.0,-0.0761904776096
1449615759735913411,0.340825397491,0.0,0.0,0.0,0.0,-0.0571428596973
1449615759774954600,0.340825397491,0.0,0.0,0.0,0.0,-0.0571428596973
1449615759814742651,0.340825397491,0.0,0.0,0.0,0.0,-0.0571428596973
1449615759854600283,0.340825397491,0.0,0.0,0.0,0.0,-0.0571428596973
1449615759894669707,0.340825397491,0.0,0.0,0.0,0.0,-0.0571428596973
1449615759934590135,0.335238096237,0.0,0.0,0.0,0.0,-0.0761904776096
1449615759978314288,0.335238096237,0.0,0.0,0.0,0.0,-0.0761904776096
1449615760015220700,0.335238096237,0.0,0.0,0.0,0.0,-0.0761904776096
1449615760055670238,0.290539686203,0.0,0.0,0.0,0.0,-0.0634920656681
1449615760096693432,0.290539686203,0.0,0.0,0.0,0.0,-0.0634920656681
1449615760134784518,0.335238096237,0.0,0.0,0.0,0.0,-0.0571428596973
1449615760175208290,0.335238096237,0.0,0.0,0.0,0.0,-0.0571428596973
1449615760215300768,0.335238096237,0.0,0.0,0.0,0.0,-0.0571428596973
1449615760254951894,0.284952384949,0.0,0.0,0.0,0.0,-0.0634920656681
1449615760295314978,0.284952384949,0.0,0.0,0.0,0.0,-0.0634920656681
1449615760334914872,0.335238096237,0.0,0.0,0.0,0.0,-0.0761904776096
1449615760374544029,0.335238096237,0.0,0.0,0.0,0.0,-0.0761904776096
1449615760415371167,0.335238096237,0.0,0.0,0.0,0.0,-0.0761904776096
1449615760454753546,0.284952384949,0.0,0.0,0.0,0.0,-0.0634920656681
1449615760496152439,0.284952384949,0.0,0.0,0.0,0.0,-0.0634920656681
1449615760536043196,0.340825397491,0.0,0.0,0.0,0.0,-0.0761904776096
1449615760575503898,0.340825397491,0.0,0.0,0.0,0.0,-0.0761904776096
1449615760616211453,0.340825397491,0.0,0.0,0.0,0.0,-0.0761904776096
1449615760655302212,0.340825397491,0.0,0.0,0.0,0.0,-0.0317460328341
1449615760694770855,0.340825397491,0.0,0.0,0.0,0.0,-0.0317460328341
1449615760735140185,0.0614603190422,0.0,0.0,0.0,0.0,0.0
1449615760774862169,0.0614603190422,0.0,0.0,0.0,0.0,0.0
1449615760814627798,0.0614603190422,0.0,0.0,0.0,0.0,0.0
1449615760854634288,0.0167619050741,0.0,0.0,0.0,0.0,0.0126984134316
1449615760895194278,0.0167619050741,0.0,0.0,0.0,0.0,0.0126984134316
1449615760935021234,0.0167619050741,0.0,0.0,0.0,0.0,0.393650794029
1449615760974995917,0.0167619050741,0.0,0.0,0.0,0.0,0.393650794029
1449615761015076136,0.0167619050741,0.0,0.0,0.0,0.0,0.393650794029
1449615761054790553,-0.0,0.0,0.0,0.0,0.0,-0.0
1449615761095911329,-0.0,0.0,0.0,0.0,0.0,-0.0
1449615761134520701,0.0223492076397,0.0,0.0,0.0,0.0,0.387301588058
1449615761174890220,0.0223492076397,0.0,0.0,0.0,0.0,0.387301588058
1449615761214884575,0.0223492076397,0.0,0.0,0.0,0.0,0.387301588058
1449615761254816593,0.027936508894,0.0,0.0,0.0,0.0,0.387301588058
1449615761295078533,0.027936508894,0.0,0.0,0.0,0.0,0.387301588058
1449615761335026389,0.0335238101482,0.0,0.0,0.0,0.0,0.387301588058
1449615761375376733,0.0335238101482,0.0,0.0,0.0,0.0,0.387301588058
1449615761415574821,0.0335238101482,0.0,0.0,0.0,0.0,0.387301588058
1449615761455139876,0.0502857165337,0.0,0.0,0.0,0.0,0.380952382088
1449615761496697469,0.0502857165337,0.0,0.0,0.0,0.0,0.380952382088
1449615761538479377,0.0502857165337,0.0,0.0,0.0,0.0,0.387301588058
1449615761574920560,0.0502857165337,0.0,0.0,0.0,0.0,0.387301588058
1449615761615069413,0.0502857165337,0.0,0.0,0.0,0.0,0.387301588058
1449615761655852115,0.027936508894,0.0,0.0,0.0,0.0,0.393650794029
1449615761694482840,0.027936508894,0.0,0.0,0.0,0.0,0.393650794029
1449615761734560487,0.0223492076397,0.0,0.0,0.0,0.0,0.393650794029
1449615761774640308,0.0223492076397,0.0,0.0,0.0,0.0,0.393650794029
1449615761814480415,0.0223492076397,0.0,0.0,0.0,0.0,0.393650794029
1449615761854492214,0.0223492076397,0.0,0.0,0.0,0.0,0.387301588058
1449615761894966022,0.0223492076397,0.0,0.0,0.0,0.0,0.387301588058
1449615761935033471,0.0111746038198,0.0,0.0,0.0,0.0,0.387301588058
1449615761975038923,0.0111746038198,0.0,0.0,0.0,0.0,0.387301588058
1449615762015406591,0.0111746038198,0.0,0.0,0.0,0.0,0.387301588058
1449615762054466939,0.0111746038198,0.0,0.0,0.0,0.0,0.393650794029
1449615762096999098,0.0111746038198,0.0,0.0,0.0,0.0,0.393650794029
1449615762135866850,0.0111746038198,0.0,0.0,0.0,0.0,0.387301588058
1449615762174585079,0.0111746038198,0.0,0.0,0.0,0.0,0.387301588058
1449615762215390909,0.0111746038198,0.0,0.0,0.0,0.0,0.387301588058
1449615762254625418,0.00558730190992,0.0,0.0,0.0,0.0,0.393650794029
1449615762294719298,0.00558730190992,0.0,0.0,0.0,0.0,0.393650794029
1449615762334440971,0.00558730190992,0.0,0.0,0.0,0.0,0.387301588058
1449615762374797288,0.00558730190992,0.0,0.0,0.0,0.0,0.387301588058
1449615762417505669,0.00558730190992,0.0,0.0,0.0,0.0,0.387301588058
1449615762456096615,0.0111746038198,0.0,0.0,0.0,0.0,0.393650794029
1449615762495121045,0.0111746038198,0.0,0.0,0.0,0.0,0.393650794029
1449615762534628399,0.00558730190992,0.0,0.0,0.0,0.0,0.393650794029
1449615762575711011,0.00558730190992,0.0,0.0,0.0,0.0,0.393650794029
1449615762614493869,0.00558730190992,0.0,0.0,0.0,0.0,0.393650794029
1449615762657180422,0.00558730190992,0.0,0.0,0.0,0.0,0.393650794029
1449615762696870976,0.00558730190992,0.0,0.0,0.0,0.0,0.393650794029
1449615762734581670,0.00558730190992,0.0,0.0,0.0,0.0,0.393650794029
1449615762774680553,0.00558730190992,0.0,0.0,0.0,0.0,0.393650794029
1449615762814545864,0.00558730190992,0.0,0.0,0.0,0.0,0.393650794029
1449615762854449855,0.0111746038198,0.0,0.0,0.0,0.0,0.387301588058
1449615762894726683,0.0111746038198,0.0,0.0,0.0,0.0,0.387301588058
1449615762934436568,0.0111746038198,0.0,0.0,0.0,0.0,0.393650794029
1449615762974526230,0.0111746038198,0.0,0.0,0.0,0.0,0.393650794029
1449615763015322409,0.0111746038198,0.0,0.0,0.0,0.0,0.393650794029
1449615763054838337,0.0111746038198,0.0,0.0,0.0,0.0,0.393650794029
1449615763094445010,0.0111746038198,0.0,0.0,0.0,0.0,0.393650794029
1449615763134419684,0.00558730190992,0.0,0.0,0.0,0.0,0.393650794029
1449615763174365557,0.00558730190992,0.0,0.0,0.0,0.0,0.393650794029
1449615763214614845,0.00558730190992,0.0,0.0,0.0,0.0,0.393650794029
1449615763254614672,0.00558730190992,0.0,0.0,0.0,0.0,0.393650794029
1449615763294806422,0.00558730190992,0.0,0.0,0.0,0.0,0.393650794029
1449615763334418641,0.0111746038198,0.0,0.0,0.0,0.0,0.387301588058
1449615763374360640,0.0111746038198,0.0,0.0,0.0,0.0,0.387301588058
1449615763415047377,0.0111746038198,0.0,0.0,0.0,0.0,0.387301588058
1449615763454601168,0.0111746038198,0.0,0.0,0.0,0.0,0.393650794029
1449615763495321612,0.0111746038198,0.0,0.0,0.0,0.0,0.393650794029
1449615763534338835,0.00558730190992,0.0,0.0,0.0,0.0,0.393650794029
1449615763574467093,0.00558730190992,0.0,0.0,0.0,0.0,0.393650794029
1449615763614611919,0.00558730190992,0.0,0.0,0.0,0.0,0.393650794029
1449615763654425261,0.00558730190992,0.0,0.0,0.0,0.0,0.0444444447756
1449615763694901184,0.00558730190992,0.0,0.0,0.0,0.0,0.0444444447756
1449615763734443019,-0.0,0.0,0.0,0.0,0.0,0.00634920671582
1449615763774388105,-0.0,0.0,0.0,0.0,0.0,0.00634920671582
1449615763814959296,-0.0,0.0,0.0,0.0,0.0,0.00634920671582
1449615763854665933,-0.0,0.0,0.0,0.0,0.0,-0.0
1449615763894694321,-0.0,0.0,0.0,0.0,0.0,-0.0
1449615763934594437,-0.0,0.0,0.0,0.0,0.0,-0.0
1449615763974357352,-0.0,0.0,0.0,0.0,0.0,-0.0
1449615764014543355,-0.0,0.0,0.0,0.0,0.0,-0.0
1449615764054323158,-0.0,0.0,0.0,0.0,0.0,-0.0
1449615764094569814,-0.0,0.0,0.0,0.0,0.0,-0.0
1449615764134635399,-0.0,0.0,0.0,0.0,0.0,-0.0
1449615764174441122,-0.0,0.0,0.0,0.0,0.0,-0.0
1449615764214393876,-0.0,0.0,0.0,0.0,0.0,-0.0
1449615764254433924,-0.0,0.0,0.0,0.0,0.0,-0.00634920671582
1449615764294660411,-0.0,0.0,0.0,0.0,0.0,-0.00634920671582
1449615764334592883,-0.0,0.0,0.0,0.0,0.0,-0.387301588058
1449615764374511241,-0.0,0.0,0.0,0.0,0.0,-0.387301588058
1449615764414736602,-0.0,0.0,0.0,0.0,0.0,-0.387301588058
1449615764454949373,-0.0,0.0,0.0,0.0,0.0,-0.393650794029
1449615764494825578,-0.0,0.0,0.0,0.0,0.0,-0.393650794029
1449615764534564454,-0.0,0.0,0.0,0.0,0.0,-0.393650794029
1449615764574392774,-0.0,0.0,0.0,0.0,0.0,-0.393650794029
1449615764614442289,-0.0,0.0,0.0,0.0,0.0,-0.393650794029
1449615764654813461,-0.0,0.0,0.0,0.0,0.0,-0.387301588058
1449615764694780032,-0.0,0.0,0.0,0.0,0.0,-0.387301588058
1449615764734550791,-0.0,0.0,0.0,0.0,0.0,-0.0126984134316
1449615764774499717,-0.0,0.0,0.0,0.0,0.0,-0.0126984134316
1449615764815299535,-0.0,0.0,0.0,0.0,0.0,-0.0126984134316
1449615764854526771,0.00558730190992,0.0,0.0,0.0,0.0,0.0
1449615764894538693,0.00558730190992,0.0,0.0,0.0,0.0,0.0
1449615764934364838,0.00558730190992,0.0,0.0,0.0,0.0,0.0
1449615764974534927,0.00558730190992,0.0,0.0,0.0,0.0,0.0
1449615765014660440,0.00558730190992,0.0,0.0,0.0,0.0,0.0
1449615765055425189,0.346412698746,0.0,0.0,0.0,0.0,0.00634920671582
1449615765094739950,0.346412698746,0.0,0.0,0.0,0.0,0.00634920671582
1449615765134485630,0.346412698746,0.0,0.0,0.0,0.0,0.00634920671582
1449615765174345943,0.346412698746,0.0,0.0,0.0,0.0,0.00634920671582
1449615765214460255,0.346412698746,0.0,0.0,0.0,0.0,0.00634920671582
1449615765255765662,0.346412698746,0.0,0.0,0.0,0.0,0.0126984134316
1449615765295267578,0.346412698746,0.0,0.0,0.0,0.0,0.0126984134316
1449615765334406205,0.346412698746,0.0,0.0,0.0,0.0,0.0253968268633
1449615765374348641,0.346412698746,0.0,0.0,0.0,0.0,0.0253968268633
1449615765414763575,0.346412698746,0.0,0.0,0.0,0.0,0.0253968268633
1449615765454902573,0.346412698746,0.0,0.0,0.0,0.0,0.0190476194024
1449615765494556294,0.346412698746,0.0,0.0,0.0,0.0,0.0190476194024
1449615765534461700,0.346412698746,0.0,0.0,0.0,0.0,0.0126984134316
1449615765575383246,0.346412698746,0.0,0.0,0.0,0.0,0.0126984134316
1449615765615024073,0.346412698746,0.0,0.0,0.0,0.0,0.0126984134316
1449615765654638723,0.346412698746,0.0,0.0,0.0,0.0,0.00634920671582
1449615765694896636,0.346412698746,0.0,0.0,0.0,0.0,0.00634920671582
1449615765734451542,0.346412698746,0.0,0.0,0.0,0.0,0.0
1449615765774360809,0.346412698746,0.0,0.0,0.0,0.0,0.0
1449615765814694739,0.346412698746,0.0,0.0,0.0,0.0,0.0
1449615765854647783,0.346412698746,0.0,0.0,0.0,0.0,-0.00634920671582
1449615765894844279,0.346412698746,0.0,0.0,0.0,0.0,-0.00634920671582
1449615765934589759,0.346412698746,0.0,0.0,0.0,0.0,-0.00634920671582
1449615765974361275,0.346412698746,0.0,0.0,0.0,0.0,-0.00634920671582
1449615766014513076,0.346412698746,0.0,0.0,0.0,0.0,-0.00634920671582
1449615766054577884,0.346412698746,0.0,0.0,0.0,0.0,-0.00634920671582
1449615766095147465,0.346412698746,0.0,0.0,0.0,0.0,-0.00634920671582
1449615766134440277,0.335238096237,0.0,0.0,0.0,0.0,-0.00634920671582
1449615766174455414,0.335238096237,0.0,0.0,0.0,0.0,-0.00634920671582
1449615766214654486,0.335238096237,0.0,0.0,0.0,0.0,-0.00634920671582
1449615766254791647,0.346412698746,0.0,0.0,0.0,0.0,0.0
1449615766295288847,0.346412698746,0.0,0.0,0.0,0.0,0.0
1449615766334369354,0.31288889122,0.0,0.0,0.0,0.0,0.0
1449615766374423549,0.31288889122,0.0,0.0,0.0,0.0,0.0
1449615766414696097,0.31288889122,0.0,0.0,0.0,0.0,0.0
1449615766454677616,0.346412698746,0.0,0.0,0.0,0.0,0.0
1449615766494701957,0.346412698746,0.0,0.0,0.0,0.0,0.0
1449615766534337391,0.31288889122,0.0,0.0,0.0,0.0,0.0
1449615766574310301,0.31288889122,0.0,0.0,0.0,0.0,0.0
1449615766614597229,0.31288889122,0.0,0.0,0.0,0.0,0.0
1449615766654829253,0.346412698746,0.0,0.0,0.0,0.0,-0.00634920671582
1449615766694819833,0.346412698746,0.0,0.0,0.0,0.0,-0.00634920671582
1449615766734546513,0.027936508894,0.0,0.0,0.0,0.0,-0.00634920671582
1449615766774464761,0.027936508894,0.0,0.0,0.0,0.0,-0.00634920671582
1449615766814425801,0.027936508894,0.0,0.0,0.0,0.0,-0.00634920671582
1449615766854643647,0.0111746038198,0.0,0.0,0.0,0.0,-0.00634920671582
1449615766894864093,0.0111746038198,0.0,0.0,0.0,0.0,-0.00634920671582
1449615766934324942,-0.0,0.0,0.0,0.0,0.0,-0.00634920671582
1449615766974409470,-0.0,0.0,0.0,0.0,0.0,-0.00634920671582
1449615767014784039,-0.0,0.0,0.0,0.0,0.0,-0.00634920671582
1449615767054699016,-0.0,0.0,0.0,0.0,0.0,-0.00634920671582
1449615767095073430,-0.0,0.0,0.0,0.0,0.0,-0.00634920671582
1449615767134553954,0.00558730190992,0.0,0.0,0.0,0.0,-0.387301588058
1449615767174411293,0.00558730190992,0.0,0.0,0.0,0.0,-0.387301588058
1449615767214520346,0.00558730190992,0.0,0.0,0.0,0.0,-0.387301588058
1449615767254703246,-0.0,0.0,0.0,0.0,0.0,-0.393650794029
1449615767295107066,-0.0,0.0,0.0,0.0,0.0,-0.393650794029
1449615767334481086,-0.0,0.0,0.0,0.0,0.0,-0.387301588058
1449615767374362305,-0.0,0.0,0.0,0.0,0.0,-0.387301588058
1449615767414902026,-0.0,0.0,0.0,0.0,0.0,-0.387301588058
1449615767455079967,-0.0,0.0,0.0,0.0,0.0,-0.393650794029
1449615767494620524,-0.0,0.0,0.0,0.0,0.0,-0.393650794029
1449615767534972830,-0.0,0.0,0.0,0.0,0.0,-0.393650794029
1449615767574363124,-0.0,0.0,0.0,0.0,0.0,-0.393650794029
1449615767614588680,-0.0,0.0,0.0,0.0,0.0,-0.393650794029
1449615767655052508,-0.0,0.0,0.0,0.0,0.0,-0.393650794029
1449615767694922125,-0.0,0.0,0.0,0.0,0.0,-0.393650794029
1449615767734493246,-0.0,0.0,0.0,0.0,0.0,-0.393650794029
1449615767774395311,-0.0,0.0,0.0,0.0,0.0,-0.393650794029
1449615767814668380,-0.0,0.0,0.0,0.0,0.0,-0.393650794029
1449615767854991997,-0.0,0.0,0.0,0.0,0.0,-0.393650794029
1449615767894488839,-0.0,0.0,0.0,0.0,0.0,-0.393650794029
1449615767934536814,-0.0,0.0,0.0,0.0,0.0,-0.387301588058
1449615767974359008,-0.0,0.0,0.0,0.0,0.0,-0.387301588058
1449615768014498633,-0.0,0.0,0.0,0.0,0.0,-0.387301588058
1449615768055885068,0.00558730190992,0.0,0.0,0.0,0.0,-0.349206352234
1449615768095695911,0.00558730190992,0.0,0.0,0.0,0.0,-0.349206352234
1449615768134430902,-0.0,0.0,0.0,0.0,0.0,-0.393650794029
1449615768174358802,-0.0,0.0,0.0,0.0,0.0,-0.393650794029
1449615768214664775,-0.0,0.0,0.0,0.0,0.0,-0.393650794029
1449615768254626491,-0.0,0.0,0.0,0.0,0.0,-0.355555558205
1449615768294973271,-0.0,0.0,0.0,0.0,0.0,-0.355555558205
1449615768334424764,-0.0,0.0,0.0,0.0,0.0,-0.387301588058
1449615768374352486,-0.0,0.0,0.0,0.0,0.0,-0.387301588058
1449615768414645628,-0.0,0.0,0.0,0.0,0.0,-0.387301588058
1449615768454614016,-0.0,0.0,0.0,0.0,0.0,-0.355555558205
1449615768494890794,-0.0,0.0,0.0,0.0,0.0,-0.355555558205
1449615768534413633,-0.0,0.0,0.0,0.0,0.0,-0.387301588058
1449615768574304872,-0.0,0.0,0.0,0.0,0.0,-0.387301588058
1449615768614430194,-0.0,0.0,0.0,0.0,0.0,-0.387301588058
1449615768654416584,-0.0,0.0,0.0,0.0,0.0,-0.0888888895512
1449615768694760752,-0.0,0.0,0.0,0.0,0.0,-0.0888888895512
1449615768734493663,-0.0,0.0,0.0,0.0,0.0,-0.0952380955219
1449615768774389152,-0.0,0.0,0.0,0.0,0.0,-0.0952380955219
1449615768815053251,-0.0,0.0,0.0,0.0,0.0,-0.0952380955219
1449615768854457081,-0.0,0.0,0.0,0.0,0.0,-0.0
1449615768894571644,-0.0,0.0,0.0,0.0,0.0,-0.0
1449615768934425796,-0.0,0.0,0.0,0.0,0.0,-0.0
1449615768974322726,-0.0,0.0,0.0,0.0,0.0,-0.0
1449615769014467355,-0.0,0.0,0.0,0.0,0.0,-0.0
1449615769054421282,-0.0,0.0,0.0,0.0,0.0,-0.0
1449615769094521967,-0.0,0.0,0.0,0.0,0.0,-0.0
1449615769134330697,-0.0,0.0,0.0,0.0,0.0,-0.0
1449615769174301521,-0.0,0.0,0.0,0.0,0.0,-0.0
1449615769214378451,-0.0,0.0,0.0,0.0,0.0,-0.0
1449615769254471905,-0.0,0.0,0.0,0.0,0.0,-0.0
1449615769294718951,-0.0,0.0,0.0,0.0,0.0,-0.0
1449615769334289198,-0.0,0.0,0.0,0.0,0.0,-0.0
1449615769374559771,-0.0,0.0,0.0,0.0,0.0,-0.0
1449615769414723871,-0.0,0.0,0.0,0.0,0.0,-0.0
1449615769454630621,-0.0,0.0,0.0,0.0,0.0,-0.0
1449615769494477787,-0.0,0.0,0.0,0.0,0.0,-0.0
1449615769534327566,-0.0,0.0,0.0,0.0,0.0,-0.0
1449615769574338153,-0.0,0.0,0.0,0.0,0.0,-0.0
1449615769614774415,-0.0,0.0,0.0,0.0,0.0,-0.0
1449615769654802044,-0.0,0.0,0.0,0.0,0.0,-0.0
1449615769695773864,-0.0,0.0,0.0,0.0,0.0,-0.0
1449615769734411416,0.00558730190992,0.0,0.0,0.0,0.0,0.0
1449615769774364810,0.00558730190992,0.0,0.0,0.0,0.0,0.0
1449615769814346298,0.00558730190992,0.0,0.0,0.0,0.0,0.0
1449615769854744732,0.0111746038198,0.0,0.0,0.0,0.0,0.0
1449615769895435826,0.0111746038198,0.0,0.0,0.0,0.0,0.0
1449615769934395904,0.0223492076397,0.0,0.0,0.0,0.0,-0.00634920671582
1449615769974396152,0.0223492076397,0.0,0.0,0.0,0.0,-0.00634920671582
1449615770014786150,0.0223492076397,0.0,0.0,0.0,0.0,-0.00634920671582
1449615770054694445,0.346412698746,0.0,0.0,0.0,0.0,-0.00634920671582
1449615770096176100,0.346412698746,0.0,0.0,0.0,0.0,-0.00634920671582
1449615770134651149,0.307301589966,0.0,0.0,0.0,0.0,0.0
1449615770174313595,0.307301589966,0.0,0.0,0.0,0.0,0.0
1449615770214463102,0.307301589966,0.0,0.0,0.0,0.0,0.0
1449615770254525760,0.346412698746,0.0,0.0,0.0,0.0,-0.00634920671582
1449615770294607398,0.346412698746,0.0,0.0,0.0,0.0,-0.00634920671582
1449615770334701526,0.346412698746,0.0,0.0,0.0,0.0,-0.00634920671582
1449615770374336151,0.346412698746,0.0,0.0,0.0,0.0,-0.00634920671582
1449615770414374533,0.346412698746,0.0,0.0,0.0,0.0,-0.00634920671582
1449615770454837953,0.346412698746,0.0,0.0,0.0,0.0,-0.00634920671582
1449615770495037150,0.346412698746,0.0,0.0,0.0,0.0,-0.00634920671582
1449615770534509863,0.346412698746,0.0,0.0,0.0,0.0,-0.00634920671582
1449615770574471664,0.346412698746,0.0,0.0,0.0,0.0,-0.00634920671582
1449615770614395193,0.346412698746,0.0,0.0,0.0,0.0,-0.00634920671582
1449615770654793643,0.346412698746,0.0,0.0,0.0,0.0,-0.00634920671582
1449615770694734944,0.346412698746,0.0,0.0,0.0,0.0,-0.00634920671582
1449615770734498687,0.346412698746,0.0,0.0,0.0,0.0,-0.0126984134316
1449615770774380086,0.346412698746,0.0,0.0,0.0,0.0,-0.0126984134316
1449615770814384336,0.346412698746,0.0,0.0,0.0,0.0,-0.0126984134316
1449615770854528810,0.346412698746,0.0,0.0,0.0,0.0,-0.00634920671582
1449615770895197998,0.346412698746,0.0,0.0,0.0,0.0,-0.00634920671582
1449615770934379569,0.346412698746,0.0,0.0,0.0,0.0,-0.0126984134316
1449615770974354911,0.346412698746,0.0,0.0,0.0,0.0,-0.0126984134316
1449615771014481421,0.346412698746,0.0,0.0,0.0,0.0,-0.0126984134316
1449615771054806307,0.346412698746,0.0,0.0,0.0,0.0,-0.0190476194024
1449615771094846133,0.346412698746,0.0,0.0,0.0,0.0,-0.0190476194024
1449615771134515800,0.346412698746,0.0,0.0,0.0,0.0,-0.0126984134316
1449615771174319665,0.346412698746,0.0,0.0,0.0,0.0,-0.0126984134316
1449615771214478668,0.346412698746,0.0,0.0,0.0,0.0,-0.0126984134316
1449615771254615995,0.346412698746,0.0,0.0,0.0,0.0,-0.0190476194024
1449615771296520243,0.346412698746,0.0,0.0,0.0,0.0,-0.0190476194024
1449615771334366072,0.346412698746,0.0,0.0,0.0,0.0,-0.00634920671582
1449615771374399434,0.346412698746,0.0,0.0,0.0,0.0,-0.00634920671582
1449615771414826471,0.346412698746,0.0,0.0,0.0,0.0,-0.00634920671582
1449615771454406806,0.346412698746,0.0,0.0,0.0,0.0,-0.00634920671582
1449615771494770650,0.346412698746,0.0,0.0,0.0,0.0,-0.00634920671582
1449615771534459834,0.346412698746,0.0,0.0,0.0,0.0,-0.00634920671582
1449615771574337476,0.346412698746,0.0,0.0,0.0,0.0,-0.00634920671582
1449615771614480812,0.346412698746,0.0,0.0,0.0,0.0,-0.00634920671582
1449615771654482919,0.346412698746,0.0,0.0,0.0,0.0,-0.00634920671582
1449615771694734142,0.346412698746,0.0,0.0,0.0,0.0,-0.00634920671582
1449615771734659393,0.346412698746,0.0,0.0,0.0,0.0,0.00634920671582
1449615771774328869,0.346412698746,0.0,0.0,0.0,0.0,0.00634920671582
1449615771814514874,0.346412698746,0.0,0.0,0.0,0.0,0.00634920671582
1449615771854521704,0.301714288712,0.0,0.0,0.0,0.0,0.342857146263
1449615771894853779,0.301714288712,0.0,0.0,0.0,0.0,0.342857146263
1449615771934518548,0.296126987457,0.0,0.0,0.0,0.0,0.336507940292
1449615771974462448,0.296126987457,0.0,0.0,0.0,0.0,0.336507940292
1449615772014540386,0.296126987457,0.0,0.0,0.0,0.0,0.336507940292
1449615772054312413,0.301714288712,0.0,0.0,0.0,0.0,0.342857146263
1449615772095148218,0.301714288712,0.0,0.0,0.0,0.0,0.342857146263
1449615772134446633,0.301714288712,0.0,0.0,0.0,0.0,0.336507940292
1449615772174398122,0.301714288712,0.0,0.0,0.0,0.0,0.336507940292
1449615772214505695,0.301714288712,0.0,0.0,0.0,0.0,0.336507940292
1449615772254292644,0.346412698746,0.0,0.0,0.0,0.0,-0.0126984134316
1449615772294816542,0.346412698746,0.0,0.0,0.0,0.0,-0.0126984134316
1449615772334465562,0.301714288712,0.0,0.0,0.0,0.0,-0.336507940292
1449615772374341788,0.301714288712,0.0,0.0,0.0,0.0,-0.336507940292
1449615772414514247,0.301714288712,0.0,0.0,0.0,0.0,-0.336507940292
1449615772454473945,0.301714288712,0.0,0.0,0.0,0.0,-0.336507940292
1449615772494484083,0.301714288712,0.0,0.0,0.0,0.0,-0.336507940292
1449615772534495034,0.346412698746,0.0,0.0,0.0,0.0,-0.0126984134316
1449615772574366322,0.346412698746,0.0,0.0,0.0,0.0,-0.0126984134316
1449615772614785621,0.346412698746,0.0,0.0,0.0,0.0,-0.0126984134316
1449615772654431841,0.184380962372,0.0,0.0,0.0,0.0,0.0
1449615772694775414,0.184380962372,0.0,0.0,0.0,0.0,0.0
1449615772734463349,0.296126987457,0.0,0.0,0.0,0.0,0.342857146263
1449615772774344234,0.296126987457,0.0,0.0,0.0,0.0,0.342857146263
1449615772814359811,0.296126987457,0.0,0.0,0.0,0.0,0.342857146263
1449615772854583727,0.301714288712,0.0,0.0,0.0,0.0,0.342857146263
1449615772894922655,0.301714288712,0.0,0.0,0.0,0.0,0.342857146263
1449615772934382324,0.296126987457,0.0,0.0,0.0,0.0,0.336507940292
1449615772974459687,0.296126987457,0.0,0.0,0.0,0.0,0.336507940292
1449615773014547407,0.296126987457,0.0,0.0,0.0,0.0,0.336507940292
1449615773054385076,0.301714288712,0.0,0.0,0.0,0.0,0.336507940292
1449615773095266660,0.301714288712,0.0,0.0,0.0,0.0,0.336507940292
1449615773134454553,0.296126987457,0.0,0.0,0.0,0.0,0.336507940292
1449615773174385301,0.296126987457,0.0,0.0,0.0,0.0,0.336507940292
1449615773214514593,0.296126987457,0.0,0.0,0.0,0.0,0.336507940292
1449615773254513996,0.301714288712,0.0,0.0,0.0,0.0,0.342857146263
1449615773294932211,0.301714288712,0.0,0.0,0.0,0.0,0.342857146263
1449615773334492310,0.296126987457,0.0,0.0,0.0,0.0,0.342857146263
1449615773374342635,0.296126987457,0.0,0.0,0.0,0.0,0.342857146263
1449615773414482570,0.296126987457,0.0,0.0,0.0,0.0,0.342857146263
1449615773454459686,0.301714288712,0.0,0.0,0.0,0.0,0.336507940292
1449615773494873846,0.301714288712,0.0,0.0,0.0,0.0,0.336507940292
1449615773534948372,0.296126987457,0.0,0.0,0.0,0.0,0.342857146263
1449615773574451255,0.296126987457,0.0,0.0,0.0,0.0,0.342857146263
1449615773614481447,0.296126987457,0.0,0.0,0.0,0.0,0.342857146263
1449615773654689411,0.296126987457,0.0,0.0,0.0,0.0,0.336507940292
1449615773694411561,0.296126987457,0.0,0.0,0.0,0.0,0.336507940292
