%time,field.header.seq,field.header.stamp,field.header.frame_id,field.polygon.points0.x,field.polygon.points0.y,field.polygon.points0.z,field.polygon.points1.x,field.polygon.points1.y,field.polygon.points1.z,field.polygon.points2.x,field.polygon.points2.y,field.polygon.points2.z,field.polygon.points3.x,field.polygon.points3.y,field.polygon.points3.z,field.polygon.points4.x,field.polygon.points4.y,field.polygon.points4.z
1449615728240482287,2,1449615728240256150,odom,0.569999992847,0.0,0.0,0.469999998808,-0.305000007153,0.0,-0.730000019073,-0.305000007153,0.0,-0.730000019073,0.305000007153,0.0,0.469999998808,0.305000007153,0.0
1449615728440392642,3,1449615728440201646,odom,0.569999992847,0.0,0.0,0.469999998808,-0.305000007153,0.0,-0.730000019073,-0.305000007153,0.0,-0.730000019073,0.305000007153,0.0,0.469999998808,0.305000007153,0.0
1449615728640228963,4,1449615728640028575,odom,0.569999992847,0.0,0.0,0.469999998808,-0.305000007153,0.0,-0.730000019073,-0.305000007153,0.0,-0.730000019073,0.305000007153,0.0,0.469999998808,0.305000007153,0.0
1449615728840314475,5,1449615728840109658,odom,0.569999992847,0.0,0.0,0.469999998808,-0.305000007153,0.0,-0.730000019073,-0.305000007153,0.0,-0.730000019073,0.305000007153,0.0,0.469999998808,0.305000007153,0.0
1449615729040326158,6,1449615729040131976,odom,0.569999992847,0.0,0.0,0.469999998808,-0.305000007153,0.0,-0.730000019073,-0.305000007153,0.0,-0.730000019073,0.305000007153,0.0,0.469999998808,0.305000007153,0.0
1449615729240377974,7,1449615729240204718,odom,0.569999992847,0.0,0.0,0.469999998808,-0.305000007153,0.0,-0.730000019073,-0.305000007153,0.0,-0.730000019073,0.305000007153,0.0,0.469999998808,0.305000007153,0.0
1449615729440328975,8,1449615729440127671,odom,0.569999992847,0.0,0.0,0.469999998808,-0.305000007153,0.0,-0.730000019073,-0.305000007153,0.0,-0.730000019073,0.305000007153,0.0,0.469999998808,0.305000007153,0.0
1449615729640411483,9,1449615729640153868,odom,0.569999992847,0.0,0.0,0.469999998808,-0.305000007153,0.0,-0.730000019073,-0.305000007153,0.0,-0.730000019073,0.305000007153,0.0,0.469999998808,0.305000007153,0.0
1449615729840354844,10,1449615729840113788,odom,0.569999992847,0.0,0.0,0.469999998808,-0.305000007153,0.0,-0.730000019073,-0.305000007153,0.0,-0.730000019073,0.305000007153,0.0,0.469999998808,0.305000007153,0.0
1449615730218230918,11,1449615730217977223,odom,0.569999992847,0.0,0.0,0.469999998808,-0.305000007153,0.0,-0.730000019073,-0.305000007153,0.0,-0.730000019073,0.305000007153,0.0,0.469999998808,0.305000007153,0.0
1449615730380148644,12,1449615730379722874,odom,0.569999992847,0.0,0.0,0.469999998808,-0.305000007153,0.0,-0.730000019073,-0.305000007153,0.0,-0.730000019073,0.305000007153,0.0,0.469999998808,0.305000007153,0.0
1449615730547032308,13,1449615730546726481,odom,0.569999992847,0.0,0.0,0.469999998808,-0.305000007153,0.0,-0.730000019073,-0.305000007153,0.0,-0.730000019073,0.305000007153,0.0,0.469999998808,0.305000007153,0.0
1449615730757852143,14,1449615730757573711,odom,0.569999992847,0.0,0.0,0.469999998808,-0.305000007153,0.0,-0.730000019073,-0.305000007153,0.0,-0.730000019073,0.305000007153,0.0,0.469999998808,0.305000007153,0.0
1449615730950033308,15,1449615730949859656,odom,0.569999992847,0.0,0.0,0.469999998808,-0.305000007153,0.0,-0.730000019073,-0.305000007153,0.0,-0.730000019073,0.305000007153,0.0,0.469999998808,0.305000007153,0.0
1449615731138328638,16,1449615731137954779,odom,0.569999992847,0.0,0.0,0.469999998808,-0.305000007153,0.0,-0.730000019073,-0.305000007153,0.0,-0.730000019073,0.305000007153,0.0,0.469999998808,0.305000007153,0.0
1449615731333969614,17,1449615731333562328,odom,0.569999992847,0.0,0.0,0.469999998808,-0.305000007153,0.0,-0.730000019073,-0.305000007153,0.0,-0.730000019073,0.305000007153,0.0,0.469999998808,0.305000007153,0.0
1449615731527946526,18,1449615731527706733,odom,0.569999992847,0.0,0.0,0.469999998808,-0.305000007153,0.0,-0.730000019073,-0.305000007153,0.0,-0.730000019073,0.305000007153,0.0,0.469999998808,0.305000007153,0.0
1449615731736467605,19,1449615731736276048,odom,0.569999992847,0.0,0.0,0.469999998808,-0.305000007153,0.0,-0.730000019073,-0.305000007153,0.0,-0.730000019073,0.305000007153,0.0,0.469999998808,0.305000007153,0.0
1449615731916461489,20,1449615731916169602,odom,0.569999992847,0.0,0.0,0.469999998808,-0.305000007153,0.0,-0.730000019073,-0.305000007153,0.0,-0.730000019073,0.305000007153,0.0,0.469999998808,0.305000007153,0.0
1449615732130417461,21,1449615732128671590,odom,0.569999992847,0.0,0.0,0.469999998808,-0.305000007153,0.0,-0.730000019073,-0.305000007153,0.0,-0.730000019073,0.305000007153,0.0,0.469999998808,0.305000007153,0.0
1449615732311195168,22,1449615732310944800,odom,0.569999992847,0.0,0.0,0.469999998808,-0.305000007153,0.0,-0.730000019073,-0.305000007153,0.0,-0.730000019073,0.305000007153,0.0,0.469999998808,0.305000007153,0.0
1449615732537915627,23,1449615732537687387,odom,0.569999992847,0.0,0.0,0.469999998808,-0.305000007153,0.0,-0.730000019073,-0.305000007153,0.0,-0.730000019073,0.305000007153,0.0,0.469999998808,0.305000007153,0.0
1449615732724812596,24,1449615732724640407,odom,0.569999992847,0.0,0.0,0.469999998808,-0.305000007153,0.0,-0.730000019073,-0.305000007153,0.0,-0.730000019073,0.305000007153,0.0,0.469999998808,0.305000007153,0.0
1449615732920628138,25,1449615732918510722,odom,0.569999992847,0.0,0.0,0.469999998808,-0.305000007153,0.0,-0.730000019073,-0.305000007153,0.0,-0.730000019073,0.305000007153,0.0,0.469999998808,0.305000007153,0.0
1449615733123370080,26,1449615733123255057,odom,0.569999992847,0.0,0.0,0.469999998808,-0.305000007153,0.0,-0.730000019073,-0.305000007153,0.0,-0.730000019073,0.305000007153,0.0,0.469999998808,0.305000007153,0.0
1449615733323774138,27,1449615733323629341,odom,0.569999992847,0.0,0.0,0.469999998808,-0.305000007153,0.0,-0.730000019073,-0.305000007153,0.0,-0.730000019073,0.305000007153,0.0,0.469999998808,0.305000007153,0.0
1449615733514914392,28,1449615733513782528,odom,0.569999992847,0.0,0.0,0.469999998808,-0.305000007153,0.0,-0.730000019073,-0.305000007153,0.0,-0.730000019073,0.305000007153,0.0,0.469999998808,0.305000007153,0.0
1449615733717452159,29,1449615733717235517,odom,0.569999992847,0.0,0.0,0.469999998808,-0.305000007153,0.0,-0.730000019073,-0.305000007153,0.0,-0.730000019073,0.305000007153,0.0,0.469999998808,0.305000007153,0.0
1449615733921075730,30,1449615733920701077,odom,0.569999992847,0.0,0.0,0.469999998808,-0.305000007153,0.0,-0.730000019073,-0.305000007153,0.0,-0.730000019073,0.305000007153,0.0,0.469999998808,0.305000007153,0.0
1449615734143505019,31,1449615734139609349,odom,0.569999992847,0.0,0.0,0.469999998808,-0.305000007153,0.0,-0.730000019073,-0.305000007153,0.0,-0.730000019073,0.305000007153,0.0,0.469999998808,0.305000007153,0.0
1449615734330503090,32,1449615734330056796,odom,0.569999992847,0.0,0.0,0.469999998808,-0.305000007153,0.0,-0.730000019073,-0.305000007153,0.0,-0.730000019073,0.305000007153,0.0,0.469999998808,0.305000007153,0.0
1449615734516994411,33,1449615734516743352,odom,0.569999992847,0.0,0.0,0.469999998808,-0.305000007153,0.0,-0.730000019073,-0.305000007153,0.0,-0.730000019073,0.305000007153,0.0,0.469999998808,0.305000007153,0.0
1449615734715587482,34,1449615734715354081,odom,0.569999992847,0.0,0.0,0.469999998808,-0.305000007153,0.0,-0.730000019073,-0.305000007153,0.0,-0.730000019073,0.305000007153,0.0,0.469999998808,0.305000007153,0.0
1449615734915387491,35,1449615734915118412,odom,0.569999992847,0.0,0.0,0.469999998808,-0.305000007153,0.0,-0.730000019073,-0.305000007153,0.0,-0.730000019073,0.305000007153,0.0,0.469999998808,0.305000007153,0.0
1449615735110431900,36,1449615735110028319,odom,0.569999992847,0.0,0.0,0.469999998808,-0.305000007153,0.0,-0.730000019073,-0.305000007153,0.0,-0.730000019073,0.305000007153,0.0,0.469999998808,0.305000007153,0.0
1449615735332143048,37,1449615735331743729,odom,0.569999992847,0.0,0.0,0.469999998808,-0.305000007153,0.0,-0.730000019073,-0.305000007153,0.0,-0.730000019073,0.305000007153,0.0,0.469999998808,0.305000007153,0.0
1449615735535411268,38,1449615735534671834,odom,0.569999992847,0.0,0.0,0.469999998808,-0.305000007153,0.0,-0.730000019073,-0.305000007153,0.0,-0.730000019073,0.305000007153,0.0,0.469999998808,0.305000007153,0.0
1449615735741718185,39,1449615735735832554,odom,0.569999992847,0.0,0.0,0.469999998808,-0.305000007153,0.0,-0.730000019073,-0.305000007153,0.0,-0.730000019073,0.305000007153,0.0,0.469999998808,0.305000007153,0.0
1449615735947534772,40,1449615735947208224,odom,0.569999992847,0.0,0.0,0.469999998808,-0.305000007153,0.0,-0.730000019073,-0.305000007153,0.0,-0.730000019073,0.305000007153,0.0,0.469999998808,0.305000007153,0.0
1449615736126567184,41,1449615736126176110,odom,0.569999992847,0.0,0.0,0.469999998808,-0.305000007153,0.0,-0.730000019073,-0.305000007153,0.0,-0.730000019073,0.305000007153,0.0,0.469999998808,0.305000007153,0.0
1449615736328969411,42,1449615736328800507,odom,0.569999992847,0.0,0.0,0.469999998808,-0.305000007153,0.0,-0.730000019073,-0.305000007153,0.0,-0.730000019073,0.305000007153,0.0,0.469999998808,0.305000007153,0.0
1449615736532094373,43,1449615736531404404,odom,0.569999992847,0.0,0.0,0.469999998808,-0.305000007153,0.0,-0.730000019073,-0.305000007153,0.0,-0.730000019073,0.305000007153,0.0,0.469999998808,0.305000007153,0.0
1449615736719307327,44,1449615736719018285,odom,0.569999992847,0.0,0.0,0.469999998808,-0.305000007153,0.0,-0.730000019073,-0.305000007153,0.0,-0.730000019073,0.305000007153,0.0,0.469999998808,0.305000007153,0.0
1449615736927099640,45,1449615736926906321,odom,0.569999992847,0.0,0.0,0.469999998808,-0.305000007153,0.0,-0.730000019073,-0.305000007153,0.0,-0.730000019073,0.305000007153,0.0,0.469999998808,0.305000007153,0.0
1449615737129314194,46,1449615737129088262,odom,0.569999992847,0.0,0.0,0.469999998808,-0.305000007153,0.0,-0.730000019073,-0.305000007153,0.0,-0.730000019073,0.305000007153,0.0,0.469999998808,0.305000007153,0.0
1449615737351294519,47,1449615737350906284,odom,0.569999992847,0.0,0.0,0.469999998808,-0.305000007153,0.0,-0.730000019073,-0.305000007153,0.0,-0.730000019073,0.305000007153,0.0,0.469999998808,0.305000007153,0.0
1449615737540827789,48,1449615737540284096,odom,0.569999992847,0.0,0.0,0.469999998808,-0.305000007153,0.0,-0.730000019073,-0.305000007153,0.0,-0.730000019073,0.305000007153,0.0,0.469999998808,0.305000007153,0.0
1449615737730105014,49,1449615737728251294,odom,0.569999992847,0.0,0.0,0.469999998808,-0.305000007153,0.0,-0.730000019073,-0.305000007153,0.0,-0.730000019073,0.305000007153,0.0,0.469999998808,0.305000007153,0.0
1449615737916715650,50,1449615737914419768,odom,0.569999992847,0.0,0.0,0.469999998808,-0.305000007153,0.0,-0.730000019073,-0.305000007153,0.0,-0.730000019073,0.305000007153,0.0,0.469999998808,0.305000007153,0.0
1449615738121974528,51,1449615738121787517,odom,0.569999992847,0.0,0.0,0.469999998808,-0.305000007153,0.0,-0.730000019073,-0.305000007153,0.0,-0.730000019073,0.305000007153,0.0,0.469999998808,0.305000007153,0.0
1449615738342744257,52,1449615738342484346,odom,0.569999992847,0.0,0.0,0.469999998808,-0.305000007153,0.0,-0.730000019073,-0.305000007153,0.0,-0.730000019073,0.305000007153,0.0,0.469999998808,0.305000007153,0.0
1449615738529519157,53,1449615738529340733,odom,0.569999992847,0.0,0.0,0.469999998808,-0.305000007153,0.0,-0.730000019073,-0.305000007153,0.0,-0.730000019073,0.305000007153,0.0,0.469999998808,0.305000007153,0.0
1449615738723804953,54,1449615738723680175,odom,0.569999992847,0.0,0.0,0.469999998808,-0.305000007153,0.0,-0.730000019073,-0.305000007153,0.0,-0.730000019073,0.305000007153,0.0,0.469999998808,0.305000007153,0.0
1449615738933893730,55,1449615738931588210,odom,0.569999992847,0.0,0.0,0.469999998808,-0.305000007153,0.0,-0.730000019073,-0.305000007153,0.0,-0.730000019073,0.305000007153,0.0,0.469999998808,0.305000007153,0.0
1449615739124182200,56,1449615739123776310,odom,0.569999992847,0.0,0.0,0.469999998808,-0.305000007153,0.0,-0.730000019073,-0.305000007153,0.0,-0.730000019073,0.305000007153,0.0,0.469999998808,0.305000007153,0.0
1449615739332819867,57,1449615739329828119,odom,0.569999992847,0.0,0.0,0.469999998808,-0.305000007153,0.0,-0.730000019073,-0.305000007153,0.0,-0.730000019073,0.305000007153,0.0,0.469999998808,0.305000007153,0.0
1449615739525740731,58,1449615739525637969,odom,0.569999992847,0.0,0.0,0.469999998808,-0.305000007153,0.0,-0.730000019073,-0.305000007153,0.0,-0.730000019073,0.305000007153,0.0,0.469999998808,0.305000007153,0.0
1449615739735712235,59,1449615739735472149,odom,0.569999992847,0.0,0.0,0.469999998808,-0.305000007153,0.0,-0.730000019073,-0.305000007153,0.0,-0.730000019073,0.305000007153,0.0,0.469999998808,0.305000007153,0.0
1449615739928668592,60,1449615739928410172,odom,0.569999992847,0.0,0.0,0.469999998808,-0.305000007153,0.0,-0.730000019073,-0.305000007153,0.0,-0.730000019073,0.305000007153,0.0,0.469999998808,0.305000007153,0.0
1449615740114473973,61,1449615740114322365,odom,0.569999992847,0.0,0.0,0.469999998808,-0.305000007153,0.0,-0.730000019073,-0.305000007153,0.0,-0.730000019073,0.305000007153,0.0,0.469999998808,0.305000007153,0.0
1449615740340494633,62,1449615740340212513,odom,0.569999992847,0.0,0.0,0.469999998808,-0.305000007153,0.0,-0.730000019073,-0.305000007153,0.0,-0.730000019073,0.305000007153,0.0,0.469999998808,0.305000007153,0.0
1449615740518704861,63,1449615740518418154,odom,0.569999992847,0.0,0.0,0.469999998808,-0.305000007153,0.0,-0.730000019073,-0.305000007153,0.0,-0.730000019073,0.305000007153,0.0,0.469999998808,0.305000007153,0.0
1449615740723656053,64,1449615740723547486,odom,0.569999992847,0.0,0.0,0.469999998808,-0.305000007153,0.0,-0.730000019073,-0.305000007153,0.0,-0.730000019073,0.305000007153,0.0,0.469999998808,0.305000007153,0.0
1449615740942454484,65,1449615740941941609,odom,0.569999992847,0.0,0.0,0.469999998808,-0.305000007153,0.0,-0.730000019073,-0.305000007153,0.0,-0.730000019073,0.305000007153,0.0,0.469999998808,0.305000007153,0.0
1449615741147351338,66,1449615741147175830,odom,0.569999992847,0.0,0.0,0.469999998808,-0.305000007153,0.0,-0.730000019073,-0.305000007153,0.0,-0.730000019073,0.305000007153,0.0,0.469999998808,0.305000007153,0.0
1449615741345880282,67,1449615741345749772,odom,0.569999992847,0.0,0.0,0.469999998808,-0.305000007153,0.0,-0.730000019073,-0.305000007153,0.0,-0.730000019073,0.305000007153,0.0,0.469999998808,0.305000007153,0.0
1449615741534615071,68,1449615741534043967,odom,0.569999992847,0.0,0.0,0.469999998808,-0.305000007153,0.0,-0.730000019073,-0.305000007153,0.0,-0.730000019073,0.305000007153,0.0,0.469999998808,0.305000007153,0.0
1449615741736136606,69,1449615741736023099,odom,0.569999992847,0.0,0.0,0.469999998808,-0.305000007153,0.0,-0.730000019073,-0.305000007153,0.0,-0.730000019073,0.305000007153,0.0,0.469999998808,0.305000007153,0.0
1449615741934564728,70,1449615741934327449,odom,0.569999992847,0.0,0.0,0.469999998808,-0.305000007153,0.0,-0.730000019073,-0.305000007153,0.0,-0.730000019073,0.305000007153,0.0,0.469999998808,0.305000007153,0.0
1449615742141072504,71,1449615742140875633,odom,0.569999992847,0.0,0.0,0.469999998808,-0.305000007153,0.0,-0.730000019073,-0.305000007153,0.0,-0.730000019073,0.305000007153,0.0,0.469999998808,0.305000007153,0.0
1449615742323248246,72,1449615742322978762,odom,0.569999992847,0.0,0.0,0.469999998808,-0.305000007153,0.0,-0.730000019073,-0.305000007153,0.0,-0.730000019073,0.305000007153,0.0,0.469999998808,0.305000007153,0.0
1449615742534891428,73,1449615742534675302,odom,0.569999992847,0.0,0.0,0.469999998808,-0.305000007153,0.0,-0.730000019073,-0.305000007153,0.0,-0.730000019073,0.305000007153,0.0,0.469999998808,0.305000007153,0.0
1449615742760428552,74,1449615742760255009,odom,0.569999992847,0.0,0.0,0.469999998808,-0.305000007153,0.0,-0.730000019073,-0.305000007153,0.0,-0.730000019073,0.305000007153,0.0,0.469999998808,0.305000007153,0.0
1449615742944323175,75,1449615742944196004,odom,0.569999992847,0.0,0.0,0.469999998808,-0.305000007153,0.0,-0.730000019073,-0.305000007153,0.0,-0.730000019073,0.305000007153,0.0,0.469999998808,0.305000007153,0.0
1449615743161309211,76,1449615743160545821,odom,0.569999992847,0.0,0.0,0.469999998808,-0.305000007153,0.0,-0.730000019073,-0.305000007153,0.0,-0.730000019073,0.305000007153,0.0,0.469999998808,0.305000007153,0.0
1449615743332459714,77,1449615743332252887,odom,0.569999992847,0.0,0.0,0.469999998808,-0.305000007153,0.0,-0.730000019073,-0.305000007153,0.0,-0.730000019073,0.305000007153,0.0,0.469999998808,0.305000007153,0.0
1449615743537160103,78,1449615743536942511,odom,0.569999992847,0.0,0.0,0.469999998808,-0.305000007153,0.0,-0.730000019073,-0.305000007153,0.0,-0.730000019073,0.305000007153,0.0,0.469999998808,0.305000007153,0.0
1449615743734014293,79,1449615743727370442,odom,0.569999992847,0.0,0.0,0.469999998808,-0.305000007153,0.0,-0.730000019073,-0.305000007153,0.0,-0.730000019073,0.305000007153,0.0,0.469999998808,0.305000007153,0.0
1449615743945721410,80,1449615743945523935,odom,0.569999992847,0.0,0.0,0.469999998808,-0.305000007153,0.0,-0.730000019073,-0.305000007153,0.0,-0.730000019073,0.305000007153,0.0,0.469999998808,0.305000007153,0.0
1449615744124251002,81,1449615744121678409,odom,0.569999992847,0.0,0.0,0.469999998808,-0.305000007153,0.0,-0.730000019073,-0.305000007153,0.0,-0.730000019073,0.305000007153,0.0,0.469999998808,0.305000007153,0.0
1449615744335478679,82,1449615744335232687,odom,0.569999992847,0.0,0.0,0.469999998808,-0.305000007153,0.0,-0.730000019073,-0.305000007153,0.0,-0.730000019073,0.305000007153,0.0,0.469999998808,0.305000007153,0.0
1449615744533158072,83,1449615744532992090,odom,0.569999992847,0.0,0.0,0.469999998808,-0.305000007153,0.0,-0.730000019073,-0.305000007153,0.0,-0.730000019073,0.305000007153,0.0,0.469999998808,0.305000007153,0.0
1449615744733264813,84,1449615744733001405,odom,0.569999992847,0.0,0.0,0.469999998808,-0.305000007153,0.0,-0.730000019073,-0.305000007153,0.0,-0.730000019073,0.305000007153,0.0,0.469999998808,0.305000007153,0.0
1449615744940682640,85,1449615744940418806,odom,0.569999992847,0.0,0.0,0.469999998808,-0.305000007153,0.0,-0.730000019073,-0.305000007153,0.0,-0.730000019073,0.305000007153,0.0,0.469999998808,0.305000007153,0.0
1449615745128338116,86,1449615745128169142,odom,0.569999992847,0.0,0.0,0.469999998808,-0.305000007153,0.0,-0.730000019073,-0.305000007153,0.0,-0.730000019073,0.305000007153,0.0,0.469999998808,0.305000007153,0.0
1449615745323463179,87,1449615745323186685,odom,0.569999992847,0.0,0.0,0.469999998808,-0.305000007153,0.0,-0.730000019073,-0.305000007153,0.0,-0.730000019073,0.305000007153,0.0,0.469999998808,0.305000007153,0.0
1449615745532454602,88,1449615745532278041,odom,0.569999992847,0.0,0.0,0.469999998808,-0.305000007153,0.0,-0.730000019073,-0.305000007153,0.0,-0.730000019073,0.305000007153,0.0,0.469999998808,0.305000007153,0.0
1449615745737862812,89,1449615745734229899,odom,0.569999992847,0.0,0.0,0.469999998808,-0.305000007153,0.0,-0.730000019073,-0.305000007153,0.0,-0.730000019073,0.305000007153,0.0,0.469999998808,0.305000007153,0.0
1449615745953807943,90,1449615745951342630,odom,0.569999992847,0.0,0.0,0.469999998808,-0.305000007153,0.0,-0.730000019073,-0.305000007153,0.0,-0.730000019073,0.305000007153,0.0,0.469999998808,0.305000007153,0.0
1449615746149368092,91,1449615746149043793,odom,0.569999992847,0.0,0.0,0.469999998808,-0.305000007153,0.0,-0.730000019073,-0.305000007153,0.0,-0.730000019073,0.305000007153,0.0,0.469999998808,0.305000007153,0.0
1449615746324110784,92,1449615746322181890,odom,0.569999992847,0.0,0.0,0.469999998808,-0.305000007153,0.0,-0.730000019073,-0.305000007153,0.0,-0.730000019073,0.305000007153,0.0,0.469999998808,0.305000007153,0.0
1449615746510965577,93,1449615746510647636,odom,0.569999992847,0.0,0.0,0.469999998808,-0.305000007153,0.0,-0.730000019073,-0.305000007153,0.0,-0.730000019073,0.305000007153,0.0,0.469999998808,0.305000007153,0.0
1449615746731827483,94,1449615746731559704,odom,0.569999992847,0.0,0.0,0.469999998808,-0.305000007153,0.0,-0.730000019073,-0.305000007153,0.0,-0.730000019073,0.305000007153,0.0,0.469999998808,0.305000007153,0.0
1449615746918710537,95,1449615746918279588,odom,0.569999992847,0.0,0.0,0.469999998808,-0.305000007153,0.0,-0.730000019073,-0.305000007153,0.0,-0.730000019073,0.305000007153,0.0,0.469999998808,0.305000007153,0.0
1449615747130264789,96,1449615747129965034,odom,0.569999992847,0.0,0.0,0.469999998808,-0.305000007153,0.0,-0.730000019073,-0.305000007153,0.0,-0.730000019073,0.305000007153,0.0,0.469999998808,0.305000007153,0.0
1449615747329503185,97,1449615747329205484,odom,0.569999992847,0.0,0.0,0.469999998808,-0.305000007153,0.0,-0.730000019073,-0.305000007153,0.0,-0.730000019073,0.305000007153,0.0,0.469999998808,0.305000007153,0.0
1449615747542122777,98,1449615747541936723,odom,0.569999992847,0.0,0.0,0.469999998808,-0.305000007153,0.0,-0.730000019073,-0.305000007153,0.0,-0.730000019073,0.305000007153,0.0,0.469999998808,0.305000007153,0.0
1449615747734581961,99,1449615747734370569,odom,0.569999992847,0.0,0.0,0.469999998808,-0.305000007153,0.0,-0.730000019073,-0.305000007153,0.0,-0.730000019073,0.305000007153,0.0,0.469999998808,0.305000007153,0.0
1449615747930403171,100,1449615747930229039,odom,0.569999992847,0.0,0.0,0.469999998808,-0.305000007153,0.0,-0.730000019073,-0.305000007153,0.0,-0.730000019073,0.305000007153,0.0,0.469999998808,0.305000007153,0.0
1449615748136336229,101,1449615748136176660,odom,0.569999992847,0.0,0.0,0.469999998808,-0.305000007153,0.0,-0.730000019073,-0.305000007153,0.0,-0.730000019073,0.305000007153,0.0,0.469999998808,0.305000007153,0.0
1449615748312628653,102,1449615748312212434,odom,0.569999992847,0.0,0.0,0.469999998808,-0.305000007153,0.0,-0.730000019073,-0.305000007153,0.0,-0.730000019073,0.305000007153,0.0,0.469999998808,0.305000007153,0.0
1449615748531548536,103,1449615748531237536,odom,0.569999992847,0.0,0.0,0.469999998808,-0.305000007153,0.0,-0.730000019073,-0.305000007153,0.0,-0.730000019073,0.305000007153,0.0,0.469999998808,0.305000007153,0.0
1449615748719849230,104,1449615748719614203,odom,0.569999992847,0.0,0.0,0.469999998808,-0.305000007153,0.0,-0.730000019073,-0.305000007153,0.0,-0.730000019073,0.305000007153,0.0,0.469999998808,0.305000007153,0.0
1449615748938556953,105,1449615748938349244,odom,0.569999992847,0.0,0.0,0.469999998808,-0.305000007153,0.0,-0.730000019073,-0.305000007153,0.0,-0.730000019073,0.305000007153,0.0,0.469999998808,0.305000007153,0.0
1449615749121194986,106,1449615749120865124,odom,0.569999992847,0.0,0.0,0.469999998808,-0.305000007153,0.0,-0.730000019073,-0.305000007153,0.0,-0.730000019073,0.305000007153,0.0,0.469999998808,0.305000007153,0.0
1449615749333957829,107,1449615749332805403,odom,0.569999992847,0.0,0.0,0.469999998808,-0.305000007153,0.0,-0.730000019073,-0.305000007153,0.0,-0.730000019073,0.305000007153,0.0,0.469999998808,0.305000007153,0.0
1449615749539299908,108,1449615749538657885,odom,0.569999992847,0.0,0.0,0.469999998808,-0.305000007153,0.0,-0.730000019073,-0.305000007153,0.0,-0.730000019073,0.305000007153,0.0,0.469999998808,0.305000007153,0.0
1449615749733624334,109,1449615749725997810,odom,0.569999992847,0.0,0.0,0.469999998808,-0.305000007153,0.0,-0.730000019073,-0.305000007153,0.0,-0.730000019073,0.305000007153,0.0,0.469999998808,0.305000007153,0.0
1449615749957871330,110,1449615749957764968,odom,0.569999992847,0.0,0.0,0.469999998808,-0.305000007153,0.0,-0.730000019073,-0.305000007153,0.0,-0.730000019073,0.305000007153,0.0,0.469999998808,0.305000007153,0.0
1449615750161334112,111,1449615750161016721,odom,0.569999992847,0.0,0.0,0.469999998808,-0.305000007153,0.0,-0.730000019073,-0.305000007153,0.0,-0.730000019073,0.305000007153,0.0,0.469999998808,0.305000007153,0.0
1449615750329169310,112,1449615750328873771,odom,0.569999992847,0.0,0.0,0.469999998808,-0.305000007153,0.0,-0.730000019073,-0.305000007153,0.0,-0.730000019073,0.305000007153,0.0,0.469999998808,0.305000007153,0.0
1449615750528083861,113,1449615750526196623,odom,0.569999992847,0.0,0.0,0.469999998808,-0.305000007153,0.0,-0.730000019073,-0.305000007153,0.0,-0.730000019073,0.305000007153,0.0,0.469999998808,0.305000007153,0.0
1449615750720648774,114,1449615750720117016,odom,0.572847783566,0.00605410896242,0.0,0.476076573133,-0.299985647202,0.0,-0.723856449127,-0.312667071819,0.0,-0.730302810669,0.297298878431,0.0,0.469630181789,0.309980303049,0.0
1449615750919512107,115,1449615750919255089,odom,0.572847783566,0.00605410896242,0.0,0.476076573133,-0.299985647202,0.0,-0.723856449127,-0.312667071819,0.0,-0.730302810669,0.297298878431,0.0,0.469630181789,0.309980303049,0.0
1449615751160336745,116,1449615751159447969,odom,0.578607201576,0.00608454179019,0.0,0.481836020947,-0.29995521903,0.0,-0.718097031116,-0.312636643648,0.0,-0.724543392658,0.297329306602,0.0,0.475389629602,0.31001073122,0.0
1449615751320007967,117,1449615751319780823,odom,0.58727824688,9.12996838451e-05,0.0,0.487278282642,-0.304908692837,0.0,-0.712721765041,-0.304908692837,0.0,-0.712721765041,0.305091321468,0.0,0.487278282642,0.305091321468,0.0
1449615751540399201,118,1449615751540035663,odom,0.601645231247,-0.00596280908212,0.0,0.498427629471,-0.309888988733,0.0,-0.701505362988,-0.297207564116,0.0,-0.695059001446,0.312758386135,0.0,0.504874050617,0.300076961517,0.0
1449615751716980872,119,1449615751716732253,odom,0.621706843376,-0.0121988411993,0.0,0.515283167362,-0.315017282963,0.0,-0.684448838234,-0.289655834436,0.0,-0.671556770802,0.320207923651,0.0,0.528175234795,0.294846504927,0.0
1449615751917438304,120,1449615751917295035,odom,0.641702413559,-0.0185856726021,0.0,0.532084524632,-0.320262521505,0.0,-0.667312443256,-0.282223910093,0.0,-0.647976160049,0.327469557524,0.0,0.551420807838,0.289430946112,0.0
1449615752126968576,121,1449615752126351886,odom,0.65897411108,-0.0190725438297,0.0,0.549356222153,-0.320749402046,0.0,-0.650040745735,-0.282710790634,0.0,-0.630704462528,0.326982676983,0.0,0.56869250536,0.288944065571,0.0
1449615752336261329,122,1449615752336163112,odom,0.676241934299,-0.0196810867637,0.0,0.566624045372,-0.321357935667,0.0,-0.632772922516,-0.283319324255,0.0,-0.613436639309,0.326374143362,0.0,0.585960328579,0.28833553195,0.0
1449615752533560151,123,1449615752533389738,odom,0.684650838375,-0.0260658226907,0.0,0.571851015091,-0.326567411423,0.0,-0.627076983452,-0.275855869055,0.0,-0.601298630238,0.333599209785,0.0,0.597629368305,0.282887667418,0.0
1449615752735705111,124,1449615752734924925,odom,0.696156859398,-0.0266134161502,0.0,0.583356976509,-0.327114999294,0.0,-0.615571022034,-0.276403456926,0.0,-0.589792668819,0.333051621914,0.0,0.609135329723,0.282340079546,0.0
1449615752986659964,125,1449615752986398676,odom,0.707662820816,-0.0271610114723,0.0,0.594862997532,-0.327662587166,0.0,-0.604065060616,-0.2769510746,0.0,-0.578286647797,0.33250400424,0.0,0.620641350746,0.281792491674,0.0
1449615753135454884,126,1449615753135012949,odom,0.724923253059,-0.0279520023614,0.0,0.612123429775,-0.328453570604,0.0,-0.586804628372,-0.277742058039,0.0,-0.561026215553,0.331713020802,0.0,0.63790178299,0.281001508236,0.0
1449615753338559318,127,1449615753338019420,odom,0.756802201271,-0.0230885744095,0.0,0.647184312344,-0.324765414,0.0,-0.552212655544,-0.28672683239,0.0,-0.532876372337,0.322966635227,0.0,0.666520595551,0.284928053617,0.0
1449615753532727543,128,1449615753532551576,odom,0.794387042522,-0.0179798286408,0.0,0.687963366508,-0.320798248053,0.0,-0.511768639088,-0.295436829329,0.0,-0.498876571655,0.314426928759,0.0,0.700855433941,0.289065510035,0.0
1449615753727830810,129,1449615753724165360,odom,0.83767414093,-0.0125959040597,0.0,0.734456539154,-0.316522091627,0.0,-0.465476483107,-0.303840667009,0.0,-0.459030091763,0.306125283241,0.0,0.740902900696,0.293443858624,0.0
1449615753934855668,130,1449615753934201808,odom,0.883748710155,-0.0129915354773,0.0,0.780531108379,-0.316917717457,0.0,-0.419401884079,-0.304236292839,0.0,-0.412955492735,0.305729657412,0.0,0.786977529526,0.293048232794,0.0
1449615754144279183,131,1449615754144103041,odom,0.932737052441,-0.00696786027402,0.0,0.832737028599,-0.311967879534,0.0,-0.36726295948,-0.311967879534,0.0,-0.36726295948,0.298032134771,0.0,0.832737028599,0.298032134771,0.0
1449615754330923690,132,1449615754329307767,odom,0.981658995152,-0.000426819722634,0.0,0.884887754917,-0.306466579437,0.0,-0.315045237541,-0.319148004055,0.0,-0.321491628885,0.290817946196,0.0,0.878441393375,0.303499370813,0.0
1449615754540599287,133,1449615754540428008,odom,1.03348708153,0.000455706525827,0.0,0.936715841293,-0.305584043264,0.0,-0.263217180967,-0.318265467882,0.0,-0.269663572311,0.291700482368,0.0,0.930269420147,0.304381906986,0.0
1449615754741368899,134,1449615754741124776,odom,1.0908113718,0.0138697428629,0.0,1.00052976608,-0.294146865606,0.0,-0.198867157102,-0.332185477018,0.0,-0.21820345521,0.277507990599,0.0,0.98119354248,0.315546602011,0.0
1449615754949999641,135,1449615754949754962,odom,1.14567041397,0.00915659870952,0.0,1.05213880539,-0.297888725996,0.0,-0.14759324491,-0.323250174522,0.0,-0.160485297441,0.286613613367,0.0,1.03924667835,0.311975032091,0.0
1449615755156393201,136,1449615755155744158,odom,1.19748950005,0.0104650948197,0.0,1.10395777225,-0.296580225229,0.0,-0.095774166286,-0.321941673756,0.0,-0.108666226268,0.287922084332,0.0,1.09106576443,0.313283532858,0.0
1449615755352488575,137,1449615755352198405,odom,1.25229024887,0.00550720095634,0.0,1.15551900864,-0.30053254962,0.0,-0.0444139912724,-0.313213974237,0.0,-0.0508603826165,0.296751976013,0.0,1.14907264709,0.309433400631,0.0
1449615755530735810,138,1449615755530559548,odom,1.29551708698,-0.000151275729877,0.0,1.19551706314,-0.305151283741,0.0,-0.00448298174888,-0.305151283741,0.0,-0.00448298174888,0.304848730564,0.0,1.19551706314,0.304848730564,0.0
1449615755718508071,139,1449615755718228220,odom,1.33570313454,-0.012593569234,0.0,1.22927939892,-0.315411984921,0.0,0.0295474473387,-0.290050566196,0.0,0.0424395054579,0.319813191891,0.0,1.24217152596,0.294451773167,0.0
1449615755935324767,140,1449615755930975699,odom,1.36920392513,-0.038247294724,0.0,1.2500783205,-0.336297780275,0.0,0.0524898171425,-0.260258823633,0.0,0.0911429598927,0.348515331745,0.0,1.2887314558,0.272476345301,0.0
1449615756123331823,141,1449615756122793720,odom,1.38438510895,-0.0637135654688,0.0,1.25277042389,-0.356463581324,0.0,0.0594651959836,-0.229882925749,0.0,0.123810365796,0.376713901758,0.0,1.31711554527,0.250133246183,0.0
1449615756336470486,142,1449615756336146950,odom,1.3946801424,-0.0955383777618,0.0,1.24778735638,-0.380928486586,0.0,0.0628330633044,-0.19149929285,0.0,0.159126237035,0.410852462053,0.0,1.34408056736,0.221423268318,0.0
1449615756539225647,143,1449615756536166222,odom,1.40570068359,-0.115967705846,0.0,1.24983525276,-0.396558076143,0.0,0.0714811384678,-0.16966240108,0.0,0.186819776893,0.429334282875,0.0,1.36517393589,0.202438607812,0.0
1449615756740243712,144,1449615756740028171,odom,1.41608130932,-0.13667665422,0.0,1.25139975548,-0.412185251713,0.0,0.0808301642537,-0.148051172495,0.0,0.215098321438,0.446988403797,0.0,1.38566792011,0.182854294777,0.0
1449615756949744711,145,1449615756946390339,odom,1.43011152744,-0.152410462499,0.0,1.25964403152,-0.424377053976,0.0,0.0949182659388,-0.135562539101,0.0,0.241732314229,0.456506431103,0.0,1.40645813942,0.167691886425,0.0
1449615757122047699,146,1449615757117715010,odom,1.45497179031,-0.171268686652,0.0,1.27879440784,-0.439571797848,0.0,0.120432764292,-0.126205846667,0.0,0.279727131128,0.462628006935,0.0,1.43808877468,0.149262070656,0.0
1449615757336277323,147,1449615757336034319,odom,1.48497140408,-0.192210838199,0.0,1.3031629324,-0.456730604172,0.0,0.151682853699,-0.118953220546,0.0,0.323386341333,0.466382533312,0.0,1.47486650944,0.128605142236,0.0
1449615757533597803,148,1449615757533397311,odom,1.52555763721,-0.217083081603,0.0,1.33819937706,-0.477701306343,0.0,0.194115206599,-0.115663401783,0.0,0.378151148558,0.465912729502,0.0,1.52223527431,0.10387481004,0.0
1449615757721837472,149,1449615757721554121,odom,1.57100522518,-0.244834259152,0.0,1.37818074226,-0.50143456459,0.0,0.242003634572,-0.115297831595,0.0,0.438289821148,0.46225887537,0.0,1.57446694374,0.0761221572757,0.0
1449615757933724473,150,1449615757930937532,odom,1.61526024342,-0.266654491425,0.0,1.41973483562,-0.521202683449,0.0,0.287701755762,-0.123080596328,0.0,0.49008050561,0.45236954093,0.0,1.62211358547,0.0542474277318,0.0
1449615758135338219,151,1449615758134693657,odom,1.66465401649,-0.291023939848,0.0,1.46644949913,-0.543491661549,0.0,0.338686943054,-0.133428648114,0.0,0.547135651112,0.439850658178,0.0,1.67489814758,0.0297876112163,0.0
1449615758319936840,152,1449615758319422525,odom,1.71336984634,-0.308737397194,0.0,1.51516532898,-0.561205148697,0.0,0.387402772903,-0.151142090559,0.0,0.595851480961,0.422137200832,0.0,1.72361397743,0.0120741594583,0.0
1449615758527540765,153,1449615758523560579,odom,1.76694369316,-0.321419119835,0.0,1.57141816616,-0.575967371464,0.0,0.439385145903,-0.177845239639,0.0,0.641763865948,0.397604912519,0.0,1.77379691601,-0.000517214473803,0.0
1449615758714869184,154,1449615758714605920,odom,1.82536125183,-0.328516483307,0.0,1.63525927067,-0.587140202522,0.0,0.495064914227,-0.213031977415,0.0,0.685236573219,0.366566807032,0.0,1.82543087006,-0.00754139758646,0.0
1449615758928735082,155,1449615758928487624,odom,1.87840592861,-0.332697868347,0.0,1.69381225109,-0.595281541348,0.0,0.545966029167,-0.245354354382,0.0,0.723845660686,0.338134169579,0.0,1.87169194221,-0.0117930285633,0.0
1449615759175236187,156,1449615759174823306,odom,1.92705667019,-0.340882003307,0.0,1.74524831772,-0.605401754379,0.0,0.593768179417,-0.267624378204,0.0,0.765471696854,0.317711353302,0.0,1.91695177555,-0.0200660135597,0.0
1449615759315200087,157,1449615759314992491,odom,1.98468375206,-0.337751626968,0.0,1.81135165691,-0.607901573181,0.0,0.649743020535,-0.306794524193,0.0,0.80280572176,0.283689856529,0.0,1.96441435814,-0.0174171868712,0.0
1449615759523018902,158,1449615759520531195,odom,2.03228211403,-0.337236374617,0.0,1.86469829082,-0.610989272594,0.0,0.696985304356,-0.334499508142,0.0,0.837534308434,0.259087890387,0.0,2.00524711609,-0.0174018517137,0.0
1449615759731757221,159,1449615759730453872,odom,2.08136749268,-0.342261940241,0.0,1.91668593884,-0.617770552635,0.0,0.746116280556,-0.353636443615,0.0,0.88038444519,0.241403117776,0.0,2.05095410347,-0.0227309782058,0.0
1449615759917326159,160,1449615759916983147,odom,2.13863110542,-0.335724711418,0.0,1.98276555538,-0.616315066814,0.0,0.80441147089,-0.389419436455,0.0,0.919750094414,0.2095772475,0.0,2.09810423851,-0.0173184182495,0.0
1449615760113110357,161,1449615760112907624,odom,2.19352293015,-0.339850068092,0.0,2.04063129425,-0.622071921825,0.0,0.859945237637,-0.407641589642,0.0,0.968947291374,0.192540511489,0.0,2.14963340759,-0.0218898132443,0.0
1449615760301409232,162,1449615760300794075,odom,2.2427945137,-0.342336088419,0.0,2.0928940773,-0.626157939434,0.0,0.91000777483,-0.424216896296,0.0,1.01266109943,0.17708362639,0.0,2.1955473423,-0.0248574074358,0.0
1449615760528319603,163,1449615760527997852,odom,2.30159330368,-0.339381337166,0.0,2.15772461891,-0.626307845116,0.0,0.970834672451,-0.449411660433,0.0,1.06075692177,0.153924062848,0.0,2.24764680862,-0.0229721292853,0.0
1449615760718012987,164,1449615760717613093,odom,2.3509016037,-0.340424776077,0.0,2.21007323265,-0.628855645657,0.0,1.02138018608,-0.464512199163,0.0,1.10492146015,0.139740124345,0.0,2.29361462593,-0.0246033128351,0.0
1449615760914890544,165,1449615760914381171,odom,2.3980987072,-0.334542989731,0.0,2.26339769363,-0.625885784626,0.0,1.07149672508,-0.486701518297,0.0,1.14224874973,0.119181461632,0.0,2.33414959908,-0.0200028084219,0.0
1449615761117525539,166,1449615761117205733,odom,2.44740200043,-0.334143847227,0.0,2.31578731537,-0.626893877983,0.0,1.12248206139,-0.500313222408,0.0,1.18682718277,0.10628362745,0.0,2.38013243675,-0.0202970355749,0.0
1449615761300395946,167,1449615761300046531,odom,2.49096059799,-0.332706898451,0.0,2.36244702339,-0.62683147192,0.0,1.16787075996,-0.512868523598,0.0,1.22580194473,0.0943744182587,0.0,2.42037820816,-0.0195885039866,0.0
1449615761502156314,168,1449615761501882817,odom,2.52534675598,-0.336140185595,0.0,2.39683318138,-0.630264759064,0.0,1.20225679874,-0.516301810741,0.0,1.26018798351,0.0909411162138,0.0,2.45476436615,-0.0230218023062,0.0
1449615761715655960,169,1449615761715380037,odom,2.55170178413,-0.332450568676,0.0,2.42630362511,-0.627916812897,0.0,1.23058962822,-0.526584386826,0.0,1.28210031986,0.0812368616462,0.0,2.47781419754,-0.0200955867767,0.0
1449615761909691467,170,1449615761907093849,odom,2.56652855873,-0.327631294727,0.0,2.44425988197,-0.624406218529,0.0,1.24754190445,-0.535715579987,0.0,1.29262638092,0.0726160854101,0.0,2.48934435844,-0.0160745773464,0.0
1449615762097909209,171,1449615762097767920,odom,2.57555747032,-0.322260260582,0.0,2.45643186569,-0.620310723782,0.0,1.25884342194,-0.544271767139,0.0,1.29749655724,0.0645023807883,0.0,2.49508500099,-0.0115365963429,0.0
1449615762307753377,172,1449615762307403059,odom,2.5787832737,-0.316398769617,0.0,2.46281409264,-0.615691483021,0.0,1.26448893547,-0.552312731743,0.0,1.29670643806,0.0568359084427,0.0,2.49503159523,-0.00654288008809,0.0
1449615762505012992,173,1449615762504508438,odom,2.57929110527,-0.304392576218,0.0,2.46967339516,-0.60606944561,0.0,1.27027630806,-0.568030834198,0.0,1.28961265087,0.0416626371443,0.0,2.48900961876,0.00362403551117,0.0
1449615762689702170,174,1449615762689317902,odom,2.57954525948,-0.292378365993,0.0,2.4763276577,-0.596304535866,0.0,1.27639472485,-0.583623111248,0.0,1.28284108639,0.026342831552,0.0,2.48277401924,0.0136614087969,0.0
1449615762872092009,175,1449615762871959817,odom,2.58232903481,-0.274247139692,0.0,2.48879742622,-0.581292450428,0.0,1.28906536102,-0.606653869152,0.0,1.2761733532,0.00320986704901,0.0,2.4759054184,0.0285712964833,0.0
1449615763087403273,176,1449615763086931201,odom,2.58130979538,-0.250144898891,0.0,2.50083732605,-0.560868561268,0.0,1.30324876308,-0.63690751791,0.0,1.26459562778,-0.0281333737075,0.0,2.46218419075,0.0479056015611,0.0
1449615763283486852,177,1449615763282728936,odom,2.58274817467,-0.231887862086,0.0,2.51216578484,-0.545006215572,0.0,1.3175894022,-0.658969163895,0.0,1.25965821743,-0.051726218313,0.0,2.45423460007,0.0622367039323,0.0
1449615763472844607,178,1449615763472711286,odom,2.57624483109,-0.202388912439,0.0,2.52229833603,-0.518798112869,0.0,1.33540844917,-0.695694327354,0.0,1.24548625946,-0.0923585817218,0.0,2.43237614632,0.0845376104116,0.0
1449615763669863416,179,1449615763669732509,odom,2.57220077515,-0.178699105978,0.0,2.53167390823,-0.497105419636,0.0,1.35331988335,-0.724001049995,0.0,1.23798120022,-0.125004395843,0.0,2.41633534431,0.101891264319,0.0
1449615763875969440,180,1449615763875798226,odom,2.56425356865,-0.143478348851,0.0,2.54398417473,-0.463812798262,0.0,1.38237559795,-0.764919817448,0.0,1.22931289673,-0.174435451627,0.0,2.39092135429,0.126671597362,0.0
1449615764069926099,181,1449615764069723189,odom,2.55772447586,-0.120318114758,0.0,2.55101060867,-0.441222965717,0.0,1.40316426754,-0.791150152683,0.0,1.22528457642,-0.207661643624,0.0,2.37313079834,0.142265543342,0.0
1449615764273500632,182,1449615764273360899,odom,2.55772447586,-0.120318114758,0.0,2.55101060867,-0.441222965717,0.0,1.40316426754,-0.791150152683,0.0,1.22528457642,-0.207661643624,0.0,2.37313079834,0.142265543342,0.0
1449615764473505538,183,1449615764473313682,odom,2.55772447586,-0.120318114758,0.0,2.55101060867,-0.441222965717,0.0,1.40316426754,-0.791150152683,0.0,1.22528457642,-0.207661643624,0.0,2.37313079834,0.142265543342,0.0
1449615764672626760,184,1449615764672549681,odom,2.55772447586,-0.120318114758,0.0,2.55101060867,-0.441222965717,0.0,1.40316426754,-0.791150152683,0.0,1.22528457642,-0.207661643624,0.0,2.37313079834,0.142265543342,0.0
1449615764871143766,185,1449615764871014541,odom,2.56112408638,-0.131907597184,0.0,2.54762935638,-0.452598869801,0.0,1.39264392853,-0.778188705444,0.0,1.22713577747,-0.191071137786,0.0,2.38212108612,0.134518712759,0.0
1449615765077255474,186,1449615765077073038,odom,2.55994796753,-0.138465970755,0.0,2.54306507111,-0.458996742964,0.0,1.38470327854,-0.772362709045,0.0,1.22540891171,-0.18352881074,0.0,2.38377070427,0.12983712554,0.0
1449615765271552228,187,1449615765271417682,odom,2.56427788734,-0.143566340208,0.0,2.54400849342,-0.46390080452,0.0,1.38239991665,-0.765007853508,0.0,1.22933709621,-0.174523457885,0.0,2.39094567299,0.126583591104,0.0
1449615765470745839,188,1449615765470608244,odom,2.56427788734,-0.143566340208,0.0,2.54400849342,-0.46390080452,0.0,1.38239991665,-0.765007853508,0.0,1.22933709621,-0.174523457885,0.0,2.39094567299,0.126583591104,0.0
1449615765680812674,189,1449615765680635669,odom,2.56427788734,-0.143566340208,0.0,2.54400849342,-0.46390080452,0.0,1.38239991665,-0.765007853508,0.0,1.22933709621,-0.174523457885,0.0,2.39094567299,0.126583591104,0.0
1449615765875478907,190,1449615765875300460,odom,2.56551551819,-0.136991351843,0.0,2.54863238335,-0.457522124052,0.0,1.3902708292,-0.770888030529,0.0,1.23097646236,-0.182054191828,0.0,2.38933801651,0.131311759353,0.0
1449615766080753733,191,1449615766080412560,odom,2.57540512085,-0.140587672591,0.0,2.55513572693,-0.460922122002,0.0,1.39352715015,-0.76202917099,0.0,1.24046444893,-0.171544775367,0.0,2.40207314491,0.129562273622,0.0
1449615766280198625,192,1449615766280009194,odom,2.58776211739,-0.131004571915,0.0,2.57087922096,-0.451535344124,0.0,1.41251754761,-0.764901280403,0.0,1.25322318077,-0.1760674119,0.0,2.41158485413,0.137298539281,0.0
1449615766470529982,193,1449615766470389144,odom,2.60444140434,-0.126492425799,0.0,2.58755850792,-0.447023183107,0.0,1.42919671535,-0.760389149189,0.0,1.26990234852,-0.171555265784,0.0,2.42826414108,0.141810685396,0.0
1449615766679767229,194,1449615766679074576,odom,2.63335132599,-0.112179130316,0.0,2.61985659599,-0.432870417833,0.0,1.46487128735,-0.758460223675,0.0,1.29936313629,-0.171342656016,0.0,2.45434856415,0.154247179627,0.0
1449615766869163140,195,1449615766869018776,odom,2.66400003433,-0.084007948637,0.0,2.66067767143,-0.404965847731,0.0,1.51659345627,-0.767003774643,0.0,1.33255755901,-0.185427621007,0.0,2.47664165497,0.176610291004,0.0
1449615767067687502,196,1449615767067550733,odom,2.70405173302,-0.0582834891975,0.0,2.70751333237,-0.379239916801,0.0,1.57133615017,-0.765376627445,0.0,1.37504994869,-0.18781991303,0.0,2.51122713089,0.198316812515,0.0
1449615767268150767,197,1449615767268008284,odom,2.73803710938,-0.0333992652595,0.0,2.74828124046,-0.354210823774,0.0,1.62051868439,-0.764273881912,0.0,1.41206991673,-0.19099457562,0.0,2.53983235359,0.219068467617,0.0
1449615767466668689,198,1449615767466563867,odom,2.77146720886,-0.00774546992034,0.0,2.78848934174,-0.328268885612,0.0,1.66964507103,-0.762075066566,0.0,1.44912695885,-0.193329259753,0.0,2.56797122955,0.2404769063,0.0
1449615767666303693,199,1449615767666164283,odom,2.79333567619,0.00745527492836,0.0,2.81374406815,-0.31287035346,0.0,1.69954681396,-0.75847607851,0.0,1.47303056717,-0.192092448473,0.0,2.58722782135,0.253513276577,0.0
1449615767865655680,200,1449615767865530289,odom,2.80438160896,0.0185242965817,0.0,2.82817387581,-0.30156776309,0.0,1.71874797344,-0.75892329216,0.0,1.4862588644,-0.194965079427,0.0,2.59568476677,0.262390434742,0.0
1449615768065539098,201,1449615768065383046,odom,2.80932188034,0.0140125239268,0.0,2.82973003387,-0.306313097477,0.0,1.7155328989,-0.751918852329,0.0,1.48901665211,-0.185535207391,0.0,2.60321378708,0.26007053256,0.0
1449615768265627198,202,1449615768265497841,odom,2.81421399117,0.00944879557937,0.0,2.83123612404,-0.311074614525,0.0,1.71239197254,-0.744880795479,0.0,1.49187386036,-0.176135003567,0.0,2.61071801186,0.257671177387,0.0
1449615768467220264,203,1449615768467104749,odom,2.81846094131,-0.00185773824342,0.0,2.8287050724,-0.322669297457,0.0,1.70094251633,-0.732732355595,0.0,1.49249374866,-0.159453049302,0.0,2.62025618553,0.250609993935,0.0
1449615768664398665,204,1449615768664293658,odom,2.82622361183,-0.0246984343976,0.0,2.82290124893,-0.345656335354,0.0,1.67881703377,-0.707694232464,0.0,1.49478113651,-0.12611810863,0.0,2.63886523247,0.235919803381,0.0
1449615768870533524,205,1449615768870353353,odom,2.82862997055,-0.0427926294506,0.0,2.81513524055,-0.363483905792,0.0,1.6601498127,-0.689073741436,0.0,1.49464166164,-0.101956158876,0.0,2.64962697029,0.223633676767,0.0
1449615769070186052,206,1449615769070001339,odom,2.83604383469,-0.0595383755863,0.0,2.81239056587,-0.379640728235,0.0,1.64766466618,-0.668455243111,0.0,1.50085067749,-0.0763863027096,0.0,2.66557645798,0.212428227067,0.0
1449615769264739863,207,1449615769264615481,odom,2.83882665634,-0.071291230619,0.0,2.80841326714,-0.390822172165,0.0,1.63784360886,-0.654956281185,0.0,1.50357544422,-0.0599167235196,0.0,2.67414498329,0.204217374325,0.0
1449615769464717914,208,1449615769464616676,odom,2.83605074883,-0.059568028897,0.0,2.81239724159,-0.379670381546,0.0,1.64767158031,-0.668484926224,0.0,1.50085747242,-0.0764159560204,0.0,2.66558337212,0.212398573756,0.0
1449615769665133894,209,1449615769665004055,odom,2.83605074883,-0.059568028897,0.0,2.81239724159,-0.379670381546,0.0,1.64767158031,-0.668484926224,0.0,1.50085747242,-0.0764159560204,0.0,2.66558337212,0.212398573756,0.0
1449615769865035994,210,1449615769864929391,odom,2.83605074883,-0.059568028897,0.0,2.81239724159,-0.379670381546,0.0,1.64767158031,-0.668484926224,0.0,1.50085747242,-0.0764159560204,0.0,2.66558337212,0.212398573756,0.0
1449615770063269883,211,1449615770063126795,odom,2.83605074883,-0.059568028897,0.0,2.81239724159,-0.379670381546,0.0,1.64767158031,-0.668484926224,0.0,1.50085747242,-0.0764159560204,0.0,2.66558337212,0.212398573756,0.0
1449615770265344555,212,1449615770265228980,odom,2.83605074883,-0.059568028897,0.0,2.81239724159,-0.379670381546,0.0,1.64767158031,-0.668484926224,0.0,1.50085747242,-0.0764159560204,0.0,2.66558337212,0.212398573756,0.0
1449615770468919073,213,1449615770468816715,odom,2.83605074883,-0.059568028897,0.0,2.81239724159,-0.379670381546,0.0,1.64767158031,-0.668484926224,0.0,1.50085747242,-0.0764159560204,0.0,2.66558337212,0.212398573756,0.0
1449615770673278623,214,1449615770673134585,odom,2.83605074883,-0.059568028897,0.0,2.81239724159,-0.379670381546,0.0,1.64767158031,-0.668484926224,0.0,1.50085747242,-0.0764159560204,0.0,2.66558337212,0.212398573756,0.0
1449615770864515048,215,1449615770864295046,odom,2.84163355827,-0.0581523180008,0.0,2.81798005104,-0.378254681826,0.0,1.65325438976,-0.667069196701,0.0,1.50644028187,-0.0750002488494,0.0,2.67116618156,0.213814288378,0.0
1449615771063933739,216,1449615771063845221,odom,2.84723114967,-0.0567956864834,0.0,2.82357764244,-0.376898050308,0.0,1.65885174274,-0.665712594986,0.0,1.51203775406,-0.0736436098814,0.0,2.67676353455,0.215170919895,0.0
1449615771265936921,217,1449615771265761516,odom,2.86534023285,-0.0712028741837,0.0,2.83155179024,-0.390394568443,0.0,1.65825629234,-0.642143547535,0.0,1.53028392792,-0.04571826756,0.0,2.70357942581,0.206030666828,0.0
1449615771465626329,218,1449615771465467429,odom,2.89194536209,-0.0718107447028,0.0,2.85478568077,-0.390627563,0.0,1.67889523506,-0.629963219166,0.0,1.55723285675,-0.0322188772261,0.0,2.73312330246,0.207116797566,0.0
1449615771666623440,219,1449615771666466122,odom,2.92254090309,-0.0784050822258,0.0,2.87865161896,-0.396365314722,0.0,1.69796538353,-0.610795676708,0.0,1.5889633894,-0.0106135420501,0.0,2.76964950562,0.203816786408,0.0
1449615771865083603,220,1449615771864914399,odom,2.96245408058,-0.0903242826462,0.0,2.90850782394,-0.406733483076,0.0,1.72161781788,-0.583629667759,0.0,1.63169562817,0.0197060480714,0.0,2.81858563423,0.196602240205,0.0
1449615772066555297,221,1449615772066441443,odom,3.01178860664,-0.0894616097212,0.0,2.95450139046,-0.40528306365,0.0,1.76580834389,-0.569626510143,0.0,1.68226706982,0.0346258319914,0.0,2.8709602356,0.198969274759,0.0
1449615772269754907,222,1449615772269555076,odom,3.06475806236,-0.0950675830245,0.0,3.00080895424,-0.409607768059,0.0,1.8089081049,-0.548792004585,0.0,1.73815608025,0.0570909455419,0.0,2.9300570488,0.19627520442,0.0
1449615772464135683,223,1449615772464034056,odom,3.1162545681,-0.0891459956765,0.0,3.05230545998,-0.40368616581,0.0,1.86040461063,-0.542870461941,0.0,1.78965258598,0.0630125328898,0.0,2.98155355453,0.202196806669,0.0
1449615772666303001,224,1449615772666161840,odom,3.16560506821,-0.0899685844779,0.0,3.09833550453,-0.40381538868,0.0,1.90503025055,-0.530396044254,0.0,1.84068512917,0.0762007758021,0.0,3.03399038315,0.202781438828,0.0
1449615772864648764,225,1449615772864511209,odom,3.21140098572,-0.0848965123296,0.0,3.14413166046,-0.398743331432,0.0,1.95082628727,-0.525323987007,0.0,1.88648116589,0.081272855401,0.0,3.07978630066,0.207853510976,0.0
1449615773071557493,226,1449615773071409661,odom,3.25722074509,-0.0800361633301,0.0,3.18995118141,-0.393882960081,0.0,1.99664592743,-0.520463645458,0.0,1.93230080605,0.08613319695,0.0,3.12560606003,0.212713867426,0.0
1449615773267819752,227,1449615773267679807,odom,3.3008108139,-0.0817758217454,0.0,3.23022842407,-0.394894212484,0.0,2.03565216064,-0.508857131004,0.0,1.97772097588,0.0983858257532,0.0,3.1722972393,0.212348744273,0.0
1449615773467660795,228,1449615773467514194,odom,3.34318137169,-0.0714074969292,0.0,3.27591180801,-0.38525429368,0.0,2.08260655403,-0.511834979057,0.0,2.01826143265,0.0947618708014,0.0,3.21156668663,0.221342533827,0.0
1449615773670031149,229,1449615773669903480,odom,3.38754868507,-0.054097276181,0.0,3.32692718506,-0.369295686483,0.0,2.13656377792,-0.521068036556,0.0,2.05941271782,0.0840334221721,0.0,3.24977636337,0.235805749893,0.0
1449615773867838228,230,1449615773867570270,odom,3.4372150898,-0.0348536223173,0.0,3.38326883316,-0.351262837648,0.0,2.19637870789,-0.528159022331,0.0,2.10645651817,0.0751767084002,0.0,3.29334640503,0.252072900534,0.0
1449615774078411952,231,1449615774078256346,odom,3.48415398598,-0.00181173835881,0.0,3.44362711906,-0.32021805644,0.0,2.26527309418,-0.547113716602,0.0,2.14993453026,0.0518829599023,0.0,3.32828855515,0.278778642416,0.0
1449615774267927908,232,1449615774267653317,odom,3.53105092049,0.039642509073,0.0,3.50739765167,-0.280459851027,0.0,2.34267187119,-0.569274365902,0.0,2.19585776329,0.0227945800871,0.0,3.36058354378,0.311609119177,0.0
1449615774469349611,233,1449615774469155471,odom,3.56816744804,0.0682142153382,0.0,3.55467295647,-0.252477049828,0.0,2.39968752861,-0.578066885471,0.0,2.23417925835,0.0090506831184,0.0,3.3891646862,0.334640532732,0.0
1449615774670634425,234,1449615774670542929,odom,3.60247659683,0.0843657031655,0.0,3.59237170219,-0.236450269818,0.0,2.44089150429,-0.574227631092,0.0,2.26918816566,0.0111080836505,0.0,3.42066812515,0.348885446787,0.0
1449615774872196230,235,1449615774872084744,odom,3.62732601166,0.111150704324,0.0,3.62739562988,-0.209824368358,0.0,2.48720121384,-0.583932578564,0.0,2.29702949524,-0.00433379271999,0.0,3.43722391129,0.36977443099,0.0
1449615775076322474,236,1449615775076173672,odom,3.65070509911,0.131852477789,0.0,3.65755844116,-0.189049422741,0.0,2.5255253315,-0.587171554565,0.0,2.32314658165,-0.0117214024067,0.0,3.45517969131,0.386400699615,0.0
1449615775274621370,237,1449615775274489467,odom,3.66223955154,0.142358854413,0.0,3.67248368263,-0.178452715278,0.0,2.54472112656,-0.588515758514,0.0,2.3362724781,-0.0152364522219,0.0,3.46403503418,0.394826591015,0.0
1449615775471017617,238,1449615775470895979,odom,3.67367291451,0.152957990766,0.0,3.68730664253,-0.167727395892,0.0,2.56394052505,-0.589685559273,0.0,2.3494451046,-0.018641140312,0.0,3.47281122208,0.403317034245,0.0
1449615775672534398,239,1449615775672437704,odom,3.68447756767,0.156951412559,0.0,3.6981112957,-0.163733989,0.0,2.57474517822,-0.585692167282,0.0,2.36024975777,-0.0146477250382,0.0,3.48361587524,0.407310456038,0.0
1449615775876769702,240,1449615775876610454,odom,3.6957654953,0.167756080627,0.0,3.71278762817,-0.152767330408,0.0,2.59394335747,-0.58657348156,0.0,2.37342524529,-0.0178277157247,0.0,3.49226951599,0.415978461504,0.0
1449615776074915291,241,1449615776074791998,odom,3.71766781807,0.182871997356,0.0,3.73807621002,-0.137453630567,0.0,2.62387895584,-0.583059370518,0.0,2.39736270905,-0.0166757348925,0.0,3.51155996323,0.42892998457,0.0
1449615776272062100,242,1449615776271629635,odom,3.74473404884,0.200413674116,0.0,3.76852631569,-0.119678393006,0.0,2.65910029411,-0.577033877373,0.0,2.42661142349,-0.0130757028237,0.0,3.53603720665,0.444279819727,0.0
1449615776469930454,243,1449615776469828682,odom,3.77691459656,0.220491692424,0.0,3.80408835411,-0.0993310511112,0.0,2.6995575428,-0.56838530302,0.0,2.46112179756,-0.00691547757015,0.0,3.56565237045,0.462138742208,0.0
1449615776674722072,244,1449615776674534270,odom,3.80901670456,0.247708141804,0.0,3.84294366837,-0.0714688673615,0.0,2.74857282639,-0.563762068748,0.0,2.49832391739,-0.00745689170435,0.0,3.59269452095,0.484836310148,0.0
1449615776871509266,245,1449615776871297973,odom,3.84582185745,0.264164537191,0.0,3.87974882126,-0.055012460798,0.0,2.7853782177,-0.547305643559,0.0,2.53512907028,0.00899951066822,0.0,3.62949991226,0.501292705536,0.0
1449615777072447884,246,1449615777072278445,odom,3.88784265518,0.29000595212,0.0,3.92514061928,-0.0287947114557,0.0,2.83603334427,-0.532625555992,0.0,2.57991933823,0.0210039429367,0.0,3.66902661324,0.524834811687,0.0
1449615777275013732,247,1449615777274871351,odom,3.92433190346,0.320561856031,0.0,3.96835923195,0.00262069585733,0.0,2.89014363289,-0.524115383625,0.0,2.6223859787,0.0239776186645,0.0,3.70060181618,0.550713717937,0.0
1449615777470950763,248,1449615777470834798,odom,3.96577191353,0.340704828501,0.0,4.00979948044,0.0227636639029,0.0,2.93158364296,-0.503972411156,0.0,2.66382622719,0.0441205836833,0.0,3.74204182625,0.570856690407,0.0
1449615777674043726,249,1449615777673906672,odom,4.01205968857,0.370529770851,0.0,4.05944490433,0.0530716255307,0.0,2.98685574532,-0.485029459,0.0,2.71332097054,0.0602033063769,0.0,3.78591012955,0.598304390907,0.0
1449615777871792034,250,1449615777871555423,odom,4.0580163002,0.400869309902,0.0,4.10875320435,0.0839296653867,0.0,3.04191088676,-0.465476334095,0.0,2.76262950897,0.0768353193998,0.0,3.82947206497,0.626241326332,0.0
1449615778072673710,251,1449615778072563499,odom,4.10410070419,0.424601972103,0.0,4.15483760834,0.107662305236,0.0,3.08799505234,-0.441743701696,0.0,2.80871367455,0.100567951798,0.0,3.87555623055,0.649973928928,0.0
1449615778276216051,252,1449615778276080479,odom,4.15488243103,0.458008468151,0.0,4.20896577835,0.141622707248,0.0,3.14798903465,-0.419026851654,0.0,2.86299204826,0.120303109288,0.0,3.92396903038,0.68095266819,0.0
1449615778474855271,253,1449615778474685662,odom,4.20078372955,0.482091873884,0.0,4.25486707687,0.165706112981,0.0,3.19389033318,-0.394943445921,0.0,2.90889334679,0.144386515021,0.0,3.9698703289,0.705036044121,0.0
1449615778676728425,254,1449615778676516066,odom,4.24616003036,0.513261795044,0.0,4.30358457565,0.197465211153,0.0,3.24859166145,-0.374365270138,0.0,2.95791101456,0.161922752857,0.0,4.01290369034,0.73375326395,0.0
1449615778874643332,255,1449615778874386134,odom,4.29672288895,0.540841042995,0.0,4.35414743423,0.225044503808,0.0,3.29915428162,-0.346785992384,0.0,3.00847387314,0.189502045512,0.0,4.06346654892,0.761332571507,0.0
1449615779073695629,256,1449615779073401457,odom,4.33661651611,0.569904208183,0.0,4.39737462997,0.25473216176,0.0,3.34848356247,-0.328215420246,0.0,3.05215191841,0.204970806837,0.0,4.1010427475,0.787918388844,0.0
1449615779279245374,257,1449615779279101633,odom,4.37634944916,0.599122107029,0.0,4.44043493271,0.284609735012,0.0,3.39776325226,-0.309389799833,0.0,3.09581327438,0.220635056496,0.0,4.13848543167,0.814634621143,0.0
1449615779481043556,258,1449615779480895025,odom,4.41583251953,0.62865281105,0.0,4.48323822021,0.314835250378,0.0,3.44690179825,-0.290149927139,0.0,3.13936758041,0.236654385924,0.0,4.17570400238,0.841639578342,0.0
1449615779684564903,259,1449615779684408312,odom,4.46059894562,0.654786288738,0.0,4.5280046463,0.340968728065,0.0,3.49166822433,-0.264016449451,0.0,3.18413424492,0.262787848711,0.0,4.22047042847,0.86777305603,0.0
1449615779878195960,260,1449615779877981546,odom,4.49961280823,0.684994637966,0.0,4.57033109665,0.371906906366,0.0,3.54044604301,-0.243996322155,0.0,3.2273619175,0.279528588057,0.0,4.25724697113,0.895431816578,0.0
1449615780086044147,261,1449615780085907976,odom,4.54334306717,0.718413472176,0.0,4.6173658371,0.406090587378,0.0,3.59404706955,-0.220661953092,0.0,3.27544784546,0.299525111914,0.0,4.29876661301,0.926277637482,0.0
1449615780277265788,262,1449615780277126223,odom,4.57691001892,0.746250331402,0.0,4.65422964096,0.43472713232,0.0,3.63759160042,-0.202804684639,0.0,3.31351280212,0.313986420631,0.0,4.33015108109,0.951518237591,0.0
1449615780476627835,263,1449615780476503737,odom,4.61504459381,0.777525961399,0.0,4.69565200806,0.466837257147,0.0,3.68580794334,-0.181402623653,0.0,3.35628604889,0.331934809685,0.0,4.36613035202,0.980174660683,0.0
1449615780678493568,264,1449615780678381875,odom,4.64692163467,0.812918186188,0.0,4.73407697678,0.504002511501,0.0,3.73815894127,-0.165435165167,0.0,3.39786148071,0.340823292732,0.0,4.39377975464,1.0102609396,0.0
1449615780877049439,265,1449615780876868389,odom,4.67790555954,0.849176824093,0.0,4.77157020569,0.542172133923,0.0,3.79002261162,-0.148164257407,0.0,3.43910169601,0.350789099932,0.0,4.42064905167,1.04112553596,0.0
1449615781083401478,266,1449615781083335489,odom,4.7050447464,0.899759352207,0.0,4.81159973145,0.596987128258,0.0,3.86010241508,-0.13421240449,0.0,3.48840928078,0.349465459585,0.0,4.43990659714,1.08066499233,0.0
1449615781282551030,267,1449615781282261251,odom,4.7301363945,0.951300919056,0.0,4.84939146042,0.653302133083,0.0,3.92964410782,-0.117454059422,0.0,3.53784298897,0.350084096193,0.0,4.45759010315,1.12084031105,0.0
1449615781478583493,268,1449615781478441004,odom,4.74659395218,1.00659370422,0.0,4.88142156601,0.715309381485,0.0,4.00366592407,-0.102948129177,0.0,3.58771848679,0.343244254589,0.0,4.46547412872,1.16150176525,0.0
1449615781672199003,269,1449615781672003593,odom,4.7643198967,1.06660425663,0.0,4.91434335709,0.782847523689,0.0,4.08102989197,-0.0806271657348,0.0,3.64209699631,0.342973917723,0.0,4.47541046143,1.20644855499,0.0
1449615781875604729,270,1449615781875453493,odom,4.77774047852,1.11695063114,0.0,4.93962144852,0.839787304401,0.0,4.14354228973,-0.0581314787269,0.0,3.68710017204,0.346542030573,0.0,4.48317909241,1.24446082115,0.0
1449615782070926074,271,1449615782070785035,odom,4.7889289856,1.16789853573,0.0,4.96237802505,0.897823810577,0.0,4.20495605469,-0.032934833318,0.0,3.73182034492,0.35208812356,0.0,4.48924255371,1.28284680843,0.0
1449615782288153006,272,1449615782288037653,odom,4.80477571487,1.21773350239,0.0,4.98669862747,0.953292667866,0.0,4.25916099548,-0.00100764085073,0.0,3.7740585804,0.368823975325,0.0,4.50159597397,1.32312428951,0.0
1449615782476352805,273,1449615782476246979,odom,4.81234073639,1.26924455166,0.0,5.00527667999,1.01272797585,0.0,4.31871747971,0.0285347215831,0.0,3.81841921806,0.377535700798,0.0,4.50497865677,1.36172890663,0.0
1449615782675422248,274,1449615782675192136,odom,4.83504056931,1.31305813789,0.0,5.0306763649,1.05859482288,0.0,4.35455656052,0.067201025784,0.0,3.85059785843,0.410895437002,0.0,4.52671813965,1.40228915215,0.0
1449615782878892111,275,1449615782878705646,odom,4.85296154022,1.37367212772,0.0,5.05656528473,1.12553799152,0.0,4.41221094131,0.113210268319,0.0,3.89761090279,0.440757066011,0.0,4.54196548462,1.45308482647,0.0
1449615783084948399,276,1449615783084791185,odom,4.86997079849,1.4241335392,0.0,5.07877349854,1.18035793304,0.0,4.45595788956,0.154638200998,0.0,3.93455052376,0.471236020327,0.0,4.55736589432,1.49695575237,0.0
1449615783277120916,277,1449615783276972851,odom,4.88889932632,1.47986626625,0.0,5.10280752182,1.24055814743,0.0,4.50180912018,0.201904550195,0.0,3.97382688522,0.507411956787,0.0,4.57482528687,1.54606556892,0.0
