%time,field.linear.x,field.linear.y,field.linear.z,field.angular.x,field.angular.y,field.angular.z
1450210770554715440,0.0,0.0,0.0,0.0,0.0,0.0
1450210770594714619,0.0,0.0,0.0,0.0,0.0,0.0
1450210770634751047,0.0,0.0,0.0,0.0,0.0,0.0
1450210770674706730,0.0,0.0,0.0,0.0,0.0,0.0
1450210770714717367,0.0,0.0,0.0,0.0,0.0,0.0
1450210770754713459,0.0,0.0,0.0,0.0,0.0,0.0
1450210770795149672,0.0,0.0,0.0,0.0,0.0,0.0
1450210770834780255,0.0,0.0,0.0,0.0,0.0,0.0
1450210770874812311,0.0,0.0,0.0,0.0,0.0,0.0
1450210770915205525,0.0,0.0,0.0,0.0,0.0,0.0
1450210770955210778,0.0,0.0,0.0,0.0,0.0,0.0
1450210770994763267,0.0,0.0,0.0,0.0,0.0,0.0
1450210771034875389,0.0,0.0,0.0,0.0,0.0,0.0
1450210771074768098,0.0,0.0,0.0,0.0,0.0,0.0
1450210771114752208,0.0,0.0,0.0,0.0,0.0,0.0
1450210771154733317,0.0,0.0,0.0,0.0,0.0,0.0
1450210771194705044,0.0,0.0,0.0,0.0,0.0,0.0
1450210771235091759,0.0,0.0,0.0,0.0,0.0,0.0
1450210771274746289,0.0,0.0,0.0,0.0,0.0,0.0
1450210771314886413,0.0,0.0,0.0,0.0,0.0,0.0
1450210771354763252,0.0,0.0,0.0,0.0,0.0,0.0
1450210771394790030,0.0,0.0,0.0,0.0,0.0,0.0
1450210771435104322,0.0,0.0,0.0,0.0,0.0,0.0
1450210771475976328,0.0,0.0,0.0,0.0,0.0,0.0
1450210771515073694,0.0,0.0,0.0,0.0,0.0,0.0
1450210771555795986,0.0,0.0,0.0,0.0,0.0,0.0
1450210771596052616,0.0,0.0,0.0,0.0,0.0,0.0
1450210771635558005,0.0,0.0,0.0,0.0,0.0,0.0
1450210771675048336,0.0,0.0,0.0,0.0,0.0,0.0
1450210771715007413,0.0,0.0,0.0,0.0,0.0,0.0
1450210771755407247,0.0,0.0,0.0,0.0,0.0,0.0
1450210771796118173,0.0,0.0,0.0,0.0,0.0,0.0
1450210771834993004,0.0,0.0,0.0,0.0,0.0,0.0
1450210771876541783,0.0,0.0,0.0,0.0,0.0,0.0
1450210771915167672,0.0,0.0,0.0,0.0,0.0,0.0
1450210771954987109,0.0,0.0,0.0,0.0,0.0,0.0
1450210771994861178,0.0,0.0,0.0,0.0,0.0,0.0
1450210772035536927,0.0,0.0,0.0,0.0,0.0,0.0
1450210772080000118,0.0,0.0,0.0,0.0,0.0,0.0
1450210772115211536,0.0,0.0,0.0,0.0,0.0,0.0
1450210772155065895,0.0,0.0,0.0,0.0,0.0,0.0
1450210772194845441,0.0,0.0,0.0,0.0,0.0,0.0
1450210772235271599,0.0,0.0,0.0,0.0,0.0,0.0
1450210772276291589,0.0,0.0,0.0,0.0,0.0,0.0
1450210772315370110,0.0,0.0,0.0,0.0,0.0,0.0
1450210772354841278,0.0,0.0,0.0,0.0,0.0,0.0
1450210772394719462,0.0,0.0,0.0,0.0,0.0,0.0
1450210772435075249,0.0,0.0,0.0,0.0,0.0,0.0
1450210772475407157,0.0,0.0,0.0,0.0,0.0,0.0
1450210772514953329,0.0,0.0,0.0,0.0,0.0,0.0
1450210772554984068,0.0,0.0,0.0,0.0,0.0,0.0
1450210772594825268,0.0,0.0,0.0,0.0,0.0,0.0
1450210772635215625,0.0,0.0,0.0,0.0,0.0,0.0
1450210772675194990,0.0,0.0,0.0,0.0,0.0,0.0
1450210772714762152,0.0,0.0,0.0,0.0,0.0,0.0
1450210772754738106,0.0,0.0,0.0,0.0,0.0,0.0
1450210772795128403,0.0,0.0,0.0,0.0,0.0,0.0
1450210772835098998,0.0,0.0,0.0,0.0,0.0,0.0
1450210772877116045,0.0,0.0,0.0,0.0,0.0,0.0
1450210772914787492,0.0,0.0,0.0,0.0,0.0,0.0
1450210772954898538,0.0,0.0,0.0,0.0,0.0,0.0
1450210772994727913,0.0,0.0,0.0,0.0,0.0,0.0
1450210773035014846,0.0,0.0,0.0,0.0,0.0,0.0
1450210773075296229,0.0,0.0,0.0,0.0,0.0,0.0
1450210773115100021,0.0,0.0,0.0,0.0,0.0,0.0
1450210773155255857,0.0,0.0,0.0,0.0,0.0,0.0
1450210773195135670,0.0,0.0,0.0,0.0,0.0,0.0
1450210773235899640,0.0,0.0,0.0,0.0,0.0,0.0
1450210773276759556,0.0,0.0,0.0,0.0,0.0,0.0
1450210773314918272,0.0,0.0,0.0,0.0,0.0,0.0
1450210773355043618,0.0,0.0,0.0,0.0,0.0,0.0
1450210773395081447,0.0,0.0,0.0,0.0,0.0,0.0
1450210773435118644,0.0,0.0,0.0,0.0,0.0,0.0
1450210773478222097,0.0,0.0,0.0,0.0,0.0,0.0
1450210773514865843,0.0,0.0,0.0,0.0,0.0,0.0
1450210773555749202,0.0,0.0,0.0,0.0,0.0,0.0
1450210773595102188,0.0,0.0,0.0,0.0,0.0,0.0
1450210773635809888,0.0,0.0,0.0,0.0,0.0,0.0
1450210773677933903,0.0,0.0,0.0,0.0,0.0,0.0
1450210773715765540,-0.0,0.0,0.0,0.0,0.0,-0.0
1450210773755203624,-0.0,0.0,0.0,0.0,0.0,-0.0
1450210773795077242,-0.0,0.0,0.0,0.0,0.0,-0.0
1450210773835444655,-0.0,0.0,0.0,0.0,0.0,-0.0
1450210773874999586,-0.0,0.0,0.0,0.0,0.0,-0.0
1450210773915005607,-0.0,0.0,0.0,0.0,0.0,-0.0
1450210773955096590,-0.0,0.0,0.0,0.0,0.0,-0.0
1450210773995230932,-0.0,0.0,0.0,0.0,0.0,-0.0
1450210774036271699,-0.0,0.0,0.0,0.0,0.0,-0.0
1450210774075551063,-0.0,0.0,0.0,0.0,0.0,-0.0
1450210774115127211,-0.0,0.0,0.0,0.0,0.0,-0.0
1450210774155089308,-0.0,0.0,0.0,0.0,0.0,-0.0
1450210774195281098,-0.0,0.0,0.0,0.0,0.0,-0.0
1450210774235782804,-0.0,0.0,0.0,0.0,0.0,-0.0
1450210774275854187,-0.0,0.0,0.0,0.0,0.0,-0.0
1450210774315947150,-0.0,0.0,0.0,0.0,0.0,-0.0
1450210774354916989,-0.0,0.0,0.0,0.0,0.0,-0.0
1450210774395235982,-0.0,0.0,0.0,0.0,0.0,-0.0
1450210774434770913,-0.0,0.0,0.0,0.0,0.0,-0.0
1450210774475318842,-0.0,0.0,0.0,0.0,0.0,-0.0
1450210774516356172,-0.0,0.0,0.0,0.0,0.0,-0.0
1450210774555373163,-0.0,0.0,0.0,0.0,0.0,-0.0
1450210774595337656,-0.0,0.0,0.0,0.0,0.0,-0.0
1450210774636279193,-0.0,0.0,0.0,0.0,0.0,-0.0
1450210774675620933,-0.0,0.0,0.0,0.0,0.0,-0.0
1450210774715518529,-0.0,0.0,0.0,0.0,0.0,-0.0
1450210774755311068,-0.0,0.0,0.0,0.0,0.0,-0.0
1450210774795894068,-0.0,0.0,0.0,0.0,0.0,-0.0
1450210774835247901,-0.0,0.0,0.0,0.0,0.0,-0.0
1450210774874877307,-0.0,0.0,0.0,0.0,0.0,-0.0
1450210774915320593,-0.0,0.0,0.0,0.0,0.0,-0.0
1450210774954957043,-0.0,0.0,0.0,0.0,0.0,-0.0
1450210774995004744,-0.0,0.0,0.0,0.0,0.0,-0.0
1450210775035561652,-0.0,0.0,0.0,0.0,0.0,-0.0
1450210775075247006,-0.0,0.0,0.0,0.0,0.0,-0.0
1450210775114981919,-0.0,0.0,0.0,0.0,0.0,-0.0
1450210775155149813,-0.0,0.0,0.0,0.0,0.0,-0.0
1450210775195995598,0.0,0.0,0.0,0.0,0.0,0.0
1450210775234876753,0.0,0.0,0.0,0.0,0.0,0.0
1450210775275250233,0.0,0.0,0.0,0.0,0.0,0.0
1450210775315408907,0.0,0.0,0.0,0.0,0.0,0.0
1450210775359670013,0.0,0.0,0.0,0.0,0.0,0.0
1450210775395295890,0.352,0.0,0.0,0.0,0.0,0.0
1450210775435206196,0.352,0.0,0.0,0.0,0.0,0.0
1450210775475253313,0.352,0.0,0.0,0.0,0.0,0.0
1450210775516019852,0.352,0.0,0.0,0.0,0.0,0.0
1450210775554963947,0.352,0.0,0.0,0.0,0.0,0.0
1450210775595524876,0.352,0.0,0.0,0.0,0.0,0.0
1450210775636654881,0.352,0.0,0.0,0.0,0.0,0.0
1450210775675030947,0.352,0.0,0.0,0.0,0.0,0.0
1450210775715259123,0.352,0.0,0.0,0.0,0.0,0.0
1450210775755134995,0.352,0.0,0.0,0.0,0.0,0.0
1450210775795201010,0.352,0.0,0.0,0.0,0.0,0.0
1450210775835400370,0.352,0.0,0.0,0.0,0.0,0.0
1450210775875920998,0.352,0.0,0.0,0.0,0.0,0.0
1450210775915214608,0.352,0.0,0.0,0.0,0.0,0.0
1450210775955146352,0.352,0.0,0.0,0.0,0.0,0.0
1450210775995078159,0.352,0.0,0.0,0.0,0.0,0.0
1450210776035211693,0.352,0.0,0.0,0.0,0.0,0.0
1450210776074975572,0.352,0.0,0.0,0.0,0.0,0.0
1450210776115644794,0.352,0.0,0.0,0.0,0.0,0.0
1450210776154780497,0.352,0.0,0.0,0.0,0.0,0.0
1450210776196964263,0.352,0.0,0.0,0.0,0.0,0.0
1450210776236027304,0.352,0.0,0.0,0.0,0.0,0.0
1450210776275111284,0.352,0.0,0.0,0.0,0.0,0.0
1450210776315283068,0.352,0.0,0.0,0.0,0.0,0.0
1450210776355114219,0.352,0.0,0.0,0.0,0.0,0.0
1450210776395278309,0.352,0.0,0.0,0.0,0.0,0.0
1450210776435207989,0.352,0.0,0.0,0.0,0.0,0.0
1450210776474966882,0.352,0.0,0.0,0.0,0.0,0.0
1450210776515484051,0.352,0.0,0.0,0.0,0.0,0.0
1450210776554997507,0.352,0.0,0.0,0.0,0.0,0.0
1450210776595638490,0.352,0.0,0.0,0.0,0.0,0.0
1450210776635025036,0.352,0.0,0.0,0.0,0.0,0.0
1450210776677468876,0.352,0.0,0.0,0.0,0.0,0.0
1450210776714951582,0.352,0.0,0.0,0.0,0.0,0.0
1450210776755557927,0.352,0.0,0.0,0.0,0.0,0.0
1450210776796204851,0.352,0.0,0.0,0.0,0.0,0.0
1450210776834833514,0.352,0.0,0.0,0.0,0.0,0.0
1450210776876053539,0.352,0.0,0.0,0.0,0.0,0.0
1450210776916125373,0.352,0.0,0.0,0.0,0.0,0.0
1450210776955392268,0.352,0.0,0.0,0.0,0.0,0.0
1450210776995327808,0.352,0.0,0.0,0.0,0.0,0.0
1450210777035017437,0.352,0.0,0.0,0.0,0.0,0.0
1450210777082255187,0.352,0.0,0.0,0.0,0.0,0.0
1450210777114742380,0.352,0.0,0.0,0.0,0.0,0.0
1450210777154724266,0.352,0.0,0.0,0.0,0.0,0.0
1450210777195968726,0.352,0.0,0.0,0.0,0.0,0.0
1450210777236323264,0.352,0.0,0.0,0.0,0.0,0.0
1450210777276221871,0.352,0.0,0.0,0.0,0.0,0.0
1450210777315466698,0.352,0.0,0.0,0.0,0.0,0.0
1450210777355979258,0.352,0.0,0.0,0.0,0.0,0.0
1450210777395252365,0.352,0.0,0.0,0.0,0.0,0.0
1450210777435256208,0.352,0.0,0.0,0.0,0.0,0.0
1450210777475738976,0.352,0.0,0.0,0.0,0.0,-0.0210526315789
1450210777514913604,0.352,0.0,0.0,0.0,0.0,-0.0210526315789
1450210777554950113,0.352,0.0,0.0,0.0,0.0,-0.0210526315789
1450210777596574384,0.352,0.0,0.0,0.0,0.0,-0.0210526315789
1450210777634972606,0.352,0.0,0.0,0.0,0.0,-0.0210526315789
1450210777677452269,0.352,0.0,0.0,0.0,0.0,-0.0210526315789
1450210777715505566,0.352,0.0,0.0,0.0,0.0,-0.0210526315789
1450210777755574550,0.352,0.0,0.0,0.0,0.0,-0.0210526315789
1450210777796867557,0.352,0.0,0.0,0.0,0.0,-0.0210526315789
1450210777834871164,0.352,0.0,0.0,0.0,0.0,-0.0210526315789
1450210777875228059,0.352,0.0,0.0,0.0,0.0,-0.0210526315789
1450210777914886798,0.352,0.0,0.0,0.0,0.0,-0.0210526315789
1450210777955702452,0.352,0.0,0.0,0.0,0.0,-0.0210526315789
1450210777995346593,0.352,0.0,0.0,0.0,0.0,-0.0210526315789
1450210778038974120,0.352,0.0,0.0,0.0,0.0,-0.0210526315789
1450210778075841885,0.352,0.0,0.0,0.0,0.0,-0.0210526315789
1450210778115426942,0.352,0.0,0.0,0.0,0.0,-0.0210526315789
1450210778155440065,0.352,0.0,0.0,0.0,0.0,-0.0210526315789
1450210778196583656,0.352,0.0,0.0,0.0,0.0,-0.0210526315789
1450210778235072074,0.352,0.0,0.0,0.0,0.0,-0.0210526315789
1450210778275967668,0.352,0.0,0.0,0.0,0.0,-0.0210526315789
1450210778315645007,0.352,0.0,0.0,0.0,0.0,-0.0210526315789
1450210778355850786,0.352,0.0,0.0,0.0,0.0,-0.0210526315789
1450210778395188934,0.352,0.0,0.0,0.0,0.0,-0.0210526315789
1450210778435279049,0.352,0.0,0.0,0.0,0.0,-0.0210526315789
1450210778475248185,0.352,0.0,0.0,0.0,0.0,-0.0210526315789
1450210778515040732,0.352,0.0,0.0,0.0,0.0,-0.0210526315789
1450210778556293588,0.352,0.0,0.0,0.0,0.0,-0.0210526315789
1450210778595231312,0.352,0.0,0.0,0.0,0.0,0.0
1450210778635585589,0.352,0.0,0.0,0.0,0.0,0.0
1450210778679934272,0.352,0.0,0.0,0.0,0.0,0.0210526315789
1450210778715439926,0.352,0.0,0.0,0.0,0.0,0.0210526315789
1450210778757940124,0.352,0.0,0.0,0.0,0.0,0.0210526315789
1450210778795011142,0.352,0.0,0.0,0.0,0.0,0.0210526315789
1450210778835072130,0.352,0.0,0.0,0.0,0.0,0.0631578947368
1450210778875987545,0.352,0.0,0.0,0.0,0.0,0.0631578947368
1450210778916208757,0.352,0.0,0.0,0.0,0.0,0.0631578947368
1450210778955192717,0.352,0.0,0.0,0.0,0.0,0.0631578947368
1450210778994999116,0.3056,0.0,0.0,0.0,0.0,0.0631578947368
1450210779035538865,0.3056,0.0,0.0,0.0,0.0,0.0631578947368
1450210779075320875,0.352,0.0,0.0,0.0,0.0,0.0631578947368
1450210779115110949,0.352,0.0,0.0,0.0,0.0,0.0631578947368
1450210779155052208,0.352,0.0,0.0,0.0,0.0,0.0631578947368
1450210779195319073,0.352,0.0,0.0,0.0,0.0,0.0631578947368
1450210779235141567,0.352,0.0,0.0,0.0,0.0,0.105263157895
1450210779275150703,0.352,0.0,0.0,0.0,0.0,0.105263157895
1450210779315045764,0.352,0.0,0.0,0.0,0.0,0.105263157895
1450210779355464544,0.352,0.0,0.0,0.0,0.0,0.105263157895
1450210779395596241,0.352,0.0,0.0,0.0,0.0,0.105263157895
1450210779435707715,0.352,0.0,0.0,0.0,0.0,0.105263157895
1450210779475287472,0.352,0.0,0.0,0.0,0.0,0.105263157895
1450210779515046871,0.352,0.0,0.0,0.0,0.0,0.105263157895
1450210779555141506,0.352,0.0,0.0,0.0,0.0,0.105263157895
1450210779595067948,0.352,0.0,0.0,0.0,0.0,0.105263157895
1450210779637427370,0.352,0.0,0.0,0.0,0.0,0.105263157895
1450210779674983779,0.352,0.0,0.0,0.0,0.0,0.105263157895
1450210779715944885,0.352,0.0,0.0,0.0,0.0,0.147368421053
1450210779755371964,0.352,0.0,0.0,0.0,0.0,0.147368421053
1450210779794973303,0.352,0.0,0.0,0.0,0.0,0.147368421053
1450210779835525344,0.352,0.0,0.0,0.0,0.0,0.147368421053
1450210779875595135,-0.1,0.0,0.0,0.0,0.0,0.0
1450210779915371244,-0.1,0.0,0.0,0.0,0.0,0.0
1450210779956611283,-0.1,0.0,0.0,0.0,0.0,0.0
1450210779995177927,-0.1,0.0,0.0,0.0,0.0,0.0
1450210780036720640,-0.1,0.0,0.0,0.0,0.0,0.0
1450210780075507821,-0.1,0.0,0.0,0.0,0.0,0.0
1450210780115055093,-0.1,0.0,0.0,0.0,0.0,0.0
1450210780157495595,-0.1,0.0,0.0,0.0,0.0,0.0
1450210780195014288,-0.1,0.0,0.0,0.0,0.0,0.0
1450210780235285764,-0.1,0.0,0.0,0.0,0.0,0.0
1450210780275286920,0.0,0.0,0.0,0.0,0.0,0.31
1450210780315202760,0.352,0.0,0.0,0.0,0.0,0.189473684211
1450210780357360742,0.352,0.0,0.0,0.0,0.0,0.189473684211
1450210780397106024,0.352,0.0,0.0,0.0,0.0,0.189473684211
1450210780435132911,0.352,0.0,0.0,0.0,0.0,0.189473684211
1450210780475418432,0.352,0.0,0.0,0.0,0.0,0.189473684211
1450210780515841215,0.352,0.0,0.0,0.0,0.0,0.189473684211
1450210780555165031,0.352,0.0,0.0,0.0,0.0,0.189473684211
1450210780595302814,0.352,0.0,0.0,0.0,0.0,0.147368421053
1450210780635390970,0.352,0.0,0.0,0.0,0.0,0.147368421053
1450210780675546388,0.352,0.0,0.0,0.0,0.0,0.189473684211
1450210780715428235,0.352,0.0,0.0,0.0,0.0,0.189473684211
1450210780755419038,0.352,0.0,0.0,0.0,0.0,0.189473684211
1450210780795092987,0.352,0.0,0.0,0.0,0.0,0.189473684211
1450210780835113316,0.352,0.0,0.0,0.0,0.0,0.189473684211
1450210780875604744,0.352,0.0,0.0,0.0,0.0,0.189473684211
1450210780914925695,0.352,0.0,0.0,0.0,0.0,0.189473684211
1450210780955824727,0.352,0.0,0.0,0.0,0.0,0.189473684211
1450210780995418122,0.352,0.0,0.0,0.0,0.0,0.189473684211
1450210781038581965,0.352,0.0,0.0,0.0,0.0,0.189473684211
1450210781075222233,0.352,0.0,0.0,0.0,0.0,0.189473684211
1450210781114958691,0.352,0.0,0.0,0.0,0.0,0.189473684211
1450210781155068334,0.352,0.0,0.0,0.0,0.0,0.189473684211
1450210781196164788,0.352,0.0,0.0,0.0,0.0,0.189473684211
1450210781240647986,0.352,0.0,0.0,0.0,0.0,0.189473684211
1450210781275314000,0.352,0.0,0.0,0.0,0.0,0.189473684211
1450210781315797810,0.352,0.0,0.0,0.0,0.0,0.189473684211
1450210781355090372,0.352,0.0,0.0,0.0,0.0,0.189473684211
1450210781394854894,0.352,0.0,0.0,0.0,0.0,0.189473684211
1450210781437986887,0.352,0.0,0.0,0.0,0.0,0.189473684211
1450210781475672982,0.352,0.0,0.0,0.0,0.0,0.189473684211
1450210781515292523,0.352,0.0,0.0,0.0,0.0,0.189473684211
1450210781555051762,0.352,0.0,0.0,0.0,0.0,0.189473684211
1450210781596040315,0.352,0.0,0.0,0.0,0.0,0.189473684211
1450210781636657753,0.352,0.0,0.0,0.0,0.0,0.189473684211
1450210781675106619,0.352,0.0,0.0,0.0,0.0,0.189473684211
1450210781715114055,0.352,0.0,0.0,0.0,0.0,0.189473684211
1450210781755221318,0.352,0.0,0.0,0.0,0.0,0.189473684211
1450210781795734864,0.352,0.0,0.0,0.0,0.0,0.189473684211
1450210781839535062,0.352,0.0,0.0,0.0,0.0,0.189473684211
1450210781877163441,0.352,0.0,0.0,0.0,0.0,0.189473684211
1450210781915123417,0.352,0.0,0.0,0.0,0.0,0.189473684211
1450210781955538337,0.352,0.0,0.0,0.0,0.0,0.189473684211
1450210781995370814,0.352,0.0,0.0,0.0,0.0,0.189473684211
1450210782034845937,0.352,0.0,0.0,0.0,0.0,0.189473684211
1450210782075209709,0.352,0.0,0.0,0.0,0.0,0.189473684211
1450210782115014984,0.352,0.0,0.0,0.0,0.0,0.189473684211
1450210782155896544,0.352,0.0,0.0,0.0,0.0,0.189473684211
1450210782194897088,0.352,0.0,0.0,0.0,0.0,0.147368421053
1450210782236065445,0.352,0.0,0.0,0.0,0.0,0.147368421053
1450210782275092749,0.352,0.0,0.0,0.0,0.0,0.147368421053
1450210782316511905,0.352,0.0,0.0,0.0,0.0,0.147368421053
1450210782355625617,0.352,0.0,0.0,0.0,0.0,0.147368421053
1450210782395382330,0.352,0.0,0.0,0.0,0.0,0.147368421053
1450210782435183837,0.352,0.0,0.0,0.0,0.0,0.147368421053
1450210782475115555,0.352,0.0,0.0,0.0,0.0,0.105263157895
1450210782514944399,0.352,0.0,0.0,0.0,0.0,0.105263157895
1450210782554691683,0.352,0.0,0.0,0.0,0.0,0.105263157895
1450210782595448315,0.352,0.0,0.0,0.0,0.0,0.147368421053
1450210782636015065,0.352,0.0,0.0,0.0,0.0,0.147368421053
1450210782674927997,0.352,0.0,0.0,0.0,0.0,0.105263157895
1450210782714966959,0.352,0.0,0.0,0.0,0.0,0.105263157895
1450210782759810339,0.352,0.0,0.0,0.0,0.0,0.105263157895
1450210782796479905,0.352,0.0,0.0,0.0,0.0,0.105263157895
1450210782837032485,0.352,0.0,0.0,0.0,0.0,0.105263157895
1450210782874870755,0.352,0.0,0.0,0.0,0.0,0.105263157895
1450210782915519075,0.352,0.0,0.0,0.0,0.0,0.105263157895
1450210782955715495,0.352,0.0,0.0,0.0,0.0,0.105263157895
1450210782996070617,0.352,0.0,0.0,0.0,0.0,0.105263157895
1450210783035240227,0.352,0.0,0.0,0.0,0.0,0.105263157895
1450210783076180610,0.352,0.0,0.0,0.0,0.0,0.105263157895
1450210783115076709,0.352,0.0,0.0,0.0,0.0,0.105263157895
1450210783155215054,0.352,0.0,0.0,0.0,0.0,0.105263157895
1450210783194980023,0.352,0.0,0.0,0.0,0.0,0.105263157895
1450210783235958355,0.352,0.0,0.0,0.0,0.0,0.0631578947368
1450210783275381786,0.352,0.0,0.0,0.0,0.0,0.0631578947368
1450210783315295676,0.352,0.0,0.0,0.0,0.0,0.105263157895
1450210783355197840,0.352,0.0,0.0,0.0,0.0,0.105263157895
1450210783397090904,0.352,0.0,0.0,0.0,0.0,0.0631578947368
1450210783435819061,0.352,0.0,0.0,0.0,0.0,0.0631578947368
1450210783475065240,0.352,0.0,0.0,0.0,0.0,0.0631578947368
1450210783514822206,0.352,0.0,0.0,0.0,0.0,0.0631578947368
1450210783555128175,0.352,0.0,0.0,0.0,0.0,0.0631578947368
1450210783597073449,0.352,0.0,0.0,0.0,0.0,0.0631578947368
1450210783635115054,0.352,0.0,0.0,0.0,0.0,0.0631578947368
1450210783675373206,0.352,0.0,0.0,0.0,0.0,0.0631578947368
1450210783714844706,0.352,0.0,0.0,0.0,0.0,0.0631578947368
1450210783755602337,0.352,0.0,0.0,0.0,0.0,0.0631578947368
1450210783796739104,0.352,0.0,0.0,0.0,0.0,0.0631578947368
1450210783834939495,0.352,0.0,0.0,0.0,0.0,0.0631578947368
1450210783888713307,0.352,0.0,0.0,0.0,0.0,0.0631578947368
1450210783915153909,0.352,0.0,0.0,0.0,0.0,0.0631578947368
1450210783955044373,0.352,0.0,0.0,0.0,0.0,0.0631578947368
1450210783994932113,0.352,0.0,0.0,0.0,0.0,0.0210526315789
1450210784035324005,0.352,0.0,0.0,0.0,0.0,0.0210526315789
1450210784075425908,0.352,0.0,0.0,0.0,0.0,0.0210526315789
1450210784115780960,0.352,0.0,0.0,0.0,0.0,0.0210526315789
1450210784155315590,0.352,0.0,0.0,0.0,0.0,0.0210526315789
1450210784195168950,0.352,0.0,0.0,0.0,0.0,0.0210526315789
1450210784235708003,0.352,0.0,0.0,0.0,0.0,0.0210526315789
1450210784275152261,0.352,0.0,0.0,0.0,0.0,0.0
1450210784315144217,0.352,0.0,0.0,0.0,0.0,0.0
1450210784355483113,0.352,0.0,0.0,0.0,0.0,0.0
1450210784395210119,0.352,0.0,0.0,0.0,0.0,0.0
1450210784435665647,0.352,0.0,0.0,0.0,0.0,0.0
1450210784475303048,0.352,0.0,0.0,0.0,0.0,0.0
1450210784515271081,0.352,0.0,0.0,0.0,0.0,-0.0210526315789
1450210784555179901,0.352,0.0,0.0,0.0,0.0,-0.0210526315789
1450210784595482529,0.352,0.0,0.0,0.0,0.0,-0.0210526315789
1450210784648149631,0.352,0.0,0.0,0.0,0.0,-0.0210526315789
1450210784674954298,0.352,0.0,0.0,0.0,0.0,-0.0210526315789
1450210784732139568,0.352,0.0,0.0,0.0,0.0,-0.0210526315789
1450210784755139031,0.352,0.0,0.0,0.0,0.0,-0.0210526315789
1450210784795128123,0.352,0.0,0.0,0.0,0.0,-0.0210526315789
1450210784835691579,0.352,0.0,0.0,0.0,0.0,-0.0631578947368
1450210784875025586,0.352,0.0,0.0,0.0,0.0,-0.0631578947368
1450210784915002605,0.352,0.0,0.0,0.0,0.0,-0.0631578947368
1450210784955429445,0.34971841175,0.0,0.0,0.0,0.0,-0.0210526315789
1450210784995297291,0.34971841175,0.0,0.0,0.0,0.0,-0.0210526315789
1450210785040565933,0.342046566965,0.0,0.0,0.0,0.0,-0.0210526315789
1450210785074904607,0.338210735262,0.0,0.0,0.0,0.0,-0.0210526315789
1450210785118980498,0.334375071309,0.0,0.0,0.0,0.0,-0.0210526315789
1450210785155673856,0.330539423027,0.0,0.0,0.0,0.0,-0.0210526315789
1450210785196143806,0.330539423027,0.0,0.0,0.0,0.0,-0.0210526315789
1450210785234983212,0.323828990092,0.0,0.0,0.0,0.0,-0.0631578947368
1450210785274884159,0.315201837485,0.0,0.0,0.0,0.0,-0.0210526315789
1450210785315783368,0.315201837485,0.0,0.0,0.0,0.0,-0.0210526315789
1450210785354945766,0.313284318956,0.0,0.0,0.0,0.0,-0.0210526315789
1450210785396079920,0.313284318956,0.0,0.0,0.0,0.0,-0.0210526315789
1450210785434878909,0.309449290876,0.0,0.0,0.0,0.0,-0.0210526315789
1450210785475146020,0.301782588146,0.0,0.0,0.0,0.0,-0.0631578947368
1450210785515265718,0.297947963702,0.0,0.0,0.0,0.0,-0.0631578947368
1450210785554774893,0.294113551097,0.0,0.0,0.0,0.0,-0.0631578947368
1450210785595019291,0.294113551097,0.0,0.0,0.0,0.0,-0.0631578947368
1450210785634894252,0.282611017129,0.0,0.0,0.0,0.0,-0.0631578947368
1450210785675596815,0.278777196291,0.0,0.0,0.0,0.0,-0.0631578947368
1450210785715143102,0.278777196291,0.0,0.0,0.0,0.0,-0.0631578947368
1450210785755136055,0.276860269786,0.0,0.0,0.0,0.0,-0.0631578947368
1450210785795051369,0.0,0.0,0.0,0.0,0.0,0.0
1450210785834957412,-0.0,0.0,0.0,0.0,0.0,0.0
1450210785875144467,-0.0,0.0,0.0,0.0,0.0,-0.0
1450210785914870265,-0.0,0.0,0.0,0.0,0.0,-0.0
1450210785955190563,-0.0,0.0,0.0,0.0,0.0,0.0
1450210785995968169,-0.0,0.0,0.0,0.0,0.0,0.0
1450210786035144878,-0.0,0.0,0.0,0.0,0.0,0.0
1450210786075926865,-0.0,0.0,0.0,0.0,0.0,0.0
1450210786114971816,-0.0,0.0,0.0,0.0,0.0,0.0
1450210786154926758,-0.0,0.0,0.0,0.0,0.0,-0.0
1450210786195035931,-0.0,0.0,0.0,0.0,0.0,-0.0
1450210786235324244,-0.0,0.0,0.0,0.0,0.0,-0.0
1450210786275053727,-0.0,0.0,0.0,0.0,0.0,-0.0
1450210786315097424,-0.0,0.0,0.0,0.0,0.0,0.0
1450210786355909471,-0.0,0.0,0.0,0.0,0.0,-0.0
1450210786397501963,-0.0,0.0,0.0,0.0,0.0,-0.0
1450210786435788398,-0.0,0.0,0.0,0.0,0.0,-0.0
1450210786474998213,-0.0,0.0,0.0,0.0,0.0,-0.0
1450210786514911442,-0.0,0.0,0.0,0.0,0.0,-0.0
1450210786555088322,-0.0,0.0,0.0,0.0,0.0,0.0
1450210786595844265,-0.0,0.0,0.0,0.0,0.0,-0.0
1450210786635257370,-0.0,0.0,0.0,0.0,0.0,-0.0
1450210786680728130,-0.0,0.0,0.0,0.0,0.0,0.0
1450210786715455062,-0.0,0.0,0.0,0.0,0.0,0.0
1450210786756275931,-0.0,0.0,0.0,0.0,0.0,0.0
1450210786795286244,-0.0,0.0,0.0,0.0,0.0,0.0
1450210786835254842,-0.0,0.0,0.0,0.0,0.0,0.0
1450210786875026563,-0.0,0.0,0.0,0.0,0.0,0.0
1450210786916907808,-0.0,0.0,0.0,0.0,0.0,0.0
1450210786954843855,-0.0,0.0,0.0,0.0,0.0,0.0
1450210786995066800,0.0,0.0,0.0,0.0,0.0,0.0
1450210787035251911,0.0,0.0,0.0,0.0,0.0,0.0
1450210787075552249,0.0,0.0,0.0,0.0,0.0,-0.0
1450210787115857961,0.0,0.0,0.0,0.0,0.0,-0.0
1450210787155423241,0.0,0.0,0.0,0.0,0.0,-0.0
1450210787195250239,0.0,0.0,0.0,0.0,0.0,-0.0
1450210787235213377,0.0,0.0,0.0,0.0,0.0,-0.0
1450210787274800393,0.0,0.0,0.0,0.0,0.0,-0.0
1450210787314957826,0.0,0.0,0.0,0.0,0.0,-0.0
1450210787354928024,0.0,0.0,0.0,0.0,0.0,-0.0
1450210787395253588,-0.0,0.0,0.0,0.0,0.0,-0.0
1450210787434994963,-0.0,0.0,0.0,0.0,0.0,-0.0
1450210787475833075,-0.0,0.0,0.0,0.0,0.0,-0.0
1450210787515019481,-0.0,0.0,0.0,0.0,0.0,-0.0
1450210787555160915,-0.0,0.0,0.0,0.0,0.0,-0.0
1450210787595558672,-0.0,0.0,0.0,0.0,0.0,-0.0
1450210787634954052,-0.0,0.0,0.0,0.0,0.0,-0.0
1450210787678870715,-0.0,0.0,0.0,0.0,0.0,-0.0
1450210787715022260,-0.0,0.0,0.0,0.0,0.0,-0.0
1450210787755301145,-0.0,0.0,0.0,0.0,0.0,-0.0
1450210787795467271,-0.0,0.0,0.0,0.0,0.0,-0.0
1450210787835621520,-0.0,0.0,0.0,0.0,0.0,-0.0
1450210787875442516,-0.0,0.0,0.0,0.0,0.0,-0.0
1450210787915210177,-0.0,0.0,0.0,0.0,0.0,-0.0
1450210787954864742,-0.0,0.0,0.0,0.0,0.0,-0.0
1450210787995732174,-0.0,0.0,0.0,0.0,0.0,-0.0
1450210788037640702,-0.0,0.0,0.0,0.0,0.0,-0.0
1450210788075546594,-0.0,0.0,0.0,0.0,0.0,-0.0
1450210788115049242,-0.0,0.0,0.0,0.0,0.0,-0.0
1450210788155071864,-0.0,0.0,0.0,0.0,0.0,-0.0
1450210788195248014,-0.0,0.0,0.0,0.0,0.0,-0.0
1450210788234916356,-0.0,0.0,0.0,0.0,0.0,-0.0
1450210788277503916,-0.0,0.0,0.0,0.0,0.0,-0.0
1450210788315097548,-0.0,0.0,0.0,0.0,0.0,-0.0
1450210788355588658,-0.0,0.0,0.0,0.0,0.0,-0.0
1450210788394767343,-0.0,0.0,0.0,0.0,0.0,-0.0
1450210788435944121,-0.0,0.0,0.0,0.0,0.0,-0.0
1450210788475105221,-0.0,0.0,0.0,0.0,0.0,-0.0
1450210788515085895,-0.0,0.0,0.0,0.0,0.0,-0.0
1450210788555681196,-0.0,0.0,0.0,0.0,0.0,-0.0
1450210788595323762,-0.0,0.0,0.0,0.0,0.0,-0.0
1450210788635412472,-0.0,0.0,0.0,0.0,0.0,-0.0
1450210788674864943,-0.0,0.0,0.0,0.0,0.0,-0.0
1450210788715963991,-0.0,0.0,0.0,0.0,0.0,-0.0
1450210788754923154,-0.0,0.0,0.0,0.0,0.0,-0.0
1450210788797238057,-0.0,0.0,0.0,0.0,0.0,-0.0
1450210788835161170,-0.0,0.0,0.0,0.0,0.0,-0.0
1450210788875707932,-0.0,0.0,0.0,0.0,0.0,-0.0
1450210788915005742,-0.0,0.0,0.0,0.0,0.0,-0.0
1450210788955005245,-0.0,0.0,0.0,0.0,0.0,-0.0
1450210788995956129,-0.0,0.0,0.0,0.0,0.0,-0.0
1450210789035052340,-0.0,0.0,0.0,0.0,0.0,-0.0
1450210789074853929,-0.0,0.0,0.0,0.0,0.0,-0.0
1450210789115374868,-0.0,0.0,0.0,0.0,0.0,-0.0
1450210789154922190,-0.0,0.0,0.0,0.0,0.0,-0.0
1450210789194904808,-0.0,0.0,0.0,0.0,0.0,-0.0
1450210789234778059,-0.0,0.0,0.0,0.0,0.0,-0.0
1450210789275130709,-0.0,0.0,0.0,0.0,0.0,-0.0
1450210789315684088,-0.0,0.0,0.0,0.0,0.0,-0.0
1450210789355403293,-0.0,0.0,0.0,0.0,0.0,-0.0
1450210789394902921,-0.0,0.0,0.0,0.0,0.0,-0.0
1450210789434982427,-0.0,0.0,0.0,0.0,0.0,-0.0
1450210789475180393,-0.0,0.0,0.0,0.0,0.0,-0.0
1450210789517405318,-0.0,0.0,0.0,0.0,0.0,-0.0
1450210789555016591,-0.0,0.0,0.0,0.0,0.0,-0.0
1450210789595178659,-0.0,0.0,0.0,0.0,0.0,-0.0
1450210789634868584,-0.0,0.0,0.0,0.0,0.0,-0.0
1450210789675424085,-0.0,0.0,0.0,0.0,0.0,-0.0
1450210789715054437,-0.0,0.0,0.0,0.0,0.0,-0.0
1450210789755169946,-0.0,0.0,0.0,0.0,0.0,-0.0
1450210789795092837,-0.0,0.0,0.0,0.0,0.0,-0.0
1450210789835263190,-0.0,0.0,0.0,0.0,0.0,-0.0
1450210789875650813,-0.0,0.0,0.0,0.0,0.0,-0.0
1450210789915823342,-0.0,0.0,0.0,0.0,0.0,-0.0
1450210789955413531,-0.0,0.0,0.0,0.0,0.0,-0.0
1450210789995786632,-0.0,0.0,0.0,0.0,0.0,-0.0
1450210790035895940,-0.0,0.0,0.0,0.0,0.0,-0.0
1450210790075083833,-0.0,0.0,0.0,0.0,0.0,-0.0
1450210790115097489,-0.0,0.0,0.0,0.0,0.0,-0.0
1450210790155969487,-0.0,0.0,0.0,0.0,0.0,-0.0
1450210790195311157,-0.0,0.0,0.0,0.0,0.0,-0.0
1450210790235076390,-0.0,0.0,0.0,0.0,0.0,-0.0
1450210790275207671,-0.0,0.0,0.0,0.0,0.0,-0.0
1450210790315163849,-0.0,0.0,0.0,0.0,0.0,-0.0
1450210790356206484,-0.0,0.0,0.0,0.0,0.0,-0.0
1450210790395651342,-0.0,0.0,0.0,0.0,0.0,-0.0
1450210790434849366,-0.0,0.0,0.0,0.0,0.0,-0.0
1450210790497392608,-0.0,0.0,0.0,0.0,0.0,-0.0
1450210790514875522,-0.0,0.0,0.0,0.0,0.0,-0.0
1450210790555866671,-0.0,0.0,0.0,0.0,0.0,-0.0
1450210790595923484,-0.0,0.0,0.0,0.0,0.0,-0.0
1450210790635236071,-0.0,0.0,0.0,0.0,0.0,-0.0
1450210790674917251,-0.0,0.0,0.0,0.0,0.0,-0.0
1450210790714959672,-0.0,0.0,0.0,0.0,0.0,-0.0
1450210790755524528,-0.0,0.0,0.0,0.0,0.0,-0.0
1450210790795821007,-0.0,0.0,0.0,0.0,0.0,-0.0
1450210790858778273,-0.0,0.0,0.0,0.0,0.0,-0.0
1450210790874861270,-0.0,0.0,0.0,0.0,0.0,-0.0
1450210790914904508,-0.0,0.0,0.0,0.0,0.0,-0.0
1450210790955563608,-0.0,0.0,0.0,0.0,0.0,-0.0
1450210790995273009,-0.0,0.0,0.0,0.0,0.0,-0.0
1450210791034957548,-0.0,0.0,0.0,0.0,0.0,-0.0
1450210791075037750,-0.0,0.0,0.0,0.0,0.0,-0.0
1450210791115008434,-0.0,0.0,0.0,0.0,0.0,-0.0
1450210791154769271,-0.0,0.0,0.0,0.0,0.0,-0.0
1450210791195101964,-0.0,0.0,0.0,0.0,0.0,-0.0
1450210791234809068,-0.0,0.0,0.0,0.0,0.0,-0.0
1450210791275024234,-0.0,0.0,0.0,0.0,0.0,-0.0
1450210791316356799,-0.0,0.0,0.0,0.0,0.0,-0.0
1450210791354912342,-0.0,0.0,0.0,0.0,0.0,-0.0
1450210791395021896,-0.0,0.0,0.0,0.0,0.0,-0.0
1450210791440066068,-0.0,0.0,0.0,0.0,0.0,-0.0
1450210791475293529,-0.0,0.0,0.0,0.0,0.0,-0.0
1450210791514799206,-0.0,0.0,0.0,0.0,0.0,-0.0
1450210791555527020,-0.0,0.0,0.0,0.0,0.0,-0.0
1450210791595128411,-0.0,0.0,0.0,0.0,0.0,-0.0
1450210791636063660,-0.0,0.0,0.0,0.0,0.0,-0.0
1450210791675339031,-0.0,0.0,0.0,0.0,0.0,-0.0
1450210791714878260,-0.0,0.0,0.0,0.0,0.0,-0.0
1450210791754696941,-0.0,0.0,0.0,0.0,0.0,-0.0
1450210791795131944,-0.0,0.0,0.0,0.0,0.0,-0.0
1450210791835550669,-0.0,0.0,0.0,0.0,0.0,-0.0
1450210791875012248,-0.0,0.0,0.0,0.0,0.0,-0.0
1450210791915180146,-0.0,0.0,0.0,0.0,0.0,-0.0
1450210791955193175,-0.0,0.0,0.0,0.0,0.0,-0.0
1450210791995723093,-0.0,0.0,0.0,0.0,0.0,-0.0
1450210792034801084,-0.0,0.0,0.0,0.0,0.0,-0.0
1450210792075110768,-0.0,0.0,0.0,0.0,0.0,-0.0
1450210792119124428,-0.0,0.0,0.0,0.0,0.0,-0.0
1450210792154923602,-0.0,0.0,0.0,0.0,0.0,-0.0
1450210792195028903,-0.0,0.0,0.0,0.0,0.0,-0.0
1450210792235232262,-0.0,0.0,0.0,0.0,0.0,-0.0
1450210792275272816,-0.0,0.0,0.0,0.0,0.0,-0.0
1450210792317275173,-0.0,0.0,0.0,0.0,0.0,-0.0
1450210792354886493,-0.0,0.0,0.0,0.0,0.0,-0.0
1450210792394808318,-0.0,0.0,0.0,0.0,0.0,-0.0
1450210792436444783,-0.0,0.0,0.0,0.0,0.0,-0.0
1450210792474890078,-0.0,0.0,0.0,0.0,0.0,-0.0
1450210792515349636,-0.0,0.0,0.0,0.0,0.0,-0.0
1450210792555290370,-0.0,0.0,0.0,0.0,0.0,-0.0
1450210792596710610,-0.0,0.0,0.0,0.0,0.0,-0.0
1450210792635100677,-0.0,0.0,0.0,0.0,0.0,-0.0
1450210792674812284,-0.0,0.0,0.0,0.0,0.0,-0.0
1450210792715133102,-0.0,0.0,0.0,0.0,0.0,-0.0
1450210792755568360,-0.0,0.0,0.0,0.0,0.0,-0.0
1450210792794864223,-0.0,0.0,0.0,0.0,0.0,-0.0
1450210792836328924,-0.0,0.0,0.0,0.0,0.0,-0.0
1450210792874882394,-0.0,0.0,0.0,0.0,0.0,-0.0
1450210792915233422,-0.0,0.0,0.0,0.0,0.0,-0.0
1450210792954828947,-0.0,0.0,0.0,0.0,0.0,-0.0
1450210792994975753,-0.0,0.0,0.0,0.0,0.0,-0.0
1450210793039672713,-0.0,0.0,0.0,0.0,0.0,-0.0
1450210793075881581,-0.0,0.0,0.0,0.0,0.0,-0.0
1450210793115031839,-0.0,0.0,0.0,0.0,0.0,-0.0
1450210793154995474,-0.0,0.0,0.0,0.0,0.0,-0.0
1450210793195418220,-0.0,0.0,0.0,0.0,0.0,-0.0
1450210793235101946,-0.0,0.0,0.0,0.0,0.0,-0.0
1450210793274710655,-0.0,0.0,0.0,0.0,0.0,-0.0
1450210793316311996,-0.0,0.0,0.0,0.0,0.0,-0.0
1450210793354929921,-0.0,0.0,0.0,0.0,0.0,-0.0
1450210793396823592,-0.0,0.0,0.0,0.0,0.0,-0.0
1450210793436303472,-0.0,0.0,0.0,0.0,0.0,-0.0
1450210793476759820,-0.0,0.0,0.0,0.0,0.0,-0.0
1450210793516377018,-0.0,0.0,0.0,0.0,0.0,-0.0
1450210793555843704,-0.0,0.0,0.0,0.0,0.0,-0.0
1450210793595946858,-0.0,0.0,0.0,0.0,0.0,-0.0
1450210793640564423,-0.0,0.0,0.0,0.0,0.0,-0.0
1450210793675860652,-0.0,0.0,0.0,0.0,0.0,-0.0
1450210793714985180,-0.0,0.0,0.0,0.0,0.0,-0.0
1450210793756634956,-0.0,0.0,0.0,0.0,0.0,-0.0
1450210793795172013,-0.0,0.0,0.0,0.0,0.0,-0.0
1450210793835294724,-0.0,0.0,0.0,0.0,0.0,-0.0
1450210793875690604,-0.0,0.0,0.0,0.0,0.0,-0.0
1450210793916722420,-0.0,0.0,0.0,0.0,0.0,-0.0
1450210793964916074,-0.0,0.0,0.0,0.0,0.0,-0.0
1450210793996394856,-0.0,0.0,0.0,0.0,0.0,-0.0
1450210794035081516,-0.0,0.0,0.0,0.0,0.0,-0.0
1450210794075308934,-0.0,0.0,0.0,0.0,0.0,-0.0
1450210794115021959,-0.0,0.0,0.0,0.0,0.0,-0.0
1450210794155026141,-0.0,0.0,0.0,0.0,0.0,-0.0
1450210794194903874,-0.0,0.0,0.0,0.0,0.0,-0.0
1450210794234848513,-0.0,0.0,0.0,0.0,0.0,-0.0
1450210794275455347,-0.0,0.0,0.0,0.0,0.0,-0.0
1450210794314829668,-0.0,0.0,0.0,0.0,0.0,-0.0
1450210794355163277,-0.0,0.0,0.0,0.0,0.0,-0.0
1450210794395323322,-0.0,0.0,0.0,0.0,0.0,-0.0
1450210794434845435,-0.0,0.0,0.0,0.0,0.0,-0.0
1450210794474838579,-0.0,0.0,0.0,0.0,0.0,-0.0
1450210794515791587,-0.0,0.0,0.0,0.0,0.0,-0.0
1450210794555590825,-0.0,0.0,0.0,0.0,0.0,-0.0
1450210794594886259,-0.0,0.0,0.0,0.0,0.0,-0.0
1450210794635629874,-0.0,0.0,0.0,0.0,0.0,-0.0
1450210794676107378,-0.0,0.0,0.0,0.0,0.0,-0.0
1450210794715333707,-0.0,0.0,0.0,0.0,0.0,-0.0
1450210794754959752,-0.0,0.0,0.0,0.0,0.0,-0.0
1450210794795333693,-0.0,0.0,0.0,0.0,0.0,-0.0
1450210794834938731,-0.0,0.0,0.0,0.0,0.0,-0.0
1450210794875593382,-0.0,0.0,0.0,0.0,0.0,-0.0
1450210794915093945,-0.0,0.0,0.0,0.0,0.0,-0.0
1450210794954930063,-0.0,0.0,0.0,0.0,0.0,-0.0
1450210794994855289,-0.0,0.0,0.0,0.0,0.0,-0.0
1450210795034813160,-0.0,0.0,0.0,0.0,0.0,-0.0
1450210795075126336,-0.0,0.0,0.0,0.0,0.0,-0.0
1450210795114936824,-0.0,0.0,0.0,0.0,0.0,-0.0
1450210795154749543,-0.0,0.0,0.0,0.0,0.0,-0.0
1450210795200148746,-0.0,0.0,0.0,0.0,0.0,-0.0
1450210795236790751,-0.0,0.0,0.0,0.0,0.0,-0.0
1450210795275791761,-0.0,0.0,0.0,0.0,0.0,-0.0
1450210795314954018,-0.0,0.0,0.0,0.0,0.0,-0.0
1450210795354892248,-0.0,0.0,0.0,0.0,0.0,-0.0
1450210795395059888,-0.0,0.0,0.0,0.0,0.0,-0.0
1450210795435332477,-0.0,0.0,0.0,0.0,0.0,-0.0
1450210795474757226,-0.0,0.0,0.0,0.0,0.0,-0.0
1450210795515449828,-0.0,0.0,0.0,0.0,0.0,-0.0
1450210795554912537,-0.0,0.0,0.0,0.0,0.0,-0.0
1450210795595206836,-0.0,0.0,0.0,0.0,0.0,-0.0
1450210795635417897,-0.0,0.0,0.0,0.0,0.0,-0.0
1450210795679970356,-0.0,0.0,0.0,0.0,0.0,-0.0
1450210795715178175,-0.0,0.0,0.0,0.0,0.0,-0.0
1450210795754867104,-0.0,0.0,0.0,0.0,0.0,-0.0
1450210795795247738,-0.0,0.0,0.0,0.0,0.0,-0.0
1450210795835282816,-0.0,0.0,0.0,0.0,0.0,-0.0
1450210795875044077,-0.0,0.0,0.0,0.0,0.0,-0.0
1450210795914815848,-0.0,0.0,0.0,0.0,0.0,-0.0
1450210795954798572,-0.0,0.0,0.0,0.0,0.0,-0.0
1450210795995008609,-0.0,0.0,0.0,0.0,0.0,-0.0
1450210796035130007,-0.0,0.0,0.0,0.0,0.0,-0.0
1450210796074904815,-0.0,0.0,0.0,0.0,0.0,-0.0
1450210796115263549,-0.0,0.0,0.0,0.0,0.0,-0.0
1450210796155230947,-0.0,0.0,0.0,0.0,0.0,-0.0
1450210796195649706,-0.0,0.0,0.0,0.0,0.0,-0.0
1450210796235933438,-0.0,0.0,0.0,0.0,0.0,-0.0
1450210796274883369,-0.0,0.0,0.0,0.0,0.0,-0.0
1450210796314976190,-0.0,0.0,0.0,0.0,0.0,-0.0
1450210796356165487,-0.0,0.0,0.0,0.0,0.0,-0.0
1450210796395109522,-0.115675966263,0.0,0.0,0.0,0.0,-0.0
1450210796435381238,-0.290733737946,0.0,0.0,0.0,0.0,-0.0
1450210796478102994,-0.352,0.0,0.0,0.0,0.0,-0.0
1450210796515134988,-0.352,0.0,0.0,0.0,0.0,0.0121129572392
1450210796554901670,-0.352,0.0,0.0,0.0,0.0,0.0121129572392
1450210796595200081,-0.352,0.0,0.0,0.0,0.0,0.0121129572392
1450210796639678280,-0.352,0.0,0.0,0.0,0.0,0.0121129572392
1450210796675646667,-0.352,0.0,0.0,0.0,0.0,0.0121129572392
1450210796714836913,-0.352,0.0,0.0,0.0,0.0,0.0121129572392
1450210796755523729,-0.352,0.0,0.0,0.0,0.0,0.0121129572392
1450210796795216726,-0.352,0.0,0.0,0.0,0.0,0.0121129572392
1450210796835357361,-0.352,0.0,0.0,0.0,0.0,0.0121129572392
1450210796874982938,-0.352,0.0,0.0,0.0,0.0,0.0121129572392
1450210796914948876,-0.352,0.0,0.0,0.0,0.0,0.0121129572392
1450210796956419420,-0.352,0.0,0.0,0.0,0.0,0.0121129572392
1450210796995251485,-0.352,0.0,0.0,0.0,0.0,-0.0
1450210797036191278,-0.352,0.0,0.0,0.0,0.0,-0.0
1450210797075329331,-0.352,0.0,0.0,0.0,0.0,-0.0
1450210797115312713,-0.352,0.0,0.0,0.0,0.0,-0.0
1450210797155880504,-0.352,0.0,0.0,0.0,0.0,0.0
1450210797195336209,-0.352,0.0,0.0,0.0,0.0,0.0
1450210797235272399,-0.352,0.0,0.0,0.0,0.0,0.0
1450210797274824023,-0.352,0.0,0.0,0.0,0.0,0.0
1450210797314883402,-0.352,0.0,0.0,0.0,0.0,0.0
1450210797354875473,-0.352,0.0,0.0,0.0,0.0,0.0
1450210797395185441,-0.352,0.0,0.0,0.0,0.0,0.0
1450210797435894518,-0.352,0.0,0.0,0.0,0.0,0.0
1450210797475717010,-0.352,0.0,0.0,0.0,0.0,0.0
1450210797514974949,0.0,0.0,0.0,0.0,0.0,0.0
1450210797560327437,0.0,0.0,0.0,0.0,0.0,-0.0
1450210797594993368,0.0,0.0,0.0,0.0,0.0,0.0
1450210797634881965,0.0,0.0,0.0,0.0,0.0,0.0
1450210797675105920,0.0,0.0,0.0,0.0,0.0,0.0
1450210797715151823,0.0,0.0,0.0,0.0,0.0,-0.0
1450210797754870262,0.0,0.0,0.0,0.0,0.0,0.0
1450210797795173452,0.0,0.0,0.0,0.0,0.0,0.0
1450210797835057075,0.0,0.0,0.0,0.0,0.0,0.0
1450210797879641070,0.0,0.0,0.0,0.0,0.0,0.0
1450210797915767989,0.0,0.0,0.0,0.0,0.0,0.0
1450210797954963011,0.0,0.0,0.0,0.0,0.0,-0.0
1450210797995878524,0.0,0.0,0.0,0.0,0.0,-0.0
1450210798036437605,0.0,0.0,0.0,0.0,0.0,-0.0
1450210798075391764,0.0,0.0,0.0,0.0,0.0,-0.0
1450210798115131173,0.0,0.0,0.0,0.0,0.0,0.0
1450210798155566952,0.0,0.0,0.0,0.0,0.0,-0.0
1450210798195425923,-0.0106480943561,0.0,0.0,0.0,0.0,0.0
1450210798235365280,-0.0223178570271,0.0,0.0,0.0,0.0,-0.0
1450210798278305313,-0.0748317985535,0.0,0.0,0.0,0.0,0.0
1450210798314959506,-0.144850383759,0.0,0.0,0.0,0.0,0.0
1450210798356072308,-0.244054674149,0.0,0.0,0.0,0.0,-0.0
1450210798395301933,-0.352,0.0,0.0,0.0,0.0,0.0
1450210798448196726,-0.352,0.0,0.0,0.0,0.0,0.0
1450210798475085011,-0.352,0.0,0.0,0.0,0.0,0.0
1450210798516689605,-0.352,0.0,0.0,0.0,0.0,-0.0
1450210798555491047,-0.352,0.0,0.0,0.0,0.0,0.0
1450210798595204402,-0.352,0.0,0.0,0.0,0.0,-0.0
1450210798635240336,-0.352,0.0,0.0,0.0,0.0,0.0
1450210798674957644,-0.352,0.0,0.0,0.0,0.0,-0.0
1450210798716331320,-0.352,0.0,0.0,0.0,0.0,-0.0
1450210798755079145,-0.352,0.0,0.0,0.0,0.0,0.0
1450210798795109976,-0.352,0.0,0.0,0.0,0.0,-0.0
1450210798835218505,-0.352,0.0,0.0,0.0,0.0,-0.0
1450210798875336560,-0.352,0.0,0.0,0.0,0.0,-0.0
1450210798915034476,-0.352,0.0,0.0,0.0,0.0,-0.0
1450210798955109745,-0.352,0.0,0.0,0.0,0.0,-0.0
1450210798995097075,-0.352,0.0,0.0,0.0,0.0,-0.0
1450210799035364546,-0.352,0.0,0.0,0.0,0.0,0.0
1450210799075526900,-0.352,0.0,0.0,0.0,0.0,-0.0
1450210799115151687,-0.352,0.0,0.0,0.0,0.0,0.0
1450210799155430126,-0.352,0.0,0.0,0.0,0.0,-0.0
1450210799195184848,-0.352,0.0,0.0,0.0,0.0,0.0
1450210799234762011,-0.352,0.0,0.0,0.0,0.0,-0.0
1450210799274987913,-0.352,0.0,0.0,0.0,0.0,-0.0
1450210799314853735,-0.352,0.0,0.0,0.0,0.0,-0.0
1450210799355434011,-0.352,0.0,0.0,0.0,0.0,0.0
1450210799395557451,-0.352,0.0,0.0,0.0,0.0,0.0
1450210799434736383,-0.352,0.0,0.0,0.0,0.0,0.0
1450210799474984947,-0.352,0.0,0.0,0.0,0.0,-0.0
1450210799514909676,-0.352,0.0,0.0,0.0,0.0,-0.0
1450210799555354700,-0.352,0.0,0.0,0.0,0.0,-0.0
1450210799595076030,-0.352,0.0,0.0,0.0,0.0,-0.0
1450210799637809142,-0.352,0.0,0.0,0.0,0.0,0.0
1450210799675356717,-0.352,0.0,0.0,0.0,0.0,0.0
1450210799714857643,-0.352,0.0,0.0,0.0,0.0,0.0
1450210799754800275,-0.352,0.0,0.0,0.0,0.0,-0.0
1450210799796777305,-0.352,0.0,0.0,0.0,0.0,-0.0
1450210799835015777,-0.352,0.0,0.0,0.0,0.0,-0.0
1450210799875271728,-0.352,0.0,0.0,0.0,0.0,0.0
1450210799914845237,-0.352,0.0,0.0,0.0,0.0,-0.0
1450210799954812270,-0.352,0.0,0.0,0.0,0.0,0.0
1450210799995019329,-0.352,0.0,0.0,0.0,0.0,-0.0
1450210800035840197,-0.352,0.0,0.0,0.0,0.0,0.0
1450210800075043620,-0.352,0.0,0.0,0.0,0.0,0.0
1450210800115170507,-0.352,0.0,0.0,0.0,0.0,-0.0
1450210800154933001,-0.352,0.0,0.0,0.0,0.0,-0.0
1450210800195238559,-0.352,0.0,0.0,0.0,0.0,-0.0
1450210800234896442,-0.352,0.0,0.0,0.0,0.0,-0.0
1450210800276527064,-0.352,0.0,0.0,0.0,0.0,-0.0
1450210800314811719,-0.352,0.0,0.0,0.0,0.0,-0.0
1450210800355106496,-0.352,0.0,0.0,0.0,0.0,0.0
1450210800394951174,-0.352,0.0,0.0,0.0,0.0,0.0
1450210800434922379,-0.352,0.0,0.0,0.0,0.0,0.0
1450210800475619648,-0.352,0.0,0.0,0.0,0.0,0.0
1450210800518568345,-0.352,0.0,0.0,0.0,0.0,0.0
1450210800554901558,-0.352,0.0,0.0,0.0,0.0,0.0
1450210800594886109,-0.352,0.0,0.0,0.0,0.0,0.0
1450210800634971682,-0.352,0.0,0.0,0.0,0.0,0.0
1450210800674912911,-0.352,0.0,0.0,0.0,0.0,0.0
1450210800715017613,-0.352,0.0,0.0,0.0,0.0,0.0
1450210800754910354,-0.352,0.0,0.0,0.0,0.0,-0.0
1450210800795028625,-0.352,0.0,0.0,0.0,0.0,-0.0
1450210800835533516,-0.352,0.0,0.0,0.0,0.0,-0.0
1450210800878139059,-0.352,0.0,0.0,0.0,0.0,-0.0
1450210800915166763,-0.352,0.0,0.0,0.0,0.0,-0.0
1450210800954928073,-0.352,0.0,0.0,0.0,0.0,-0.0
1450210800994909178,-0.352,0.0,0.0,0.0,0.0,-0.0
1450210801036479860,-0.352,0.0,0.0,0.0,0.0,-0.0
1450210801076006462,-0.352,0.0,0.0,0.0,0.0,-0.0
1450210801114834564,-0.352,0.0,0.0,0.0,0.0,-0.0
1450210801155071994,-0.352,0.0,0.0,0.0,0.0,-0.0
1450210801197725368,-0.352,0.0,0.0,0.0,0.0,-0.0
1450210801237004884,-0.352,0.0,0.0,0.0,0.0,-0.0
1450210801274913192,-0.352,0.0,0.0,0.0,0.0,-0.0
1450210801314714766,-0.352,0.0,0.0,0.0,0.0,-0.0
1450210801355082394,-0.352,0.0,0.0,0.0,0.0,-0.0
1450210801395241065,-0.352,0.0,0.0,0.0,0.0,-0.0
1450210801435480454,-0.352,0.0,0.0,0.0,0.0,0.0
1450210801475877151,-0.352,0.0,0.0,0.0,0.0,-0.0
1450210801514897530,-0.352,0.0,0.0,0.0,0.0,0.0
1450210801555022987,-0.352,0.0,0.0,0.0,0.0,0.0
1450210801595137211,-0.352,0.0,0.0,0.0,0.0,0.0
1450210801635487349,-0.352,0.0,0.0,0.0,0.0,0.0
1450210801674924386,-0.352,0.0,0.0,0.0,0.0,0.0
1450210801715158370,-0.352,0.0,0.0,0.0,0.0,0.0
1450210801755141632,-0.352,0.0,0.0,0.0,0.0,0.0
1450210801795323345,-0.352,0.0,0.0,0.0,0.0,0.0
1450210801837797744,-0.352,0.0,0.0,0.0,0.0,0.0
1450210801875168573,-0.352,0.0,0.0,0.0,0.0,0.0
1450210801915347154,-0.352,0.0,0.0,0.0,0.0,0.0
1450210801955020897,-0.352,0.0,0.0,0.0,0.0,0.0
1450210801995805088,-0.352,0.0,0.0,0.0,0.0,0.0
1450210802038940949,-0.352,0.0,0.0,0.0,0.0,0.0
1450210802075450395,-0.352,0.0,0.0,0.0,0.0,0.0
1450210802116033732,-0.352,0.0,0.0,0.0,0.0,0.0
1450210802154996968,-0.352,0.0,0.0,0.0,0.0,0.0
1450210802195099203,-0.352,0.0,0.0,0.0,0.0,0.0
1450210802236622629,-0.352,0.0,0.0,0.0,0.0,0.0
1450210802275320741,-0.352,0.0,0.0,0.0,0.0,0.0
1450210802315423917,-0.352,0.0,0.0,0.0,0.0,-0.0154153808951
1450210802356043435,-0.352,0.0,0.0,0.0,0.0,-0.0253612011671
1450210802395404841,-0.352,0.0,0.0,0.0,0.0,-0.0286764770746
1450210802435827405,-0.352,0.0,0.0,0.0,0.0,-0.0319917500019
1450210802476463565,-0.352,0.0,0.0,0.0,0.0,-0.0319917500019
1450210802515036910,-0.352,0.0,0.0,0.0,0.0,-0.0286764770746
1450210802555116198,-0.352,0.0,0.0,0.0,0.0,-0.0286764770746
1450210802595309551,-0.352,0.0,0.0,0.0,0.0,-0.0319917500019
1450210802634903984,-0.352,0.0,0.0,0.0,0.0,-0.0286764770746
1450210802675092399,-0.352,0.0,0.0,0.0,0.0,-0.0253612011671
1450210802714948297,-0.352,0.0,0.0,0.0,0.0,-0.0154153808951
1450210802754984226,-0.352,0.0,0.0,0.0,0.0,0.0
1450210802795481354,-0.352,0.0,0.0,0.0,0.0,0.0
1450210802835853054,-0.352,0.0,0.0,0.0,0.0,0.0
1450210802875556725,-0.352,0.0,0.0,0.0,0.0,0.0
1450210802914975153,-0.352,0.0,0.0,0.0,0.0,0.0
1450210802957029522,-0.352,0.0,0.0,0.0,0.0,0.0
1450210802997518280,-0.352,0.0,0.0,0.0,0.0,0.0
1450210803036237476,-0.352,0.0,0.0,0.0,0.0,0.0
1450210803075076439,0.147779129982,0.0,0.0,0.0,0.0,0.0121129572392
1450210803115633565,0.0,0.0,0.0,0.0,0.0,0.0
1450210803155954426,0.0,0.0,0.0,0.0,0.0,0.0
1450210803196617936,0.0,0.0,0.0,0.0,0.0,0.0
1450210803235473679,0.0,0.0,0.0,0.0,0.0,0.0
1450210803276178476,0.0,0.0,0.0,0.0,0.0,0.0
1450210803315024359,0.0,0.0,0.0,0.0,0.0,0.0
1450210803355784198,0.0,0.0,0.0,0.0,0.0,0.0
1450210803394950941,0.0,0.0,0.0,0.0,0.0,0.0
1450210803435476953,0.0,0.0,0.0,0.0,0.0,0.0
1450210803475071319,0.0,0.0,0.0,0.0,0.0,0.0
1450210803515883440,0.0,0.0,0.0,0.0,0.0,0.0
1450210803555198439,0.0,0.0,0.0,0.0,0.0,0.0
1450210803595137198,0.0,0.0,0.0,0.0,0.0,0.0
1450210803635546240,0.0,0.0,0.0,0.0,0.0,0.0
1450210803675075279,0.0,0.0,0.0,0.0,0.0,0.0
1450210803716084106,0.0,0.0,0.0,0.0,0.0,0.0
1450210803755339017,0.0,0.0,0.0,0.0,0.0,0.0
1450210803794771314,0.0,0.0,0.0,0.0,0.0,0.0
1450210803835691096,0.0,0.0,0.0,0.0,0.0,0.0
1450210803875097260,0.0,0.0,0.0,0.0,0.0,0.0
1450210803915157942,0.0,0.0,0.0,0.0,0.0,0.0
1450210803955403172,0.0,0.0,0.0,0.0,0.0,0.0
1450210803994985050,0.0,0.0,0.0,0.0,0.0,0.0
1450210804035373633,0.0,0.0,0.0,0.0,0.0,0.0
1450210804075199305,0.0,0.0,0.0,0.0,0.0,0.0
1450210804115566177,0.0,0.0,0.0,0.0,0.0,0.0
1450210804154944102,0.0,0.0,0.0,0.0,0.0,0.0
1450210804202039337,0.0,0.0,0.0,0.0,0.0,0.0
1450210804234993157,0.0,0.0,0.0,0.0,0.0,0.0
1450210804275286128,0.0,0.0,0.0,0.0,0.0,0.0
1450210804315688153,0.0,0.0,0.0,0.0,0.0,-0.0
1450210804355264513,0.0,0.0,0.0,0.0,0.0,0.0
1450210804394885501,0.0,0.0,0.0,0.0,0.0,0.0
1450210804435182247,0.0,0.0,0.0,0.0,0.0,0.0
1450210804475175532,0.0,0.0,0.0,0.0,0.0,0.0
1450210804515321490,0.0,0.0,0.0,0.0,0.0,-0.0
1450210804555329177,0.0,0.0,0.0,0.0,0.0,-0.0
1450210804594955902,0.0,0.0,0.0,0.0,0.0,0.0
1450210804635046829,0.0,0.0,0.0,0.0,0.0,-0.0
1450210804679139932,0.0,0.0,0.0,0.0,0.0,-0.0
1450210804715539771,0.0,0.0,0.0,0.0,0.0,0.0
1450210804755671099,0.0,0.0,0.0,0.0,0.0,-0.0
1450210804795133976,0.0,0.0,0.0,0.0,0.0,-0.0
1450210804835154587,0.0,0.0,0.0,0.0,0.0,-0.0
1450210804875311417,0.0,0.0,0.0,0.0,0.0,-0.0
1450210804915496980,-0.0,0.0,0.0,0.0,0.0,-0.0
1450210804954983668,-0.0,0.0,0.0,0.0,0.0,-0.0
1450210804995029232,-0.0,0.0,0.0,0.0,0.0,-0.0
1450210805036913836,-0.0,0.0,0.0,0.0,0.0,-0.0
1450210805076877128,-0.0,0.0,0.0,0.0,0.0,-0.0
1450210805115374509,-0.0,0.0,0.0,0.0,0.0,-0.0
1450210805154916049,-0.0,0.0,0.0,0.0,0.0,-0.0
1450210805196401021,-0.0,0.0,0.0,0.0,0.0,-0.0
1450210805238087012,-0.0,0.0,0.0,0.0,0.0,-0.0
1450210805274882291,-0.0,0.0,0.0,0.0,0.0,-0.0
1450210805315041677,-0.0,0.0,0.0,0.0,0.0,-0.0
1450210805355040100,-0.0,0.0,0.0,0.0,0.0,-0.0
1450210805396076878,-0.0,0.0,0.0,0.0,0.0,-0.0
1450210805435697615,-0.0,0.0,0.0,0.0,0.0,-0.0
1450210805475962387,-0.0,0.0,0.0,0.0,0.0,-0.0
1450210805515703026,-0.0,0.0,0.0,0.0,0.0,-0.0
1450210805555101249,-0.0,0.0,0.0,0.0,0.0,-0.0
1450210805595164261,-0.0,0.0,0.0,0.0,0.0,-0.0
1450210805635478092,-0.0,0.0,0.0,0.0,0.0,-0.0
1450210805676287456,-0.0,0.0,0.0,0.0,0.0,-0.0
1450210805715038617,-0.0,0.0,0.0,0.0,0.0,-0.0
1450210805756318453,-0.0,0.0,0.0,0.0,0.0,-0.0
1450210805795736718,-0.0,0.0,0.0,0.0,0.0,-0.0
1450210805835111742,-0.0,0.0,0.0,0.0,0.0,-0.0
1450210805874813282,-0.0,0.0,0.0,0.0,0.0,-0.0
1450210805914971263,-0.0,0.0,0.0,0.0,0.0,-0.0
