%time,field.header.seq,field.header.stamp,field.header.frame_id,field.polygon.points0.x,field.polygon.points0.y,field.polygon.points0.z,field.polygon.points1.x,field.polygon.points1.y,field.polygon.points1.z,field.polygon.points2.x,field.polygon.points2.y,field.polygon.points2.z,field.polygon.points3.x,field.polygon.points3.y,field.polygon.points3.z,field.polygon.points4.x,field.polygon.points4.y,field.polygon.points4.z
1450210771283044301,1,1450210771282871421,odom,0.469999998808,0.0,0.0,0.319999992847,-0.254999995232,0.0,-0.52999997139,-0.254999995232,0.0,-0.52999997139,0.254999995232,0.0,0.319999992847,0.254999995232,0.0
1450210771483535703,2,1450210771483082895,odom,0.469999998808,0.0,0.0,0.319999992847,-0.254999995232,0.0,-0.52999997139,-0.254999995232,0.0,-0.52999997139,0.254999995232,0.0,0.319999992847,0.254999995232,0.0
1450210771741942243,3,1450210771741436369,odom,0.469999998808,0.0,0.0,0.319999992847,-0.254999995232,0.0,-0.52999997139,-0.254999995232,0.0,-0.52999997139,0.254999995232,0.0,0.319999992847,0.254999995232,0.0
1450210771981726910,4,1450210771981534695,odom,0.469999998808,0.0,0.0,0.319999992847,-0.254999995232,0.0,-0.52999997139,-0.254999995232,0.0,-0.52999997139,0.254999995232,0.0,0.319999992847,0.254999995232,0.0
1450210772191702119,5,1450210772191518732,odom,0.469999998808,0.0,0.0,0.319999992847,-0.254999995232,0.0,-0.52999997139,-0.254999995232,0.0,-0.52999997139,0.254999995232,0.0,0.319999992847,0.254999995232,0.0
1450210772354799777,6,1450210772354504780,odom,0.469999998808,0.0,0.0,0.319999992847,-0.254999995232,0.0,-0.52999997139,-0.254999995232,0.0,-0.52999997139,0.254999995232,0.0,0.319999992847,0.254999995232,0.0
1450210772569965598,7,1450210772569769741,odom,0.469999998808,0.0,0.0,0.319999992847,-0.254999995232,0.0,-0.52999997139,-0.254999995232,0.0,-0.52999997139,0.254999995232,0.0,0.319999992847,0.254999995232,0.0
1450210772756307691,8,1450210772756171431,odom,0.469999998808,0.0,0.0,0.319999992847,-0.254999995232,0.0,-0.52999997139,-0.254999995232,0.0,-0.52999997139,0.254999995232,0.0,0.319999992847,0.254999995232,0.0
1450210772981113333,9,1450210772980756413,odom,0.469999998808,0.0,0.0,0.319999992847,-0.254999995232,0.0,-0.52999997139,-0.254999995232,0.0,-0.52999997139,0.254999995232,0.0,0.319999992847,0.254999995232,0.0
1450210773206882488,10,1450210773206097483,odom,0.469999998808,0.0,0.0,0.319999992847,-0.254999995232,0.0,-0.52999997139,-0.254999995232,0.0,-0.52999997139,0.254999995232,0.0,0.319999992847,0.254999995232,0.0
1450210773376559819,11,1450210773376201305,odom,0.469999998808,0.0,0.0,0.319999992847,-0.254999995232,0.0,-0.52999997139,-0.254999995232,0.0,-0.52999997139,0.254999995232,0.0,0.319999992847,0.254999995232,0.0
1450210773607657676,12,1450210773607135482,odom,0.469999998808,0.0,0.0,0.319999992847,-0.254999995232,0.0,-0.52999997139,-0.254999995232,0.0,-0.52999997139,0.254999995232,0.0,0.319999992847,0.254999995232,0.0
1450210773810794983,13,1450210773804850829,odom,0.469999998808,0.0,0.0,0.319999992847,-0.254999995232,0.0,-0.52999997139,-0.254999995232,0.0,-0.52999997139,0.254999995232,0.0,0.319999992847,0.254999995232,0.0
1450210773974368033,14,1450210773974092565,odom,0.469999998808,0.0,0.0,0.319999992847,-0.254999995232,0.0,-0.52999997139,-0.254999995232,0.0,-0.52999997139,0.254999995232,0.0,0.319999992847,0.254999995232,0.0
1450210774186034926,15,1450210774184156100,odom,0.469999998808,0.0,0.0,0.319999992847,-0.254999995232,0.0,-0.52999997139,-0.254999995232,0.0,-0.52999997139,0.254999995232,0.0,0.319999992847,0.254999995232,0.0
1450210774422558525,16,1450210774421788222,odom,0.469999998808,0.0,0.0,0.319999992847,-0.254999995232,0.0,-0.52999997139,-0.254999995232,0.0,-0.52999997139,0.254999995232,0.0,0.319999992847,0.254999995232,0.0
1450210774563059687,17,1450210774562719326,odom,0.469999998808,0.0,0.0,0.319999992847,-0.254999995232,0.0,-0.52999997139,-0.254999995232,0.0,-0.52999997139,0.254999995232,0.0,0.319999992847,0.254999995232,0.0
1450210774792867488,18,1450210774791616970,odom,0.469999998808,0.0,0.0,0.319999992847,-0.254999995232,0.0,-0.52999997139,-0.254999995232,0.0,-0.52999997139,0.254999995232,0.0,0.319999992847,0.254999995232,0.0
1450210774977799084,19,1450210774977518310,odom,0.469999998808,0.0,0.0,0.319999992847,-0.254999995232,0.0,-0.52999997139,-0.254999995232,0.0,-0.52999997139,0.254999995232,0.0,0.319999992847,0.254999995232,0.0
1450210775167271266,20,1450210775167115759,odom,0.469999998808,0.0,0.0,0.319999992847,-0.254999995232,0.0,-0.52999997139,-0.254999995232,0.0,-0.52999997139,0.254999995232,0.0,0.319999992847,0.254999995232,0.0
1450210775582298564,21,1450210775581965625,odom,0.469999998808,0.0,0.0,0.319999992847,-0.254999995232,0.0,-0.52999997139,-0.254999995232,0.0,-0.52999997139,0.254999995232,0.0,0.319999992847,0.254999995232,0.0
1450210775838850545,22,1450210775838636149,odom,0.469999998808,0.0,0.0,0.319999992847,-0.254999995232,0.0,-0.52999997139,-0.254999995232,0.0,-0.52999997139,0.254999995232,0.0,0.319999992847,0.254999995232,0.0
1450210776098653853,23,1450210776096202548,odom,0.469999998808,0.0,0.0,0.319999992847,-0.254999995232,0.0,-0.52999997139,-0.254999995232,0.0,-0.52999997139,0.254999995232,0.0,0.319999992847,0.254999995232,0.0
1450210776310457704,24,1450210776309867762,odom,0.469999998808,0.0,0.0,0.319999992847,-0.254999995232,0.0,-0.52999997139,-0.254999995232,0.0,-0.52999997139,0.254999995232,0.0,0.319999992847,0.254999995232,0.0
1450210776407150171,25,1450210776405356113,odom,0.475759595633,0.0,0.0,0.325759589672,-0.254999995232,0.0,-0.524240374565,-0.254999995232,0.0,-0.524240374565,0.254999995232,0.0,0.325759589672,0.254999995232,0.0
1450210776658671359,26,1450210776656235322,odom,0.49013197422,0.00502775702626,0.0,0.34283515811,-0.251543164253,0.0,-0.507117331028,-0.260525852442,0.0,-0.512506961823,0.249445661902,0.0,0.337445557117,0.25842833519,0.0
1450210776868064696,27,1450210776864952927,odom,0.518929123878,0.00517992302775,0.0,0.371632277966,-0.251391023397,0.0,-0.478320211172,-0.260373681784,0.0,-0.483709812164,0.249597832561,0.0,0.366242676973,0.258580505848,0.0
1450210777068495803,28,1450210777068272891,odom,0.541966319084,0.00539295561612,0.0,0.394669502974,-0.251177966595,0.0,-0.455282986164,-0.260160654783,0.0,-0.460672587156,0.249810859561,0.0,0.389279901981,0.258793532848,0.0
1450210777276497993,29,1450210777274838549,odom,0.590837001801,0.0111505249515,0.0,0.446259826422,-0.246962696314,0.0,-0.403550297022,-0.26492702961,0.0,-0.41432890296,0.244959041476,0.0,0.435481190681,0.262923389673,0.0
1450210777463192129,30,1450210777462718763,odom,0.625058889389,0.0222659856081,0.0,0.485969096422,-0.238845154643,0.0,-0.363271534443,-0.274765819311,0.0,-0.384823948145,0.234778568149,0.0,0.46441668272,0.270699232817,0.0
1450210777662727959,31,1450210777662251209,odom,0.673725426197,0.0295090060681,0.0,0.537402749062,-0.233057424426,0.0,-0.311410844326,-0.2779507339,0.0,-0.338346838951,0.231337442994,0.0,0.510466754436,0.276230752468,0.0
1450210777928646463,32,1450210777927283287,odom,0.722294986248,0.0375697463751,0.0,0.588754653931,-0.226422667503,0.0,-0.259537100792,-0.280283600092,0.0,-0.291853666306,0.228691473603,0.0,0.556438148022,0.282552421093,0.0
1450210778138947555,33,1450210778135640636,odom,0.776520490646,0.046568993479,0.0,0.645777463913,-0.218819901347,0.0,-0.201897740364,-0.281642466784,0.0,-0.239591270685,0.226962685585,0.0,0.608083963394,0.28978523612,0.0
1450210778319574558,34,1450210778319216901,odom,0.849636912346,0.0245031714439,0.0,0.705059707165,-0.23361004889,0.0,-0.144750386477,-0.251574397087,0.0,-0.155528992414,0.2583116889,0.0,0.694281101227,0.276276022196,0.0
1450210778451330252,35,1450210778450614392,odom,0.881392121315,0.00954218860716,0.0,0.728705644608,-0.243858382106,0.0,-0.12124683708,-0.234875708818,0.0,-0.115857236087,0.275095790625,0.0,0.734095275402,0.266113132238,0.0
1450210778727959874,36,1450210778727097995,odom,0.935688018799,-0.00696561485529,0.0,0.77504581213,-0.255398869514,0.0,-0.0741948187351,-0.219478204846,0.0,-0.0526424236596,0.290066182613,0.0,0.79659819603,0.254145532846,0.0
1450210778862217652,37,1450210778861400910,odom,0.989440441132,-0.0250647179782,0.0,0.821003913879,-0.268280953169,0.0,-0.0266712978482,-0.205458402634,0.0,0.0110222343355,0.303146749735,0.0,0.858697474003,0.240324184299,0.0
1450210779150981422,38,1450210779150457215,odom,1.04259693623,-0.0447979308665,0.0,0.866535425186,-0.282552689314,0.0,0.021277576685,-0.192891404033,0.0,0.0750743597746,0.314263314009,0.0,0.920332193375,0.224601998925,0.0
1450210779508731235,39,1450210779508075246,odom,1.11579370499,-0.0634999647737,0.0,0.934746623039,-0.297480642796,0.0,0.0915725380182,-0.189975261688,0.0,0.156075775623,0.315929204226,0.0,0.999249875546,0.208423808217,0.0
1450210780007531439,40,1450210780007302578,odom,1.22636222839,-0.0840158760548,0.0,1.04285252094,-0.316070228815,0.0,0.200861677527,-0.199660286307,0.0,0.270707637072,0.305534273386,0.0,1.11269855499,0.189124330878,0.0
1450210780212546941,41,1450210780209932660,odom,1.33104419708,-0.104639619589,0.0,1.14509248734,-0.334741711617,0.0,0.304378867149,-0.209440246224,0.0,0.379559755325,0.294987976551,0.0,1.22027337551,0.169686511159,0.0
1450210780453187815,42,1450210780452727773,odom,1.3937292099,-0.113828450441,0.0,1.20777750015,-0.343930542469,0.0,0.36706379056,-0.218629077077,0.0,0.442244678736,0.285799145699,0.0,1.28295838833,0.160497680306,0.0
1450210780781234845,43,1450210780780961128,odom,1.46566092968,-0.11940446496,0.0,1.28215134144,-0.35145881772,0.0,0.44016045332,-0.235048875213,0.0,0.510006427765,0.270145654678,0.0,1.35199737549,0.153735741973,0.0
1450210780980394721,44,1450210780980001544,odom,1.4963080883,-0.128840059042,0.0,1.31035637856,-0.35894215107,0.0,0.469642668962,-0.233640685678,0.0,0.544823527336,0.270787537098,0.0,1.38553726673,0.145486071706,0.0
1450210781254573962,45,1450210781253919875,odom,1.53762972355,-0.124340415001,0.0,1.35658276081,-0.358321100473,0.0,0.513408601284,-0.250815719366,0.0,0.57791185379,0.255088746548,0.0,1.42108595371,0.147583350539,0.0
1450210781398289444,46,1450210781397830097,odom,1.61315333843,-0.123127758503,0.0,1.43709182739,-0.360882520676,0.0,0.591833949089,-0.271221220493,0.0,0.645630717278,0.235933482647,0.0,1.49088859558,0.146272182465,0.0
1450210781626561964,47,1450210781625518365,odom,1.66571724415,-0.117949478328,0.0,1.49471974373,-0.359372138977,0.0,0.647755801678,-0.287594974041,0.0,0.690822124481,0.220583423972,0.0,1.53778612614,0.148806273937,0.0
1450210781895047753,48,1450210781894459015,odom,1.72134029865,-0.106612049043,0.0,1.55808162689,-0.353333771229,0.0,0.709268033504,-0.308440476656,0.0,0.736203968525,0.200847700238,0.0,1.58501756191,0.155954390764,0.0
1450210782109803460,49,1450210782108142429,odom,1.78807747364,-0.094186373055,0.0,1.63272166252,-0.345959246159,0.0,0.782911539078,-0.32799488306,0.0,0.793690145016,0.181891188025,0.0,1.64350020885,0.163926839828,0.0
1450210782237957558,50,1450210782237639872,odom,1.84286808968,-0.0897678211331,0.0,1.69018161297,-0.343168407679,0.0,0.840229153633,-0.33418571949,0.0,0.845618784428,0.175785779953,0.0,1.69557130337,0.166803106666,0.0
1450210782608590154,51,1450210782607981445,odom,1.88598382473,-0.0745938122272,0.0,1.74140667915,-0.33270701766,0.0,0.89159655571,-0.350671380758,0.0,0.880817949772,0.159214705229,0.0,1.73062801361,0.177179038525,0.0
1450210782813514681,52,1450210782813104063,odom,1.9887098074,-0.0503036342561,0.0,1.85516953468,-0.314296036959,0.0,1.00687766075,-0.368156969547,0.0,0.974561154842,0.140818089247,0.0,1.82285296917,0.194679036736,0.0
1450210782916384070,53,1450210782914666279,odom,2.0429520607,-0.0415472798049,0.0,1.91220903397,-0.306936174631,0.0,1.06453382969,-0.369758725166,0.0,1.02684020996,0.1388463974,0.0,1.87451541424,0.201668947935,0.0
1450210783181415417,54,1450210783181245066,odom,2.09835958481,-0.0159073174,0.0,1.97894859314,-0.286584287882,0.0,1.13468551636,-0.385173141956,0.0,1.07553219795,0.121384732425,0.0,1.91979527473,0.219973579049,0.0
1450210783510830876,55,1450210783510505266,odom,2.18493962288,0.0102137932554,0.0,2.0741686821,-0.264112353325,0.0,1.23345506191,-0.389413803816,0.0,1.15827417374,0.115014411509,0.0,1.99898791313,0.240315884352,0.0
1450210783649644318,56,1450210783647747598,odom,2.23457074165,0.0281153935939,0.0,2.12962245941,-0.248490557075,0.0,1.29174470901,-0.391532123089,0.0,1.20591986179,0.111194521189,0.0,2.04379749298,0.254236072302,0.0
1450210783978355546,57,1450210783976759260,odom,2.31953525543,0.0594014786184,0.0,2.22340774536,-0.220392212272,0.0,1.39048540592,-0.389921635389,0.0,1.28876781464,0.109831817448,0.0,2.12169027328,0.279361248016,0.0
1450210784161028376,58,1450210784160551236,odom,2.34949183464,0.0709090381861,0.0,2.256326437,-0.209884881973,0.0,1.42524218559,-0.388207048178,0.0,1.31824886799,0.110443562269,0.0,2.1493332386,0.288765728474,0.0
1450210784254054887,59,1450210784253774287,odom,2.39782214165,0.0922165215015,0.0,2.31061220169,-0.190483689308,0.0,1.48348224163,-0.386330574751,0.0,1.36597406864,0.109947390854,0.0,2.1931040287,0.305794298649,0.0
1450210784593523926,60,1450210784592420455,odom,2.4401011467,0.113154478371,0.0,2.35888552666,-0.171325728297,0.0,1.53607940674,-0.384609878063,0.0,1.40810883045,0.109073773026,0.0,2.23091483116,0.322357922792,0.0
1450210784778556017,61,1450210784777992537,odom,2.52634954453,0.14721904695,0.0,2.45116424561,-0.138914078474,0.0,1.63304960728,-0.369540214539,0.0,1.49467384815,0.121328577399,0.0,2.31278848648,0.351954698563,0.0
1450210784977469829,62,1450210784977039236,odom,2.57069778442,0.159720793366,0.0,2.4955124855,-0.126412332058,0.0,1.67739784718,-0.357038468122,0.0,1.53902208805,0.133830323815,0.0,2.35713672638,0.364456444979,0.0
1450210785092495361,63,1450210785092259626,odom,2.61087608337,0.17630238831,0.0,2.53871870041,-0.110609307885,0.0,1.72308707237,-0.349868267775,0.0,1.57953166962,0.139510765672,0.0,2.39516329765,0.378769725561,0.0
1450210785248469857,64,1450210785244935943,odom,2.65379190445,0.183366313577,0.0,2.57860660553,-0.102766804397,0.0,1.76049184799,-0.33339291811,0.0,1.62211620808,0.157475844026,0.0,2.44023084641,0.388101965189,0.0
1450210785580269669,65,1450210785577989458,odom,2.70918512344,0.199139744043,0.0,2.63399982452,-0.0869933739305,0.0,1.8158851862,-0.317619502544,0.0,1.67750942707,0.173249274492,0.0,2.4956240654,0.403875410557,0.0
1450210785783867530,66,1450210785783632855,odom,2.77982592583,0.213798031211,0.0,2.7016210556,-0.0715245604515,0.0,1.88111484051,-0.293492108583,0.0,1.74793434143,0.198811605573,0.0,2.56844043732,0.420779138803,0.0
1450210786015999296,67,1450210786012485736,odom,2.81874418259,0.224326372147,0.0,2.74053907394,-0.0609962195158,0.0,1.92003297806,-0.282963752747,0.0,1.78685247898,0.209339946508,0.0,2.60735869408,0.43130749464,0.0
1450210786403131174,68,1450210786402781695,odom,2.88541245461,0.242550969124,0.0,2.80720734596,-0.0427716262639,0.0,1.98670125008,-0.264739155769,0.0,1.853520751,0.227564543486,0.0,2.67402696609,0.449532091618,0.0
1450210786620110766,69,1450210786619762364,odom,2.91320300102,0.250100553036,0.0,2.83499789238,-0.0352220498025,0.0,2.01449179649,-0.257189571857,0.0,1.88131129742,0.235114127398,0.0,2.70181751251,0.457081645727,0.0
1450210786737343186,70,1450210786737188956,odom,2.9228219986,0.247525796294,0.0,2.84160614014,-0.0369544029236,0.0,2.01880025864,-0.250238567591,0.0,1.89082968235,0.2434450984,0.0,2.71363568306,0.456729233265,0.0
1450210786956932624,71,1450210786956784401,odom,2.92433023453,0.253079235554,0.0,2.84612512589,-0.0322433710098,0.0,2.02561903,-0.254210919142,0.0,1.89243853092,0.238092795014,0.0,2.71294474602,0.460060328245,0.0
1450210787098624092,72,1450210787096695685,odom,2.91876268387,0.25160458684,0.0,2.84055781364,-0.0337180010974,0.0,2.02005147934,-0.255685538054,0.0,1.88687098026,0.236618176103,0.0,2.70737719536,0.458585709333,0.0
1450210787304852082,73,1450210787304250151,odom,2.91876268387,0.25160458684,0.0,2.84055781364,-0.0337180010974,0.0,2.02005147934,-0.255685538054,0.0,1.88687098026,0.236618176103,0.0,2.70737719536,0.458585709333,0.0
1450210787494568686,74,1450210787494400640,odom,2.91876268387,0.25160458684,0.0,2.84055781364,-0.0337180010974,0.0,2.02005147934,-0.255685538054,0.0,1.88687098026,0.236618176103,0.0,2.70737719536,0.458585709333,0.0
1450210787818076664,75,1450210787817677668,odom,2.91876268387,0.25160458684,0.0,2.84055781364,-0.0337180010974,0.0,2.02005147934,-0.255685538054,0.0,1.88687098026,0.236618176103,0.0,2.70737719536,0.458585709333,0.0
1450210788107963778,76,1450210788107722645,odom,2.91876268387,0.25160458684,0.0,2.84055781364,-0.0337180010974,0.0,2.02005147934,-0.255685538054,0.0,1.88687098026,0.236618176103,0.0,2.70737719536,0.458585709333,0.0
1450210788348550321,77,1450210788348028966,odom,2.91876268387,0.25160458684,0.0,2.84055781364,-0.0337180010974,0.0,2.02005147934,-0.255685538054,0.0,1.88687098026,0.236618176103,0.0,2.70737719536,0.458585709333,0.0
1450210788539055200,78,1450210788538379891,odom,2.91876268387,0.25160458684,0.0,2.84055781364,-0.0337180010974,0.0,2.02005147934,-0.255685538054,0.0,1.88687098026,0.236618176103,0.0,2.70737719536,0.458585709333,0.0
1450210788837576270,79,1450210788837148148,odom,2.91876268387,0.25160458684,0.0,2.84055781364,-0.0337180010974,0.0,2.02005147934,-0.255685538054,0.0,1.88687098026,0.236618176103,0.0,2.70737719536,0.458585709333,0.0
1450210789163649142,80,1450210789162544479,odom,2.91876268387,0.25160458684,0.0,2.84055781364,-0.0337180010974,0.0,2.02005147934,-0.255685538054,0.0,1.88687098026,0.236618176103,0.0,2.70737719536,0.458585709333,0.0
1450210789394040064,81,1450210789393824056,odom,2.91876268387,0.25160458684,0.0,2.84055781364,-0.0337180010974,0.0,2.02005147934,-0.255685538054,0.0,1.88687098026,0.236618176103,0.0,2.70737719536,0.458585709333,0.0
1450210789498903994,82,1450210789498080854,odom,2.91876268387,0.25160458684,0.0,2.84055781364,-0.0337180010974,0.0,2.02005147934,-0.255685538054,0.0,1.88687098026,0.236618176103,0.0,2.70737719536,0.458585709333,0.0
1450210789678106698,83,1450210789677766671,odom,2.91876268387,0.25160458684,0.0,2.84055781364,-0.0337180010974,0.0,2.02005147934,-0.255685538054,0.0,1.88687098026,0.236618176103,0.0,2.70737719536,0.458585709333,0.0
1450210789863451670,84,1450210789860963432,odom,2.91876268387,0.25160458684,0.0,2.84055781364,-0.0337180010974,0.0,2.02005147934,-0.255685538054,0.0,1.88687098026,0.236618176103,0.0,2.70737719536,0.458585709333,0.0
1450210790406396983,85,1450210790404778259,odom,2.91876268387,0.25160458684,0.0,2.84055781364,-0.0337180010974,0.0,2.02005147934,-0.255685538054,0.0,1.88687098026,0.236618176103,0.0,2.70737719536,0.458585709333,0.0
1450210790573152058,86,1450210790571489416,odom,2.91876268387,0.25160458684,0.0,2.84055781364,-0.0337180010974,0.0,2.02005147934,-0.255685538054,0.0,1.88687098026,0.236618176103,0.0,2.70737719536,0.458585709333,0.0
1450210790746983309,87,1450210790746784919,odom,2.91876268387,0.25160458684,0.0,2.84055781364,-0.0337180010974,0.0,2.02005147934,-0.255685538054,0.0,1.88687098026,0.236618176103,0.0,2.70737719536,0.458585709333,0.0
1450210790997315156,88,1450210790996962365,odom,2.91876268387,0.25160458684,0.0,2.84055781364,-0.0337180010974,0.0,2.02005147934,-0.255685538054,0.0,1.88687098026,0.236618176103,0.0,2.70737719536,0.458585709333,0.0
1450210791256246493,89,1450210791252990158,odom,2.91876268387,0.25160458684,0.0,2.84055781364,-0.0337180010974,0.0,2.02005147934,-0.255685538054,0.0,1.88687098026,0.236618176103,0.0,2.70737719536,0.458585709333,0.0
1450210791405012505,90,1450210791403035954,odom,2.91876268387,0.25160458684,0.0,2.84055781364,-0.0337180010974,0.0,2.02005147934,-0.255685538054,0.0,1.88687098026,0.236618176103,0.0,2.70737719536,0.458585709333,0.0
1450210791589236817,91,1450210791589074116,odom,2.91876268387,0.25160458684,0.0,2.84055781364,-0.0337180010974,0.0,2.02005147934,-0.255685538054,0.0,1.88687098026,0.236618176103,0.0,2.70737719536,0.458585709333,0.0
1450210791790026408,92,1450210791789691340,odom,2.91876268387,0.25160458684,0.0,2.84055781364,-0.0337180010974,0.0,2.02005147934,-0.255685538054,0.0,1.88687098026,0.236618176103,0.0,2.70737719536,0.458585709333,0.0
1450210792274054189,93,1450210792273090705,odom,2.91876268387,0.25160458684,0.0,2.84055781364,-0.0337180010974,0.0,2.02005147934,-0.255685538054,0.0,1.88687098026,0.236618176103,0.0,2.70737719536,0.458585709333,0.0
1450210792680452587,94,1450210792680336770,odom,2.91876268387,0.25160458684,0.0,2.84055781364,-0.0337180010974,0.0,2.02005147934,-0.255685538054,0.0,1.88687098026,0.236618176103,0.0,2.70737719536,0.458585709333,0.0
1450210792954812052,95,1450210792953509903,odom,2.91876268387,0.25160458684,0.0,2.84055781364,-0.0337180010974,0.0,2.02005147934,-0.255685538054,0.0,1.88687098026,0.236618176103,0.0,2.70737719536,0.458585709333,0.0
1450210793164225562,96,1450210793163787124,odom,2.91876268387,0.25160458684,0.0,2.84055781364,-0.0337180010974,0.0,2.02005147934,-0.255685538054,0.0,1.88687098026,0.236618176103,0.0,2.70737719536,0.458585709333,0.0
1450210793272202294,97,1450210793271833307,odom,2.91876268387,0.25160458684,0.0,2.84055781364,-0.0337180010974,0.0,2.02005147934,-0.255685538054,0.0,1.88687098026,0.236618176103,0.0,2.70737719536,0.458585709333,0.0
1450210793593109909,98,1450210793586164902,odom,2.91876268387,0.25160458684,0.0,2.84055781364,-0.0337180010974,0.0,2.02005147934,-0.255685538054,0.0,1.88687098026,0.236618176103,0.0,2.70737719536,0.458585709333,0.0
1450210793765782165,99,1450210793764431921,odom,2.91876268387,0.25160458684,0.0,2.84055781364,-0.0337180010974,0.0,2.02005147934,-0.255685538054,0.0,1.88687098026,0.236618176103,0.0,2.70737719536,0.458585709333,0.0
1450210794072619909,100,1450210794069697642,odom,2.91876268387,0.25160458684,0.0,2.84055781364,-0.0337180010974,0.0,2.02005147934,-0.255685538054,0.0,1.88687098026,0.236618176103,0.0,2.70737719536,0.458585709333,0.0
1450210794382212114,101,1450210794381708786,odom,2.91876268387,0.25160458684,0.0,2.84055781364,-0.0337180010974,0.0,2.02005147934,-0.255685538054,0.0,1.88687098026,0.236618176103,0.0,2.70737719536,0.458585709333,0.0
1450210794645261679,102,1450210794644867716,odom,2.91876268387,0.25160458684,0.0,2.84055781364,-0.0337180010974,0.0,2.02005147934,-0.255685538054,0.0,1.88687098026,0.236618176103,0.0,2.70737719536,0.458585709333,0.0
1450210794787446843,103,1450210794785929370,odom,2.91876268387,0.25160458684,0.0,2.84055781364,-0.0337180010974,0.0,2.02005147934,-0.255685538054,0.0,1.88687098026,0.236618176103,0.0,2.70737719536,0.458585709333,0.0
1450210794954887692,104,1450210794949927418,odom,2.91876268387,0.25160458684,0.0,2.84055781364,-0.0337180010974,0.0,2.02005147934,-0.255685538054,0.0,1.88687098026,0.236618176103,0.0,2.70737719536,0.458585709333,0.0
1450210795142755739,105,1450210795141963990,odom,2.91876268387,0.25160458684,0.0,2.84055781364,-0.0337180010974,0.0,2.02005147934,-0.255685538054,0.0,1.88687098026,0.236618176103,0.0,2.70737719536,0.458585709333,0.0
1450210795505588819,106,1450210795505353491,odom,2.91876268387,0.25160458684,0.0,2.84055781364,-0.0337180010974,0.0,2.02005147934,-0.255685538054,0.0,1.88687098026,0.236618176103,0.0,2.70737719536,0.458585709333,0.0
1450210795607885824,107,1450210795607604577,odom,2.91876268387,0.25160458684,0.0,2.84055781364,-0.0337180010974,0.0,2.02005147934,-0.255685538054,0.0,1.88687098026,0.236618176103,0.0,2.70737719536,0.458585709333,0.0
1450210795698074335,108,1450210795697547451,odom,2.91876268387,0.25160458684,0.0,2.84055781364,-0.0337180010974,0.0,2.02005147934,-0.255685538054,0.0,1.88687098026,0.236618176103,0.0,2.70737719536,0.458585709333,0.0
1450210795928042942,109,1450210795927685329,odom,2.91876268387,0.25160458684,0.0,2.84055781364,-0.0337180010974,0.0,2.02005147934,-0.255685538054,0.0,1.88687098026,0.236618176103,0.0,2.70737719536,0.458585709333,0.0
1450210796145740141,110,1450210796145396194,odom,2.91876268387,0.25160458684,0.0,2.84055781364,-0.0337180010974,0.0,2.02005147934,-0.255685538054,0.0,1.88687098026,0.236618176103,0.0,2.70737719536,0.458585709333,0.0
1450210796318632219,111,1450210796318329519,odom,2.91876268387,0.25160458684,0.0,2.84055781364,-0.0337180010974,0.0,2.02005147934,-0.255685538054,0.0,1.88687098026,0.236618176103,0.0,2.70737719536,0.458585709333,0.0
1450210796541710630,112,1450210796536676517,odom,2.91876268387,0.25160458684,0.0,2.84055781364,-0.0337180010974,0.0,2.02005147934,-0.255685538054,0.0,1.88687098026,0.236618176103,0.0,2.70737719536,0.458585709333,0.0
1450210796760394642,113,1450210796760301260,odom,2.91876268387,0.25160458684,0.0,2.84055781364,-0.0337180010974,0.0,2.02005147934,-0.255685538054,0.0,1.88687098026,0.236618176103,0.0,2.70737719536,0.458585709333,0.0
1450210796951706393,114,1450210796950899086,odom,2.91876268387,0.25160458684,0.0,2.84055781364,-0.0337180010974,0.0,2.02005147934,-0.255685538054,0.0,1.88687098026,0.236618176103,0.0,2.70737719536,0.458585709333,0.0
1450210797207064843,115,1450210797206277694,odom,2.91876268387,0.25160458684,0.0,2.84055781364,-0.0337180010974,0.0,2.02005147934,-0.255685538054,0.0,1.88687098026,0.236618176103,0.0,2.70737719536,0.458585709333,0.0
1450210797355575572,116,1450210797354946711,odom,2.90763545036,0.248625919223,0.0,2.82943034172,-0.0366966798902,0.0,2.00892424583,-0.258664220572,0.0,1.87574374676,0.233639493585,0.0,2.69624996185,0.455607026815,0.0
1450210797553641286,117,1450210797548551915,odom,2.89651584625,0.245617821813,0.0,2.81831097603,-0.0397047773004,0.0,1.99780476093,-0.261672317982,0.0,1.86462426186,0.230631396174,0.0,2.68513035774,0.452598929405,0.0
1450210797822867905,118,1450210797821681035,odom,2.8687171936,0.238097578287,0.0,2.79051232338,-0.0472250171006,0.0,1.97000610828,-0.269192546606,0.0,1.83682560921,0.223111152649,0.0,2.65733170509,0.445078700781,0.0
1450210797989407485,119,1450210797988601993,odom,2.84091854095,0.230577334762,0.0,2.76271367073,-0.0547452606261,0.0,1.94220745564,-0.276712805033,0.0,1.80902695656,0.215590909123,0.0,2.62953305244,0.437558442354,0.0
1450210798278355430,120,1450210798276784960,odom,2.81867957115,0.224561139941,0.0,2.74047470093,-0.0607614554465,0.0,1.91996848583,-0.282728999853,0.0,1.78678798676,0.209574714303,0.0,2.60729408264,0.431542247534,0.0
1450210798400221898,121,1450210798399791740,odom,2.79793047905,0.223967328668,0.0,2.72274518013,-0.062165800482,0.0,1.9046305418,-0.292791932821,0.0,1.76625490189,0.198076859117,0.0,2.58436942101,0.42870298028,0.0
1450210798538655261,122,1450210798537571954,odom,2.79647302628,0.218427613378,0.0,2.71826815605,-0.066894993186,0.0,1.89776194096,-0.288862526417,0.0,1.76458144188,0.203441187739,0.0,2.58508753777,0.42540872097,0.0
1450210798801473669,123,1450210798801046212,odom,2.79647302628,0.218427613378,0.0,2.71826815605,-0.066894993186,0.0,1.89776194096,-0.288862526417,0.0,1.76458144188,0.203441187739,0.0,2.58508753777,0.42540872097,0.0
1450210798897375472,124,1450210798897210537,odom,2.79647302628,0.218427613378,0.0,2.71826815605,-0.066894993186,0.0,1.89776194096,-0.288862526417,0.0,1.76458144188,0.203441187739,0.0,2.58508753777,0.42540872097,0.0
1450210799175414736,125,1450210799175282095,odom,2.79092144966,0.216894224286,0.0,2.71271657944,-0.0684283748269,0.0,1.89221036434,-0.290395915508,0.0,1.75902974606,0.201907798648,0.0,2.57953596115,0.423875331879,0.0
1450210799471720895,126,1450210799471359612,odom,2.76463699341,0.214708343148,0.0,2.68945169449,-0.0714247748256,0.0,1.87133693695,-0.302050888538,0.0,1.73296129704,0.188817888498,0.0,2.55107593536,0.419444024563,0.0
1450210799599257915,127,1450210799597425268,odom,2.74094867706,0.203123107553,0.0,2.66274356842,-0.0821994915605,0.0,1.84223747253,-0.304167032242,0.0,1.70905697346,0.188136681914,0.0,2.52956318855,0.410104215145,0.0
1450210799767691363,128,1450210799767435966,odom,2.70763874054,0.193922802806,0.0,2.62943387032,-0.0913997963071,0.0,1.80892765522,-0.313367336988,0.0,1.67574715614,0.178936377168,0.0,2.49625325203,0.400903910398,0.0
1450210799936469755,129,1450210799934336096,odom,2.68137049675,0.191678255796,0.0,2.60618519783,-0.0944548621774,0.0,1.7880705595,-0.325080990791,0.0,1.64969491959,0.165787786245,0.0,2.46780943871,0.39641392231,0.0
1450210800204086003,130,1450210800202343281,odom,2.63702225685,0.17917650938,0.0,2.56183695793,-0.106956616044,0.0,1.7437223196,-0.337582737207,0.0,1.60534667969,0.153286039829,0.0,2.42346119881,0.383912175894,0.0
1450210800382037746,131,1450210800380289392,odom,2.56653189659,0.163801759481,0.0,2.49437451363,-0.123109929264,0.0,1.67874288559,-0.362368881702,0.0,1.53518748283,0.127010151744,0.0,2.35081911087,0.366269111633,0.0
1450210800520371136,132,1450210800514013851,odom,2.52081847191,0.145628198981,0.0,2.44563317299,-0.140504911542,0.0,1.62751841545,-0.371131032705,0.0,1.48914277554,0.119737736881,0.0,2.30725741386,0.350363880396,0.0
1450210800778821668,133,1450210800778692680,odom,2.45021867752,0.130633682013,0.0,2.37806129456,-0.156278014183,0.0,1.56242966652,-0.395536959171,0.0,1.41887426376,0.0938420668244,0.0,2.2345058918,0.333101034164,0.0
1450210800957141637,134,1450210800956776305,odom,2.38530802727,0.116515129805,0.0,2.31618666649,-0.171143084764,0.0,1.50312900543,-0.419008165598,0.0,1.3544100523,0.0688264742494,0.0,2.16746759415,0.316691547632,0.0
1450210801147658927,135,1450210801141457157,odom,2.3150498867,0.100002802908,0.0,2.24897241592,-0.188369825482,0.0,1.43857955933,-0.444813340902,0.0,1.2847135067,0.0414224304259,0.0,2.0951063633,0.297865927219,0.0
1450210801330181008,136,1450210801328599142,odom,2.24506378174,0.0824592486024,0.0,2.18203735352,-0.206595554948,0.0,1.37439978123,-0.471588850021,0.0,1.21540379524,0.0129937082529,0.0,2.02304148674,0.277987003326,0.0
1450210801837503820,137,1450210801835178352,odom,2.13296294212,0.0358323045075,0.0,2.06384181976,-0.251825928688,0.0,1.2507840395,-0.499690979719,0.0,1.10206496716,-0.0118563538417,0.0,1.91512274742,0.23600871861,0.0
1450210802170701210,138,1450210802169969313,odom,2.00839543343,-0.0101095307618,0.0,1.9332100153,-0.296242654324,0.0,1.11509537697,-0.526868760586,0.0,0.976719737053,-0.035999994725,0.0,1.79483437538,0.194626122713,0.0
1450210802371451790,139,1450210802371207307,odom,1.89230072498,-0.0554070025682,0.0,1.8080830574,-0.339013040066,0.0,0.983069002628,-0.543590009212,0.0,0.860322833061,-0.0485815405846,0.0,1.68533694744,0.155995413661,0.0
1450210802568909542,140,1450210802568691863,odom,1.8216073513,-0.0817912071943,0.0,1.73141467571,-0.363554000854,0.0,0.902261197567,-0.550648987293,0.0,0.790004253387,-0.0531569048762,0.0,1.61915767193,0.133938074112,0.0
1450210802764733621,141,1450210802761395828,odom,1.79351568222,-0.0881299674511,0.0,1.70332300663,-0.369892776012,0.0,0.874169528484,-0.556987762451,0.0,0.761912584305,-0.0594956688583,0.0,1.59106600285,0.127599298954,0.0
1450210803076878970,142,1450210803076675715,odom,1.6751999855,-0.127292826772,0.0,1.57612109184,-0.406055033207,0.0,0.741453588009,-0.566772758961,0.0,0.645022928715,-0.0659722983837,0.0,1.47969043255,0.0947454571724,0.0
1450210803183098054,143,1450210803182856889,odom,1.6053892374,-0.145638272166,0.0,1.50336992741,-0.423337846994,0.0,0.667050600052,-0.575226008892,0.0,0.575917720795,-0.0734344124794,0.0,1.41223704815,0.0784537270665,0.0
1450210803513759990,144,1450210803512570429,odom,1.49919629097,-0.173875778913,0.0,1.39133071899,-0.44935721159,0.0,0.551988124847,-0.583536207676,0.0,0.471480756998,-0.0799306631088,0.0,1.31082332134,0.0542483441532,0.0
1450210803806448065,145,1450210803805790305,odom,1.41525816917,-0.196737274528,0.0,1.30159449577,-0.469877481461,0.0,0.459603577852,-0.586287379265,0.0,0.389757603407,-0.0810928568244,0.0,1.23174846172,0.0353170707822,0.0
1450210804056832981,146,1450210804056369732,odom,1.36172151566,-0.20921459794,0.0,1.24517762661,-0.481138378382,0.0,0.40200355649,-0.588643789291,0.0,0.337500333786,-0.0827393010259,0.0,1.18067443371,0.0247660893947,0.0
1450210804377154818,147,1450210804358511740,odom,1.31031346321,-0.215861201286,0.0,1.19376969337,-0.487784981728,0.0,0.35059556365,-0.595290362835,0.0,0.286092340946,-0.0893859043717,0.0,1.12926638126,0.0181194916368,0.0
1450210804619377018,148,1450210804617955861,odom,1.29661750793,-0.222491815686,0.0,1.17720663548,-0.493168801069,0.0,0.332943499088,-0.591757655144,0.0,0.273790180683,-0.0851997733116,0.0,1.11805331707,0.0133890798315,0.0
1450210804892738116,149,1450210804892300147,odom,1.28517985344,-0.223858103156,0.0,1.16576886177,-0.494535058737,0.0,0.321505755186,-0.593123912811,0.0,0.262352436781,-0.0865660533309,0.0,1.10661554337,0.0120227970183,0.0
1450210805247238477,150,1450210805246622261,odom,1.28743433952,-0.218563556671,0.0,1.17089045048,-0.490487337112,0.0,0.32771641016,-0.59799271822,0.0,0.263213187456,-0.0920882597566,0.0,1.10638725758,0.0154171353206,0.0
1450210805438493522,151,1450210805435836452,odom,1.28743433952,-0.218563556671,0.0,1.17089045048,-0.490487337112,0.0,0.32771641016,-0.59799271822,0.0,0.263213187456,-0.0920882597566,0.0,1.10638725758,0.0154171353206,0.0
1450210805676303055,152,1450210805675333608,odom,1.28743433952,-0.218563556671,0.0,1.17089045048,-0.490487337112,0.0,0.32771641016,-0.59799271822,0.0,0.263213187456,-0.0920882597566,0.0,1.10638725758,0.0154171353206,0.0
