%time,field.header.seq,field.header.stamp,field.header.frame_id,field.status.goal_id.stamp,field.status.goal_id.id,field.status.status,field.status.text,field.feedback.base_position.header.seq,field.feedback.base_position.header.stamp,field.feedback.base_position.header.frame_id,field.feedback.base_position.pose.position.x,field.feedback.base_position.pose.position.y,field.feedback.base_position.pose.position.z,field.feedback.base_position.pose.orientation.x,field.feedback.base_position.pose.orientation.y,field.feedback.base_position.pose.orientation.z,field.feedback.base_position.pose.orientation.w
1450210773707287863,0,1450210773706996149,,1450210773706867385,/move_base-2-1450210773.706867385,1,This goal has been accepted by the simple action server,0,1450210773675176176,odom,0.0,0.0,0.0,0.0,0.0,0.0,1.0
1450210773757938424,1,1450210773757070836,,1450210773706867385,/move_base-2-1450210773.706867385,1,This goal has been accepted by the simple action server,0,1450210773714546993,odom,0.0,0.0,0.0,0.0,0.0,0.0,1.0
1450210773810771402,2,1450210773807270530,,1450210773778218205,/move_base-3-1450210773.778218205,1,This goal has been accepted by the simple action server,0,1450210773794551056,odom,0.0,0.0,0.0,0.0,0.0,0.0,1.0
1450210773857356262,3,1450210773857060385,,1450210773778218205,/move_base-3-1450210773.778218205,1,This goal has been accepted by the simple action server,0,1450210773834548260,odom,0.0,0.0,0.0,0.0,0.0,0.0,1.0
1450210773908193045,4,1450210773907932524,,1450210773868512486,/move_base-4-1450210773.868512486,1,This goal has been accepted by the simple action server,0,1450210773874545028,odom,0.0,0.0,0.0,0.0,0.0,0.0,1.0
1450210773958366642,5,1450210773958000684,,1450210773868512486,/move_base-4-1450210773.868512486,1,This goal has been accepted by the simple action server,0,1450210773954550020,odom,0.0,0.0,0.0,0.0,0.0,0.0,1.0
1450210774008572298,6,1450210774007058185,,1450210773999720089,/move_base-5-1450210773.999720089,1,This goal has been accepted by the simple action server,0,1450210773994539210,odom,0.0,0.0,0.0,0.0,0.0,0.0,1.0
1450210774057713708,7,1450210774057055457,,1450210773999720089,/move_base-5-1450210773.999720089,1,This goal has been accepted by the simple action server,0,1450210774034558344,odom,0.0,0.0,0.0,0.0,0.0,0.0,1.0
1450210774109733644,8,1450210774107182534,,1450210774094796048,/move_base-6-1450210774.94796048,1,This goal has been accepted by the simple action server,0,1450210774074557833,odom,0.0,0.0,0.0,0.0,0.0,0.0,1.0
1450210774158233352,9,1450210774157601865,,1450210774094796048,/move_base-6-1450210774.94796048,1,This goal has been accepted by the simple action server,0,1450210774154546012,odom,0.0,0.0,0.0,0.0,0.0,0.0,1.0
1450210774208581385,10,1450210774208029165,,1450210774094796048,/move_base-6-1450210774.94796048,1,This goal has been accepted by the simple action server,0,1450210774194545650,odom,0.0,0.0,0.0,0.0,0.0,0.0,1.0
1450210774401134448,11,1450210774401037430,,1450210774400838392,/move_base-8-1450210774.400838392,1,This goal has been accepted by the simple action server,0,1450210774394560455,odom,0.0,0.0,0.0,0.0,0.0,0.0,1.0
1450210774451666364,12,1450210774451109609,,1450210774400838392,/move_base-8-1450210774.400838392,1,This goal has been accepted by the simple action server,0,1450210774434545121,odom,0.0,0.0,0.0,0.0,0.0,0.0,1.0
1450210774501382757,13,1450210774501137870,,1450210774500633065,/move_base-9-1450210774.500633065,1,This goal has been accepted by the simple action server,0,1450210774474551278,odom,0.0,0.0,0.0,0.0,0.0,0.0,1.0
1450210774552316619,14,1450210774551617143,,1450210774500633065,/move_base-9-1450210774.500633065,1,This goal has been accepted by the simple action server,0,1450210774514604633,odom,0.0,0.0,0.0,0.0,0.0,0.0,1.0
1450210774601351251,15,1450210774601112995,,1450210774500633065,/move_base-9-1450210774.500633065,1,This goal has been accepted by the simple action server,0,1450210774594558467,odom,0.0,0.0,0.0,0.0,0.0,0.0,1.0
1450210774692709960,16,1450210774692293203,,1450210774691776830,/move_base-10-1450210774.691776830,1,This goal has been accepted by the simple action server,0,1450210774674551985,odom,0.0,0.0,0.0,0.0,0.0,0.0,1.0
1450210774747274332,17,1450210774746936950,,1450210774691776830,/move_base-10-1450210774.691776830,1,This goal has been accepted by the simple action server,0,1450210774714550168,odom,0.0,0.0,0.0,0.0,0.0,0.0,1.0
1450210774792917175,18,1450210774792425371,,1450210774779673213,/move_base-12-1450210774.779673213,1,This goal has been accepted by the simple action server,0,1450210774754547146,odom,0.0,0.0,0.0,0.0,0.0,0.0,1.0
1450210774843002427,19,1450210774842384261,,1450210774779673213,/move_base-12-1450210774.779673213,1,This goal has been accepted by the simple action server,0,1450210774834545518,odom,0.0,0.0,0.0,0.0,0.0,0.0,1.0
1450210774895786595,20,1450210774892470392,,1450210774891429344,/move_base-13-1450210774.891429344,1,This goal has been accepted by the simple action server,0,1450210774874553311,odom,0.0,0.0,0.0,0.0,0.0,0.0,1.0
1450210774946128660,21,1450210774942372373,,1450210774891429344,/move_base-13-1450210774.891429344,1,This goal has been accepted by the simple action server,0,1450210774914547788,odom,0.0,0.0,0.0,0.0,0.0,0.0,1.0
1450210774995555625,22,1450210774995267277,,1450210774972719516,/move_base-14-1450210774.972719516,1,This goal has been accepted by the simple action server,0,1450210774954546416,odom,0.0,0.0,0.0,0.0,0.0,0.0,1.0
1450210775043186841,23,1450210775042394611,,1450210774972719516,/move_base-14-1450210774.972719516,1,This goal has been accepted by the simple action server,0,1450210775034559600,odom,0.0,0.0,0.0,0.0,0.0,0.0,1.0
1450210775093133038,24,1450210775092468657,,1450210775091769454,/move_base-15-1450210775.91769454,1,This goal has been accepted by the simple action server,0,1450210775074611193,odom,0.0,0.0,0.0,0.0,0.0,0.0,1.0
1450210775148119753,25,1450210775142308842,,1450210775091769454,/move_base-15-1450210775.91769454,1,This goal has been accepted by the simple action server,0,1450210775114540090,odom,0.0,0.0,0.0,0.0,0.0,0.0,1.0
1450210775215937953,26,1450210775215810437,,1450210775091769454,/move_base-15-1450210775.91769454,1,This goal has been accepted by the simple action server,0,1450210775194826336,odom,0.0,0.0,0.0,0.0,0.0,0.0,1.0
1450210775265622970,27,1450210775264603289,,1450210775091769454,/move_base-15-1450210775.91769454,1,This goal has been accepted by the simple action server,0,1450210775234547442,odom,0.0,0.0,0.0,0.0,0.0,0.0,1.0
1450210775321205970,28,1450210775320212511,,1450210775091769454,/move_base-15-1450210775.91769454,1,This goal has been accepted by the simple action server,0,1450210775314545153,odom,0.0,0.0,0.0,0.0,0.0,0.0,1.0
1450210775377222568,29,1450210775376476375,,1450210775091769454,/move_base-15-1450210775.91769454,1,This goal has been accepted by the simple action server,0,1450210775358928860,odom,0.0,0.0,0.0,0.0,0.0,0.0,1.0
1450210775422639057,30,1450210775422033663,,1450210775091769454,/move_base-15-1450210775.91769454,1,This goal has been accepted by the simple action server,0,1450210775394546629,odom,0.0,0.0,0.0,0.0,0.0,0.0,1.0
1450210775466913787,31,1450210775466532052,,1450210775091769454,/move_base-15-1450210775.91769454,1,This goal has been accepted by the simple action server,0,1450210775434540818,odom,0.0,0.0,0.0,0.0,0.0,0.0,1.0
1450210775526439425,32,1450210775523480419,,1450210775091769454,/move_base-15-1450210775.91769454,1,This goal has been accepted by the simple action server,0,1450210775514546947,odom,0.0,0.0,0.0,0.0,0.0,0.0,1.0
1450210775578458303,33,1450210775578007114,,1450210775091769454,/move_base-15-1450210775.91769454,1,This goal has been accepted by the simple action server,0,1450210775554544280,odom,0.0,0.0,0.0,0.0,0.0,0.0,1.0
1450210775613258384,34,1450210775612960546,,1450210775091769454,/move_base-15-1450210775.91769454,1,This goal has been accepted by the simple action server,0,1450210775594549471,odom,0.0,0.0,0.0,0.0,0.0,0.0,1.0
1450210775672568775,35,1450210775672185696,,1450210775091769454,/move_base-15-1450210775.91769454,1,This goal has been accepted by the simple action server,0,1450210775636194530,odom,0.0,0.0,0.0,0.0,0.0,0.0,1.0
1450210775718422299,36,1450210775715131004,,1450210775091769454,/move_base-15-1450210775.91769454,1,This goal has been accepted by the simple action server,0,1450210775674561889,odom,0.0,0.0,0.0,0.0,0.0,0.0,1.0
1450210775758194437,37,1450210775758044790,,1450210775091769454,/move_base-15-1450210775.91769454,1,This goal has been accepted by the simple action server,0,1450210775754565943,odom,0.0,0.0,0.0,0.0,0.0,0.0,1.0
1450210775810916502,38,1450210775810565042,,1450210775091769454,/move_base-15-1450210775.91769454,1,This goal has been accepted by the simple action server,0,1450210775794554764,odom,0.0,0.0,0.0,0.0,0.0,0.0,1.0
1450210775859009709,39,1450210775858860439,,1450210775091769454,/move_base-15-1450210775.91769454,1,This goal has been accepted by the simple action server,0,1450210775834555586,odom,0.0,0.0,0.0,0.0,0.0,0.0,1.0
1450210775918814193,40,1450210775914948869,,1450210775091769454,/move_base-15-1450210775.91769454,1,This goal has been accepted by the simple action server,0,1450210775874541541,odom,0.0,0.0,0.0,0.0,0.0,0.0,1.0
1450210775987692096,41,1450210775987116402,,1450210775091769454,/move_base-15-1450210775.91769454,1,This goal has been accepted by the simple action server,0,1450210775954551680,odom,0.0,0.0,0.0,0.0,0.0,0.0,1.0
1450210776068101577,42,1450210776066674396,,1450210775091769454,/move_base-15-1450210775.91769454,1,This goal has been accepted by the simple action server,0,1450210776034551191,odom,0.0,0.0,0.0,0.0,0.0,0.0,1.0
1450210776135537051,43,1450210776134057345,,1450210775091769454,/move_base-15-1450210775.91769454,1,This goal has been accepted by the simple action server,0,1450210776114551741,odom,0.0,0.0,0.0,0.0,0.0,0.0,1.0
1450210776197135562,44,1450210776196839395,,1450210775091769454,/move_base-15-1450210775.91769454,1,This goal has been accepted by the simple action server,0,1450210776154539934,odom,0.0,0.0,0.0,0.0,0.0,0.0,1.0
1450210776277645266,45,1450210776275869638,,1450210775091769454,/move_base-15-1450210775.91769454,1,This goal has been accepted by the simple action server,0,1450210776274544103,odom,0.00575958653158,0.0,0.0,0.0,0.0,0.0,1.0
1450210776328045060,46,1450210776325647301,,1450210775091769454,/move_base-15-1450210775.91769454,1,This goal has been accepted by the simple action server,0,1450210776314546092,odom,0.00575958653158,0.0,0.0,0.0,0.0,0.0,1.0
1450210776377966995,47,1450210776375689302,,1450210775091769454,/move_base-15-1450210775.91769454,1,This goal has been accepted by the simple action server,0,1450210776354542282,odom,0.00863921898595,3.04332289367e-05,0.0,0.0,0.0,0.0052839997518,0.999986039576
1450210776459985067,48,1450210776457400095,,1450210775091769454,/move_base-15-1450210775.91769454,1,This goal has been accepted by the simple action server,0,1450210776434552502,odom,0.0115190122517,3.04332289367e-05,0.0,0.0,0.0,0.0,1.0
1450210776522751926,49,1450210776520889614,,1450210775091769454,/move_base-15-1450210775.91769454,1,This goal has been accepted by the simple action server,0,1450210776514551091,odom,0.0201582312377,6.08664578733e-05,0.0,0.0,0.0,0.0052839997518,0.999986039576
1450210776564490055,50,1450210776564347614,,1450210775091769454,/move_base-15-1450210775.91769454,1,This goal has been accepted by the simple action server,0,1450210776554543892,odom,0.0230380245035,6.08664578733e-05,0.0,0.0,0.0,0.0,1.0
1450210776620874396,51,1450210776620355483,,1450210775091769454,/move_base-15-1450210775.91769454,1,This goal has been accepted by the simple action server,0,1450210776594571313,odom,0.0287976110351,6.08664578733e-05,0.0,0.0,0.0,0.0,1.0
1450210776667291421,52,1450210776666849548,,1450210775091769454,/move_base-15-1450210775.91769454,1,This goal has been accepted by the simple action server,0,1450210776634549580,odom,0.0345571975666,6.08664578733e-05,0.0,0.0,0.0,0.0,1.0
1450210776780827803,53,1450210776780616402,,1450210775091769454,/move_base-15-1450210775.91769454,1,This goal has been accepted by the simple action server,0,1450210776754558771,odom,0.0489553598385,0.000213032602557,0.0,0.0,0.0,0.0052839997518,0.999986039576
1450210776830056848,54,1450210776829313890,,1450210775091769454,/move_base-15-1450210775.91769454,1,This goal has been accepted by the simple action server,0,1450210776794557627,odom,0.0518351531043,0.000213032602557,0.0,0.0,0.0,0.0,1.0
1450210776883648937,55,1450210776879295062,,1450210775091769454,/move_base-15-1450210775.91769454,1,This goal has been accepted by the simple action server,0,1450210776874735721,odom,0.0662333153762,0.00036519874724,0.0,0.0,0.0,0.0052839997518,0.999986039576
1450210776941450637,56,1450210776941043240,,1450210775091769454,/move_base-15-1450210775.91769454,1,This goal has been accepted by the simple action server,0,1450210776914549685,odom,0.0719925802849,0.000426065205113,0.0,0.0,0.0,0.0052839997518,0.999986039576
1450210777036914060,57,1450210777036667490,,1450210775091769454,/move_base-15-1450210775.91769454,1,This goal has been accepted by the simple action server,0,1450210777034543112,odom,0.0950296399199,0.000669531036606,0.0,0.0,0.0,0.0052839997518,0.999986039576
1450210777104244405,58,1450210777103895084,,1450210775091769454,/move_base-15-1450210775.91769454,1,This goal has been accepted by the simple action server,0,1450210777081043073,odom,0.103667090034,0.000852120213639,0.0,0.0,0.0,0.0105678519699,0.999944158693
1450210777196271564,59,1450210777191815242,,1450210775091769454,/move_base-15-1450210775.91769454,1,This goal has been accepted by the simple action server,0,1450210777154550079,odom,0.120941990263,0.0012172985677,0.0,0.0,0.0,0.0105678519699,0.999944158693
1450210777282191451,60,1450210777281822534,,1450210775091769454,/move_base-15-1450210775.91769454,1,This goal has been accepted by the simple action server,0,1450210777274921992,odom,0.1468471049,0.00203887339336,0.0,0.0,0.0,0.0158514091245,0.999874358521
1450210777318405730,61,1450210777316228656,,1450210775091769454,/move_base-15-1450210775.91769454,1,This goal has been accepted by the simple action server,0,1450210777314570795,odom,0.155478766826,0.00240397018155,0.0,0.0,0.0,0.0211345236944,0.999776641009
1450210777365386321,62,1450210777364836316,,1450210775091769454,/move_base-15-1450210775.91769454,1,This goal has been accepted by the simple action server,0,1450210777354829103,odom,0.166987649395,0.00289076589915,0.0,0.0,0.0,0.0211345236944,0.999776641009
1450210777497733996,63,1450210777497596994,,1450210775091769454,/move_base-15-1450210775.91769454,1,This goal has been accepted by the simple action server,0,1450210777474843263,odom,0.192878294884,0.00407725400175,0.0,0.0,0.0,0.0264170481704,0.999651008886
1450210777551750339,64,1450210777547593446,,1450210775091769454,/move_base-15-1450210775.91769454,1,This goal has been accepted by the simple action server,0,1450210777514572187,odom,0.204381390397,0.00468564670336,0.0,0.0,0.0,0.0264170481704,0.999651008886
1450210777601009804,65,1450210777598721786,,1450210775091769454,/move_base-15-1450210775.91769454,1,This goal has been accepted by the simple action server,0,1450210777554541010,odom,0.213003408217,0.00523308800742,0.0,0.0,0.0,0.0316988350601,0.999497465658
1450210777657058862,66,1450210777656514594,,1450210775091769454,/move_base-15-1450210775.91769454,1,This goal has been accepted by the simple action server,0,1450210777634555760,odom,0.235995455739,0.00669293148492,0.0,0.0,0.0,0.0316988350601,0.999497465658
1450210777707042843,67,1450210777706573845,,1450210775091769454,/move_base-15-1450210775.91769454,1,This goal has been accepted by the simple action server,0,1450210777674543506,odom,0.24174346762,0.00705789235429,0.0,0.0,0.0,0.0316988350601,0.999497465658
1450210777808411420,68,1450210777805656279,,1450210775091769454,/move_base-15-1450210775.91769454,1,This goal has been accepted by the simple action server,0,1450210777794587771,odom,0.279086744613,0.00970339491974,0.0,0.0,0.0,0.0369797368913,0.999316015612
1450210777887201317,69,1450210777884869149,,1450210775091769454,/move_base-15-1450210775.91769454,1,This goal has been accepted by the simple action server,0,1450210777874553633,odom,0.296318246768,0.0109804488042,0.0,0.0,0.0,0.0369797368913,0.999316015612
1450210777948728305,70,1450210777947773463,,1450210775091769454,/move_base-15-1450210775.91769454,1,This goal has been accepted by the simple action server,0,1450210777914541254,odom,0.307805914871,0.0118318180605,0.0,0.0,0.0,0.0369797368913,0.999316015612
1450210778024897716,71,1450210778016297120,,1450210775091769454,/move_base-15-1450210775.91769454,1,This goal has been accepted by the simple action server,0,1450210777994551208,odom,0.32506055814,0.0127444071129,0.0,0.0,0.0,0.0264170481704,0.999651008886
1450210778112049207,72,1450210778108188971,,1450210775091769454,/move_base-15-1450210775.91769454,1,This goal has been accepted by the simple action server,0,1450210778074555325,odom,0.348077037936,0.0137179441815,0.0,0.0,0.0,0.0158514091245,0.999874358521
1450210778150328206,73,1450210778150109643,,1450210775091769454,/move_base-15-1450210775.91769454,1,This goal has been accepted by the simple action server,0,1450210778114785764,odom,0.356708699863,0.0140830409697,0.0,0.0,0.0,0.0211345236944,0.999776641009
1450210778219620863,74,1450210778215829335,,1450210775091769454,/move_base-15-1450210775.91769454,1,This goal has been accepted by the simple action server,0,1450210778195152924,odom,0.379741900168,0.0145699454418,0.0,0.0,0.0,0.0105678519699,0.999944158693
1450210778331512409,75,1450210778330567416,,1450210775091769454,/move_base-15-1450210775.91769454,1,This goal has been accepted by the simple action server,0,1450210778314560880,odom,0.4114183396,0.0145090789839,0.0,0.0,0.0,-0.0052839997518,0.999986039576
1450210778417202465,76,1450210778416759225,,1450210775091769454,/move_base-15-1450210775.91769454,1,This goal has been accepted by the simple action server,0,1450210778394551693,odom,0.431573354699,0.014143897231,0.0,0.0,0.0,-0.0105678519699,0.999944158693
1450210778507789114,77,1450210778502433031,,1450210775091769454,/move_base-15-1450210775.91769454,1,This goal has been accepted by the simple action server,0,1450210778474551892,odom,0.451721777195,0.0135048945888,0.0,0.0,0.0,-0.0158514091245,0.999874358521
1450210778593154224,78,1450210778590900364,,1450210775091769454,/move_base-15-1450210775.91769454,1,This goal has been accepted by the simple action server,0,1450210778555250699,odom,0.477616762975,0.0124096042242,0.0,0.0,0.0,-0.0211345236944,0.999776641009
1450210778680079450,79,1450210778677669924,,1450210775091769454,/move_base-15-1450210775.91769454,1,This goal has been accepted by the simple action server,0,1450210778634557959,odom,0.500614114311,0.0110409075246,0.0,0.0,0.0,-0.0316988350601,0.999497465658
1450210778757978870,80,1450210778754925597,,1450210775091769454,/move_base-15-1450210775.91769454,1,This goal has been accepted by the simple action server,0,1450210778714558720,odom,0.52072588915,0.0096724588436,0.0,0.0,0.0,-0.0369797368913,0.999316015612
1450210778844419413,81,1450210778842675284,,1450210775091769454,/move_base-15-1450210775.91769454,1,This goal has been accepted by the simple action server,0,1450210778834546739,odom,0.55230010883,0.00711882662851,0.0,0.0,0.0,-0.042259606217,0.999106663816
1450210778907440594,82,1450210778898486160,,1450210775091769454,/move_base-15-1450210775.91769454,1,This goal has been accepted by the simple action server,0,1450210778874860666,odom,0.560900440539,0.00629835251172,0.0,0.0,0.0,-0.0475382956186,0.998869416115
1450210779005164577,83,1450210779003993988,,1450210775091769454,/move_base-15-1450210775.91769454,1,This goal has been accepted by the simple action server,0,1450210778994540421,odom,0.592401436829,0.00295686295799,0.0,0.0,0.0,-0.0528156577107,0.998604279132
1450210779071791813,84,1450210779065448971,,1450210775091769454,/move_base-15-1450210775.91769454,1,This goal has been accepted by the simple action server,0,1450210779034574078,odom,0.606703220859,0.00128677167331,0.0,0.0,0.0,-0.0580915451448,0.99831126027
1450210779136768029,85,1450210779136422052,,1450210775091769454,/move_base-15-1450210775.91769454,1,This goal has been accepted by the simple action server,0,1450210779114547535,odom,0.626714649756,-0.00114198365111,0.0,0.0,0.0,-0.0633658106137,0.997990367712
1450210779217973934,86,1450210779215332139,,1450210775091769454,/move_base-15-1450210775.91769454,1,This goal has been accepted by the simple action server,0,1450210779194545115,odom,0.649567987552,-0.00405580310892,0.0,0.0,0.0,-0.0633658106137,0.997990367712
1450210779292812455,87,1450210779292219287,,1450210775091769454,/move_base-15-1450210775.91769454,1,This goal has been accepted by the simple action server,0,1450210779274551930,odom,0.669544615015,-0.0067562376216,0.0,0.0,0.0,-0.0686383068554,0.997641610415
1450210779345912804,88,1450210779345753956,,1450210775091769454,/move_base-15-1450210775.91769454,1,This goal has been accepted by the simple action server,0,1450210779314551023,odom,0.675249932221,-0.00754502948089,0.0,0.0,0.0,-0.0686383068554,0.997641610415
1450210779405437989,89,1450210779398981090,,1450210775091769454,/move_base-15-1450210775.91769454,1,This goal has been accepted by the simple action server,0,1450210779394551118,odom,0.698071201043,-0.0107001969181,0.0,0.0,0.0,-0.0686383068554,0.997641610415
1450210779491998950,90,1450210779491009426,,1450210775091769454,/move_base-15-1450210775.91769454,1,This goal has been accepted by the simple action server,0,1450210779474550463,odom,0.718018175193,-0.0136115906768,0.0,0.0,0.0,-0.0739088866573,0.997264998119
1450210779557108546,91,1450210779556564155,,1450210775091769454,/move_base-15-1450210775.91769454,1,This goal has been accepted by the simple action server,0,1450210779514541870,odom,0.729411500749,-0.0153096721964,0.0,0.0,0.0,-0.0739088866573,0.997264998119
1450210779605912988,92,1450210779603201994,,1450210775091769454,/move_base-15-1450210775.91769454,1,This goal has been accepted by the simple action server,0,1450210779594541829,odom,0.749380110969,-0.0180704437039,0.0,0.0,0.0,-0.0686383068554,0.997641610415
1450210779674022139,93,1450210779673762434,,1450210775091769454,/move_base-15-1450210775.91769454,1,This goal has been accepted by the simple action server,0,1450210779636710290,odom,0.76079074538,-0.0196480274225,0.0,0.0,0.0,-0.0686383068554,0.997641610415
1450210779709082091,94,1450210779705841451,,1450210775091769454,/move_base-15-1450210775.91769454,1,This goal has been accepted by the simple action server,0,1450210779674539786,odom,0.769335739547,-0.0209215885622,0.0,0.0,0.0,-0.0739088866573,0.997264998119
1450210779782838503,95,1450210779780853348,,1450210775091769454,/move_base-15-1450210775.91769454,1,This goal has been accepted by the simple action server,0,1450210779754559724,odom,0.792122390658,-0.0243177516014,0.0,0.0,0.0,-0.0739088866573,0.997264998119
1450210779861298767,96,1450210779858410545,,1450210775091769454,/move_base-15-1450210775.91769454,1,This goal has been accepted by the simple action server,0,1450210779834562835,odom,0.814909041768,-0.0277139146406,0.0,0.0,0.0,-0.0739088866573,0.997264998119
1450210779908527475,97,1450210779908346467,,1450210775091769454,/move_base-15-1450210775.91769454,1,This goal has been accepted by the simple action server,0,1450210779874550220,odom,0.826302367324,-0.0294119961601,0.0,0.0,0.0,-0.0739088866573,0.997264998119
1450210779992186470,98,1450210779991992671,,1450210775091769454,/move_base-15-1450210775.91769454,1,This goal has been accepted by the simple action server,0,1450210779954546151,odom,0.849089018435,-0.0328081591993,0.0,0.0,0.0,-0.0739088866573,0.997264998119
1450210780047951324,99,1450210780047810812,,1450210775091769454,/move_base-15-1450210775.91769454,1,This goal has been accepted by the simple action server,0,1450210780034553812,odom,0.866179006768,-0.0353552814787,0.0,0.0,0.0,-0.0739088866573,0.997264998119
1450210780103375830,100,1450210780101098945,,1450210775091769454,/move_base-15-1450210775.91769454,1,This goal has been accepted by the simple action server,0,1450210780074550090,odom,0.877572332323,-0.0370533629983,0.0,0.0,0.0,-0.0739088866573,0.997264998119
1450210780137506368,101,1450210780137136622,,1450210775091769454,/move_base-15-1450210775.91769454,1,This goal has been accepted by the simple action server,0,1450210780114541208,odom,0.891835625337,-0.0390253426465,0.0,0.0,0.0,-0.0686383068554,0.997641610415
1450210780208944443,102,1450210780208120706,,1450210775091769454,/move_base-15-1450210775.91769454,1,This goal has been accepted by the simple action server,0,1450210780194548554,odom,0.911773945059,-0.0419969853058,0.0,0.0,0.0,-0.0739088866573,0.997264998119
1450210780291801769,103,1450210780291552221,,1450210775091769454,/move_base-15-1450210775.91769454,1,This goal has been accepted by the simple action server,0,1450210780274557244,odom,0.928863933393,-0.0445441075852,0.0,0.0,0.0,-0.0739088866573,0.997264998119
1450210780374323737,104,1450210780371339637,,1450210775091769454,/move_base-15-1450210775.91769454,1,This goal has been accepted by the simple action server,0,1450210780356128298,odom,0.948815234757,-0.0474253768937,0.0,0.0,0.0,-0.0686383068554,0.997641610415
1450210780435864303,105,1450210780434094495,,1450210775091769454,/move_base-15-1450210775.91769454,1,This goal has been accepted by the simple action server,0,1450210780395247408,odom,0.957360228923,-0.0486989380334,0.0,0.0,0.0,-0.0739088866573,0.997264998119
1450210780511323381,106,1450210780511030124,,1450210775091769454,/move_base-15-1450210775.91769454,1,This goal has been accepted by the simple action server,0,1450210780474552328,odom,0.974450217256,-0.0512460603128,0.0,0.0,0.0,-0.0739088866573,0.997264998119
1450210780591894548,107,1450210780590418821,,1450210775091769454,/move_base-15-1450210775.91769454,1,This goal has been accepted by the simple action server,0,1450210780554554178,odom,0.985843542812,-0.0529441418324,0.0,0.0,0.0,-0.0739088866573,0.997264998119
1450210780655643750,108,1450210780655480659,,1450210775091769454,/move_base-15-1450210775.91769454,1,This goal has been accepted by the simple action server,0,1450210780634559218,odom,1.00008952697,-0.0550366192816,0.0,0.0,0.0,-0.0686383068554,0.997641610415
1450210780736167398,109,1450210780736049969,,1450210775091769454,/move_base-15-1450210775.91769454,1,This goal has been accepted by the simple action server,0,1450210780714579510,odom,1.01719249695,-0.0574933682102,0.0,0.0,0.0,-0.0686383068554,0.997641610415
1450210780801082743,110,1450210780800619039,,1450210775091769454,/move_base-15-1450210775.91769454,1,This goal has been accepted by the simple action server,0,1450210780794545704,odom,1.03144280832,-0.0595557212092,0.0,0.0,0.0,-0.0739088866573,0.997264998119
1450210780852172802,111,1450210780849236747,,1450210775091769454,/move_base-15-1450210775.91769454,1,This goal has been accepted by the simple action server,0,1450210780834545071,odom,1.04000078413,-0.0607389089981,0.0,0.0,0.0,-0.0686383068554,0.997641610415
1450210780965823100,112,1450210780964108834,,1450210775091769454,/move_base-15-1450210775.91769454,1,This goal has been accepted by the simple action server,0,1450210780955188714,odom,1.06283407881,-0.063803570943,0.0,0.0,0.0,-0.0686383068554,0.997641610415
1450210781031309129,113,1450210781030884695,,1450210775091769454,/move_base-15-1450210775.91769454,1,This goal has been accepted by the simple action server,0,1450210780994545178,odom,1.07140408049,-0.0648962532397,0.0,0.0,0.0,-0.0633658106137,0.997990367712
1450210781123201025,114,1450210781116092375,,1450210775091769454,/move_base-15-1450210775.91769454,1,This goal has been accepted by the simple action server,0,1450210781074574823,odom,1.0914118198,-0.0673552177394,0.0,0.0,0.0,-0.0580915451448,0.99831126027
1450210781255373490,115,1450210781254244228,,1450210775091769454,/move_base-15-1450210775.91769454,1,This goal has been accepted by the simple action server,0,1450210781239615012,odom,1.13145681509,-0.0720314733365,0.0,0.0,0.0,-0.0580915451448,0.99831126027
1450210781308765268,116,1450210781308606824,,1450210775091769454,/move_base-15-1450210775.91769454,1,This goal has been accepted by the simple action server,0,1450210781274553750,odom,1.14577544976,-0.0735503322246,0.0,0.0,0.0,-0.0528156577107,0.998604279132
1450210781373981841,117,1450210781373724697,,1450210775091769454,/move_base-15-1450210775.91769454,1,This goal has been accepted by the simple action server,0,1450210781354545653,odom,1.16583678982,-0.0755253326411,0.0,0.0,0.0,-0.0475382956186,0.998869416115
1450210781427506754,118,1450210781426234986,,1450210775091769454,/move_base-15-1450210775.91769454,1,This goal has been accepted by the simple action server,0,1450210781394545458,odom,1.17157034429,-0.0760723153856,0.0,0.0,0.0,-0.0475382956186,0.998869416115
1450210781488816058,119,1450210781488603946,,1450210775091769454,/move_base-15-1450210775.91769454,1,This goal has been accepted by the simple action server,0,1450210781474553770,odom,1.1973959106,-0.0782609391898,0.0,0.0,0.0,-0.042259606217,0.999106663816
1450210781537329388,120,1450210781533700099,,1450210775091769454,/move_base-15-1450210775.91769454,1,This goal has been accepted by the simple action server,0,1450210781514548263,odom,1.20601166168,-0.078899466132,0.0,0.0,0.0,-0.0369797368913,0.999316015612
1450210781616658201,121,1450210781616409917,,1450210775091769454,/move_base-15-1450210775.91769454,1,This goal has been accepted by the simple action server,0,1450210781594551624,odom,1.23186935948,-0.0806632375618,0.0,0.0,0.0,-0.0316988350601,0.999497465658
1450210781694364335,122,1450210781694047816,,1450210775091769454,/move_base-15-1450210775.91769454,1,This goal has been accepted by the simple action server,0,1450210781674549641,odom,1.25199624076,-0.0817886893082,0.0,0.0,0.0,-0.0264170481704,0.999651008886
1450210781752480375,123,1450210781752187090,,1450210775091769454,/move_base-15-1450210775.91769454,1,This goal has been accepted by the simple action server,0,1450210781714550066,odom,1.25774778851,-0.082092885659,0.0,0.0,0.0,-0.0264170481704,0.999651008886
1450210781808339145,124,1450210781803299344,,1450210775091769454,/move_base-15-1450210775.91769454,1,This goal has been accepted by the simple action server,0,1450210781794607035,odom,1.28364277429,-0.0831881760236,0.0,0.0,0.0,-0.0211345236944,0.999776641009
1450210781881038854,125,1450210781869261230,,1450210775091769454,/move_base-15-1450210775.91769454,1,This goal has been accepted by the simple action server,0,1450210781838515520,odom,1.29515165686,-0.0836749717411,0.0,0.0,0.0,-0.0211345236944,0.999776641009
1450210781932205932,126,1450210781928934260,,1450210775091769454,/move_base-15-1450210775.91769454,1,This goal has been accepted by the simple action server,0,1450210781914554292,odom,1.31818244526,-0.0842531453114,0.0,0.0,0.0,-0.0105678519699,0.999944158693
1450210782036375585,127,1450210782029293546,,1450210775091769454,/move_base-15-1450210775.91769454,1,This goal has been accepted by the simple action server,0,1450210781994555961,odom,1.33833794278,-0.0845878972343,0.0,0.0,0.0,-0.0052839997518,0.999986039576
1450210782083520618,128,1450210782083298747,,1450210775091769454,/move_base-15-1450210775.91769454,1,This goal has been accepted by the simple action server,0,1450210782074554880,odom,1.36425543893,-0.08470963015,0.0,0.0,0.0,-8.881784197e-16,1.0
1450210782131770208,129,1450210782129196542,,1450210775091769454,/move_base-15-1450210775.91769454,1,This goal has been accepted by the simple action server,0,1450210782114551321,odom,1.37289433629,-0.0848009298368,0.0,0.0,0.0,-0.0052839997518,0.999986039576
1450210782205676141,130,1450210782205545713,,1450210775091769454,/move_base-15-1450210775.91769454,1,This goal has been accepted by the simple action server,0,1450210782194543126,odom,1.39881247568,-0.0848009298368,0.0,0.0,0.0,-8.881784197e-16,1.0
1450210782247732849,131,1450210782247598783,,1450210775091769454,/move_base-15-1450210775.91769454,1,This goal has been accepted by the simple action server,0,1450210782234556736,odom,1.40745137305,-0.08470963015,0.0,0.0,0.0,0.0052839997518,0.999986039576
1450210782327274160,132,1450210782326708374,,1450210775091769454,/move_base-15-1450210775.91769454,1,This goal has been accepted by the simple action server,0,1450210782314569951,odom,1.42760542331,-0.0842835887369,0.0,0.0,0.0,0.0105678519699,0.999944158693
1450210782392262696,133,1450210782387028077,,1450210775091769454,/move_base-15-1450210775.91769454,1,This goal has been accepted by the simple action server,0,1450210782354711660,odom,1.43912202346,-0.0840401365009,0.0,0.0,0.0,0.0105678519699,0.999944158693
1450210782445639628,134,1450210782445505076,,1450210775091769454,/move_base-15-1450210775.91769454,1,This goal has been accepted by the simple action server,0,1450210782434554618,odom,1.46214541574,-0.083218609254,0.0,0.0,0.0,0.0211345236944,0.999776641009
1450210782491210835,135,1450210782490383393,,1450210775091769454,/move_base-15-1450210775.91769454,1,This goal has been accepted by the simple action server,0,1450210782474547611,odom,1.47365429831,-0.0827318135364,0.0,0.0,0.0,0.0211345236944,0.999776641009
1450210782542103686,136,1450210782541646105,,1450210775091769454,/move_base-15-1450210775.91769454,1,This goal has been accepted by the simple action server,0,1450210782514541343,odom,1.4880331677,-0.0819713226594,0.0,0.0,0.0,0.0264170481704,0.999651008886
1450210782599660337,137,1450210782596191842,,1450210775091769454,/move_base-15-1450210775.91769454,1,This goal has been accepted by the simple action server,0,1450210782554540306,odom,1.49953626322,-0.0813629299578,0.0,0.0,0.0,0.0264170481704,0.999651008886
1450210782661585154,138,1450210782660094114,,1450210775091769454,/move_base-15-1450210775.91769454,1,This goal has been accepted by the simple action server,0,1450210782634849753,odom,1.5196543048,-0.080085566915,0.0,0.0,0.0,0.0316988350601,0.999497465658
1450210782751220827,139,1450210782748114037,,1450210775091769454,/move_base-15-1450210775.91769454,1,This goal has been accepted by the simple action server,0,1450210782714545253,odom,1.54264635232,-0.0786257234375,0.0,0.0,0.0,0.0316988350601,0.999497465658
1450210782800804851,140,1450210782800508294,,1450210775091769454,/move_base-15-1450210775.91769454,1,This goal has been accepted by the simple action server,0,1450210782794551671,odom,1.5627497715,-0.0771358272389,0.0,0.0,0.0,0.0369797368913,0.999316015612
1450210782847932307,141,1450210782847747904,,1450210775091769454,/move_base-15-1450210775.91769454,1,This goal has been accepted by the simple action server,0,1450210782836273183,odom,1.57423743961,-0.0762844579826,0.0,0.0,0.0,0.0369797368913,0.999316015612
1450210782938377921,142,1450210782937675906,,1450210775091769454,/move_base-15-1450210775.91769454,1,This goal has been accepted by the simple action server,0,1450210782914547040,odom,1.5971716575,-0.0740965270045,0.0,0.0,0.0,0.0475382956186,0.998869416115
1450210782976601742,143,1450210782976283098,,1450210775091769454,/move_base-15-1450210775.91769454,1,This goal has been accepted by the simple action server,0,1450210782955026117,odom,1.60863876644,-0.0730025615155,0.0,0.0,0.0,0.0475382956186,0.998869416115
1450210783030553077,144,1450210783029953792,,1450210775091769454,/move_base-15-1450210775.91769454,1,This goal has been accepted by the simple action server,0,1450210782994555934,odom,1.61722994725,-0.0720912461826,0.0,0.0,0.0,0.0528156577107,0.998604279132
1450210783076562654,145,1450210783073754559,,1450210775091769454,/move_base-15-1450210775.91769454,1,This goal has been accepted by the simple action server,0,1450210783034564326,odom,1.63153173128,-0.070421154898,0.0,0.0,0.0,0.0580915451448,0.99831126027
1450210783139893244,146,1450210783139566363,,1450210775091769454,/move_base-15-1450210775.91769454,1,This goal has been accepted by the simple action server,0,1450210783114546170,odom,1.65442469611,-0.0678397482804,0.0,0.0,0.0,0.0580915451448,0.99831126027
1450210783188365898,147,1450210783188179101,,1450210775091769454,/move_base-15-1450210775.91769454,1,This goal has been accepted by the simple action server,0,1450210783154580729,odom,1.66299469779,-0.0667470659838,0.0,0.0,0.0,0.0633658106137,0.997990367712
1450210783232831320,148,1450210783230599323,,1450210775091769454,/move_base-15-1450210775.91769454,1,This goal has been accepted by the simple action server,0,1450210783194543702,odom,1.67442136669,-0.0652901562549,0.0,0.0,0.0,0.0633658106137,0.997990367712
1450210783277832429,149,1450210783277003160,,1450210775091769454,/move_base-15-1450210775.91769454,1,This goal has been accepted by the simple action server,0,1450210783274603523,odom,1.69727470448,-0.0623763367971,0.0,0.0,0.0,0.0633658106137,0.997990367712
1450210783329992496,150,1450210783329760491,,1450210775091769454,/move_base-15-1450210775.91769454,1,This goal has been accepted by the simple action server,0,1450210783314637039,odom,1.70583268029,-0.0611931490081,0.0,0.0,0.0,0.0686383068554,0.997641610415
1450210783382880733,151,1450210783372886483,,1450210775091769454,/move_base-15-1450210775.91769454,1,This goal has been accepted by the simple action server,0,1450210783354546546,odom,1.72007433723,-0.0590705471086,0.0,0.0,0.0,0.0739088866573,0.997264998119
1450210783452300372,152,1450210783452023044,,1450210775091769454,/move_base-15-1450210775.91769454,1,This goal has been accepted by the simple action server,0,1450210783434553545,odom,1.73716432557,-0.0565234248293,0.0,0.0,0.0,0.0739088866573,0.997264998119
1450210783536057254,153,1450210783535893353,,1450210775091769454,/move_base-15-1450210775.91769454,1,This goal has been accepted by the simple action server,0,1450210783514545065,odom,1.76275750016,-0.0524320480618,0.0,0.0,0.0,0.0791774028604,0.996860541338
1450210783597208911,154,1450210783595061553,,1450210775091769454,/move_base-15-1450210775.91769454,1,This goal has been accepted by the simple action server,0,1450210783554661609,odom,1.77127366962,-0.0509781770018,0.0,0.0,0.0,0.0844437083633,0.996428251365
1450210783638743745,155,1450210783638636593,,1450210775091769454,/move_base-15-1450210775.91769454,1,This goal has been accepted by the simple action server,0,1450210783634553688,odom,1.79679577824,-0.0464667031015,0.0,0.0,0.0,0.0897076561262,0.99596814027
1450210783709222671,156,1450210783709012407,,1450210775091769454,/move_base-15-1450210775.91769454,1,This goal has been accepted by the simple action server,0,1450210783674553285,odom,1.80246266465,-0.04543751144,0.0,0.0,0.0,0.0897076561262,0.99596814027
1450210783780681064,157,1450210783780162246,,1450210775091769454,/move_base-15-1450210775.91769454,1,This goal has been accepted by the simple action server,0,1450210783754822129,odom,1.82791328591,-0.0405369169099,0.0,0.0,0.0,0.0949690991753,0.995480220899
1450210783823502499,158,1450210783823311341,,1450210775091769454,/move_base-15-1450210775.91769454,1,This goal has been accepted by the simple action server,0,1450210783795147136,odom,1.83922467314,-0.0383588748965,0.0,0.0,0.0,0.0949690991753,0.995480220899
1450210783911637410,159,1450210783899049943,,1450210775091769454,/move_base-15-1450210775.91769454,1,This goal has been accepted by the simple action server,0,1450210783874541540,odom,1.85897821527,-0.0343383243511,0.0,0.0,0.0,0.100227890607,0.994964506877
1450210783971752121,160,1450210783970879420,,1450210775091769454,/move_base-15-1450210775.91769454,1,This goal has been accepted by the simple action server,0,1450210783954554143,odom,1.87868816576,-0.0301092458094,0.0,0.0,0.0,0.10548388359,0.994421012601
1450210784020952733,161,1450210784020712827,,1450210775091769454,/move_base-15-1450210775.91769454,1,This goal has been accepted by the simple action server,0,1450210783994545530,odom,1.88995099461,-0.0276926294999,0.0,0.0,0.0,0.10548388359,0.994421012601
1450210784073400530,162,1450210784072489655,,1450210775091769454,/move_base-15-1450210775.91769454,1,This goal has been accepted by the simple action server,0,1450210784034548433,odom,1.89837849071,-0.025791000547,0.0,0.0,0.0,0.110736931374,0.993849753247
1450210784121328793,163,1450210784120704169,,1450210775091769454,/move_base-15-1450210775.91769454,1,This goal has been accepted by the simple action server,0,1450210784114654707,odom,1.92085181366,-0.0207199900058,0.0,0.0,0.0,0.110736931374,0.993849753247
1450210784171378643,164,1450210784171239427,,1450210775091769454,/move_base-15-1450210775.91769454,1,This goal has been accepted by the simple action server,0,1450210784154543566,odom,1.93486336261,-0.0174023511812,0.0,0.0,0.0,0.115986887289,0.993250744765
1450210784221409819,165,1450210784220944950,,1450210775091769454,/move_base-15-1450210775.91769454,1,This goal has been accepted by the simple action server,0,1450210784194542881,odom,1.94046798219,-0.0160752956513,0.0,0.0,0.0,0.115986887289,0.993250744765
1450210784302440993,166,1450210784302361599,,1450210775091769454,/move_base-15-1450210775.91769454,1,This goal has been accepted by the simple action server,0,1450210784274555857,odom,1.96562425337,-0.00983734968194,0.0,0.0,0.0,0.121233604752,0.99262400388
1450210784358110938,167,1450210784354533552,,1450210775091769454,/move_base-15-1450210775.91769454,1,This goal has been accepted by the simple action server,0,1450210784314543324,odom,1.97398723495,-0.00766953455386,0.0,0.0,0.0,0.126476937269,0.991969548091
1450210784414797233,168,1450210784413785749,,1450210775091769454,/move_base-15-1450210775.91769454,1,This goal has been accepted by the simple action server,0,1450210784394549886,odom,1.99903721943,-0.00101899300677,0.0,0.0,0.0,0.131716738444,0.99128739567
1450210784475996452,169,1450210784475689705,,1450210775091769454,/move_base-15-1450210775.91769454,1,This goal has been accepted by the simple action server,0,1450210784434705927,odom,2.01015669333,0.00198910409428,0.0,0.0,0.0,0.131716738444,0.99128739567
1450210784526503027,170,1450210784525671143,,1450210775091769454,/move_base-15-1450210775.91769454,1,This goal has been accepted by the simple action server,0,1450210784514561917,odom,2.02959146512,0.0073412797547,0.0,0.0,0.0,0.136952861975,0.990577565664
1450210784598645958,171,1450210784598477789,,1450210775091769454,/move_base-15-1450210775.91769454,1,This goal has been accepted by the simple action server,0,1450210784594608801,odom,2.05734963732,0.01500819873,0.0,0.0,0.0,0.136952861975,0.990577565664
1450210784648714261,172,1450210784648594855,,1450210775091769454,/move_base-15-1450210775.91769454,1,This goal has been accepted by the simple action server,0,1450210784634562714,odom,2.06289316925,0.0165709177696,0.0,0.0,0.0,0.136952861975,0.990577565664
1450210784735769133,173,1450210784698996110,,1450210775091769454,/move_base-15-1450210775.91769454,1,This goal has been accepted by the simple action server,0,1450210784674543661,odom,2.0739802331,0.0196963558487,0.0,0.0,0.0,0.136952861975,0.990577565664
1450210784753483885,174,1450210784752683186,,1450210775091769454,/move_base-15-1450210775.91769454,1,This goal has been accepted by the simple action server,0,1450210784714544432,odom,2.08506729695,0.0228217939279,0.0,0.0,0.0,0.136952861975,0.990577565664
1450210784799776381,175,1450210784798270986,,1450210775091769454,/move_base-15-1450210775.91769454,1,This goal has been accepted by the simple action server,0,1450210784794557190,odom,2.10724142466,0.0290726700862,0.0,0.0,0.0,0.136952861975,0.990577565664
1450210784860767997,176,1450210784857868813,,1450210775091769454,/move_base-15-1450210775.91769454,1,This goal has been accepted by the simple action server,0,1450210784834561176,odom,2.11832848851,0.0321981081654,0.0,0.0,0.0,0.136952861975,0.990577565664
1450210784906053670,177,1450210784905323000,,1450210775091769454,/move_base-15-1450210775.91769454,1,This goal has been accepted by the simple action server,0,1450210784874544618,odom,2.12941555236,0.0353235462446,0.0,0.0,0.0,0.136952861975,0.990577565664
1450210784950436365,178,1450210784949823579,,1450210775091769454,/move_base-15-1450210775.91769454,1,This goal has been accepted by the simple action server,0,1450210784914543930,odom,2.14050261621,0.0384489843237,0.0,0.0,0.0,0.136952861975,0.990577565664
1450210785012469034,179,1450210785012321046,,1450210775091769454,/move_base-15-1450210775.91769454,1,This goal has been accepted by the simple action server,0,1450210784994603758,odom,2.15987974174,0.0440062449031,0.0,0.0,0.0,0.142185161666,0.989840077892
1450210785077586713,180,1450210785077385170,,1450210775091769454,/move_base-15-1450210775.91769454,1,This goal has been accepted by the simple action server,0,1450210785074545911,odom,2.18479198713,0.0511554725022,0.0,0.0,0.0,0.136952861975,0.990577565664
1450210785131414486,181,1450210785127919794,,1450210775091769454,/move_base-15-1450210775.91769454,1,This goal has been accepted by the simple action server,0,1450210785114549972,odom,2.19033551906,0.0527181915418,0.0,0.0,0.0,0.136952861975,0.990577565664
1450210785193965950,182,1450210785193573866,,1450210775091769454,/move_base-15-1450210775.91769454,1,This goal has been accepted by the simple action server,0,1450210785154560130,odom,2.20142258291,0.055843629621,0.0,0.0,0.0,0.136952861975,0.990577565664
1450210785260315204,183,1450210785255499546,,1450210775091769454,/move_base-15-1450210775.91769454,1,This goal has been accepted by the simple action server,0,1450210785234540811,odom,2.22355465026,0.0622407456806,0.0,0.0,0.0,0.136952861975,0.990577565664
1450210785304065254,184,1450210785300775844,,1450210775091769454,/move_base-15-1450210775.91769454,1,This goal has been accepted by the simple action server,0,1450210785274538875,odom,2.23464171411,0.0653661837598,0.0,0.0,0.0,0.136952861975,0.990577565664
1450210785355816101,185,1450210785354073738,,1450210775091769454,/move_base-15-1450210775.91769454,1,This goal has been accepted by the simple action server,0,1450210785314544767,odom,2.24572877796,0.0684916218389,0.0,0.0,0.0,0.136952861975,0.990577565664
1450210785386406834,186,1450210785386128165,,1450210775091769454,/move_base-15-1450210775.91769454,1,This goal has been accepted by the simple action server,0,1450210785354604495,odom,2.25681584182,0.0716170599181,0.0,0.0,0.0,0.136952861975,0.990577565664
1450210785447353463,187,1450210785446394592,,1450210775091769454,/move_base-15-1450210775.91769454,1,This goal has been accepted by the simple action server,0,1450210785434544403,odom,2.27898996952,0.0778679360764,0.0,0.0,0.0,0.136952861975,0.990577565664
1450210785479790196,188,1450210785478602933,,1450210775091769454,/move_base-15-1450210775.91769454,1,This goal has been accepted by the simple action server,0,1450210785474548808,odom,2.29007703338,0.0809933741556,0.0,0.0,0.0,0.136952861975,0.990577565664
1450210785528024024,189,1450210785527731271,,1450210775091769454,/move_base-15-1450210775.91769454,1,This goal has been accepted by the simple action server,0,1450210785514546015,odom,2.2956205653,0.0825560931952,0.0,0.0,0.0,0.136952861975,0.990577565664
1450210785579986074,190,1450210785579730354,,1450210775091769454,/move_base-15-1450210775.91769454,1,This goal has been accepted by the simple action server,0,1450210785554541950,odom,2.30670762915,0.0856815312744,0.0,0.0,0.0,0.136952861975,0.990577565664
1450210785651258650,191,1450210785651094833,,1450210775091769454,/move_base-15-1450210775.91769454,1,This goal has been accepted by the simple action server,0,1450210785634556057,odom,2.32613429843,0.0910630421793,0.0,0.0,0.0,0.131716738444,0.99128739567
1450210785706225899,192,1450210785705872265,,1450210775091769454,/move_base-15-1450210775.91769454,1,This goal has been accepted by the simple action server,0,1450210785674555311,odom,2.33725377234,0.0940711392804,0.0,0.0,0.0,0.131716738444,0.99128739567
1450210785756142332,193,1450210785756001961,,1450210775091769454,/move_base-15-1450210775.91769454,1,This goal has been accepted by the simple action server,0,1450210785714543145,odom,2.34281350929,0.0955751878309,0.0,0.0,0.0,0.131716738444,0.99128739567
1450210785797102540,194,1450210785796851672,,1450210775091769454,/move_base-15-1450210775.91769454,1,This goal has been accepted by the simple action server,0,1450210785794551436,odom,2.3650524571,0.101591382033,0.0,0.0,0.0,0.131716738444,0.99128739567
1450210785855055119,195,1450210785854187736,,1450210775091769454,/move_base-15-1450210775.91769454,1,This goal has been accepted by the simple action server,0,1450210785834556616,odom,2.37336775499,0.103935460592,0.0,0.0,0.0,0.136952861975,0.990577565664
1450210785906228000,196,1450210785906025308,,1450210775091769454,/move_base-15-1450210775.91769454,1,This goal has been accepted by the simple action server,0,1450210785874558017,odom,2.37891128691,0.105498179632,0.0,0.0,0.0,0.136952861975,0.990577565664
1450210785945285330,197,1450210785945095795,,1450210775091769454,/move_base-15-1450210775.91769454,1,This goal has been accepted by the simple action server,0,1450210785914544710,odom,2.38725089234,0.107754252458,0.0,0.0,0.0,0.131716738444,0.99128739567
1450210785988268055,198,1450210785987570060,,1450210775091769454,/move_base-15-1450210775.91769454,1,This goal has been accepted by the simple action server,0,1450210785954554000,odom,2.39837036624,0.110762349559,0.0,0.0,0.0,0.131716738444,0.99128739567
1450210786042810481,199,1450210786041091446,,1450210775091769454,/move_base-15-1450210775.91769454,1,This goal has been accepted by the simple action server,0,1450210786034547579,odom,2.40948984015,0.11377044666,0.0,0.0,0.0,0.131716738444,0.99128739567
1450210786101462729,200,1450210786101295505,,1450210775091769454,/move_base-15-1450210775.91769454,1,This goal has been accepted by the simple action server,0,1450210786074555938,odom,2.42060931405,0.116778543761,0.0,0.0,0.0,0.131716738444,0.99128739567
1450210786147410069,201,1450210786139530367,,1450210775091769454,/move_base-15-1450210775.91769454,1,This goal has been accepted by the simple action server,0,1450210786114541716,odom,2.42338108001,0.117559903281,0.0,0.0,0.0,0.136952861975,0.990577565664
1450210786183592796,202,1450210786183403087,,1450210775091769454,/move_base-15-1450210775.91769454,1,This goal has been accepted by the simple action server,0,1450210786154566548,odom,2.43172068544,0.119815976106,0.0,0.0,0.0,0.131716738444,0.99128739567
1450210786250381623,203,1450210786243761451,,1450210775091769454,/move_base-15-1450210775.91769454,1,This goal has been accepted by the simple action server,0,1450210786234543710,odom,2.44005218836,0.122101384177,0.0,0.0,0.0,0.136952861975,0.990577565664
1450210786300389583,204,1450210786295499879,,1450210775091769454,/move_base-15-1450210775.91769454,1,This goal has been accepted by the simple action server,0,1450210786274549136,odom,2.44283205683,0.122853408452,0.0,0.0,0.0,0.131716738444,0.99128739567
1450210786339683257,205,1450210786338860602,,1450210775091769454,/move_base-15-1450210775.91769454,1,This goal has been accepted by the simple action server,0,1450210786314542870,odom,2.44839179378,0.124357457003,0.0,0.0,0.0,0.131716738444,0.99128739567
1450210786391125266,206,1450210786386287659,,1450210775091769454,/move_base-15-1450210775.91769454,1,This goal has been accepted by the simple action server,0,1450210786354682371,odom,2.45395153074,0.125861505553,0.0,0.0,0.0,0.131716738444,0.99128739567
1450210786453209290,207,1450210786452608866,,1450210775091769454,/move_base-15-1450210775.91769454,1,This goal has been accepted by the simple action server,0,1450210786434571753,odom,2.45951126769,0.127365554104,0.0,0.0,0.0,0.131716738444,0.99128739567
1450210786497697634,208,1450210786497425854,,1450210775091769454,/move_base-15-1450210775.91769454,1,This goal has been accepted by the simple action server,0,1450210786474551699,odom,2.45951126769,0.127365554104,0.0,0.0,0.0,0.131716738444,0.99128739567
1450210786540389772,209,1450210786540229167,,1450210775091769454,/move_base-15-1450210775.91769454,1,This goal has been accepted by the simple action server,0,1450210786514541004,odom,2.46507100464,0.128869602654,0.0,0.0,0.0,0.131716738444,0.99128739567
1450210786592357498,210,1450210786590990641,,1450210775091769454,/move_base-15-1450210775.91769454,1,This goal has been accepted by the simple action server,0,1450210786554546279,odom,2.46507100464,0.128869602654,0.0,0.0,0.0,0.131716738444,0.99128739567
1450210786654295104,211,1450210786651471604,,1450210775091769454,/move_base-15-1450210775.91769454,1,This goal has been accepted by the simple action server,0,1450210786634551807,odom,2.46785866516,0.129592207697,0.0,0.0,0.0,0.126476937269,0.991969548091
1450210786717107813,212,1450210786717004476,,1450210775091769454,/move_base-15-1450210775.91769454,1,This goal has been accepted by the simple action server,0,1450210786714553706,odom,2.47063853364,0.130344231972,0.0,0.0,0.0,0.131716738444,0.99128739567
1450210786765589904,213,1450210786765366484,,1450210775091769454,/move_base-15-1450210775.91769454,1,This goal has been accepted by the simple action server,0,1450210786754557353,odom,2.47063853364,0.130344231972,0.0,0.0,0.0,0.131716738444,0.99128739567
1450210786851008572,214,1450210786847770473,,1450210775091769454,/move_base-15-1450210775.91769454,1,This goal has been accepted by the simple action server,0,1450210786834555292,odom,2.46785087311,0.129621626929,0.0,0.0,0.0,0.126476937269,0.991969548091
1450210786948537586,215,1450210786948429510,,1450210775091769454,/move_base-15-1450210775.91769454,1,This goal has been accepted by the simple action server,0,1450210786916204597,odom,2.46785087311,0.129621626929,0.0,0.0,0.0,0.126476937269,0.991969548091
1450210787010236241,216,1450210787009496372,,1450210775091769454,/move_base-15-1450210775.91769454,1,This goal has been accepted by the simple action server,0,1450210786994544395,odom,2.46507100464,0.128869602654,0.0,0.0,0.0,0.131716738444,0.99128739567
1450210787146105665,217,1450210787144356784,,1450210775091769454,/move_base-15-1450210775.91769454,1,This goal has been accepted by the simple action server,0,1450210787114554814,odom,2.46507100464,0.128869602654,0.0,0.0,0.0,0.131716738444,0.99128739567
1450210787201382692,218,1450210787201042359,,1450210775091769454,/move_base-15-1450210775.91769454,1,This goal has been accepted by the simple action server,0,1450210787194533273,odom,2.46507100464,0.128869602654,0.0,0.0,0.0,0.131716738444,0.99128739567
1450210787305620578,219,1450210787305074401,,1450210775091769454,/move_base-15-1450210775.91769454,1,This goal has been accepted by the simple action server,0,1450210787274546329,odom,2.46507100464,0.128869602654,0.0,0.0,0.0,0.131716738444,0.99128739567
1450210787359670988,220,1450210787357568626,,1450210775091769454,/move_base-15-1450210775.91769454,1,This goal has been accepted by the simple action server,0,1450210787314544762,odom,2.46507100464,0.128869602654,0.0,0.0,0.0,0.131716738444,0.99128739567
1450210787407481173,221,1450210787405077118,,1450210775091769454,/move_base-15-1450210775.91769454,1,This goal has been accepted by the simple action server,0,1450210787394549694,odom,2.46507100464,0.128869602654,0.0,0.0,0.0,0.131716738444,0.99128739567
1450210787476946231,222,1450210787476196434,,1450210775091769454,/move_base-15-1450210775.91769454,1,This goal has been accepted by the simple action server,0,1450210787474634167,odom,2.46507100464,0.128869602654,0.0,0.0,0.0,0.131716738444,0.99128739567
1450210787525003964,223,1450210787523995779,,1450210775091769454,/move_base-15-1450210775.91769454,1,This goal has been accepted by the simple action server,0,1450210787514548380,odom,2.46507100464,0.128869602654,0.0,0.0,0.0,0.131716738444,0.99128739567
1450210787578268650,224,1450210787576619037,,1450210775091769454,/move_base-15-1450210775.91769454,1,This goal has been accepted by the simple action server,0,1450210787554553624,odom,2.46507100464,0.128869602654,0.0,0.0,0.0,0.131716738444,0.99128739567
1450210787622895518,225,1450210787619955946,,1450210775091769454,/move_base-15-1450210775.91769454,1,This goal has been accepted by the simple action server,0,1450210787594575975,odom,2.46507100464,0.128869602654,0.0,0.0,0.0,0.131716738444,0.99128739567
1450210787683336644,226,1450210787682331902,,1450210775091769454,/move_base-15-1450210775.91769454,1,This goal has been accepted by the simple action server,0,1450210787674547529,odom,2.46507100464,0.128869602654,0.0,0.0,0.0,0.131716738444,0.99128739567
1450210787742111123,227,1450210787741463435,,1450210775091769454,/move_base-15-1450210775.91769454,1,This goal has been accepted by the simple action server,0,1450210787714704498,odom,2.46507100464,0.128869602654,0.0,0.0,0.0,0.131716738444,0.99128739567
1450210787856724071,228,1450210787856512323,,1450210775091769454,/move_base-15-1450210775.91769454,1,This goal has been accepted by the simple action server,0,1450210787834567335,odom,2.46507100464,0.128869602654,0.0,0.0,0.0,0.131716738444,0.99128739567
1450210787920213754,229,1450210787919742899,,1450210775091769454,/move_base-15-1450210775.91769454,1,This goal has been accepted by the simple action server,0,1450210787914551232,odom,2.46507100464,0.128869602654,0.0,0.0,0.0,0.131716738444,0.99128739567
1450210787970086625,230,1450210787969883765,,1450210775091769454,/move_base-15-1450210775.91769454,1,This goal has been accepted by the simple action server,0,1450210787954542495,odom,2.46507100464,0.128869602654,0.0,0.0,0.0,0.131716738444,0.99128739567
1450210788015604055,231,1450210788014698901,,1450210775091769454,/move_base-15-1450210775.91769454,1,This goal has been accepted by the simple action server,0,1450210787995430634,odom,2.46507100464,0.128869602654,0.0,0.0,0.0,0.131716738444,0.99128739567
1450210788066155810,232,1450210788065964171,,1450210775091769454,/move_base-15-1450210775.91769454,1,This goal has been accepted by the simple action server,0,1450210788036995864,odom,2.46507100464,0.128869602654,0.0,0.0,0.0,0.131716738444,0.99128739567
1450210788119645751,233,1450210788119443667,,1450210775091769454,/move_base-15-1450210775.91769454,1,This goal has been accepted by the simple action server,0,1450210788114546718,odom,2.46507100464,0.128869602654,0.0,0.0,0.0,0.131716738444,0.99128739567
1450210788168455044,234,1450210788167860295,,1450210775091769454,/move_base-15-1450210775.91769454,1,This goal has been accepted by the simple action server,0,1450210788154542389,odom,2.46507100464,0.128869602654,0.0,0.0,0.0,0.131716738444,0.99128739567
1450210788216756593,235,1450210788216675145,,1450210775091769454,/move_base-15-1450210775.91769454,1,This goal has been accepted by the simple action server,0,1450210788194555877,odom,2.46507100464,0.128869602654,0.0,0.0,0.0,0.131716738444,0.99128739567
1450210788274513801,236,1450210788273898909,,1450210775091769454,/move_base-15-1450210775.91769454,1,This goal has been accepted by the simple action server,0,1450210788234546720,odom,2.46507100464,0.128869602654,0.0,0.0,0.0,0.131716738444,0.99128739567
1450210788331172657,237,1450210788331019259,,1450210775091769454,/move_base-15-1450210775.91769454,1,This goal has been accepted by the simple action server,0,1450210788314547251,odom,2.46507100464,0.128869602654,0.0,0.0,0.0,0.131716738444,0.99128739567
1450210788377307204,238,1450210788371754976,,1450210775091769454,/move_base-15-1450210775.91769454,1,This goal has been accepted by the simple action server,0,1450210788354874478,odom,2.46507100464,0.128869602654,0.0,0.0,0.0,0.131716738444,0.99128739567
1450210788437036366,239,1450210788434034863,,1450210775091769454,/move_base-15-1450210775.91769454,1,This goal has been accepted by the simple action server,0,1450210788394540478,odom,2.46507100464,0.128869602654,0.0,0.0,0.0,0.131716738444,0.99128739567
