%time,field.header.seq,field.header.stamp,field.header.frame_id,field.poses0.header.seq,field.poses0.header.stamp,field.poses0.header.frame_id,field.poses0.pose.position.x,field.poses0.pose.position.y,field.poses0.pose.position.z,field.poses0.pose.orientation.x,field.poses0.pose.orientation.y,field.poses0.pose.orientation.z,field.poses0.pose.orientation.w
1450210773710305865,0,1450210773709996432,odom,0,1450210773709996432,odom,0.0,0.0,0.0,0.0,0.0,0.0,1.0
1450210773710317189,1,1450210773709996432,odom,0,1450210773709996432,odom,0.0,0.0,0.0,0.0,0.0,0.0,1.0,0,1450210773710069882,odom,0.0,0.0,0.0,0.0,0.0,0.0,1.0
1450210773810801753,2,1450210773809874518,odom,0,1450210773809874518,odom,0.0,0.0,0.0,0.0,0.0,0.0,1.0
1450210773810805343,3,1450210773809874518,odom,0,1450210773809874518,odom,0.0,0.0,0.0,0.0,0.0,0.0,1.0,0,1450210773809915062,odom,0.0,0.0,0.0,0.0,0.0,0.0,1.0
1450210773909441146,4,1450210773909302707,odom,0,1450210773909302707,odom,0.0,0.0,0.0,0.0,0.0,0.0,1.0
1450210773909450985,5,1450210773909302707,odom,0,1450210773909302707,odom,0.0,0.0,0.0,0.0,0.0,0.0,1.0,0,1450210773909314703,odom,0.0,0.0,0.0,0.0,0.0,0.0,1.0
1450210774008592868,6,1450210774008379740,odom,0,1450210774008379740,odom,0.0,0.0,0.0,0.0,0.0,0.0,1.0
1450210774008604675,7,1450210774008379740,odom,0,1450210774008379740,odom,0.0,0.0,0.0,0.0,0.0,0.0,1.0,0,1450210774008393916,odom,0.0,0.0,0.0,0.0,0.0,0.0,1.0
1450210774109739181,8,1450210774109434581,odom,0,1450210774109434581,odom,0.0,0.0,0.0,0.0,0.0,0.0,1.0
1450210774109741807,9,1450210774109434581,odom,0,1450210774109434581,odom,0.0,0.0,0.0,0.0,0.0,0.0,1.0,0,1450210774109539305,odom,0.0,0.0,0.0,0.0,0.0,0.0,1.0
1450210774403355291,10,1450210774403030168,odom,0,1450210774403030168,odom,0.0,0.0,0.0,0.0,0.0,0.0,1.0
1450210774403456613,11,1450210774403030168,odom,0,1450210774403030168,odom,0.0,0.0,0.0,0.0,0.0,0.0,1.0,0,1450210774403301106,odom,0.0,0.0,0.0,0.0,0.0,0.0,1.0
1450210774502475870,12,1450210774502322572,odom,0,1450210774502322572,odom,0.0,0.0,0.0,0.0,0.0,0.0,1.0
1450210774502484534,13,1450210774502322572,odom,0,1450210774502322572,odom,0.0,0.0,0.0,0.0,0.0,0.0,1.0,0,1450210774502334698,odom,0.0,0.0,0.0,0.0,0.0,0.0,1.0
1450210774703935254,14,1450210774703693192,odom,0,1450210774703693192,odom,0.0,0.0,0.0,0.0,0.0,0.0,1.0
1450210774704083155,15,1450210774703693192,odom,0,1450210774703693192,odom,0.0,0.0,0.0,0.0,0.0,0.0,1.0,0,1450210774703962064,odom,0.0,0.0,0.0,0.0,0.0,0.0,1.0
1450210774794960934,16,1450210774794290107,odom,0,1450210774794290107,odom,0.0,0.0,0.0,0.0,0.0,0.0,1.0
1450210774794983717,17,1450210774794290107,odom,0,1450210774794290107,odom,0.0,0.0,0.0,0.0,0.0,0.0,1.0,0,1450210774794308205,odom,0.0,0.0,0.0,0.0,0.0,0.0,1.0
1450210774895791872,18,1450210774894889653,odom,0,1450210774894889653,odom,0.0,0.0,0.0,0.0,0.0,0.0,1.0
1450210774895794658,19,1450210774894889653,odom,0,1450210774894889653,odom,0.0,0.0,0.0,0.0,0.0,0.0,1.0,0,1450210774894906644,odom,0.0,0.0,0.0,0.0,0.0,0.0,1.0
1450210774997707971,20,1450210774997344251,odom,0,1450210774997344251,odom,0.0,0.0,0.0,0.0,0.0,0.0,1.0
1450210774997719167,21,1450210774997344251,odom,0,1450210774997344251,odom,0.0,0.0,0.0,0.0,0.0,0.0,1.0,0,1450210774997370791,odom,0.0,0.0,0.0,0.0,0.0,0.0,1.0
1450210775099487636,22,1450210775099108898,odom,0,1450210775099108898,odom,0.0,0.0,0.0,0.0,0.0,0.0,1.0,0,1450210775099108898,odom,0.0148010253906,-1.90734863281e-05,0.0,0.0,0.0,0.0,1.0,0,1450210775099108898,odom,0.0273010253906,-2.82287597662e-05,0.0,0.0,0.0,0.0,1.0,0,1450210775099108898,odom,0.0398010253906,-4.11987304689e-05,0.0,0.0,0.0,0.0,1.0,0,1450210775099108898,odom,0.0523010253906,-5.68389892583e-05,0.0,0.0,0.0,0.0,1.0,0,1450210775099108898,odom,0.0648010253906,-7.70568847654e-05,0.0,0.0,0.0,0.0,1.0,0,1450210775099108898,odom,0.0773010253906,-0.000101089477539,0.0,0.0,0.0,0.0,1.0,0,1450210775099108898,odom,0.0898010253906,-0.000130844116211,0.0,0.0,0.0,0.0,1.0,0,1450210775099108898,odom,0.102300643921,-0.000165557861329,0.0,0.0,0.0,0.0,1.0,0,1450210775099108898,odom,0.114800643921,-0.000206756591797,0.0,0.0,0.0,0.0,1.0,0,1450210775099108898,odom,0.127300643921,-0.000253677368164,0.0,0.0,0.0,0.0,1.0,0,1450210775099108898,odom,0.139800643921,-0.000307846069336,0.0,0.0,0.0,0.0,1.0,0,1450210775099108898,odom,0.152300262451,-0.000368881225586,0.0,0.0,0.0,0.0,1.0,0,1450210775099108898,odom,0.164800262451,-0.000437927246094,0.0,0.0,0.0,0.0,1.0,0,1450210775099108898,odom,0.177299880981,-0.000514602661133,0.0,0.0,0.0,0.0,1.0,0,1450210775099108898,odom,0.189799499512,-0.000600051879883,0.0,0.0,0.0,0.0,1.0,0,1450210775099108898,odom,0.202299499512,-0.000693893432618,0.0,0.0,0.0,0.0,1.0,0,1450210775099108898,odom,0.214680862427,0.00102272033691,0.0,0.0,0.0,0.0,1.0,0,1450210775099108898,odom,0.227095413208,0.00248336791992,0.0,0.0,0.0,0.0,1.0,0,1450210775099108898,odom,0.239524841309,0.00380744934082,0.0,0.0,0.0,0.0,1.0,0,1450210775099108898,odom,0.251973724365,0.00493850708008,0.0,0.0,0.0,0.0,1.0,0,1450210775099108898,odom,0.264431381226,0.00596580505371,0.0,0.0,0.0,0.0,1.0,0,1450210775099108898,odom,0.276900863647,0.0068416595459,0.0,0.0,0.0,0.0,1.0,0,1450210775099108898,odom,0.289375686646,0.00763282775879,0.0,0.0,0.0,0.0,1.0,0,1450210775099108898,odom,0.301857757568,0.00829925537109,0.0,0.0,0.0,0.0,1.0,0,1450210775099108898,odom,0.314343643188,0.00889167785644,0.0,0.0,0.0,0.0,1.0,0,1450210775099108898,odom,0.326834487915,0.00937461853027,0.0,0.0,0.0,0.0,1.0,0,1450210775099108898,odom,0.33932762146,0.00978736877441,0.0,0.0,0.0,0.0,1.0,0,1450210775099108898,odom,0.351823806763,0.0100971221924,0.0,0.0,0.0,0.0,1.0,0,1450210775099108898,odom,0.364321517944,0.0103336334229,0.0,0.0,0.0,0.0,1.0,0,1450210775099108898,odom,0.376816177368,0.00996856689453,0.0,0.0,0.0,0.0,1.0,0,1450210775099108898,odom,0.38931350708,0.00971336364746,0.0,0.0,0.0,0.0,1.0,0,1450210775099108898,odom,0.40181350708,0.00972175598145,0.0,0.0,0.0,0.0,1.0,0,1450210775099108898,odom,0.41431312561,0.00983390808105,0.0,0.0,0.0,0.0,1.0,0,1450210775099108898,odom,0.426800537109,0.0103946685791,0.0,0.0,0.0,0.0,1.0,0,1450210775099108898,odom,0.439289474487,0.0109245300293,0.0,0.0,0.0,0.0,1.0,0,1450210775099108898,odom,0.451779937744,0.0114086151123,0.0,0.0,0.0,0.0,1.0,0,1450210775099108898,odom,0.46427154541,0.0118671417236,0.0,0.0,0.0,0.0,1.0,0,1450210775099108898,odom,0.476764297485,0.0122871398926,0.0,0.0,0.0,0.0,1.0,0,1450210775099108898,odom,0.48925819397,0.012686920166,0.0,0.0,0.0,0.0,1.0,0,1450210775099108898,odom,0.501752853394,0.013053894043,0.0,0.0,0.0,0.0,1.0,0,1450210775099108898,odom,0.514247894287,0.0134037017822,0.0,0.0,0.0,0.0,1.0,0,1450210775099108898,odom,0.52674369812,0.0137260437012,0.0,0.0,0.0,0.0,1.0,0,1450210775099108898,odom,0.539239883423,0.0140342712402,0.0,0.0,0.0,0.0,1.0,0,1450210775099108898,odom,0.551736450195,0.0143184661865,0.0,0.0,0.0,0.0,1.0,0,1450210775099108898,odom,0.564233779907,0.0145908355713,0.0,0.0,0.0,0.0,1.0,0,1450210775099108898,odom,0.576731109619,0.0148426055908,0.0,0.0,0.0,0.0,1.0,0,1450210775099108898,odom,0.589228820801,0.0150840759277,0.0,0.0,0.0,0.0,1.0,0,1450210775099108898,odom,0.601726913452,0.015308380127,0.0,0.0,0.0,0.0,1.0,0,1450210775099108898,odom,0.614225006104,0.0155235290527,0.0,0.0,0.0,0.0,1.0,0,1450210775099108898,odom,0.626723480225,0.0157234191895,0.0,0.0,0.0,0.0,1.0,0,1450210775099108898,odom,0.639221954346,0.0159156799316,0.0,0.0,0.0,0.0,1.0,0,1450210775099108898,odom,0.651720428467,0.0160945892334,0.0,0.0,0.0,0.0,1.0,0,1450210775099108898,odom,0.664219284058,0.0162666320801,0.0,0.0,0.0,0.0,1.0,0,1450210775099108898,odom,0.676718139648,0.016427230835,0.0,0.0,0.0,0.0,1.0,0,1450210775099108898,odom,0.689217376709,0.0165817260742,0.0,0.0,0.0,0.0,1.0,0,1450210775099108898,odom,0.70171661377,0.0167259216309,0.0,0.0,0.0,0.0,1.0,0,1450210775099108898,odom,0.71421585083,0.0168651580811,0.0,0.0,0.0,0.0,1.0,0,1450210775099108898,odom,0.726715087891,0.0169952392578,0.0,0.0,0.0,0.0,1.0,0,1450210775099108898,odom,0.739214324951,0.0171207427979,0.0,0.0,0.0,0.0,1.0,0,1450210775099108898,odom,0.751713943481,0.0172382354736,0.0,0.0,0.0,0.0,1.0,0,1450210775099108898,odom,0.764213562012,0.0173519134521,0.0,0.0,0.0,0.0,1.0,0,1450210775099108898,odom,0.776712799072,0.0174579620361,0.0,0.0,0.0,0.0,1.0,0,1450210775099108898,odom,0.789212417603,0.0175605773926,0.0,0.0,0.0,0.0,1.0,0,1450210775099108898,odom,0.801712036133,0.0176567077637,0.0,0.0,0.0,0.0,1.0,0,1450210775099108898,odom,0.814211654663,0.0177501678467,0.0,0.0,0.0,0.0,1.0,0,1450210775099108898,odom,0.826711654663,0.0178371429443,0.0,0.0,0.0,0.0,1.0,0,1450210775099108898,odom,0.839211273193,0.0179218292236,0.0,0.0,0.0,0.0,1.0,0,1450210775099108898,odom,0.851710891724,0.0180011749268,0.0,0.0,0.0,0.0,1.0,0,1450210775099108898,odom,0.864210891724,0.0180778503418,0.0,0.0,0.0,0.0,1.0,0,1450210775099108898,odom,0.876710510254,0.0181499481201,0.0,0.0,0.0,0.0,1.0,0,1450210775099108898,odom,0.889210510254,0.0182197570801,0.0,0.0,0.0,0.0,1.0,0,1450210775099108898,odom,0.901710128784,0.018285369873,0.0,0.0,0.0,0.0,1.0,0,1450210775099108898,odom,0.914210128784,0.0183490753174,0.0,0.0,0.0,0.0,1.0,0,1450210775099108898,odom,0.926709747314,0.0184089660645,0.0,0.0,0.0,0.0,1.0,0,1450210775099108898,odom,0.939209747314,0.0184669494629,0.0,0.0,0.0,0.0,1.0,0,1450210775099108898,odom,0.951709747314,0.0185214996338,0.0,0.0,0.0,0.0,1.0,0,1450210775099108898,odom,0.964209365845,0.0185745239258,0.0,0.0,0.0,0.0,1.0,0,1450210775099108898,odom,0.976709365845,0.0186241149902,0.0,0.0,0.0,0.0,1.0,0,1450210775099108898,odom,0.989209365845,0.0186725616455,0.0,0.0,0.0,0.0,1.0,0,1450210775099108898,odom,1.00170936584,0.018717956543,0.0,0.0,0.0,0.0,1.0,0,1450210775099108898,odom,1.01420898438,0.0187622070312,0.0,0.0,0.0,0.0,1.0,0,1450210775099108898,odom,1.02670898437,0.0188037872314,0.0,0.0,0.0,0.0,1.0,0,1450210775099108898,odom,1.03920898437,0.0188442230225,0.0,0.0,0.0,0.0,1.0,0,1450210775099108898,odom,1.05170898437,0.0188823699951,0.0,0.0,0.0,0.0,1.0,0,1450210775099108898,odom,1.06420898438,0.0189193725586,0.0,0.0,0.0,0.0,1.0,0,1450210775099108898,odom,1.07670898438,0.0189540863037,0.0,0.0,0.0,0.0,1.0,0,1450210775099108898,odom,1.08920860291,0.0189880371094,0.0,0.0,0.0,0.0,1.0,0,1450210775099108898,odom,1.10170860291,0.0190200805664,0.0,0.0,0.0,0.0,1.0,0,1450210775099108898,odom,1.11420860291,0.0190509796143,0.0,0.0,0.0,0.0,1.0,0,1450210775099108898,odom,1.12670860291,0.0190803527832,0.0,0.0,0.0,0.0,1.0,0,1450210775099108898,odom,1.13920860291,0.0191089630127,0.0,0.0,0.0,0.0,1.0,0,1450210775099108898,odom,1.15170860291,0.0191360473633,0.0,0.0,0.0,0.0,1.0,0,1450210775099108898,odom,1.16420860291,0.0191623687744,0.0,0.0,0.0,0.0,1.0,0,1450210775099108898,odom,1.17670860291,0.0191875457764,0.0,0.0,0.0,0.0,1.0,0,1450210775099108898,odom,1.18920860291,0.0192119598389,0.0,0.0,0.0,0.0,1.0,0,1450210775099108898,odom,1.20170860291,0.0192352294922,0.0,0.0,0.0,0.0,1.0,0,1450210775099108898,odom,1.21420860291,0.0192577362061,0.0,0.0,0.0,0.0,1.0,0,1450210775099108898,odom,1.22670860291,0.0192790985107,0.0,0.0,0.0,0.0,1.0,0,1450210775099108898,odom,1.23920860291,0.0193004608154,0.0,0.0,0.0,0.0,1.0,0,1450210775099108898,odom,1.25170860291,0.0193206787109,0.0,0.0,0.0,0.0,1.0,0,1450210775099108898,odom,1.26420860291,0.0193405151367,0.0,0.0,0.0,0.0,1.0,0,1450210775099108898,odom,1.27670822144,0.019359588623,0.0,0.0,0.0,0.0,1.0,0,1450210775099108898,odom,1.28920822144,0.0193786621094,0.0,0.0,0.0,0.0,1.0,0,1450210775099108898,odom,1.30170822144,0.0193969726563,0.0,0.0,0.0,0.0,1.0,0,1450210775099108898,odom,1.31420822144,0.0194152832031,0.0,0.0,0.0,0.0,1.0,0,1450210775099108898,odom,1.32670822144,0.0194332122803,0.0,0.0,0.0,0.0,1.0,0,1450210775099108898,odom,1.33920822144,0.0194511413574,0.0,0.0,0.0,0.0,1.0,0,1450210775099108898,odom,1.35170822144,0.0194690704346,0.0,0.0,0.0,0.0,1.0,0,1450210775099108898,odom,1.36420822144,0.0194869995117,0.0,0.0,0.0,0.0,1.0,0,1450210775099108898,odom,1.37670822144,0.0195053100586,0.0,0.0,0.0,0.0,1.0,0,1450210775099108898,odom,1.38920822144,0.0195240020752,0.0,0.0,0.0,0.0,1.0,0,1450210775099108898,odom,1.40170822144,0.0195430755615,0.0,0.0,0.0,0.0,1.0,0,1450210775099108898,odom,1.41420822144,0.019563293457,0.0,0.0,0.0,0.0,1.0,0,1450210775099108898,odom,1.42670822144,0.0195838928223,0.0,0.0,0.0,0.0,1.0,0,1450210775099108898,odom,1.43920822144,0.0196060180664,0.0,0.0,0.0,0.0,1.0,0,1450210775099108898,odom,1.45170822144,0.0196292877197,0.0,0.0,0.0,0.0,1.0,0,1450210775099108898,odom,1.46420822144,0.0196544647217,0.0,0.0,0.0,0.0,1.0,0,1450210775099108898,odom,1.47670822144,0.0196815490723,0.0,0.0,0.0,0.0,1.0,0,1450210775099108898,odom,1.48920822144,0.0197113037109,0.0,0.0,0.0,0.0,1.0,0,1450210775099108898,odom,1.50170822144,0.019743347168,0.0,0.0,0.0,0.0,1.0,0,1450210775099108898,odom,1.51420822144,0.0197788238525,0.0,0.0,0.0,0.0,1.0,0,1450210775099108898,odom,1.52670822144,0.0198184967041,0.0,0.0,0.0,0.0,1.0,0,1450210775099108898,odom,1.53920822144,0.0198623657227,0.0,0.0,0.0,0.0,1.0,0,1450210775099108898,odom,1.5517074585,0.0199111938477,0.0,0.0,0.0,0.0,1.0,0,1450210775099108898,odom,1.5642074585,0.019966506958,0.0,0.0,0.0,0.0,1.0,0,1450210775099108898,odom,1.5767074585,0.0200283050537,0.0,0.0,0.0,0.0,1.0,0,1450210775099108898,odom,1.5892074585,0.0200984954834,0.0,0.0,0.0,0.0,1.0,0,1450210775099108898,odom,1.60170669556,0.0201778411865,0.0,0.0,0.0,0.0,1.0,0,1450210775099108898,odom,1.61420669556,0.0202682495117,0.0,0.0,0.0,0.0,1.0,0,1450210775099108898,odom,1.62670593262,0.0203704833984,0.0,0.0,0.0,0.0,1.0,0,1450210775099108898,odom,1.63920593262,0.0204875946045,0.0,0.0,0.0,0.0,1.0,0,1450210775099108898,odom,1.65170516968,0.0206207275391,0.0,0.0,0.0,0.0,1.0,0,1450210775099108898,odom,1.66420440674,0.0207733154297,0.0,0.0,0.0,0.0,1.0,0,1450210775099108898,odom,1.67670288086,0.020947265625,0.0,0.0,0.0,0.0,1.0,0,1450210775099108898,odom,1.68920135498,0.021146774292,0.0,0.0,0.0,0.0,1.0,0,1450210775099108898,odom,1.70169906616,0.0213752746582,0.0,0.0,0.0,0.0,1.0,0,1450210775099108898,odom,1.71419677734,0.0216373443604,0.0,0.0,0.0,0.0,1.0,0,1450210775099108898,odom,1.72669296265,0.0219375610352,0.0,0.0,0.0,0.0,1.0,0,1450210775099108898,odom,1.73918838501,0.022282409668,0.0,0.0,0.0,0.0,1.0,0,1450210775099108898,odom,1.75104370117,0.0262451171875,0.0,0.0,0.0,0.0,1.0,0,1450210775099108898,odom,1.76289901733,0.0302070617676,0.0,0.0,0.0,0.0,1.0,0,1450210775099108898,odom,1.7747543335,0.0341686248779,0.0,0.0,0.0,0.0,1.0,0,1450210775099108898,odom,1.7866104126,0.0381294250488,0.0,0.0,0.0,0.0,1.0,0,1450210775099108898,odom,1.7984664917,0.0420902252197,0.0,0.0,0.0,0.0,1.0,0,1450210775099108898,odom,1.8103225708,0.0460502624512,0.0,0.0,0.0,0.0,1.0,0,1450210775099108898,odom,1.8214881897,0.0516689300537,0.0,0.0,0.0,0.0,1.0,0,1450210775099108898,odom,1.83282775879,0.056929397583,0.0,0.0,0.0,0.0,1.0,0,1450210775099108898,odom,1.84432067871,0.0618453979492,0.0,0.0,0.0,0.0,1.0,0,1450210775099108898,odom,1.85594863892,0.0664321899414,0.0,0.0,0.0,0.0,1.0,0,1450210775099108898,odom,1.86769485474,0.070707321167,0.0,0.0,0.0,0.0,1.0,0,1450210775099108898,odom,1.87945861816,0.0749340057373,0.0,0.0,0.0,0.0,1.0,0,1450210775099108898,odom,1.89191818237,0.0759330749512,0.0,0.0,0.0,0.0,1.0,0,1450210775099108898,odom,1.9044052124,0.0765033721924,0.0,0.0,0.0,0.0,1.0,0,1450210775099108898,odom,1.91688156128,0.0772705078125,0.0,0.0,0.0,0.0,1.0,0,1450210775099108898,odom,1.92930526733,0.0786510467529,0.0,0.0,0.0,0.0,1.0,0,1450210775099108898,odom,1.94173126221,0.080012512207,0.0,0.0,0.0,0.0,1.0,0,1450210775099108898,odom,1.95414123535,0.0815082550049,0.0,0.0,0.0,0.0,1.0,0,1450210775099108898,odom,1.96656036377,0.082926940918,0.0,0.0,0.0,0.0,1.0,0,1450210775099108898,odom,1.97896118164,0.0845016479492,0.0,0.0,0.0,0.0,1.0,0,1450210775099108898,odom,1.99138336182,0.0858932495117,0.0,0.0,0.0,0.0,1.0,0,1450210775099108898,odom,2.00383300781,0.0870098114014,0.0,0.0,0.0,0.0,1.0,0,1450210775099108898,odom,2.01628799438,0.0880695343018,0.0,0.0,0.0,0.0,1.0,0,1450210775099108898,odom,2.02875366211,0.088996887207,0.0,0.0,0.0,0.0,1.0,0,1450210775099108898,odom,2.04121780396,0.0899478912354,0.0,0.0,0.0,0.0,1.0,0,1450210775099108898,odom,2.05367584229,0.0909671783447,0.0,0.0,0.0,0.0,1.0,0,1450210775099108898,odom,2.06612930298,0.0920421600342,0.0,0.0,0.0,0.0,1.0,0,1450210775099108898,odom,2.07845840454,0.0941051483154,0.0,0.0,0.0,0.0,1.0,0,1450210775099108898,odom,2.09082870483,0.0958988189697,0.0,0.0,0.0,0.0,1.0,0,1450210775099108898,odom,2.1032409668,0.0973793029785,0.0,0.0,0.0,0.0,1.0,0,1450210775099108898,odom,2.115675354,0.0986595153809,0.0,0.0,0.0,0.0,1.0,0,1450210775099108898,odom,2.12817306519,0.0988819122314,0.0,0.0,0.0,0.0,1.0,0,1450210775099108898,odom,2.14067077637,0.0991287231445,0.0,0.0,0.0,0.0,1.0,0,1450210775099108898,odom,2.15307617188,0.100662612915,0.0,0.0,0.0,0.0,1.0,0,1450210775099108898,odom,2.16551132202,0.101937484741,0.0,0.0,0.0,0.0,1.0,0,1450210775099108898,odom,2.1778717041,0.100075912476,0.0,0.0,0.0,0.0,1.0,0,1450210775099108898,odom,2.19024353027,0.0982891082764,0.0,0.0,0.0,0.0,1.0,0,1450210775099108898,odom,2.20273132324,0.098832321167,0.0,0.0,0.0,0.0,1.0,0,1450210775099108898,odom,2.21522064209,0.099352645874,0.0,0.0,0.0,0.0,1.0,0,1450210775099108898,odom,2.227709198,0.0998859405518,0.0,0.0,0.0,0.0,1.0,0,1450210775099108898,odom,2.24019851685,0.100394821167,0.0,0.0,0.0,0.0,1.0,0,1450210775099108898,odom,2.25269165039,0.10082359314,0.0,0.0,0.0,0.0,1.0,0,1450210775099108898,odom,2.26518478394,0.101235961914,0.0,0.0,0.0,0.0,1.0,0,1450210775099108898,odom,2.2776512146,0.102153396606,0.0,0.0,0.0,0.0,1.0,0,1450210775099108898,odom,2.2901222229,0.102998733521,0.0,0.0,0.0,0.0,1.0,0,1450210775099108898,odom,2.30258636475,0.102056503296,0.0,0.0,0.0,0.0,1.0,0,1450210775099108898,odom,2.31504821777,0.101075744629,0.0,0.0,0.0,0.0,1.0,0,1450210775099108898,odom,2.32753829956,0.100579452515,0.0,0.0,0.0,0.0,1.0,0,1450210775099108898,odom,2.34002761841,0.10005569458,0.0,0.0,0.0,0.0,1.0,0,1450210775099108898,odom,2.35252761841,0.100114059448,0.0,0.0,0.0,0.0,1.0,0,1450210775099108898,odom,2.36502685547,0.100030517578,0.0,0.0,0.0,0.0,1.0,0,1450210775099108898,odom,2.37750167847,0.100828552246,0.0,0.0,0.0,0.0,1.0,0,1450210775099108898,odom,2.38999710083,0.10114402771,0.0,0.0,0.0,0.0,1.0,0,1450210775099108898,odom,2.4023399353,0.0991664886475,0.0,0.0,0.0,0.0,1.0,0,1450210775099108898,odom,2.41457443237,0.0966022491455,0.0,0.0,0.0,0.0,1.0,0,1450210775099108898,odom,2.42656326294,0.100140762329,0.0,0.0,0.0,0.0,1.0,0,1450210775099108898,odom,2.43854217529,0.1037109375,0.0,0.0,0.0,0.0,1.0,0,1450210775099108898,odom,2.4505607605,0.107147598267,0.0,0.0,0.0,0.0,1.0,0,1450210775099108898,odom,2.46257171631,0.110608673096,0.0,0.0,0.0,0.0,1.0,0,1450210775099108898,odom,2.47458343506,0.114069366455,0.0,0.0,0.0,0.0,1.0,0,1450210775099108898,odom,2.48664932251,0.117333221436,0.0,0.0,0.0,0.0,1.0,0,1450210775099108898,odom,2.4986907959,0.12068977356,0.0,0.0,0.0,0.0,1.0,0,1450210775099108898,odom,2.51072158813,0.124080276489,0.0,0.0,0.0,0.0,1.0,0,1450210775099108898,odom,2.52303161621,0.126250839233,0.0,0.0,0.0,0.0,1.0,0,1450210775099108898,odom,2.53537597656,0.128217697144,0.0,0.0,0.0,0.0,1.0,0,1450210775099108898,odom,2.54765930176,0.130534744263,0.0,0.0,0.0,0.0,1.0,0,1450210775099108898,odom,2.55985336304,0.133284378052,0.0,0.0,0.0,0.0,1.0,0,1450210775099108898,odom,2.57199935913,0.136237335205,0.0,0.0,0.0,0.0,1.0,0,1450210775099108898,odom,2.58409576416,0.139390182495,0.0,0.0,0.0,0.0,1.0,0,1450210775099108898,odom,2.5961517334,0.142692184448,0.0,0.0,0.0,0.0,1.0,0,1450210775099108898,odom,2.60816955566,0.146129226685,0.0,0.0,0.0,0.0,1.0,0,1450210775099108898,odom,2.62015609741,0.149675369263,0.0,0.0,0.0,0.0,1.0,0,1450210775099108898,odom,2.63197860718,0.153734207153,0.0,0.0,0.0,0.0,1.0,0,1450210775099108898,odom,2.643775177,0.157869720459,0.0,0.0,0.0,0.0,1.0,0,1450210775099108898,odom,2.65556030273,0.162035751343,0.0,0.0,0.0,0.0,1.0,0,1450210775099108898,odom,2.66735305786,0.166181182861,0.0,0.0,0.0,0.0,1.0,0,1450210775099108898,odom,2.67916870117,0.170259475708,0.0,0.0,0.0,0.0,1.0,0,1450210775099108898,odom,2.69101715088,0.174242782593,0.0,0.0,0.0,0.0,1.0,0,1450210775099108898,odom,2.70335540771,0.176248168945,0.0,0.0,0.0,0.0,1.0,0,1450210775099108898,odom,2.71569137573,0.17826499939,0.0,0.0,0.0,0.0,1.0,0,1450210775099108898,odom,2.72803115845,0.18025894165,0.0,0.0,0.0,0.0,1.0,0,1450210775099108898,odom,2.74036865234,0.18226852417,0.0,0.0,0.0,0.0,1.0,0,1450210775099108898,odom,2.75270843506,0.184264755249,0.0,0.0,0.0,0.0,1.0,0,1450210775099108898,odom,2.76504516602,0.186278915405,0.0,0.0,0.0,0.0,1.0,0,1450210775099108898,odom,2.77738265991,0.188286590576,0.0,0.0,0.0,0.0,1.0,0,1450210775099108898,odom,2.78971710205,0.190313720703,0.0,0.0,0.0,0.0,1.0,0,1450210775099108898,odom,2.80205230713,0.192338943481,0.0,0.0,0.0,0.0,1.0,0,1450210775099108898,odom,2.81438369751,0.194384765625,0.0,0.0,0.0,0.0,1.0,0,1450210775099108898,odom,2.82671508789,0.196430969238,0.0,0.0,0.0,0.0,1.0,0,1450210775099108898,odom,2.83904266357,0.198497390747,0.0,0.0,0.0,0.0,1.0,0,1450210775099108898,odom,2.85141983032,0.200248718262,0.0,0.0,0.0,0.0,1.0,0,1450210775099108898,odom,2.86381225586,0.201885223389,0.0,0.0,0.0,0.0,1.0,0,1450210775099108898,odom,2.876222229,0.203379821777,0.0,0.0,0.0,0.0,1.0,0,1450210775099108898,odom,2.88864212036,0.204796218872,0.0,0.0,0.0,0.0,1.0,0,1450210775099108898,odom,2.90107269287,0.206111526489,0.0,0.0,0.0,0.0,1.0,0,1450210775099108898,odom,2.91350860596,0.207376861572,0.0,0.0,0.0,0.0,1.0,0,1450210775099108898,odom,2.92595062256,0.208574676514,0.0,0.0,0.0,0.0,1.0,0,1450210775099108898,odom,2.93839569092,0.209747314453,0.0,0.0,0.0,0.0,1.0,0,1450210775099108898,odom,2.95084381104,0.21088180542,0.0,0.0,0.0,0.0,1.0,0,1450210775099108898,odom,2.96329269409,0.212015151978,0.0,0.0,0.0,0.0,1.0,0,1450210775099108898,odom,2.97574234009,0.213138198853,0.0,0.0,0.0,0.0,1.0,0,1450210775099108898,odom,2.98818893433,0.21428527832,0.0,0.0,0.0,0.0,1.0,0,1450210775099108898,odom,3.00063476562,0.215451812744,0.0,0.0,0.0,0.0,1.0,0,1450210775099108898,odom,3.01307525635,0.21667137146,0.0,0.0,0.0,0.0,1.0,0,1450210775099108898,odom,3.02550964355,0.217945480347,0.0,0.0,0.0,0.0,1.0,0,1450210775099108898,odom,3.03793563843,0.21930770874,0.0,0.0,0.0,0.0,1.0,0,1450210775099108898,odom,3.05027084351,0.221328353882,0.0,0.0,0.0,0.0,1.0,0,1450210775099108898,odom,3.06263961792,0.223138809204,0.0,0.0,0.0,0.0,1.0,0,1450210775099108898,odom,3.075,0.225,0.0,0.0,0.0,0.0,1.0,0,1450210775099108898,odom,3.1,0.25,0.0,0.0,0.0,0.0,1.0
1450210775101804249,23,1450210775099108898,odom,0,1450210775099108898,odom,0.0,0.0,0.0,0.0,0.0,0.0,1.0,0,1450210775099108898,odom,0.0148010253906,-1.90734863281e-05,0.0,0.0,0.0,0.0,1.0,0,1450210775099108898,odom,0.0273010253906,-2.82287597662e-05,0.0,0.0,0.0,0.0,1.0,0,1450210775099108898,odom,0.0398010253906,-4.11987304689e-05,0.0,0.0,0.0,0.0,1.0,0,1450210775099108898,odom,0.0523010253906,-5.68389892583e-05,0.0,0.0,0.0,0.0,1.0,0,1450210775099108898,odom,0.0648010253906,-7.70568847654e-05,0.0,0.0,0.0,0.0,1.0,0,1450210775099108898,odom,0.0773010253906,-0.000101089477539,0.0,0.0,0.0,0.0,1.0,0,1450210775099108898,odom,0.0898010253906,-0.000130844116211,0.0,0.0,0.0,0.0,1.0,0,1450210775099108898,odom,0.102300643921,-0.000165557861329,0.0,0.0,0.0,0.0,1.0,0,1450210775099108898,odom,0.114800643921,-0.000206756591797,0.0,0.0,0.0,0.0,1.0,0,1450210775099108898,odom,0.127300643921,-0.000253677368164,0.0,0.0,0.0,0.0,1.0,0,1450210775099108898,odom,0.139800643921,-0.000307846069336,0.0,0.0,0.0,0.0,1.0,0,1450210775099108898,odom,0.152300262451,-0.000368881225586,0.0,0.0,0.0,0.0,1.0,0,1450210775099108898,odom,0.164800262451,-0.000437927246094,0.0,0.0,0.0,0.0,1.0,0,1450210775099108898,odom,0.177299880981,-0.000514602661133,0.0,0.0,0.0,0.0,1.0,0,1450210775099108898,odom,0.189799499512,-0.000600051879883,0.0,0.0,0.0,0.0,1.0,0,1450210775099108898,odom,0.202299499512,-0.000693893432618,0.0,0.0,0.0,0.0,1.0,0,1450210775099108898,odom,0.214680862427,0.00102272033691,0.0,0.0,0.0,0.0,1.0,0,1450210775099108898,odom,0.227095413208,0.00248336791992,0.0,0.0,0.0,0.0,1.0,0,1450210775099108898,odom,0.239524841309,0.00380744934082,0.0,0.0,0.0,0.0,1.0,0,1450210775099108898,odom,0.251973724365,0.00493850708008,0.0,0.0,0.0,0.0,1.0,0,1450210775099108898,odom,0.264431381226,0.00596580505371,0.0,0.0,0.0,0.0,1.0,0,1450210775099108898,odom,0.276900863647,0.0068416595459,0.0,0.0,0.0,0.0,1.0,0,1450210775099108898,odom,0.289375686646,0.00763282775879,0.0,0.0,0.0,0.0,1.0,0,1450210775099108898,odom,0.301857757568,0.00829925537109,0.0,0.0,0.0,0.0,1.0,0,1450210775099108898,odom,0.314343643188,0.00889167785644,0.0,0.0,0.0,0.0,1.0,0,1450210775099108898,odom,0.326834487915,0.00937461853027,0.0,0.0,0.0,0.0,1.0,0,1450210775099108898,odom,0.33932762146,0.00978736877441,0.0,0.0,0.0,0.0,1.0,0,1450210775099108898,odom,0.351823806763,0.0100971221924,0.0,0.0,0.0,0.0,1.0,0,1450210775099108898,odom,0.364321517944,0.0103336334229,0.0,0.0,0.0,0.0,1.0,0,1450210775099108898,odom,0.376816177368,0.00996856689453,0.0,0.0,0.0,0.0,1.0,0,1450210775099108898,odom,0.38931350708,0.00971336364746,0.0,0.0,0.0,0.0,1.0,0,1450210775099108898,odom,0.40181350708,0.00972175598145,0.0,0.0,0.0,0.0,1.0,0,1450210775099108898,odom,0.41431312561,0.00983390808105,0.0,0.0,0.0,0.0,1.0,0,1450210775099108898,odom,0.426800537109,0.0103946685791,0.0,0.0,0.0,0.0,1.0,0,1450210775099108898,odom,0.439289474487,0.0109245300293,0.0,0.0,0.0,0.0,1.0,0,1450210775099108898,odom,0.451779937744,0.0114086151123,0.0,0.0,0.0,0.0,1.0,0,1450210775099108898,odom,0.46427154541,0.0118671417236,0.0,0.0,0.0,0.0,1.0,0,1450210775099108898,odom,0.476764297485,0.0122871398926,0.0,0.0,0.0,0.0,1.0,0,1450210775099108898,odom,0.48925819397,0.012686920166,0.0,0.0,0.0,0.0,1.0,0,1450210775099108898,odom,0.501752853394,0.013053894043,0.0,0.0,0.0,0.0,1.0,0,1450210775099108898,odom,0.514247894287,0.0134037017822,0.0,0.0,0.0,0.0,1.0,0,1450210775099108898,odom,0.52674369812,0.0137260437012,0.0,0.0,0.0,0.0,1.0,0,1450210775099108898,odom,0.539239883423,0.0140342712402,0.0,0.0,0.0,0.0,1.0,0,1450210775099108898,odom,0.551736450195,0.0143184661865,0.0,0.0,0.0,0.0,1.0,0,1450210775099108898,odom,0.564233779907,0.0145908355713,0.0,0.0,0.0,0.0,1.0,0,1450210775099108898,odom,0.576731109619,0.0148426055908,0.0,0.0,0.0,0.0,1.0,0,1450210775099108898,odom,0.589228820801,0.0150840759277,0.0,0.0,0.0,0.0,1.0,0,1450210775099108898,odom,0.601726913452,0.015308380127,0.0,0.0,0.0,0.0,1.0,0,1450210775099108898,odom,0.614225006104,0.0155235290527,0.0,0.0,0.0,0.0,1.0,0,1450210775099108898,odom,0.626723480225,0.0157234191895,0.0,0.0,0.0,0.0,1.0,0,1450210775099108898,odom,0.639221954346,0.0159156799316,0.0,0.0,0.0,0.0,1.0,0,1450210775099108898,odom,0.651720428467,0.0160945892334,0.0,0.0,0.0,0.0,1.0,0,1450210775099108898,odom,0.664219284058,0.0162666320801,0.0,0.0,0.0,0.0,1.0,0,1450210775099108898,odom,0.676718139648,0.016427230835,0.0,0.0,0.0,0.0,1.0,0,1450210775099108898,odom,0.689217376709,0.0165817260742,0.0,0.0,0.0,0.0,1.0,0,1450210775099108898,odom,0.70171661377,0.0167259216309,0.0,0.0,0.0,0.0,1.0,0,1450210775099108898,odom,0.71421585083,0.0168651580811,0.0,0.0,0.0,0.0,1.0,0,1450210775099108898,odom,0.726715087891,0.0169952392578,0.0,0.0,0.0,0.0,1.0,0,1450210775099108898,odom,0.739214324951,0.0171207427979,0.0,0.0,0.0,0.0,1.0,0,1450210775099108898,odom,0.751713943481,0.0172382354736,0.0,0.0,0.0,0.0,1.0,0,1450210775099108898,odom,0.764213562012,0.0173519134521,0.0,0.0,0.0,0.0,1.0,0,1450210775099108898,odom,0.776712799072,0.0174579620361,0.0,0.0,0.0,0.0,1.0,0,1450210775099108898,odom,0.789212417603,0.0175605773926,0.0,0.0,0.0,0.0,1.0,0,1450210775099108898,odom,0.801712036133,0.0176567077637,0.0,0.0,0.0,0.0,1.0,0,1450210775099108898,odom,0.814211654663,0.0177501678467,0.0,0.0,0.0,0.0,1.0,0,1450210775099108898,odom,0.826711654663,0.0178371429443,0.0,0.0,0.0,0.0,1.0,0,1450210775099108898,odom,0.839211273193,0.0179218292236,0.0,0.0,0.0,0.0,1.0,0,1450210775099108898,odom,0.851710891724,0.0180011749268,0.0,0.0,0.0,0.0,1.0,0,1450210775099108898,odom,0.864210891724,0.0180778503418,0.0,0.0,0.0,0.0,1.0,0,1450210775099108898,odom,0.876710510254,0.0181499481201,0.0,0.0,0.0,0.0,1.0,0,1450210775099108898,odom,0.889210510254,0.0182197570801,0.0,0.0,0.0,0.0,1.0,0,1450210775099108898,odom,0.901710128784,0.018285369873,0.0,0.0,0.0,0.0,1.0,0,1450210775099108898,odom,0.914210128784,0.0183490753174,0.0,0.0,0.0,0.0,1.0,0,1450210775099108898,odom,0.926709747314,0.0184089660645,0.0,0.0,0.0,0.0,1.0,0,1450210775099108898,odom,0.939209747314,0.0184669494629,0.0,0.0,0.0,0.0,1.0,0,1450210775099108898,odom,0.951709747314,0.0185214996338,0.0,0.0,0.0,0.0,1.0,0,1450210775099108898,odom,0.964209365845,0.0185745239258,0.0,0.0,0.0,0.0,1.0,0,1450210775099108898,odom,0.976709365845,0.0186241149902,0.0,0.0,0.0,0.0,1.0,0,1450210775099108898,odom,0.989209365845,0.0186725616455,0.0,0.0,0.0,0.0,1.0,0,1450210775099108898,odom,1.00170936584,0.018717956543,0.0,0.0,0.0,0.0,1.0,0,1450210775099108898,odom,1.01420898438,0.0187622070312,0.0,0.0,0.0,0.0,1.0,0,1450210775099108898,odom,1.02670898437,0.0188037872314,0.0,0.0,0.0,0.0,1.0,0,1450210775099108898,odom,1.03920898437,0.0188442230225,0.0,0.0,0.0,0.0,1.0,0,1450210775099108898,odom,1.05170898437,0.0188823699951,0.0,0.0,0.0,0.0,1.0,0,1450210775099108898,odom,1.06420898438,0.0189193725586,0.0,0.0,0.0,0.0,1.0,0,1450210775099108898,odom,1.07670898438,0.0189540863037,0.0,0.0,0.0,0.0,1.0,0,1450210775099108898,odom,1.08920860291,0.0189880371094,0.0,0.0,0.0,0.0,1.0,0,1450210775099108898,odom,1.10170860291,0.0190200805664,0.0,0.0,0.0,0.0,1.0,0,1450210775099108898,odom,1.11420860291,0.0190509796143,0.0,0.0,0.0,0.0,1.0,0,1450210775099108898,odom,1.12670860291,0.0190803527832,0.0,0.0,0.0,0.0,1.0,0,1450210775099108898,odom,1.13920860291,0.0191089630127,0.0,0.0,0.0,0.0,1.0,0,1450210775099108898,odom,1.15170860291,0.0191360473633,0.0,0.0,0.0,0.0,1.0,0,1450210775099108898,odom,1.16420860291,0.0191623687744,0.0,0.0,0.0,0.0,1.0,0,1450210775099108898,odom,1.17670860291,0.0191875457764,0.0,0.0,0.0,0.0,1.0,0,1450210775099108898,odom,1.18920860291,0.0192119598389,0.0,0.0,0.0,0.0,1.0,0,1450210775099108898,odom,1.20170860291,0.0192352294922,0.0,0.0,0.0,0.0,1.0,0,1450210775099108898,odom,1.21420860291,0.0192577362061,0.0,0.0,0.0,0.0,1.0,0,1450210775099108898,odom,1.22670860291,0.0192790985107,0.0,0.0,0.0,0.0,1.0,0,1450210775099108898,odom,1.23920860291,0.0193004608154,0.0,0.0,0.0,0.0,1.0,0,1450210775099108898,odom,1.25170860291,0.0193206787109,0.0,0.0,0.0,0.0,1.0,0,1450210775099108898,odom,1.26420860291,0.0193405151367,0.0,0.0,0.0,0.0,1.0,0,1450210775099108898,odom,1.27670822144,0.019359588623,0.0,0.0,0.0,0.0,1.0,0,1450210775099108898,odom,1.28920822144,0.0193786621094,0.0,0.0,0.0,0.0,1.0,0,1450210775099108898,odom,1.30170822144,0.0193969726563,0.0,0.0,0.0,0.0,1.0,0,1450210775099108898,odom,1.31420822144,0.0194152832031,0.0,0.0,0.0,0.0,1.0,0,1450210775099108898,odom,1.32670822144,0.0194332122803,0.0,0.0,0.0,0.0,1.0,0,1450210775099108898,odom,1.33920822144,0.0194511413574,0.0,0.0,0.0,0.0,1.0,0,1450210775099108898,odom,1.35170822144,0.0194690704346,0.0,0.0,0.0,0.0,1.0,0,1450210775099108898,odom,1.36420822144,0.0194869995117,0.0,0.0,0.0,0.0,1.0,0,1450210775099108898,odom,1.37670822144,0.0195053100586,0.0,0.0,0.0,0.0,1.0,0,1450210775099108898,odom,1.38920822144,0.0195240020752,0.0,0.0,0.0,0.0,1.0,0,1450210775099108898,odom,1.40170822144,0.0195430755615,0.0,0.0,0.0,0.0,1.0,0,1450210775099108898,odom,1.41420822144,0.019563293457,0.0,0.0,0.0,0.0,1.0,0,1450210775099108898,odom,1.42670822144,0.0195838928223,0.0,0.0,0.0,0.0,1.0,0,1450210775099108898,odom,1.43920822144,0.0196060180664,0.0,0.0,0.0,0.0,1.0,0,1450210775099108898,odom,1.45170822144,0.0196292877197,0.0,0.0,0.0,0.0,1.0,0,1450210775099108898,odom,1.46420822144,0.0196544647217,0.0,0.0,0.0,0.0,1.0,0,1450210775099108898,odom,1.47670822144,0.0196815490723,0.0,0.0,0.0,0.0,1.0,0,1450210775099108898,odom,1.48920822144,0.0197113037109,0.0,0.0,0.0,0.0,1.0,0,1450210775099108898,odom,1.50170822144,0.019743347168,0.0,0.0,0.0,0.0,1.0,0,1450210775099108898,odom,1.51420822144,0.0197788238525,0.0,0.0,0.0,0.0,1.0,0,1450210775099108898,odom,1.52670822144,0.0198184967041,0.0,0.0,0.0,0.0,1.0,0,1450210775099108898,odom,1.53920822144,0.0198623657227,0.0,0.0,0.0,0.0,1.0,0,1450210775099108898,odom,1.5517074585,0.0199111938477,0.0,0.0,0.0,0.0,1.0,0,1450210775099108898,odom,1.5642074585,0.019966506958,0.0,0.0,0.0,0.0,1.0,0,1450210775099108898,odom,1.5767074585,0.0200283050537,0.0,0.0,0.0,0.0,1.0,0,1450210775099108898,odom,1.5892074585,0.0200984954834,0.0,0.0,0.0,0.0,1.0,0,1450210775099108898,odom,1.60170669556,0.0201778411865,0.0,0.0,0.0,0.0,1.0,0,1450210775099108898,odom,1.61420669556,0.0202682495117,0.0,0.0,0.0,0.0,1.0,0,1450210775099108898,odom,1.62670593262,0.0203704833984,0.0,0.0,0.0,0.0,1.0,0,1450210775099108898,odom,1.63920593262,0.0204875946045,0.0,0.0,0.0,0.0,1.0,0,1450210775099108898,odom,1.65170516968,0.0206207275391,0.0,0.0,0.0,0.0,1.0,0,1450210775099108898,odom,1.66420440674,0.0207733154297,0.0,0.0,0.0,0.0,1.0,0,1450210775099108898,odom,1.67670288086,0.020947265625,0.0,0.0,0.0,0.0,1.0,0,1450210775099108898,odom,1.68920135498,0.021146774292,0.0,0.0,0.0,0.0,1.0,0,1450210775099108898,odom,1.70169906616,0.0213752746582,0.0,0.0,0.0,0.0,1.0,0,1450210775099108898,odom,1.71419677734,0.0216373443604,0.0,0.0,0.0,0.0,1.0,0,1450210775099108898,odom,1.72669296265,0.0219375610352,0.0,0.0,0.0,0.0,1.0,0,1450210775099108898,odom,1.73918838501,0.022282409668,0.0,0.0,0.0,0.0,1.0,0,1450210775099108898,odom,1.75104370117,0.0262451171875,0.0,0.0,0.0,0.0,1.0,0,1450210775099108898,odom,1.76289901733,0.0302070617676,0.0,0.0,0.0,0.0,1.0,0,1450210775099108898,odom,1.7747543335,0.0341686248779,0.0,0.0,0.0,0.0,1.0,0,1450210775099108898,odom,1.7866104126,0.0381294250488,0.0,0.0,0.0,0.0,1.0,0,1450210775099108898,odom,1.7984664917,0.0420902252197,0.0,0.0,0.0,0.0,1.0,0,1450210775099108898,odom,1.8103225708,0.0460502624512,0.0,0.0,0.0,0.0,1.0,0,1450210775099108898,odom,1.8214881897,0.0516689300537,0.0,0.0,0.0,0.0,1.0,0,1450210775099108898,odom,1.83282775879,0.056929397583,0.0,0.0,0.0,0.0,1.0,0,1450210775099108898,odom,1.84432067871,0.0618453979492,0.0,0.0,0.0,0.0,1.0,0,1450210775099108898,odom,1.85594863892,0.0664321899414,0.0,0.0,0.0,0.0,1.0,0,1450210775099108898,odom,1.86769485474,0.070707321167,0.0,0.0,0.0,0.0,1.0,0,1450210775099108898,odom,1.87945861816,0.0749340057373,0.0,0.0,0.0,0.0,1.0,0,1450210775099108898,odom,1.89191818237,0.0759330749512,0.0,0.0,0.0,0.0,1.0,0,1450210775099108898,odom,1.9044052124,0.0765033721924,0.0,0.0,0.0,0.0,1.0,0,1450210775099108898,odom,1.91688156128,0.0772705078125,0.0,0.0,0.0,0.0,1.0,0,1450210775099108898,odom,1.92930526733,0.0786510467529,0.0,0.0,0.0,0.0,1.0,0,1450210775099108898,odom,1.94173126221,0.080012512207,0.0,0.0,0.0,0.0,1.0,0,1450210775099108898,odom,1.95414123535,0.0815082550049,0.0,0.0,0.0,0.0,1.0,0,1450210775099108898,odom,1.96656036377,0.082926940918,0.0,0.0,0.0,0.0,1.0,0,1450210775099108898,odom,1.97896118164,0.0845016479492,0.0,0.0,0.0,0.0,1.0,0,1450210775099108898,odom,1.99138336182,0.0858932495117,0.0,0.0,0.0,0.0,1.0,0,1450210775099108898,odom,2.00383300781,0.0870098114014,0.0,0.0,0.0,0.0,1.0,0,1450210775099108898,odom,2.01628799438,0.0880695343018,0.0,0.0,0.0,0.0,1.0,0,1450210775099108898,odom,2.02875366211,0.088996887207,0.0,0.0,0.0,0.0,1.0,0,1450210775099108898,odom,2.04121780396,0.0899478912354,0.0,0.0,0.0,0.0,1.0,0,1450210775099108898,odom,2.05367584229,0.0909671783447,0.0,0.0,0.0,0.0,1.0,0,1450210775099108898,odom,2.06612930298,0.0920421600342,0.0,0.0,0.0,0.0,1.0,0,1450210775099108898,odom,2.07845840454,0.0941051483154,0.0,0.0,0.0,0.0,1.0,0,1450210775099108898,odom,2.09082870483,0.0958988189697,0.0,0.0,0.0,0.0,1.0,0,1450210775099108898,odom,2.1032409668,0.0973793029785,0.0,0.0,0.0,0.0,1.0,0,1450210775099108898,odom,2.115675354,0.0986595153809,0.0,0.0,0.0,0.0,1.0,0,1450210775099108898,odom,2.12817306519,0.0988819122314,0.0,0.0,0.0,0.0,1.0,0,1450210775099108898,odom,2.14067077637,0.0991287231445,0.0,0.0,0.0,0.0,1.0,0,1450210775099108898,odom,2.15307617188,0.100662612915,0.0,0.0,0.0,0.0,1.0,0,1450210775099108898,odom,2.16551132202,0.101937484741,0.0,0.0,0.0,0.0,1.0,0,1450210775099108898,odom,2.1778717041,0.100075912476,0.0,0.0,0.0,0.0,1.0,0,1450210775099108898,odom,2.19024353027,0.0982891082764,0.0,0.0,0.0,0.0,1.0,0,1450210775099108898,odom,2.20273132324,0.098832321167,0.0,0.0,0.0,0.0,1.0,0,1450210775099108898,odom,2.21522064209,0.099352645874,0.0,0.0,0.0,0.0,1.0,0,1450210775099108898,odom,2.227709198,0.0998859405518,0.0,0.0,0.0,0.0,1.0,0,1450210775099108898,odom,2.24019851685,0.100394821167,0.0,0.0,0.0,0.0,1.0,0,1450210775099108898,odom,2.25269165039,0.10082359314,0.0,0.0,0.0,0.0,1.0,0,1450210775099108898,odom,2.26518478394,0.101235961914,0.0,0.0,0.0,0.0,1.0,0,1450210775099108898,odom,2.2776512146,0.102153396606,0.0,0.0,0.0,0.0,1.0,0,1450210775099108898,odom,2.2901222229,0.102998733521,0.0,0.0,0.0,0.0,1.0,0,1450210775099108898,odom,2.30258636475,0.102056503296,0.0,0.0,0.0,0.0,1.0,0,1450210775099108898,odom,2.31504821777,0.101075744629,0.0,0.0,0.0,0.0,1.0,0,1450210775099108898,odom,2.32753829956,0.100579452515,0.0,0.0,0.0,0.0,1.0,0,1450210775099108898,odom,2.34002761841,0.10005569458,0.0,0.0,0.0,0.0,1.0,0,1450210775099108898,odom,2.35252761841,0.100114059448,0.0,0.0,0.0,0.0,1.0,0,1450210775099108898,odom,2.36502685547,0.100030517578,0.0,0.0,0.0,0.0,1.0,0,1450210775099108898,odom,2.37750167847,0.100828552246,0.0,0.0,0.0,0.0,1.0,0,1450210775099108898,odom,2.38999710083,0.10114402771,0.0,0.0,0.0,0.0,1.0,0,1450210775099108898,odom,2.4023399353,0.0991664886475,0.0,0.0,0.0,0.0,1.0,0,1450210775099108898,odom,2.41457443237,0.0966022491455,0.0,0.0,0.0,0.0,1.0,0,1450210775099108898,odom,2.42656326294,0.100140762329,0.0,0.0,0.0,0.0,1.0,0,1450210775099108898,odom,2.43854217529,0.1037109375,0.0,0.0,0.0,0.0,1.0,0,1450210775099108898,odom,2.4505607605,0.107147598267,0.0,0.0,0.0,0.0,1.0,0,1450210775099108898,odom,2.46257171631,0.110608673096,0.0,0.0,0.0,0.0,1.0,0,1450210775099108898,odom,2.47458343506,0.114069366455,0.0,0.0,0.0,0.0,1.0,0,1450210775099108898,odom,2.48664932251,0.117333221436,0.0,0.0,0.0,0.0,1.0,0,1450210775099108898,odom,2.4986907959,0.12068977356,0.0,0.0,0.0,0.0,1.0,0,1450210775099108898,odom,2.51072158813,0.124080276489,0.0,0.0,0.0,0.0,1.0,0,1450210775099108898,odom,2.52303161621,0.126250839233,0.0,0.0,0.0,0.0,1.0,0,1450210775099108898,odom,2.53537597656,0.128217697144,0.0,0.0,0.0,0.0,1.0,0,1450210775099108898,odom,2.54765930176,0.130534744263,0.0,0.0,0.0,0.0,1.0,0,1450210775099108898,odom,2.55985336304,0.133284378052,0.0,0.0,0.0,0.0,1.0,0,1450210775099108898,odom,2.57199935913,0.136237335205,0.0,0.0,0.0,0.0,1.0,0,1450210775099108898,odom,2.58409576416,0.139390182495,0.0,0.0,0.0,0.0,1.0,0,1450210775099108898,odom,2.5961517334,0.142692184448,0.0,0.0,0.0,0.0,1.0,0,1450210775099108898,odom,2.60816955566,0.146129226685,0.0,0.0,0.0,0.0,1.0,0,1450210775099108898,odom,2.62015609741,0.149675369263,0.0,0.0,0.0,0.0,1.0,0,1450210775099108898,odom,2.63197860718,0.153734207153,0.0,0.0,0.0,0.0,1.0,0,1450210775099108898,odom,2.643775177,0.157869720459,0.0,0.0,0.0,0.0,1.0,0,1450210775099108898,odom,2.65556030273,0.162035751343,0.0,0.0,0.0,0.0,1.0,0,1450210775099108898,odom,2.66735305786,0.166181182861,0.0,0.0,0.0,0.0,1.0,0,1450210775099108898,odom,2.67916870117,0.170259475708,0.0,0.0,0.0,0.0,1.0,0,1450210775099108898,odom,2.69101715088,0.174242782593,0.0,0.0,0.0,0.0,1.0,0,1450210775099108898,odom,2.70335540771,0.176248168945,0.0,0.0,0.0,0.0,1.0,0,1450210775099108898,odom,2.71569137573,0.17826499939,0.0,0.0,0.0,0.0,1.0,0,1450210775099108898,odom,2.72803115845,0.18025894165,0.0,0.0,0.0,0.0,1.0,0,1450210775099108898,odom,2.74036865234,0.18226852417,0.0,0.0,0.0,0.0,1.0,0,1450210775099108898,odom,2.75270843506,0.184264755249,0.0,0.0,0.0,0.0,1.0,0,1450210775099108898,odom,2.76504516602,0.186278915405,0.0,0.0,0.0,0.0,1.0,0,1450210775099108898,odom,2.77738265991,0.188286590576,0.0,0.0,0.0,0.0,1.0,0,1450210775099108898,odom,2.78971710205,0.190313720703,0.0,0.0,0.0,0.0,1.0,0,1450210775099108898,odom,2.80205230713,0.192338943481,0.0,0.0,0.0,0.0,1.0,0,1450210775099108898,odom,2.81438369751,0.194384765625,0.0,0.0,0.0,0.0,1.0,0,1450210775099108898,odom,2.82671508789,0.196430969238,0.0,0.0,0.0,0.0,1.0,0,1450210775099108898,odom,2.83904266357,0.198497390747,0.0,0.0,0.0,0.0,1.0,0,1450210775099108898,odom,2.85141983032,0.200248718262,0.0,0.0,0.0,0.0,1.0,0,1450210775099108898,odom,2.86381225586,0.201885223389,0.0,0.0,0.0,0.0,1.0,0,1450210775099108898,odom,2.876222229,0.203379821777,0.0,0.0,0.0,0.0,1.0,0,1450210775099108898,odom,2.88864212036,0.204796218872,0.0,0.0,0.0,0.0,1.0,0,1450210775099108898,odom,2.90107269287,0.206111526489,0.0,0.0,0.0,0.0,1.0,0,1450210775099108898,odom,2.91350860596,0.207376861572,0.0,0.0,0.0,0.0,1.0,0,1450210775099108898,odom,2.92595062256,0.208574676514,0.0,0.0,0.0,0.0,1.0,0,1450210775099108898,odom,2.93839569092,0.209747314453,0.0,0.0,0.0,0.0,1.0,0,1450210775099108898,odom,2.95084381104,0.21088180542,0.0,0.0,0.0,0.0,1.0,0,1450210775099108898,odom,2.96329269409,0.212015151978,0.0,0.0,0.0,0.0,1.0,0,1450210775099108898,odom,2.97574234009,0.213138198853,0.0,0.0,0.0,0.0,1.0,0,1450210775099108898,odom,2.98818893433,0.21428527832,0.0,0.0,0.0,0.0,1.0,0,1450210775099108898,odom,3.00063476562,0.215451812744,0.0,0.0,0.0,0.0,1.0,0,1450210775099108898,odom,3.01307525635,0.21667137146,0.0,0.0,0.0,0.0,1.0,0,1450210775099108898,odom,3.02550964355,0.217945480347,0.0,0.0,0.0,0.0,1.0,0,1450210775099108898,odom,3.03793563843,0.21930770874,0.0,0.0,0.0,0.0,1.0,0,1450210775099108898,odom,3.05027084351,0.221328353882,0.0,0.0,0.0,0.0,1.0,0,1450210775099108898,odom,3.06263961792,0.223138809204,0.0,0.0,0.0,0.0,1.0,0,1450210775099108898,odom,3.075,0.225,0.0,0.0,0.0,0.0,1.0,0,1450210775099108898,odom,3.1,0.25,0.0,0.0,0.0,0.0,1.0,0,1450210775101608515,odom,3.10641167594,0.262784950026,0.0,0.0,0.0,0.0702022807155,0.997532776295
1450210796551891690,24,1450210796551539831,odom,0,1450210796551539831,odom,2.45,0.125,0.0,0.0,0.0,0.0,1.0,0,1450210796551539831,odom,2.43204841614,0.122912216187,0.0,0.0,0.0,0.0,1.0,0,1450210796551539831,odom,2.41958122253,0.122005844116,0.0,0.0,0.0,0.0,1.0,0,1450210796551539831,odom,2.40713195801,0.120880889893,0.0,0.0,0.0,0.0,1.0,0,1450210796551539831,odom,2.39470405579,0.119543075562,0.0,0.0,0.0,0.0,1.0,0,1450210796551539831,odom,2.3823009491,0.117988204956,0.0,0.0,0.0,0.0,1.0,0,1450210796551539831,odom,2.36992454529,0.116236114502,0.0,0.0,0.0,0.0,1.0,0,1450210796551539831,odom,2.35757064819,0.114328765869,0.0,0.0,0.0,0.0,1.0,0,1450210796551539831,odom,2.34524650574,0.112238693237,0.0,0.0,0.0,0.0,1.0,0,1450210796551539831,odom,2.33297843933,0.109843063354,0.0,0.0,0.0,0.0,1.0,0,1450210796551539831,odom,2.32078666687,0.107083892822,0.0,0.0,0.0,0.0,1.0,0,1450210796551539831,odom,2.30869483948,0.103916168213,0.0,0.0,0.0,0.0,1.0,0,1450210796551539831,odom,2.29673233032,0.100289154053,0.0,0.0,0.0,0.0,1.0,0,1450210796551539831,odom,2.28473854065,0.0967681884766,0.0,0.0,0.0,0.0,1.0,0,1450210796551539831,odom,2.27271080017,0.0933650970459,0.0,0.0,0.0,0.0,1.0,0,1450210796551539831,odom,2.26065254211,0.090071105957,0.0,0.0,0.0,0.0,1.0,0,1450210796551539831,odom,2.24857177734,0.0868614196777,0.0,0.0,0.0,0.0,1.0,0,1450210796551539831,odom,2.2364566803,0.0837825775146,0.0,0.0,0.0,0.0,1.0,0,1450210796551539831,odom,2.22431793213,0.0808002471924,0.0,0.0,0.0,0.0,1.0,0,1450210796551539831,odom,2.21216125488,0.0778903961182,0.0,0.0,0.0,0.0,1.0,0,1450210796551539831,odom,2.2,0.075,0.0,0.0,0.0,0.0,1.0,0,1450210796551539831,odom,2.175,0.05,0.0,0.0,0.0,0.0,1.0
1450210796551895252,25,1450210796551539831,odom,0,1450210796551539831,odom,2.45,0.125,0.0,0.0,0.0,0.0,1.0,0,1450210796551539831,odom,2.43204841614,0.122912216187,0.0,0.0,0.0,0.0,1.0,0,1450210796551539831,odom,2.41958122253,0.122005844116,0.0,0.0,0.0,0.0,1.0,0,1450210796551539831,odom,2.40713195801,0.120880889893,0.0,0.0,0.0,0.0,1.0,0,1450210796551539831,odom,2.39470405579,0.119543075562,0.0,0.0,0.0,0.0,1.0,0,1450210796551539831,odom,2.3823009491,0.117988204956,0.0,0.0,0.0,0.0,1.0,0,1450210796551539831,odom,2.36992454529,0.116236114502,0.0,0.0,0.0,0.0,1.0,0,1450210796551539831,odom,2.35757064819,0.114328765869,0.0,0.0,0.0,0.0,1.0,0,1450210796551539831,odom,2.34524650574,0.112238693237,0.0,0.0,0.0,0.0,1.0,0,1450210796551539831,odom,2.33297843933,0.109843063354,0.0,0.0,0.0,0.0,1.0,0,1450210796551539831,odom,2.32078666687,0.107083892822,0.0,0.0,0.0,0.0,1.0,0,1450210796551539831,odom,2.30869483948,0.103916168213,0.0,0.0,0.0,0.0,1.0,0,1450210796551539831,odom,2.29673233032,0.100289154053,0.0,0.0,0.0,0.0,1.0,0,1450210796551539831,odom,2.28473854065,0.0967681884766,0.0,0.0,0.0,0.0,1.0,0,1450210796551539831,odom,2.27271080017,0.0933650970459,0.0,0.0,0.0,0.0,1.0,0,1450210796551539831,odom,2.26065254211,0.090071105957,0.0,0.0,0.0,0.0,1.0,0,1450210796551539831,odom,2.24857177734,0.0868614196777,0.0,0.0,0.0,0.0,1.0,0,1450210796551539831,odom,2.2364566803,0.0837825775146,0.0,0.0,0.0,0.0,1.0,0,1450210796551539831,odom,2.22431793213,0.0808002471924,0.0,0.0,0.0,0.0,1.0,0,1450210796551539831,odom,2.21216125488,0.0778903961182,0.0,0.0,0.0,0.0,1.0,0,1450210796551539831,odom,2.2,0.075,0.0,0.0,0.0,0.0,1.0,0,1450210796551539831,odom,2.175,0.05,0.0,0.0,0.0,0.0,1.0,0,1450210796551570442,odom,2.18799159826,0.0539126607772,0.0,0.0,0.0,0.131716738444,0.99128739567
1450210796629600989,26,1450210796628128624,odom,0,1450210796628128624,odom,2.45,0.125,0.0,0.0,0.0,0.0,1.0,0,1450210796628128624,odom,2.43046150208,0.122986602783,0.0,0.0,0.0,0.0,1.0,0,1450210796628128624,odom,2.41800117493,0.121990585327,0.0,0.0,0.0,0.0,1.0,0,1450210796628128624,odom,2.40555992126,0.120781326294,0.0,0.0,0.0,0.0,1.0,0,1450210796628128624,odom,2.3931438446,0.119334793091,0.0,0.0,0.0,0.0,1.0,0,1450210796628128624,odom,2.38076248169,0.117616653442,0.0,0.0,0.0,0.0,1.0,0,1450210796628128624,odom,2.36841468811,0.115672302246,0.0,0.0,0.0,0.0,1.0,0,1450210796628128624,odom,2.35609474182,0.113557052612,0.0,0.0,0.0,0.0,1.0,0,1450210796628128624,odom,2.3438167572,0.111211395264,0.0,0.0,0.0,0.0,1.0,0,1450210796628128624,odom,2.33161354065,0.108504104614,0.0,0.0,0.0,0.0,1.0,0,1450210796628128624,odom,2.31951293945,0.105369567871,0.0,0.0,0.0,0.0,1.0,0,1450210796628128624,odom,2.30754928589,0.101747512817,0.0,0.0,0.0,0.0,1.0,0,1450210796628128624,odom,2.29563446045,0.0979679107666,0.0,0.0,0.0,0.0,1.0,0,1450210796628128624,odom,2.28368186951,0.0943088531494,0.0,0.0,0.0,0.0,1.0,0,1450210796628128624,odom,2.27170333862,0.0907367706299,0.0,0.0,0.0,0.0,1.0,0,1450210796628128624,odom,2.2597038269,0.0872344970703,0.0,0.0,0.0,0.0,1.0,0,1450210796628128624,odom,2.24769134521,0.0837776184082,0.0,0.0,0.0,0.0,1.0,0,1450210796628128624,odom,2.23565826416,0.0803936004639,0.0,0.0,0.0,0.0,1.0,0,1450210796628128624,odom,2.22361717224,0.0770370483398,0.0,0.0,0.0,0.0,1.0,0,1450210796628128624,odom,2.21156349182,0.0737270355225,0.0,0.0,0.0,0.0,1.0,0,1450210796628128624,odom,2.19948310852,0.0705150604248,0.0,0.0,0.0,0.0,1.0,0,1450210796628128624,odom,2.18739013672,0.0673522949219,0.0,0.0,0.0,0.0,1.0,0,1450210796628128624,odom,2.1752872467,0.0642253875732,0.0,0.0,0.0,0.0,1.0,0,1450210796628128624,odom,2.16318359375,0.0611026763916,0.0,0.0,0.0,0.0,1.0,0,1450210796628128624,odom,2.15107917786,0.057982635498,0.0,0.0,0.0,0.0,1.0,0,1450210796628128624,odom,2.1389755249,0.0548606872559,0.0,0.0,0.0,0.0,1.0,0,1450210796628128624,odom,2.12687072754,0.0517421722412,0.0,0.0,0.0,0.0,1.0,0,1450210796628128624,odom,2.11479644775,0.0485084533691,0.0,0.0,0.0,0.0,1.0,0,1450210796628128624,odom,2.10278282166,0.0450550079346,0.0,0.0,0.0,0.0,1.0,0,1450210796628128624,odom,2.09084434509,0.0413501739502,0.0,0.0,0.0,0.0,1.0,0,1450210796628128624,odom,2.07898750305,0.0373920440674,0.0,0.0,0.0,0.0,1.0,0,1450210796628128624,odom,2.06724967957,0.0330947875977,0.0,0.0,0.0,0.0,1.0,0,1450210796628128624,odom,2.05569992065,0.0283138275146,0.0,0.0,0.0,0.0,1.0,0,1450210796628128624,odom,2.04435768127,0.0230602264404,0.0,0.0,0.0,0.0,1.0,0,1450210796628128624,odom,2.03313484192,0.0175556182861,0.0,0.0,0.0,0.0,1.0,0,1450210796628128624,odom,2.02201652527,0.0118431091309,0.0,0.0,0.0,0.0,1.0,0,1450210796628128624,odom,2.01098022461,0.00597343444824,0.0,0.0,0.0,0.0,1.0,0,1450210796628128624,odom,2.0,8.881784197e-16,0.0,0.0,0.0,0.0,1.0,0,1450210796628128624,odom,1.975,-0.025,0.0,0.0,0.0,0.0,1.0
1450210796629615357,27,1450210796628128624,odom,0,1450210796628128624,odom,2.45,0.125,0.0,0.0,0.0,0.0,1.0,0,1450210796628128624,odom,2.43046150208,0.122986602783,0.0,0.0,0.0,0.0,1.0,0,1450210796628128624,odom,2.41800117493,0.121990585327,0.0,0.0,0.0,0.0,1.0,0,1450210796628128624,odom,2.40555992126,0.120781326294,0.0,0.0,0.0,0.0,1.0,0,1450210796628128624,odom,2.3931438446,0.119334793091,0.0,0.0,0.0,0.0,1.0,0,1450210796628128624,odom,2.38076248169,0.117616653442,0.0,0.0,0.0,0.0,1.0,0,1450210796628128624,odom,2.36841468811,0.115672302246,0.0,0.0,0.0,0.0,1.0,0,1450210796628128624,odom,2.35609474182,0.113557052612,0.0,0.0,0.0,0.0,1.0,0,1450210796628128624,odom,2.3438167572,0.111211395264,0.0,0.0,0.0,0.0,1.0,0,1450210796628128624,odom,2.33161354065,0.108504104614,0.0,0.0,0.0,0.0,1.0,0,1450210796628128624,odom,2.31951293945,0.105369567871,0.0,0.0,0.0,0.0,1.0,0,1450210796628128624,odom,2.30754928589,0.101747512817,0.0,0.0,0.0,0.0,1.0,0,1450210796628128624,odom,2.29563446045,0.0979679107666,0.0,0.0,0.0,0.0,1.0,0,1450210796628128624,odom,2.28368186951,0.0943088531494,0.0,0.0,0.0,0.0,1.0,0,1450210796628128624,odom,2.27170333862,0.0907367706299,0.0,0.0,0.0,0.0,1.0,0,1450210796628128624,odom,2.2597038269,0.0872344970703,0.0,0.0,0.0,0.0,1.0,0,1450210796628128624,odom,2.24769134521,0.0837776184082,0.0,0.0,0.0,0.0,1.0,0,1450210796628128624,odom,2.23565826416,0.0803936004639,0.0,0.0,0.0,0.0,1.0,0,1450210796628128624,odom,2.22361717224,0.0770370483398,0.0,0.0,0.0,0.0,1.0,0,1450210796628128624,odom,2.21156349182,0.0737270355225,0.0,0.0,0.0,0.0,1.0,0,1450210796628128624,odom,2.19948310852,0.0705150604248,0.0,0.0,0.0,0.0,1.0,0,1450210796628128624,odom,2.18739013672,0.0673522949219,0.0,0.0,0.0,0.0,1.0,0,1450210796628128624,odom,2.1752872467,0.0642253875732,0.0,0.0,0.0,0.0,1.0,0,1450210796628128624,odom,2.16318359375,0.0611026763916,0.0,0.0,0.0,0.0,1.0,0,1450210796628128624,odom,2.15107917786,0.057982635498,0.0,0.0,0.0,0.0,1.0,0,1450210796628128624,odom,2.1389755249,0.0548606872559,0.0,0.0,0.0,0.0,1.0,0,1450210796628128624,odom,2.12687072754,0.0517421722412,0.0,0.0,0.0,0.0,1.0,0,1450210796628128624,odom,2.11479644775,0.0485084533691,0.0,0.0,0.0,0.0,1.0,0,1450210796628128624,odom,2.10278282166,0.0450550079346,0.0,0.0,0.0,0.0,1.0,0,1450210796628128624,odom,2.09084434509,0.0413501739502,0.0,0.0,0.0,0.0,1.0,0,1450210796628128624,odom,2.07898750305,0.0373920440674,0.0,0.0,0.0,0.0,1.0,0,1450210796628128624,odom,2.06724967957,0.0330947875977,0.0,0.0,0.0,0.0,1.0,0,1450210796628128624,odom,2.05569992065,0.0283138275146,0.0,0.0,0.0,0.0,1.0,0,1450210796628128624,odom,2.04435768127,0.0230602264404,0.0,0.0,0.0,0.0,1.0,0,1450210796628128624,odom,2.03313484192,0.0175556182861,0.0,0.0,0.0,0.0,1.0,0,1450210796628128624,odom,2.02201652527,0.0118431091309,0.0,0.0,0.0,0.0,1.0,0,1450210796628128624,odom,2.01098022461,0.00597343444824,0.0,0.0,0.0,0.0,1.0,0,1450210796628128624,odom,2.0,8.881784197e-16,0.0,0.0,0.0,0.0,1.0,0,1450210796628128624,odom,1.975,-0.025,0.0,0.0,0.0,0.0,1.0,0,1450210796628154954,odom,1.97734668674,-0.00649894515215,0.0,0.0,0.0,0.137652947666,0.990480522776
1450210797671311222,28,1450210797671064054,odom,0,1450210797671064054,odom,2.4,0.1,0.0,0.0,0.0,0.0,1.0,0,1450210797671064054,odom,2.37629394531,0.0982738494873,0.0,0.0,0.0,0.0,1.0,0,1450210797671064054,odom,2.3638130188,0.0975791931152,0.0,0.0,0.0,0.0,1.0,0,1450210797671064054,odom,2.35133361816,0.0968608856201,0.0,0.0,0.0,0.0,1.0,0,1450210797671064054,odom,2.33885612488,0.0961170196533,0.0,0.0,0.0,0.0,1.0,0,1450210797671064054,odom,2.32637825012,0.0953689575195,0.0,0.0,0.0,0.0,1.0,0,1450210797671064054,odom,2.31389884949,0.0946514129639,0.0,0.0,0.0,0.0,1.0,0,1450210797671064054,odom,2.30141563416,0.0940044403076,0.0,0.0,0.0,0.0,1.0,0,1450210797671064054,odom,2.28894119263,0.0932056427002,0.0,0.0,0.0,0.0,1.0,0,1450210797671064054,odom,2.2764831543,0.0921840667725,0.0,0.0,0.0,0.0,1.0,0,1450210797671064054,odom,2.26404724121,0.0909191131592,0.0,0.0,0.0,0.0,1.0,0,1450210797671064054,odom,2.25164489746,0.089359664917,0.0,0.0,0.0,0.0,1.0,0,1450210797671064054,odom,2.23927612305,0.0875541687012,0.0,0.0,0.0,0.0,1.0,0,1450210797671064054,odom,2.22695083618,0.085470199585,0.0,0.0,0.0,0.0,1.0,0,1450210797671064054,odom,2.21466140747,0.083186340332,0.0,0.0,0.0,0.0,1.0,0,1450210797671064054,odom,2.20242538452,0.0806301116943,0.0,0.0,0.0,0.0,1.0,0,1450210797671064054,odom,2.19028549194,0.0776515960693,0.0,0.0,0.0,0.0,1.0,0,1450210797671064054,odom,2.17825927734,0.074242401123,0.0,0.0,0.0,0.0,1.0,0,1450210797671064054,odom,2.16628303528,0.0706630706787,0.0,0.0,0.0,0.0,1.0,0,1450210797671064054,odom,2.15437469482,0.0668628692627,0.0,0.0,0.0,0.0,1.0,0,1450210797671064054,odom,2.14255485535,0.0627960205078,0.0,0.0,0.0,0.0,1.0,0,1450210797671064054,odom,2.13084526062,0.0584213256836,0.0,0.0,0.0,0.0,1.0,0,1450210797671064054,odom,2.11927833557,0.0536819458008,0.0,0.0,0.0,0.0,1.0,0,1450210797671064054,odom,2.10783958435,0.0486415863037,0.0,0.0,0.0,0.0,1.0,0,1450210797671064054,odom,2.09638557434,0.0436367034912,0.0,0.0,0.0,0.0,1.0,0,1450210797671064054,odom,2.08490180969,0.0386993408203,0.0,0.0,0.0,0.0,1.0,0,1450210797671064054,odom,2.07336502075,0.0338878631592,0.0,0.0,0.0,0.0,1.0,0,1450210797671064054,odom,2.06173477173,0.0293067932129,0.0,0.0,0.0,0.0,1.0,0,1450210797671064054,odom,2.05,0.025,0.0,0.0,0.0,0.0,1.0,0,1450210797671064054,odom,2.025,8.881784197e-16,0.0,0.0,0.0,0.0,1.0
1450210797671591796,29,1450210797671064054,odom,0,1450210797671064054,odom,2.4,0.1,0.0,0.0,0.0,0.0,1.0,0,1450210797671064054,odom,2.37629394531,0.0982738494873,0.0,0.0,0.0,0.0,1.0,0,1450210797671064054,odom,2.3638130188,0.0975791931152,0.0,0.0,0.0,0.0,1.0,0,1450210797671064054,odom,2.35133361816,0.0968608856201,0.0,0.0,0.0,0.0,1.0,0,1450210797671064054,odom,2.33885612488,0.0961170196533,0.0,0.0,0.0,0.0,1.0,0,1450210797671064054,odom,2.32637825012,0.0953689575195,0.0,0.0,0.0,0.0,1.0,0,1450210797671064054,odom,2.31389884949,0.0946514129639,0.0,0.0,0.0,0.0,1.0,0,1450210797671064054,odom,2.30141563416,0.0940044403076,0.0,0.0,0.0,0.0,1.0,0,1450210797671064054,odom,2.28894119263,0.0932056427002,0.0,0.0,0.0,0.0,1.0,0,1450210797671064054,odom,2.2764831543,0.0921840667725,0.0,0.0,0.0,0.0,1.0,0,1450210797671064054,odom,2.26404724121,0.0909191131592,0.0,0.0,0.0,0.0,1.0,0,1450210797671064054,odom,2.25164489746,0.089359664917,0.0,0.0,0.0,0.0,1.0,0,1450210797671064054,odom,2.23927612305,0.0875541687012,0.0,0.0,0.0,0.0,1.0,0,1450210797671064054,odom,2.22695083618,0.085470199585,0.0,0.0,0.0,0.0,1.0,0,1450210797671064054,odom,2.21466140747,0.083186340332,0.0,0.0,0.0,0.0,1.0,0,1450210797671064054,odom,2.20242538452,0.0806301116943,0.0,0.0,0.0,0.0,1.0,0,1450210797671064054,odom,2.19028549194,0.0776515960693,0.0,0.0,0.0,0.0,1.0,0,1450210797671064054,odom,2.17825927734,0.074242401123,0.0,0.0,0.0,0.0,1.0,0,1450210797671064054,odom,2.16628303528,0.0706630706787,0.0,0.0,0.0,0.0,1.0,0,1450210797671064054,odom,2.15437469482,0.0668628692627,0.0,0.0,0.0,0.0,1.0,0,1450210797671064054,odom,2.14255485535,0.0627960205078,0.0,0.0,0.0,0.0,1.0,0,1450210797671064054,odom,2.13084526062,0.0584213256836,0.0,0.0,0.0,0.0,1.0,0,1450210797671064054,odom,2.11927833557,0.0536819458008,0.0,0.0,0.0,0.0,1.0,0,1450210797671064054,odom,2.10783958435,0.0486415863037,0.0,0.0,0.0,0.0,1.0,0,1450210797671064054,odom,2.09638557434,0.0436367034912,0.0,0.0,0.0,0.0,1.0,0,1450210797671064054,odom,2.08490180969,0.0386993408203,0.0,0.0,0.0,0.0,1.0,0,1450210797671064054,odom,2.07336502075,0.0338878631592,0.0,0.0,0.0,0.0,1.0,0,1450210797671064054,odom,2.06173477173,0.0293067932129,0.0,0.0,0.0,0.0,1.0,0,1450210797671064054,odom,2.05,0.025,0.0,0.0,0.0,0.0,1.0,0,1450210797671064054,odom,2.025,8.881784197e-16,0.0,0.0,0.0,0.0,1.0,0,1450210797671093663,odom,2.03346214384,0.0118055214424,0.0,0.0,0.0,0.13240857168,0.991195223024
1450210797905051753,30,1450210797903962590,odom,0,1450210797903962590,odom,2.375,0.1,0.0,0.0,0.0,0.0,1.0,0,1450210797903962590,odom,2.36246643066,0.0988750457764,0.0,0.0,0.0,0.0,1.0,0,1450210797903962590,odom,2.34996757507,0.0986892700195,0.0,0.0,0.0,0.0,1.0,0,1450210797903962590,odom,2.33746795654,0.0986438751221,0.0,0.0,0.0,0.0,1.0,0,1450210797903962590,odom,2.32496871948,0.09880027771,0.0,0.0,0.0,0.0,1.0,0,1450210797903962590,odom,2.31247596741,0.0992279052734,0.0,0.0,0.0,0.0,1.0,0,1450210797903962590,odom,2.3,0.1,0.0,0.0,0.0,0.0,1.0,0,1450210797903962590,odom,2.275,0.075,0.0,0.0,0.0,0.0,1.0
1450210797905086331,31,1450210797903962590,odom,0,1450210797903962590,odom,2.375,0.1,0.0,0.0,0.0,0.0,1.0,0,1450210797903962590,odom,2.36246643066,0.0988750457764,0.0,0.0,0.0,0.0,1.0,0,1450210797903962590,odom,2.34996757507,0.0986892700195,0.0,0.0,0.0,0.0,1.0,0,1450210797903962590,odom,2.33746795654,0.0986438751221,0.0,0.0,0.0,0.0,1.0,0,1450210797903962590,odom,2.32496871948,0.09880027771,0.0,0.0,0.0,0.0,1.0,0,1450210797903962590,odom,2.31247596741,0.0992279052734,0.0,0.0,0.0,0.0,1.0,0,1450210797903962590,odom,2.3,0.1,0.0,0.0,0.0,0.0,1.0,0,1450210797903962590,odom,2.275,0.075,0.0,0.0,0.0,0.0,1.0,0,1450210797903992108,odom,2.29360530551,0.0824910671502,0.0,0.0,0.0,0.131903128039,0.991262611427
