%time,field.x,field.y,field.z
1450210767397993308,6.0,6.0,0.0
1450210767431346117,6.0,6.0,0.0
1450210767464642082,6.0,6.0,0.0
1450210767497933791,6.0,6.0,0.0
1450210767531298999,6.0,6.0,0.0
1450210767564608203,6.0,6.0,0.0
1450210767597976878,6.0,6.0,0.0
1450210767631330661,6.0,6.0,0.0
1450210767664659962,6.0,6.0,0.0
1450210767697972046,6.0,6.0,0.0
1450210767731353330,6.0,6.0,0.0
1450210767764554446,6.0,6.0,0.0
1450210767797891048,6.0,6.0,0.0
1450210767831309348,6.0,6.0,0.0
1450210767864643970,6.0,6.0,0.0
1450210767897950694,6.0,6.0,0.0
1450210767931316234,6.0,6.0,0.0
1450210767964670193,6.0,6.0,0.0
1450210767998001430,6.0,6.0,0.0
1450210768031274640,6.0,6.0,0.0
1450210768064690732,6.0,6.0,0.0
1450210768097966026,6.0,6.0,0.0
1450210768131295744,6.0,6.0,0.0
1450210768164604741,6.0,6.0,0.0
1450210768197940107,6.0,6.0,0.0
1450210768231239241,6.0,6.0,0.0
1450210768264666387,6.0,6.0,0.0
1450210768297901099,6.0,6.0,0.0
1450210768331330945,6.0,6.0,0.0
1450210768364810041,6.0,6.0,0.0
1450210768397912944,6.0,6.0,0.0
1450210768431256137,6.0,6.0,0.0
1450210768464596641,6.0,6.0,0.0
1450210768497965746,6.0,6.0,0.0
1450210768531323649,6.0,6.0,0.0
1450210768564631306,6.0,6.0,0.0
1450210768597990957,6.0,6.0,0.0
1450210768631290471,6.0,6.0,0.0
1450210768664695866,6.0,6.0,0.0
1450210768697934451,6.0,6.0,0.0
1450210768731251231,6.0,6.0,0.0
1450210768764648196,6.0,6.0,0.0
1450210768798036500,6.0,6.0,0.0
1450210768831324038,6.0,6.0,0.0
1450210768864643506,6.0,6.0,0.0
1450210768897991718,6.0,6.0,0.0
1450210768931278514,6.0,6.0,0.0
1450210768964696077,6.0,6.0,0.0
1450210768998016928,6.0,6.0,0.0
1450210769031259652,6.0,6.0,0.0
1450210769064675794,6.0,6.0,0.0
1450210769097959627,6.0,6.0,0.0
1450210769131329917,6.0,6.0,0.0
1450210769164692526,6.0,6.0,0.0
1450210769197987123,6.0,6.0,0.0
1450210769231346073,6.0,6.0,0.0
1450210769264678741,6.0,6.0,0.0
1450210769297994140,6.0,6.0,0.0
1450210769331259813,6.0,6.0,0.0
1450210769364590964,6.0,6.0,0.0
1450210769397935388,6.0,6.0,0.0
1450210769431314093,6.0,6.0,0.0
1450210769464663180,6.0,6.0,0.0
1450210769497904672,6.0,6.0,0.0
1450210769533120254,6.0,6.0,0.0
1450210769564568283,6.0,6.0,0.0
1450210769597877387,6.0,6.0,0.0
1450210769631204861,6.0,6.0,0.0
1450210769664629767,6.0,6.0,0.0
1450210769697993347,6.0,6.0,0.0
1450210769731287310,6.0,6.0,0.0
1450210769764696235,6.0,6.0,0.0
1450210769797920815,6.0,6.0,0.0
1450210769831295748,6.0,6.0,0.0
1450210769864603003,6.0,6.0,0.0
1450210769897939850,6.0,6.0,0.0
1450210769931273803,6.0,6.0,0.0
1450210769964657965,6.0,6.0,0.0
1450210769997954008,6.0,6.0,0.0
1450210770031396936,6.0,6.0,0.0
1450210770064829167,6.0,6.0,0.0
1450210770098107764,6.0,6.0,0.0
1450210770131372557,6.0,6.0,0.0
1450210770164969006,6.0,6.0,0.0
1450210770198146209,6.0,6.0,0.0
1450210770231324995,6.0,6.0,0.0
1450210770264678489,6.0,6.0,0.0
1450210770298002608,6.0,6.0,0.0
1450210770331300584,6.0,6.0,0.0
1450210770364646379,6.0,6.0,0.0
1450210770397988383,6.0,6.0,0.0
1450210770431420534,6.0,6.0,0.0
1450210770464665819,6.0,6.0,0.0
1450210770498036875,6.0,6.0,0.0
1450210770531386757,6.0,6.0,0.0
1450210770564658201,6.0,6.0,0.0
1450210770597953377,6.0,6.0,0.0
1450210770631364466,6.0,6.0,0.0
1450210770664639295,6.0,6.0,0.0
1450210770698123234,6.0,6.0,0.0
1450210770731271395,6.0,6.0,0.0
1450210770764644576,6.0,6.0,0.0
1450210770798005409,6.0,6.0,0.0
1450210770831327665,6.0,6.0,0.0
1450210770864626942,6.0,6.0,0.0
1450210770898097035,6.0,6.0,0.0
1450210770931410430,6.0,6.0,0.0
1450210770965088445,6.0,6.0,0.0
1450210770998036631,6.0,6.0,0.0
1450210771031391824,6.0,6.0,0.0
1450210771064765390,6.0,6.0,0.0
1450210771098193527,6.0,6.0,0.0
1450210771131511305,6.0,6.0,0.0
1450210771165046205,6.0,6.0,0.0
1450210771198113308,6.0,6.0,0.0
1450210771231529983,6.0,6.0,0.0
1450210771264700142,6.0,6.0,0.0
1450210771298184211,6.0,6.0,0.0
1450210771331379383,6.0,6.0,0.0
1450210771364732506,6.0,6.0,0.0
1450210771398543984,6.0,6.0,0.0
1450210771434903129,6.0,6.0,0.0
1450210771464986265,6.0,6.0,0.0
1450210771499211733,6.0,6.0,0.0
1450210771531345714,6.0,6.0,0.0
1450210771564845378,6.0,6.0,0.0
1450210771604694327,6.0,6.0,0.0
1450210771632103029,6.0,6.0,0.0
1450210771665481612,6.0,6.0,0.0
1450210771698242038,6.0,6.0,0.0
1450210771731339845,6.0,6.0,0.0
1450210771764937233,6.0,6.0,0.0
1450210771798792763,6.0,6.0,0.0
1450210771831819894,6.0,6.0,0.0
1450210771865191964,6.0,6.0,0.0
1450210771898758774,6.0,6.0,0.0
1450210771931503861,6.0,6.0,0.0
1450210771967732044,6.0,6.0,0.0
1450210771998036001,6.0,6.0,0.0
1450210772032158689,6.0,6.0,0.0
1450210772064851087,6.0,6.0,0.0
1450210772098618645,6.0,6.0,0.0
1450210772132638964,6.0,6.0,0.0
1450210772165774459,6.0,6.0,0.0
1450210772198597091,6.0,6.0,0.0
1450210772231619743,6.0,6.0,0.0
1450210772264865418,6.0,6.0,0.0
1450210772298433678,6.0,6.0,0.0
1450210772331782082,6.0,6.0,0.0
1450210772366191015,6.0,6.0,0.0
1450210772398859819,6.0,6.0,0.0
1450210772431840425,6.0,6.0,0.0
1450210772464905630,6.0,6.0,0.0
1450210772498368682,6.0,6.0,0.0
1450210772531910687,6.0,6.0,0.0
1450210772564823138,6.0,6.0,0.0
1450210772598526391,6.0,6.0,0.0
1450210772631792197,6.0,6.0,0.0
1450210772664979049,6.0,6.0,0.0
1450210772698035255,6.0,6.0,0.0
1450210772731499027,6.0,6.0,0.0
1450210772765504001,6.0,6.0,0.0
1450210772798035471,6.0,6.0,0.0
1450210772831880876,6.0,6.0,0.0
1450210772865057285,6.0,6.0,0.0
1450210772898599640,6.0,6.0,0.0
1450210772932063682,6.0,6.0,0.0
1450210772965585118,6.0,6.0,0.0
1450210772998511205,6.0,6.0,0.0
1450210773031546342,6.0,6.0,0.0
1450210773065155822,6.0,6.0,0.0
1450210773098384278,6.0,6.0,0.0
1450210773131506146,6.0,6.0,0.0
1450210773165029804,6.0,6.0,0.0
1450210773201995736,6.0,6.0,0.0
1450210773232162412,6.0,6.0,0.0
1450210773265013259,6.0,6.0,0.0
1450210773298447129,6.0,6.0,0.0
1450210773331693390,6.0,6.0,0.0
1450210773365147037,6.0,6.0,0.0
1450210773398255457,6.0,6.0,0.0
1450210773431741086,6.0,6.0,0.0
1450210773465249597,6.0,6.0,0.0
1450210773498564123,6.0,6.0,0.0
1450210773531924026,6.0,6.0,0.0
1450210773565065595,6.0,6.0,0.0
1450210773598091920,6.0,6.0,0.0
1450210773631612377,6.0,6.0,0.0
1450210773665649978,6.0,6.0,0.0
1450210773699205893,6.0,6.0,0.0
1450210773731583047,6.0,6.0,0.0
1450210773765397411,6.0,6.0,0.0
1450210773801040555,6.0,6.0,0.0
1450210773832124407,6.0,6.0,0.0
1450210773864879246,6.0,6.0,0.0
1450210773898196114,6.0,6.0,0.0
1450210773932291506,6.0,6.0,0.0
1450210773964988733,6.0,6.0,0.0
1450210773998607187,6.0,6.0,0.0
1450210774032069795,6.0,6.0,0.0
1450210774064997692,6.0,6.0,0.0
1450210774098149094,6.0,6.0,0.0
1450210774137812039,6.0,6.0,0.0
1450210774165003581,6.0,6.0,0.0
1450210774198083877,6.0,6.0,0.0
1450210774231940752,6.0,6.0,0.0
1450210774264918415,6.0,6.0,0.0
1450210774298129287,6.0,6.0,0.0
1450210774331390118,6.0,6.0,0.0
1450210774365455665,6.0,6.0,0.0
1450210774398240109,6.0,6.0,0.0
1450210774431983374,6.0,6.0,0.0
1450210774464956948,6.0,6.0,0.0
1450210774498035515,6.0,6.0,0.0
1450210774531411216,6.0,6.0,0.0
1450210774564697117,6.0,6.0,0.0
1450210774598442938,6.0,6.0,0.0
1450210774631834382,6.0,6.0,0.0
1450210774668877569,6.0,6.0,0.0
1450210774698407528,6.0,6.0,0.0
1450210774731519226,6.0,6.0,0.0
1450210774764780378,6.0,6.0,0.0
1450210774798073812,6.0,6.0,0.0
1450210774832090110,6.0,6.0,0.0
1450210774864688484,6.0,6.0,0.0
1450210774898834349,6.0,6.0,0.0
1450210774931473070,6.0,6.0,0.0
1450210774964976872,6.0,6.0,0.0
1450210774998544120,6.0,6.0,0.0
1450210775035984768,6.0,6.0,0.0
1450210775065761339,6.0,6.0,0.0
1450210775098239130,6.0,6.0,0.0
1450210775131641343,6.0,6.0,0.0
1450210775164830279,6.0,6.0,0.0
1450210775198440477,6.0,6.0,0.0
1450210775231679338,6.0,6.0,0.0
1450210775265583686,6.0,6.0,0.0
1450210775298216405,6.0,6.0,0.0
1450210775331700670,6.0,6.0,0.0
1450210775365652978,6.61952,6.0,0.0
1450210775399112274,6.61952,6.0,0.0
1450210775432163239,6.61952,6.0,0.0
1450210775465097209,6.61952,6.0,0.0
1450210775498698948,6.61952,6.0,0.0
1450210775531762680,6.61952,6.0,0.0
1450210775565213162,6.61952,6.0,0.0
1450210775599819177,6.61952,6.0,0.0
1450210775631282145,6.61952,6.0,0.0
1450210775665640821,6.61952,6.0,0.0
1450210775698022555,6.61952,6.0,0.0
1450210775731365248,6.61952,6.0,0.0
1450210775764903152,6.61952,6.0,0.0
1450210775797990829,6.61952,6.0,0.0
1450210775833424056,6.61952,6.0,0.0
1450210775865079445,6.61952,6.0,0.0
1450210775898956803,6.61952,6.0,0.0
1450210775932454744,6.61952,6.0,0.0
1450210775965275016,6.61952,6.0,0.0
1450210775998836853,6.61952,6.0,0.0
1450210776031389040,6.61952,6.0,0.0
1450210776065565542,6.61952,6.0,0.0
1450210776098576040,6.61952,6.0,0.0
1450210776133998315,6.61952,6.0,0.0
1450210776165602505,6.61952,6.0,0.0
1450210776198966578,6.61952,6.0,0.0
1450210776235879169,6.61952,6.0,0.0
1450210776266326529,6.61952,6.0,0.0
1450210776298133291,6.61952,6.0,0.0
1450210776331361005,6.61952,6.0,0.0
1450210776364923859,6.61952,6.0,0.0
1450210776398162429,6.61952,6.0,0.0
1450210776432192765,6.61952,6.0,0.0
1450210776466034609,6.61952,6.0,0.0
1450210776497944244,6.61952,6.0,0.0
1450210776531386323,6.61952,6.0,0.0
1450210776564753883,6.61952,6.0,0.0
1450210776598527555,6.61952,6.0,0.0
1450210776631537446,6.61952,6.0,0.0
1450210776665233868,6.61952,6.0,0.0
1450210776698603440,6.61952,6.0,0.0
1450210776733178484,6.61952,6.0,0.0
1450210776765353158,6.61952,6.0,0.0
1450210776798493459,6.61952,6.0,0.0
1450210776831373668,6.61952,6.0,0.0
1450210776868039338,6.61952,6.0,0.0
1450210776898376862,6.61952,6.0,0.0
1450210776931768194,6.61952,6.0,0.0
1450210776965743387,6.61952,6.0,0.0
1450210776999007688,6.61952,6.0,0.0
1450210777031977437,6.61952,6.0,0.0
1450210777064906486,6.61952,6.0,0.0
1450210777098453182,6.61952,6.0,0.0
1450210777131698991,6.61952,6.0,0.0
1450210777165456224,6.61952,6.0,0.0
1450210777199545147,6.61952,6.0,0.0
1450210777232213485,6.61952,6.0,0.0
1450210777265101649,6.61952,6.0,0.0
1450210777301260122,6.61952,6.0,0.0
1450210777331465055,6.61952,6.0,0.0
1450210777365131431,6.61952,6.0,0.0
1450210777398623257,6.61952,6.0,0.0
1450210777431803692,6.61952,6.0,0.0
1450210777465260859,6.61952,6.03528947368,0.0
1450210777503769960,6.61952,6.03528947368,0.0
1450210777531364619,6.61952,6.03528947368,0.0
1450210777567637047,6.61952,6.03528947368,0.0
1450210777598284948,6.61952,6.03528947368,0.0
1450210777631728262,6.61952,6.03528947368,0.0
1450210777664826790,6.61952,6.03528947368,0.0
1450210777697976715,6.61952,6.03528947368,0.0
1450210777731652476,6.61952,6.03528947368,0.0
1450210777765020695,6.61952,6.03528947368,0.0
1450210777798443514,6.61952,6.03528947368,0.0
1450210777831647483,6.61952,6.03528947368,0.0
1450210777865856600,6.61952,6.03528947368,0.0
1450210777898087338,6.61952,6.03528947368,0.0
1450210777931919311,6.61952,6.03528947368,0.0
1450210777965232419,6.61952,6.03528947368,0.0
1450210777998192028,6.61952,6.03528947368,0.0
1450210778031859064,6.61952,6.03528947368,0.0
1450210778065065723,6.61952,6.03528947368,0.0
1450210778099034327,6.61952,6.03528947368,0.0
1450210778131673489,6.61952,6.03528947368,0.0
1450210778165385235,6.61952,6.03528947368,0.0
1450210778200445088,6.61952,6.03528947368,0.0
1450210778231616195,6.61952,6.03528947368,0.0
1450210778264804753,6.61952,6.03528947368,0.0
1450210778298483482,6.61952,6.03528947368,0.0
1450210778331831986,6.61952,6.03528947368,0.0
1450210778365039929,6.61952,6.03528947368,0.0
1450210778398944349,6.61952,6.03528947368,0.0
1450210778431573768,6.61952,6.03528947368,0.0
1450210778468025445,6.61952,6.03528947368,0.0
1450210778500705425,6.61952,6.03528947368,0.0
1450210778533750561,6.61952,6.03528947368,0.0
1450210778565528788,6.61952,6.0,0.0
1450210778598223610,6.61952,6.0,0.0
1450210778631775073,6.61952,6.0,0.0
1450210778665406356,6.61952,5.96471052632,0.0
1450210778702694887,6.61952,5.96471052632,0.0
1450210778731678211,6.61952,5.96471052632,0.0
1450210778765272254,6.61952,5.96471052632,0.0
1450210778798260161,6.61952,5.96471052632,0.0
1450210778836139165,6.61952,5.89413157895,0.0
1450210778868547436,6.61952,5.89413157895,0.0
1450210778898298500,6.61952,5.89413157895,0.0
1450210778932067370,6.61952,5.89413157895,0.0
1450210778964850808,6.537856,5.89413157895,0.0
1450210778998072635,6.537856,5.89413157895,0.0
1450210779031460468,6.537856,5.89413157895,0.0
1450210779065147610,6.61952,5.89413157895,0.0
1450210779098743248,6.61952,5.89413157895,0.0
1450210779131793396,6.61952,5.89413157895,0.0
1450210779165179409,6.61952,5.89413157895,0.0
1450210779198232761,6.61952,5.89413157895,0.0
1450210779231620293,6.61952,5.82355263158,0.0
1450210779271687209,6.61952,5.82355263158,0.0
1450210779298493901,6.61952,5.82355263158,0.0
1450210779331386276,6.61952,5.82355263158,0.0
1450210779365149298,6.61952,5.82355263158,0.0
1450210779398367819,6.61952,5.82355263158,0.0
1450210779431712711,6.61952,5.82355263158,0.0
1450210779464830855,6.61952,5.82355263158,0.0
1450210779501645930,6.61952,5.82355263158,0.0
1450210779531565359,6.61952,5.82355263158,0.0
1450210779565168019,6.61952,5.82355263158,0.0
1450210779598397190,6.61952,5.82355263158,0.0
1450210779631687467,6.61952,5.82355263158,0.0
1450210779665188463,6.61952,5.82355263158,0.0
1450210779698472283,6.61952,5.75297368421,0.0
1450210779731654143,6.61952,5.75297368421,0.0
1450210779765846426,6.61952,5.75297368421,0.0
1450210779798968396,6.61952,5.75297368421,0.0
1450210779832269110,6.61952,5.75297368421,0.0
1450210779864916348,5.6825,6.0,0.0
1450210779898342388,5.6825,6.0,0.0
1450210779931620371,5.6825,6.0,0.0
1450210779965022962,5.6825,6.0,0.0
1450210779998384632,5.6825,6.0,0.0
1450210780032237699,5.6825,6.0,0.0
1450210780064959272,5.6825,6.0,0.0
1450210780098856916,5.6825,6.0,0.0
1450210780131367016,5.6825,6.0,0.0
1450210780164974162,5.6825,6.0,0.0
1450210780199652494,5.6825,6.0,0.0
1450210780231419584,5.6825,6.0,0.0
1450210780265137945,6.0,5.4803625,0.0
1450210780298115351,6.61952,5.68239473684,0.0
1450210780331834268,6.61952,5.68239473684,0.0
1450210780365337289,6.61952,5.68239473684,0.0
1450210780398350414,6.61952,5.68239473684,0.0
1450210780431977190,6.61952,5.68239473684,0.0
1450210780465899789,6.61952,5.68239473684,0.0
1450210780498130517,6.61952,5.68239473684,0.0
1450210780531373510,6.61952,5.68239473684,0.0
1450210780565454336,6.61952,5.75297368421,0.0
1450210780599099177,6.61952,5.75297368421,0.0
1450210780631435181,6.61952,5.75297368421,0.0
1450210780665239151,6.61952,5.68239473684,0.0
1450210780698002526,6.61952,5.68239473684,0.0
1450210780731600737,6.61952,5.68239473684,0.0
1450210780764933294,6.61952,5.68239473684,0.0
1450210780798200696,6.61952,5.68239473684,0.0
1450210780831368242,6.61952,5.68239473684,0.0
1450210780864911047,6.61952,5.68239473684,0.0
1450210780898241042,6.61952,5.68239473684,0.0
1450210780931492048,6.61952,5.68239473684,0.0
1450210780965785658,6.61952,5.68239473684,0.0
1450210780998614524,6.61952,5.68239473684,0.0
1450210781031320732,6.61952,5.68239473684,0.0
1450210781067170937,6.61952,5.68239473684,0.0
1450210781098180351,6.61952,5.68239473684,0.0
1450210781132104169,6.61952,5.68239473684,0.0
1450210781165635050,6.61952,5.68239473684,0.0
1450210781198489622,6.61952,5.68239473684,0.0
1450210781231465642,6.61952,5.68239473684,0.0
1450210781264735576,6.61952,5.68239473684,0.0
1450210781298474943,6.61952,5.68239473684,0.0
1450210781331451502,6.61952,5.68239473684,0.0
1450210781365280817,6.61952,5.68239473684,0.0
1450210781398312695,6.61952,5.68239473684,0.0
1450210781432691889,6.61952,5.68239473684,0.0
1450210781465198285,6.61952,5.68239473684,0.0
1450210781498535329,6.61952,5.68239473684,0.0
1450210781531677026,6.61952,5.68239473684,0.0
1450210781565309263,6.61952,5.68239473684,0.0
1450210781599084496,6.61952,5.68239473684,0.0
1450210781632054862,6.61952,5.68239473684,0.0
1450210781664892362,6.61952,5.68239473684,0.0
1450210781698386704,6.61952,5.68239473684,0.0
1450210781731688641,6.61952,5.68239473684,0.0
1450210781765099848,6.61952,5.68239473684,0.0
1450210781798695203,6.61952,5.68239473684,0.0
1450210781831567791,6.61952,5.68239473684,0.0
1450210781865851321,6.61952,5.68239473684,0.0
1450210781898412191,6.61952,5.68239473684,0.0
1450210781932151322,6.61952,5.68239473684,0.0
1450210781964719221,6.61952,5.68239473684,0.0
1450210781998462938,6.61952,5.68239473684,0.0
1450210782031649818,6.61952,5.68239473684,0.0
1450210782065373898,6.61952,5.68239473684,0.0
1450210782098610163,6.61952,5.68239473684,0.0
1450210782131761147,6.61952,5.68239473684,0.0
1450210782165314600,6.61952,5.75297368421,0.0
1450210782198216538,6.61952,5.75297368421,0.0
1450210782231628646,6.61952,5.75297368421,0.0
1450210782265460477,6.61952,5.75297368421,0.0
1450210782300129206,6.61952,5.75297368421,0.0
1450210782331708479,6.61952,5.75297368421,0.0
1450210782367845747,6.61952,5.75297368421,0.0
1450210782398200094,6.61952,5.75297368421,0.0
1450210782432919289,6.61952,5.75297368421,0.0
1450210782465689183,6.61952,5.82355263158,0.0
1450210782498446848,6.61952,5.82355263158,0.0
1450210782531344597,6.61952,5.82355263158,0.0
1450210782565039442,6.61952,5.75297368421,0.0
1450210782598370643,6.61952,5.75297368421,0.0
1450210782631681035,6.61952,5.75297368421,0.0
1450210782664741344,6.61952,5.82355263158,0.0
1450210782698634384,6.61952,5.82355263158,0.0
1450210782731499151,6.61952,5.82355263158,0.0
1450210782764692598,6.61952,5.82355263158,0.0
1450210782798435555,6.61952,5.82355263158,0.0
1450210782832546818,6.61952,5.82355263158,0.0
1450210782864738342,6.61952,5.82355263158,0.0
1450210782898419730,6.61952,5.82355263158,0.0
1450210782931356979,6.61952,5.82355263158,0.0
1450210782965648924,6.61952,5.82355263158,0.0
1450210782998933661,6.61952,5.82355263158,0.0
1450210783032056823,6.61952,5.82355263158,0.0
1450210783065418760,6.61952,5.82355263158,0.0
1450210783098332466,6.61952,5.82355263158,0.0
1450210783131401807,6.61952,5.82355263158,0.0
1450210783165040548,6.61952,5.82355263158,0.0
1450210783206716156,6.61952,5.82355263158,0.0
1450210783231815192,6.61952,5.89413157895,0.0
1450210783265064178,6.61952,5.89413157895,0.0
1450210783298207555,6.61952,5.82355263158,0.0
1450210783331805467,6.61952,5.82355263158,0.0
1450210783365027768,6.61952,5.89413157895,0.0
1450210783398596045,6.61952,5.89413157895,0.0
1450210783432310606,6.61952,5.89413157895,0.0
1450210783465431039,6.61952,5.89413157895,0.0
1450210783498082223,6.61952,5.89413157895,0.0
1450210783531368339,6.61952,5.89413157895,0.0
1450210783565785891,6.61952,5.89413157895,0.0
1450210783599039152,6.61952,5.89413157895,0.0
1450210783631658313,6.61952,5.89413157895,0.0
1450210783664988349,6.61952,5.89413157895,0.0
1450210783698330120,6.61952,5.89413157895,0.0
1450210783731510510,6.61952,5.89413157895,0.0
1450210783765192702,6.61952,5.89413157895,0.0
1450210783798343701,6.61952,5.89413157895,0.0
1450210783831687389,6.61952,5.89413157895,0.0
1450210783888624742,6.61952,5.89413157895,0.0
1450210783898263566,6.61952,5.89413157895,0.0
1450210783932110091,6.61952,5.89413157895,0.0
1450210783965114087,6.61952,5.96471052632,0.0
1450210783998101028,6.61952,5.96471052632,0.0
1450210784032294659,6.61952,5.96471052632,0.0
1450210784065508771,6.61952,5.96471052632,0.0
1450210784098005338,6.61952,5.96471052632,0.0
1450210784131526989,6.61952,5.96471052632,0.0
1450210784165713689,6.61952,5.96471052632,0.0
1450210784197988349,6.61952,5.96471052632,0.0
1450210784231551025,6.61952,5.96471052632,0.0
1450210784265684195,6.61952,6.0,0.0
1450210784298208637,6.61952,6.0,0.0
1450210784333492883,6.61952,6.0,0.0
1450210784365373648,6.61952,6.0,0.0
1450210784398448833,6.61952,6.0,0.0
1450210784432108778,6.61952,6.0,0.0
1450210784464751486,6.61952,6.0,0.0
1450210784498184327,6.61952,6.03528947368,0.0
1450210784531558249,6.61952,6.03528947368,0.0
1450210784564631400,6.61952,6.03528947368,0.0
1450210784600169523,6.61952,6.03528947368,0.0
1450210784648048036,6.61952,6.03528947368,0.0
1450210784665410725,6.61952,6.03528947368,0.0
1450210784731980584,6.61952,6.03528947368,0.0
1450210784731985102,6.61952,6.03528947368,0.0
1450210784764973786,6.61952,6.03528947368,0.0
1450210784799746507,6.61952,6.03528947368,0.0
1450210784831697692,6.61952,6.10586842105,0.0
1450210784865307989,6.61952,6.10586842105,0.0
1450210784898378493,6.61952,6.10586842105,0.0
1450210784931453608,6.61550440468,6.03528947368,0.0
1450210784964910237,6.61550440468,6.03528947368,0.0
1450210784998882891,6.61550440468,6.03528947368,0.0
1450210785031888085,6.60200195786,6.03528947368,0.0
1450210785065677086,6.59525089406,6.03528947368,0.0
1450210785098044337,6.5885001255,6.03528947368,0.0
1450210785132122658,6.58174938453,6.03528947368,0.0
1450210785165284207,6.58174938453,6.03528947368,0.0
1450210785198589193,6.58174938453,6.03528947368,0.0
1450210785231782417,6.56993902256,6.10586842105,0.0
1450210785264926202,6.55475523397,6.03528947368,0.0
1450210785303772688,6.55475523397,6.03528947368,0.0
1450210785331808024,6.55138040136,6.03528947368,0.0
1450210785364805023,6.55138040136,6.03528947368,0.0
1450210785399260084,6.55138040136,6.03528947368,0.0
1450210785432220984,6.54463075194,6.03528947368,0.0
1450210785464909001,6.53113735514,6.10586842105,0.0
1450210785498141501,6.52438841611,6.10586842105,0.0
1450210785531584206,6.51763984993,6.10586842105,0.0
1450210785568279396,6.51763984993,6.10586842105,0.0
1450210785598688886,6.51763984993,6.10586842105,0.0
1450210785631457814,6.49739539015,6.10586842105,0.0
1450210785664742956,6.49064786547,6.10586842105,0.0
1450210785698353324,6.49064786547,6.10586842105,0.0
1450210785732069126,6.48727407482,6.10586842105,0.0
1450210785764668127,6.0,6.0,0.0
1450210785801921892,6.0,6.0,0.0
1450210785831489453,6.0,6.0,0.0
1450210785866308325,6.0,6.0,0.0
1450210785898280487,6.0,6.0,0.0
1450210785931422281,6.0,6.0,0.0
1450210785965424826,6.0,6.0,0.0
1450210785998000791,6.0,6.0,0.0
1450210786031945643,6.0,6.0,0.0
1450210786065057515,6.0,6.0,0.0
1450210786099058341,6.0,6.0,0.0
1450210786131613405,6.0,6.0,0.0
1450210786165250763,6.0,6.0,0.0
1450210786198498717,6.0,6.0,0.0
1450210786231939576,6.0,6.0,0.0
1450210786264659694,6.0,6.0,0.0
1450210786298483800,6.0,6.0,0.0
1450210786331877256,6.0,6.0,0.0
1450210786365411556,6.0,6.0,0.0
1450210786398600884,6.0,6.0,0.0
1450210786431587795,6.0,6.0,0.0
1450210786467531962,6.0,6.0,0.0
1450210786498269313,6.0,6.0,0.0
1450210786531761579,6.0,6.0,0.0
1450210786566621300,6.0,6.0,0.0
1450210786598381158,6.0,6.0,0.0
1450210786631545358,6.0,6.0,0.0
1450210786670595581,6.0,6.0,0.0
1450210786698765327,6.0,6.0,0.0
1450210786731473476,6.0,6.0,0.0
1450210786764809382,6.0,6.0,0.0
1450210786798263195,6.0,6.0,0.0
1450210786831486389,6.0,6.0,0.0
1450210786865089406,6.0,6.0,0.0
1450210786898221794,6.0,6.0,0.0
1450210786931731644,6.0,6.0,0.0
1450210786965084609,6.0,6.0,0.0
1450210786998201875,6.0,6.0,0.0
1450210787031505982,6.0,6.0,0.0
1450210787065657136,6.0,6.0,0.0
1450210787098385092,6.0,6.0,0.0
1450210787134227863,6.0,6.0,0.0
1450210787165279046,6.0,6.0,0.0
1450210787198509126,6.0,6.0,0.0
1450210787231515512,6.0,6.0,0.0
1450210787267805022,6.0,6.0,0.0
1450210787297970234,6.0,6.0,0.0
1450210787331915158,6.0,6.0,0.0
1450210787364796021,6.0,6.0,0.0
1450210787398474510,6.0,6.0,0.0
1450210787431870470,6.0,6.0,0.0
1450210787465066761,6.0,6.0,0.0
1450210787498357160,6.0,6.0,0.0
1450210787531557622,6.0,6.0,0.0
1450210787564951044,6.0,6.0,0.0
1450210787598292301,6.0,6.0,0.0
1450210787632371776,6.0,6.0,0.0
1450210787665418899,6.0,6.0,0.0
1450210787698304608,6.0,6.0,0.0
1450210787731478655,6.0,6.0,0.0
1450210787765625945,6.0,6.0,0.0
1450210787798474987,6.0,6.0,0.0
1450210787833074384,6.0,6.0,0.0
1450210787865444129,6.0,6.0,0.0
1450210787898574657,6.0,6.0,0.0
1450210787931563267,6.0,6.0,0.0
1450210787964908273,6.0,6.0,0.0
1450210787998073988,6.0,6.0,0.0
1450210788031443012,6.0,6.0,0.0
1450210788064988304,6.0,6.0,0.0
1450210788099725430,6.0,6.0,0.0
1450210788131634958,6.0,6.0,0.0
1450210788168268084,6.0,6.0,0.0
1450210788198690134,6.0,6.0,0.0
1450210788234630770,6.0,6.0,0.0
1450210788266703864,6.0,6.0,0.0
1450210788301560849,6.0,6.0,0.0
1450210788331365657,6.0,6.0,0.0
1450210788365959910,6.0,6.0,0.0
1450210788398753459,6.0,6.0,0.0
1450210788432100994,6.0,6.0,0.0
1450210788465204779,6.0,6.0,0.0
1450210788498164104,6.0,6.0,0.0
1450210788534095633,6.0,6.0,0.0
1450210788566639922,6.0,6.0,0.0
1450210788598499271,6.0,6.0,0.0
1450210788631490852,6.0,6.0,0.0
1450210788667921873,6.0,6.0,0.0
1450210788698171242,6.0,6.0,0.0
1450210788731854147,6.0,6.0,0.0
1450210788765000229,6.0,6.0,0.0
1450210788798930600,6.0,6.0,0.0
1450210788831835416,6.0,6.0,0.0
1450210788865387272,6.0,6.0,0.0
1450210788898065481,6.0,6.0,0.0
1450210788931655944,6.0,6.0,0.0
1450210788965089671,6.0,6.0,0.0
1450210788998366569,6.0,6.0,0.0
1450210789031656039,6.0,6.0,0.0
1450210789074726567,6.0,6.0,0.0
1450210789097991452,6.0,6.0,0.0
1450210789131283647,6.0,6.0,0.0
1450210789165095982,6.0,6.0,0.0
1450210789198274817,6.0,6.0,0.0
1450210789231467485,6.0,6.0,0.0
1450210789265122597,6.0,6.0,0.0
1450210789298247960,6.0,6.0,0.0
1450210789331594856,6.0,6.0,0.0
1450210789366199323,6.0,6.0,0.0
1450210789398332608,6.0,6.0,0.0
1450210789431857952,6.0,6.0,0.0
1450210789468638977,6.0,6.0,0.0
1450210789498896811,6.0,6.0,0.0
1450210789532164705,6.0,6.0,0.0
1450210789565079093,6.0,6.0,0.0
1450210789598119776,6.0,6.0,0.0
1450210789631928769,6.0,6.0,0.0
1450210789665090862,6.0,6.0,0.0
1450210789698326253,6.0,6.0,0.0
1450210789732104720,6.0,6.0,0.0
1450210789764748312,6.0,6.0,0.0
1450210789800284575,6.0,6.0,0.0
1450210789831612526,6.0,6.0,0.0
1450210789875630896,6.0,6.0,0.0
1450210789899918894,6.0,6.0,0.0
1450210789931600492,6.0,6.0,0.0
1450210789965536282,6.0,6.0,0.0
1450210789998572864,6.0,6.0,0.0
1450210790032238284,6.0,6.0,0.0
1450210790065055253,6.0,6.0,0.0
1450210790098631211,6.0,6.0,0.0
1450210790131720345,6.0,6.0,0.0
1450210790164953216,6.0,6.0,0.0
1450210790198163508,6.0,6.0,0.0
1450210790231569075,6.0,6.0,0.0
1450210790265308100,6.0,6.0,0.0
1450210790299662176,6.0,6.0,0.0
1450210790331386910,6.0,6.0,0.0
1450210790365900843,6.0,6.0,0.0
1450210790398539805,6.0,6.0,0.0
1450210790436250445,6.0,6.0,0.0
1450210790465501646,6.0,6.0,0.0
1450210790498297106,6.0,6.0,0.0
1450210790531523528,6.0,6.0,0.0
1450210790565061635,6.0,6.0,0.0
1450210790599458078,6.0,6.0,0.0
1450210790631573320,6.0,6.0,0.0
1450210790665224817,6.0,6.0,0.0
1450210790698259840,6.0,6.0,0.0
1450210790731737057,6.0,6.0,0.0
1450210790765299134,6.0,6.0,0.0
1450210790798577737,6.0,6.0,0.0
1450210790831624764,6.0,6.0,0.0
1450210790864920708,6.0,6.0,0.0
1450210790898087397,6.0,6.0,0.0
1450210790931526666,6.0,6.0,0.0
1450210790964962952,6.0,6.0,0.0
1450210790998223501,6.0,6.0,0.0
1450210791031651705,6.0,6.0,0.0
1450210791064891761,6.0,6.0,0.0
1450210791098542653,6.0,6.0,0.0
1450210791131347875,6.0,6.0,0.0
1450210791165246877,6.0,6.0,0.0
1450210791198191949,6.0,6.0,0.0
1450210791231469999,6.0,6.0,0.0
1450210791265152734,6.0,6.0,0.0
1450210791298257737,6.0,6.0,0.0
1450210791331816142,6.0,6.0,0.0
1450210791365132625,6.0,6.0,0.0
1450210791398278991,6.0,6.0,0.0
1450210791432493049,6.0,6.0,0.0
1450210791464995169,6.0,6.0,0.0
1450210791498145461,6.0,6.0,0.0
1450210791531729870,6.0,6.0,0.0
1450210791565079535,6.0,6.0,0.0
1450210791598769425,6.0,6.0,0.0
1450210791632118735,6.0,6.0,0.0
1450210791665736947,6.0,6.0,0.0
1450210791699919279,6.0,6.0,0.0
1450210791731648935,6.0,6.0,0.0
1450210791764667993,6.0,6.0,0.0
1450210791798590248,6.0,6.0,0.0
1450210791833214446,6.0,6.0,0.0
1450210791866864381,6.0,6.0,0.0
1450210791898420075,6.0,6.0,0.0
1450210791931678783,6.0,6.0,0.0
1450210791965042814,6.0,6.0,0.0
1450210792000132579,6.0,6.0,0.0
1450210792032153551,6.0,6.0,0.0
1450210792064707558,6.0,6.0,0.0
1450210792098098982,6.0,6.0,0.0
1450210792131563395,6.0,6.0,0.0
1450210792164977697,6.0,6.0,0.0
1450210792198627226,6.0,6.0,0.0
1450210792233462989,6.0,6.0,0.0
1450210792264682925,6.0,6.0,0.0
1450210792298496380,6.0,6.0,0.0
1450210792331886668,6.0,6.0,0.0
1450210792364885228,6.0,6.0,0.0
1450210792400595987,6.0,6.0,0.0
1450210792432119050,6.0,6.0,0.0
1450210792465152537,6.0,6.0,0.0
1450210792498506849,6.0,6.0,0.0
1450210792531576102,6.0,6.0,0.0
1450210792564746358,6.0,6.0,0.0
1450210792598129333,6.0,6.0,0.0
1450210792631795048,6.0,6.0,0.0
1450210792665901718,6.0,6.0,0.0
1450210792698189487,6.0,6.0,0.0
1450210792731835751,6.0,6.0,0.0
1450210792765850271,6.0,6.0,0.0
1450210792798293194,6.0,6.0,0.0
1450210792831466466,6.0,6.0,0.0
1450210792864765954,6.0,6.0,0.0
1450210792898651180,6.0,6.0,0.0
1450210792931751351,6.0,6.0,0.0
1450210792964999558,6.0,6.0,0.0
1450210792998682403,6.0,6.0,0.0
1450210793033423999,6.0,6.0,0.0
1450210793065430930,6.0,6.0,0.0
1450210793098173204,6.0,6.0,0.0
1450210793131720798,6.0,6.0,0.0
1450210793165053591,6.0,6.0,0.0
1450210793198873204,6.0,6.0,0.0
1450210793231892864,6.0,6.0,0.0
1450210793264956790,6.0,6.0,0.0
1450210793298170433,6.0,6.0,0.0
1450210793331511104,6.0,6.0,0.0
1450210793366264945,6.0,6.0,0.0
1450210793399521367,6.0,6.0,0.0
1450210793432190057,6.0,6.0,0.0
1450210793465360300,6.0,6.0,0.0
1450210793498405469,6.0,6.0,0.0
1450210793531651745,6.0,6.0,0.0
1450210793565062142,6.0,6.0,0.0
1450210793598566114,6.0,6.0,0.0
1450210793640281032,6.0,6.0,0.0
1450210793664989541,6.0,6.0,0.0
1450210793699325750,6.0,6.0,0.0
1450210793731551582,6.0,6.0,0.0
1450210793765745050,6.0,6.0,0.0
1450210793798567995,6.0,6.0,0.0
1450210793832672823,6.0,6.0,0.0
1450210793865640943,6.0,6.0,0.0
1450210793898139419,6.0,6.0,0.0
1450210793932306189,6.0,6.0,0.0
1450210793964797993,6.0,6.0,0.0
1450210793999879079,6.0,6.0,0.0
1450210794031579037,6.0,6.0,0.0
1450210794065156101,6.0,6.0,0.0
1450210794098718736,6.0,6.0,0.0
1450210794131568106,6.0,6.0,0.0
1450210794164887012,6.0,6.0,0.0
1450210794198649561,6.0,6.0,0.0
1450210794231469632,6.0,6.0,0.0
1450210794265352491,6.0,6.0,0.0
1450210794298152987,6.0,6.0,0.0
1450210794335750590,6.0,6.0,0.0
1450210794364960267,6.0,6.0,0.0
1450210794400329101,6.0,6.0,0.0
1450210794431474778,6.0,6.0,0.0
1450210794465108906,6.0,6.0,0.0
1450210794498284382,6.0,6.0,0.0
1450210794531437892,6.0,6.0,0.0
1450210794564838326,6.0,6.0,0.0
1450210794598431330,6.0,6.0,0.0
1450210794631691578,6.0,6.0,0.0
1450210794665124567,6.0,6.0,0.0
1450210794698126828,6.0,6.0,0.0
1450210794731802014,6.0,6.0,0.0
1450210794765243357,6.0,6.0,0.0
1450210794798602859,6.0,6.0,0.0
1450210794831952324,6.0,6.0,0.0
1450210794864772018,6.0,6.0,0.0
1450210794898245583,6.0,6.0,0.0
1450210794931701979,6.0,6.0,0.0
1450210794965152417,6.0,6.0,0.0
1450210794998096839,6.0,6.0,0.0
1450210795032672720,6.0,6.0,0.0
1450210795065707090,6.0,6.0,0.0
1450210795098524078,6.0,6.0,0.0
1450210795131613207,6.0,6.0,0.0
1450210795172086605,6.0,6.0,0.0
1450210795200062520,6.0,6.0,0.0
1450210795231770646,6.0,6.0,0.0
1450210795265309455,6.0,6.0,0.0
1450210795298135810,6.0,6.0,0.0
1450210795331459265,6.0,6.0,0.0
1450210795364904263,6.0,6.0,0.0
1450210795399022157,6.0,6.0,0.0
1450210795431502623,6.0,6.0,0.0
1450210795464987906,6.0,6.0,0.0
1450210795499147053,6.0,6.0,0.0
1450210795531816120,6.0,6.0,0.0
1450210795564912091,6.0,6.0,0.0
1450210795599085781,6.0,6.0,0.0
1450210795632010195,6.0,6.0,0.0
1450210795664784128,6.0,6.0,0.0
1450210795698324331,6.0,6.0,0.0
1450210795731449518,6.0,6.0,0.0
1450210795764881069,6.0,6.0,0.0
1450210795798072450,6.0,6.0,0.0
1450210795831859544,6.0,6.0,0.0
1450210795864855135,6.0,6.0,0.0
1450210795903814746,6.0,6.0,0.0
1450210795931623916,6.0,6.0,0.0
1450210795965202120,6.0,6.0,0.0
1450210795998714720,6.0,6.0,0.0
1450210796031604661,6.0,6.0,0.0
1450210796066254857,6.0,6.0,0.0
1450210796099144465,6.0,6.0,0.0
1450210796131393486,6.0,6.0,0.0
1450210796167962848,6.0,6.0,0.0
1450210796198531358,6.0,6.0,0.0
1450210796232215468,6.0,6.0,0.0
1450210796264914482,6.0,6.0,0.0
1450210796298400013,6.0,6.0,0.0
1450210796338102379,6.0,6.0,0.0
1450210796365046251,5.63272880712,6.0,0.0
1450210796398289537,5.63272880712,6.0,0.0
1450210796431604697,5.07692038202,6.0,0.0
1450210796464918119,4.8824,6.0,0.0
1450210796498729537,4.8824,5.97969565543,0.0
1450210796541209184,4.8824,5.97969565543,0.0
1450210796565107898,4.8824,5.97969565543,0.0
1450210796599817926,4.8824,5.97969565543,0.0
1450210796631870802,4.8824,5.97969565543,0.0
1450210796672803932,4.8824,5.97969565543,0.0
1450210796698330417,4.8824,5.97969565543,0.0
1450210796731509389,4.8824,5.97969565543,0.0
1450210796764727329,4.8824,5.97969565543,0.0
1450210796798640342,4.8824,5.97969565543,0.0
1450210796832450105,4.8824,5.97969565543,0.0
1450210796865362618,4.8824,5.97969565543,0.0
1450210796898950298,4.8824,5.97969565543,0.0
1450210796931346480,4.8824,5.97969565543,0.0
1450210796965396255,4.8824,6.0,0.0
1450210796998778889,4.8824,6.0,0.0
1450210797031648051,4.8824,6.0,0.0
1450210797064876222,4.8824,6.0,0.0
1450210797098869460,4.8824,6.0,0.0
1450210797131431189,4.8824,6.0,0.0
1450210797165179809,4.8824,6.0,0.0
1450210797198237692,4.8824,6.0,0.0
1450210797231981359,4.8824,6.0,0.0
1450210797265099621,4.8824,6.0,0.0
1450210797298789560,4.8824,6.0,0.0
1450210797331648886,4.8824,6.0,0.0
1450210797364831875,4.8824,6.0,0.0
1450210797398694841,4.8824,6.0,0.0
1450210797433771365,4.8824,6.0,0.0
1450210797465420834,4.8824,6.0,0.0
1450210797498164904,6.0,6.0,0.0
1450210797531869481,6.0,6.0,0.0
1450210797567432200,6.0,6.0,0.0
1450210797598328588,6.0,6.0,0.0
1450210797631729466,6.0,6.0,0.0
1450210797665283165,6.0,6.0,0.0
1450210797703439971,6.0,6.0,0.0
1450210797731591353,6.0,6.0,0.0
1450210797765580716,6.0,6.0,0.0
1450210797798255561,6.0,6.0,0.0
1450210797832370739,6.0,6.0,0.0
1450210797864902358,6.0,6.0,0.0
1450210797898545333,6.0,6.0,0.0
1450210797931601609,6.0,6.0,0.0
1450210797965359009,6.0,6.0,0.0
1450210797998272869,6.0,6.0,0.0
1450210798032418882,6.0,6.0,0.0
1450210798064928108,6.0,6.0,0.0
1450210798098485351,6.0,6.0,0.0
1450210798131652430,6.0,6.0,0.0
1450210798165146680,5.96619230042,6.0,0.0
1450210798198449299,5.96619230042,6.0,0.0
1450210798231762372,5.92914080394,6.0,0.0
1450210798267649310,5.76240903959,6.0,0.0
1450210798298128265,5.54010003157,6.0,0.0
1450210798331919501,5.22512640958,6.0,0.0
1450210798365220635,4.8824,6.0,0.0
1450210798400164510,4.8824,6.0,0.0
1450210798448132292,4.8824,6.0,0.0
1450210798467555705,4.8824,6.0,0.0
1450210798498004280,4.8824,6.0,0.0
1450210798531508011,4.8824,6.0,0.0
1450210798565518042,4.8824,6.0,0.0
1450210798598547136,4.8824,6.0,0.0
1450210798631557246,4.8824,6.0,0.0
1450210798664946913,4.8824,6.0,0.0
1450210798702199546,4.8824,6.0,0.0
1450210798731716092,4.8824,6.0,0.0
1450210798765943397,4.8824,6.0,0.0
1450210798798233137,4.8824,6.0,0.0
1450210798831404176,4.8824,6.0,0.0
1450210798864669314,4.8824,6.0,0.0
1450210798897936794,4.8824,6.0,0.0
1450210798931671252,4.8824,6.0,0.0
1450210798964910879,4.8824,6.0,0.0
1450210798998896685,4.8824,6.0,0.0
1450210799031931010,4.8824,6.0,0.0
1450210799064983214,4.8824,6.0,0.0
1450210799098083059,4.8824,6.0,0.0
1450210799131414574,4.8824,6.0,0.0
1450210799167969759,4.8824,6.0,0.0
1450210799198631034,4.8824,6.0,0.0
1450210799233119933,4.8824,6.0,0.0
1450210799264987694,4.8824,6.0,0.0
1450210799298546178,4.8824,6.0,0.0
1450210799331531175,4.8824,6.0,0.0
1450210799364838122,4.8824,6.0,0.0
1450210799402172069,4.8824,6.0,0.0
1450210799431649194,4.8824,6.0,0.0
1450210799465772219,4.8824,6.0,0.0
1450210799498564773,4.8824,6.0,0.0
1450210799531471821,4.8824,6.0,0.0
1450210799564952414,4.8824,6.0,0.0
1450210799600579793,4.8824,6.0,0.0
1450210799631750419,4.8824,6.0,0.0
1450210799665137344,4.8824,6.0,0.0
1450210799698079629,4.8824,6.0,0.0
1450210799731638043,4.8824,6.0,0.0
1450210799765111122,4.8824,6.0,0.0
1450210799798220147,4.8824,6.0,0.0
1450210799831772701,4.8824,6.0,0.0
1450210799864930531,4.8824,6.0,0.0
1450210799898122947,4.8824,6.0,0.0
1450210799932198600,4.8824,6.0,0.0
1450210799964956287,4.8824,6.0,0.0
1450210799998104178,4.8824,6.0,0.0
1450210800031722419,4.8824,6.0,0.0
1450210800065239855,4.8824,6.0,0.0
1450210800098651546,4.8824,6.0,0.0
1450210800131525653,4.8824,6.0,0.0
1450210800166215010,4.8824,6.0,0.0
1450210800198498283,4.8824,6.0,0.0
1450210800231710642,4.8824,6.0,0.0
1450210800265001785,4.8824,6.0,0.0
1450210800298298321,4.8824,6.0,0.0
1450210800332029118,4.8824,6.0,0.0
1450210800365106061,4.8824,6.0,0.0
1450210800398296975,4.8824,6.0,0.0
1450210800431726927,4.8824,6.0,0.0
1450210800465187550,4.8824,6.0,0.0
1450210800499654029,4.8824,6.0,0.0
1450210800532483323,4.8824,6.0,0.0
1450210800565452428,4.8824,6.0,0.0
1450210800598507024,4.8824,6.0,0.0
1450210800632129628,4.8824,6.0,0.0
1450210800664934031,4.8824,6.0,0.0
1450210800698209567,4.8824,6.0,0.0
1450210800731748550,4.8824,6.0,0.0
1450210800764666375,4.8824,6.0,0.0
1450210800798470887,4.8824,6.0,0.0
1450210800831891667,4.8824,6.0,0.0
1450210800864785811,4.8824,6.0,0.0
1450210800898103893,4.8824,6.0,0.0
1450210800931651503,4.8824,6.0,0.0
1450210800964873598,4.8824,6.0,0.0
1450210800998194019,4.8824,6.0,0.0
1450210801036038467,4.8824,6.0,0.0
1450210801064739894,4.8824,6.0,0.0
1450210801098067687,4.8824,6.0,0.0
1450210801135720928,4.8824,6.0,0.0
1450210801166271790,4.8824,6.0,0.0
1450210801198279957,4.8824,6.0,0.0
1450210801231696891,4.8824,6.0,0.0
1450210801264780929,4.8824,6.0,0.0
1450210801298707847,4.8824,6.0,0.0
1450210801332394325,4.8824,6.0,0.0
1450210801366521758,4.8824,6.0,0.0
1450210801398718052,4.8824,6.0,0.0
1450210801435456158,4.8824,6.0,0.0
1450210801464986997,4.8824,6.0,0.0
1450210801498075986,4.8824,6.0,0.0
1450210801532061641,4.8824,6.0,0.0
1450210801565401546,4.8824,6.0,0.0
1450210801598862545,4.8824,6.0,0.0
1450210801634481147,4.8824,6.0,0.0
1450210801665469577,4.8824,6.0,0.0
1450210801699329531,4.8824,6.0,0.0
1450210801734329903,4.8824,6.0,0.0
1450210801764749908,4.8824,6.0,0.0
1450210801798423118,4.8824,6.0,0.0
1450210801831856831,4.8824,6.0,0.0
1450210801864755522,4.8824,6.0,0.0
1450210801899171411,4.8824,6.0,0.0
1450210801932184223,4.8824,6.0,0.0
1450210801965911245,4.8824,6.0,0.0
1450210801998661149,4.8824,6.0,0.0
1450210802031765209,4.8824,6.0,0.0
1450210802065173648,4.8824,6.0,0.0
1450210802098356654,4.8824,6.0,0.0
1450210802131409194,4.8824,6.0,0.0
1450210802164800422,4.8824,6.0,0.0
1450210802198366934,4.8824,6.0,0.0
1450210802231441178,4.8824,6.0,0.0
1450210802264765753,4.8824,6.0,0.0
1450210802299184700,4.8824,6.02584003223,0.0
1450210802331662161,4.8824,6.04251171346,0.0
1450210802364745004,4.8824,6.0480689447,0.0
1450210802398203177,4.8824,6.0480689447,0.0
1450210802431711687,4.8824,6.05362617094,0.0
1450210802465265625,4.8824,6.05362617094,0.0
1450210802499125154,4.8824,6.0480689447,0.0
1450210802533769297,4.8824,6.0480689447,0.0
1450210802565081973,4.8824,6.05362617094,0.0
1450210802600267145,4.8824,6.05362617094,0.0
1450210802631686687,4.8824,6.0480689447,0.0
1450210802665324058,4.8824,6.04251171346,0.0
1450210802699168160,4.8824,6.02584003223,0.0
1450210802731390693,4.8824,6.0,0.0
1450210802764743503,4.8824,6.0,0.0
1450210802798490867,4.8824,6.0,0.0
1450210802831832983,4.8824,6.0,0.0
1450210802864787689,4.8824,6.0,0.0
1450210802897981446,4.8824,6.0,0.0
1450210802931787805,4.8824,6.0,0.0
1450210802965240464,4.8824,6.0,0.0
1450210802998500841,4.8824,6.0,0.0
1450210803031544046,4.8824,6.0,0.0
1450210803064979361,6.26009126877,5.97969565543,0.0
1450210803098357751,6.0,6.0,0.0
1450210803132369110,6.0,6.0,0.0
1450210803165212408,6.0,6.0,0.0
1450210803198949700,6.0,6.0,0.0
1450210803231498130,6.0,6.0,0.0
1450210803265034329,6.0,6.0,0.0
1450210803298229312,6.0,6.0,0.0
1450210803331439511,6.0,6.0,0.0
1450210803365841862,6.0,6.0,0.0
1450210803398364399,6.0,6.0,0.0
1450210803431714206,6.0,6.0,0.0
1450210803465023022,6.0,6.0,0.0
1450210803498021131,6.0,6.0,0.0
1450210803531506874,6.0,6.0,0.0
1450210803565926767,6.0,6.0,0.0
1450210803598297018,6.0,6.0,0.0
1450210803631469013,6.0,6.0,0.0
1450210803665364384,6.0,6.0,0.0
1450210803698538240,6.0,6.0,0.0
1450210803732096332,6.0,6.0,0.0
1450210803764695764,6.0,6.0,0.0
1450210803798332362,6.0,6.0,0.0
1450210803832101252,6.0,6.0,0.0
1450210803864816091,6.0,6.0,0.0
1450210803898524912,6.0,6.0,0.0
1450210803931704346,6.0,6.0,0.0
1450210803964755108,6.0,6.0,0.0
1450210803998328200,6.0,6.0,0.0
1450210804031535345,6.0,6.0,0.0
1450210804065220819,6.0,6.0,0.0
1450210804098120432,6.0,6.0,0.0
1450210804131424818,6.0,6.0,0.0
1450210804165550521,6.0,6.0,0.0
1450210804199019086,6.0,6.0,0.0
1450210804231397548,6.0,6.0,0.0
1450210804265872418,6.0,6.0,0.0
1450210804298020271,6.0,6.0,0.0
1450210804331600444,6.0,6.0,0.0
1450210804376921292,6.0,6.0,0.0
1450210804398474088,6.0,6.0,0.0
1450210804432073989,6.0,6.0,0.0
1450210804465100442,6.0,6.0,0.0
1450210804499634503,6.0,6.0,0.0
1450210804531374473,6.0,6.0,0.0
1450210804566400556,6.0,6.0,0.0
1450210804598233698,6.0,6.0,0.0
1450210804632157174,6.0,6.0,0.0
1450210804665891552,6.0,6.0,0.0
1450210804698169675,6.0,6.0,0.0
1450210804732055329,6.0,6.0,0.0
1450210804771720410,6.0,6.0,0.0
1450210804798633987,6.0,6.0,0.0
1450210804831763369,6.0,6.0,0.0
1450210804864905119,6.0,6.0,0.0
1450210804900308030,6.0,6.0,0.0
1450210804931813779,6.0,6.0,0.0
1450210804964930728,6.0,6.0,0.0
1450210805000212436,6.0,6.0,0.0
1450210805032376748,6.0,6.0,0.0
1450210805064939403,6.0,6.0,0.0
1450210805098293122,6.0,6.0,0.0
1450210805131734116,6.0,6.0,0.0
1450210805164743061,6.0,6.0,0.0
1450210805198394363,6.0,6.0,0.0
1450210805231823579,6.0,6.0,0.0
1450210805266087729,6.0,6.0,0.0
1450210805302105811,6.0,6.0,0.0
1450210805335992314,6.0,6.0,0.0
1450210805365169681,6.0,6.0,0.0
1450210805398936679,6.0,6.0,0.0
1450210805431888839,6.0,6.0,0.0
1450210805464943859,6.0,6.0,0.0
1450210805498033924,6.0,6.0,0.0
1450210805531977838,6.0,6.0,0.0
1450210805571830332,6.0,6.0,0.0
1450210805598585792,6.0,6.0,0.0
1450210805632289495,6.0,6.0,0.0
1450210805665510994,6.0,6.0,0.0
1450210805698337279,6.0,6.0,0.0
1450210805731542735,6.0,6.0,0.0
1450210805765049635,6.0,6.0,0.0
1450210805799465579,6.0,6.0,0.0
1450210805831559030,6.0,6.0,0.0
1450210805864998178,6.0,6.0,0.0
1450210805898199689,6.0,6.0,0.0
