%time,field.header.seq,field.header.stamp,field.header.frame_id,field.ns,field.id,field.type,field.action,field.pose.position.x,field.pose.position.y,field.pose.position.z,field.pose.orientation.x,field.pose.orientation.y,field.pose.orientation.z,field.pose.orientation.w,field.scale.x,field.scale.y,field.scale.z,field.color.r,field.color.g,field.color.b,field.color.a,field.lifetime,field.frame_locked,field.text,field.mesh_resource,field.mesh_use_embedded_materials
1449617618868530620,0,0,/odom,acmd_vector,0,0,0,0.0,0.0,0.0,0.0,0.0,0.0,1.0,1e-05,0.05,0.05,1.0,0.0,0.0,1.0,0,0,,,0
1449617618882292905,1,0,/odom,acmd_vector,0,0,0,0.0,0.0,0.0,0.0,0.0,0.0,1.0,1e-05,0.05,0.05,1.0,0.0,0.0,1.0,0,0,,,0
1449617618932689315,2,0,/odom,acmd_vector,0,0,0,0.0,0.0,0.0,0.0,0.0,0.0,1.0,1e-05,0.05,0.05,1.0,0.0,0.0,1.0,0,0,,,0
1449617618982629927,3,0,/odom,acmd_vector,0,0,0,0.0,0.0,0.0,0.0,0.0,0.0,1.0,1e-05,0.05,0.05,1.0,0.0,0.0,1.0,0,0,,,0
1449617619006322177,4,0,/odom,acmd_vector,0,0,0,0.0,0.0,0.0,0.0,0.0,0.0,1.0,1e-05,0.05,0.05,1.0,0.0,0.0,1.0,0,0,,,0
1449617619062080241,5,0,/odom,acmd_vector,0,0,0,0.0,0.0,0.0,0.0,0.0,0.0,1.0,1e-05,0.05,0.05,1.0,0.0,0.0,1.0,0,0,,,0
1449617619086552616,6,0,/odom,acmd_vector,0,0,0,0.0,0.0,0.0,0.0,0.0,0.0,1.0,1e-05,0.05,0.05,1.0,0.0,0.0,1.0,0,0,,,0
1449617619123188978,7,0,/odom,acmd_vector,0,0,0,0.0,0.0,0.0,0.0,0.0,0.0,1.0,1e-05,0.05,0.05,1.0,0.0,0.0,1.0,0,0,,,0
1449617619187113500,8,0,/odom,acmd_vector,0,0,0,0.0,0.0,0.0,0.0,0.0,0.0,1.0,1e-05,0.05,0.05,1.0,0.0,0.0,1.0,0,0,,,0
1449617619209081406,9,0,/odom,acmd_vector,0,0,0,0.0,0.0,0.0,0.0,0.0,0.0,1.0,1e-05,0.05,0.05,1.0,0.0,0.0,1.0,0,0,,,0
1449617619242699099,10,0,/odom,acmd_vector,0,0,0,0.0,0.0,0.0,0.0,0.0,0.0,1.0,1e-05,0.05,0.05,1.0,0.0,0.0,1.0,0,0,,,0
1449617619292181343,11,0,/odom,acmd_vector,0,0,0,0.0,0.0,0.0,0.0,0.0,0.0,1.0,1e-05,0.05,0.05,1.0,0.0,0.0,1.0,0,0,,,0
1449617619353678241,12,0,/odom,acmd_vector,0,0,0,0.0,0.0,0.0,0.0,0.0,0.0,1.0,1e-05,0.05,0.05,1.0,0.0,0.0,1.0,0,0,,,0
1449617619380119497,13,0,/odom,acmd_vector,0,0,0,0.0,0.0,0.0,0.0,0.0,0.0,1.0,1e-05,0.05,0.05,1.0,0.0,0.0,1.0,0,0,,,0
1449617619412341987,14,0,/odom,acmd_vector,0,0,0,0.0,0.0,0.0,0.0,0.0,0.0,1.0,1e-05,0.05,0.05,1.0,0.0,0.0,1.0,0,0,,,0
1449617619460556928,15,0,/odom,acmd_vector,0,0,0,0.0,0.0,0.0,0.0,0.0,0.0,1.0,1e-05,0.05,0.05,1.0,0.0,0.0,1.0,0,0,,,0
1449617619483834048,16,0,/odom,acmd_vector,0,0,0,0.0,0.0,0.0,0.0,0.0,0.0,1.0,1e-05,0.05,0.05,1.0,0.0,0.0,1.0,0,0,,,0
1449617619528677585,17,0,/odom,acmd_vector,0,0,0,0.0,0.0,0.0,0.0,0.0,0.0,1.0,1e-05,0.05,0.05,1.0,0.0,0.0,1.0,0,0,,,0
1449617619570527545,18,0,/odom,acmd_vector,0,0,0,0.0,0.0,0.0,0.0,0.0,0.0,1.0,1e-05,0.05,0.05,1.0,0.0,0.0,1.0,0,0,,,0
1449617619600570456,19,0,/odom,acmd_vector,0,0,0,0.0,0.0,0.0,0.0,0.0,0.0,1.0,1e-05,0.05,0.05,1.0,0.0,0.0,1.0,0,0,,,0
1449617619773901437,20,0,/odom,acmd_vector,0,0,0,0.0,0.0,0.0,0.0,0.0,0.0,1.0,1e-05,0.05,0.05,1.0,0.0,0.0,1.0,0,0,,,0
1449617619804162181,21,0,/odom,acmd_vector,0,0,0,0.0,0.0,0.0,0.0,0.0,0.0,1.0,1e-05,0.05,0.05,1.0,0.0,0.0,1.0,0,0,,,0
1449617619842981562,22,0,/odom,acmd_vector,0,0,0,0.0,0.0,0.0,0.0,0.0,0.0,1.0,1e-05,0.05,0.05,1.0,0.0,0.0,1.0,0,0,,,0
1449617619900216691,23,0,/odom,acmd_vector,0,0,0,0.0,0.0,0.0,0.0,0.0,0.0,1.0,1e-05,0.05,0.05,1.0,0.0,0.0,1.0,0,0,,,0
1449617619920800397,24,0,/odom,acmd_vector,0,0,0,0.0,0.0,0.0,0.0,0.0,0.0,1.0,1e-05,0.05,0.05,1.0,0.0,0.0,1.0,0,0,,,0
1449617619966009392,25,0,/odom,acmd_vector,0,0,0,0.0,0.0,0.0,0.0,0.0,0.0,1.0,1e-05,0.05,0.05,1.0,0.0,0.0,1.0,0,0,,,0
1449617620007437310,26,0,/odom,acmd_vector,0,0,0,0.0,0.0,0.0,0.0,0.0,0.0,1.0,1e-05,0.05,0.05,1.0,0.0,0.0,1.0,0,0,,,0
1449617620043083228,27,0,/odom,acmd_vector,0,0,0,0.0,0.0,0.0,0.0,0.0,0.0,1.0,1e-05,0.05,0.05,1.0,0.0,0.0,1.0,0,0,,,0
1449617620081215495,28,0,/odom,acmd_vector,0,0,0,0.0,0.0,0.0,0.0,0.0,0.0,1.0,1e-05,0.05,0.05,1.0,0.0,0.0,1.0,0,0,,,0
1449617620120658013,29,0,/odom,acmd_vector,0,0,0,0.0,0.0,0.0,0.0,0.0,0.0,1.0,1e-05,0.05,0.05,1.0,0.0,0.0,1.0,0,0,,,0
1449617620160511304,30,0,/odom,acmd_vector,0,0,0,0.0,0.0,0.0,0.0,0.0,0.0,1.0,1e-05,0.05,0.05,1.0,0.0,0.0,1.0,0,0,,,0
1449617620209747323,31,0,/odom,acmd_vector,0,0,0,0.0,0.0,0.0,0.0,0.0,0.154380099291,0.988011530774,1e-05,0.05,0.05,1.0,0.0,0.0,1.0,0,0,,,0
1449617620244246276,32,0,/odom,acmd_vector,0,0,0,0.0,0.0,0.0,0.0,0.0,0.154380099291,0.988011530774,1e-05,0.05,0.05,1.0,0.0,0.0,1.0,0,0,,,0
1449617620286110044,33,0,/odom,acmd_vector,0,0,0,0.0,0.0,0.0,0.0,0.0,0.0,1.0,0.12001,0.05,0.05,1.0,0.0,0.0,1.0,0,0,,,0
1449617620322132845,34,0,/odom,acmd_vector,0,0,0,0.0,0.0,0.0,0.0,0.0,0.0,1.0,0.12001,0.05,0.05,1.0,0.0,0.0,1.0,0,0,,,0
1449617620370356191,35,0,/odom,acmd_vector,0,0,0,0.00287963245437,3.04332289367e-05,0.0,0.0,0.0,0.0052839997518,0.999986039576,0.12001,0.05,0.05,1.0,0.0,0.0,1.0,0,0,,,0
1449617620434802572,36,0,/odom,acmd_vector,0,0,0,0.00287963245437,3.04332289367e-05,0.0,0.0,0.0,0.0052839997518,0.999986039576,0.12001,0.05,0.05,1.0,0.0,0.0,1.0,0,0,,,0
1449617620446967718,37,0,/odom,acmd_vector,0,0,0,0.00287963245437,3.04332289367e-05,0.0,0.0,0.0,0.0052839997518,0.999986039576,0.12001,0.05,0.05,1.0,0.0,0.0,1.0,0,0,,,0
1449617620509789619,38,0,/odom,acmd_vector,0,0,0,0.00287963245437,3.04332289367e-05,0.0,0.0,0.0,0.0052839997518,0.999986039576,0.12001,0.05,0.05,1.0,0.0,0.0,1.0,0,0,,,0
1449617620535343499,39,0,/odom,acmd_vector,0,0,0,0.00287963245437,3.04332289367e-05,0.0,0.0,0.0,0.0052839997518,0.999986039576,0.12001,0.05,0.05,1.0,0.0,0.0,1.0,0,0,,,0
1449617620563681793,40,0,/odom,acmd_vector,0,0,0,0.00287963245437,3.04332289367e-05,0.0,0.0,0.0,0.0052839997518,0.999986039576,0.12001,0.05,0.05,1.0,0.0,0.0,1.0,0,0,,,0
1449617620610611405,41,0,/odom,acmd_vector,0,0,0,0.00287963245437,3.04332289367e-05,0.0,0.0,0.0,0.0052839997518,0.999986039576,0.12001,0.05,0.05,1.0,0.0,0.0,1.0,0,0,,,0
1449617620648917766,42,0,/odom,acmd_vector,0,0,0,0.00287963245437,3.04332289367e-05,0.0,0.0,0.0,0.0052839997518,0.999986039576,0.12001,0.05,0.05,1.0,0.0,0.0,1.0,0,0,,,0
1449617620688470084,43,0,/odom,acmd_vector,0,0,0,0.00575878249245,9.12962879474e-05,0.0,0.0,0.0,0.0105678519699,0.999944158693,0.12001,0.05,0.05,1.0,0.0,0.0,1.0,0,0,,,0
1449617620727182890,44,0,/odom,acmd_vector,0,0,0,0.00863841494682,0.000121729516884,0.0,0.0,0.0,0.0052839997518,0.999986039576,0.12001,0.05,0.05,1.0,0.0,0.0,1.0,0,0,,,0
1449617620784723625,45,0,/odom,acmd_vector,0,0,0,0.00863841494682,0.000121729516884,0.0,0.0,0.0,0.0052839997518,0.999986039576,0.12001,0.05,0.05,1.0,0.0,0.0,1.0,0,0,,,0
1449617620811281763,46,0,/odom,acmd_vector,0,0,0,0.00863841494682,0.000121729516884,0.0,0.0,0.0,0.0052839997518,0.999986039576,0.12001,0.05,0.05,1.0,0.0,0.0,1.0,0,0,,,0
1449617620844798080,47,0,/odom,acmd_vector,0,0,0,0.0143976798556,0.000182595974757,0.0,0.0,0.0,0.0052839997518,0.999986039576,0.12001,0.05,0.05,1.0,0.0,0.0,1.0,0,0,,,0
1449617620896932426,48,0,/odom,acmd_vector,0,0,0,0.0143976798556,0.000182595974757,0.0,0.0,0.0,0.0052839997518,0.999986039576,0.12001,0.05,0.05,1.0,0.0,0.0,1.0,0,0,,,0
1449617620928773317,49,0,/odom,acmd_vector,0,0,0,0.0143976798556,0.000182595974757,0.0,0.0,0.0,0.0052839997518,0.999986039576,0.12001,0.05,0.05,1.0,0.0,0.0,1.0,0,0,,,0
1449617620974124143,50,0,/odom,acmd_vector,0,0,0,0.0172768298936,0.000243459033768,0.0,0.0,0.0,0.0105678519699,0.999944158693,0.12001,0.05,0.05,1.0,0.0,0.0,1.0,0,0,,,0
1449617621045245645,51,0,/odom,acmd_vector,0,0,0,0.020156462348,0.000273892262705,0.0,0.0,0.0,0.0052839997518,0.999986039576,0.12001,0.05,0.05,1.0,0.0,0.0,1.0,0,0,,,0
1449617621068678985,52,0,/odom,acmd_vector,0,0,0,0.020156462348,0.000273892262705,0.0,0.0,0.0,0.0052839997518,0.999986039576,0.12001,0.05,0.05,1.0,0.0,0.0,1.0,0,0,,,0
1449617621085632227,53,0,/odom,acmd_vector,0,0,0,0.020156462348,0.000273892262705,0.0,0.0,0.0,0.0368546235588,0.999320637595,0.12001,0.05,0.05,1.0,0.0,0.0,1.0,0,0,,,0
1449617621157282019,54,0,/odom,acmd_vector,0,0,0,0.020156462348,0.000273892262705,0.0,0.0,0.0,0.0368546235588,0.999320637595,0.12001,0.05,0.05,1.0,0.0,0.0,1.0,0,0,,,0
1449617621171034912,55,0,/odom,acmd_vector,0,0,0,0.0230356123861,0.000334755321716,0.0,0.0,0.0,0.0631575641129,0.998003568178,0.12001,0.05,0.05,1.0,0.0,0.0,1.0,0,0,,,0
1449617621210063577,56,0,/odom,acmd_vector,0,0,0,0.0230356123861,0.000334755321716,0.0,0.0,0.0,0.0105678519699,0.999944158693,0.12001,0.05,0.05,1.0,0.0,0.0,1.0,0,0,,,0
1449617621241902734,57,0,/odom,acmd_vector,0,0,0,0.0259152448405,0.000365188550652,0.0,0.0,0.0,0.0052839997518,0.999986039576,0.12001,0.05,0.05,1.0,0.0,0.0,1.0,0,0,,,0
1449617621333912755,58,0,/odom,acmd_vector,0,0,0,0.0259152448405,0.000365188550652,0.0,0.0,0.0,0.0052839997518,0.999986039576,0.12001,0.05,0.05,1.0,0.0,0.0,1.0,0,0,,,0
1449617621345830888,59,0,/odom,acmd_vector,0,0,0,0.0259152448405,0.000365188550652,0.0,0.0,0.0,0.0052839997518,0.999986039576,0.12001,0.05,0.05,1.0,0.0,0.0,1.0,0,0,,,0
1449617621421278565,60,0,/odom,acmd_vector,0,0,0,0.0259152448405,0.000365188550652,0.0,0.0,0.0,0.0052839997518,0.999986039576,0.12001,0.05,0.05,1.0,0.0,0.0,1.0,0,0,,,0
1449617621441746067,61,0,/odom,acmd_vector,0,0,0,0.0259152448405,0.000365188550652,0.0,0.0,0.0,0.0052839997518,0.999986039576,0.12001,0.05,0.05,1.0,0.0,0.0,1.0,0,0,,,0
1449617621447190418,62,0,/odom,acmd_vector,0,0,0,0.0259152448405,0.000365188550652,0.0,0.0,0.0,0.0052839997518,0.999986039576,0.12001,0.05,0.05,1.0,0.0,0.0,1.0,0,0,,,0
1449617621481278744,63,0,/odom,acmd_vector,0,0,0,0.0259152448405,0.000365188550652,0.0,0.0,0.0,0.0052839997518,0.999986039576,0.12001,0.05,0.05,1.0,0.0,0.0,1.0,0,0,,,0
1449617621560541284,64,0,/odom,acmd_vector,0,0,0,0.0259152448405,0.000365188550652,0.0,0.0,0.0,0.0052839997518,0.999986039576,0.12001,0.05,0.05,1.0,0.0,0.0,1.0,0,0,,,0
1449617621579098816,65,0,/odom,acmd_vector,0,0,0,0.0259152448405,0.000365188550652,0.0,0.0,0.0,0.0052839997518,0.999986039576,0.12001,0.05,0.05,1.0,0.0,0.0,1.0,0,0,,,0
1449617621608435052,66,0,/odom,acmd_vector,0,0,0,0.0259152448405,0.000365188550652,0.0,0.0,0.0,0.0052839997518,0.999986039576,0.12001,0.05,0.05,1.0,0.0,0.0,1.0,0,0,,,0
1449617621643021327,67,0,/odom,acmd_vector,0,0,0,0.0287950381062,0.000365188550652,0.0,0.0,0.0,0.0,1.0,0.12001,0.05,0.05,1.0,0.0,0.0,1.0,0,0,,,0
1449617621738457019,68,0,/odom,acmd_vector,0,0,0,0.0287950381062,0.000365188550652,0.0,0.0,0.0,0.0,1.0,0.12001,0.05,0.05,1.0,0.0,0.0,1.0,0,0,,,0
1449617621746220858,69,0,/odom,acmd_vector,0,0,0,0.0345544638264,0.000395621779589,0.0,0.0,0.0,0.0,1.0,0.12001,0.05,0.05,1.0,0.0,0.0,1.0,0,0,,,0
1449617621766767440,70,0,/odom,acmd_vector,0,0,0,0.0345544638264,0.000395621779589,0.0,0.0,0.0,0.0,1.0,0.12001,0.05,0.05,1.0,0.0,0.0,1.0,0,0,,,0
1449617621819502387,71,0,/odom,acmd_vector,0,0,0,0.0345544638264,0.000395621779589,0.0,0.0,0.0,0.0,1.0,0.12001,0.05,0.05,1.0,0.0,0.0,1.0,0,0,,,0
1449617621848428264,72,0,/odom,acmd_vector,0,0,0,0.040314050358,0.000395621779589,0.0,0.0,0.0,0.0,1.0,0.12001,0.05,0.05,1.0,0.0,0.0,1.0,0,0,,,0
1449617621883188953,73,0,/odom,acmd_vector,0,0,0,0.040314050358,0.000395621779589,0.0,0.0,0.0,0.0,1.0,0.12001,0.05,0.05,1.0,0.0,0.0,1.0,0,0,,,0
1449617621930124497,74,0,/odom,acmd_vector,0,0,0,0.0460736368896,0.000395621779589,0.0,0.0,0.0,0.0,1.0,0.12001,0.05,0.05,1.0,0.0,0.0,1.0,0,0,,,0
1449617621970530875,75,0,/odom,acmd_vector,0,0,0,0.0460736368896,0.000395621779589,0.0,0.0,0.0,0.0,1.0,0.12001,0.05,0.05,1.0,0.0,0.0,1.0,0,0,,,0
1449617622031480794,76,0,/odom,acmd_vector,0,0,0,0.0518332234211,0.000395621779589,0.0,0.0,0.0,0.0,1.0,0.12001,0.05,0.05,1.0,0.0,0.0,1.0,0,0,,,0
1449617622041197236,77,0,/odom,acmd_vector,0,0,0,0.0604721207843,0.000304322092779,0.0,0.0,0.0,-0.0052839997518,0.999986039576,0.12001,0.05,0.05,1.0,0.0,0.0,1.0,0,0,,,0
1449617622083993222,78,0,/odom,acmd_vector,0,0,0,0.0604721207843,0.000304322092779,0.0,0.0,0.0,-0.0052839997518,0.999986039576,0.12001,0.05,0.05,1.0,0.0,0.0,1.0,0,0,,,0
1449617622120462758,79,0,/odom,acmd_vector,0,0,0,0.066231385693,0.000243455634906,0.0,0.0,0.0,-0.0052839997518,0.999986039576,0.12001,0.05,0.05,1.0,0.0,0.0,1.0,0,0,,,0
1449617622167370145,80,0,/odom,acmd_vector,0,0,0,0.0691105357311,0.000182592575895,0.0,0.0,0.0,-0.0105678519699,0.999944158693,0.12001,0.05,0.05,1.0,0.0,0.0,1.0,0,0,,,0
1449617622223584479,81,0,/odom,acmd_vector,0,0,0,0.0748688358072,6.08664578733e-05,0.0,0.0,0.0,-4.17328923147e-05,0.999999999129,0.12001,0.05,0.05,1.0,0.0,0.0,1.0,0,0,,,0
1449617622292859460,82,0,/odom,acmd_vector,0,0,0,0.0806271358834,-6.08596601482e-05,0.0,0.0,0.0,0.0210093528163,0.999779279188,0.12001,0.05,0.05,1.0,0.0,0.0,1.0,0,0,,,0
1449617622303073902,83,0,/odom,acmd_vector,0,0,0,0.0950188662373,-0.000517290118845,0.0,0.0,0.0,0.0157262260538,0.999876335261,0.12001,0.05,0.05,1.0,0.0,0.0,1.0,0,0,,,0
1449617622324943891,84,0,/odom,acmd_vector,0,0,0,0.0950188662373,-0.000517290118845,0.0,0.0,0.0,0.138699327753,0.990334537659,1e-05,0.05,0.05,1.0,0.0,0.0,1.0,0,0,,,0
1449617622365159672,85,0,/odom,acmd_vector,0,0,0,0.103650528164,-0.000882386907041,0.0,0.0,0.0,0.133464464001,0.991053599383,1e-05,0.05,0.05,1.0,0.0,0.0,1.0,0,0,,,0
1449617622431427201,86,0,/odom,acmd_vector,0,0,0,0.109404969449,-0.00112578476584,0.0,0.0,0.0,0.133464464001,0.991053599383,1e-05,0.05,0.05,1.0,0.0,0.0,1.0,0,0,,,0
1449617622446301751,87,0,/odom,acmd_vector,0,0,0,0.123786732368,-0.00182547715085,0.0,0.0,0.0,0.00515880278156,0.999986693288,0.12001,0.05,0.05,1.0,0.0,0.0,1.0,0,0,,,0
1449617622488486279,88,0,/odom,acmd_vector,0,0,0,0.123786732368,-0.00182547715085,0.0,0.0,0.0,0.151936521045,0.988390253682,1e-05,0.05,0.05,1.0,0.0,0.0,1.0,0,0,,,0
1449617622549601803,89,0,/odom,acmd_vector,0,0,0,0.135289827881,-0.00243386985246,0.0,0.0,0.0,0.151936521045,0.988390253682,1e-05,0.05,0.05,1.0,0.0,0.0,1.0,0,0,,,0
1449617622567165533,90,0,/odom,acmd_vector,0,0,0,0.155407869463,-0.00371123289527,0.0,0.0,0.0,0.122983703438,0.992408690353,1e-05,0.05,0.05,1.0,0.0,0.0,1.0,0,0,,,0
1449617622603481617,91,0,/odom,acmd_vector,0,0,0,0.155407869463,-0.00371123289527,0.0,0.0,0.0,0.122983703438,0.992408690353,1e-05,0.05,0.05,1.0,0.0,0.0,1.0,0,0,,,0
1449617622656889750,92,0,/odom,acmd_vector,0,0,0,0.16402362054,-0.0043497598375,0.0,0.0,0.0,0.16229083989,0.986742967184,1e-05,0.05,0.05,1.0,0.0,0.0,1.0,0,0,,,0
1449617622685681708,93,0,/odom,acmd_vector,0,0,0,0.175511288643,-0.00520112909381,0.0,0.0,0.0,-0.0369797368913,0.999316015612,1e-05,0.05,0.05,1.0,0.0,0.0,1.0,0,0,,,0
1449617622793413991,94,0,/odom,acmd_vector,0,0,0,0.184119810747,-0.00593067036186,0.0,0.0,0.0,-0.042259606217,0.999106663816,1e-05,0.05,0.05,1.0,0.0,0.0,1.0,0,0,,,0
1449617622835090029,95,0,/odom,acmd_vector,0,0,0,0.218553899165,-0.00884883543406,0.0,0.0,0.0,-0.042259606217,0.999106663816,1e-05,0.05,0.05,1.0,0.0,0.0,1.0,0,0,,,0
1449617622843175479,96,0,/odom,acmd_vector,0,0,0,0.232887785347,-0.0102162922954,0.0,0.0,0.0,-0.0475382956186,0.998869416115,1e-05,0.05,0.05,1.0,0.0,0.0,1.0,0,0,,,0
1449617622848736975,97,0,/odom,acmd_vector,0,0,0,0.232887785347,-0.0102162922954,0.0,0.0,0.0,-0.0475382956186,0.998869416115,1e-05,0.05,0.05,1.0,0.0,0.0,1.0,0,0,,,0
1449617622884287919,98,0,/odom,acmd_vector,0,0,0,0.232887785347,-0.0102162922954,0.0,0.0,0.0,-0.0475382956186,0.998869416115,1e-05,0.05,0.05,1.0,0.0,0.0,1.0,0,0,,,0
1449617622926620644,99,0,/odom,acmd_vector,0,0,0,0.23862133982,-0.0107632750399,0.0,0.0,0.0,-0.0475382956186,0.998869416115,1e-05,0.05,0.05,1.0,0.0,0.0,1.0,0,0,,,0
1449617622961246844,100,0,/odom,acmd_vector,0,0,0,0.252939974497,-0.012282133928,0.0,0.0,0.0,-0.0528156577107,0.998604279132,1e-05,0.05,0.05,1.0,0.0,0.0,1.0,0,0,,,0
1449617623021258510,101,0,/odom,acmd_vector,0,0,0,0.267241758527,-0.0139522252126,0.0,0.0,0.0,-0.0580915451448,0.99831126027,1e-05,0.05,0.05,1.0,0.0,0.0,1.0,0,0,,,0
1449617623049975026,102,0,/odom,acmd_vector,0,0,0,0.272962472139,-0.0146202617265,0.0,0.0,0.0,-0.0580915451448,0.99831126027,1e-05,0.05,0.05,1.0,0.0,0.0,1.0,0,0,,,0
1449617623080925197,103,0,/odom,acmd_vector,0,0,0,0.290124612975,-0.0166243712681,0.0,0.0,0.0,-0.0580915451448,0.99831126027,1e-05,0.05,0.05,1.0,0.0,0.0,1.0,0,0,,,0
1449617623132484650,104,0,/odom,acmd_vector,0,0,0,0.304407949097,-0.0184455084292,0.0,0.0,0.0,-0.0633658106137,0.997990367712,1e-05,0.05,0.05,1.0,0.0,0.0,1.0,0,0,,,0
1449617623162337814,105,0,/odom,acmd_vector,0,0,0,0.310121283546,-0.0191739632937,0.0,0.0,0.0,-0.0633658106137,0.997990367712,1e-05,0.05,0.05,1.0,0.0,0.0,1.0,0,0,,,0
1449617623236534480,106,0,/odom,acmd_vector,0,0,0,0.32438457656,-0.0211459429419,0.0,0.0,0.0,-0.0686383068554,0.997641610415,1e-05,0.05,0.05,1.0,0.0,0.0,1.0,0,0,,,0
1449617623259741458,107,0,/odom,acmd_vector,0,0,0,0.352911162589,-0.0250899022384,0.0,0.0,0.0,-0.0686383068554,0.997641610415,1e-05,0.05,0.05,1.0,0.0,0.0,1.0,0,0,,,0
1449617623280958098,108,0,/odom,acmd_vector,0,0,0,0.352911162589,-0.0250899022384,0.0,0.0,0.0,-0.0686383068554,0.997641610415,1e-05,0.05,0.05,1.0,0.0,0.0,1.0,0,0,,,0
1449617623347274877,109,0,/odom,acmd_vector,0,0,0,0.361456156755,-0.0263634633781,0.0,0.0,0.0,-0.0739088866573,0.997264998119,1e-05,0.05,0.05,1.0,0.0,0.0,1.0,0,0,,,0
1449617623365265556,110,0,/odom,acmd_vector,0,0,0,0.389939470644,-0.030608667177,0.0,0.0,0.0,-0.0739088866573,0.997264998119,1e-05,0.05,0.05,1.0,0.0,0.0,1.0,0,0,,,0
1449617623426834333,111,0,/odom,acmd_vector,0,0,0,0.389939470644,-0.030608667177,0.0,0.0,0.0,-0.0739088866573,0.997264998119,1e-05,0.05,0.05,1.0,0.0,0.0,1.0,0,0,,,0
1449617623473664929,112,0,/odom,acmd_vector,0,0,0,0.415532645236,-0.0347000439445,0.0,0.0,0.0,-0.0791774028604,0.996860541338,1e-05,0.05,0.05,1.0,0.0,0.0,1.0,0,0,,,0
1449617623482755053,113,0,/odom,acmd_vector,0,0,0,0.421220017368,-0.0356092387817,0.0,0.0,0.0,-0.0791774028604,0.996860541338,1e-05,0.05,0.05,1.0,0.0,0.0,1.0,0,0,,,0
1449617623542899355,114,0,/odom,acmd_vector,0,0,0,0.421220017368,-0.0356092387817,0.0,0.0,0.0,-0.0791774028604,0.996860541338,1e-05,0.05,0.05,1.0,0.0,0.0,1.0,0,0,,,0
1449617623560656495,115,0,/odom,acmd_vector,0,0,0,0.43541363313,-0.0380323572151,0.0,0.0,0.0,-0.0844437083633,0.996428251365,1e-05,0.05,0.05,1.0,0.0,0.0,1.0,0,0,,,0
1449617623622598652,116,0,/odom,acmd_vector,0,0,0,0.449580849145,-0.0406053363687,0.0,0.0,0.0,-0.0897076561262,0.99596814027,1e-05,0.05,0.05,1.0,0.0,0.0,1.0,0,0,,,0
1449617623672206673,117,0,/odom,acmd_vector,0,0,0,0.458097018602,-0.0420592074287,0.0,0.0,0.0,-0.0844437083633,0.996428251365,1e-05,0.05,0.05,1.0,0.0,0.0,1.0,0,0,,,0
1449617623686140285,118,0,/odom,acmd_vector,0,0,0,0.486403468653,-0.047354739099,0.0,0.0,0.0,-0.0949690991753,0.995480220899,1e-05,0.05,0.05,1.0,0.0,0.0,1.0,0,0,,,0
1449617623724362086,119,0,/odom,acmd_vector,0,0,0,0.486403468653,-0.047354739099,0.0,0.0,0.0,-0.0949690991753,0.995480220899,1e-05,0.05,0.05,1.0,0.0,0.0,1.0,0,0,,,0
1449617623786721158,120,0,/odom,acmd_vector,0,0,0,0.500570684668,-0.0499277182526,0.0,0.0,0.0,-0.0897076561262,0.99596814027,1e-05,0.05,0.05,1.0,0.0,0.0,1.0,0,0,,,0
1449617623802872672,121,0,/odom,acmd_vector,0,0,0,0.520365612319,-0.0537392917761,0.0,0.0,0.0,-0.0949690991753,0.995480220899,1e-05,0.05,0.05,1.0,0.0,0.0,1.0,0,0,,,0
1449617623852240906,122,0,/odom,acmd_vector,0,0,0,0.520365612319,-0.0537392917761,0.0,0.0,0.0,-0.0949690991753,0.995480220899,1e-05,0.05,0.05,1.0,0.0,0.0,1.0,0,0,,,0
1449617623926432500,123,0,/odom,acmd_vector,0,0,0,0.53447528527,-0.0566111135942,0.0,0.0,0.0,-0.100227890607,0.994964506877,1e-05,0.05,0.05,1.0,0.0,0.0,1.0,0,0,,,0
1449617623941997957,124,0,/odom,acmd_vector,0,0,0,0.557068498643,-0.0611164669224,0.0,0.0,0.0,-0.100227890607,0.994964506877,1e-05,0.05,0.05,1.0,0.0,0.0,1.0,0,0,,,0
1449617623986362097,125,0,/odom,acmd_vector,0,0,0,0.557068498643,-0.0611164669224,0.0,0.0,0.0,-0.100227890607,0.994964506877,1e-05,0.05,0.05,1.0,0.0,0.0,1.0,0,0,,,0
1449617623999301424,126,0,/odom,acmd_vector,0,0,0,0.565552039065,-0.0627499984324,0.0,0.0,0.0,-0.0949690991753,0.995480220899,1e-05,0.05,0.05,1.0,0.0,0.0,1.0,0,0,,,0
1449617624050405520,127,0,/odom,acmd_vector,0,0,0,0.579661712016,-0.0656218202505,0.0,0.0,0.0,-0.100227890607,0.994964506877,1e-05,0.05,0.05,1.0,0.0,0.0,1.0,0,0,,,0
1449617624109229458,128,0,/odom,acmd_vector,0,0,0,0.593740248077,-0.0686425906375,0.0,0.0,0.0,-0.10548388359,0.994421012601,1e-05,0.05,0.05,1.0,0.0,0.0,1.0,0,0,,,0
1449617624129019119,129,0,/odom,acmd_vector,0,0,0,0.616265905774,-0.0734758232566,0.0,0.0,0.0,-0.10548388359,0.994421012601,1e-05,0.05,0.05,1.0,0.0,0.0,1.0,0,0,,,0
1449617624186291622,130,0,/odom,acmd_vector,0,0,0,0.616265905774,-0.0734758232566,0.0,0.0,0.0,-0.10548388359,0.994421012601,1e-05,0.05,0.05,1.0,0.0,0.0,1.0,0,0,,,0
1449617624236984622,131,0,/odom,acmd_vector,0,0,0,0.627528734623,-0.0758924395661,0.0,0.0,0.0,-0.10548388359,0.994421012601,1e-05,0.05,0.05,1.0,0.0,0.0,1.0,0,0,,,0
1449617624269998547,132,0,/odom,acmd_vector,0,0,0,0.647219059577,-0.0802106848286,0.0,0.0,0.0,-0.110736931374,0.993849753247,1e-05,0.05,0.05,1.0,0.0,0.0,1.0,0,0,,,0
1449617624283862030,133,0,/odom,acmd_vector,0,0,0,0.664074051788,-0.0840139427344,0.0,0.0,0.0,-0.110736931374,0.993849753247,1e-05,0.05,0.05,1.0,0.0,0.0,1.0,0,0,,,0
1449617624342403016,134,0,/odom,acmd_vector,0,0,0,0.664074051788,-0.0840139427344,0.0,0.0,0.0,-0.110736931374,0.993849753247,1e-05,0.05,0.05,1.0,0.0,0.0,1.0,0,0,,,0
1449617624367081649,135,0,/odom,acmd_vector,0,0,0,0.675310713262,-0.086549448005,0.0,0.0,0.0,-0.110736931374,0.993849753247,1e-05,0.05,0.05,1.0,0.0,0.0,1.0,0,0,,,0
1449617624406659407,136,0,/odom,acmd_vector,0,0,0,0.683717642632,-0.0885400312998,0.0,0.0,0.0,-0.115986887289,0.993250744765,1e-05,0.05,0.05,1.0,0.0,0.0,1.0,0,0,,,0
1449617624460162863,137,0,/odom,acmd_vector,0,0,0,0.700531501371,-0.0925211978894,0.0,0.0,0.0,-0.115986887289,0.993250744765,1e-05,0.05,0.05,1.0,0.0,0.0,1.0,0,0,,,0
1449617624512380812,138,0,/odom,acmd_vector,0,0,0,0.711740740531,-0.0951753089491,0.0,0.0,0.0,-0.115986887289,0.993250744765,1e-05,0.05,0.05,1.0,0.0,0.0,1.0,0,0,,,0
1449617624535436462,139,0,/odom,acmd_vector,0,0,0,0.734159218851,-0.100483531069,0.0,0.0,0.0,-0.115986887289,0.993250744765,1e-05,0.05,0.05,1.0,0.0,0.0,1.0,0,0,,,0
1449617624563290460,140,0,/odom,acmd_vector,0,0,0,0.734159218851,-0.100483531069,0.0,0.0,0.0,-0.115986887289,0.993250744765,1e-05,0.05,0.05,1.0,0.0,0.0,1.0,0,0,,,0
1449617624626123107,141,0,/odom,acmd_vector,0,0,0,0.748134925061,-0.103949056607,0.0,0.0,0.0,-0.121233604752,0.99262400388,1e-05,0.05,0.05,1.0,0.0,0.0,1.0,0,0,,,0
1449617624646662599,142,0,/odom,acmd_vector,0,0,0,0.756541854431,-0.105939639902,0.0,0.0,0.0,-0.115986887289,0.993250744765,1e-05,0.05,0.05,1.0,0.0,0.0,1.0,0,0,,,0
1449617624684918785,143,0,/odom,acmd_vector,0,0,0,0.770517560642,-0.10940516544,0.0,0.0,0.0,-0.121233604752,0.99262400388,1e-05,0.05,0.05,1.0,0.0,0.0,1.0,0,0,,,0
1449617624746554613,144,0,/odom,acmd_vector,0,0,0,0.78169812561,-0.112177585871,0.0,0.0,0.0,-0.121233604752,0.99262400388,1e-05,0.05,0.05,1.0,0.0,0.0,1.0,0,0,,,0
1449617624762587511,145,0,/odom,acmd_vector,0,0,0,0.806816993207,-0.118563031516,0.0,0.0,0.0,-0.126476937269,0.991969548091,1e-05,0.05,0.05,1.0,0.0,0.0,1.0,0,0,,,0
1449617624809167277,146,0,/odom,acmd_vector,0,0,0,0.806816993207,-0.118563031516,0.0,0.0,0.0,-0.126476937269,0.991969548091,1e-05,0.05,0.05,1.0,0.0,0.0,1.0,0,0,,,0
1449617624854869447,147,0,/odom,acmd_vector,0,0,0,0.812392314258,-0.120008241601,0.0,0.0,0.0,-0.126476937269,0.991969548091,1e-05,0.05,0.05,1.0,0.0,0.0,1.0,0,0,,,0
1449617624897125207,148,0,/odom,acmd_vector,0,0,0,0.829118277411,-0.124343871857,0.0,0.0,0.0,-0.126476937269,0.991969548091,1e-05,0.05,0.05,1.0,0.0,0.0,1.0,0,0,,,0
1449617624923116053,149,0,/odom,acmd_vector,0,0,0,0.840268919514,-0.127234292028,0.0,0.0,0.0,-0.126476937269,0.991969548091,1e-05,0.05,0.05,1.0,0.0,0.0,1.0,0,0,,,0
1449617624980998902,150,0,/odom,acmd_vector,0,0,0,0.854168261893,-0.130994413404,0.0,0.0,0.0,-0.131716738444,0.99128739567,1e-05,0.05,0.05,1.0,0.0,0.0,1.0,0,0,,,0
1449617625003510957,151,0,/odom,acmd_vector,0,0,0,0.86253124347,-0.133162228532,0.0,0.0,0.0,-0.126476937269,0.991969548091,1e-05,0.05,0.05,1.0,0.0,0.0,1.0,0,0,,,0
1449617625050148376,152,0,/odom,acmd_vector,0,0,0,0.876430585849,-0.136922349909,0.0,0.0,0.0,-0.131716738444,0.99128739567,1e-05,0.05,0.05,1.0,0.0,0.0,1.0,0,0,,,0
1449617625152342713,153,0,/odom,acmd_vector,0,0,0,0.887550059753,-0.13993044701,0.0,0.0,0.0,-0.131716738444,0.99128739567,1e-05,0.05,0.05,1.0,0.0,0.0,1.0,0,0,,,0
1449617625197135349,154,0,/odom,acmd_vector,0,0,0,0.918104305449,-0.148290719771,0.0,0.0,0.0,-0.136952861975,0.990577565664,1e-05,0.05,0.05,1.0,0.0,0.0,1.0,0,0,,,0
1449617625221719986,155,0,/odom,acmd_vector,0,0,0,0.934734901228,-0.15297887689,0.0,0.0,0.0,-0.136952861975,0.990577565664,1e-05,0.05,0.05,1.0,0.0,0.0,1.0,0,0,,,0
1449617625256277637,156,0,/odom,acmd_vector,0,0,0,0.934734901228,-0.15297887689,0.0,0.0,0.0,-0.136952861975,0.990577565664,1e-05,0.05,0.05,1.0,0.0,0.0,1.0,0,0,,,0
1449617625415552593,157,0,/odom,acmd_vector,0,0,0,0.945821965081,-0.156104314969,0.0,0.0,0.0,-0.136952861975,0.990577565664,1e-05,0.05,0.05,1.0,0.0,0.0,1.0,0,0,,,0
1449617625431290741,158,0,/odom,acmd_vector,0,0,0,0.998325689036,-0.17150585747,0.0,0.0,0.0,-0.142185161666,0.989840077892,1e-05,0.05,0.05,1.0,0.0,0.0,1.0,0,0,,,0
1449617625477260204,159,0,/odom,acmd_vector,0,0,0,1.00385239682,-0.17312707247,0.0,0.0,0.0,-0.142185161666,0.989840077892,1e-05,0.05,0.05,1.0,0.0,0.0,1.0,0,0,,,0
1449617625543098839,160,0,/odom,acmd_vector,0,0,0,1.01762556284,-0.177325897218,0.0,0.0,0.0,-0.147413491427,0.989074952946,1e-05,0.05,0.05,1.0,0.0,0.0,1.0,0,0,,,0
1449617625560083378,161,0,/odom,acmd_vector,0,0,0,1.0314423323,-0.181378934718,0.0,0.0,0.0,-0.142185161666,0.989840077892,1e-05,0.05,0.05,1.0,0.0,0.0,1.0,0,0,,,0
1449617625600258442,162,0,/odom,acmd_vector,0,0,0,1.03970623191,-0.183898229567,0.0,0.0,0.0,-0.147413491427,0.989074952946,1e-05,0.05,0.05,1.0,0.0,0.0,1.0,0,0,,,0
1449617625629023109,163,0,/odom,acmd_vector,0,0,0,1.05072476472,-0.187257289365,0.0,0.0,0.0,-0.147413491427,0.989074952946,1e-05,0.05,0.05,1.0,0.0,0.0,1.0,0,0,,,0
1449617625663709401,164,0,/odom,acmd_vector,0,0,0,1.06174329753,-0.190616349163,0.0,0.0,0.0,-0.147413491427,0.989074952946,1e-05,0.05,0.05,1.0,0.0,0.0,1.0,0,0,,,0
1449617625709800435,165,0,/odom,acmd_vector,0,0,0,1.06174329753,-0.190616349163,0.0,0.0,0.0,-0.147413491427,0.989074952946,1e-05,0.05,0.05,1.0,0.0,0.0,1.0,0,0,,,0
1449617625746034509,166,0,/odom,acmd_vector,0,0,0,1.08378036316,-0.197334468759,0.0,0.0,0.0,-0.147413491427,0.989074952946,1e-05,0.05,0.05,1.0,0.0,0.0,1.0,0,0,,,0
1449617625835186309,167,0,/odom,acmd_vector,0,0,0,1.08378036316,-0.197334468759,0.0,0.0,0.0,-0.147413491427,0.989074952946,1e-05,0.05,0.05,1.0,0.0,0.0,1.0,0,0,,,0
1449617625867474572,168,0,/odom,acmd_vector,0,0,0,1.11398201671,-0.20689158349,0.0,0.0,0.0,-0.152637705278,0.988282212188,1e-05,0.05,0.05,1.0,0.0,0.0,1.0,0,0,,,0
1449617625929214873,169,0,/odom,acmd_vector,0,0,0,1.11398201671,-0.20689158349,0.0,0.0,0.0,-0.152637705278,0.988282212188,1e-05,0.05,0.05,1.0,0.0,0.0,1.0,0,0,,,0
1449617625956939648,170,0,/odom,acmd_vector,0,0,0,1.13317324589,-0.213060283661,0.0,0.0,0.0,-0.157857657354,0.987461877753,1e-05,0.05,0.05,1.0,0.0,0.0,1.0,0,0,,,0
1449617626026819813,171,0,/odom,acmd_vector,0,0,0,1.14411832548,-0.216651464626,0.0,0.0,0.0,-0.157857657354,0.987461877753,1e-05,0.05,0.05,1.0,0.0,0.0,1.0,0,0,,,0
1449617626044423285,172,0,/odom,acmd_vector,0,0,0,1.14959086528,-0.218447055108,0.0,0.0,0.0,-0.157857657354,0.987461877753,1e-05,0.05,0.05,1.0,0.0,0.0,1.0,0,0,,,0
1449617626105111132,173,0,/odom,acmd_vector,0,0,0,1.16053594487,-0.222038236073,0.0,0.0,0.0,-0.157857657354,0.987461877753,1e-05,0.05,0.05,1.0,0.0,0.0,1.0,0,0,,,0
1449617626121091212,174,0,/odom,acmd_vector,0,0,0,1.16600848467,-0.223833826556,0.0,0.0,0.0,-0.157857657354,0.987461877753,1e-05,0.05,0.05,1.0,0.0,0.0,1.0,0,0,,,0
1449617626164333936,175,0,/odom,acmd_vector,0,0,0,1.17695356427,-0.22742500752,0.0,0.0,0.0,-0.157857657354,0.987461877753,1e-05,0.05,0.05,1.0,0.0,0.0,1.0,0,0,,,0
1449617626234788996,176,0,/odom,acmd_vector,0,0,0,1.18242610406,-0.229220598003,0.0,0.0,0.0,-0.157857657354,0.987461877753,1e-05,0.05,0.05,1.0,0.0,0.0,1.0,0,0,,,0
1449617626262996177,177,0,/odom,acmd_vector,0,0,0,1.19605925074,-0.233853906015,0.0,0.0,0.0,-0.163073201911,0.986613972544,1e-05,0.05,0.05,1.0,0.0,0.0,1.0,0,0,,,0
1449617626352944876,178,0,/odom,acmd_vector,0,0,0,1.19605925074,-0.233853906015,0.0,0.0,0.0,-0.163073201911,0.986613972544,1e-05,0.05,0.05,1.0,0.0,0.0,1.0,0,0,,,0
1449617626374498198,179,0,/odom,acmd_vector,0,0,0,1.21241902674,-0.239413875629,0.0,0.0,0.0,-0.163073201911,0.986613972544,1e-05,0.05,0.05,1.0,0.0,0.0,1.0,0,0,,,0
1449617626452086502,180,0,/odom,acmd_vector,0,0,0,1.21241902674,-0.239413875629,0.0,0.0,0.0,-0.163073201911,0.986613972544,1e-05,0.05,0.05,1.0,0.0,0.0,1.0,0,0,,,0
1449617626501873999,181,0,/odom,acmd_vector,0,0,0,1.22600244801,-0.244190997987,0.0,0.0,0.0,-0.168284193326,0.985738520236,1e-05,0.05,0.05,1.0,0.0,0.0,1.0,0,0,,,0
1449617626601815923,182,0,/odom,acmd_vector,0,0,0,1.23418233602,-0.246970982794,0.0,0.0,0.0,-0.110944310086,0.993826624749,0.35201,0.05,0.05,1.0,0.0,0.0,1.0,0,0,,,0
1449617626637863553,183,0,/odom,acmd_vector,0,0,0,1.24776575728,-0.251748105151,0.0,0.0,0.0,-0.116194140894,0.993226520801,0.35201,0.05,0.05,1.0,0.0,0.0,1.0,0,0,,,0
1449617626726295929,184,0,/odom,acmd_vector,0,0,0,1.25319912579,-0.253658954095,0.0,0.0,0.0,-0.116194140894,0.993226520801,0.35201,0.05,0.05,1.0,0.0,0.0,1.0,0,0,,,0
1449617626772711508,185,0,/odom,acmd_vector,0,0,0,1.26133893006,-0.256553883674,0.0,0.0,0.0,-0.121440727464,0.992598685126,0.35201,0.05,0.05,1.0,0.0,0.0,1.0,0,0,,,0
1449617626848422982,186,0,/odom,acmd_vector,0,0,0,1.26405561432,-0.257509308146,0.0,0.0,0.0,-0.116194140894,0.993226520801,0.35201,0.05,0.05,1.0,0.0,0.0,1.0,0,0,,,0
1449617626896936113,187,0,/odom,acmd_vector,0,0,0,1.27219541859,-0.260404237725,0.0,0.0,0.0,-0.121440727464,0.992598685126,0.35201,0.05,0.05,1.0,0.0,0.0,1.0,0,0,,,0
1449617626955235384,188,0,/odom,acmd_vector,0,0,0,1.27491210284,-0.261359662197,0.0,0.0,0.0,-0.0742834502103,0.997237167892,0.21281,0.05,0.05,1.0,0.0,0.0,1.0,0,0,,,0
1449617626976986208,189,0,/odom,acmd_vector,0,0,0,1.28577883986,-0.265181360083,0.0,0.0,0.0,-0.0742834502103,0.997237167892,0.16641,0.05,0.05,1.0,0.0,0.0,1.0,0,0,,,0
1449617627019280231,190,0,/odom,acmd_vector,0,0,0,1.28577883986,-0.265181360083,0.0,0.0,0.0,-0.0742834502103,0.997237167892,0.16641,0.05,0.05,1.0,0.0,0.0,1.0,0,0,,,0
1449617627044476064,191,0,/odom,acmd_vector,0,0,0,1.28848527562,-0.266165440719,0.0,0.0,0.0,-0.0795518141295,0.996830732305,0.16641,0.05,0.05,1.0,0.0,0.0,1.0,0,0,,,0
1449617627070179074,192,0,/odom,acmd_vector,0,0,0,1.29120195987,-0.267120865191,0.0,0.0,0.0,-0.0742834502103,0.997237167892,0.16641,0.05,0.05,1.0,0.0,0.0,1.0,0,0,,,0
1449617627139450610,193,0,/odom,acmd_vector,0,0,0,1.29663532838,-0.269031714134,0.0,0.0,0.0,-0.0742834502103,0.997237167892,0.16641,0.05,0.05,1.0,0.0,0.0,1.0,0,0,,,0
1449617627166291704,194,0,/odom,acmd_vector,0,0,0,1.30206869689,-0.270942563077,0.0,0.0,0.0,-0.0742834502103,0.997237167892,0.16641,0.05,0.05,1.0,0.0,0.0,1.0,0,0,,,0
1449617627214317681,195,0,/odom,acmd_vector,0,0,0,1.3075020654,-0.27285341202,0.0,0.0,0.0,-0.116194140894,0.993226520801,0.35201,0.05,0.05,1.0,0.0,0.0,1.0,0,0,,,0
1449617627289416626,196,0,/odom,acmd_vector,0,0,0,1.3129354339,-0.274764260964,0.0,0.0,0.0,-0.116194140894,0.993226520801,0.35201,0.05,0.05,1.0,0.0,0.0,1.0,0,0,,,0
1449617627335303643,197,0,/odom,acmd_vector,0,0,0,1.32380217092,-0.27858595885,0.0,0.0,0.0,-0.116194140894,0.993226520801,0.35201,0.05,0.05,1.0,0.0,0.0,1.0,0,0,,,0
1449617627370171030,198,0,/odom,acmd_vector,0,0,0,1.32923553942,-0.280496807793,0.0,0.0,0.0,-0.116194140894,0.993226520801,0.35201,0.05,0.05,1.0,0.0,0.0,1.0,0,0,,,0
1449617627439249992,199,0,/odom,acmd_vector,0,0,0,1.33466890793,-0.282407656736,0.0,0.0,0.0,-0.116194140894,0.993226520801,0.35201,0.05,0.05,1.0,0.0,0.0,1.0,0,0,,,0
1449617627467820058,200,0,/odom,acmd_vector,0,0,0,1.34553564494,-0.286229354622,0.0,0.0,0.0,-0.116194140894,0.993226520801,0.35201,0.05,0.05,1.0,0.0,0.0,1.0,0,0,,,0
1449617627505584830,201,0,/odom,acmd_vector,0,0,0,1.35371553295,-0.289009339429,0.0,0.0,0.0,-0.0899986047124,0.995941891452,0.35201,0.05,0.05,1.0,0.0,0.0,1.0,0,0,,,0
1449617627527554944,202,0,/odom,acmd_vector,0,0,0,1.35371553295,-0.289009339429,0.0,0.0,0.0,-0.0899986047124,0.995941891452,0.35201,0.05,0.05,1.0,0.0,0.0,1.0,0,0,,,0
1449617627588188239,203,0,/odom,acmd_vector,0,0,0,1.35916879162,-0.290862662634,0.0,0.0,0.0,-0.0899986047124,0.995941891452,0.35201,0.05,0.05,1.0,0.0,0.0,1.0,0,0,,,0
1449617627637184824,204,0,/odom,acmd_vector,0,0,0,1.37549873238,-0.296508920856,0.0,0.0,0.0,-0.110944310086,0.993826624749,0.35201,0.05,0.05,1.0,0.0,0.0,1.0,0,0,,,0
1449617627711081634,205,0,/odom,acmd_vector,0,0,0,1.38095199105,-0.298362244061,0.0,0.0,0.0,-0.110944310086,0.993826624749,0.35201,0.05,0.05,1.0,0.0,0.0,1.0,0,0,,,0
1449617627744617189,206,0,/odom,acmd_vector,0,0,0,1.39463334054,-0.302851220267,0.0,0.0,0.0,-0.0847347915864,0.996403540286,0.35201,0.05,0.05,1.0,0.0,0.0,1.0,0,0,,,0
1449617627799278552,207,0,/odom,acmd_vector,0,0,0,1.39463334054,-0.302851220267,0.0,0.0,0.0,-0.0847347915864,0.996403540286,0.35201,0.05,0.05,1.0,0.0,0.0,1.0,0,0,,,0
1449617627839826849,208,0,/odom,acmd_vector,0,0,0,1.41105095994,-0.308237991714,0.0,0.0,0.0,-0.0847347915864,0.996403540286,0.35201,0.05,0.05,1.0,0.0,0.0,1.0,0,0,,,0
1449617627907978257,209,0,/odom,acmd_vector,0,0,0,1.41928777454,-0.310844477549,0.0,0.0,0.0,-0.100435502156,0.994943571217,0.35201,0.05,0.05,1.0,0.0,0.0,1.0,0,0,,,0
1449617627959350919,210,0,/odom,acmd_vector,0,0,0,1.43844166383,-0.317129044238,0.0,0.0,0.0,-0.105691381617,0.994398980215,0.35201,0.05,0.05,1.0,0.0,0.0,1.0,0,0,,,0
1449617627977569589,211,0,/odom,acmd_vector,0,0,0,1.44667847844,-0.319735530073,0.0,0.0,0.0,-0.0794686125932,0.996837368688,0.35201,0.05,0.05,1.0,0.0,0.0,1.0,0,0,,,0
1449617628086413925,212,0,/odom,acmd_vector,0,0,0,1.44667847844,-0.319735530073,0.0,0.0,0.0,-0.100435502156,0.994943571217,0.35201,0.05,0.05,1.0,0.0,0.0,1.0,0,0,,,0
1449617628138190244,213,0,/odom,acmd_vector,0,0,0,1.47425097254,-0.32804570722,0.0,0.0,0.0,-0.0899154773276,0.995949399787,0.35201,0.05,0.05,1.0,0.0,0.0,1.0,0,0,,,0
1449617628225409713,214,0,/odom,acmd_vector,0,0,0,1.48530438811,-0.33128813722,0.0,0.0,0.0,-0.0689297452118,0.997621516521,0.35201,0.05,0.05,1.0,0.0,0.0,1.0,0,0,,,0
1449617628348256447,215,0,/odom,acmd_vector,0,0,0,1.50468992571,-0.33681614982,0.0,0.0,0.0,-0.0846516256881,0.996410609271,0.35201,0.05,0.05,1.0,0.0,0.0,1.0,0,0,,,0
1449617628385055972,216,0,/odom,acmd_vector,0,0,0,1.54632313275,-0.348331195905,0.0,0.0,0.0,-0.0793854105034,0.996843998126,0.35201,0.05,0.05,1.0,0.0,0.0,1.0,0,0,,,0
1449617628452668206,217,0,/odom,acmd_vector,0,0,0,1.54632313275,-0.348331195905,0.0,0.0,0.0,-0.0793854105034,0.996843998126,0.35201,0.05,0.05,1.0,0.0,0.0,1.0,0,0,,,0
1449617628506834914,218,0,/odom,acmd_vector,0,0,0,1.56583675642,-0.353389431204,0.0,0.0,0.0,-0.0741169788107,0.99724955425,0.35201,0.05,0.05,1.0,0.0,0.0,1.0,0,0,,,0
1449617628561742939,219,0,/odom,acmd_vector,0,0,0,1.57981246264,-0.356854956742,0.0,0.0,0.0,-0.0688464777091,0.997627266321,0.35201,0.05,0.05,1.0,0.0,0.0,1.0,0,0,,,0
1449617628599104864,220,0,/odom,acmd_vector,0,0,0,1.60217359257,-0.362399797604,0.0,0.0,0.0,-0.0688464777091,0.997627266321,0.35201,0.05,0.05,1.0,0.0,0.0,1.0,0,0,,,0
1449617628638745936,221,0,/odom,acmd_vector,0,0,0,1.61335415754,-0.365172218035,0.0,0.0,0.0,-0.0688464777091,0.997627266321,0.35201,0.05,0.05,1.0,0.0,0.0,1.0,0,0,,,0
1449617628726993159,222,0,/odom,acmd_vector,0,0,0,1.62459081901,-0.367707723305,0.0,0.0,0.0,-0.0582998559602,0.998299116896,0.35201,0.05,0.05,1.0,0.0,0.0,1.0,0,0,,,0
1449617628770214778,223,0,/odom,acmd_vector,0,0,0,1.64428768581,-0.371996246327,0.0,0.0,0.0,-0.0530240297836,0.998593236641,0.35201,0.05,0.05,1.0,0.0,0.0,1.0,0,0,,,0
1449617628822112207,224,0,/odom,acmd_vector,0,0,0,1.65555051466,-0.374412862637,0.0,0.0,0.0,-0.0530240297836,0.998593236641,0.35201,0.05,0.05,1.0,0.0,0.0,1.0,0,0,,,0
1449617628891212632,225,0,/odom,acmd_vector,0,0,0,1.66681334351,-0.376829478946,0.0,0.0,0.0,-0.0530240297836,0.998593236641,0.35201,0.05,0.05,1.0,0.0,0.0,1.0,0,0,,,0
1449617628971390828,226,0,/odom,acmd_vector,0,0,0,1.68656688564,-0.380850029492,0.0,0.0,0.0,-0.0477467231311,0.998859474816,0.35201,0.05,0.05,1.0,0.0,0.0,1.0,0,0,,,0
1449617629031237591,227,0,/odom,acmd_vector,0,0,0,1.70636181329,-0.384661603015,0.0,0.0,0.0,-0.0634907571904,0.997982426574,0.35201,0.05,0.05,1.0,0.0,0.0,1.0,0,0,,,0
1449617629052225163,228,0,/odom,acmd_vector,0,0,0,1.72901256973,-0.388868113679,0.0,0.0,0.0,-0.0634907571904,0.997982426574,0.35201,0.05,0.05,1.0,0.0,0.0,1.0,0,0,,,0
1449617629125611650,229,0,/odom,acmd_vector,0,0,0,1.72901256973,-0.388868113679,0.0,0.0,0.0,-0.0424680833496,0.999097823988,0.35201,0.05,0.05,1.0,0.0,0.0,1.0,0,0,,,0
1449617629145766509,230,0,/odom,acmd_vector,0,0,0,1.75451355856,-0.393499476155,0.0,0.0,0.0,-0.0371882578232,0.9993082775,0.35201,0.05,0.05,1.0,0.0,0.0,1.0,0,0,,,0
1449617629182007645,231,0,/odom,acmd_vector,0,0,0,1.75451355856,-0.393499476155,0.0,0.0,0.0,-0.0582165319382,0.998303979462,0.35201,0.05,0.05,1.0,0.0,0.0,1.0,0,0,,,0
1449617629238126214,232,0,/odom,acmd_vector,0,0,0,1.76870717432,-0.395922594589,0.0,0.0,0.0,-0.052940681231,0.998597658855,0.35201,0.05,0.05,1.0,0.0,0.0,1.0,0,0,,,0
1449617629282899241,233,0,/odom,acmd_vector,0,0,0,1.78860305095,-0.399164829055,0.0,0.0,0.0,-0.0476633523751,0.998863456555,0.35201,0.05,0.05,1.0,0.0,0.0,1.0,0,0,,,0
1449617629345230337,234,0,/odom,acmd_vector,0,0,0,1.79997779521,-0.40098321873,0.0,0.0,0.0,-0.0476633523751,0.998863456555,0.35201,0.05,0.05,1.0,0.0,0.0,1.0,0,0,,,0
1449617629406463101,235,0,/odom,acmd_vector,0,0,0,1.80852278938,-0.402256779869,0.0,0.0,0.0,-0.0423846927179,0.999101365139,0.35201,0.05,0.05,1.0,0.0,0.0,1.0,0,0,,,0
1449617629455016736,236,0,/odom,acmd_vector,0,0,0,1.83417940795,-0.405926841037,0.0,0.0,0.0,-0.0371048496442,0.999311377966,0.35201,0.05,0.05,1.0,0.0,0.0,1.0,0,0,,,0
1449617629499050555,237,0,/odom,acmd_vector,0,0,0,1.83988472516,-0.406715632896,0.0,0.0,0.0,-0.0371048496442,0.999311377966,0.35201,0.05,0.05,1.0,0.0,0.0,1.0,0,0,,,0
1449617629525014721,238,0,/odom,acmd_vector,0,0,0,1.85416806128,-0.408536770058,0.0,0.0,0.0,-0.0318239705716,0.999493489172,0.35201,0.05,0.05,1.0,0.0,0.0,1.0,0,0,,,0
1449617629539669476,239,0,/odom,acmd_vector,0,0,0,1.86559473018,-0.409993679786,0.0,0.0,0.0,-0.0318239705716,0.999493489172,0.35201,0.05,0.05,1.0,0.0,0.0,1.0,0,0,,,0
1449617629655444512,240,0,/odom,acmd_vector,0,0,0,1.86559473018,-0.409993679786,0.0,0.0,0.0,-0.0318239705716,0.999493489172,0.35201,0.05,0.05,1.0,0.0,0.0,1.0,0,0,,,0
1449617629704268201,241,0,/odom,acmd_vector,0,0,0,1.90276461033,-0.414456753828,0.0,0.0,0.0,-0.0265422029468,0.999647693671,0.35201,0.05,0.05,1.0,0.0,0.0,1.0,0,0,,,0
1449617629725266447,242,0,/odom,acmd_vector,0,0,0,1.91135579114,-0.415368069161,0.0,0.0,0.0,-0.0212596942411,0.999773987159,0.35201,0.05,0.05,1.0,0.0,0.0,1.0,0,0,,,0
1449617629767596825,243,0,/odom,acmd_vector,0,0,0,1.92565757517,-0.417038160445,0.0,0.0,0.0,-0.0265422029468,0.999647693671,0.35201,0.05,0.05,1.0,0.0,0.0,1.0,0,0,,,0
1449617629808517126,244,0,/odom,acmd_vector,0,0,0,1.93997620984,-0.418557019333,0.0,0.0,0.0,-0.0212596942411,0.999773987159,0.35201,0.05,0.05,1.0,0.0,0.0,1.0,0,0,,,0
1449617629850975968,245,0,/odom,acmd_vector,0,0,0,1.94857654155,-0.41937749345,0.0,0.0,0.0,-0.0370214412068,0.999314471471,0.35201,0.05,0.05,1.0,0.0,0.0,1.0,0,0,,,0
1449617629912426509,246,0,/odom,acmd_vector,0,0,0,1.9600436505,-0.420471458939,0.0,0.0,0.0,-0.0370214412068,0.999314471471,0.35201,0.05,0.05,1.0,0.0,0.0,1.0,0,0,,,0
1449617629944594591,247,0,/odom,acmd_vector,0,0,0,1.98585829628,-0.422781326542,0.0,0.0,0.0,-0.0317405469526,0.999496141903,0.35201,0.05,0.05,1.0,0.0,0.0,1.0,0,0,,,0
1449617629989177740,248,0,/odom,acmd_vector,0,0,0,1.98585829628,-0.422781326542,0.0,0.0,0.0,-0.0317405469526,0.999496141903,0.35201,0.05,0.05,1.0,0.0,0.0,1.0,0,0,,,0
1449617630016923764,249,0,/odom,acmd_vector,0,0,0,2.01455336996,-0.425213130768,0.0,0.0,0.0,-0.0317405469526,0.999496141903,0.35201,0.05,0.05,1.0,0.0,0.0,1.0,0,0,,,0
1449617630053001514,250,0,/odom,acmd_vector,0,0,0,2.01455336996,-0.425213130768,0.0,0.0,0.0,-0.0317405469526,0.999496141903,0.35201,0.05,0.05,1.0,0.0,0.0,1.0,0,0,,,0
1449617630086964472,251,0,/odom,acmd_vector,0,0,0,2.0202923847,-0.425699491614,0.0,0.0,0.0,-0.0317405469526,0.999496141903,0.35201,0.05,0.05,1.0,0.0,0.0,1.0,0,0,,,0
1449617630124296866,252,0,/odom,acmd_vector,0,0,0,2.03465196983,-0.426763703184,0.0,0.0,0.0,-0.0264587664753,0.999649905555,0.35201,0.05,0.05,1.0,0.0,0.0,1.0,0,0,,,0
1449617630164254028,253,0,/odom,acmd_vector,0,0,0,2.05188347198,-0.428040757069,0.0,0.0,0.0,-0.0369797368913,0.999316015612,0.35201,0.05,0.05,1.0,0.0,0.0,1.0,0,0,,,0
1449617630182745658,254,0,/odom,acmd_vector,0,0,0,2.05762730604,-0.428466441697,0.0,0.0,0.0,-0.0369797368913,0.999316015612,0.35201,0.05,0.05,1.0,0.0,0.0,1.0,0,0,,,0
1449617630234266716,255,0,/odom,acmd_vector,0,0,0,2.05762730604,-0.428466441697,0.0,0.0,0.0,-0.0369797368913,0.999316015612,0.35201,0.05,0.05,1.0,0.0,0.0,1.0,0,0,,,0
1449617630272131888,256,0,/odom,acmd_vector,0,0,0,2.08061308681,-0.430017370813,0.0,0.0,0.0,-0.0369797368913,0.999316015612,0.35201,0.05,0.05,1.0,0.0,0.0,1.0,0,0,,,0
1449617630310814443,257,0,/odom,acmd_vector,0,0,0,2.09498311652,-0.430929772986,0.0,0.0,0.0,-0.0316988350601,0.999497465658,0.35201,0.05,0.05,1.0,0.0,0.0,1.0,0,0,,,0
1449617630341805521,258,0,/odom,acmd_vector,0,0,0,2.10647914028,-0.431659694725,0.0,0.0,0.0,-0.0422179105694,0.999108426562,0.35201,0.05,0.05,1.0,0.0,0.0,1.0,0,0,,,0
1449617630402884306,259,0,/odom,acmd_vector,0,0,0,2.10647914028,-0.431659694725,0.0,0.0,0.0,-0.0422179105694,0.999108426562,0.35201,0.05,0.05,1.0,0.0,0.0,1.0,0,0,,,0
1449617630427339058,260,0,/odom,acmd_vector,0,0,0,2.1294711878,-0.433119538202,0.0,0.0,0.0,-0.0422179105694,0.999108426562,0.35201,0.05,0.05,1.0,0.0,0.0,1.0,0,0,,,0
1449617630463729717,261,0,/odom,acmd_vector,0,0,0,2.14385005719,-0.433880029079,0.0,0.0,0.0,-0.0369380325115,0.999317558014,0.351873962526,0.05,0.05,1.0,0.0,0.0,1.0,0,0,,,0
1449617630520508882,262,0,/odom,acmd_vector,0,0,0,2.14385005719,-0.433880029079,0.0,0.0,0.0,-0.0369380325115,0.999317558014,0.344595703761,0.05,0.05,1.0,0.0,0.0,1.0,0,0,,,0
1449617630549006775,263,0,/odom,acmd_vector,0,0,0,2.16397517052,-0.435035863085,0.0,0.0,0.0,-0.0422179105694,0.999108426562,0.344595703761,0.05,0.05,1.0,0.0,0.0,1.0,0,0,,,0
1449617630589863190,264,0,/odom,acmd_vector,0,0,0,2.17835403992,-0.435796353962,0.0,0.0,0.0,-0.0369380325115,0.999317558014,0.340963175043,0.05,0.05,1.0,0.0,0.0,1.0,0,0,,,0
1449617630623829730,265,0,/odom,acmd_vector,0,0,0,2.18985713543,-0.436404746663,0.0,0.0,0.0,-0.0369380325115,0.999317558014,0.340963175043,0.05,0.05,1.0,0.0,0.0,1.0,0,0,,,0
1449617630661378559,266,0,/odom,acmd_vector,0,0,0,2.18985713543,-0.436404746663,0.0,0.0,0.0,-0.0369380325115,0.999317558014,0.33012497654,0.05,0.05,1.0,0.0,0.0,1.0,0,0,,,0
1449617630703130998,267,0,/odom,acmd_vector,0,0,0,2.19560868318,-0.436708943014,0.0,0.0,0.0,-0.0369380325115,0.999317558014,0.33012497654,0.05,0.05,1.0,0.0,0.0,1.0,0,0,,,0
1449617630765224273,268,0,/odom,acmd_vector,0,0,0,2.2071117787,-0.437317335716,0.0,0.0,0.0,-0.0579665574408,0.998318525431,0.322035325305,0.05,0.05,1.0,0.0,0.0,1.0,0,0,,,0
1449617630785526500,269,0,/odom,acmd_vector,0,0,0,2.23012520354,-0.438382124889,0.0,0.0,0.0,-0.0579665574408,0.998318525431,0.320241578031,0.05,0.05,1.0,0.0,0.0,1.0,0,0,,,0
1449617630828048694,270,0,/odom,acmd_vector,0,0,0,2.23012520354,-0.438382124889,0.0,0.0,0.0,-0.0579665574408,0.998318525431,0.31665838176,0.05,0.05,1.0,0.0,0.0,1.0,0,0,,,0
1449617630873012653,271,0,/odom,acmd_vector,0,0,0,2.25313139457,-0.439598910292,0.0,0.0,0.0,-0.0579665574408,0.998318525431,0.31665838176,0.05,0.05,1.0,0.0,0.0,1.0,0,0,,,0
1449617630908785019,272,0,/odom,acmd_vector,0,0,0,2.26463449008,-0.440207302994,0.0,0.0,0.0,-0.0579665574408,0.998318525431,0.312206912066,0.05,0.05,1.0,0.0,0.0,1.0,0,0,,,0
1449617630949677129,273,0,/odom,acmd_vector,0,0,0,2.2761375856,-0.440815695696,0.0,0.0,0.0,-0.0579665574408,0.998318525431,0.312206912066,0.05,0.05,1.0,0.0,0.0,1.0,0,0,,,0
1449617631004920245,274,0,/odom,acmd_vector,0,0,0,2.28764068111,-0.441424088397,0.0,0.0,0.0,-0.0579665574408,0.998318525431,0.305965468852,0.05,0.05,1.0,0.0,0.0,1.0,0,0,,,0
1449617631019813599,275,0,/odom,acmd_vector,0,0,0,2.29339222886,-0.441728284748,0.0,0.0,0.0,-0.0579665574408,0.998318525431,0.305965468852,0.05,0.05,1.0,0.0,0.0,1.0,0,0,,,0
1449617631093576045,276,0,/odom,acmd_vector,0,0,0,2.29339222886,-0.441728284748,0.0,0.0,0.0,-0.0369380325115,0.999317558014,0.263088283487,0.05,0.05,1.0,0.0,0.0,1.0,0,0,,,0
1449617631137704445,277,0,/odom,acmd_vector,0,0,0,2.32214112796,-0.443401177798,0.0,0.0,0.0,-0.0579665574408,0.998318525431,0.257425435029,0.05,0.05,1.0,0.0,0.0,1.0,0,0,,,0
1449617631189379352,278,0,/odom,acmd_vector,0,0,0,2.33076314578,-0.443948619103,0.0,0.0,0.0,-0.0632408630437,0.997998293206,0.257425435029,0.05,0.05,1.0,0.0,0.0,1.0,0,0,,,0
1449617631234725723,279,0,/odom,acmd_vector,0,0,0,2.3537551933,-0.44540846258,0.0,0.0,0.0,-0.0632408630437,0.997998293206,0.246849757458,0.05,0.05,1.0,0.0,0.0,1.0,0,0,,,0
1449617631271065867,280,0,/odom,acmd_vector,0,0,0,2.36525121706,-0.446138384319,0.0,0.0,0.0,-0.0632408630437,0.997998293206,0.246849757458,0.05,0.05,1.0,0.0,0.0,1.0,0,0,,,0
1449617631328752528,281,0,/odom,acmd_vector,0,0,0,2.37674724082,-0.446868306057,0.0,0.0,0.0,-0.0632408630437,0.997998293206,0.246849757458,0.05,0.05,1.0,0.0,0.0,1.0,0,0,,,0
1449617631391607949,282,0,/odom,acmd_vector,0,0,0,2.39110682595,-0.447932517628,0.0,0.0,0.0,-0.068513402908,0.997650196022,0.244039342181,0.05,0.05,1.0,0.0,0.0,1.0,0,0,,,0
1449617631423256769,283,0,/odom,acmd_vector,0,0,0,2.41122486753,-0.449209880671,0.0,0.0,0.0,-0.0632408630437,0.997998293206,0.244039342181,0.05,0.05,1.0,0.0,0.0,1.0,0,0,,,0
1449617631464639557,284,0,/odom,acmd_vector,0,0,0,2.41122486753,-0.449209880671,0.0,0.0,0.0,0.0419677351422,0.999118966493,0.35201,0.05,0.05,1.0,0.0,0.0,1.0,0,0,,,0
1449617631507790436,285,0,/odom,acmd_vector,0,0,0,2.42272089129,-0.449939802409,0.0,0.0,0.0,0.0419677351422,0.999118966493,0.35201,0.05,0.05,1.0,0.0,0.0,1.0,0,0,,,0
1449617631557992832,286,0,/odom,acmd_vector,0,0,0,2.44571293882,-0.451399645887,0.0,0.0,0.0,0.0419677351422,0.999118966493,0.35201,0.05,0.05,1.0,0.0,0.0,1.0,0,0,,,0
1449617631600181556,287,0,/odom,acmd_vector,0,0,0,2.45720896258,-0.452129567626,0.0,0.0,0.0,0.0209259053812,0.999781029268,0.35201,0.05,0.05,1.0,0.0,0.0,1.0,0,0,,,0
1449617631635179049,288,0,/odom,acmd_vector,0,0,0,2.46582471365,-0.452768094568,0.0,0.0,0.0,0.0156427705362,0.99987764438,0.35201,0.05,0.05,1.0,0.0,0.0,1.0,0,0,,,0
1449617631664161211,289,0,/odom,acmd_vector,0,0,0,2.47731238176,-0.453619463824,0.0,0.0,0.0,0.0156427705362,0.99987764438,0.35201,0.05,0.05,1.0,0.0,0.0,1.0,0,0,,,0
1449617631719526820,290,0,/odom,acmd_vector,0,0,0,2.47731238176,-0.453619463824,0.0,0.0,0.0,0.0156427705362,0.99987764438,0.35201,0.05,0.05,1.0,0.0,0.0,1.0,0,0,,,0
1449617631754507357,291,0,/odom,acmd_vector,0,0,0,2.49742206768,-0.455018274385,0.0,0.0,0.0,0.104944367247,0.99447809417,0.35201,0.05,0.05,1.0,0.0,0.0,1.0,0,0,,,0
1449617631792587957,292,0,/odom,acmd_vector,0,0,0,2.50603781876,-0.455656801327,0.0,0.0,0.0,0.0996880801764,0.995018736844,0.35201,0.05,0.05,1.0,0.0,0.0,1.0,0,0,,,0
1449617631816935039,293,0,/odom,acmd_vector,0,0,0,2.51178165281,-0.456082485955,0.0,0.0,0.0,0.0366878048838,0.999326775871,0.271454566842,0.05,0.05,1.0,0.0,0.0,1.0,0,0,,,0
1449617631872161791,294,0,/odom,acmd_vector,0,0,0,2.51178165281,-0.456082485955,0.0,0.0,0.0,0.0366878048838,0.999326775871,0.265673996584,0.05,0.05,1.0,0.0,0.0,1.0,0,0,,,0
1449617631905604245,295,0,/odom,acmd_vector,0,0,0,2.52901315497,-0.457359539839,0.0,0.0,0.0,0.0366878048838,0.999326775871,0.265673996584,0.05,0.05,1.0,0.0,0.0,1.0,0,0,,,0
1449617631969572761,296,0,/odom,acmd_vector,0,0,0,2.52901315497,-0.457359539839,0.0,0.0,0.0,0.0156427705362,0.99987764438,0.233269045407,0.05,0.05,1.0,0.0,0.0,1.0,0,0,,,0
1449617632005511755,297,0,/odom,acmd_vector,0,0,0,2.54624465712,-0.458636593724,0.0,0.0,0.0,0.0156427705362,0.99987764438,0.230665399211,0.05,0.05,1.0,0.0,0.0,1.0,0,0,,,0
1449617632030594886,298,0,/odom,acmd_vector,0,0,0,2.55486667494,-0.459184035028,0.0,0.0,0.0,0.0209259053812,0.999781029268,0.230665399211,0.05,0.05,1.0,0.0,0.0,1.0,0,0,,,0
1449617632096891172,299,0,/odom,acmd_vector,0,0,0,2.56348242602,-0.45982256197,0.0,0.0,0.0,0.0156427705362,0.99987764438,0.226784529219,0.05,0.05,1.0,0.0,0.0,1.0,0,0,,,0
1449617632125261968,300,0,/odom,acmd_vector,0,0,0,2.56922626007,-0.460248246598,0.0,0.0,0.0,0.0156427705362,0.99987764438,0.226784529219,0.05,0.05,1.0,0.0,0.0,1.0,0,0,,,0
1449617632152423841,301,0,/odom,acmd_vector,0,0,0,2.58071392817,-0.461099615855,0.0,0.0,0.0,0.0156427705362,0.99987764438,0.223560708873,0.05,0.05,1.0,0.0,0.0,1.0,0,0,,,0
1449617632186248436,302,0,/odom,acmd_vector,0,0,0,2.59220159628,-0.461950985111,0.0,0.0,0.0,0.0156427705362,0.99987764438,0.223560708873,0.05,0.05,1.0,0.0,0.0,1.0,0,0,,,0
1449617632223887020,303,0,/odom,acmd_vector,0,0,0,2.6008236141,-0.462498426415,0.0,0.0,0.0,0.0209259053812,0.999781029268,0.223560708873,0.05,0.05,1.0,0.0,0.0,1.0,0,0,,,0
1449617632280793697,304,0,/odom,acmd_vector,0,0,0,2.6008236141,-0.462498426415,0.0,0.0,0.0,0.0209259053812,0.999781029268,0.220372658494,0.05,0.05,1.0,0.0,0.0,1.0,0,0,,,0
1449617632314437494,305,0,/odom,acmd_vector,0,0,0,2.61518737705,-0.463501914227,0.0,0.0,0.0,0.0156427705362,0.99987764438,0.215321512177,0.05,0.05,1.0,0.0,0.0,1.0,0,0,,,0
1449617632337065375,306,0,/odom,acmd_vector,0,0,0,2.62093121111,-0.463927598855,0.0,0.0,0.0,0.0156427705362,0.99987764438,0.215321512177,0.05,0.05,1.0,0.0,0.0,1.0,0,0,,,0
1449617632399099162,307,0,/odom,acmd_vector,0,0,0,2.62093121111,-0.463927598855,0.0,0.0,0.0,0.0156427705362,0.99987764438,0.213429931449,0.05,0.05,1.0,0.0,0.0,1.0,0,0,,,0
1449617632436093986,308,0,/odom,acmd_vector,0,0,0,2.63816271326,-0.465204652739,0.0,0.0,0.0,0.0156427705362,0.99987764438,0.213429931449,0.05,0.05,1.0,0.0,0.0,1.0,0,0,,,0
1449617632483604565,309,0,/odom,acmd_vector,0,0,0,2.64390654731,-0.465630337367,0.0,0.0,0.0,-0.00540919663922,0.999985370189,0.210312201491,0.05,0.05,1.0,0.0,0.0,1.0,0,0,,,0
1449617632503661646,310,0,/odom,acmd_vector,0,0,0,2.64965038136,-0.466056021996,0.0,0.0,0.0,-0.00540919663922,0.999985370189,0.210312201491,0.05,0.05,1.0,0.0,0.0,1.0,0,0,,,0
1449617632551537342,311,0,/odom,acmd_vector,0,0,0,2.64965038136,-0.466056021996,0.0,0.0,0.0,-0.00540919663922,0.999985370189,0.184966699001,0.05,0.05,1.0,0.0,0.0,1.0,0,0,,,0
1449617632563527686,312,0,/odom,acmd_vector,0,0,0,2.66113804947,-0.466907391252,0.0,0.0,0.0,-0.00540919663922,0.999985370189,0.184966699001,0.05,0.05,1.0,0.0,0.0,1.0,0,0,,,0
1449617632627168087,313,0,/odom,acmd_vector,0,0,0,2.66113804947,-0.466907391252,0.0,0.0,0.0,-0.00540919663922,0.999985370189,0.183137604556,0.05,0.05,1.0,0.0,0.0,1.0,0,0,,,0
1449617632654455820,314,0,/odom,acmd_vector,0,0,0,2.66976006729,-0.467454832556,0.0,0.0,0.0,-0.000125198676654,0.999999992163,0.183137604556,0.05,0.05,1.0,0.0,0.0,1.0,0,0,,,0
1449617632717398339,315,0,/odom,acmd_vector,0,0,0,2.67837581837,-0.468093359498,0.0,0.0,0.0,-0.00540919663922,0.999985370189,0.181323232362,0.05,0.05,1.0,0.0,0.0,1.0,0,0,,,0
1449617632744939152,316,0,/odom,acmd_vector,0,0,0,2.68986557538,-0.468914366875,0.0,0.0,0.0,-0.00540919663922,0.999985370189,0.181323232362,0.05,0.05,1.0,0.0,0.0,1.0,0,0,,,0
1449617632785585200,317,0,/odom,acmd_vector,0,0,0,2.68986557538,-0.468914366875,0.0,0.0,0.0,0.0156427705362,0.99987764438,0.198750644879,0.05,0.05,1.0,0.0,0.0,1.0,0,0,,,0
1449617632810653557,318,0,/odom,acmd_vector,0,0,0,2.69273958132,-0.46909684731,0.0,0.0,0.0,0.0209259053812,0.999781029268,0.198750644879,0.05,0.05,1.0,0.0,0.0,1.0,0,0,,,0
1449617632852674312,319,0,/odom,acmd_vector,0,0,0,2.69561149835,-0.469309689624,0.0,0.0,0.0,0.0156427705362,0.99987764438,0.175959058447,0.05,0.05,1.0,0.0,0.0,1.0,0,0,,,0
1449617632878035418,320,0,/odom,acmd_vector,0,0,0,2.70423351617,-0.469857130928,0.0,0.0,0.0,0.0209259053812,0.999781029268,0.175959058447,0.05,0.05,1.0,0.0,0.0,1.0,0,0,,,0
1449617632934047776,321,0,/odom,acmd_vector,0,0,0,2.7071054332,-0.470069973242,0.0,0.0,0.0,0.0156427705362,0.99987764438,0.194018225631,0.05,0.05,1.0,0.0,0.0,1.0,0,0,,,0
1449617632959967883,322,0,/odom,acmd_vector,0,0,0,2.71284926725,-0.47049565787,0.0,0.0,0.0,0.0156427705362,0.99987764438,0.194018225631,0.05,0.05,1.0,0.0,0.0,1.0,0,0,,,0
1449617632995606204,323,0,/odom,acmd_vector,0,0,0,2.71572327319,-0.470678138305,0.0,0.0,0.0,0.0209259053812,0.999781029268,0.173759303133,0.05,0.05,1.0,0.0,0.0,1.0,0,0,,,0
1449617633051669883,324,0,/odom,acmd_vector,0,0,0,2.72147128507,-0.471043099174,0.0,0.0,0.0,0.0209259053812,0.999781029268,0.172462373461,0.05,0.05,1.0,0.0,0.0,1.0,0,0,,,0
1449617633077249836,325,0,/odom,acmd_vector,0,0,0,2.72721929695,-0.471408060044,0.0,0.0,0.0,0.0209259053812,0.999781029268,0.172462373461,0.05,0.05,1.0,0.0,0.0,1.0,0,0,,,0
1449617633123066497,326,0,/odom,acmd_vector,0,0,0,2.73009121397,-0.471620902358,0.0,0.0,0.0,0.0156427705362,0.99987764438,0.172028394691,0.05,0.05,1.0,0.0,0.0,1.0,0,0,,,0
1449617636474890815,327,0,/odom,acmd_vector,0,0,0,2.77605233096,-0.474874569986,0.0,0.0,0.0,-0.0369797368913,0.999316015612,1e-05,0.05,0.05,1.0,0.0,0.0,1.0,0,0,,,0
1449617636515617287,328,0,/odom,acmd_vector,0,0,0,2.77317832502,-0.474692089551,0.0,0.0,0.0,-0.0316988350601,0.999497465658,1e-05,0.05,0.05,1.0,0.0,0.0,1.0,0,0,,,0
1449617636566489832,329,0,/odom,acmd_vector,0,0,0,2.77317832502,-0.474692089551,0.0,0.0,0.0,-0.0316988350601,0.999497465658,1e-05,0.05,0.05,1.0,0.0,0.0,1.0,0,0,,,0
1449617636611152848,330,0,/odom,acmd_vector,0,0,0,2.77317832502,-0.474692089551,0.0,0.0,0.0,-0.0316988350601,0.999497465658,1e-05,0.05,0.05,1.0,0.0,0.0,1.0,0,0,,,0
1449617636646810365,331,0,/odom,acmd_vector,0,0,0,2.77317832502,-0.474692089551,0.0,0.0,0.0,-0.0316988350601,0.999497465658,1e-05,0.05,0.05,1.0,0.0,0.0,1.0,0,0,,,0
1449617636693353078,332,0,/odom,acmd_vector,0,0,0,2.77317832502,-0.474692089551,0.0,0.0,0.0,-0.0316988350601,0.999497465658,1e-05,0.05,0.05,1.0,0.0,0.0,1.0,0,0,,,0
1449617636721455221,333,0,/odom,acmd_vector,0,0,0,2.77317832502,-0.474692089551,0.0,0.0,0.0,-0.0316988350601,0.999497465658,1e-05,0.05,0.05,1.0,0.0,0.0,1.0,0,0,,,0
1449617636780041409,334,0,/odom,acmd_vector,0,0,0,2.77317832502,-0.474692089551,0.0,0.0,0.0,-0.0316988350601,0.999497465658,1e-05,0.05,0.05,1.0,0.0,0.0,1.0,0,0,,,0
1449617636807906286,335,0,/odom,acmd_vector,0,0,0,2.77317832502,-0.474692089551,0.0,0.0,0.0,-0.0316988350601,0.999497465658,1e-05,0.05,0.05,1.0,0.0,0.0,1.0,0,0,,,0
1449617636842298438,336,0,/odom,acmd_vector,0,0,0,2.77317832502,-0.474692089551,0.0,0.0,0.0,-0.0316988350601,0.999497465658,1e-05,0.05,0.05,1.0,0.0,0.0,1.0,0,0,,,0
1449617636882546901,337,0,/odom,acmd_vector,0,0,0,2.77317832502,-0.474692089551,0.0,0.0,0.0,-0.0316988350601,0.999497465658,1e-05,0.05,0.05,1.0,0.0,0.0,1.0,0,0,,,0
1449617636943486195,338,0,/odom,acmd_vector,0,0,0,2.77317832502,-0.474692089551,0.0,0.0,0.0,-0.0316988350601,0.999497465658,1e-05,0.05,0.05,1.0,0.0,0.0,1.0,0,0,,,0
1449617636958434175,339,0,/odom,acmd_vector,0,0,0,2.77317832502,-0.474692089551,0.0,0.0,0.0,-0.0316988350601,0.999497465658,1e-05,0.05,0.05,1.0,0.0,0.0,1.0,0,0,,,0
1449617637022461226,340,0,/odom,acmd_vector,0,0,0,2.77317832502,-0.474692089551,0.0,0.0,0.0,-0.0316988350601,0.999497465658,1e-05,0.05,0.05,1.0,0.0,0.0,1.0,0,0,,,0
1449617637039995066,341,0,/odom,acmd_vector,0,0,0,2.77317832502,-0.474692089551,0.0,0.0,0.0,-0.0316988350601,0.999497465658,1e-05,0.05,0.05,1.0,0.0,0.0,1.0,0,0,,,0
1449617637112667221,342,0,/odom,acmd_vector,0,0,0,2.77317832502,-0.474692089551,0.0,0.0,0.0,-0.0316988350601,0.999497465658,1e-05,0.05,0.05,1.0,0.0,0.0,1.0,0,0,,,0
1449617637122621123,343,0,/odom,acmd_vector,0,0,0,2.77317832502,-0.474692089551,0.0,0.0,0.0,-0.0316988350601,0.999497465658,1e-05,0.05,0.05,1.0,0.0,0.0,1.0,0,0,,,0
1449617637169185880,344,0,/odom,acmd_vector,0,0,0,2.77317832502,-0.474692089551,0.0,0.0,0.0,-0.0316988350601,0.999497465658,1e-05,0.05,0.05,1.0,0.0,0.0,1.0,0,0,,,0
1449617637200122076,345,0,/odom,acmd_vector,0,0,0,2.77317832502,-0.474692089551,0.0,0.0,0.0,-0.0316988350601,0.999497465658,1e-05,0.05,0.05,1.0,0.0,0.0,1.0,0,0,,,0
1449617637249628542,346,0,/odom,acmd_vector,0,0,0,2.77317832502,-0.474692089551,0.0,0.0,0.0,-0.0316988350601,0.999497465658,1e-05,0.05,0.05,1.0,0.0,0.0,1.0,0,0,,,0
1449617637278550384,347,0,/odom,acmd_vector,0,0,0,2.77317832502,-0.474692089551,0.0,0.0,0.0,-0.0316988350601,0.999497465658,1e-05,0.05,0.05,1.0,0.0,0.0,1.0,0,0,,,0
1449617637319558948,348,0,/odom,acmd_vector,0,0,0,2.77317832502,-0.474692089551,0.0,0.0,0.0,-0.0316988350601,0.999497465658,1e-05,0.05,0.05,1.0,0.0,0.0,1.0,0,0,,,0
1449617637366020793,349,0,/odom,acmd_vector,0,0,0,2.77317832502,-0.474692089551,0.0,0.0,0.0,-0.0316988350601,0.999497465658,1e-05,0.05,0.05,1.0,0.0,0.0,1.0,0,0,,,0
1449617637397968234,350,0,/odom,acmd_vector,0,0,0,2.77317832502,-0.474692089551,0.0,0.0,0.0,0.0209259053812,0.999781029268,0.197356647742,0.05,0.05,1.0,0.0,0.0,1.0,0,0,,,0
1449617637441716885,351,0,/odom,acmd_vector,0,0,0,2.77317832502,-0.474692089551,0.0,0.0,0.0,0.0209259053812,0.999781029268,0.197356647742,0.05,0.05,1.0,0.0,0.0,1.0,0,0,,,0
1449617637480064497,352,0,/odom,acmd_vector,0,0,0,2.77317832502,-0.474692089551,0.0,0.0,0.0,0.0209259053812,0.999781029268,0.197356647742,0.05,0.05,1.0,0.0,0.0,1.0,0,0,,,0
1449617637517473272,353,0,/odom,acmd_vector,0,0,0,2.77317832502,-0.474692089551,0.0,0.0,0.0,0.0209259053812,0.999781029268,0.197356647742,0.05,0.05,1.0,0.0,0.0,1.0,0,0,,,0
1449617637557508245,354,0,/odom,acmd_vector,0,0,0,2.77317832502,-0.474692089551,0.0,0.0,0.0,0.0209259053812,0.999781029268,0.197356647742,0.05,0.05,1.0,0.0,0.0,1.0,0,0,,,0
1449617637604222782,355,0,/odom,acmd_vector,0,0,0,2.77317832502,-0.474692089551,0.0,0.0,0.0,0.0209259053812,0.999781029268,0.197356647742,0.05,0.05,1.0,0.0,0.0,1.0,0,0,,,0
1449617637645335915,356,0,/odom,acmd_vector,0,0,0,2.77605024205,-0.474904931865,0.0,0.0,0.0,0.0156427705362,0.99987764438,0.197356647742,0.05,0.05,1.0,0.0,0.0,1.0,0,0,,,0
1449617637686566547,357,0,/odom,acmd_vector,0,0,0,2.77605024205,-0.474904931865,0.0,0.0,0.0,0.0156427705362,0.99987764438,0.197356647742,0.05,0.05,1.0,0.0,0.0,1.0,0,0,,,0
1449617637722904479,358,0,/odom,acmd_vector,0,0,0,2.77605024205,-0.474904931865,0.0,0.0,0.0,0.0156427705362,0.99987764438,0.197356647742,0.05,0.05,1.0,0.0,0.0,1.0,0,0,,,0
1449617637760476347,359,0,/odom,acmd_vector,0,0,0,2.77605024205,-0.474904931865,0.0,0.0,0.0,0.0156427705362,0.99987764438,0.197356647742,0.05,0.05,1.0,0.0,0.0,1.0,0,0,,,0
1449617637798967545,360,0,/odom,acmd_vector,0,0,0,2.77605024205,-0.474904931865,0.0,0.0,0.0,0.0156427705362,0.99987764438,0.197356647742,0.05,0.05,1.0,0.0,0.0,1.0,0,0,,,0
1449617637843219662,361,0,/odom,acmd_vector,0,0,0,2.78179616501,-0.475300254614,0.0,0.0,0.0,0.0156427705362,0.99987764438,0.196444683509,0.05,0.05,1.0,0.0,0.0,1.0,0,0,,,0
1449617637888976132,362,0,/odom,acmd_vector,0,0,0,2.78179616501,-0.475300254614,0.0,0.0,0.0,0.0156427705362,0.99987764438,0.196444683509,0.05,0.05,1.0,0.0,0.0,1.0,0,0,,,0
1449617637918413109,363,0,/odom,acmd_vector,0,0,0,2.78467017095,-0.475482735049,0.0,0.0,0.0,0.0209259053812,0.999781029268,0.196444683509,0.05,0.05,1.0,0.0,0.0,1.0,0,0,,,0
1449617637960398043,364,0,/odom,acmd_vector,0,0,0,2.78754208798,-0.475695577363,0.0,0.0,0.0,0.0156427705362,0.99987764438,0.196444683509,0.05,0.05,1.0,0.0,0.0,1.0,0,0,,,0
1449617638004005968,365,0,/odom,acmd_vector,0,0,0,2.79041609392,-0.475878057798,0.0,0.0,0.0,0.0209259053812,0.999781029268,0.194619044669,0.05,0.05,1.0,0.0,0.0,1.0,0,0,,,0
1449617638039035253,366,0,/odom,acmd_vector,0,0,0,2.79328801094,-0.476090900112,0.0,0.0,0.0,0.0156427705362,0.99987764438,0.194619044669,0.05,0.05,1.0,0.0,0.0,1.0,0,0,,,0
1449617638080275884,367,0,/odom,acmd_vector,0,0,0,2.79616201688,-0.476273380546,0.0,0.0,0.0,0.0209259053812,0.999781029268,0.192795235678,0.05,0.05,1.0,0.0,0.0,1.0,0,0,,,0
