%time,field.goals0.navgoal_poses0.header.seq,field.goals0.navgoal_poses0.header.stamp,field.goals0.navgoal_poses0.header.frame_id,field.goals0.navgoal_poses0.pose.position.x,field.goals0.navgoal_poses0.pose.position.y,field.goals0.navgoal_poses0.pose.position.z,field.goals0.navgoal_poses0.pose.orientation.x,field.goals0.navgoal_poses0.pose.orientation.y,field.goals0.navgoal_poses0.pose.orientation.z,field.goals0.navgoal_poses0.pose.orientation.w,field.goals0.goal_pose.header.seq,field.goals0.goal_pose.header.stamp,field.goals0.goal_pose.header.frame_id,field.goals0.goal_pose.pose.position.x,field.goals0.goal_pose.pose.position.y,field.goals0.goal_pose.pose.position.z,field.goals0.goal_pose.pose.orientation.x,field.goals0.goal_pose.pose.orientation.y,field.goals0.goal_pose.pose.orientation.z,field.goals0.goal_pose.pose.orientation.w,field.goals0.goal_type,field.goals0.goal_source,field.goals0.score,field.goals0.t_eval
1449617601146576626,0,1449617601114851357,/odom,nan,nan,0.0,nan,nan,nan,nan,0,1449617601114851357,/odom,nan,nan,0.0,nan,nan,nan,nan,0,user,1.0,0
1449617601267958361,0,1449617601227783959,/odom,0.0,0.0,0.0,0.0,0.0,0.0,1.0,0,1449617601227783959,/odom,0.0,0.0,0.0,0.0,0.0,0.0,1.0,0,user,1.0,0
1449617601331739757,0,1449617601321744385,/odom,0.0,0.0,0.0,0.0,0.0,0.0,1.0,0,1449617601321744385,/odom,0.0,0.0,0.0,0.0,0.0,0.0,1.0,0,user,1.0,0
1449617601421158822,0,1449617601405407112,/odom,0.0,0.0,0.0,0.0,0.0,0.0,1.0,0,1449617601405407112,/odom,0.0,0.0,0.0,0.0,0.0,0.0,1.0,0,user,1.0,0
1449617601512620760,0,1449617601507602260,/odom,0.0,0.0,0.0,0.0,0.0,0.0,1.0,0,1449617601507602260,/odom,0.0,0.0,0.0,0.0,0.0,0.0,1.0,0,user,1.0,0
1449617601607543677,0,1449617601603807680,/odom,0.0,0.0,0.0,0.0,0.0,0.0,1.0,0,1449617601603807680,/odom,0.0,0.0,0.0,0.0,0.0,0.0,1.0,0,user,1.0,0
1449617601728316775,0,1449617601706936900,/odom,0.0,0.0,0.0,0.0,0.0,0.0,1.0,0,1449617601706936900,/odom,0.0,0.0,0.0,0.0,0.0,0.0,1.0,0,user,1.0,0
1449617601806636820,0,1449617601804195895,/odom,0.0,0.0,0.0,0.0,0.0,0.0,1.0,0,1449617601804195895,/odom,0.0,0.0,0.0,0.0,0.0,0.0,1.0,0,user,1.0,0
1449617601928020188,0,1449617601921578170,/odom,0.0,0.0,0.0,0.0,0.0,0.0,1.0,0,1449617601921578170,/odom,0.0,0.0,0.0,0.0,0.0,0.0,1.0,0,user,1.0,0
1449617602014159989,0,1449617602004068537,/odom,0.0,0.0,0.0,0.0,0.0,0.0,1.0,0,1449617602004068537,/odom,0.0,0.0,0.0,0.0,0.0,0.0,1.0,0,user,1.0,0
1449617602153186852,0,1449617602135630699,/odom,0.0,0.0,0.0,0.0,0.0,0.0,1.0,0,1449617602135630699,/odom,0.0,0.0,0.0,0.0,0.0,0.0,1.0,0,user,1.0,0
1449617602224396712,0,1449617602209640127,/odom,0.0,0.0,0.0,0.0,0.0,0.0,1.0,0,1449617602209640127,/odom,0.0,0.0,0.0,0.0,0.0,0.0,1.0,0,user,1.0,0
1449617602306582055,0,1449617602303095794,/odom,0.0,0.0,0.0,0.0,0.0,0.0,1.0,0,1449617602303095794,/odom,0.0,0.0,0.0,0.0,0.0,0.0,1.0,0,user,1.0,0
1449617602404927618,0,1449617602402418294,/odom,0.0,0.0,0.0,0.0,0.0,0.0,1.0,0,1449617602402418294,/odom,0.0,0.0,0.0,0.0,0.0,0.0,1.0,0,user,1.0,0
1449617602507501777,0,1449617602503890432,/odom,0.0,0.0,0.0,0.0,0.0,0.0,1.0,0,1449617602503890432,/odom,0.0,0.0,0.0,0.0,0.0,0.0,1.0,0,user,1.0,0
1449617602610627244,0,1449617602605184148,/odom,0.0,0.0,0.0,0.0,0.0,0.0,1.0,0,1449617602605184148,/odom,0.0,0.0,0.0,0.0,0.0,0.0,1.0,0,user,1.0,0
1449617602706977836,0,1449617602702897967,/odom,0.0,0.0,0.0,0.0,0.0,0.0,1.0,0,1449617602702897967,/odom,0.0,0.0,0.0,0.0,0.0,0.0,1.0,0,user,1.0,0
1449617602822456228,0,1449617602813668692,/odom,0.0,0.0,0.0,0.0,0.0,0.0,1.0,0,1449617602813668692,/odom,0.0,0.0,0.0,0.0,0.0,0.0,1.0,0,user,1.0,0
1449617602913709679,0,1449617602904502175,/odom,0.0,0.0,0.0,0.0,0.0,0.0,1.0,0,1449617602904502175,/odom,0.0,0.0,0.0,0.0,0.0,0.0,1.0,0,user,1.0,0
1449617603006133305,0,1449617603002636973,/odom,0.0,0.0,0.0,0.0,0.0,0.0,1.0,0,1449617603002636973,/odom,0.0,0.0,0.0,0.0,0.0,0.0,1.0,0,user,1.0,0
1449617603113644696,0,1449617603109935531,/odom,0.0,0.0,0.0,0.0,0.0,0.0,1.0,0,1449617603109935531,/odom,0.0,0.0,0.0,0.0,0.0,0.0,1.0,0,user,1.0,0
1449617603203586965,0,1449617603202227052,/odom,0.0,0.0,0.0,0.0,0.0,0.0,1.0,0,1449617603202227052,/odom,0.0,0.0,0.0,0.0,0.0,0.0,1.0,0,user,1.0,0
1449617603310701255,0,1449617603306681151,/odom,0.0,0.0,0.0,0.0,0.0,0.0,1.0,0,1449617603306681151,/odom,0.0,0.0,0.0,0.0,0.0,0.0,1.0,0,user,1.0,0
1449617603405455048,0,1449617603403413620,/odom,0.0,0.0,0.0,0.0,0.0,0.0,1.0,0,1449617603403413620,/odom,0.0,0.0,0.0,0.0,0.0,0.0,1.0,0,user,1.0,0
1449617603511547828,0,1449617603503435584,/odom,0.0,0.0,0.0,0.0,0.0,0.0,1.0,0,1449617603503435584,/odom,0.0,0.0,0.0,0.0,0.0,0.0,1.0,0,user,1.0,0
1449617603608745304,0,1449617603604354295,/odom,0.0,0.0,0.0,0.0,0.0,0.0,1.0,0,1449617603604354295,/odom,0.0,0.0,0.0,0.0,0.0,0.0,1.0,0,user,1.0,0
1449617603719756288,0,1449617603702059319,/odom,0.0,0.0,0.0,0.0,0.0,0.0,1.0,0,1449617603702059319,/odom,0.0,0.0,0.0,0.0,0.0,0.0,1.0,0,user,1.0,0
1449617603806015906,0,1449617603802391099,/odom,0.0,0.0,0.0,0.0,0.0,0.0,1.0,0,1449617603802391099,/odom,0.0,0.0,0.0,0.0,0.0,0.0,1.0,0,user,1.0,0
1449617603924875843,0,1449617603907846881,/odom,0.0,0.0,0.0,0.0,0.0,0.0,1.0,0,1449617603907846881,/odom,0.0,0.0,0.0,0.0,0.0,0.0,1.0,0,user,1.0,0
1449617604009612554,0,1449617604001530729,/odom,0.0,0.0,0.0,0.0,0.0,0.0,1.0,0,1449617604001530729,/odom,0.0,0.0,0.0,0.0,0.0,0.0,1.0,0,user,1.0,0
1449617604106696162,0,1449617604102061236,/odom,0.0,0.0,0.0,0.0,0.0,0.0,1.0,0,1449617604102061236,/odom,0.0,0.0,0.0,0.0,0.0,0.0,1.0,0,user,1.0,0
1449617604205466848,0,1449617604203586957,/odom,0.0,0.0,0.0,0.0,0.0,0.0,1.0,0,1449617604203586957,/odom,0.0,0.0,0.0,0.0,0.0,0.0,1.0,0,user,1.0,0
1449617604317267659,0,1449617604303548557,/odom,0.0,0.0,0.0,0.0,0.0,0.0,1.0,0,1449617604303548557,/odom,0.0,0.0,0.0,0.0,0.0,0.0,1.0,0,user,1.0,0
1449617604420307558,0,1449617604402258711,/odom,0.0,0.0,0.0,0.0,0.0,0.0,1.0,0,1449617604402258711,/odom,0.0,0.0,0.0,0.0,0.0,0.0,1.0,0,user,1.0,0
1449617604544717300,0,1449617604508171058,/odom,0.0,0.0,0.0,0.0,0.0,0.0,1.0,0,1449617604508171058,/odom,0.0,0.0,0.0,0.0,0.0,0.0,1.0,0,user,1.0,0
1449617604614251091,0,1449617604602203284,/odom,0.0,0.0,0.0,0.0,0.0,0.0,1.0,0,1449617604602203284,/odom,0.0,0.0,0.0,0.0,0.0,0.0,1.0,0,user,1.0,0
1449617604724840516,0,1449617604702466310,/odom,0.0,0.0,0.0,0.0,0.0,0.0,1.0,0,1449617604702466310,/odom,0.0,0.0,0.0,0.0,0.0,0.0,1.0,0,user,1.0,0
1449617604805683640,0,1449617604802111183,/odom,0.0,0.0,0.0,0.0,0.0,0.0,1.0,0,1449617604802111183,/odom,0.0,0.0,0.0,0.0,0.0,0.0,1.0,0,user,1.0,0
1449617604954819194,0,1449617604927824819,/odom,0.0,0.0,0.0,0.0,0.0,0.0,1.0,0,1449617604927824819,/odom,0.0,0.0,0.0,0.0,0.0,0.0,1.0,0,user,1.0,0
1449617605023649203,0,1449617605020872763,/odom,0.0,0.0,0.0,0.0,0.0,0.0,1.0,0,1449617605020872763,/odom,0.0,0.0,0.0,0.0,0.0,0.0,1.0,0,user,1.0,0
1449617605134278903,0,1449617605116143988,/odom,0.0,0.0,0.0,0.0,0.0,0.0,1.0,0,1449617605116143988,/odom,0.0,0.0,0.0,0.0,0.0,0.0,1.0,0,user,1.0,0
1449617605215308719,0,1449617605205663172,/odom,0.0,0.0,0.0,0.0,0.0,0.0,1.0,0,1449617605205663172,/odom,0.0,0.0,0.0,0.0,0.0,0.0,1.0,0,user,1.0,0
1449617605307695107,0,1449617605303687103,/odom,0.0,0.0,0.0,0.0,0.0,0.0,1.0,0,1449617605303687103,/odom,0.0,0.0,0.0,0.0,0.0,0.0,1.0,0,user,1.0,0
1449617605411882916,0,1449617605403586633,/odom,0.0,0.0,0.0,0.0,0.0,0.0,1.0,0,1449617605403586633,/odom,0.0,0.0,0.0,0.0,0.0,0.0,1.0,0,user,1.0,0
1449617605504328641,0,1449617605502432354,/odom,0.0,0.0,0.0,0.0,0.0,0.0,1.0,0,1449617605502432354,/odom,0.0,0.0,0.0,0.0,0.0,0.0,1.0,0,user,1.0,0
1449617605603339958,0,1449617605601542467,/odom,0.0,0.0,0.0,0.0,0.0,0.0,1.0,0,1449617605601542467,/odom,0.0,0.0,0.0,0.0,0.0,0.0,1.0,0,user,1.0,0
1449617605713457353,0,1449617605706727190,/odom,0.0,0.0,0.0,0.0,0.0,0.0,1.0,0,1449617605706727190,/odom,0.0,0.0,0.0,0.0,0.0,0.0,1.0,0,user,1.0,0
1449617605804170295,0,1449617605802626745,/odom,0.0,0.0,0.0,0.0,0.0,0.0,1.0,0,1449617605802626745,/odom,0.0,0.0,0.0,0.0,0.0,0.0,1.0,0,user,1.0,0
1449617605947168863,0,1449617605928818738,/odom,0.0,0.0,0.0,0.0,0.0,0.0,1.0,0,1449617605928818738,/odom,0.0,0.0,0.0,0.0,0.0,0.0,1.0,0,user,1.0,0
1449617606005946989,0,1449617606003912241,/odom,0.0,0.0,0.0,0.0,0.0,0.0,1.0,0,1449617606003912241,/odom,0.0,0.0,0.0,0.0,0.0,0.0,1.0,0,user,1.0,0
1449617606127880593,0,1449617606121404011,/odom,0.0,0.0,0.0,0.0,0.0,0.0,1.0,0,1449617606121404011,/odom,0.0,0.0,0.0,0.0,0.0,0.0,1.0,0,user,1.0,0
1449617606203907949,0,1449617606202160782,/odom,0.0,0.0,0.0,0.0,0.0,0.0,1.0,0,1449617606202160782,/odom,0.0,0.0,0.0,0.0,0.0,0.0,1.0,0,user,1.0,0
1449617606322105643,0,1449617606304775555,/odom,0.0,0.0,0.0,0.0,0.0,0.0,1.0,0,1449617606304775555,/odom,0.0,0.0,0.0,0.0,0.0,0.0,1.0,0,user,1.0,0
1449617606410835808,0,1449617606408872109,/odom,0.0,0.0,0.0,0.0,0.0,0.0,1.0,0,1449617606408872109,/odom,0.0,0.0,0.0,0.0,0.0,0.0,1.0,0,user,1.0,0
1449617606515088253,0,1449617606504081691,/odom,0.0,0.0,0.0,0.0,0.0,0.0,1.0,0,1449617606504081691,/odom,0.0,0.0,0.0,0.0,0.0,0.0,1.0,0,user,1.0,0
1449617606602847313,0,1449617606601381394,/odom,0.0,0.0,0.0,0.0,0.0,0.0,1.0,0,1449617606601381394,/odom,0.0,0.0,0.0,0.0,0.0,0.0,1.0,0,user,1.0,0
1449617606734219200,0,1449617606724533023,/odom,0.0,0.0,0.0,0.0,0.0,0.0,1.0,0,1449617606724533023,/odom,0.0,0.0,0.0,0.0,0.0,0.0,1.0,0,user,1.0,0
1449617606836756818,0,1449617606832040527,/odom,0.0,0.0,0.0,0.0,0.0,0.0,1.0,0,1449617606832040527,/odom,0.0,0.0,0.0,0.0,0.0,0.0,1.0,0,user,1.0,0
1449617606934142243,0,1449617606920796850,/odom,0.0,0.0,0.0,0.0,0.0,0.0,1.0,0,1449617606920796850,/odom,0.0,0.0,0.0,0.0,0.0,0.0,1.0,0,user,1.0,0
1449617607012697277,0,1449617607002409939,/odom,0.0,0.0,0.0,0.0,0.0,0.0,1.0,0,1449617607002409939,/odom,0.0,0.0,0.0,0.0,0.0,0.0,1.0,0,user,1.0,0
1449617607118162405,0,1449617607113667341,/odom,0.0,0.0,0.0,0.0,0.0,0.0,1.0,0,1449617607113667341,/odom,0.0,0.0,0.0,0.0,0.0,0.0,1.0,0,user,1.0,0
1449617607223862206,0,1449617607219381307,/odom,0.0,0.0,0.0,0.0,0.0,0.0,1.0,0,1449617607219381307,/odom,0.0,0.0,0.0,0.0,0.0,0.0,1.0,0,user,1.0,0
1449617607319841894,0,1449617607305149979,/odom,0.0,0.0,0.0,0.0,0.0,0.0,1.0,0,1449617607305149979,/odom,0.0,0.0,0.0,0.0,0.0,0.0,1.0,0,user,1.0,0
1449617607406020991,0,1449617607403616733,/odom,0.0,0.0,0.0,0.0,0.0,0.0,1.0,0,1449617607403616733,/odom,0.0,0.0,0.0,0.0,0.0,0.0,1.0,0,user,1.0,0
1449617607540620102,0,1449617607525814825,/odom,0.0,0.0,0.0,0.0,0.0,0.0,1.0,0,1449617607525814825,/odom,0.0,0.0,0.0,0.0,0.0,0.0,1.0,0,user,1.0,0
1449617607608612317,0,1449617607603726701,/odom,0.0,0.0,0.0,0.0,0.0,0.0,1.0,0,1449617607603726701,/odom,0.0,0.0,0.0,0.0,0.0,0.0,1.0,0,user,1.0,0
1449617607723949739,0,1449617607707579862,/odom,0.0,0.0,0.0,0.0,0.0,0.0,1.0,0,1449617607707579862,/odom,0.0,0.0,0.0,0.0,0.0,0.0,1.0,0,user,1.0,0
1449617607808539896,0,1449617607802499124,/odom,0.0,0.0,0.0,0.0,0.0,0.0,1.0,0,1449617607802499124,/odom,0.0,0.0,0.0,0.0,0.0,0.0,1.0,0,user,1.0,0
1449617607908211929,0,1449617607904531164,/odom,0.0,0.0,0.0,0.0,0.0,0.0,1.0,0,1449617607904531164,/odom,0.0,0.0,0.0,0.0,0.0,0.0,1.0,0,user,1.0,0
1449617608009747645,0,1449617608004144247,/odom,0.0,0.0,0.0,0.0,0.0,0.0,1.0,0,1449617608004144247,/odom,0.0,0.0,0.0,0.0,0.0,0.0,1.0,0,user,1.0,0
1449617608109525513,0,1449617608103595762,/odom,0.0,0.0,0.0,0.0,0.0,0.0,1.0,0,1449617608103595762,/odom,0.0,0.0,0.0,0.0,0.0,0.0,1.0,0,user,1.0,0
1449617608207076712,0,1449617608202949447,/odom,0.0,0.0,0.0,0.0,0.0,0.0,1.0,0,1449617608202949447,/odom,0.0,0.0,0.0,0.0,0.0,0.0,1.0,0,user,1.0,0
1449617608310750539,0,1449617608304222439,/odom,0.0,0.0,0.0,0.0,0.0,0.0,1.0,0,1449617608304222439,/odom,0.0,0.0,0.0,0.0,0.0,0.0,1.0,0,user,1.0,0
1449617608403038113,0,1449617608401425265,/odom,0.0,0.0,0.0,0.0,0.0,0.0,1.0,0,1449617608401425265,/odom,0.0,0.0,0.0,0.0,0.0,0.0,1.0,0,user,1.0,0
1449617608507580353,0,1449617608502991297,/odom,0.0,0.0,0.0,0.0,0.0,0.0,1.0,0,1449617608502991297,/odom,0.0,0.0,0.0,0.0,0.0,0.0,1.0,0,user,1.0,0
1449617608604335744,0,1449617608602368181,/odom,0.0,0.0,0.0,0.0,0.0,0.0,1.0,0,1449617608602368181,/odom,0.0,0.0,0.0,0.0,0.0,0.0,1.0,0,user,1.0,0
1449617608729512181,0,1449617608720230551,/odom,0.0,0.0,0.0,0.0,0.0,0.0,1.0,0,1449617608720230551,/odom,0.0,0.0,0.0,0.0,0.0,0.0,1.0,0,user,1.0,0
1449617608809434088,0,1449617608802970228,/odom,0.0,0.0,0.0,0.0,0.0,0.0,1.0,0,1449617608802970228,/odom,0.0,0.0,0.0,0.0,0.0,0.0,1.0,0,user,1.0,0
1449617608906029755,0,1449617608903297889,/odom,0.0,0.0,0.0,0.0,0.0,0.0,1.0,0,1449617608903297889,/odom,0.0,0.0,0.0,0.0,0.0,0.0,1.0,0,user,1.0,0
1449617609023822748,0,1449617609002951750,/odom,0.0,0.0,0.0,0.0,0.0,0.0,1.0,0,1449617609002951750,/odom,0.0,0.0,0.0,0.0,0.0,0.0,1.0,0,user,1.0,0
1449617609107553371,0,1449617609103154231,/odom,0.0,0.0,0.0,0.0,0.0,0.0,1.0,0,1449617609103154231,/odom,0.0,0.0,0.0,0.0,0.0,0.0,1.0,0,user,1.0,0
1449617609204011939,0,1449617609201839095,/odom,0.0,0.0,0.0,0.0,0.0,0.0,1.0,0,1449617609201839095,/odom,0.0,0.0,0.0,0.0,0.0,0.0,1.0,0,user,1.0,0
1449617609323364082,0,1449617609304394788,/odom,0.0,0.0,0.0,0.0,0.0,0.0,1.0,0,1449617609304394788,/odom,0.0,0.0,0.0,0.0,0.0,0.0,1.0,0,user,1.0,0
1449617609413178238,0,1449617609402237523,/odom,0.0,0.0,0.0,0.0,0.0,0.0,1.0,0,1449617609402237523,/odom,0.0,0.0,0.0,0.0,0.0,0.0,1.0,0,user,1.0,0
1449617609576162236,0,1449617609541634302,/odom,0.0,0.0,0.0,0.0,0.0,0.0,1.0,0,1449617609541634302,/odom,0.0,0.0,0.0,0.0,0.0,0.0,1.0,0,user,1.0,0
1449617609609852823,0,1449617609603460692,/odom,0.0,0.0,0.0,0.0,0.0,0.0,1.0,0,1449617609603460692,/odom,0.0,0.0,0.0,0.0,0.0,0.0,1.0,0,user,1.0,0
1449617609727319049,0,1449617609710610665,/odom,0.0,0.0,0.0,0.0,0.0,0.0,1.0,0,1449617609710610665,/odom,0.0,0.0,0.0,0.0,0.0,0.0,1.0,0,user,1.0,0
1449617609820941459,0,1449617609804039588,/odom,0.0,0.0,0.0,0.0,0.0,0.0,1.0,0,1449617609804039588,/odom,0.0,0.0,0.0,0.0,0.0,0.0,1.0,0,user,1.0,0
1449617609905725664,0,1449617609903018214,/odom,0.0,0.0,0.0,0.0,0.0,0.0,1.0,0,1449617609903018214,/odom,0.0,0.0,0.0,0.0,0.0,0.0,1.0,0,user,1.0,0
1449617610007083759,0,1449617610004831281,/odom,0.0,0.0,0.0,0.0,0.0,0.0,1.0,0,1449617610004831281,/odom,0.0,0.0,0.0,0.0,0.0,0.0,1.0,0,user,1.0,0
1449617610144410940,0,1449617610111111838,/odom,0.0,0.0,0.0,0.0,0.0,0.0,1.0,0,1449617610111111838,/odom,0.0,0.0,0.0,0.0,0.0,0.0,1.0,0,user,1.0,0
1449617610203629842,0,1449617610201979475,/odom,0.0,0.0,0.0,0.0,0.0,0.0,1.0,0,1449617610201979475,/odom,0.0,0.0,0.0,0.0,0.0,0.0,1.0,0,user,1.0,0
1449617610311221601,0,1449617610302456748,/odom,0.0,0.0,0.0,0.0,0.0,0.0,1.0,0,1449617610302456748,/odom,0.0,0.0,0.0,0.0,0.0,0.0,1.0,0,user,1.0,0
1449617610411626206,0,1449617610404343113,/odom,0.0,0.0,0.0,0.0,0.0,0.0,1.0,0,1449617610404343113,/odom,0.0,0.0,0.0,0.0,0.0,0.0,1.0,0,user,1.0,0
1449617610528251913,0,1449617610503316736,/odom,0.0,0.0,0.0,0.0,0.0,0.0,1.0,0,1449617610503316736,/odom,0.0,0.0,0.0,0.0,0.0,0.0,1.0,0,user,1.0,0
1449617610642551371,0,1449617610612403732,/odom,0.0,0.0,0.0,0.0,0.0,0.0,1.0,0,1449617610612403732,/odom,0.0,0.0,0.0,0.0,0.0,0.0,1.0,0,user,1.0,0
1449617610706360126,0,1449617610703746150,/odom,0.0,0.0,0.0,0.0,0.0,0.0,1.0,0,1449617610703746150,/odom,0.0,0.0,0.0,0.0,0.0,0.0,1.0,0,user,1.0,0
1449617610811233912,0,1449617610805640862,/odom,0.0,0.0,0.0,0.0,0.0,0.0,1.0,0,1449617610805640862,/odom,0.0,0.0,0.0,0.0,0.0,0.0,1.0,0,user,1.0,0
1449617610916242199,0,1449617610905833062,/odom,0.0,0.0,0.0,0.0,0.0,0.0,1.0,0,1449617610905833062,/odom,0.0,0.0,0.0,0.0,0.0,0.0,1.0,0,user,1.0,0
1449617611028313709,0,1449617611019035538,/odom,0.0,0.0,0.0,0.0,0.0,0.0,1.0,0,1449617611019035538,/odom,0.0,0.0,0.0,0.0,0.0,0.0,1.0,0,user,1.0,0
1449617611151274048,0,1449617611113733388,/odom,0.0,0.0,0.0,0.0,0.0,0.0,1.0,0,1449617611113733388,/odom,0.0,0.0,0.0,0.0,0.0,0.0,1.0,0,user,1.0,0
1449617611234254942,0,1449617611219899083,/odom,0.0,0.0,0.0,0.0,0.0,0.0,1.0,0,1449617611219899083,/odom,0.0,0.0,0.0,0.0,0.0,0.0,1.0,0,user,1.0,0
1449617611321766779,0,1449617611305688489,/odom,0.0,0.0,0.0,0.0,0.0,0.0,1.0,0,1449617611305688489,/odom,0.0,0.0,0.0,0.0,0.0,0.0,1.0,0,user,1.0,0
1449617611425867434,0,1449617611404290420,/odom,0.0,0.0,0.0,0.0,0.0,0.0,1.0,0,1449617611404290420,/odom,0.0,0.0,0.0,0.0,0.0,0.0,1.0,0,user,1.0,0
1449617611517825285,0,1449617611513463936,/odom,0.0,0.0,0.0,0.0,0.0,0.0,1.0,0,1449617611513463936,/odom,0.0,0.0,0.0,0.0,0.0,0.0,1.0,0,user,1.0,0
1449617611605740930,0,1449617611602203391,/odom,0.0,0.0,0.0,0.0,0.0,0.0,1.0,0,1449617611602203391,/odom,0.0,0.0,0.0,0.0,0.0,0.0,1.0,0,user,1.0,0
1449617611705962757,0,1449617611703072910,/odom,0.0,0.0,0.0,0.0,0.0,0.0,1.0,0,1449617611703072910,/odom,0.0,0.0,0.0,0.0,0.0,0.0,1.0,0,user,1.0,0
1449617611802998121,0,1449617611801362955,/odom,0.0,0.0,0.0,0.0,0.0,0.0,1.0,0,1449617611801362955,/odom,0.0,0.0,0.0,0.0,0.0,0.0,1.0,0,user,1.0,0
1449617611905704843,0,1449617611902775658,/odom,0.0,0.0,0.0,0.0,0.0,0.0,1.0,0,1449617611902775658,/odom,0.0,0.0,0.0,0.0,0.0,0.0,1.0,0,user,1.0,0
1449617612007396927,0,1449617612003003286,/odom,0.0,0.0,0.0,0.0,0.0,0.0,1.0,0,1449617612003003286,/odom,0.0,0.0,0.0,0.0,0.0,0.0,1.0,0,user,1.0,0
1449617612122149689,0,1449617612106224178,/odom,0.0,0.0,0.0,0.0,0.0,0.0,1.0,0,1449617612106224178,/odom,0.0,0.0,0.0,0.0,0.0,0.0,1.0,0,user,1.0,0
1449617612206061903,0,1449617612203038356,/odom,0.0,0.0,0.0,0.0,0.0,0.0,1.0,0,1449617612203038356,/odom,0.0,0.0,0.0,0.0,0.0,0.0,1.0,0,user,1.0,0
1449617612331634725,0,1449617612305077539,/odom,0.0,0.0,0.0,0.0,0.0,0.0,1.0,0,1449617612305077539,/odom,0.0,0.0,0.0,0.0,0.0,0.0,1.0,0,user,1.0,0
1449617612419089015,0,1449617612403763488,/odom,0.0,0.0,0.0,0.0,0.0,0.0,1.0,0,1449617612403763488,/odom,0.0,0.0,0.0,0.0,0.0,0.0,1.0,0,user,1.0,0
1449617612509455339,0,1449617612505220195,/odom,0.0,0.0,0.0,0.0,0.0,0.0,1.0,0,1449617612505220195,/odom,0.0,0.0,0.0,0.0,0.0,0.0,1.0,0,user,1.0,0
1449617612634025567,0,1449617612618086902,/odom,0.0,0.0,0.0,0.0,0.0,0.0,1.0,0,1449617612618086902,/odom,0.0,0.0,0.0,0.0,0.0,0.0,1.0,0,user,1.0,0
1449617612725840361,0,1449617612718897047,/odom,0.0,0.0,0.0,0.0,0.0,0.0,1.0,0,1449617612718897047,/odom,0.0,0.0,0.0,0.0,0.0,0.0,1.0,0,user,1.0,0
1449617612814335635,0,1449617612812631187,/odom,0.0,0.0,0.0,0.0,0.0,0.0,1.0,0,1449617612812631187,/odom,0.0,0.0,0.0,0.0,0.0,0.0,1.0,0,user,1.0,0
1449617612908619835,0,1449617612904089334,/odom,0.0,0.0,0.0,0.0,0.0,0.0,1.0,0,1449617612904089334,/odom,0.0,0.0,0.0,0.0,0.0,0.0,1.0,0,user,1.0,0
1449617613016579579,0,1449617613007529289,/odom,0.0,0.0,0.0,0.0,0.0,0.0,1.0,0,1449617613007529289,/odom,0.0,0.0,0.0,0.0,0.0,0.0,1.0,0,user,1.0,0
1449617613111445846,0,1449617613103769026,/odom,0.0,0.0,0.0,0.0,0.0,0.0,1.0,0,1449617613103769026,/odom,0.0,0.0,0.0,0.0,0.0,0.0,1.0,0,user,1.0,0
1449617613210832931,0,1449617613206920492,/odom,0.0,0.0,0.0,0.0,0.0,0.0,1.0,0,1449617613206920492,/odom,0.0,0.0,0.0,0.0,0.0,0.0,1.0,0,user,1.0,0
1449617613309122946,0,1449617613303520861,/odom,0.0,0.0,0.0,0.0,0.0,0.0,1.0,0,1449617613303520861,/odom,0.0,0.0,0.0,0.0,0.0,0.0,1.0,0,user,1.0,0
1449617613420641586,0,1449617613403703971,/odom,0.0,0.0,0.0,0.0,0.0,0.0,1.0,0,1449617613403703971,/odom,0.0,0.0,0.0,0.0,0.0,0.0,1.0,0,user,1.0,0
1449617613511604610,0,1449617613505125450,/odom,0.0,0.0,0.0,0.0,0.0,0.0,1.0,0,1449617613505125450,/odom,0.0,0.0,0.0,0.0,0.0,0.0,1.0,0,user,1.0,0
1449617613616940875,0,1449617613602926208,/odom,0.0,0.0,0.0,0.0,0.0,0.0,1.0,0,1449617613602926208,/odom,0.0,0.0,0.0,0.0,0.0,0.0,1.0,0,user,1.0,0
1449617613711164391,0,1449617613704357485,/odom,0.0,0.0,0.0,0.0,0.0,0.0,1.0,0,1449617613704357485,/odom,0.0,0.0,0.0,0.0,0.0,0.0,1.0,0,user,1.0,0
1449617613806483645,0,1449617613804118501,/odom,0.0,0.0,0.0,0.0,0.0,0.0,1.0,0,1449617613804118501,/odom,0.0,0.0,0.0,0.0,0.0,0.0,1.0,0,user,1.0,0
1449617613912552179,0,1449617613902554973,/odom,0.0,0.0,0.0,0.0,0.0,0.0,1.0,0,1449617613902554973,/odom,0.0,0.0,0.0,0.0,0.0,0.0,1.0,0,user,1.0,0
1449617614031590440,0,1449617614014497382,/odom,0.0,0.0,0.0,0.0,0.0,0.0,1.0,0,1449617614014497382,/odom,0.0,0.0,0.0,0.0,0.0,0.0,1.0,0,user,1.0,0
1449617614109128801,0,1449617614105201836,/odom,0.0,0.0,0.0,0.0,0.0,0.0,1.0,0,1449617614105201836,/odom,0.0,0.0,0.0,0.0,0.0,0.0,1.0,0,user,1.0,0
1449617614214003294,0,1449617614211200047,/odom,0.0,0.0,0.0,0.0,0.0,0.0,1.0,0,1449617614211200047,/odom,0.0,0.0,0.0,0.0,0.0,0.0,1.0,0,user,1.0,0
1449617614315572696,0,1449617614307661807,/odom,0.0,0.0,0.0,0.0,0.0,0.0,1.0,0,1449617614307661807,/odom,0.0,0.0,0.0,0.0,0.0,0.0,1.0,0,user,1.0,0
1449617614405863436,0,1449617614402481121,/odom,0.0,0.0,0.0,0.0,0.0,0.0,1.0,0,1449617614402481121,/odom,0.0,0.0,0.0,0.0,0.0,0.0,1.0,0,user,1.0,0
1449617614508332967,0,1449617614504271569,/odom,0.0,0.0,0.0,0.0,0.0,0.0,1.0,0,1449617614504271569,/odom,0.0,0.0,0.0,0.0,0.0,0.0,1.0,0,user,1.0,0
1449617614617714096,0,1449617614603859375,/odom,0.0,0.0,0.0,0.0,0.0,0.0,1.0,0,1449617614603859375,/odom,0.0,0.0,0.0,0.0,0.0,0.0,1.0,0,user,1.0,0
1449617614712030826,0,1449617614704275969,/odom,0.0,0.0,0.0,0.0,0.0,0.0,1.0,0,1449617614704275969,/odom,0.0,0.0,0.0,0.0,0.0,0.0,1.0,0,user,1.0,0
1449617614804689900,0,1449617614802908129,/odom,0.0,0.0,0.0,0.0,0.0,0.0,1.0,0,1449617614802908129,/odom,0.0,0.0,0.0,0.0,0.0,0.0,1.0,0,user,1.0,0
1449617614914071769,0,1449617614904377837,/odom,0.0,0.0,0.0,0.0,0.0,0.0,1.0,0,1449617614904377837,/odom,0.0,0.0,0.0,0.0,0.0,0.0,1.0,0,user,1.0,0
1449617615006997421,0,1449617615004878391,/odom,0.0,0.0,0.0,0.0,0.0,0.0,1.0,0,1449617615004878391,/odom,0.0,0.0,0.0,0.0,0.0,0.0,1.0,0,user,1.0,0
1449617615122167403,0,1449617615104280787,/odom,0.0,0.0,0.0,0.0,0.0,0.0,1.0,0,1449617615104280787,/odom,0.0,0.0,0.0,0.0,0.0,0.0,1.0,0,user,1.0,0
1449617615206652600,0,1449617615203450917,/odom,0.0,0.0,0.0,0.0,0.0,0.0,1.0,0,1449617615203450917,/odom,0.0,0.0,0.0,0.0,0.0,0.0,1.0,0,user,1.0,0
1449617615307028936,0,1449617615304213256,/odom,0.0,0.0,0.0,0.0,0.0,0.0,1.0,0,1449617615304213256,/odom,0.0,0.0,0.0,0.0,0.0,0.0,1.0,0,user,1.0,0
1449617615405514067,0,1449617615403415539,/odom,0.0,0.0,0.0,0.0,0.0,0.0,1.0,0,1449617615403415539,/odom,0.0,0.0,0.0,0.0,0.0,0.0,1.0,0,user,1.0,0
1449617615508709839,0,1449617615503491043,/odom,0.0,0.0,0.0,0.0,0.0,0.0,1.0,0,1449617615503491043,/odom,0.0,0.0,0.0,0.0,0.0,0.0,1.0,0,user,1.0,0
1449617615618698114,0,1449617615615180635,/odom,0.0,0.0,0.0,0.0,0.0,0.0,1.0,0,1449617615615180635,/odom,0.0,0.0,0.0,0.0,0.0,0.0,1.0,0,user,1.0,0
1449617615705830413,0,1449617615704193649,/odom,0.0,0.0,0.0,0.0,0.0,0.0,1.0,0,1449617615704193649,/odom,0.0,0.0,0.0,0.0,0.0,0.0,1.0,0,user,1.0,0
1449617615833353261,0,1449617615814298843,/odom,0.0,0.0,0.0,0.0,0.0,0.0,1.0,0,1449617615814298843,/odom,0.0,0.0,0.0,0.0,0.0,0.0,1.0,0,user,1.0,0
1449617615907892463,0,1449617615905108077,/odom,0.0,0.0,0.0,0.0,0.0,0.0,1.0,0,1449617615905108077,/odom,0.0,0.0,0.0,0.0,0.0,0.0,1.0,0,user,1.0,0
1449617616014111827,0,1449617616004317192,/odom,0.0,0.0,0.0,0.0,0.0,0.0,1.0,0,1449617616004317192,/odom,0.0,0.0,0.0,0.0,0.0,0.0,1.0,0,user,1.0,0
1449617616111430326,0,1449617616104435413,/odom,0.0,0.0,0.0,0.0,0.0,0.0,1.0,0,1449617616104435413,/odom,0.0,0.0,0.0,0.0,0.0,0.0,1.0,0,user,1.0,0
1449617616209150630,0,1449617616206600255,/odom,0.0,0.0,0.0,0.0,0.0,0.0,1.0,0,1449617616206600255,/odom,0.0,0.0,0.0,0.0,0.0,0.0,1.0,0,user,1.0,0
1449617616310941378,0,1449617616308107964,/odom,0.0,0.0,0.0,0.0,0.0,0.0,1.0,0,1449617616308107964,/odom,0.0,0.0,0.0,0.0,0.0,0.0,1.0,0,user,1.0,0
1449617616408547367,0,1449617616406576796,/odom,0.0,0.0,0.0,0.0,0.0,0.0,1.0,0,1449617616406576796,/odom,0.0,0.0,0.0,0.0,0.0,0.0,1.0,0,user,1.0,0
1449617616516765657,0,1449617616504478514,/odom,0.0,0.0,0.0,0.0,0.0,0.0,1.0,0,1449617616504478514,/odom,0.0,0.0,0.0,0.0,0.0,0.0,1.0,0,user,1.0,0
1449617616606450928,0,1449617616604224355,/odom,0.0,0.0,0.0,0.0,0.0,0.0,1.0,0,1449617616604224355,/odom,0.0,0.0,0.0,0.0,0.0,0.0,1.0,0,user,1.0,0
1449617616723726632,0,1449617616703983029,/odom,0.0,0.0,0.0,0.0,0.0,0.0,1.0,0,1449617616703983029,/odom,0.0,0.0,0.0,0.0,0.0,0.0,1.0,0,user,1.0,0
1449617616805888250,0,1449617616803637416,/odom,0.0,0.0,0.0,0.0,0.0,0.0,1.0,0,1449617616803637416,/odom,0.0,0.0,0.0,0.0,0.0,0.0,1.0,0,user,1.0,0
1449617616917295158,0,1449617616904078459,/odom,0.0,0.0,0.0,0.0,0.0,0.0,1.0,0,1449617616904078459,/odom,0.0,0.0,0.0,0.0,0.0,0.0,1.0,0,user,1.0,0
1449617617008136399,0,1449617617005761575,/odom,0.0,0.0,0.0,0.0,0.0,0.0,1.0,0,1449617617005761575,/odom,0.0,0.0,0.0,0.0,0.0,0.0,1.0,0,user,1.0,0
1449617617119282822,0,1449617617106194721,/odom,0.0,0.0,0.0,0.0,0.0,0.0,1.0,0,1449617617106194721,/odom,0.0,0.0,0.0,0.0,0.0,0.0,1.0,0,user,1.0,0
1449617617204862185,0,1449617617202349774,/odom,0.0,0.0,0.0,0.0,0.0,0.0,1.0,0,1449617617202349774,/odom,0.0,0.0,0.0,0.0,0.0,0.0,1.0,0,user,1.0,0
1449617617319722676,0,1449617617313758523,/odom,0.0,0.0,0.0,0.0,0.0,0.0,1.0,0,1449617617313758523,/odom,0.0,0.0,0.0,0.0,0.0,0.0,1.0,0,user,1.0,0
1449617617422185116,0,1449617617406417275,/odom,0.0,0.0,0.0,0.0,0.0,0.0,1.0,0,1449617617406417275,/odom,0.0,0.0,0.0,0.0,0.0,0.0,1.0,0,user,1.0,0
1449617617515980320,0,1449617617509779928,/odom,0.0,0.0,0.0,0.0,0.0,0.0,1.0,0,1449617617509779928,/odom,0.0,0.0,0.0,0.0,0.0,0.0,1.0,0,user,1.0,0
1449617617607661315,0,1449617617603811105,/odom,0.0,0.0,0.0,0.0,0.0,0.0,1.0,0,1449617617603811105,/odom,0.0,0.0,0.0,0.0,0.0,0.0,1.0,0,user,1.0,0
1449617617719664726,0,1449617617704509457,/odom,0.0,0.0,0.0,0.0,0.0,0.0,1.0,0,1449617617704509457,/odom,0.0,0.0,0.0,0.0,0.0,0.0,1.0,0,user,1.0,0
1449617617822172105,0,1449617617805739051,/odom,0.0,0.0,0.0,0.0,0.0,0.0,1.0,0,1449617617805739051,/odom,0.0,0.0,0.0,0.0,0.0,0.0,1.0,0,user,1.0,0
1449617617920301773,0,1449617617903697658,/odom,0.0,0.0,0.0,0.0,0.0,0.0,1.0,0,1449617617903697658,/odom,0.0,0.0,0.0,0.0,0.0,0.0,1.0,0,user,1.0,0
1449617618013803969,0,1449617618010440590,/odom,0.0,0.0,0.0,0.0,0.0,0.0,1.0,0,1449617618010440590,/odom,0.0,0.0,0.0,0.0,0.0,0.0,1.0,0,user,1.0,0
1449617618106196368,0,1449617618103772525,/odom,0.0,0.0,0.0,0.0,0.0,0.0,1.0,0,1449617618103772525,/odom,0.0,0.0,0.0,0.0,0.0,0.0,1.0,0,user,1.0,0
1449617618212021952,0,1449617618202587661,/odom,0.0,0.0,0.0,0.0,0.0,0.0,1.0,0,1449617618202587661,/odom,0.0,0.0,0.0,0.0,0.0,0.0,1.0,0,user,1.0,0
1449617618338349377,0,1449617618329079309,/odom,0.0,0.0,0.0,0.0,0.0,0.0,1.0,0,1449617618329079309,/odom,0.0,0.0,0.0,0.0,0.0,0.0,1.0,0,user,1.0,0
1449617618405306452,0,1449617618402811089,/odom,0.0,0.0,0.0,0.0,0.0,0.0,1.0,0,1449617618402811089,/odom,0.0,0.0,0.0,0.0,0.0,0.0,1.0,0,user,1.0,0
1449617618516191443,0,1449617618504735964,/odom,0.0,0.0,0.0,0.0,0.0,0.0,1.0,0,1449617618504735964,/odom,0.0,0.0,0.0,0.0,0.0,0.0,1.0,0,user,1.0,0
1449617618609891705,0,1449617618604619190,/odom,0.0,0.0,0.0,0.0,0.0,0.0,1.0,0,1449617618604619190,/odom,0.0,0.0,0.0,0.0,0.0,0.0,1.0,0,user,1.0,0
1449617618712811712,0,1449617618710329876,/odom,0.0,0.0,0.0,0.0,0.0,0.0,1.0,0,1449617618710329876,/odom,0.0,0.0,0.0,0.0,0.0,0.0,1.0,0,user,1.0,0
1449617618823650170,0,1449617618809250328,/odom,0.0,0.0,0.0,0.0,0.0,0.0,1.0,0,1449617618809250328,/odom,0.0,0.0,0.0,0.0,0.0,0.0,1.0,0,user,1.0,0
1449617618908425820,0,1449617618904466178,/odom,0.00362622985169,0.0,0.0,0.0,0.0,0.0,1.0,0,1449617618904466178,/odom,0.00362622985169,0.0,0.0,0.0,0.0,0.0,1.0,0,user,1.0,0
1449617619005749248,0,1449617619002203980,/odom,0.0106040958947,0.0,0.0,0.0,0.0,0.0,1.0,0,1449617619002203980,/odom,0.0106040958947,0.0,0.0,0.0,0.0,0.0,1.0,0,user,1.0,0
1449617619108521101,0,1449617619104602922,/odom,0.0176206769688,0.0,0.0,0.0,0.0,0.0,1.0,0,1449617619104602922,/odom,0.0176206769688,0.0,0.0,0.0,0.0,0.0,1.0,0,user,1.0,0
1449617619212785741,0,1449617619209225927,/odom,0.0336940550588,0.0,0.0,0.0,0.0,0.0,1.0,0,1449617619209225927,/odom,0.0336940550588,0.0,0.0,0.0,0.0,0.0,1.0,0,user,1.0,0
1449617619306950369,0,1449617619303968007,/odom,0.0591563186403,0.0,0.0,0.0,0.0,0.0,1.0,0,1449617619303968007,/odom,0.0591563186403,0.0,0.0,0.0,0.0,0.0,1.0,0,user,1.0,0
1449617619406177373,0,1449617619403491538,/odom,0.0913401479374,0.0,0.0,0.0,0.0,0.0,1.0,0,1449617619403491538,/odom,0.0913401479374,0.0,0.0,0.0,0.0,0.0,1.0,0,user,1.0,0
1449617619514445054,0,1449617619505350040,/odom,0.210067623351,0.0,0.0,0.0,0.0,0.0,1.0,0,1449617619505350040,/odom,0.210067623351,0.0,0.0,0.0,0.0,0.0,1.0,0,user,1.0,0
1449617619606245858,0,1449617619604680272,/odom,0.282553977587,0.0,0.0,0.0,0.0,0.0,1.0,0,1449617619604680272,/odom,0.282553977587,0.0,0.0,0.0,0.0,0.0,1.0,0,user,1.0,0
1449617619708454465,0,1449617619705241625,/odom,0.18991637006,0.0,0.0,0.0,0.0,0.0,1.0,0,1449617619705241625,/odom,0.18991637006,0.0,0.0,0.0,0.0,0.0,1.0,0,user,1.0,0
1449617619816062695,0,1449617619807916948,/odom,0.092449967361,0.0,0.0,0.0,0.0,0.0,1.0,0,1449617619807916948,/odom,0.092449967361,0.0,0.0,0.0,0.0,0.0,1.0,0,user,1.0,0
1449617619909023611,0,1449617619905572529,/odom,0.176255959492,0.0,0.0,0.0,0.0,0.0,1.0,0,1449617619905572529,/odom,0.176255959492,0.0,0.0,0.0,0.0,0.0,1.0,0,user,1.0,0
1449617620022889128,0,1449617620007651366,/odom,0.295084898413,0.0,0.0,0.0,0.0,0.0,1.0,0,1449617620007651366,/odom,0.295084898413,0.0,0.0,0.0,0.0,0.0,1.0,0,user,1.0,0
1449617620111690461,0,1449617620105766442,/odom,0.331709586804,0.0,0.0,0.0,0.0,0.0,1.0,0,1449617620105766442,/odom,0.331709586804,0.0,0.0,0.0,0.0,0.0,1.0,0,user,1.0,0
1449617620240106782,0,1449617620208626425,/odom,0.37121052869,0.0,0.0,0.0,0.0,0.0,1.0,0,1449617620208626425,/odom,0.37121052869,0.0,0.0,0.0,0.0,0.0,1.0,0,user,1.0,0
1449617620313317652,0,1449617620304329248,/odom,0.370454939279,0.0,0.0,0.0,0.0,0.0,1.0,0,1449617620304329248,/odom,0.370454939279,0.0,0.0,0.0,0.0,0.0,1.0,0,user,1.0,0
1449617620434591554,0,1449617620421487287,/odom,0.372578466715,0.00393757396267,0.0,0.0,0.0,0.0052839997518,0.999986039576,0,1449617620421487287,/odom,0.372578466715,0.00393757396267,0.0,0.0,0.0,0.0052839997518,0.999986039576,0,user,1.0,0
1449617620512403118,0,1449617620503993019,/odom,0.549503539475,0.00768589786272,0.0,0.0,0.0,0.00843361848844,0.999964436407,0,1449617620503993019,/odom,0.549503539475,0.00768589786272,0.0,0.0,0.0,0.00843361848844,0.999964436407,0,user,1.0,0
1449617620625888408,0,1449617620604163641,/odom,0.62002492545,0.00951904685262,0.0,0.0,0.0,0.00968914143288,0.999953059167,0,1449617620604163641,/odom,0.62002492545,0.00951904685262,0.0,0.0,0.0,0.00968914143288,0.999953059167,0,user,1.0,0
1449617620710083279,0,1449617620705727556,/odom,0.534702536387,0.01420828446,0.0,0.0,0.0,0.0156517783924,0.999877503414,0,1449617620705727556,/odom,0.534702536387,0.01420828446,0.0,0.0,0.0,0.0156517783924,0.999877503414,0,user,1.0,0
1449617620809328271,0,1449617620806588066,/odom,0.427712314376,0.00726333637803,0.0,0.0,0.0,0.0112161845991,0.999937096623,0,1449617620806588066,/odom,0.427712314376,0.00726333637803,0.0,0.0,0.0,0.0112161845991,0.999937096623,0,user,1.0,0
1449617620925828056,0,1449617620920407780,/odom,0.31403124767,0.00544716999502,0.0,0.0,0.0,0.0117005931288,0.999931545717,0,1449617620920407780,/odom,0.31403124767,0.00544716999502,0.0,0.0,0.0,0.0117005931288,0.999931545717,0,user,1.0,0
1449617621031795792,0,1449617621027184947,/odom,0.312002427546,0.00859016676241,0.0,0.0,0.0,0.0171457606478,0.999853000641,0,1449617621027184947,/odom,0.312002427546,0.00859016676241,0.0,0.0,0.0,0.0171457606478,0.999853000641,0,user,1.0,0
1449617621107183967,0,1449617621103082263,/odom,0.372547162115,0.00660059058171,0.0,0.0,0.0,0.0120520966518,0.999927370846,0,1449617621103082263,/odom,0.372547162115,0.00660059058171,0.0,0.0,0.0,0.0120520966518,0.999927370846,0,user,1.0,0
1449617621215644609,0,1449617621206163474,/odom,0.37617544782,0.00608252613295,0.0,0.0,0.0,0.0105510144937,0.999944336497,0,1449617621206163474,/odom,0.37617544782,0.00608252613295,0.0,0.0,0.0,0.0105510144937,0.999944336497,0,user,1.0,0
1449617621321856242,0,1449617621317234172,/odom,0.404785462187,0.00574266312431,0.0,0.0,0.0,0.00860632684981,0.999962964883,0,1449617621317234172,/odom,0.404785462187,0.00574266312431,0.0,0.0,0.0,0.00860632684981,0.999962964883,0,user,1.0,0
1449617621429306749,0,1449617621415058644,/odom,0.432748758706,0.00508312591413,0.0,0.0,0.0,0.00622646311481,0.999980615391,0,1449617621415058644,/odom,0.432748758706,0.00508312591413,0.0,0.0,0.0,0.00622646311481,0.999980615391,0,user,1.0,0
1449617621540475781,0,1449617621503648277,/odom,0.463344730151,0.00534385571291,0.0,0.0,0.0,0.00602933405925,0.9999818234,0,1449617621503648277,/odom,0.463344730151,0.00534385571291,0.0,0.0,0.0,0.00602933405925,0.9999818234,0,user,1.0,0
1449617621614335488,0,1449617621606348887,/odom,0.582781250245,0.00497572853458,0.0,0.0,0.0,0.00318595639568,0.999994924828,0,1449617621606348887,/odom,0.582781250245,0.00497572853458,0.0,0.0,0.0,0.00318595639568,0.999994924828,0,user,1.0,0
1449617621735983083,0,1449617621730580462,/odom,0.653063992315,-0.00215632136362,0.0,0.0,0.0,-0.00370251671469,0.999993145661,0,1449617621730580462,/odom,0.653063992315,-0.00215632136362,0.0,0.0,0.0,-0.00370251671469,0.999993145661,0,user,1.0,0
1449617621819232258,0,1449617621802473611,/odom,0.732130651446,-0.00375038086816,0.0,0.0,0.0,-0.00544806279888,0.999985159196,0,1449617621802473611,/odom,0.732130651446,-0.00375038086816,0.0,0.0,0.0,-0.00544806279888,0.999985159196,0,user,1.0,0
1449617621923274760,0,1449617621902651752,/odom,0.763677687592,-0.00438824342703,0.0,0.0,0.0,-0.0060621225046,0.999981625167,0,1449617621902651752,/odom,0.763677687592,-0.00438824342703,0.0,0.0,0.0,-0.0060621225046,0.999981625167,0,user,1.0,0
1449617622033299606,0,1449617622004411306,/odom,0.781820551925,-0.00470683487,0.0,0.0,0.0,-0.00635700313329,0.999979794051,0,1449617622004411306,/odom,0.781820551925,-0.00470683487,0.0,0.0,0.0,-0.00635700313329,0.999979794051,0,user,1.0,0
1449617622106933111,0,1449617622103155644,/odom,0.803935736012,-0.0111854153997,0.0,0.0,0.0,-0.00976183954725,0.999952352109,0,1449617622103155644,/odom,0.803935736012,-0.0111854153997,0.0,0.0,0.0,-0.00976183954725,0.999952352109,0,user,1.0,0
1449617622210080046,0,1449617622205279067,/odom,0.821603442322,-0.0175888306246,0.0,0.0,0.0,-0.0128375874934,0.999917594778,0,1449617622205279067,/odom,0.821603442322,-0.0175888306246,0.0,0.0,0.0,-0.0128375874934,0.999917594778,0,user,1.0,0
1449617622305945757,0,1449617622303120070,/odom,0.837310336262,-0.0196853983668,0.0,0.0,0.0,-0.0149611079166,0.999888076362,0,1449617622303120070,/odom,0.837310336262,-0.0196853983668,0.0,0.0,0.0,-0.0149611079166,0.999888076362,0,user,1.0,0
1449617622437798878,0,1449617622419969632,/odom,0.860674146522,-0.0369300034797,0.0,0.0,0.0,-0.0260001381605,0.999661939265,0,1449617622419969632,/odom,0.860674146522,-0.0369300034797,0.0,0.0,0.0,-0.0260001381605,0.999661939265,0,user,1.0,0
1449617622534195712,0,1449617622514305359,/odom,0.888210120932,-0.0471726802487,0.0,0.0,0.0,-0.0322925575535,0.999478459361,0,1449617622514305359,/odom,0.888210120932,-0.0471726802487,0.0,0.0,0.0,-0.0322925575535,0.999478459361,0,user,1.0,0
1449617622614548302,0,1449617622602844323,/odom,0.911009019488,-0.0569758231248,0.0,0.0,0.0,-0.0379869179358,0.999278236562,0,1449617622602844323,/odom,0.911009019488,-0.0569758231248,0.0,0.0,0.0,-0.0379869179358,0.999278236562,0,user,1.0,0
1449617622706814199,0,1449617622702712475,/odom,0.928060158441,-0.0664550125499,0.0,0.0,0.0,-0.0435112230746,0.99905293827,0,1449617622702712475,/odom,0.928060158441,-0.0664550125499,0.0,0.0,0.0,-0.0435112230746,0.99905293827,0,user,1.0,0
1449617622828974260,0,1449617622823809082,/odom,0.957338475634,-0.0747102687712,0.0,0.0,0.0,-0.046140007785,0.99893498271,0,1449617622823809082,/odom,0.957338475634,-0.0747102687712,0.0,0.0,0.0,-0.046140007785,0.99893498271,0,user,1.0,0
1449617622921773581,0,1449617622902813734,/odom,0.992133807038,-0.0834620458014,0.0,0.0,0.0,-0.0485103429325,0.998822680273,0,1449617622902813734,/odom,0.992133807038,-0.0834620458014,0.0,0.0,0.0,-0.0485103429325,0.998822680273,0,user,1.0,0
1449617623025437293,0,1449617623018753087,/odom,1.01115996651,-0.0944054528672,0.0,0.0,0.0,-0.0548381933389,0.998495254146,0,1449617623018753087,/odom,1.01115996651,-0.0944054528672,0.0,0.0,0.0,-0.0548381933389,0.998495254146,0,user,1.0,0
1449617623121270725,0,1449617623110407148,/odom,1.04705700085,-0.108220696451,0.0,0.0,0.0,-0.0619125098986,0.998081580392,0,1449617623110407148,/odom,1.04705700085,-0.108220696451,0.0,0.0,0.0,-0.0619125098986,0.998081580392,0,user,1.0,0
1449617623236314340,0,1449617623229359971,/odom,1.06575412073,-0.119830717376,0.0,0.0,0.0,-0.0684992571689,0.997651167376,0,1449617623229359971,/odom,1.06575412073,-0.119830717376,0.0,0.0,0.0,-0.0684992571689,0.997651167376,0,user,1.0,0
1449617623340540755,0,1449617623325997519,/odom,1.10761638739,-0.131866814397,0.0,0.0,0.0,-0.0715316382133,0.997438331294,0,1449617623325997519,/odom,1.10761638739,-0.131866814397,0.0,0.0,0.0,-0.0715316382133,0.997438331294,0,user,1.0,0
1449617623460640320,0,1449617623424025829,/odom,1.13214333818,-0.14305862049,0.0,0.0,0.0,-0.0760802724512,0.997101695989,0,1449617623424025829,/odom,1.13214333818,-0.14305862049,0.0,0.0,0.0,-0.0760802724512,0.997101695989,0,user,1.0,0
1449617623542579838,0,1449617623535817710,/odom,1.13638690257,-0.153121217637,0.0,0.0,0.0,-0.0831095943112,0.996540413297,0,1449617623535817710,/odom,1.13638690257,-0.153121217637,0.0,0.0,0.0,-0.0831095943112,0.996540413297,0,user,1.0,0
1449617623621861962,0,1449617623602201615,/odom,1.16636833303,-0.164894017385,0.0,0.0,0.0,-0.0869603514793,0.996211773305,0,1449617623602201615,/odom,1.16636833303,-0.164894017385,0.0,0.0,0.0,-0.0869603514793,0.996211773305,0,user,1.0,0
1449617623706895337,0,1449617623702706383,/odom,1.19910443058,-0.169623250265,0.0,0.0,0.0,-0.0857130188338,0.996319867514,0,1449617623702706383,/odom,1.19910443058,-0.169623250265,0.0,0.0,0.0,-0.0857130188338,0.996319867514,0,user,1.0,0
1449617623804486613,0,1449617623802069171,/odom,1.24300029094,-0.185536897843,0.0,0.0,0.0,-0.0906274403439,0.995884866366,0,1449617623802069171,/odom,1.24300029094,-0.185536897843,0.0,0.0,0.0,-0.0906274403439,0.995884866366,0,user,1.0,0
1449617623923616618,0,1449617623919296498,/odom,1.26332900775,-0.199200689415,0.0,0.0,0.0,-0.0978111589915,0.99520499254,0,1449617623919296498,/odom,1.26332900775,-0.199200689415,0.0,0.0,0.0,-0.0978111589915,0.99520499254,0,user,1.0,0
1449617624004022955,0,1449617624001335849,/odom,1.30148213736,-0.217552940994,0.0,0.0,0.0,-0.10600883115,0.994365188308,0,1449617624001335849,/odom,1.30148213736,-0.217552940994,0.0,0.0,0.0,-0.10600883115,0.994365188308,0,user,1.0,0
1449617624122147498,0,1449617624107745772,/odom,1.32450704954,-0.22126102845,0.0,0.0,0.0,-0.104967814174,0.994475619604,0,1449617624107745772,/odom,1.32450704954,-0.22126102845,0.0,0.0,0.0,-0.104967814174,0.994475619604,0,user,1.0,0
1449617624241303932,0,1449617624231676461,/odom,1.36044902198,-0.235122131387,0.0,0.0,0.0,-0.107789391817,0.994173750917,0,1449617624231676461,/odom,1.36044902198,-0.235122131387,0.0,0.0,0.0,-0.107789391817,0.994173750917,0,user,1.0,0
1449617624336642804,0,1449617624304055742,/odom,1.38992687855,-0.249224630164,0.0,0.0,0.0,-0.112399420359,0.993663107045,0,1449617624304055742,/odom,1.38992687855,-0.249224630164,0.0,0.0,0.0,-0.112399420359,0.993663107045,0,user,1.0,0
1449617624413948015,0,1449617624406137092,/odom,1.41832136068,-0.255024036012,0.0,0.0,0.0,-0.111690301043,0.993743063701,0,1449617624406137092,/odom,1.41832136068,-0.255024036012,0.0,0.0,0.0,-0.111690301043,0.993743063701,0,user,1.0,0
1449617624520538283,0,1449617624510841927,/odom,1.44187337466,-0.268571853548,0.0,0.0,0.0,-0.116587505546,0.993180423463,0,1449617624510841927,/odom,1.44187337466,-0.268571853548,0.0,0.0,0.0,-0.116587505546,0.993180423463,0,user,1.0,0
1449617624623380350,0,1449617624615193624,/odom,1.44654820098,-0.269457557953,0.0,0.0,0.0,-0.116344300389,0.993208942654,0,1449617624615193624,/odom,1.44654820098,-0.269457557953,0.0,0.0,0.0,-0.116344300389,0.993208942654,0,user,1.0,0
1449617624707697947,0,1449617624702777044,/odom,1.45066722113,-0.270458127492,0.0,0.0,0.0,-0.116190898039,0.993226900166,0,1449617624702777044,/odom,1.45066722113,-0.270458127492,0.0,0.0,0.0,-0.116190898039,0.993226900166,0,user,1.0,0
1449617624811526122,0,1449617624803010477,/odom,1.50245645877,-0.291009836804,0.0,0.0,0.0,-0.121363307858,0.99260815406,0,1449617624803010477,/odom,1.50245645877,-0.291009836804,0.0,0.0,0.0,-0.121363307858,0.99260815406,0,user,1.0,0
1449617624914429874,0,1449617624904044174,/odom,1.52798528811,-0.305581275019,0.0,0.0,0.0,-0.12657240999,0.991957370571,0,1449617624904044174,/odom,1.52798528811,-0.305581275019,0.0,0.0,0.0,-0.12657240999,0.991957370571,0,user,1.0,0
1449617625006066636,0,1449617625002700923,/odom,1.5782911888,-0.326930524681,0.0,0.0,0.0,-0.131766624144,0.991280765859,0,1449617625002700923,/odom,1.5782911888,-0.326930524681,0.0,0.0,0.0,-0.131766624144,0.991280765859,0,user,1.0,0
1449617625151586571,0,1449617625134907560,/odom,1.60382122733,-0.333730517887,0.0,0.0,0.0,-0.131752499234,0.991282643319,0,1449617625134907560,/odom,1.60382122733,-0.333730517887,0.0,0.0,0.0,-0.131752499234,0.991282643319,0,user,1.0,0
1449617625214671971,0,1449617625208632463,/odom,1.64928207995,-0.3544182079,0.0,0.0,0.0,-0.136963006376,0.990576163091,0,1449617625208632463,/odom,1.64928207995,-0.3544182079,0.0,0.0,0.0,-0.136963006376,0.990576163091,0,user,1.0,0
1449617625389954031,0,1449617625350958617,/odom,1.57970787733,-0.334802194815,0.0,0.0,0.0,-0.136960347723,0.990576530689,0,1449617625350958617,/odom,1.57970787733,-0.334802194815,0.0,0.0,0.0,-0.136960347723,0.990576530689,0,user,1.0,0
1449617625418700770,0,1449617625409454212,/odom,1.68342919341,-0.372478635314,0.0,0.0,0.0,-0.142189075536,0.989839515678,0,1449617625409454212,/odom,1.68342919341,-0.372478635314,0.0,0.0,0.0,-0.142189075536,0.989839515678,0,user,1.0,0
1449617625537705393,0,1449617625530837726,/odom,1.71655715108,-0.382194195588,0.0,0.0,0.0,-0.142186268462,0.989839918906,0,1449617625530837726,/odom,1.71655715108,-0.382194195588,0.0,0.0,0.0,-0.142186268462,0.989839918906,0,user,1.0,0
1449617625604863827,0,1449617625602734962,/odom,1.75161317542,-0.392636035494,0.0,0.0,0.0,-0.142186104131,0.989839942512,0,1449617625602734962,/odom,1.75161317542,-0.392636035494,0.0,0.0,0.0,-0.142186104131,0.989839942512,0,user,1.0,0
1449617625709652493,0,1449617625703818396,/odom,1.77213984573,-0.407185168986,0.0,0.0,0.0,-0.147414134442,0.98907485711,0,1449617625703818396,/odom,1.77213984573,-0.407185168986,0.0,0.0,0.0,-0.147414134442,0.98907485711,0,user,1.0,0
1449617625830526490,0,1449617625825880714,/odom,1.80901018562,-0.418425012803,0.0,0.0,0.0,-0.14741381043,0.989074905401,0,1449617625825880714,/odom,1.80901018562,-0.418425012803,0.0,0.0,0.0,-0.14741381043,0.989074905401,0,user,1.0,0
1449617626137664576,0,1449617626125629574,/odom,3.07346904005,-0.826959450595,0.0,0.0,0.0,-0.152638184287,0.988282138206,0,1449617626125629574,/odom,3.07346904005,-0.826959450595,0.0,0.0,0.0,-0.152638184287,0.988282138206,0,user,1.0,0
1449617626272809436,0,1449617626269100078,/odom,3.12988593053,-0.868201085007,0.0,0.0,0.0,-0.157858126784,0.987461802708,0,1449617626269100078,/odom,3.12988593053,-0.868201085007,0.0,0.0,0.0,-0.157858126784,0.987461802708,0,user,1.0,0
1449617626631448796,0,1449617626620586786,/odom,3.14906223502,-0.897594652281,0.0,0.0,0.0,-0.163073542713,0.986613916214,0,1449617626620586786,/odom,3.14906223502,-0.897594652281,0.0,0.0,0.0,-0.163073542713,0.986613916214,0,user,1.0,0
1449617626888608392,0,1449617626880561068,/odom,3.19605948704,-0.936939796941,0.0,0.0,0.0,-0.168284510559,0.985738466078,0,1449617626880561068,/odom,3.19605948704,-0.936939796941,0.0,0.0,0.0,-0.168284510559,0.985738466078,0,user,1.0,0
1449617627084875221,0,1449617627082182333,/odom,3.21877679904,-0.942113081314,0.0,0.0,0.0,-0.167025819864,0.985952521929,0,1449617627082182333,/odom,3.21877679904,-0.942113081314,0.0,0.0,0.0,-0.167025819864,0.985952521929,0,user,1.0,0
1449617627328585539,0,1449617627321109086,/odom,3.24131921555,-0.947714175433,0.0,0.0,0.0,-0.165994927925,0.986126606427,0,1449617627321109086,/odom,3.24131921555,-0.947714175433,0.0,0.0,0.0,-0.165994927925,0.986126606427,0,user,1.0,0
1449617627574433302,0,1449617627562688130,/odom,3.27655657589,-0.952452940618,0.0,0.0,0.0,-0.162649614453,0.986683892094,0,1449617627562688130,/odom,3.27655657589,-0.952452940618,0.0,0.0,0.0,-0.162649614453,0.986683892094,0,user,1.0,0
1449617627820002447,0,1449617627813665553,/odom,3.30164770714,-0.959615381722,0.0,0.0,0.0,-0.161949609941,0.986799029104,0,1449617627813665553,/odom,3.30164770714,-0.959615381722,0.0,0.0,0.0,-0.161949609941,0.986799029104,0,user,1.0,0
1449617628048621050,0,1449617627998852631,/odom,3.35241039016,-0.928454741421,0.0,0.0,0.0,-0.150386222381,0.98862732317,0,1449617627998852631,/odom,3.35241039016,-0.928454741421,0.0,0.0,0.0,-0.150386222381,0.98862732317,0,user,1.0,0
1449617628361915955,0,1449617628357380094,/odom,3.31692513939,-0.875974088191,0.0,0.0,0.0,-0.140812498821,0.990036282252,0,1449617628357380094,/odom,3.31692513939,-0.875974088191,0.0,0.0,0.0,-0.140812498821,0.990036282252,0,user,1.0,0
1449617628599074438,0,1449617628591200013,/odom,3.3568881866,-0.825741656343,0.0,0.0,0.0,-0.125585697995,0.992082775004,0,1449617628591200013,/odom,3.3568881866,-0.825741656343,0.0,0.0,0.0,-0.125585697995,0.992082775004,0,user,1.0,0
1449617628828152768,0,1449617628816033958,/odom,3.39035895792,-0.794466729844,0.0,0.0,0.0,-0.115445570238,0.993313807572,0,1449617628816033958,/odom,3.39035895792,-0.794466729844,0.0,0.0,0.0,-0.115445570238,0.993313807572,0,user,1.0,0
1449617629078176426,0,1449617629074859857,/odom,3.4191045266,-0.72334753285,0.0,0.0,0.0,-0.0948468483021,0.995491876093,0,1449617629074859857,/odom,3.4191045266,-0.72334753285,0.0,0.0,0.0,-0.0948468483021,0.995491876093,0,user,1.0,0
1449617629251369542,0,1449617629247428302,/odom,3.44770826369,-0.691890530791,0.0,0.0,0.0,-0.0847107150763,0.996405587475,0,1449617629247428302,/odom,3.44770826369,-0.691890530791,0.0,0.0,0.0,-0.0847107150763,0.996405587475,0,user,1.0,0
1449617629525474442,0,1449617629521070044,/odom,3.56469547985,-0.67556301639,0.0,0.0,0.0,-0.0751855250165,0.997169562726,0,1449617629521070044,/odom,3.56469547985,-0.67556301639,0.0,0.0,0.0,-0.0751855250165,0.997169562726,0,user,1.0,0
1449617629802763531,0,1449617629796912086,/odom,3.59263092918,-0.623732881344,0.0,0.0,0.0,-0.0598143104861,0.998209521223,0,1449617629796912086,/odom,3.59263092918,-0.623732881344,0.0,0.0,0.0,-0.0598143104861,0.998209521223,0,user,1.0,0
1449617630024361307,0,1449617630021332115,/odom,3.62037974357,-0.573318911789,0.0,0.0,0.0,-0.0443670412804,0.999015298005,0,1449617630021332115,/odom,3.62037974357,-0.573318911789,0.0,0.0,0.0,-0.0443670412804,0.999015298005,0,user,1.0,0
1449617630191812898,0,1449617630188696976,/odom,3.61080627861,-0.555795338021,0.0,0.0,0.0,-0.0394494465062,0.999221567607,0,1449617630188696976,/odom,3.61080627861,-0.555795338021,0.0,0.0,0.0,-0.0394494465062,0.999221567607,0,user,1.0,0
1449617630315563916,0,1449617630312670432,/odom,3.5979801559,-0.522751678747,0.0,0.0,0.0,-0.0294925465503,0.999565000237,0,1449617630312670432,/odom,3.5979801559,-0.522751678747,0.0,0.0,0.0,-0.0294925465503,0.999565000237,0,user,1.0,0
1449617630382368712,0,1449617630375126164,/odom,3.53477031721,-0.520381746173,0.0,0.0,0.0,-0.0303875517853,0.999538191715,0,1449617630375126164,/odom,3.53477031721,-0.520381746173,0.0,0.0,0.0,-0.0303875517853,0.999538191715,0,user,1.0,0
1449617630479279142,0,1449617630465177499,/odom,3.53622197744,-0.52183906513,0.0,0.0,0.0,-0.0312969005652,0.999510132022,0,1449617630465177499,/odom,3.53622197744,-0.52183906513,0.0,0.0,0.0,-0.0312969005652,0.999510132022,0,user,1.0,0
1449617630611358533,0,1449617630605911370,/odom,3.58407033861,-0.509620510262,0.0,0.0,0.0,-0.0261293124631,0.999658571228,0,1449617630605911370,/odom,3.58407033861,-0.509620510262,0.0,0.0,0.0,-0.0261293124631,0.999658571228,0,user,1.0,0
1449617630673673460,0,1449617630669875844,/odom,3.54092435171,-0.507602026408,0.0,0.0,0.0,-0.0262344000947,0.999655818896,0,1449617630669875844,/odom,3.54092435171,-0.507602026408,0.0,0.0,0.0,-0.0262344000947,0.999655818896,0,user,1.0,0
1449617630738720924,0,1449617630728927526,/odom,3.5654619818,-0.509022385804,0.0,0.0,0.0,-0.0263210414483,0.999653541372,0,1449617630728927526,/odom,3.5654619818,-0.509022385804,0.0,0.0,0.0,-0.0263210414483,0.999653541372,0,user,1.0,0
1449617630840803827,0,1449617630837857000,/odom,3.58605261282,-0.495599349975,0.0,0.0,0.0,-0.0211041680978,0.999777282243,0,1449617630837857000,/odom,3.58605261282,-0.495599349975,0.0,0.0,0.0,-0.0211041680978,0.999777282243,0,user,1.0,0
1449617630933697975,0,1449617630928123177,/odom,3.53137469115,-0.507177300075,0.0,0.0,0.0,-0.0263968879334,0.999651541442,0,1449617630928123177,/odom,3.53137469115,-0.507177300075,0.0,0.0,0.0,-0.0263968879334,0.999651541442,0,user,1.0,0
1449617631023420696,0,1449617631017885340,/odom,3.5554100437,-0.50187131025,0.0,0.0,0.0,-0.0215295467513,0.999768212446,0,1449617631017885340,/odom,3.5554100437,-0.50187131025,0.0,0.0,0.0,-0.0215295467513,0.999768212446,0,user,1.0,0
1449617631098610093,0,1449617631092386433,/odom,3.51367040599,-0.282577299778,0.0,0.0,0.0,0.146341101604,0.989234189654,0,1449617631092386433,/odom,3.51367040599,-0.282577299778,0.0,0.0,0.0,0.146341101604,0.989234189654,0,user,1.0,0
1449617631396598351,0,1449617631390273704,/odom,3.31849388098,0.785036816703,0.0,0.0,0.0,0.7740783832,0.633089769829,0,1449617631390273704,/odom,3.31849388098,0.785036816703,0.0,0.0,0.0,0.7740783832,0.633089769829,0,user,1.0,0
1449617631425121440,0,1449617631422605095,/odom,3.20729151013,-0.0926904168879,0.0,0.0,0.0,0.409910659728,0.912125677219,0,1449617631422605095,/odom,3.20729151013,-0.0926904168879,0.0,0.0,0.0,0.409910659728,0.912125677219,0,user,1.0,0
1449617631555536303,0,1449617631549740998,/odom,3.18747208525,-0.0740963164842,0.0,0.0,0.0,0.434615970031,0.900615877383,0,1449617631549740998,/odom,3.18747208525,-0.0740963164842,0.0,0.0,0.0,0.434615970031,0.900615877383,0,user,1.0,0
1449617631628963866,0,1449617631623024604,/odom,3.17410516552,-0.135187831049,0.0,0.0,0.0,0.403584013927,0.914942590386,0,1449617631623024604,/odom,3.17410516552,-0.135187831049,0.0,0.0,0.0,0.403584013927,0.914942590386,0,user,1.0,0
1449617631774975714,0,1449617631771575118,/odom,3.19781683819,-0.141575874979,0.0,0.0,0.0,0.401310053251,0.915942269556,0,1449617631771575118,/odom,3.19781683819,-0.141575874979,0.0,0.0,0.0,0.401310053251,0.915942269556,0,user,1.0,0
1449617631823807919,0,1449617631820932457,/odom,3.22317471815,-0.142691633448,0.0,0.0,0.0,0.403691525899,0.914895158976,0,1449617631820932457,/odom,3.22317471815,-0.142691633448,0.0,0.0,0.0,0.403691525899,0.914895158976,0,user,1.0,0
1449617631941542643,0,1449617631938096480,/odom,3.22890357407,-0.13860296175,0.0,0.0,0.0,0.408191781151,0.91289619881,0,1449617631938096480,/odom,3.22890357407,-0.13860296175,0.0,0.0,0.0,0.408191781151,0.91289619881,0,user,1.0,0
1449617632025600355,0,1449617632013850700,/odom,3.25157411678,-0.141175600132,0.0,0.0,0.0,0.410422597719,0.911895438788,0,1449617632013850700,/odom,3.25157411678,-0.141175600132,0.0,0.0,0.0,0.410422597719,0.911895438788,0,user,1.0,0
1449617632132344781,0,1449617632124627285,/odom,3.261281817,-0.137161247785,0.0,0.0,0.0,0.413320619884,0.910585561701,0,1449617632124627285,/odom,3.261281817,-0.137161247785,0.0,0.0,0.0,0.413320619884,0.910585561701,0,user,1.0,0
1449617632215023469,0,1449617632210288391,/odom,3.23886040478,-0.201078311084,0.0,0.0,0.0,0.370665596721,0.928766394422,0,1449617632210288391,/odom,3.23886040478,-0.201078311084,0.0,0.0,0.0,0.370665596721,0.928766394422,0,user,1.0,0
1449617632322418080,0,1449617632315068035,/odom,3.25404474131,-0.194852616436,0.0,0.0,0.0,0.377318034185,0.926083744096,0,1449617632315068035,/odom,3.25404474131,-0.194852616436,0.0,0.0,0.0,0.377318034185,0.926083744096,0,user,1.0,0
1449617632424391182,0,1449617632414540254,/odom,3.27992350154,-0.201697251661,0.0,0.0,0.0,0.372777805419,0.927920636578,0,1449617632414540254,/odom,3.27992350154,-0.201697251661,0.0,0.0,0.0,0.372777805419,0.927920636578,0,user,1.0,0
1449617632512650231,0,1449617632510503537,/odom,3.30115329384,-0.20095272647,0.0,0.0,0.0,0.373259088296,0.927727143617,0,1449617632510503537,/odom,3.30115329384,-0.20095272647,0.0,0.0,0.0,0.373259088296,0.927727143617,0,user,1.0,0
1449617632626303171,0,1449617632606255963,/odom,3.29718872064,-0.22491591361,0.0,0.0,0.0,0.356640409196,0.934241734525,0,1449617632606255963,/odom,3.29718872064,-0.22491591361,0.0,0.0,0.0,0.356640409196,0.934241734525,0,user,1.0,0
1449617632719055436,0,1449617632716207148,/odom,3.27695548595,-0.250992150701,0.0,0.0,0.0,0.337199551544,0.941433195951,0,1449617632716207148,/odom,3.27695548595,-0.250992150701,0.0,0.0,0.0,0.337199551544,0.941433195951,0,user,1.0,0
1449617632807451854,0,1449617632803504703,/odom,3.32036412183,-0.239489780219,0.0,0.0,0.0,0.347106849054,0.937825588977,0,1449617632803504703,/odom,3.32036412183,-0.239489780219,0.0,0.0,0.0,0.347106849054,0.937825588977,0,user,1.0,0
1449617632905890784,0,1449617632900404279,/odom,3.28590058242,-0.27353706538,0.0,0.0,0.0,0.318717938535,0.947849606033,0,1449617632900404279,/odom,3.28590058242,-0.27353706538,0.0,0.0,0.0,0.318717938535,0.947849606033,0,user,1.0,0
1449617633005525652,0,1449617633003320426,/odom,3.34175451006,-0.316789785579,0.0,0.0,0.0,0.250199285914,0.968194359273,0,1449617633003320426,/odom,3.34175451006,-0.316789785579,0.0,0.0,0.0,0.250199285914,0.968194359273,0,user,1.0,0
1449617633844885603,0,1449617633155805790,/odom,3.34087402397,-0.32640215158,0.0,0.0,0.0,0.244615718134,0.969620106249,0,1449617633155805790,/odom,3.34087402397,-0.32640215158,0.0,0.0,0.0,0.244615718134,0.969620106249,0,user,1.0,0
1449617633902486953,0,1449617633899859977,/odom,3.36066103151,-0.355688601883,0.0,0.0,0.0,0.222256760371,0.974988170425,0,1449617633899859977,/odom,3.36066103151,-0.355688601883,0.0,0.0,0.0,0.222256760371,0.974988170425,0,user,1.0,0
1449617633957365057,0,1449617633951354487,/odom,2.8928516378,-0.477041007367,0.0,0.0,0.0,0.0135838177846,0.999907735691,0,1449617633951354487,/odom,2.8928516378,-0.477041007367,0.0,0.0,0.0,0.0135838177846,0.999907735691,0,user,1.0,0
1449617634062094064,0,1449617634045688694,/odom,2.83773990459,-0.476787215128,0.0,0.0,0.0,-0.00374832318457,0.999992975012,0,1449617634045688694,/odom,2.83773990459,-0.476787215128,0.0,0.0,0.0,-0.00374832318457,0.999992975012,0,user,1.0,0
1449617634148092271,0,1449617634146455262,/odom,2.80857768005,-0.476315249232,0.0,0.0,0.0,-0.0163685262096,0.9998660267,0,1449617634146455262,/odom,2.80857768005,-0.476315249232,0.0,0.0,0.0,-0.0163685262096,0.9998660267,0,user,1.0,0
1449617634251765379,0,1449617634247213658,/odom,2.79267643726,-0.475719274135,0.0,0.0,0.0,-0.0232529614114,0.999729613338,0,1449617634247213658,/odom,2.79267643726,-0.475719274135,0.0,0.0,0.0,-0.0232529614114,0.999729613338,0,user,1.0,0
1449617634348258195,0,1449617634345782420,/odom,2.78705689951,-0.475451414218,0.0,0.0,0.0,-0.0256867461879,0.999670041099,0,1449617634345782420,/odom,2.78705689951,-0.475451414218,0.0,0.0,0.0,-0.0256867461879,0.999670041099,0,user,1.0,0
1449617634457074236,0,1449617634448526482,/odom,2.78054184045,-0.47510340403,0.0,0.0,0.0,-0.0285090116148,0.999593535522,0,1449617634448526482,/odom,2.78054184045,-0.47510340403,0.0,0.0,0.0,-0.0285090116148,0.999593535522,0,user,1.0,0
1449617634549033023,0,1449617634547165853,/odom,2.77831792796,-0.474975394402,0.0,0.0,0.0,-0.0294725606607,0.999565589728,0,1449617634547165853,/odom,2.77831792796,-0.474975394402,0.0,0.0,0.0,-0.0294725606607,0.999565589728,0,user,1.0,0
1449617634652236281,0,1449617634650084135,/odom,2.77602369528,-0.474838418489,0.0,0.0,0.0,-0.0304666734129,0.999535783157,0,1449617634650084135,/odom,2.77602369528,-0.474838418489,0.0,0.0,0.0,-0.0304666734129,0.999535783157,0,user,1.0,0
1449617634748635951,0,1449617634746649635,/odom,2.7751645549,-0.474785838053,0.0,0.0,0.0,-0.0308389729506,0.99952436576,0,1449617634746649635,/odom,2.7751645549,-0.474785838053,0.0,0.0,0.0,-0.0308389729506,0.99952436576,0,user,1.0,0
1449617634846498021,0,1449617634845065837,/odom,2.77427312524,-0.474730540599,0.0,0.0,0.0,-0.0312252799205,0.999512372056,0,1449617634845065837,/odom,2.77427312524,-0.474730540599,0.0,0.0,0.0,-0.0312252799205,0.999512372056,0,user,1.0,0
1449617634954587391,0,1449617634949380288,/odom,2.77394337381,-0.474709894147,0.0,0.0,0.0,-0.0313681838607,0.999507897438,0,1449617634949380288,/odom,2.77394337381,-0.474709894147,0.0,0.0,0.0,-0.0313681838607,0.999507897438,0,user,1.0,0
1449617635046647975,0,1449617635045200083,/odom,2.77371310239,-0.474695415117,0.0,0.0,0.0,-0.0314679775588,0.999504760563,0,1449617635045200083,/odom,2.77371310239,-0.474695415117,0.0,0.0,0.0,-0.0314679775588,0.999504760563,0,user,1.0,0
1449617635147629613,0,1449617635146267328,/odom,2.77347403633,-0.474680329814,0.0,0.0,0.0,-0.0315715837442,0.999501493295,0,1449617635146267328,/odom,2.77347403633,-0.474680329814,0.0,0.0,0.0,-0.0315715837442,0.999501493295,0,user,1.0,0
1449617635246420679,0,1449617635245130862,/odom,2.7733420006,-0.474671974959,0.0,0.0,0.0,-0.0316288057357,0.999499684166,0,1449617635245130862,/odom,2.7733420006,-0.474671974959,0.0,0.0,0.0,-0.0316288057357,0.999499684166,0,user,1.0,0
1449617635347231777,0,1449617635345869873,/odom,2.77329339819,-0.474668895365,0.0,0.0,0.0,-0.0316498692598,0.999499017396,0,1449617635345869873,/odom,2.77329339819,-0.474668895365,0.0,0.0,0.0,-0.0316498692598,0.999499017396,0,user,1.0,0
1449617635446937015,0,1449617635445469597,/odom,2.77324266206,-0.474665678177,0.0,0.0,0.0,-0.0316718575607,0.999498320878,0,1449617635445469597,/odom,2.77324266206,-0.474665678177,0.0,0.0,0.0,-0.0316718575607,0.999498320878,0,user,1.0,0
1449617635547749558,0,1449617635546511790,/odom,2.7732238748,-0.474664486253,0.0,0.0,0.0,-0.0316799996976,0.999498062839,0,1449617635546511790,/odom,2.7732238748,-0.474664486253,0.0,0.0,0.0,-0.0316799996976,0.999498062839,0,user,1.0,0
1449617635646235284,0,1449617635644940510,/odom,2.77320438747,-0.474663249561,0.0,0.0,0.0,-0.0316884452413,0.999497795114,0,1449617635644940510,/odom,2.77320438747,-0.474663249561,0.0,0.0,0.0,-0.0316884452413,0.999497795114,0,user,1.0,0
1449617635747204898,0,1449617635745566056,/odom,2.77319716174,-0.474662790914,0.0,0.0,0.0,-0.0316915767783,0.999497695826,0,1449617635745566056,/odom,2.77319716174,-0.474662790914,0.0,0.0,0.0,-0.0316915767783,0.999497695826,0,user,1.0,0
1449617635846884279,0,1449617635845254302,/odom,2.77318966338,-0.47466231491,0.0,0.0,0.0,-0.0316948264715,0.999497592781,0,1449617635845254302,/odom,2.77318966338,-0.47466231491,0.0,0.0,0.0,-0.0316948264715,0.999497592781,0,user,1.0,0
1449617635948267788,0,1449617635946677374,/odom,2.77318686407,-0.474662137193,0.0,0.0,0.0,-0.0316960396538,0.999497554309,0,1449617635946677374,/odom,2.77318686407,-0.474662137193,0.0,0.0,0.0,-0.0316960396538,0.999497554309,0,user,1.0,0
1449617636046557920,0,1449617636045058300,/odom,2.77318396907,-0.474661953394,0.0,0.0,0.0,-0.0316972943081,0.999497514521,0,1449617636045058300,/odom,2.77318396907,-0.474661953394,0.0,0.0,0.0,-0.0316972943081,0.999497514521,0,user,1.0,0
1449617636146921794,0,1449617636145680415,/odom,2.77318290058,-0.474661885554,0.0,0.0,0.0,-0.0316977573806,0.999497499835,0,1449617636145680415,/odom,2.77318290058,-0.474661885554,0.0,0.0,0.0,-0.0316977573806,0.999497499835,0,user,1.0,0
1449617636246686907,0,1449617636245240846,/odom,2.77318177886,-0.474661814335,0.0,0.0,0.0,-0.0316982435165,0.999497484418,0,1449617636245240846,/odom,2.77318177886,-0.474661814335,0.0,0.0,0.0,-0.0316982435165,0.999497484418,0,user,1.0,0
1449617636355039461,0,1449617636349612610,/odom,2.77605328433,-0.474874640641,0.0,0.0,0.0,-0.0369793234893,0.99931603091,0,1449617636349612610,/odom,2.77605328433,-0.474874640641,0.0,0.0,0.0,-0.0369793234893,0.99931603091,0,user,1.0,0
1449617636446814813,0,1449617636444926023,/odom,2.77605299696,-0.474874619344,0.0,0.0,0.0,-0.0369794480967,0.999316026299,0,1449617636444926023,/odom,2.77605299696,-0.474874619344,0.0,0.0,0.0,-0.0369794480967,0.999316026299,0,user,1.0,0
1449617636553707173,0,1449617636549800557,/odom,2.77317869211,-0.474692110336,0.0,0.0,0.0,-0.0254234344376,0.999676772253,0,1449617636549800557,/odom,2.77317869211,-0.474692110336,0.0,0.0,0.0,-0.0254234344376,0.999676772253,0,user,1.0,0
