%time,field.linear.x,field.linear.y,field.linear.z,field.angular.x,field.angular.y,field.angular.z
1449617601317760355,-0.0,0.0,0.0,0.0,0.0,-0.0
1449617601357324347,-0.0,0.0,0.0,0.0,0.0,-0.0
1449617601396759765,-0.0,0.0,0.0,0.0,0.0,-0.0
1449617601436279204,-0.0,0.0,0.0,0.0,0.0,-0.0
1449617601477988053,-0.0,0.0,0.0,0.0,0.0,-0.0
1449617601515874111,-0.0,0.0,0.0,0.0,0.0,-0.0
1449617601556239051,-0.0,0.0,0.0,0.0,0.0,-0.0
1449617601596918326,-0.0,0.0,0.0,0.0,0.0,-0.0
1449617601636421068,-0.0,0.0,0.0,0.0,0.0,-0.0
1449617601677610243,-0.0,0.0,0.0,0.0,0.0,-0.0
1449617601716920445,-0.0,0.0,0.0,0.0,0.0,-0.0
1449617601756453878,-0.0,0.0,0.0,0.0,0.0,-0.0
1449617601797033271,-0.0,0.0,0.0,0.0,0.0,-0.0
1449617601836230303,-0.0,0.0,0.0,0.0,0.0,-0.0
1449617601876122768,-0.0,0.0,0.0,0.0,0.0,-0.0
1449617601917239039,-0.0,0.0,0.0,0.0,0.0,-0.0
1449617601956063434,-0.0,0.0,0.0,0.0,0.0,-0.0
1449617601996615846,-0.0,0.0,0.0,0.0,0.0,-0.0
1449617602035996445,-0.0,0.0,0.0,0.0,0.0,-0.0
1449617602077828751,-0.0,0.0,0.0,0.0,0.0,-0.0
1449617602115989095,-0.0,0.0,0.0,0.0,0.0,-0.0
1449617602155873615,-0.0,0.0,0.0,0.0,0.0,-0.0
1449617602196091361,-0.0,0.0,0.0,0.0,0.0,-0.0
1449617602237084779,-0.0,0.0,0.0,0.0,0.0,-0.0
1449617602276091667,-0.0,0.0,0.0,0.0,0.0,-0.0
1449617602316355562,-0.0,0.0,0.0,0.0,0.0,-0.0
1449617602356120518,-0.0,0.0,0.0,0.0,0.0,-0.0
1449617602396046873,-0.0,0.0,0.0,0.0,0.0,-0.0
1449617602436992586,-0.0,0.0,0.0,0.0,0.0,-0.0
1449617602476743717,-0.0,0.0,0.0,0.0,0.0,-0.0
1449617602516956958,-0.0,0.0,0.0,0.0,0.0,-0.0
1449617602557307410,-0.0,0.0,0.0,0.0,0.0,-0.0
1449617602595984959,-0.0,0.0,0.0,0.0,0.0,-0.0
1449617602637314413,-0.0,0.0,0.0,0.0,0.0,-0.0
1449617602676304909,-0.0,0.0,0.0,0.0,0.0,-0.0
1449617602719035100,-0.0,0.0,0.0,0.0,0.0,-0.0
1449617602756551097,-0.0,0.0,0.0,0.0,0.0,-0.0
1449617602796046007,-0.0,0.0,0.0,0.0,0.0,-0.0
1449617602835994156,-0.0,0.0,0.0,0.0,0.0,-0.0
1449617602876755231,-0.0,0.0,0.0,0.0,0.0,-0.0
1449617602916914349,-0.0,0.0,0.0,0.0,0.0,-0.0
1449617602957326625,-0.0,0.0,0.0,0.0,0.0,-0.0
1449617602996514013,-0.0,0.0,0.0,0.0,0.0,-0.0
1449617603035696027,-0.0,0.0,0.0,0.0,0.0,-0.0
1449617603075722070,-0.0,0.0,0.0,0.0,0.0,-0.0
1449617603116356654,-0.0,0.0,0.0,0.0,0.0,-0.0
1449617603155990330,-0.0,0.0,0.0,0.0,0.0,-0.0
1449617603196268916,-0.0,0.0,0.0,0.0,0.0,-0.0
1449617603236387657,-0.0,0.0,0.0,0.0,0.0,-0.0
1449617603276631517,-0.0,0.0,0.0,0.0,0.0,-0.0
1449617603317181922,-0.0,0.0,0.0,0.0,0.0,-0.0
1449617603357674341,-0.0,0.0,0.0,0.0,0.0,-0.0
1449617603397091432,-0.0,0.0,0.0,0.0,0.0,-0.0
1449617603436534291,-0.0,0.0,0.0,0.0,0.0,-0.0
1449617603476394867,-0.0,0.0,0.0,0.0,0.0,-0.0
1449617603519244780,-0.0,0.0,0.0,0.0,0.0,-0.0
1449617603556796326,-0.0,0.0,0.0,0.0,0.0,-0.0
1449617603598122676,-0.0,0.0,0.0,0.0,0.0,-0.0
1449617603636168355,-0.0,0.0,0.0,0.0,0.0,-0.0
1449617603676359596,-0.0,0.0,0.0,0.0,0.0,-0.0
1449617603715960428,-0.0,0.0,0.0,0.0,0.0,-0.0
1449617603756201722,-0.0,0.0,0.0,0.0,0.0,-0.0
1449617603796547428,-0.0,0.0,0.0,0.0,0.0,-0.0
1449617603835910385,-0.0,0.0,0.0,0.0,0.0,-0.0
1449617603876125309,-0.0,0.0,0.0,0.0,0.0,-0.0
1449617603916048546,-0.0,0.0,0.0,0.0,0.0,-0.0
1449617603958125246,-0.0,0.0,0.0,0.0,0.0,-0.0
1449617603996702543,-0.0,0.0,0.0,0.0,0.0,-0.0
1449617604037003901,-0.0,0.0,0.0,0.0,0.0,-0.0
1449617604076776985,-0.0,0.0,0.0,0.0,0.0,-0.0
1449617604116501739,-0.0,0.0,0.0,0.0,0.0,-0.0
1449617604156341099,-0.0,0.0,0.0,0.0,0.0,-0.0
1449617604196042669,-0.0,0.0,0.0,0.0,0.0,-0.0
1449617604236405738,-0.0,0.0,0.0,0.0,0.0,-0.0
1449617604280078283,-0.0,0.0,0.0,0.0,0.0,-0.0
1449617604315720910,-0.0,0.0,0.0,0.0,0.0,-0.0
1449617604355902515,-0.0,0.0,0.0,0.0,0.0,-0.0
1449617604395901669,-0.0,0.0,0.0,0.0,0.0,-0.0
1449617604436427142,-0.0,0.0,0.0,0.0,0.0,-0.0
1449617604476133491,-0.0,0.0,0.0,0.0,0.0,-0.0
1449617604517345820,-0.0,0.0,0.0,0.0,0.0,-0.0
1449617604556687955,-0.0,0.0,0.0,0.0,0.0,-0.0
1449617604595900118,-0.0,0.0,0.0,0.0,0.0,-0.0
1449617604636193191,-0.0,0.0,0.0,0.0,0.0,-0.0
1449617604675853058,-0.0,0.0,0.0,0.0,0.0,-0.0
1449617604716472074,-0.0,0.0,0.0,0.0,0.0,-0.0
1449617604755877582,-0.0,0.0,0.0,0.0,0.0,-0.0
1449617604796431719,-0.0,0.0,0.0,0.0,0.0,-0.0
1449617604836692180,-0.0,0.0,0.0,0.0,0.0,-0.0
1449617604876486044,-0.0,0.0,0.0,0.0,0.0,-0.0
1449617604916478860,-0.0,0.0,0.0,0.0,0.0,-0.0
1449617604955843294,-0.0,0.0,0.0,0.0,0.0,-0.0
1449617604996202287,-0.0,0.0,0.0,0.0,0.0,-0.0
1449617605035749308,-0.0,0.0,0.0,0.0,0.0,-0.0
1449617605076053615,-0.0,0.0,0.0,0.0,0.0,-0.0
1449617605116411274,-0.0,0.0,0.0,0.0,0.0,-0.0
1449617605158023472,-0.0,0.0,0.0,0.0,0.0,-0.0
1449617605195967814,-0.0,0.0,0.0,0.0,0.0,-0.0
1449617605235803380,-0.0,0.0,0.0,0.0,0.0,-0.0
1449617605276862360,-0.0,0.0,0.0,0.0,0.0,-0.0
1449617605315989432,-0.0,0.0,0.0,0.0,0.0,-0.0
1449617605356498335,-0.0,0.0,0.0,0.0,0.0,-0.0
1449617605397287013,-0.0,0.0,0.0,0.0,0.0,-0.0
1449617605436244468,-0.0,0.0,0.0,0.0,0.0,-0.0
1449617605476458810,-0.0,0.0,0.0,0.0,0.0,-0.0
1449617605516640524,-0.0,0.0,0.0,0.0,0.0,-0.0
1449617605555987707,-0.0,0.0,0.0,0.0,0.0,-0.0
1449617605597124923,-0.0,0.0,0.0,0.0,0.0,-0.0
1449617605636451009,-0.0,0.0,0.0,0.0,0.0,-0.0
1449617605676652254,-0.0,0.0,0.0,0.0,0.0,-0.0
1449617605716086347,-0.0,0.0,0.0,0.0,0.0,-0.0
1449617605756507357,-0.0,0.0,0.0,0.0,0.0,-0.0
1449617605795903225,-0.0,0.0,0.0,0.0,0.0,-0.0
1449617605836298108,-0.0,0.0,0.0,0.0,0.0,-0.0
1449617605875788376,-0.0,0.0,0.0,0.0,0.0,-0.0
1449617605917665784,-0.0,0.0,0.0,0.0,0.0,-0.0
1449617605955877758,-0.0,0.0,0.0,0.0,0.0,-0.0
1449617605996800378,-0.0,0.0,0.0,0.0,0.0,-0.0
1449617606036452759,-0.0,0.0,0.0,0.0,0.0,-0.0
1449617606076924536,-0.0,0.0,0.0,0.0,0.0,-0.0
1449617606116403292,-0.0,0.0,0.0,0.0,0.0,-0.0
1449617606155956819,-0.0,0.0,0.0,0.0,0.0,-0.0
1449617606195996185,-0.0,0.0,0.0,0.0,0.0,-0.0
1449617606235959796,-0.0,0.0,0.0,0.0,0.0,-0.0
1449617606277138437,-0.0,0.0,0.0,0.0,0.0,-0.0
1449617606315728849,-0.0,0.0,0.0,0.0,0.0,-0.0
1449617606357495349,-0.0,0.0,0.0,0.0,0.0,-0.0
1449617606398445003,-0.0,0.0,0.0,0.0,0.0,-0.0
1449617606435907285,-0.0,0.0,0.0,0.0,0.0,-0.0
1449617606477231575,-0.0,0.0,0.0,0.0,0.0,-0.0
1449617606516603566,-0.0,0.0,0.0,0.0,0.0,-0.0
1449617606556808684,-0.0,0.0,0.0,0.0,0.0,-0.0
1449617606598307023,-0.0,0.0,0.0,0.0,0.0,-0.0
1449617606637063642,-0.0,0.0,0.0,0.0,0.0,-0.0
1449617606676359301,-0.0,0.0,0.0,0.0,0.0,-0.0
1449617606717348117,-0.0,0.0,0.0,0.0,0.0,-0.0
1449617606756580758,-0.0,0.0,0.0,0.0,0.0,-0.0
1449617606796535378,-0.0,0.0,0.0,0.0,0.0,-0.0
1449617606836766763,-0.0,0.0,0.0,0.0,0.0,-0.0
1449617606876964469,-0.0,0.0,0.0,0.0,0.0,-0.0
1449617606916275236,-0.0,0.0,0.0,0.0,0.0,-0.0
1449617606956036832,-0.0,0.0,0.0,0.0,0.0,-0.0
1449617606996192085,-0.0,0.0,0.0,0.0,0.0,-0.0
1449617607036158166,-0.0,0.0,0.0,0.0,0.0,-0.0
1449617607076033871,-0.0,0.0,0.0,0.0,0.0,-0.0
1449617607117060962,-0.0,0.0,0.0,0.0,0.0,-0.0
1449617607157767206,-0.0,0.0,0.0,0.0,0.0,-0.0
1449617607196681140,-0.0,0.0,0.0,0.0,0.0,-0.0
1449617607235954191,-0.0,0.0,0.0,0.0,0.0,-0.0
1449617607277872287,-0.0,0.0,0.0,0.0,0.0,-0.0
1449617607315711817,-0.0,0.0,0.0,0.0,0.0,-0.0
1449617607356066903,-0.0,0.0,0.0,0.0,0.0,-0.0
1449617607396277705,-0.0,0.0,0.0,0.0,0.0,-0.0
1449617607436483360,-0.0,0.0,0.0,0.0,0.0,-0.0
1449617607476341511,-0.0,0.0,0.0,0.0,0.0,-0.0
1449617607517302841,-0.0,0.0,0.0,0.0,0.0,-0.0
1449617607556981304,-0.0,0.0,0.0,0.0,0.0,-0.0
1449617607596680619,-0.0,0.0,0.0,0.0,0.0,-0.0
1449617607637596277,-0.0,0.0,0.0,0.0,0.0,-0.0
1449617607675971347,-0.0,0.0,0.0,0.0,0.0,-0.0
1449617607718252349,-0.0,0.0,0.0,0.0,0.0,-0.0
1449617607756238079,-0.0,0.0,0.0,0.0,0.0,-0.0
1449617607796648115,-0.0,0.0,0.0,0.0,0.0,-0.0
1449617607836342063,-0.0,0.0,0.0,0.0,0.0,-0.0
1449617607876000235,-0.0,0.0,0.0,0.0,0.0,-0.0
1449617607918819917,-0.0,0.0,0.0,0.0,0.0,-0.0
1449617607956405143,-0.0,0.0,0.0,0.0,0.0,-0.0
1449617607995862324,-0.0,0.0,0.0,0.0,0.0,-0.0
1449617608036763887,-0.0,0.0,0.0,0.0,0.0,-0.0
1449617608075955543,-0.0,0.0,0.0,0.0,0.0,-0.0
1449617608116259233,-0.0,0.0,0.0,0.0,0.0,-0.0
1449617608156812311,-0.0,0.0,0.0,0.0,0.0,-0.0
1449617608196908806,-0.0,0.0,0.0,0.0,0.0,-0.0
1449617608236706481,-0.0,0.0,0.0,0.0,0.0,-0.0
1449617608276346597,-0.0,0.0,0.0,0.0,0.0,-0.0
1449617608316174600,-0.0,0.0,0.0,0.0,0.0,-0.0
1449617608358274198,-0.0,0.0,0.0,0.0,0.0,-0.0
1449617608396162686,-0.0,0.0,0.0,0.0,0.0,-0.0
1449617608436336926,-0.0,0.0,0.0,0.0,0.0,-0.0
1449617608476933296,-0.0,0.0,0.0,0.0,0.0,-0.0
1449617608516382140,-0.0,0.0,0.0,0.0,0.0,-0.0
1449617608555741152,-0.0,0.0,0.0,0.0,0.0,-0.0
1449617608596058219,-0.0,0.0,0.0,0.0,0.0,-0.0
1449617608636137312,-0.0,0.0,0.0,0.0,0.0,-0.0
1449617608678355094,-0.0,0.0,0.0,0.0,0.0,-0.0
1449617608717304087,-0.0,0.0,0.0,0.0,0.0,-0.0
1449617608757401994,-0.0,0.0,0.0,0.0,0.0,-0.0
1449617608795957601,-0.0,0.0,0.0,0.0,0.0,-0.0
1449617608836807907,-0.0,0.0,0.0,0.0,0.0,-0.0
1449617608875863515,-0.0,0.0,0.0,0.0,0.0,-0.0
1449617608916205860,-0.0,0.0,0.0,0.0,0.0,-0.0
1449617608956124321,-0.0,0.0,0.0,0.0,0.0,-0.0
1449617608996192261,-0.0,0.0,0.0,0.0,0.0,-0.0
1449617609036573812,-0.0,0.0,0.0,0.0,0.0,-0.0
1449617609077081515,-0.0,0.0,0.0,0.0,0.0,-0.0
1449617609115742504,-0.0,0.0,0.0,0.0,0.0,-0.0
1449617609155862829,-0.0,0.0,0.0,0.0,0.0,-0.0
1449617609196097237,-0.0,0.0,0.0,0.0,0.0,-0.0
1449617609237938400,-0.0,0.0,0.0,0.0,0.0,-0.0
1449617609276994901,-0.0,0.0,0.0,0.0,0.0,-0.0
1449617609315989427,-0.0,0.0,0.0,0.0,0.0,-0.0
1449617609357187255,-0.0,0.0,0.0,0.0,0.0,-0.0
1449617609396436712,-0.0,0.0,0.0,0.0,0.0,-0.0
1449617609436097073,-0.0,0.0,0.0,0.0,0.0,-0.0
1449617609477485420,-0.0,0.0,0.0,0.0,0.0,-0.0
1449617609515970958,-0.0,0.0,0.0,0.0,0.0,-0.0
1449617609557650925,-0.0,0.0,0.0,0.0,0.0,-0.0
1449617609596703204,-0.0,0.0,0.0,0.0,0.0,-0.0
1449617609638171604,-0.0,0.0,0.0,0.0,0.0,-0.0
1449617609676166592,-0.0,0.0,0.0,0.0,0.0,-0.0
1449617609717934790,-0.0,0.0,0.0,0.0,0.0,-0.0
1449617609760187120,-0.0,0.0,0.0,0.0,0.0,-0.0
1449617609797324731,-0.0,0.0,0.0,0.0,0.0,-0.0
1449617609835846447,-0.0,0.0,0.0,0.0,0.0,-0.0
1449617609875718553,-0.0,0.0,0.0,0.0,0.0,-0.0
1449617609917204611,-0.0,0.0,0.0,0.0,0.0,-0.0
1449617609956109455,-0.0,0.0,0.0,0.0,0.0,-0.0
1449617609996192819,-0.0,0.0,0.0,0.0,0.0,-0.0
1449617610035950916,-0.0,0.0,0.0,0.0,0.0,-0.0
1449617610075927288,-0.0,0.0,0.0,0.0,0.0,-0.0
1449617610117417925,-0.0,0.0,0.0,0.0,0.0,-0.0
1449617610157025220,-0.0,0.0,0.0,0.0,0.0,-0.0
1449617610196175318,-0.0,0.0,0.0,0.0,0.0,-0.0
1449617610236636755,-0.0,0.0,0.0,0.0,0.0,-0.0
1449617610276722290,-0.0,0.0,0.0,0.0,0.0,-0.0
1449617610315882370,-0.0,0.0,0.0,0.0,0.0,-0.0
1449617610355699987,-0.0,0.0,0.0,0.0,0.0,-0.0
1449617610396553688,-0.0,0.0,0.0,0.0,0.0,-0.0
1449617610435716515,-0.0,0.0,0.0,0.0,0.0,-0.0
1449617610476873452,-0.0,0.0,0.0,0.0,0.0,-0.0
1449617610516426594,-0.0,0.0,0.0,0.0,0.0,-0.0
1449617610556077639,-0.0,0.0,0.0,0.0,0.0,-0.0
1449617610598493742,-0.0,0.0,0.0,0.0,0.0,-0.0
1449617610637658340,-0.0,0.0,0.0,0.0,0.0,-0.0
1449617610676589026,-0.0,0.0,0.0,0.0,0.0,-0.0
1449617610716659661,-0.0,0.0,0.0,0.0,0.0,-0.0
1449617610755826008,-0.0,0.0,0.0,0.0,0.0,-0.0
1449617610796627702,-0.0,0.0,0.0,0.0,0.0,-0.0
1449617610837202543,-0.0,0.0,0.0,0.0,0.0,-0.0
1449617610876686162,-0.0,0.0,0.0,0.0,0.0,-0.0
1449617610916277503,-0.0,0.0,0.0,0.0,0.0,-0.0
1449617610956822799,-0.0,0.0,0.0,0.0,0.0,-0.0
1449617610997942106,-0.0,0.0,0.0,0.0,0.0,-0.0
1449617611036816983,-0.0,0.0,0.0,0.0,0.0,-0.0
1449617611076239265,-0.0,0.0,0.0,0.0,0.0,-0.0
1449617611116939325,-0.0,0.0,0.0,0.0,0.0,-0.0
1449617611156893736,-0.0,0.0,0.0,0.0,0.0,-0.0
1449617611198022713,-0.0,0.0,0.0,0.0,0.0,-0.0
1449617611235840446,-0.0,0.0,0.0,0.0,0.0,-0.0
1449617611275946035,-0.0,0.0,0.0,0.0,0.0,-0.0
1449617611316364043,-0.0,0.0,0.0,0.0,0.0,-0.0
1449617611355991724,-0.0,0.0,0.0,0.0,0.0,-0.0
1449617611399444469,-0.0,0.0,0.0,0.0,0.0,-0.0
1449617611435878370,-0.0,0.0,0.0,0.0,0.0,-0.0
1449617611475771447,-0.0,0.0,0.0,0.0,0.0,-0.0
1449617611516665693,-0.0,0.0,0.0,0.0,0.0,-0.0
1449617611556322974,-0.0,0.0,0.0,0.0,0.0,-0.0
1449617611596631367,-0.0,0.0,0.0,0.0,0.0,-0.0
1449617611636224257,-0.0,0.0,0.0,0.0,0.0,-0.0
1449617611676284063,-0.0,0.0,0.0,0.0,0.0,-0.0
1449617611717154006,-0.0,0.0,0.0,0.0,0.0,-0.0
1449617611756210660,-0.0,0.0,0.0,0.0,0.0,-0.0
1449617611795954126,-0.0,0.0,0.0,0.0,0.0,-0.0
1449617611836352140,-0.0,0.0,0.0,0.0,0.0,-0.0
1449617611875873996,-0.0,0.0,0.0,0.0,0.0,-0.0
1449617611916486493,-0.0,0.0,0.0,0.0,0.0,-0.0
1449617611955887571,-0.0,0.0,0.0,0.0,0.0,-0.0
1449617611997201532,-0.0,0.0,0.0,0.0,0.0,-0.0
1449617612036733955,-0.0,0.0,0.0,0.0,0.0,-0.0
1449617612076618735,-0.0,0.0,0.0,0.0,0.0,-0.0
1449617612115749646,-0.0,0.0,0.0,0.0,0.0,-0.0
1449617612157297864,-0.0,0.0,0.0,0.0,0.0,-0.0
1449617612195910230,-0.0,0.0,0.0,0.0,0.0,-0.0
1449617612236162715,-0.0,0.0,0.0,0.0,0.0,-0.0
1449617612276240181,-0.0,0.0,0.0,0.0,0.0,-0.0
1449617612317837090,-0.0,0.0,0.0,0.0,0.0,-0.0
1449617612356278687,-0.0,0.0,0.0,0.0,0.0,-0.0
1449617612396195189,-0.0,0.0,0.0,0.0,0.0,-0.0
1449617612436335045,-0.0,0.0,0.0,0.0,0.0,-0.0
1449617612476431818,-0.0,0.0,0.0,0.0,0.0,-0.0
1449617612516023355,-0.0,0.0,0.0,0.0,0.0,-0.0
1449617612555937919,-0.0,0.0,0.0,0.0,0.0,-0.0
1449617612595840461,-0.0,0.0,0.0,0.0,0.0,-0.0
1449617612638113093,-0.0,0.0,0.0,0.0,0.0,-0.0
1449617612676471813,-0.0,0.0,0.0,0.0,0.0,-0.0
1449617612718186748,-0.0,0.0,0.0,0.0,0.0,-0.0
1449617612756106811,-0.0,0.0,0.0,0.0,0.0,-0.0
1449617612796878541,-0.0,0.0,0.0,0.0,0.0,-0.0
1449617612836882610,-0.0,0.0,0.0,0.0,0.0,-0.0
1449617612877284244,-0.0,0.0,0.0,0.0,0.0,-0.0
1449617612915976073,-0.0,0.0,0.0,0.0,0.0,-0.0
1449617612956446877,-0.0,0.0,0.0,0.0,0.0,-0.0
1449617612996199502,-0.0,0.0,0.0,0.0,0.0,-0.0
1449617613035922001,-0.0,0.0,0.0,0.0,0.0,-0.0
1449617613078266785,-0.0,0.0,0.0,0.0,0.0,-0.0
1449617613116741166,-0.0,0.0,0.0,0.0,0.0,-0.0
1449617613156511363,-0.0,0.0,0.0,0.0,0.0,-0.0
1449617613196015912,-0.0,0.0,0.0,0.0,0.0,-0.0
1449617613236448389,-0.0,0.0,0.0,0.0,0.0,-0.0
1449617613276446976,-0.0,0.0,0.0,0.0,0.0,-0.0
1449617613315882992,-0.0,0.0,0.0,0.0,0.0,-0.0
1449617613356486822,-0.0,0.0,0.0,0.0,0.0,-0.0
1449617613396936846,-0.0,0.0,0.0,0.0,0.0,-0.0
1449617613436172738,-0.0,0.0,0.0,0.0,0.0,-0.0
1449617613478672214,-0.0,0.0,0.0,0.0,0.0,-0.0
1449617613515824276,-0.0,0.0,0.0,0.0,0.0,-0.0
1449617613556096534,-0.0,0.0,0.0,0.0,0.0,-0.0
1449617613596104749,-0.0,0.0,0.0,0.0,0.0,-0.0
1449617613636153473,-0.0,0.0,0.0,0.0,0.0,-0.0
1449617613676660230,-0.0,0.0,0.0,0.0,0.0,-0.0
1449617613716294219,-0.0,0.0,0.0,0.0,0.0,-0.0
1449617613756531651,-0.0,0.0,0.0,0.0,0.0,-0.0
1449617613797389698,-0.0,0.0,0.0,0.0,0.0,-0.0
1449617613836544376,-0.0,0.0,0.0,0.0,0.0,-0.0
1449617613876290681,-0.0,0.0,0.0,0.0,0.0,-0.0
1449617613916001654,-0.0,0.0,0.0,0.0,0.0,-0.0
1449617613956249609,-0.0,0.0,0.0,0.0,0.0,-0.0
1449617613998065845,-0.0,0.0,0.0,0.0,0.0,-0.0
1449617614036847033,-0.0,0.0,0.0,0.0,0.0,-0.0
1449617614076171118,-0.0,0.0,0.0,0.0,0.0,-0.0
1449617614117542576,-0.0,0.0,0.0,0.0,0.0,-0.0
1449617614156417622,-0.0,0.0,0.0,0.0,0.0,-0.0
1449617614197234224,-0.0,0.0,0.0,0.0,0.0,-0.0
1449617614236355577,-0.0,0.0,0.0,0.0,0.0,-0.0
1449617614276855478,-0.0,0.0,0.0,0.0,0.0,-0.0
1449617614316378069,-0.0,0.0,0.0,0.0,0.0,-0.0
1449617614355771846,-0.0,0.0,0.0,0.0,0.0,-0.0
1449617614395877327,-0.0,0.0,0.0,0.0,0.0,-0.0
1449617614436041330,-0.0,0.0,0.0,0.0,0.0,-0.0
1449617614478174518,-0.0,0.0,0.0,0.0,0.0,-0.0
1449617614516390662,-0.0,0.0,0.0,0.0,0.0,-0.0
1449617614556511724,-0.0,0.0,0.0,0.0,0.0,-0.0
1449617614596124933,-0.0,0.0,0.0,0.0,0.0,-0.0
1449617614638637285,-0.0,0.0,0.0,0.0,0.0,-0.0
1449617614676125153,-0.0,0.0,0.0,0.0,0.0,-0.0
1449617614715838883,-0.0,0.0,0.0,0.0,0.0,-0.0
1449617614755919028,-0.0,0.0,0.0,0.0,0.0,-0.0
1449617614797306564,-0.0,0.0,0.0,0.0,0.0,-0.0
1449617614835847220,-0.0,0.0,0.0,0.0,0.0,-0.0
1449617614876301265,-0.0,0.0,0.0,0.0,0.0,-0.0
1449617614916397009,-0.0,0.0,0.0,0.0,0.0,-0.0
1449617614957266820,-0.0,0.0,0.0,0.0,0.0,-0.0
1449617614996725196,-0.0,0.0,0.0,0.0,0.0,-0.0
1449617615037262020,-0.0,0.0,0.0,0.0,0.0,-0.0
1449617615077349058,-0.0,0.0,0.0,0.0,0.0,-0.0
1449617615116732361,-0.0,0.0,0.0,0.0,0.0,-0.0
1449617615156923056,-0.0,0.0,0.0,0.0,0.0,-0.0
1449617615197922353,-0.0,0.0,0.0,0.0,0.0,-0.0
1449617615237419361,-0.0,0.0,0.0,0.0,0.0,-0.0
1449617615276672080,-0.0,0.0,0.0,0.0,0.0,-0.0
1449617615316677135,-0.0,0.0,0.0,0.0,0.0,-0.0
1449617615357679396,-0.0,0.0,0.0,0.0,0.0,-0.0
1449617615396054601,-0.0,0.0,0.0,0.0,0.0,-0.0
1449617615437092839,-0.0,0.0,0.0,0.0,0.0,-0.0
1449617615477107738,-0.0,0.0,0.0,0.0,0.0,-0.0
1449617615516444630,-0.0,0.0,0.0,0.0,0.0,-0.0
1449617615556683892,-0.0,0.0,0.0,0.0,0.0,-0.0
1449617615596958192,-0.0,0.0,0.0,0.0,0.0,-0.0
1449617615636169044,-0.0,0.0,0.0,0.0,0.0,-0.0
1449617615678461971,-0.0,0.0,0.0,0.0,0.0,-0.0
1449617615716058710,-0.0,0.0,0.0,0.0,0.0,-0.0
1449617615756653265,-0.0,0.0,0.0,0.0,0.0,-0.0
1449617615795967668,-0.0,0.0,0.0,0.0,0.0,-0.0
1449617615836188550,-0.0,0.0,0.0,0.0,0.0,-0.0
1449617615876192220,-0.0,0.0,0.0,0.0,0.0,-0.0
1449617615916078795,-0.0,0.0,0.0,0.0,0.0,-0.0
1449617615958083218,-0.0,0.0,0.0,0.0,0.0,-0.0
1449617615996261856,-0.0,0.0,0.0,0.0,0.0,-0.0
1449617616036135149,-0.0,0.0,0.0,0.0,0.0,-0.0
1449617616077531663,-0.0,0.0,0.0,0.0,0.0,-0.0
1449617616116448239,-0.0,0.0,0.0,0.0,0.0,-0.0
1449617616156824437,-0.0,0.0,0.0,0.0,0.0,-0.0
1449617616197876659,-0.0,0.0,0.0,0.0,0.0,-0.0
1449617616236100616,-0.0,0.0,0.0,0.0,0.0,-0.0
1449617616276370746,-0.0,0.0,0.0,0.0,0.0,-0.0
1449617616316588305,-0.0,0.0,0.0,0.0,0.0,-0.0
1449617616356253996,-0.0,0.0,0.0,0.0,0.0,-0.0
1449617616396789393,-0.0,0.0,0.0,0.0,0.0,-0.0
1449617616436451267,-0.0,0.0,0.0,0.0,0.0,-0.0
1449617616480832912,-0.0,0.0,0.0,0.0,0.0,-0.0
1449617616516376378,-0.0,0.0,0.0,0.0,0.0,-0.0
1449617616556260079,-0.0,0.0,0.0,0.0,0.0,-0.0
1449617616596389080,-0.0,0.0,0.0,0.0,0.0,-0.0
1449617616636631768,-0.0,0.0,0.0,0.0,0.0,-0.0
1449617616676191845,-0.0,0.0,0.0,0.0,0.0,-0.0
1449617616715868608,-0.0,0.0,0.0,0.0,0.0,-0.0
1449617616757257817,-0.0,0.0,0.0,0.0,0.0,-0.0
1449617616796331671,-0.0,0.0,0.0,0.0,0.0,-0.0
1449617616837000990,-0.0,0.0,0.0,0.0,0.0,-0.0
1449617616876555103,-0.0,0.0,0.0,0.0,0.0,-0.0
1449617616917296750,-0.0,0.0,0.0,0.0,0.0,-0.0
1449617616957995364,-0.0,0.0,0.0,0.0,0.0,-0.0
1449617616996284358,-0.0,0.0,0.0,0.0,0.0,-0.0
1449617617039501864,-0.0,0.0,0.0,0.0,0.0,-0.0
1449617617076730429,-0.0,0.0,0.0,0.0,0.0,-0.0
1449617617117242019,-0.0,0.0,0.0,0.0,0.0,-0.0
1449617617162387162,-0.0,0.0,0.0,0.0,0.0,-0.0
1449617617196029185,-0.0,0.0,0.0,0.0,0.0,-0.0
1449617617236465606,-0.0,0.0,0.0,0.0,0.0,-0.0
1449617617277702214,-0.0,0.0,0.0,0.0,0.0,-0.0
1449617617317792905,-0.0,0.0,0.0,0.0,0.0,-0.0
1449617617356572809,-0.0,0.0,0.0,0.0,0.0,-0.0
1449617617396116821,-0.0,0.0,0.0,0.0,0.0,-0.0
1449617617435807625,-0.0,0.0,0.0,0.0,0.0,-0.0
1449617617477222453,-0.0,0.0,0.0,0.0,0.0,-0.0
1449617617517734275,-0.0,0.0,0.0,0.0,0.0,-0.0
1449617617557451805,-0.0,0.0,0.0,0.0,0.0,-0.0
1449617617596060928,-0.0,0.0,0.0,0.0,0.0,-0.0
1449617617638944197,-0.0,0.0,0.0,0.0,0.0,-0.0
1449617617676389914,-0.0,0.0,0.0,0.0,0.0,-0.0
1449617617715638491,-0.0,0.0,0.0,0.0,0.0,-0.0
1449617617757159036,-0.0,0.0,0.0,0.0,0.0,-0.0
1449617617797474011,-0.0,0.0,0.0,0.0,0.0,-0.0
1449617617836515957,-0.0,0.0,0.0,0.0,0.0,-0.0
1449617617875650555,-0.0,0.0,0.0,0.0,0.0,-0.0
1449617617916558456,-0.0,0.0,0.0,0.0,0.0,-0.0
1449617617957432947,-0.0,0.0,0.0,0.0,0.0,-0.0
1449617617997470898,-0.0,0.0,0.0,0.0,0.0,-0.0
1449617618036599483,-0.0,0.0,0.0,0.0,0.0,-0.0
1449617618075960512,-0.0,0.0,0.0,0.0,0.0,-0.0
1449617618116081974,-0.0,0.0,0.0,0.0,0.0,-0.0
1449617618156308453,-0.0,0.0,0.0,0.0,0.0,-0.0
1449617618196067115,-0.0,0.0,0.0,0.0,0.0,-0.0
1449617618237647516,-0.0,0.0,0.0,0.0,0.0,-0.0
1449617618276590449,-0.0,0.0,0.0,0.0,0.0,-0.0
1449617618316374080,-0.0,0.0,0.0,0.0,0.0,-0.0
1449617618356339523,-0.0,0.0,0.0,0.0,0.0,-0.0
1449617618395814609,-0.0,0.0,0.0,0.0,0.0,-0.0
1449617618436569509,-0.0,0.0,0.0,0.0,0.0,-0.0
1449617618477856442,-0.0,0.0,0.0,0.0,0.0,-0.0
1449617618516220723,-0.0,0.0,0.0,0.0,0.0,-0.0
1449617618556830208,-0.0,0.0,0.0,0.0,0.0,-0.0
1449617618596157281,-0.0,0.0,0.0,0.0,0.0,-0.0
1449617618636113293,-0.0,0.0,0.0,0.0,0.0,-0.0
1449617618676956392,-0.0,0.0,0.0,0.0,0.0,-0.0
1449617618716070655,-0.0,0.0,0.0,0.0,0.0,-0.0
1449617618758830014,-0.0,0.0,0.0,0.0,0.0,-0.0
1449617618796878597,-0.0,0.0,0.0,0.0,0.0,-0.0
1449617618868550324,0.00558730190992,0.0,0.0,0.0,0.0,0.0
1449617618882341735,0.00558730190992,0.0,0.0,0.0,0.0,0.0
1449617618932720369,0.0111746038198,0.0,0.0,0.0,0.0,0.0
1449617618982646283,0.0111746038198,0.0,0.0,0.0,0.0,0.0
1449617619006345346,0.0111746038198,0.0,0.0,0.0,0.0,0.0
1449617619062166510,0.0167619050741,0.0,0.0,0.0,0.0,0.0
1449617619086546532,0.0167619050741,0.0,0.0,0.0,0.0,0.0
1449617619123204368,0.0335238101482,0.0,0.0,0.0,0.0,0.0
1449617619187136045,0.0335238101482,0.0,0.0,0.0,0.0,0.0
1449617619209182677,0.0335238101482,0.0,0.0,0.0,0.0,0.0
1449617619242724588,0.0558730177879,0.0,0.0,0.0,0.0,0.0
1449617619292189119,0.0558730177879,0.0,0.0,0.0,0.0,0.0
1449617619353688118,0.0558730177879,0.0,0.0,0.0,0.0,0.0
1449617619380126207,0.184380962372,0.0,0.0,0.0,0.0,0.0
1449617619412359094,0.184380962372,0.0,0.0,0.0,0.0,0.0
1449617619460672643,0.189968263626,0.0,0.0,0.0,0.0,0.0
1449617619484066326,0.189968263626,0.0,0.0,0.0,0.0,0.0
1449617619529515599,0.189968263626,0.0,0.0,0.0,0.0,0.0
1449617619570541743,0.189968263626,0.0,0.0,0.0,0.0,0.0
1449617619600589171,0.189968263626,0.0,0.0,0.0,0.0,0.0
1449617619637722130,-0.0,0.0,0.0,0.0,0.0,-0.0
1449617619675948609,-0.0,0.0,0.0,0.0,0.0,-0.0
1449617619716449526,-0.0,0.0,0.0,0.0,0.0,-0.0
1449617619773946147,0.189968263626,0.0,0.0,0.0,0.0,0.0
1449617619804254606,0.189968263626,0.0,0.0,0.0,0.0,0.0
1449617619842995965,0.189968263626,0.0,0.0,0.0,0.0,0.0
1449617619900272724,0.189968263626,0.0,0.0,0.0,0.0,0.0
1449617619920819392,0.189968263626,0.0,0.0,0.0,0.0,0.0
1449617619966019920,0.173206349373,0.0,0.0,0.0,0.0,0.0
1449617620007447666,0.173206349373,0.0,0.0,0.0,0.0,0.0
1449617620043084847,0.189968263626,0.0,0.0,0.0,0.0,0.0
1449617620081228919,0.189968263626,0.0,0.0,0.0,0.0,0.0
1449617620120668587,0.189968263626,0.0,0.0,0.0,0.0,0.0
1449617620160563954,0.189968263626,0.0,0.0,0.0,0.0,0.0
1449617620209897454,0.189968263626,0.0,0.0,0.0,0.0,0.0
1449617620244253491,0.167619048119,0.0,0.0,0.0,0.0,0.0
1449617620286206890,0.167619048119,0.0,0.0,0.0,0.0,0.0
1449617620323205406,0.167619048119,0.0,0.0,0.0,0.0,0.0
1449617620370365010,0.346412698746,0.0,0.0,0.0,0.0,0.00634920671582
1449617620434883010,0.346412698746,0.0,0.0,0.0,0.0,0.00634920671582
1449617620446975033,0.346412698746,0.0,0.0,0.0,0.0,0.00634920671582
1449617620509823351,0.346412698746,0.0,0.0,0.0,0.0,0.00634920671582
1449617620535999228,0.346412698746,0.0,0.0,0.0,0.0,0.00634920671582
1449617620566229002,0.340825397491,0.0,0.0,0.0,0.0,0.0126984134316
1449617620610758647,0.340825397491,0.0,0.0,0.0,0.0,0.0126984134316
1449617620648930549,0.128507939339,0.0,0.0,0.0,0.0,0.00634920671582
1449617620688495782,0.128507939339,0.0,0.0,0.0,0.0,0.00634920671582
1449617620727301207,0.128507939339,0.0,0.0,0.0,0.0,0.00634920671582
1449617620784774906,0.0726349215508,0.0,0.0,0.0,0.0,0.00634920671582
1449617620811298175,0.0726349215508,0.0,0.0,0.0,0.0,0.00634920671582
1449617620844820089,0.128507939339,0.0,0.0,0.0,0.0,0.00634920671582
1449617620897820446,0.128507939339,0.0,0.0,0.0,0.0,0.00634920671582
1449617620928800738,0.128507939339,0.0,0.0,0.0,0.0,0.00634920671582
1449617620974194031,0.189968263626,0.0,0.0,0.0,0.0,0.00634920671582
1449617621045284710,0.189968263626,0.0,0.0,0.0,0.0,0.00634920671582
1449617621068803332,0.167619048119,0.0,0.0,0.0,0.0,0.0
1449617621085641209,0.167619048119,0.0,0.0,0.0,0.0,0.0
1449617621157298464,0.167619048119,0.0,0.0,0.0,0.0,0.0
1449617621171044042,0.184380962372,0.0,0.0,0.0,0.0,0.0
1449617621210408666,0.189968263626,0.0,0.0,0.0,0.0,0.0
1449617621241920195,0.189968263626,0.0,0.0,0.0,0.0,0.0
1449617621333931292,0.189968263626,0.0,0.0,0.0,0.0,0.0
1449617621345899595,0.189968263626,0.0,0.0,0.0,0.0,0.0
1449617621421460889,0.251428577423,0.0,0.0,0.0,0.0,0.0
1449617621441754436,0.251428577423,0.0,0.0,0.0,0.0,0.0
1449617621447225761,0.346412698746,0.0,0.0,0.0,0.0,-0.00634920671582
1449617621481297482,0.346412698746,0.0,0.0,0.0,0.0,-0.00634920671582
1449617621560554259,0.346412698746,0.0,0.0,0.0,0.0,-0.00634920671582
1449617621579137778,0.340825397491,0.0,0.0,0.0,0.0,-0.00634920671582
1449617621608436959,0.346412698746,0.0,0.0,0.0,0.0,-0.00634920671582
1449617621643042811,0.346412698746,0.0,0.0,0.0,0.0,-0.00634920671582
1449617621738473367,0.346412698746,0.0,0.0,0.0,0.0,-0.00634920671582
1449617621746247873,0.346412698746,0.0,0.0,0.0,0.0,-0.00634920671582
1449617621766776185,0.346412698746,0.0,0.0,0.0,0.0,-0.00634920671582
1449617621819541304,0.346412698746,0.0,0.0,0.0,0.0,-0.00634920671582
1449617621848438954,0.346412698746,0.0,0.0,0.0,0.0,-0.00634920671582
1449617621883271127,0.346412698746,0.0,0.0,0.0,0.0,-0.00634920671582
1449617621930134688,0.346412698746,0.0,0.0,0.0,0.0,-0.00634920671582
1449617621970568083,0.346412698746,0.0,0.0,0.0,0.0,-0.00634920671582
1449617622031526531,0.346412698746,0.0,0.0,0.0,0.0,-0.00634920671582
1449617622041227158,0.346412698746,0.0,0.0,0.0,0.0,0.0
1449617622084032678,0.346412698746,0.0,0.0,0.0,0.0,0.0
1449617622120568301,0.346412698746,0.0,0.0,0.0,0.0,0.0
1449617622167568934,0.346412698746,0.0,0.0,0.0,0.0,-0.00634920671582
1449617622223618222,0.346412698746,0.0,0.0,0.0,0.0,-0.00634920671582
1449617622292888220,0.346412698746,0.0,0.0,0.0,0.0,-0.00634920671582
1449617622303097743,0.346412698746,0.0,0.0,0.0,0.0,-0.00634920671582
1449617622324956513,0.346412698746,0.0,0.0,0.0,0.0,-0.00634920671582
1449617622365173750,0.346412698746,0.0,0.0,0.0,0.0,-0.00634920671582
1449617622431434583,0.346412698746,0.0,0.0,0.0,0.0,-0.00634920671582
1449617622446320740,0.352,0.0,0.0,0.0,0.0,-0.00634920671582
1449617622488517118,0.352,0.0,0.0,0.0,0.0,-0.00634920671582
1449617622549633021,0.352,0.0,0.0,0.0,0.0,-0.00634920671582
1449617622567196748,0.346412698746,0.0,0.0,0.0,0.0,0.0
1449617622603489116,0.346412698746,0.0,0.0,0.0,0.0,0.0
1449617622656904269,0.346412698746,0.0,0.0,0.0,0.0,-0.00634920671582
1449617622686009118,0.346412698746,0.0,0.0,0.0,0.0,-0.00634920671582
1449617622793433641,0.346412698746,0.0,0.0,0.0,0.0,0.0
1449617622835157467,0.346412698746,0.0,0.0,0.0,0.0,0.0
1449617622844315304,0.346412698746,0.0,0.0,0.0,0.0,-0.00634920671582
1449617622848761783,0.346412698746,0.0,0.0,0.0,0.0,-0.00634920671582
1449617622884324722,0.346412698746,0.0,0.0,0.0,0.0,-0.00634920671582
1449617622926641045,0.346412698746,0.0,0.0,0.0,0.0,-0.00634920671582
1449617622961256973,0.346412698746,0.0,0.0,0.0,0.0,0.0
1449617623021501800,0.346412698746,0.0,0.0,0.0,0.0,0.0
1449617623049988755,0.346412698746,0.0,0.0,0.0,0.0,-0.00634920671582
1449617623080976531,0.346412698746,0.0,0.0,0.0,0.0,-0.00634920671582
1449617623132499779,0.346412698746,0.0,0.0,0.0,0.0,-0.00634920671582
1449617623162703831,0.346412698746,0.0,0.0,0.0,0.0,0.0
1449617623236551020,0.346412698746,0.0,0.0,0.0,0.0,0.0
1449617623259756471,0.307301589966,0.0,0.0,0.0,0.0,-0.00634920671582
1449617623280982049,0.307301589966,0.0,0.0,0.0,0.0,-0.00634920671582
1449617623347386893,0.346412698746,0.0,0.0,0.0,0.0,0.0
1449617623365272866,0.346412698746,0.0,0.0,0.0,0.0,0.0
1449617623426855081,0.346412698746,0.0,0.0,0.0,0.0,0.0
1449617623473687063,0.307301589966,0.0,0.0,0.0,0.0,-0.00634920671582
1449617623482780440,0.307301589966,0.0,0.0,0.0,0.0,-0.00634920671582
1449617623543008970,0.346412698746,0.0,0.0,0.0,0.0,0.0
1449617623560894166,0.346412698746,0.0,0.0,0.0,0.0,0.0
1449617623622636202,0.346412698746,0.0,0.0,0.0,0.0,0.0
1449617623672231705,0.31288889122,0.0,0.0,0.0,0.0,-0.00634920671582
1449617623686213740,0.31288889122,0.0,0.0,0.0,0.0,-0.00634920671582
1449617623724365754,0.346412698746,0.0,0.0,0.0,0.0,0.0
1449617623786758794,0.346412698746,0.0,0.0,0.0,0.0,0.0
1449617623802906573,0.346412698746,0.0,0.0,0.0,0.0,0.0
1449617623852252260,0.346412698746,0.0,0.0,0.0,0.0,-0.00634920671582
1449617623926479719,0.346412698746,0.0,0.0,0.0,0.0,-0.00634920671582
1449617623942025029,0.346412698746,0.0,0.0,0.0,0.0,-0.00634920671582
1449617623986464630,0.346412698746,0.0,0.0,0.0,0.0,0.0
1449617623999323640,0.346412698746,0.0,0.0,0.0,0.0,0.0
1449617624050417188,0.346412698746,0.0,0.0,0.0,0.0,0.0
1449617624109712612,0.346412698746,0.0,0.0,0.0,0.0,0.0
1449617624129033948,0.346412698746,0.0,0.0,0.0,0.0,0.0
1449617624186316286,0.189968263626,0.0,0.0,0.0,0.0,0.0
1449617624237033439,0.189968263626,0.0,0.0,0.0,0.0,0.0
1449617624270029106,0.346412698746,0.0,0.0,0.0,0.0,0.0
1449617624283884317,0.346412698746,0.0,0.0,0.0,0.0,0.0
1449617624342439735,0.346412698746,0.0,0.0,0.0,0.0,0.0
1449617624367090436,0.346412698746,0.0,0.0,0.0,0.0,0.0
1449617624406729084,0.346412698746,0.0,0.0,0.0,0.0,0.0
1449617624460244062,0.346412698746,0.0,0.0,0.0,0.0,0.0
1449617624512393485,0.346412698746,0.0,0.0,0.0,0.0,0.0
1449617624535587920,0.31288889122,0.0,0.0,0.0,0.0,0.0
1449617624563332158,0.31288889122,0.0,0.0,0.0,0.0,0.0
1449617624626155701,0.31288889122,0.0,0.0,0.0,0.0,0.0
1449617624646701570,0.346412698746,0.0,0.0,0.0,0.0,0.0
1449617624684957065,0.346412698746,0.0,0.0,0.0,0.0,0.0
1449617624746905799,0.346412698746,0.0,0.0,0.0,0.0,0.0
1449617624762600740,0.346412698746,0.0,0.0,0.0,0.0,0.0
1449617624809171498,0.346412698746,0.0,0.0,0.0,0.0,0.0
1449617624854881232,0.346412698746,0.0,0.0,0.0,0.0,0.0
1449617624897155637,0.346412698746,0.0,0.0,0.0,0.0,0.0
1449617624923128024,0.346412698746,0.0,0.0,0.0,0.0,0.0
1449617624981045427,0.346412698746,0.0,0.0,0.0,0.0,0.0
1449617625003520334,0.346412698746,0.0,0.0,0.0,0.0,0.0
1449617625050167105,0.346412698746,0.0,0.0,0.0,0.0,0.0
1449617625152370334,0.346412698746,0.0,0.0,0.0,0.0,0.0
1449617625197203476,0.259809524059,0.0,0.0,0.0,0.0,0.0
1449617625221735958,0.189968263626,0.0,0.0,0.0,0.0,0.0
1449617625256291332,0.259809524059,0.0,0.0,0.0,0.0,0.0
1449617625415586586,0.259809524059,0.0,0.0,0.0,0.0,0.0
1449617625431396931,0.259809524059,0.0,0.0,0.0,0.0,0.0
1449617625477350376,0.259809524059,0.0,0.0,0.0,0.0,0.0
1449617625543121832,0.259809524059,0.0,0.0,0.0,0.0,0.0
1449617625560117724,0.259809524059,0.0,0.0,0.0,0.0,0.0
1449617625600390157,0.259809524059,0.0,0.0,0.0,0.0,0.0
1449617625629031262,0.259809524059,0.0,0.0,0.0,0.0,0.0
1449617625663728250,0.259809524059,0.0,0.0,0.0,0.0,0.0
1449617625709838661,0.259809524059,0.0,0.0,0.0,0.0,0.0
1449617625746051419,0.259809524059,0.0,0.0,0.0,0.0,0.0
1449617625835196222,0.259809524059,0.0,0.0,0.0,0.0,0.0
1449617625867486079,0.173206349373,0.0,0.0,0.0,0.0,0.0
1449617625929265794,0.234666668415,0.0,0.0,0.0,0.0,0.0
1449617625956970898,0.173206349373,0.0,0.0,0.0,0.0,0.0
1449617626026832933,0.173206349373,0.0,0.0,0.0,0.0,0.0
1449617626044512629,0.234666668415,0.0,0.0,0.0,0.0,0.0
1449617626105259886,0.234666668415,0.0,0.0,0.0,0.0,0.0
1449617626121141307,0.234666668415,0.0,0.0,0.0,0.0,0.0
1449617626164362856,0.173206349373,0.0,0.0,0.0,0.0,0.0
1449617626235164599,0.173206349373,0.0,0.0,0.0,0.0,0.0
1449617626263012461,0.173206349373,0.0,0.0,0.0,0.0,0.0
1449617626352955873,0.173206349373,0.0,0.0,0.0,0.0,0.0
1449617626374546709,0.173206349373,0.0,0.0,0.0,0.0,0.0
1449617626452177244,0.173206349373,0.0,0.0,0.0,0.0,0.0
1449617626501890315,0.173206349373,0.0,0.0,0.0,0.0,0.0
1449617626601845612,0.352,0.0,0.0,0.0,0.0,0.105263157895
1449617626637925527,0.352,0.0,0.0,0.0,0.0,0.105263157895
1449617626726377580,0.352,0.0,0.0,0.0,0.0,0.105263157895
1449617626777817935,0.352,0.0,0.0,0.0,0.0,0.105263157895
1449617626848435737,0.352,0.0,0.0,0.0,0.0,0.105263157895
1449617626896977857,0.352,0.0,0.0,0.0,0.0,0.105263157895
1449617626956985272,0.279606349373,0.0,0.0,0.0,0.0,0.0979114454632
1449617626976998319,0.256406349373,0.0,0.0,0.0,0.0,0.101086048821
1449617627019681176,0.256406349373,0.0,0.0,0.0,0.0,0.0979114454632
1449617627044479828,0.256406349373,0.0,0.0,0.0,0.0,0.0979114454632
1449617627070686042,0.256406349373,0.0,0.0,0.0,0.0,0.0979114454632
1449617627139458100,0.256406349373,0.0,0.0,0.0,0.0,0.0979114454632
1449617627166315775,0.256406349373,0.0,0.0,0.0,0.0,0.0979114454632
1449617627214330061,0.352,0.0,0.0,0.0,0.0,0.105263157895
1449617627289428027,0.352,0.0,0.0,0.0,0.0,0.105263157895
1449617627335312823,0.352,0.0,0.0,0.0,0.0,0.105263157895
1449617627370178905,0.352,0.0,0.0,0.0,0.0,0.105263157895
1449617627439782054,0.352,0.0,0.0,0.0,0.0,0.105263157895
1449617627467828157,0.352,0.0,0.0,0.0,0.0,0.105263157895
1449617627505612199,0.350603174686,0.0,0.0,0.0,0.0,0.112113617468
1449617627527568494,0.339428572178,0.0,0.0,0.0,0.0,0.112113617468
1449617627588197194,0.339428572178,0.0,0.0,0.0,0.0,0.112113617468
1449617627637185921,0.352,0.0,0.0,0.0,0.0,0.105263157895
1449617627711084998,0.352,0.0,0.0,0.0,0.0,0.105263157895
1449617627744622260,0.352,0.0,0.0,0.0,0.0,0.147368421053
1449617627799310622,0.352,0.0,0.0,0.0,0.0,0.147368421053
1449617627845711300,0.346412698746,0.0,0.0,0.0,0.0,0.112113617468
1449617627908040482,0.352,0.0,0.0,0.0,0.0,0.105263157895
1449617627959356593,0.352,0.0,0.0,0.0,0.0,0.105263157895
1449617627978184318,0.310095240593,0.0,0.0,0.0,0.0,0.110526315789
1449617628086448027,0.352,0.0,0.0,0.0,0.0,0.105263157895
1449617628138242658,0.352,0.0,0.0,0.0,0.0,0.105263157895
1449617628225457715,0.310095240593,0.0,0.0,0.0,0.0,0.110526315789
1449617628348367882,0.352,0.0,0.0,0.0,0.0,0.105263157895
1449617628385113223,0.352,0.0,0.0,0.0,0.0,0.105263157895
1449617628452739041,0.352,0.0,0.0,0.0,0.0,0.105263157895
1449617628507172556,0.352,0.0,0.0,0.0,0.0,0.105263157895
1449617628561914737,0.352,0.0,0.0,0.0,0.0,0.105263157895
1449617628600529576,0.352,0.0,0.0,0.0,0.0,0.105263157895
1449617628638756201,0.352,0.0,0.0,0.0,0.0,0.105263157895
1449617628727012846,0.352,0.0,0.0,0.0,0.0,0.105263157895
1449617628770230012,0.311492065907,0.0,0.0,0.0,0.0,0.0789473684211
1449617628822245944,0.352,0.0,0.0,0.0,0.0,0.105263157895
1449617628891238049,0.352,0.0,0.0,0.0,0.0,0.105263157895
1449617628971421357,0.311492065907,0.0,0.0,0.0,0.0,0.0789473684211
1449617629031250295,0.352,0.0,0.0,0.0,0.0,0.0631578947368
1449617629052285298,0.352,0.0,0.0,0.0,0.0,0.0631578947368
1449617629125623148,0.352,0.0,0.0,0.0,0.0,0.105263157895
1449617629146563665,0.352,0.0,0.0,0.0,0.0,0.105263157895
1449617629182172061,0.352,0.0,0.0,0.0,0.0,0.0631578947368
1449617629238132280,0.352,0.0,0.0,0.0,0.0,0.0631578947368
1449617629282915733,0.352,0.0,0.0,0.0,0.0,0.0631578947368
1449617629345246555,0.352,0.0,0.0,0.0,0.0,0.0631578947368
1449617629406482930,0.352,0.0,0.0,0.0,0.0,0.0631578947368
1449617629455028423,0.352,0.0,0.0,0.0,0.0,0.0631578947368
1449617629499114948,0.352,0.0,0.0,0.0,0.0,0.0631578947368
1449617629525060939,0.350603174686,0.0,0.0,0.0,0.0,0.0473684210526
1449617629539692899,0.350603174686,0.0,0.0,0.0,0.0,0.0473684210526
1449617629655452029,0.350603174686,0.0,0.0,0.0,0.0,0.0473684210526
1449617629704351829,0.350603174686,0.0,0.0,0.0,0.0,0.0473684210526
1449617629725274478,0.349206349373,0.0,0.0,0.0,0.0,0.0315789473684
1449617629767652985,0.350603174686,0.0,0.0,0.0,0.0,0.0473684210526
1449617629808529884,0.349206349373,0.0,0.0,0.0,0.0,0.0315789473684
1449617629851010734,0.352,0.0,0.0,0.0,0.0,0.0210526315789
1449617629912481999,0.352,0.0,0.0,0.0,0.0,0.0210526315789
1449617629944607908,0.350603174686,0.0,0.0,0.0,0.0,0.0157894736842
1449617629989189738,0.350603174686,0.0,0.0,0.0,0.0,0.0157894736842
1449617630016931299,0.350603174686,0.0,0.0,0.0,0.0,0.0157894736842
1449617630053002646,0.340825397491,0.0,0.0,0.0,0.0,0.0157894736842
1449617630086993995,0.340825397491,0.0,0.0,0.0,0.0,0.0157894736842
1449617630124309290,0.307301589966,0.0,0.0,0.0,0.0,0.0
1449617630164269291,0.346412698746,0.0,0.0,0.0,0.0,0.0
1449617630182756228,0.346412698746,0.0,0.0,0.0,0.0,0.0
1449617630234319684,0.31288889122,0.0,0.0,0.0,0.0,0.0
1449617630272135589,0.31288889122,0.0,0.0,0.0,0.0,0.0
1449617630310841711,0.31288889122,0.0,0.0,0.0,0.0,0.0
1449617630341817236,0.346412698746,0.0,0.0,0.0,0.0,0.0
1449617630402890293,0.346412698746,0.0,0.0,0.0,0.0,0.0
1449617630427383257,0.346412698746,0.0,0.0,0.0,0.0,0.0
1449617630463746854,0.346412698746,0.0,0.0,0.0,0.0,0.0
1449617630520668372,0.346412698746,0.0,0.0,0.0,0.0,0.0
1449617630549016772,0.346412698746,0.0,0.0,0.0,0.0,0.0
1449617630589870343,0.346412698746,0.0,0.0,0.0,0.0,0.0
1449617630623877416,0.346412698746,0.0,0.0,0.0,0.0,0.0
1449617630661386431,0.346412698746,0.0,0.0,0.0,0.0,0.0
1449617630703138841,0.346412698746,0.0,0.0,0.0,0.0,0.0
1449617630765241346,0.346412698746,0.0,0.0,0.0,0.0,0.0
1449617630785827381,0.346412698746,0.0,0.0,0.0,0.0,0.0
1449617630828066870,0.346412698746,0.0,0.0,0.0,0.0,0.0
1449617630873030313,0.346412698746,0.0,0.0,0.0,0.0,0.0
1449617630908801928,0.346412698746,0.0,0.0,0.0,0.0,0.0
1449617630949681106,0.346412698746,0.0,0.0,0.0,0.0,0.00634920671582
1449617631004930906,0.346412698746,0.0,0.0,0.0,0.0,0.00634920671582
1449617631020000496,0.346412698746,0.0,0.0,0.0,0.0,0.00634920671582
1449617631093607246,0.272737284793,0.0,0.0,0.0,0.0,0.0699248128816
1449617631137772436,0.268490148449,0.0,0.0,0.0,0.0,0.0383458655131
1449617631189388411,0.267093323136,0.0,0.0,0.0,0.0,0.0367585640205
1449617631234734570,0.259161564958,0.0,0.0,0.0,0.0,0.0367585640205
1449617631271119621,0.260558390272,0.0,0.0,0.0,0.0,0.0383458655131
1449617631328770532,0.260558390272,0.0,0.0,0.0,0.0,0.0383458655131
1449617631391636386,0.2570537535,0.0,0.0,0.0,0.0,0.0367585640205
1449617631423268137,0.2570537535,0.0,0.0,0.0,0.0,0.0367585640205
1449617631464694591,0.352,0.0,0.0,0.0,0.0,0.147368421053
1449617631507868219,0.352,0.0,0.0,0.0,0.0,0.147368421053
1449617631558050045,0.352,0.0,0.0,0.0,0.0,0.147368421053
1449617631600190485,0.352,0.0,0.0,0.0,0.0,0.105263157895
1449617631635293665,0.352,0.0,0.0,0.0,0.0,0.105263157895
1449617631664197198,0.352,0.0,0.0,0.0,0.0,0.105263157895
1449617631719551741,0.352,0.0,0.0,0.0,0.0,0.105263157895
1449617631754518217,0.352,0.0,0.0,0.0,0.0,0.273684210526
1449617631792634353,0.352,0.0,0.0,0.0,0.0,0.273684210526
1449617631816947493,0.271444566842,0.0,0.0,0.0,0.0,0.147368421053
1449617631872206159,0.265663996584,0.0,0.0,0.0,0.0,0.147368421053
1449617631905743020,0.265663996584,0.0,0.0,0.0,0.0,0.147368421053
1449617631969635010,0.233259045407,0.0,0.0,0.0,0.0,0.105263157895
1449617632005509270,0.230655399211,0.0,0.0,0.0,0.0,0.105263157895
1449617632030616392,0.230655399211,0.0,0.0,0.0,0.0,0.105263157895
1449617632096909165,0.226774529219,0.0,0.0,0.0,0.0,0.105263157895
1449617632125277514,0.226774529219,0.0,0.0,0.0,0.0,0.105263157895
1449617632152428767,0.223550708873,0.0,0.0,0.0,0.0,0.105263157895
1449617632186321051,0.223550708873,0.0,0.0,0.0,0.0,0.105263157895
1449617632223896908,0.223550708873,0.0,0.0,0.0,0.0,0.105263157895
1449617632281073248,0.220362658494,0.0,0.0,0.0,0.0,0.105263157895
1449617632314487001,0.215311512177,0.0,0.0,0.0,0.0,0.105263157895
1449617632337077415,0.215311512177,0.0,0.0,0.0,0.0,0.105263157895
1449617632399115037,0.213419931449,0.0,0.0,0.0,0.0,0.105263157895
1449617632436186647,0.213419931449,0.0,0.0,0.0,0.0,0.105263157895
1449617632483621865,0.210302201491,0.0,0.0,0.0,0.0,0.0631578947368
1449617632503677147,0.210302201491,0.0,0.0,0.0,0.0,0.0631578947368
1449617632551563639,0.184956699001,0.0,0.0,0.0,0.0,0.0631578947368
1449617632563644457,0.184956699001,0.0,0.0,0.0,0.0,0.0631578947368
1449617632627181284,0.183127604556,0.0,0.0,0.0,0.0,0.0631578947368
1449617632654669452,0.183127604556,0.0,0.0,0.0,0.0,0.0631578947368
1449617632717532389,0.181313232362,0.0,0.0,0.0,0.0,0.0631578947368
1449617632744952025,0.181313232362,0.0,0.0,0.0,0.0,0.0631578947368
1449617632785623952,0.198740644879,0.0,0.0,0.0,0.0,0.105263157895
1449617632810657119,0.198740644879,0.0,0.0,0.0,0.0,0.105263157895
1449617632852713401,0.167619048119,0.0,0.0,0.0,0.0,0.0126984134316
1449617632878053353,0.167619048119,0.0,0.0,0.0,0.0,0.0126984134316
1449617632934055074,0.167619048119,0.0,0.0,0.0,0.0,0.0126984134316
1449617632960030719,0.00558730190992,0.0,0.0,0.0,0.0,0.00634920671582
1449617632995615761,0.00558730190992,0.0,0.0,0.0,0.0,0.00634920671582
1449617633051807291,0.00558730190992,0.0,0.0,0.0,0.0,0.0
1449617633077264231,0.00558730190992,0.0,0.0,0.0,0.0,0.0
1449617633123072824,0.00558730190992,0.0,0.0,0.0,0.0,0.0
1449617633151036809,-0.0,0.0,0.0,0.0,0.0,-0.0
1449617633191938518,-0.0,0.0,0.0,0.0,0.0,-0.0
1449617633231015982,-0.0,0.0,0.0,0.0,0.0,-0.0
1449617633271096212,-0.0,0.0,0.0,0.0,0.0,-0.0
1449617633311397162,-0.0,0.0,0.0,0.0,0.0,-0.0
1449617633351453187,-0.0,0.0,0.0,0.0,0.0,-0.0
1449617633391528767,-0.0,0.0,0.0,0.0,0.0,-0.0
1449617633432650808,-0.0,0.0,0.0,0.0,0.0,-0.0
1449617633471184481,-0.0,0.0,0.0,0.0,0.0,-0.0
1449617633513340295,-0.0,0.0,0.0,0.0,0.0,-0.0
1449617633551044050,-0.0,0.0,0.0,0.0,0.0,-0.0
1449617633592249320,-0.0,0.0,0.0,0.0,0.0,-0.0
1449617633631780622,-0.0,0.0,0.0,0.0,0.0,-0.0
1449617633671232285,-0.0,0.0,0.0,0.0,0.0,-0.0
1449617633714827369,-0.0,0.0,0.0,0.0,0.0,-0.0
1449617633751637817,-0.0,0.0,0.0,0.0,0.0,-0.0
1449617633791376497,-0.0,0.0,0.0,0.0,0.0,-0.0
1449617633830943734,-0.0,0.0,0.0,0.0,0.0,-0.0
1449617633870879142,-0.0,0.0,0.0,0.0,0.0,-0.0
1449617633913900768,-0.0,0.0,0.0,0.0,0.0,-0.0
1449617633951096451,-0.0,0.0,0.0,0.0,0.0,-0.0
1449617633990949632,-0.0,0.0,0.0,0.0,0.0,-0.0
1449617634032618084,-0.0,0.0,0.0,0.0,0.0,-0.0
1449617634073842144,-0.0,0.0,0.0,0.0,0.0,-0.0
1449617634111346044,-0.0,0.0,0.0,0.0,0.0,-0.0
1449617634150969791,-0.0,0.0,0.0,0.0,0.0,-0.0
1449617634197548892,-0.0,0.0,0.0,0.0,0.0,-0.0
1449617634232195730,-0.0,0.0,0.0,0.0,0.0,-0.0
1449617634271033858,-0.0,0.0,0.0,0.0,0.0,-0.0
1449617634311795430,-0.0,0.0,0.0,0.0,0.0,-0.0
1449617634351824891,-0.0,0.0,0.0,0.0,0.0,-0.0
1449617634391181783,-0.0,0.0,0.0,0.0,0.0,-0.0
1449617634431377752,-0.0,0.0,0.0,0.0,0.0,-0.0
1449617634470853702,-0.0,0.0,0.0,0.0,0.0,-0.0
1449617634511532218,-0.0,0.0,0.0,0.0,0.0,-0.0
1449617634551231922,-0.0,0.0,0.0,0.0,0.0,-0.0
1449617634591170359,-0.0,0.0,0.0,0.0,0.0,-0.0
1449617634630857123,-0.0,0.0,0.0,0.0,0.0,-0.0
1449617634671066640,-0.0,0.0,0.0,0.0,0.0,-0.0
1449617634712246066,-0.0,0.0,0.0,0.0,0.0,-0.0
1449617634750883116,-0.0,0.0,0.0,0.0,0.0,-0.0
1449617634790926858,-0.0,0.0,0.0,0.0,0.0,-0.0
1449617634831099029,-0.0,0.0,0.0,0.0,0.0,-0.0
1449617634870660642,-0.0,0.0,0.0,0.0,0.0,-0.0
1449617634911018491,-0.0,0.0,0.0,0.0,0.0,-0.0
1449617634950826109,-0.0,0.0,0.0,0.0,0.0,-0.0
1449617634990825084,-0.0,0.0,0.0,0.0,0.0,-0.0
1449617635030758412,-0.0,0.0,0.0,0.0,0.0,-0.0
1449617635071393788,-0.0,0.0,0.0,0.0,0.0,-0.0
1449617635110744580,-0.0,0.0,0.0,0.0,0.0,-0.0
1449617635150724883,-0.0,0.0,0.0,0.0,0.0,-0.0
1449617635190797455,-0.0,0.0,0.0,0.0,0.0,-0.0
1449617635230883292,-0.0,0.0,0.0,0.0,0.0,-0.0
1449617635271279788,-0.0,0.0,0.0,0.0,0.0,-0.0
1449617635310801905,-0.0,0.0,0.0,0.0,0.0,-0.0
1449617635350813317,-0.0,0.0,0.0,0.0,0.0,-0.0
1449617635391067746,-0.0,0.0,0.0,0.0,0.0,-0.0
1449617635430995856,-0.0,0.0,0.0,0.0,0.0,-0.0
1449617635471265952,-0.0,0.0,0.0,0.0,0.0,-0.0
1449617635510761972,-0.0,0.0,0.0,0.0,0.0,-0.0
1449617635550683380,-0.0,0.0,0.0,0.0,0.0,-0.0
1449617635590752479,-0.0,0.0,0.0,0.0,0.0,-0.0
1449617635630687074,-0.0,0.0,0.0,0.0,0.0,-0.0
1449617635671670650,-0.0,0.0,0.0,0.0,0.0,-0.0
1449617635710911467,-0.0,0.0,0.0,0.0,0.0,-0.0
1449617635750733637,-0.0,0.0,0.0,0.0,0.0,-0.0
1449617635790807278,-0.0,0.0,0.0,0.0,0.0,-0.0
1449617635830748049,-0.0,0.0,0.0,0.0,0.0,-0.0
1449617635871852686,-0.0,0.0,0.0,0.0,0.0,-0.0
1449617635910691835,-0.0,0.0,0.0,0.0,0.0,-0.0
1449617635950754898,-0.0,0.0,0.0,0.0,0.0,-0.0
1449617635991033998,-0.0,0.0,0.0,0.0,0.0,-0.0
1449617636030739866,-0.0,0.0,0.0,0.0,0.0,-0.0
1449617636070793797,-0.0,0.0,0.0,0.0,0.0,-0.0
1449617636110764030,-0.0,0.0,0.0,0.0,0.0,-0.0
1449617636150801848,-0.0,0.0,0.0,0.0,0.0,-0.0
1449617636190814293,-0.0,0.0,0.0,0.0,0.0,-0.0
1449617636230747840,-0.0,0.0,0.0,0.0,0.0,-0.0
1449617636270769550,-0.0,0.0,0.0,0.0,0.0,-0.0
1449617636310752486,-0.0,0.0,0.0,0.0,0.0,-0.0
1449617636353767251,-0.0,0.0,0.0,0.0,0.0,-0.0
1449617636390683539,-0.0,0.0,0.0,0.0,0.0,-0.0
1449617636430970282,-0.0,0.0,0.0,0.0,0.0,-0.0
1449617636475355651,0.0,0.0,0.0,0.0,0.0,0.0126984134316
1449617636515627159,0.0,0.0,0.0,0.0,0.0,0.0126984134316
1449617636566531148,0.0,0.0,0.0,0.0,0.0,0.0
1449617636611220262,0.0,0.0,0.0,0.0,0.0,0.0
1449617636646866463,0.0,0.0,0.0,0.0,0.0,0.0
1449617636693358374,0.0,0.0,0.0,0.0,0.0,0.0
1449617636721535154,0.0,0.0,0.0,0.0,0.0,0.0
1449617636780180248,0.0,0.0,0.0,0.0,0.0,0.0523809552193
1449617636807914355,0.0,0.0,0.0,0.0,0.0,0.0523809552193
1449617636842308283,0.0,0.0,0.0,0.0,0.0,0.0666666671634
1449617636882554458,0.0,0.0,0.0,0.0,0.0,0.0666666671634
1449617636943498924,-0.0,0.0,0.0,0.0,0.0,0.0666666671634
1449617636958442732,0.346412698746,0.0,0.0,0.0,0.0,0.00634920671582
1449617637022469119,0.346412698746,0.0,0.0,0.0,0.0,0.00634920671582
1449617637040114065,0.346412698746,0.0,0.0,0.0,0.0,0.00634920671582
1449617637112754356,0.346412698746,0.0,0.0,0.0,0.0,0.00634920671582
1449617637122645807,0.346412698746,0.0,0.0,0.0,0.0,0.00634920671582
1449617637169284053,0.340825397491,0.0,0.0,0.0,0.0,0.0126984134316
1449617637200125131,0.340825397491,0.0,0.0,0.0,0.0,0.0126984134316
1449617637249663216,0.346412698746,0.0,0.0,0.0,0.0,0.0126984134316
1449617637278804699,0.346412698746,0.0,0.0,0.0,0.0,0.0126984134316
1449617637319889790,0.346412698746,0.0,0.0,0.0,0.0,0.0126984134316
1449617637366457693,0.346412698746,0.0,0.0,0.0,0.0,0.0126984134316
1449617637397997393,0.346412698746,0.0,0.0,0.0,0.0,0.0126984134316
1449617637441757712,0.346412698746,0.0,0.0,0.0,0.0,0.00634920671582
1449617637480079209,0.346412698746,0.0,0.0,0.0,0.0,0.00634920671582
1449617637517478364,0.346412698746,0.0,0.0,0.0,0.0,0.00634920671582
1449617637557530563,0.346412698746,0.0,0.0,0.0,0.0,0.00634920671582
1449617637604314943,0.346412698746,0.0,0.0,0.0,0.0,0.00634920671582
1449617637645383660,0.346412698746,0.0,0.0,0.0,0.0,0.00634920671582
1449617637686582524,0.346412698746,0.0,0.0,0.0,0.0,0.00634920671582
1449617637722915074,0.346412698746,0.0,0.0,0.0,0.0,0.00634920671582
1449617637760517492,0.346412698746,0.0,0.0,0.0,0.0,0.00634920671582
1449617637800569073,0.346412698746,0.0,0.0,0.0,0.0,0.00634920671582
1449617637843331141,0.346412698746,0.0,0.0,0.0,0.0,0.00634920671582
1449617637889027754,0.346412698746,0.0,0.0,0.0,0.0,0.00634920671582
1449617637918419030,0.346412698746,0.0,0.0,0.0,0.0,0.00634920671582
1449617637960411274,0.346412698746,0.0,0.0,0.0,0.0,0.00634920671582
1449617638004130413,0.346412698746,0.0,0.0,0.0,0.0,0.00634920671582
1449617638039088122,0.346412698746,0.0,0.0,0.0,0.0,0.0126984134316
1449617638080285395,0.346412698746,0.0,0.0,0.0,0.0,0.0126984134316
1449617638116600020,0.346412698746,0.0,0.0,0.0,0.0,0.0126984134316
1449617638161123367,0.346412698746,0.0,0.0,0.0,0.0,0.0126984134316
1449617638204072987,0.346412698746,0.0,0.0,0.0,0.0,0.0126984134316
1449617638234987382,0.352,0.0,0.0,0.0,0.0,0.00634920671582
1449617638280236747,0.352,0.0,0.0,0.0,0.0,0.00634920671582
1449617638326043053,0.352,0.0,0.0,0.0,0.0,0.00634920671582
1449617638366190360,0.346412698746,0.0,0.0,0.0,0.0,0.00634920671582
1449617638400779644,0.346412698746,0.0,0.0,0.0,0.0,0.00634920671582
1449617638438284670,0.301714288712,0.0,0.0,0.0,0.0,0.00634920671582
1449617638477467966,0.301714288712,0.0,0.0,0.0,0.0,0.00634920671582
1449617638529823524,0.301714288712,0.0,0.0,0.0,0.0,0.00634920671582
1449617638557009354,0.340825397491,0.0,0.0,0.0,0.0,0.0126984134316
1449617638626888768,0.340825397491,0.0,0.0,0.0,0.0,0.0126984134316
1449617638641426216,0.296126987457,0.0,0.0,0.0,0.0,0.0126984134316
1449617638679781581,0.296126987457,0.0,0.0,0.0,0.0,0.0126984134316
1449617638722335689,0.296126987457,0.0,0.0,0.0,0.0,0.0126984134316
1449617638761614404,0.346412698746,0.0,0.0,0.0,0.0,0.00634920671582
1449617638809242664,0.346412698746,0.0,0.0,0.0,0.0,0.00634920671582
1449617638837950871,0.301714288712,0.0,0.0,0.0,0.0,0.00634920671582
1449617638883098997,0.301714288712,0.0,0.0,0.0,0.0,0.00634920671582
1449617638922283324,0.301714288712,0.0,0.0,0.0,0.0,0.00634920671582
1449617638970714010,0.340825397491,0.0,0.0,0.0,0.0,0.0126984134316
1449617638997725680,0.340825397491,0.0,0.0,0.0,0.0,0.0126984134316
1449617639046635606,0.346412698746,0.0,0.0,0.0,0.0,0.00634920671582
1449617639085226037,0.346412698746,0.0,0.0,0.0,0.0,0.00634920671582
1449617639120251855,0.346412698746,0.0,0.0,0.0,0.0,0.00634920671582
1449617639160251083,0.346412698746,0.0,0.0,0.0,0.0,0.0126984134316
1449617639198055442,0.346412698746,0.0,0.0,0.0,0.0,0.0126984134316
1449617639238380308,0.346412698746,0.0,0.0,0.0,0.0,0.0126984134316
1449617639277751354,0.346412698746,0.0,0.0,0.0,0.0,0.0126984134316
1449617639326629734,0.346412698746,0.0,0.0,0.0,0.0,0.0126984134316
1449617639356765104,0.346412698746,0.0,0.0,0.0,0.0,0.0126984134316
1449617639422880490,0.346412698746,0.0,0.0,0.0,0.0,0.0126984134316
1449617639460083215,0.346412698746,0.0,0.0,0.0,0.0,0.00634920671582
1449617639481425282,0.346412698746,0.0,0.0,0.0,0.0,0.00634920671582
1449617639518045818,0.346412698746,0.0,0.0,0.0,0.0,0.00634920671582
1449617639561236745,0.346412698746,0.0,0.0,0.0,0.0,0.00634920671582
1449617639612713896,0.346412698746,0.0,0.0,0.0,0.0,0.00634920671582
1449617639646541082,0.346412698746,0.0,0.0,0.0,0.0,0.0190476194024
1449617639680270106,0.346412698746,0.0,0.0,0.0,0.0,0.0190476194024
1449617639717254012,0.346412698746,0.0,0.0,0.0,0.0,0.0190476194024
1449617639759323510,0.346412698746,0.0,0.0,0.0,0.0,0.0253968268633
1449617639804158961,0.346412698746,0.0,0.0,0.0,0.0,0.0253968268633
1449617639865271969,0.12,0.0,0.0,0.0,0.0,0.189473684211
1449617639897893837,0.12,0.0,0.0,0.0,0.0,0.189473684211
1449617639924320481,0.12,0.0,0.0,0.0,0.0,0.189473684211
1449617639974123518,0.12,0.0,0.0,0.0,0.0,0.273684210526
1449617640024695972,0.12,0.0,0.0,0.0,0.0,0.273684210526
1449617640069280094,0.12,0.0,0.0,0.0,0.0,0.315789473684
1449617640090590265,0.150857144356,0.0,0.0,0.0,0.0,-0.00751879528949
1449617640120261170,0.150857144356,0.0,0.0,0.0,0.0,-0.00751879528949
1449617640161875018,0.150857144356,0.0,0.0,0.0,0.0,-0.0285714268684
1449617640217662250,0.150857144356,0.0,0.0,0.0,0.0,-0.0285714268684
1449617640263523793,0.208033905523,0.0,0.0,0.0,0.0,0.231578947368
1449617640289653449,0.200723609257,0.0,0.0,0.0,0.0,0.231578947368
1449617640359243394,0.200723609257,0.0,0.0,0.0,0.0,0.231578947368
1449617640391670631,0.198900422366,0.0,0.0,0.0,0.0,0.231578947368
1449617640439049410,0.19525952464,0.0,0.0,0.0,0.0,0.273684210526
1449617640462848725,0.19525952464,0.0,0.0,0.0,0.0,0.273684210526
1449617640514017550,0.186182226355,0.0,0.0,0.0,0.0,0.273684210526
1449617640522763939,0.296126987457,0.0,0.0,0.0,0.0,0.336507940292
1449617640571503043,0.296126987457,0.0,0.0,0.0,0.0,0.336507940292
1449617640597868165,0.296126987457,0.0,0.0,0.0,0.0,0.336507940292
1449617640651542248,0.301714288712,0.0,0.0,0.0,0.0,0.342857146263
1449617640711861340,0.301714288712,0.0,0.0,0.0,0.0,0.342857146263
1449617640724150726,0.301714288712,0.0,0.0,0.0,0.0,0.342857146263
1449617640771819637,0.284952384949,0.0,0.0,0.0,0.0,0.330158734322
1449617640809683731,0.284952384949,0.0,0.0,0.0,0.0,0.330158734322
1449617640838313862,0.301714288712,0.0,0.0,0.0,0.0,0.342857146263
1449617640894999575,0.301714288712,0.0,0.0,0.0,0.0,0.342857146263
1449617640916597995,0.301714288712,0.0,0.0,0.0,0.0,0.342857146263
1449617640963734653,0.296126987457,0.0,0.0,0.0,0.0,0.336507940292
1449617641004248797,0.296126987457,0.0,0.0,0.0,0.0,0.336507940292
1449617641058184796,0.27377778244,0.0,0.0,0.0,0.0,0.311111116409
1449617641077552569,0.27377778244,0.0,0.0,0.0,0.0,0.311111116409
1449617641120559904,0.296126987457,0.0,0.0,0.0,0.0,0.342857146263
1449617641159442607,0.296126987457,0.0,0.0,0.0,0.0,0.342857146263
1449617641204338461,0.296126987457,0.0,0.0,0.0,0.0,0.342857146263
1449617641251476096,0.301714288712,0.0,0.0,0.0,0.0,0.336507940292
1449617641278716536,0.301714288712,0.0,0.0,0.0,0.0,0.336507940292
1449617641316804695,0.301714288712,0.0,0.0,0.0,0.0,0.336507940292
1449617641365888187,0.279365083694,0.0,0.0,0.0,0.0,0.31746032238
1449617641399096466,0.279365083694,0.0,0.0,0.0,0.0,0.31746032238
1449617641443131044,0.301714288712,0.0,0.0,0.0,0.0,0.336507940292
1449617641494773202,0.301714288712,0.0,0.0,0.0,0.0,0.336507940292
1449617641520661851,0.301714288712,0.0,0.0,0.0,0.0,0.336507940292
1449617641566847082,0.296126987457,0.0,0.0,0.0,0.0,0.342857146263
1449617641602328604,0.296126987457,0.0,0.0,0.0,0.0,0.342857146263
1449617641639103189,0.290539686203,0.0,0.0,0.0,0.0,0.330158734322
1449617641681923825,0.290539686203,0.0,0.0,0.0,0.0,0.330158734322
1449617641745160944,0.290539686203,0.0,0.0,0.0,0.0,0.330158734322
1449617641768527254,0.296126987457,0.0,0.0,0.0,0.0,0.342857146263
1449617641824755423,0.252095240593,0.0,0.0,0.0,0.0,0.346616543908
1449617641837577925,0.252095240593,0.0,0.0,0.0,0.0,0.34185463943
1449617641888244473,0.252095240593,0.0,0.0,0.0,0.0,0.34185463943
1449617641919925844,0.252095240593,0.0,0.0,0.0,0.0,0.33132832364
1449617642001893510,0.296126987457,0.0,0.0,0.0,0.0,0.342857146263
1449617642015586224,0.296126987457,0.0,0.0,0.0,0.0,0.342857146263
1449617642050203760,0.340825397491,0.0,0.0,0.0,0.0,0.0317460328341
1449617642077582776,0.340825397491,0.0,0.0,0.0,0.0,0.0317460328341
1449617642116495373,0.340825397491,0.0,0.0,0.0,0.0,0.0317460328341
1449617642157759810,0.340825397491,0.0,0.0,0.0,0.0,0.0126984134316
1449617642207273262,0.340825397491,0.0,0.0,0.0,0.0,0.0126984134316
1449617642259135603,0.340825397491,0.0,0.0,0.0,0.0,0.0126984134316
1449617642279935199,0.340825397491,0.0,0.0,0.0,0.0,0.0126984134316
1449617642316391802,0.352,0.0,0.0,0.0,0.0,0.00634920671582
1449617642367129673,0.352,0.0,0.0,0.0,0.0,0.00634920671582
1449617642405430799,0.352,0.0,0.0,0.0,0.0,0.00634920671582
1449617642437795437,0.346412698746,0.0,0.0,0.0,0.0,0.00634920671582
1449617642479534821,0.346412698746,0.0,0.0,0.0,0.0,0.00634920671582
1449617642524195289,0.346412698746,0.0,0.0,0.0,0.0,0.00634920671582
1449617642558621668,0.346412698746,0.0,0.0,0.0,0.0,0.00634920671582
1449617642600568887,0.346412698746,0.0,0.0,0.0,0.0,0.00634920671582
1449617642639910917,0.346412698746,0.0,0.0,0.0,0.0,0.00634920671582
1449617642676099089,0.346412698746,0.0,0.0,0.0,0.0,0.00634920671582
1449617642716250387,0.346412698746,0.0,0.0,0.0,0.0,0.00634920671582
1449617642757510116,0.346412698746,0.0,0.0,0.0,0.0,0.0
1449617642811813535,0.346412698746,0.0,0.0,0.0,0.0,0.0
1449617642843629633,0.346412698746,0.0,0.0,0.0,0.0,0.0
1449617642879125992,0.346412698746,0.0,0.0,0.0,0.0,0.0
1449617642920245041,0.346412698746,0.0,0.0,0.0,0.0,0.0
1449617642957384611,0.31288889122,0.0,0.0,0.0,0.0,0.0
1449617643015960095,0.31288889122,0.0,0.0,0.0,0.0,0.0
1449617643037268857,0.346412698746,0.0,0.0,0.0,0.0,0.0
1449617643078788673,0.346412698746,0.0,0.0,0.0,0.0,0.0
1449617643129176512,0.346412698746,0.0,0.0,0.0,0.0,0.0
1449617643171995130,0.346412698746,0.0,0.0,0.0,0.0,0.0
1449617643204343294,0.346412698746,0.0,0.0,0.0,0.0,0.0
1449617643238021503,0.346412698746,0.0,0.0,0.0,0.0,0.0
1449617643279585596,0.346412698746,0.0,0.0,0.0,0.0,0.0
1449617643322350054,0.346412698746,0.0,0.0,0.0,0.0,0.0
1449617643361415200,0.346412698746,0.0,0.0,0.0,0.0,0.0
1449617643402642806,0.346412698746,0.0,0.0,0.0,0.0,0.0
1449617643447680579,0.346412698746,0.0,0.0,0.0,0.0,0.0
1449617643477081007,0.346412698746,0.0,0.0,0.0,0.0,0.0
1449617643516751440,0.346412698746,0.0,0.0,0.0,0.0,0.0
1449617643561946628,0.346412698746,0.0,0.0,0.0,0.0,0.0
1449617643598647705,0.346412698746,0.0,0.0,0.0,0.0,0.0
1449617643638848948,0.346412698746,0.0,0.0,0.0,0.0,0.0
1449617643679889948,0.346412698746,0.0,0.0,0.0,0.0,0.0
1449617643715006996,0.346412698746,0.0,0.0,0.0,0.0,0.0
1449617643757663884,0.346412698746,0.0,0.0,0.0,0.0,0.00634920671582
1449617643798530947,0.346412698746,0.0,0.0,0.0,0.0,0.00634920671582
1449617643841232840,0.346412698746,0.0,0.0,0.0,0.0,0.00634920671582
1449617643879448750,0.346412698746,0.0,0.0,0.0,0.0,0.00634920671582
1449617643922441695,0.346412698746,0.0,0.0,0.0,0.0,0.00634920671582
1449617643958893443,0.346412698746,0.0,0.0,0.0,0.0,0.00634920671582
1449617644004125041,0.346412698746,0.0,0.0,0.0,0.0,0.00634920671582
1449617644051362544,0.346412698746,0.0,0.0,0.0,0.0,0.00634920671582
1449617644076101406,0.346412698746,0.0,0.0,0.0,0.0,0.00634920671582
1449617644133080743,0.346412698746,0.0,0.0,0.0,0.0,0.00634920671582
1449617644159086097,0.346412698746,0.0,0.0,0.0,0.0,0.00634920671582
1449617644196302432,0.346412698746,0.0,0.0,0.0,0.0,0.00634920671582
1449617644240038156,0.346412698746,0.0,0.0,0.0,0.0,0.00634920671582
1449617644279498589,0.346412698746,0.0,0.0,0.0,0.0,0.00634920671582
1449617644319879888,0.346412698746,0.0,0.0,0.0,0.0,0.00634920671582
1449617644359152356,0.346412698746,0.0,0.0,0.0,0.0,0.00634920671582
1449617644400060351,0.346412698746,0.0,0.0,0.0,0.0,0.00634920671582
1449617644439274895,0.346412698746,0.0,0.0,0.0,0.0,0.00634920671582
1449617644476215414,0.346412698746,0.0,0.0,0.0,0.0,0.00634920671582
1449617644515522149,0.346412698746,0.0,0.0,0.0,0.0,0.00634920671582
1449617644562401181,0.346412698746,0.0,0.0,0.0,0.0,0.00634920671582
1449617644604152260,0.346412698746,0.0,0.0,0.0,0.0,0.00634920671582
1449617644635918141,0.346412698746,0.0,0.0,0.0,0.0,0.00634920671582
1449617644682956187,0.346412698746,0.0,0.0,0.0,0.0,0.00634920671582
1449617644717181003,0.346412698746,0.0,0.0,0.0,0.0,0.00634920671582
1449617644758692405,0.340825397491,0.0,0.0,0.0,0.0,0.00634920671582
1449617644794670028,0.340825397491,0.0,0.0,0.0,0.0,0.00634920671582
1449617644834258139,0.346412698746,0.0,0.0,0.0,0.0,0.00634920671582
1449617644877818814,0.346412698746,0.0,0.0,0.0,0.0,0.00634920671582
1449617644919693791,0.346412698746,0.0,0.0,0.0,0.0,0.00634920671582
1449617644959174617,0.346412698746,0.0,0.0,0.0,0.0,0.00634920671582
1449617644994873363,0.346412698746,0.0,0.0,0.0,0.0,0.00634920671582
1449617645035057242,0.307301589966,0.0,0.0,0.0,0.0,0.0
1449617645081602046,0.307301589966,0.0,0.0,0.0,0.0,0.0
1449617645114169852,0.307301589966,0.0,0.0,0.0,0.0,0.0
1449617645155365867,0.346412698746,0.0,0.0,0.0,0.0,0.00634920671582
1449617645198418012,0.259809524059,0.0,0.0,0.0,0.0,0.00476190503687
1449617645236582644,0.301714288712,0.0,0.0,0.0,0.0,0.00634920671582
1449617645284636458,0.301714288712,0.0,0.0,0.0,0.0,0.00634920671582
1449617645316931068,0.301714288712,0.0,0.0,0.0,0.0,0.00634920671582
1449617645368932976,0.259809524059,0.0,0.0,0.0,0.0,0.00476190503687
1449617645399123430,0.259809524059,0.0,0.0,0.0,0.0,0.00476190503687
1449617645435260609,0.27377778244,0.0,0.0,0.0,0.0,0.304761910439
1449617645478337578,0.27377778244,0.0,0.0,0.0,0.0,0.304761910439
1449617645518745184,0.27377778244,0.0,0.0,0.0,0.0,0.304761910439
1449617645563023011,0.301714288712,0.0,0.0,0.0,0.0,0.342857146263
1449617645596595369,0.301714288712,0.0,0.0,0.0,0.0,0.342857146263
1449617645634193511,0.296126987457,0.0,0.0,0.0,0.0,0.342857146263
1449617645680425904,0.296126987457,0.0,0.0,0.0,0.0,0.342857146263
1449617645716507402,0.296126987457,0.0,0.0,0.0,0.0,0.342857146263
1449617645759544144,0.262603179932,0.0,0.0,0.0,0.0,0.298412704468
1449617645794604061,0.262603179932,0.0,0.0,0.0,0.0,0.298412704468
1449617645834590702,0.301714288712,0.0,0.0,0.0,0.0,0.342857146263
1449617645879087205,0.301714288712,0.0,0.0,0.0,0.0,0.342857146263
1449617645916923737,0.301714288712,0.0,0.0,0.0,0.0,0.342857146263
1449617645964810836,0.301714288712,0.0,0.0,0.0,0.0,0.342857146263
1449617645996611014,0.301714288712,0.0,0.0,0.0,0.0,0.342857146263
1449617646034841934,0.296126987457,0.0,0.0,0.0,0.0,0.336507940292
1449617646083305642,0.296126987457,0.0,0.0,0.0,0.0,0.336507940292
1449617646117684579,0.296126987457,0.0,0.0,0.0,0.0,0.336507940292
1449617646160770800,0.301714288712,0.0,0.0,0.0,0.0,0.336507940292
1449617646195492325,0.301714288712,0.0,0.0,0.0,0.0,0.336507940292
1449617646235524074,0.301714288712,0.0,0.0,0.0,0.0,0.342857146263
1449617646278590695,0.301714288712,0.0,0.0,0.0,0.0,0.342857146263
1449617646318953480,0.301714288712,0.0,0.0,0.0,0.0,0.342857146263
1449617646362330056,0.301714288712,0.0,0.0,0.0,0.0,0.342857146263
1449617646395688797,0.301714288712,0.0,0.0,0.0,0.0,0.342857146263
