%time,field.header.seq,field.header.stamp,field.header.frame_id,field.ns,field.id,field.type,field.action,field.pose.position.x,field.pose.position.y,field.pose.position.z,field.pose.orientation.x,field.pose.orientation.y,field.pose.orientation.z,field.pose.orientation.w,field.scale.x,field.scale.y,field.scale.z,field.color.r,field.color.g,field.color.b,field.color.a,field.lifetime,field.frame_locked,field.text,field.mesh_resource,field.mesh_use_embedded_materials
1449617618868200925,0,0,/odom,bcmd_vector,0,0,0,0.0,0.0,0.0,0.0,0.0,0.0,1.0,0.00559730190992,0.05,0.05,0.0,1.0,0.0,1.0,0,0,,,0
1449617618882204195,1,0,/odom,bcmd_vector,0,0,0,0.0,0.0,0.0,0.0,0.0,0.0,1.0,0.00559730190992,0.05,0.05,0.0,1.0,0.0,1.0,0,0,,,0
1449617618932404569,2,0,/odom,bcmd_vector,0,0,0,0.0,0.0,0.0,0.0,0.0,0.0,1.0,0.0111846038198,0.05,0.05,0.0,1.0,0.0,1.0,0,0,,,0
1449617618982604913,3,0,/odom,bcmd_vector,0,0,0,0.0,0.0,0.0,0.0,0.0,0.0,1.0,0.0111846038198,0.05,0.05,0.0,1.0,0.0,1.0,0,0,,,0
1449617619006246112,4,0,/odom,bcmd_vector,0,0,0,0.0,0.0,0.0,0.0,0.0,0.0,1.0,0.0111846038198,0.05,0.05,0.0,1.0,0.0,1.0,0,0,,,0
1449617619062066126,5,0,/odom,bcmd_vector,0,0,0,0.0,0.0,0.0,0.0,0.0,0.0,1.0,0.0167719050741,0.05,0.05,0.0,1.0,0.0,1.0,0,0,,,0
1449617619086384318,6,0,/odom,bcmd_vector,0,0,0,0.0,0.0,0.0,0.0,0.0,0.0,1.0,0.0167719050741,0.05,0.05,0.0,1.0,0.0,1.0,0,0,,,0
1449617619123074278,7,0,/odom,bcmd_vector,0,0,0,0.0,0.0,0.0,0.0,0.0,0.0,1.0,0.0335338101482,0.05,0.05,0.0,1.0,0.0,1.0,0,0,,,0
1449617619187068252,8,0,/odom,bcmd_vector,0,0,0,0.0,0.0,0.0,0.0,0.0,0.0,1.0,0.0335338101482,0.05,0.05,0.0,1.0,0.0,1.0,0,0,,,0
1449617619208879202,9,0,/odom,bcmd_vector,0,0,0,0.0,0.0,0.0,0.0,0.0,0.0,1.0,0.0335338101482,0.05,0.05,0.0,1.0,0.0,1.0,0,0,,,0
1449617619242606492,10,0,/odom,bcmd_vector,0,0,0,0.0,0.0,0.0,0.0,0.0,0.0,1.0,0.0558830177879,0.05,0.05,0.0,1.0,0.0,1.0,0,0,,,0
1449617619292159700,11,0,/odom,bcmd_vector,0,0,0,0.0,0.0,0.0,0.0,0.0,0.0,1.0,0.0558830177879,0.05,0.05,0.0,1.0,0.0,1.0,0,0,,,0
1449617619353660751,12,0,/odom,bcmd_vector,0,0,0,0.0,0.0,0.0,0.0,0.0,0.0,1.0,0.0558830177879,0.05,0.05,0.0,1.0,0.0,1.0,0,0,,,0
1449617619380061843,13,0,/odom,bcmd_vector,0,0,0,0.0,0.0,0.0,0.0,0.0,0.0,1.0,0.184390962372,0.05,0.05,0.0,1.0,0.0,1.0,0,0,,,0
1449617619412245011,14,0,/odom,bcmd_vector,0,0,0,0.0,0.0,0.0,0.0,0.0,0.0,1.0,0.184390962372,0.05,0.05,0.0,1.0,0.0,1.0,0,0,,,0
1449617619460258831,15,0,/odom,bcmd_vector,0,0,0,0.0,0.0,0.0,0.0,0.0,0.0,1.0,0.189978263626,0.05,0.05,0.0,1.0,0.0,1.0,0,0,,,0
1449617619483808219,16,0,/odom,bcmd_vector,0,0,0,0.0,0.0,0.0,0.0,0.0,0.0,1.0,0.189978263626,0.05,0.05,0.0,1.0,0.0,1.0,0,0,,,0
1449617619528626354,17,0,/odom,bcmd_vector,0,0,0,0.0,0.0,0.0,0.0,0.0,0.0,1.0,0.189978263626,0.05,0.05,0.0,1.0,0.0,1.0,0,0,,,0
1449617619570498828,18,0,/odom,bcmd_vector,0,0,0,0.0,0.0,0.0,0.0,0.0,0.0,1.0,0.189978263626,0.05,0.05,0.0,1.0,0.0,1.0,0,0,,,0
1449617619600544199,19,0,/odom,bcmd_vector,0,0,0,0.0,0.0,0.0,0.0,0.0,0.0,1.0,0.189978263626,0.05,0.05,0.0,1.0,0.0,1.0,0,0,,,0
1449617619773745835,20,0,/odom,bcmd_vector,0,0,0,0.0,0.0,0.0,0.0,0.0,0.0,1.0,0.189978263626,0.05,0.05,0.0,1.0,0.0,1.0,0,0,,,0
1449617619804084130,21,0,/odom,bcmd_vector,0,0,0,0.0,0.0,0.0,0.0,0.0,0.0,1.0,0.189978263626,0.05,0.05,0.0,1.0,0.0,1.0,0,0,,,0
1449617619842857167,22,0,/odom,bcmd_vector,0,0,0,0.0,0.0,0.0,0.0,0.0,0.0,1.0,0.189978263626,0.05,0.05,0.0,1.0,0.0,1.0,0,0,,,0
1449617619899655269,23,0,/odom,bcmd_vector,0,0,0,0.0,0.0,0.0,0.0,0.0,0.0,1.0,0.189978263626,0.05,0.05,0.0,1.0,0.0,1.0,0,0,,,0
1449617619920783190,24,0,/odom,bcmd_vector,0,0,0,0.0,0.0,0.0,0.0,0.0,0.0,1.0,0.189978263626,0.05,0.05,0.0,1.0,0.0,1.0,0,0,,,0
1449617619965942211,25,0,/odom,bcmd_vector,0,0,0,0.0,0.0,0.0,0.0,0.0,0.0,1.0,0.173216349373,0.05,0.05,0.0,1.0,0.0,1.0,0,0,,,0
1449617620007334122,26,0,/odom,bcmd_vector,0,0,0,0.0,0.0,0.0,0.0,0.0,0.0,1.0,0.173216349373,0.05,0.05,0.0,1.0,0.0,1.0,0,0,,,0
1449617620043051966,27,0,/odom,bcmd_vector,0,0,0,0.0,0.0,0.0,0.0,0.0,0.0,1.0,0.189978263626,0.05,0.05,0.0,1.0,0.0,1.0,0,0,,,0
1449617620081167146,28,0,/odom,bcmd_vector,0,0,0,0.0,0.0,0.0,0.0,0.0,0.0,1.0,0.189978263626,0.05,0.05,0.0,1.0,0.0,1.0,0,0,,,0
1449617620120640264,29,0,/odom,bcmd_vector,0,0,0,0.0,0.0,0.0,0.0,0.0,0.0,1.0,0.189978263626,0.05,0.05,0.0,1.0,0.0,1.0,0,0,,,0
1449617620160330149,30,0,/odom,bcmd_vector,0,0,0,0.0,0.0,0.0,0.0,0.0,0.0,1.0,0.189978263626,0.05,0.05,0.0,1.0,0.0,1.0,0,0,,,0
1449617620209614404,31,0,/odom,bcmd_vector,0,0,0,0.0,0.0,0.0,0.0,0.0,0.0,1.0,0.189978263626,0.05,0.05,0.0,1.0,0.0,1.0,0,0,,,0
1449617620244191435,32,0,/odom,bcmd_vector,0,0,0,0.0,0.0,0.0,0.0,0.0,0.0,1.0,0.167629048119,0.05,0.05,0.0,1.0,0.0,1.0,0,0,,,0
1449617620285795844,33,0,/odom,bcmd_vector,0,0,0,0.0,0.0,0.0,0.0,0.0,0.0,1.0,0.167629048119,0.05,0.05,0.0,1.0,0.0,1.0,0,0,,,0
1449617620322113645,34,0,/odom,bcmd_vector,0,0,0,0.0,0.0,0.0,0.0,0.0,0.0,1.0,0.167629048119,0.05,0.05,0.0,1.0,0.0,1.0,0,0,,,0
1449617620370256252,35,0,/odom,bcmd_vector,0,0,0,0.00287963245437,3.04332289367e-05,0.0,0.0,0.0,0.00845852683232,0.999964226022,0.346422698746,0.05,0.05,0.0,1.0,0.0,1.0,0,0,,,0
1449617620434742220,36,0,/odom,bcmd_vector,0,0,0,0.00287963245437,3.04332289367e-05,0.0,0.0,0.0,0.00845852683232,0.999964226022,0.346422698746,0.05,0.05,0.0,1.0,0.0,1.0,0,0,,,0
1449617620446943252,37,0,/odom,bcmd_vector,0,0,0,0.00287963245437,3.04332289367e-05,0.0,0.0,0.0,0.00845852683232,0.999964226022,0.346422698746,0.05,0.05,0.0,1.0,0.0,1.0,0,0,,,0
1449617620509776582,38,0,/odom,bcmd_vector,0,0,0,0.00287963245437,3.04332289367e-05,0.0,0.0,0.0,0.00845852683232,0.999964226022,0.346422698746,0.05,0.05,0.0,1.0,0.0,1.0,0,0,,,0
1449617620535332057,39,0,/odom,bcmd_vector,0,0,0,0.00287963245437,3.04332289367e-05,0.0,0.0,0.0,0.00845852683232,0.999964226022,0.346422698746,0.05,0.05,0.0,1.0,0.0,1.0,0,0,,,0
1449617620563636977,40,0,/odom,bcmd_vector,0,0,0,0.00287963245437,3.04332289367e-05,0.0,0.0,0.0,0.011632968667,0.999932334731,0.340835397491,0.05,0.05,0.0,1.0,0.0,1.0,0,0,,,0
1449617620610558121,41,0,/odom,bcmd_vector,0,0,0,0.00287963245437,3.04332289367e-05,0.0,0.0,0.0,0.011632968667,0.999932334731,0.340835397491,0.05,0.05,0.0,1.0,0.0,1.0,0,0,,,0
1449617620648786236,42,0,/odom,bcmd_vector,0,0,0,0.00287963245437,3.04332289367e-05,0.0,0.0,0.0,0.00845852683232,0.999964226022,0.128517939339,0.05,0.05,0.0,1.0,0.0,1.0,0,0,,,0
1449617620688451744,43,0,/odom,bcmd_vector,0,0,0,0.00575878249245,9.12962879474e-05,0.0,0.0,0.0,0.0137422194698,0.999905571244,0.128517939339,0.05,0.05,0.0,1.0,0.0,1.0,0,0,,,0
1449617620726878809,44,0,/odom,bcmd_vector,0,0,0,0.00863841494682,0.000121729516884,0.0,0.0,0.0,0.00845852683232,0.999964226022,0.128517939339,0.05,0.05,0.0,1.0,0.0,1.0,0,0,,,0
1449617620784674116,45,0,/odom,bcmd_vector,0,0,0,0.00863841494682,0.000121729516884,0.0,0.0,0.0,0.00845852683232,0.999964226022,0.0726449215508,0.05,0.05,0.0,1.0,0.0,1.0,0,0,,,0
1449617620811160437,46,0,/odom,bcmd_vector,0,0,0,0.00863841494682,0.000121729516884,0.0,0.0,0.0,0.00845852683232,0.999964226022,0.0726449215508,0.05,0.05,0.0,1.0,0.0,1.0,0,0,,,0
1449617620844764294,47,0,/odom,bcmd_vector,0,0,0,0.0143976798556,0.000182595974757,0.0,0.0,0.0,0.00845852683232,0.999964226022,0.128517939339,0.05,0.05,0.0,1.0,0.0,1.0,0,0,,,0
1449617620896890861,48,0,/odom,bcmd_vector,0,0,0,0.0143976798556,0.000182595974757,0.0,0.0,0.0,0.00845852683232,0.999964226022,0.128517939339,0.05,0.05,0.0,1.0,0.0,1.0,0,0,,,0
1449617620928714733,49,0,/odom,bcmd_vector,0,0,0,0.0143976798556,0.000182595974757,0.0,0.0,0.0,0.00845852683232,0.999964226022,0.128517939339,0.05,0.05,0.0,1.0,0.0,1.0,0,0,,,0
1449617620974072842,50,0,/odom,bcmd_vector,0,0,0,0.0172768298936,0.000243459033768,0.0,0.0,0.0,0.0137422194698,0.999905571244,0.189978263626,0.05,0.05,0.0,1.0,0.0,1.0,0,0,,,0
1449617621045142148,51,0,/odom,bcmd_vector,0,0,0,0.020156462348,0.000273892262705,0.0,0.0,0.0,0.00845852683232,0.999964226022,0.189978263626,0.05,0.05,0.0,1.0,0.0,1.0,0,0,,,0
1449617621052112481,52,0,/odom,bcmd_vector,0,0,0,0.020156462348,0.000273892262705,0.0,0.0,0.0,0.0052839997518,0.999986039576,0.167629048119,0.05,0.05,0.0,1.0,0.0,1.0,0,0,,,0
1449617621085156075,53,0,/odom,bcmd_vector,0,0,0,0.020156462348,0.000273892262705,0.0,0.0,0.0,0.0052839997518,0.999986039576,0.167629048119,0.05,0.05,0.0,1.0,0.0,1.0,0,0,,,0
1449617621157269515,54,0,/odom,bcmd_vector,0,0,0,0.020156462348,0.000273892262705,0.0,0.0,0.0,0.0052839997518,0.999986039576,0.167629048119,0.05,0.05,0.0,1.0,0.0,1.0,0,0,,,0
1449617621171003752,55,0,/odom,bcmd_vector,0,0,0,0.0230356123861,0.000334755321716,0.0,0.0,0.0,0.0105678519699,0.999944158693,0.184390962372,0.05,0.05,0.0,1.0,0.0,1.0,0,0,,,0
1449617621210005053,56,0,/odom,bcmd_vector,0,0,0,0.0230356123861,0.000334755321716,0.0,0.0,0.0,0.0105678519699,0.999944158693,0.189978263626,0.05,0.05,0.0,1.0,0.0,1.0,0,0,,,0
1449617621241863152,57,0,/odom,bcmd_vector,0,0,0,0.0259152448405,0.000365188550652,0.0,0.0,0.0,0.0052839997518,0.999986039576,0.189978263626,0.05,0.05,0.0,1.0,0.0,1.0,0,0,,,0
1449617621333775532,58,0,/odom,bcmd_vector,0,0,0,0.0259152448405,0.000365188550652,0.0,0.0,0.0,0.0052839997518,0.999986039576,0.189978263626,0.05,0.05,0.0,1.0,0.0,1.0,0,0,,,0
1449617621345663661,59,0,/odom,bcmd_vector,0,0,0,0.0259152448405,0.000365188550652,0.0,0.0,0.0,0.0052839997518,0.999986039576,0.189978263626,0.05,0.05,0.0,1.0,0.0,1.0,0,0,,,0
1449617621421289487,60,0,/odom,bcmd_vector,0,0,0,0.0259152448405,0.000365188550652,0.0,0.0,0.0,0.0052839997518,0.999986039576,0.251438577423,0.05,0.05,0.0,1.0,0.0,1.0,0,0,,,0
1449617621441722119,61,0,/odom,bcmd_vector,0,0,0,0.0259152448405,0.000365188550652,0.0,0.0,0.0,0.0052839997518,0.999986039576,0.251438577423,0.05,0.05,0.0,1.0,0.0,1.0,0,0,,,0
1449617621447119914,62,0,/odom,bcmd_vector,0,0,0,0.0259152448405,0.000365188550652,0.0,0.0,0.0,0.00210941941862,0.999997775172,0.346422698746,0.05,0.05,0.0,1.0,0.0,1.0,0,0,,,0
1449617621481249605,63,0,/odom,bcmd_vector,0,0,0,0.0259152448405,0.000365188550652,0.0,0.0,0.0,0.00210941941862,0.999997775172,0.346422698746,0.05,0.05,0.0,1.0,0.0,1.0,0,0,,,0
1449617621560453954,64,0,/odom,bcmd_vector,0,0,0,0.0259152448405,0.000365188550652,0.0,0.0,0.0,0.00210941941862,0.999997775172,0.346422698746,0.05,0.05,0.0,1.0,0.0,1.0,0,0,,,0
1449617621579011484,65,0,/odom,bcmd_vector,0,0,0,0.0259152448405,0.000365188550652,0.0,0.0,0.0,0.00210941941862,0.999997775172,0.340835397491,0.05,0.05,0.0,1.0,0.0,1.0,0,0,,,0
1449617621608422294,66,0,/odom,bcmd_vector,0,0,0,0.0259152448405,0.000365188550652,0.0,0.0,0.0,0.00210941941862,0.999997775172,0.346422698746,0.05,0.05,0.0,1.0,0.0,1.0,0,0,,,0
1449617621642752120,67,0,/odom,bcmd_vector,0,0,0,0.0287950381062,0.000365188550652,0.0,0.0,0.0,-0.00317459802558,0.999994960951,0.346422698746,0.05,0.05,0.0,1.0,0.0,1.0,0,0,,,0
1449617621737568287,68,0,/odom,bcmd_vector,0,0,0,0.0287950381062,0.000365188550652,0.0,0.0,0.0,-0.00317459802558,0.999994960951,0.346422698746,0.05,0.05,0.0,1.0,0.0,1.0,0,0,,,0
1449617621746181438,69,0,/odom,bcmd_vector,0,0,0,0.0345544638264,0.000395621779589,0.0,0.0,0.0,-0.00317459802558,0.999994960951,0.346422698746,0.05,0.05,0.0,1.0,0.0,1.0,0,0,,,0
1449617621766741570,70,0,/odom,bcmd_vector,0,0,0,0.0345544638264,0.000395621779589,0.0,0.0,0.0,-0.00317459802558,0.999994960951,0.346422698746,0.05,0.05,0.0,1.0,0.0,1.0,0,0,,,0
1449617621819415396,71,0,/odom,bcmd_vector,0,0,0,0.0345544638264,0.000395621779589,0.0,0.0,0.0,-0.00317459802558,0.999994960951,0.346422698746,0.05,0.05,0.0,1.0,0.0,1.0,0,0,,,0
1449617621848274817,72,0,/odom,bcmd_vector,0,0,0,0.040314050358,0.000395621779589,0.0,0.0,0.0,-0.00317459802558,0.999994960951,0.346422698746,0.05,0.05,0.0,1.0,0.0,1.0,0,0,,,0
1449617621883157939,73,0,/odom,bcmd_vector,0,0,0,0.040314050358,0.000395621779589,0.0,0.0,0.0,-0.00317459802558,0.999994960951,0.346422698746,0.05,0.05,0.0,1.0,0.0,1.0,0,0,,,0
1449617621930108549,74,0,/odom,bcmd_vector,0,0,0,0.0460736368896,0.000395621779589,0.0,0.0,0.0,-0.00317459802558,0.999994960951,0.346422698746,0.05,0.05,0.0,1.0,0.0,1.0,0,0,,,0
1449617621970478785,75,0,/odom,bcmd_vector,0,0,0,0.0460736368896,0.000395621779589,0.0,0.0,0.0,-0.00317459802558,0.999994960951,0.346422698746,0.05,0.05,0.0,1.0,0.0,1.0,0,0,,,0
1449617622031454277,76,0,/odom,bcmd_vector,0,0,0,0.0518332234211,0.000395621779589,0.0,0.0,0.0,-0.00317459802558,0.999994960951,0.346422698746,0.05,0.05,0.0,1.0,0.0,1.0,0,0,,,0
1449617622041176990,77,0,/odom,bcmd_vector,0,0,0,0.0604721207843,0.000304322092779,0.0,0.0,0.0,-0.0052839997518,0.999986039576,0.346422698746,0.05,0.05,0.0,1.0,0.0,1.0,0,0,,,0
1449617622083917260,78,0,/odom,bcmd_vector,0,0,0,0.0604721207843,0.000304322092779,0.0,0.0,0.0,-0.0052839997518,0.999986039576,0.346422698746,0.05,0.05,0.0,1.0,0.0,1.0,0,0,,,0
1449617622120443496,79,0,/odom,bcmd_vector,0,0,0,0.066231385693,0.000243455634906,0.0,0.0,0.0,-0.0052839997518,0.999986039576,0.346422698746,0.05,0.05,0.0,1.0,0.0,1.0,0,0,,,0
1449617622167360590,80,0,/odom,bcmd_vector,0,0,0,0.0691105357311,0.000182592575895,0.0,0.0,0.0,-0.0137422194698,0.999905571244,0.346422698746,0.05,0.05,0.0,1.0,0.0,1.0,0,0,,,0
1449617622223545907,81,0,/odom,bcmd_vector,0,0,0,0.0748688358072,6.08664578733e-05,0.0,0.0,0.0,-0.0137422194698,0.999905571244,0.346422698746,0.05,0.05,0.0,1.0,0.0,1.0,0,0,,,0
1449617622292847216,82,0,/odom,bcmd_vector,0,0,0,0.0806271358834,-6.08596601482e-05,0.0,0.0,0.0,-0.0137422194698,0.999905571244,0.346422698746,0.05,0.05,0.0,1.0,0.0,1.0,0,0,,,0
1449617622303030497,83,0,/odom,bcmd_vector,0,0,0,0.0950188662373,-0.000517290118845,0.0,0.0,0.0,-0.0190255284129,0.999818998253,0.346422698746,0.05,0.05,0.0,1.0,0.0,1.0,0,0,,,0
1449617622324927196,84,0,/odom,bcmd_vector,0,0,0,0.0950188662373,-0.000517290118845,0.0,0.0,0.0,-0.0190255284129,0.999818998253,0.346422698746,0.05,0.05,0.0,1.0,0.0,1.0,0,0,,,0
1449617622364528902,85,0,/odom,bcmd_vector,0,0,0,0.103650528164,-0.000882386907041,0.0,0.0,0.0,-0.024308306147,0.999704509469,0.346422698746,0.05,0.05,0.0,1.0,0.0,1.0,0,0,,,0
1449617622431415997,86,0,/odom,bcmd_vector,0,0,0,0.109404969449,-0.00112578476584,0.0,0.0,0.0,-0.024308306147,0.999704509469,0.346422698746,0.05,0.05,0.0,1.0,0.0,1.0,0,0,,,0
1449617622446285739,87,0,/odom,bcmd_vector,0,0,0,0.123786732368,-0.00182547715085,0.0,0.0,0.0,-0.0295904051727,0.999562108086,0.35201,0.05,0.05,0.0,1.0,0.0,1.0,0,0,,,0
1449617622488150076,88,0,/odom,bcmd_vector,0,0,0,0.123786732368,-0.00182547715085,0.0,0.0,0.0,-0.0295904051727,0.999562108086,0.35201,0.05,0.05,0.0,1.0,0.0,1.0,0,0,,,0
1449617622549518901,89,0,/odom,bcmd_vector,0,0,0,0.135289827881,-0.00243386985246,0.0,0.0,0.0,-0.0295904051727,0.999562108086,0.35201,0.05,0.05,0.0,1.0,0.0,1.0,0,0,,,0
1449617622567124367,90,0,/odom,bcmd_vector,0,0,0,0.155407869463,-0.00371123289527,0.0,0.0,0.0,-0.0316988350601,0.999497465658,0.346422698746,0.05,0.05,0.0,1.0,0.0,1.0,0,0,,,0
1449617622603475071,91,0,/odom,bcmd_vector,0,0,0,0.155407869463,-0.00371123289527,0.0,0.0,0.0,-0.0316988350601,0.999497465658,0.346422698746,0.05,0.05,0.0,1.0,0.0,1.0,0,0,,,0
1449617622656858900,92,0,/odom,bcmd_vector,0,0,0,0.16402362054,-0.0043497598375,0.0,0.0,0.0,-0.0401519771987,0.99919358421,0.346422698746,0.05,0.05,0.0,1.0,0.0,1.0,0,0,,,0
1449617622685658653,93,0,/odom,bcmd_vector,0,0,0,0.175511288643,-0.00520112909381,0.0,0.0,0.0,-0.0401519771987,0.99919358421,0.346422698746,0.05,0.05,0.0,1.0,0.0,1.0,0,0,,,0
1449617622793360172,94,0,/odom,bcmd_vector,0,0,0,0.184119810747,-0.00593067036186,0.0,0.0,0.0,-0.042259606217,0.999106663816,0.346422698746,0.05,0.05,0.0,1.0,0.0,1.0,0,0,,,0
1449617622835072212,95,0,/odom,bcmd_vector,0,0,0,0.218553899165,-0.00884883543406,0.0,0.0,0.0,-0.042259606217,0.999106663816,0.346422698746,0.05,0.05,0.0,1.0,0.0,1.0,0,0,,,0
1449617622843160361,96,0,/odom,bcmd_vector,0,0,0,0.232887785347,-0.0102162922954,0.0,0.0,0.0,-0.050709064947,0.998713467784,0.346422698746,0.05,0.05,0.0,1.0,0.0,1.0,0,0,,,0
1449617622848687056,97,0,/odom,bcmd_vector,0,0,0,0.232887785347,-0.0102162922954,0.0,0.0,0.0,-0.050709064947,0.998713467784,0.346422698746,0.05,0.05,0.0,1.0,0.0,1.0,0,0,,,0
1449617622884204049,98,0,/odom,bcmd_vector,0,0,0,0.232887785347,-0.0102162922954,0.0,0.0,0.0,-0.050709064947,0.998713467784,0.346422698746,0.05,0.05,0.0,1.0,0.0,1.0,0,0,,,0
1449617622926558592,99,0,/odom,bcmd_vector,0,0,0,0.23862133982,-0.0107632750399,0.0,0.0,0.0,-0.050709064947,0.998713467784,0.346422698746,0.05,0.05,0.0,1.0,0.0,1.0,0,0,,,0
1449617622961232800,100,0,/odom,bcmd_vector,0,0,0,0.252939974497,-0.012282133928,0.0,0.0,0.0,-0.0528156577107,0.998604279132,0.346422698746,0.05,0.05,0.0,1.0,0.0,1.0,0,0,,,0
1449617623021237923,101,0,/odom,bcmd_vector,0,0,0,0.267241758527,-0.0139522252126,0.0,0.0,0.0,-0.0580915451448,0.99831126027,0.346422698746,0.05,0.05,0.0,1.0,0.0,1.0,0,0,,,0
1449617623049847286,102,0,/odom,bcmd_vector,0,0,0,0.272962472139,-0.0146202617265,0.0,0.0,0.0,-0.0612604893744,0.998121812427,0.346422698746,0.05,0.05,0.0,1.0,0.0,1.0,0,0,,,0
1449617623080813651,103,0,/odom,bcmd_vector,0,0,0,0.290124612975,-0.0166243712681,0.0,0.0,0.0,-0.0612604893744,0.998121812427,0.346422698746,0.05,0.05,0.0,1.0,0.0,1.0,0,0,,,0
1449617623131836433,104,0,/odom,bcmd_vector,0,0,0,0.304407949097,-0.0184455084292,0.0,0.0,0.0,-0.0665337095611,0.997784177812,0.346422698746,0.05,0.05,0.0,1.0,0.0,1.0,0,0,,,0
1449617623162265554,105,0,/odom,bcmd_vector,0,0,0,0.310121283546,-0.0191739632937,0.0,0.0,0.0,-0.0633658106137,0.997990367712,0.346422698746,0.05,0.05,0.0,1.0,0.0,1.0,0,0,,,0
1449617623236417578,106,0,/odom,bcmd_vector,0,0,0,0.32438457656,-0.0211459429419,0.0,0.0,0.0,-0.0686383068554,0.997641610415,0.346422698746,0.05,0.05,0.0,1.0,0.0,1.0,0,0,,,0
1449617623259465168,107,0,/odom,bcmd_vector,0,0,0,0.352911162589,-0.0250899022384,0.0,0.0,0.0,-0.0718050720702,0.997418684217,0.307311589966,0.05,0.05,0.0,1.0,0.0,1.0,0,0,,,0
1449617623280940365,108,0,/odom,bcmd_vector,0,0,0,0.352911162589,-0.0250899022384,0.0,0.0,0.0,-0.0718050720702,0.997418684217,0.307311589966,0.05,0.05,0.0,1.0,0.0,1.0,0,0,,,0
1449617623347117349,109,0,/odom,bcmd_vector,0,0,0,0.361456156755,-0.0263634633781,0.0,0.0,0.0,-0.0739088866573,0.997264998119,0.346422698746,0.05,0.05,0.0,1.0,0.0,1.0,0,0,,,0
1449617623365105766,110,0,/odom,bcmd_vector,0,0,0,0.389939470644,-0.030608667177,0.0,0.0,0.0,-0.0739088866573,0.997264998119,0.346422698746,0.05,0.05,0.0,1.0,0.0,1.0,0,0,,,0
1449617623426785346,111,0,/odom,bcmd_vector,0,0,0,0.389939470644,-0.030608667177,0.0,0.0,0.0,-0.0739088866573,0.997264998119,0.346422698746,0.05,0.05,0.0,1.0,0.0,1.0,0,0,,,0
1449617623473629994,112,0,/odom,bcmd_vector,0,0,0,0.415532645236,-0.0347000439445,0.0,0.0,0.0,-0.0823416353879,0.996604161682,0.307311589966,0.05,0.05,0.0,1.0,0.0,1.0,0,0,,,0
1449617623482659080,113,0,/odom,bcmd_vector,0,0,0,0.421220017368,-0.0356092387817,0.0,0.0,0.0,-0.0823416353879,0.996604161682,0.307311589966,0.05,0.05,0.0,1.0,0.0,1.0,0,0,,,0
1449617623542600634,114,0,/odom,bcmd_vector,0,0,0,0.421220017368,-0.0356092387817,0.0,0.0,0.0,-0.0791774028604,0.996860541338,0.346422698746,0.05,0.05,0.0,1.0,0.0,1.0,0,0,,,0
1449617623560641058,115,0,/odom,bcmd_vector,0,0,0,0.43541363313,-0.0380323572151,0.0,0.0,0.0,-0.0844437083633,0.996428251365,0.346422698746,0.05,0.05,0.0,1.0,0.0,1.0,0,0,,,0
1449617623622522800,116,0,/odom,bcmd_vector,0,0,0,0.449580849145,-0.0406053363687,0.0,0.0,0.0,-0.0897076561262,0.99596814027,0.346422698746,0.05,0.05,0.0,1.0,0.0,1.0,0,0,,,0
1449617623672187784,117,0,/odom,bcmd_vector,0,0,0,0.458097018602,-0.0420592074287,0.0,0.0,0.0,-0.0876065420068,0.996155155484,0.31289889122,0.05,0.05,0.0,1.0,0.0,1.0,0,0,,,0
1449617623681536271,118,0,/odom,bcmd_vector,0,0,0,0.486403468653,-0.047354739099,0.0,0.0,0.0,-0.0981288701651,0.995173715911,0.31289889122,0.05,0.05,0.0,1.0,0.0,1.0,0,0,,,0
1449617623724357871,119,0,/odom,bcmd_vector,0,0,0,0.486403468653,-0.047354739099,0.0,0.0,0.0,-0.0949690991753,0.995480220899,0.346422698746,0.05,0.05,0.0,1.0,0.0,1.0,0,0,,,0
1449617623786679778,120,0,/odom,bcmd_vector,0,0,0,0.500570684668,-0.0499277182526,0.0,0.0,0.0,-0.0897076561262,0.99596814027,0.346422698746,0.05,0.05,0.0,1.0,0.0,1.0,0,0,,,0
1449617623802846151,121,0,/odom,bcmd_vector,0,0,0,0.520365612319,-0.0537392917761,0.0,0.0,0.0,-0.0949690991753,0.995480220899,0.346422698746,0.05,0.05,0.0,1.0,0.0,1.0,0,0,,,0
1449617623852215650,122,0,/odom,bcmd_vector,0,0,0,0.520365612319,-0.0537392917761,0.0,0.0,0.0,-0.0981288701651,0.995173715911,0.346422698746,0.05,0.05,0.0,1.0,0.0,1.0,0,0,,,0
1449617623926291806,123,0,/odom,bcmd_vector,0,0,0,0.53447528527,-0.0566111135942,0.0,0.0,0.0,-0.103385997912,0.994641309938,0.346422698746,0.05,0.05,0.0,1.0,0.0,1.0,0,0,,,0
1449617623941959511,124,0,/odom,bcmd_vector,0,0,0,0.557068498643,-0.0611164669224,0.0,0.0,0.0,-0.103385997912,0.994641309938,0.346422698746,0.05,0.05,0.0,1.0,0.0,1.0,0,0,,,0
1449617623986373826,125,0,/odom,bcmd_vector,0,0,0,0.557068498643,-0.0611164669224,0.0,0.0,0.0,-0.100227890607,0.994964506877,0.346422698746,0.05,0.05,0.0,1.0,0.0,1.0,0,0,,,0
1449617623999281724,126,0,/odom,bcmd_vector,0,0,0,0.565552039065,-0.0627499984324,0.0,0.0,0.0,-0.0949690991753,0.995480220899,0.346422698746,0.05,0.05,0.0,1.0,0.0,1.0,0,0,,,0
1449617624050359258,127,0,/odom,bcmd_vector,0,0,0,0.579661712016,-0.0656218202505,0.0,0.0,0.0,-0.100227890607,0.994964506877,0.346422698746,0.05,0.05,0.0,1.0,0.0,1.0,0,0,,,0
1449617624109222755,128,0,/odom,bcmd_vector,0,0,0,0.593740248077,-0.0686425906375,0.0,0.0,0.0,-0.10548388359,0.994421012601,0.346422698746,0.05,0.05,0.0,1.0,0.0,1.0,0,0,,,0
1449617624128910279,129,0,/odom,bcmd_vector,0,0,0,0.616265905774,-0.0734758232566,0.0,0.0,0.0,-0.10548388359,0.994421012601,0.346422698746,0.05,0.05,0.0,1.0,0.0,1.0,0,0,,,0
1449617624186229922,130,0,/odom,bcmd_vector,0,0,0,0.616265905774,-0.0734758232566,0.0,0.0,0.0,-0.10548388359,0.994421012601,0.189978263626,0.05,0.05,0.0,1.0,0.0,1.0,0,0,,,0
1449617624236964873,131,0,/odom,bcmd_vector,0,0,0,0.627528734623,-0.0758924395661,0.0,0.0,0.0,-0.10548388359,0.994421012601,0.189978263626,0.05,0.05,0.0,1.0,0.0,1.0,0,0,,,0
1449617624269894355,132,0,/odom,bcmd_vector,0,0,0,0.647219059577,-0.0802106848286,0.0,0.0,0.0,-0.110736931374,0.993849753247,0.346422698746,0.05,0.05,0.0,1.0,0.0,1.0,0,0,,,0
1449617624283720773,133,0,/odom,bcmd_vector,0,0,0,0.664074051788,-0.0840139427344,0.0,0.0,0.0,-0.110736931374,0.993849753247,0.346422698746,0.05,0.05,0.0,1.0,0.0,1.0,0,0,,,0
1449617624342376190,134,0,/odom,bcmd_vector,0,0,0,0.664074051788,-0.0840139427344,0.0,0.0,0.0,-0.110736931374,0.993849753247,0.346422698746,0.05,0.05,0.0,1.0,0.0,1.0,0,0,,,0
1449617624367061861,135,0,/odom,bcmd_vector,0,0,0,0.675310713262,-0.086549448005,0.0,0.0,0.0,-0.110736931374,0.993849753247,0.346422698746,0.05,0.05,0.0,1.0,0.0,1.0,0,0,,,0
1449617624406638621,136,0,/odom,bcmd_vector,0,0,0,0.683717642632,-0.0885400312998,0.0,0.0,0.0,-0.115986887289,0.993250744765,0.346422698746,0.05,0.05,0.0,1.0,0.0,1.0,0,0,,,0
1449617624460143596,137,0,/odom,bcmd_vector,0,0,0,0.700531501371,-0.0925211978894,0.0,0.0,0.0,-0.115986887289,0.993250744765,0.346422698746,0.05,0.05,0.0,1.0,0.0,1.0,0,0,,,0
1449617624512136338,138,0,/odom,bcmd_vector,0,0,0,0.711740740531,-0.0951753089491,0.0,0.0,0.0,-0.115986887289,0.993250744765,0.346422698746,0.05,0.05,0.0,1.0,0.0,1.0,0,0,,,0
1449617624535417553,139,0,/odom,bcmd_vector,0,0,0,0.734159218851,-0.100483531069,0.0,0.0,0.0,-0.115986887289,0.993250744765,0.31289889122,0.05,0.05,0.0,1.0,0.0,1.0,0,0,,,0
1449617624563022623,140,0,/odom,bcmd_vector,0,0,0,0.734159218851,-0.100483531069,0.0,0.0,0.0,-0.115986887289,0.993250744765,0.31289889122,0.05,0.05,0.0,1.0,0.0,1.0,0,0,,,0
1449617624626090463,141,0,/odom,bcmd_vector,0,0,0,0.748134925061,-0.103949056607,0.0,0.0,0.0,-0.121233604752,0.99262400388,0.31289889122,0.05,0.05,0.0,1.0,0.0,1.0,0,0,,,0
1449617624646631562,142,0,/odom,bcmd_vector,0,0,0,0.756541854431,-0.105939639902,0.0,0.0,0.0,-0.115986887289,0.993250744765,0.346422698746,0.05,0.05,0.0,1.0,0.0,1.0,0,0,,,0
1449617624684854854,143,0,/odom,bcmd_vector,0,0,0,0.770517560642,-0.10940516544,0.0,0.0,0.0,-0.121233604752,0.99262400388,0.346422698746,0.05,0.05,0.0,1.0,0.0,1.0,0,0,,,0
1449617624746545602,144,0,/odom,bcmd_vector,0,0,0,0.78169812561,-0.112177585871,0.0,0.0,0.0,-0.121233604752,0.99262400388,0.346422698746,0.05,0.05,0.0,1.0,0.0,1.0,0,0,,,0
1449617624762573081,145,0,/odom,bcmd_vector,0,0,0,0.806816993207,-0.118563031516,0.0,0.0,0.0,-0.126476937269,0.991969548091,0.346422698746,0.05,0.05,0.0,1.0,0.0,1.0,0,0,,,0
1449617624809148838,146,0,/odom,bcmd_vector,0,0,0,0.806816993207,-0.118563031516,0.0,0.0,0.0,-0.126476937269,0.991969548091,0.346422698746,0.05,0.05,0.0,1.0,0.0,1.0,0,0,,,0
1449617624854746345,147,0,/odom,bcmd_vector,0,0,0,0.812392314258,-0.120008241601,0.0,0.0,0.0,-0.126476937269,0.991969548091,0.346422698746,0.05,0.05,0.0,1.0,0.0,1.0,0,0,,,0
1449617624897103819,148,0,/odom,bcmd_vector,0,0,0,0.829118277411,-0.124343871857,0.0,0.0,0.0,-0.126476937269,0.991969548091,0.346422698746,0.05,0.05,0.0,1.0,0.0,1.0,0,0,,,0
1449617624923042843,149,0,/odom,bcmd_vector,0,0,0,0.840268919514,-0.127234292028,0.0,0.0,0.0,-0.126476937269,0.991969548091,0.346422698746,0.05,0.05,0.0,1.0,0.0,1.0,0,0,,,0
1449617624980934586,150,0,/odom,bcmd_vector,0,0,0,0.854168261893,-0.130994413404,0.0,0.0,0.0,-0.131716738444,0.99128739567,0.346422698746,0.05,0.05,0.0,1.0,0.0,1.0,0,0,,,0
1449617625003499120,151,0,/odom,bcmd_vector,0,0,0,0.86253124347,-0.133162228532,0.0,0.0,0.0,-0.126476937269,0.991969548091,0.346422698746,0.05,0.05,0.0,1.0,0.0,1.0,0,0,,,0
1449617625050047367,152,0,/odom,bcmd_vector,0,0,0,0.876430585849,-0.136922349909,0.0,0.0,0.0,-0.131716738444,0.99128739567,0.346422698746,0.05,0.05,0.0,1.0,0.0,1.0,0,0,,,0
1449617625151788227,153,0,/odom,bcmd_vector,0,0,0,0.887550059753,-0.13993044701,0.0,0.0,0.0,-0.131716738444,0.99128739567,0.346422698746,0.05,0.05,0.0,1.0,0.0,1.0,0,0,,,0
1449617625197067518,154,0,/odom,bcmd_vector,0,0,0,0.918104305449,-0.148290719771,0.0,0.0,0.0,-0.136952861975,0.990577565664,0.259819524059,0.05,0.05,0.0,1.0,0.0,1.0,0,0,,,0
1449617625221621530,155,0,/odom,bcmd_vector,0,0,0,0.934734901228,-0.15297887689,0.0,0.0,0.0,-0.136952861975,0.990577565664,0.189978263626,0.05,0.05,0.0,1.0,0.0,1.0,0,0,,,0
1449617625255976821,156,0,/odom,bcmd_vector,0,0,0,0.934734901228,-0.15297887689,0.0,0.0,0.0,-0.136952861975,0.990577565664,0.259819524059,0.05,0.05,0.0,1.0,0.0,1.0,0,0,,,0
1449617625415441276,157,0,/odom,bcmd_vector,0,0,0,0.945821965081,-0.156104314969,0.0,0.0,0.0,-0.136952861975,0.990577565664,0.259819524059,0.05,0.05,0.0,1.0,0.0,1.0,0,0,,,0
1449617625431379267,158,0,/odom,bcmd_vector,0,0,0,0.998325689036,-0.17150585747,0.0,0.0,0.0,-0.142185161666,0.989840077892,0.259819524059,0.05,0.05,0.0,1.0,0.0,1.0,0,0,,,0
1449617625477233696,159,0,/odom,bcmd_vector,0,0,0,1.00385239682,-0.17312707247,0.0,0.0,0.0,-0.142185161666,0.989840077892,0.259819524059,0.05,0.05,0.0,1.0,0.0,1.0,0,0,,,0
1449617625543075937,160,0,/odom,bcmd_vector,0,0,0,1.01762556284,-0.177325897218,0.0,0.0,0.0,-0.147413491427,0.989074952946,0.259819524059,0.05,0.05,0.0,1.0,0.0,1.0,0,0,,,0
1449617625560070428,161,0,/odom,bcmd_vector,0,0,0,1.0314423323,-0.181378934718,0.0,0.0,0.0,-0.142185161666,0.989840077892,0.259819524059,0.05,0.05,0.0,1.0,0.0,1.0,0,0,,,0
1449617625600040177,162,0,/odom,bcmd_vector,0,0,0,1.03970623191,-0.183898229567,0.0,0.0,0.0,-0.147413491427,0.989074952946,0.259819524059,0.05,0.05,0.0,1.0,0.0,1.0,0,0,,,0
1449617625629015502,163,0,/odom,bcmd_vector,0,0,0,1.05072476472,-0.187257289365,0.0,0.0,0.0,-0.147413491427,0.989074952946,0.259819524059,0.05,0.05,0.0,1.0,0.0,1.0,0,0,,,0
1449617625663666252,164,0,/odom,bcmd_vector,0,0,0,1.06174329753,-0.190616349163,0.0,0.0,0.0,-0.147413491427,0.989074952946,0.259819524059,0.05,0.05,0.0,1.0,0.0,1.0,0,0,,,0
1449617625709749162,165,0,/odom,bcmd_vector,0,0,0,1.06174329753,-0.190616349163,0.0,0.0,0.0,-0.147413491427,0.989074952946,0.259819524059,0.05,0.05,0.0,1.0,0.0,1.0,0,0,,,0
1449617625746014154,166,0,/odom,bcmd_vector,0,0,0,1.08378036316,-0.197334468759,0.0,0.0,0.0,-0.147413491427,0.989074952946,0.259819524059,0.05,0.05,0.0,1.0,0.0,1.0,0,0,,,0
1449617625835099092,167,0,/odom,bcmd_vector,0,0,0,1.08378036316,-0.197334468759,0.0,0.0,0.0,-0.147413491427,0.989074952946,0.259819524059,0.05,0.05,0.0,1.0,0.0,1.0,0,0,,,0
1449617625867198303,168,0,/odom,bcmd_vector,0,0,0,1.11398201671,-0.20689158349,0.0,0.0,0.0,-0.152637705278,0.988282212188,0.173216349373,0.05,0.05,0.0,1.0,0.0,1.0,0,0,,,0
1449617625928666287,169,0,/odom,bcmd_vector,0,0,0,1.11398201671,-0.20689158349,0.0,0.0,0.0,-0.152637705278,0.988282212188,0.234676668415,0.05,0.05,0.0,1.0,0.0,1.0,0,0,,,0
1449617625956853692,170,0,/odom,bcmd_vector,0,0,0,1.13317324589,-0.213060283661,0.0,0.0,0.0,-0.157857657354,0.987461877753,0.173216349373,0.05,0.05,0.0,1.0,0.0,1.0,0,0,,,0
1449617626026581494,171,0,/odom,bcmd_vector,0,0,0,1.14411832548,-0.216651464626,0.0,0.0,0.0,-0.157857657354,0.987461877753,0.173216349373,0.05,0.05,0.0,1.0,0.0,1.0,0,0,,,0
1449617626044433462,172,0,/odom,bcmd_vector,0,0,0,1.14959086528,-0.218447055108,0.0,0.0,0.0,-0.157857657354,0.987461877753,0.234676668415,0.05,0.05,0.0,1.0,0.0,1.0,0,0,,,0
1449617626105082997,173,0,/odom,bcmd_vector,0,0,0,1.16053594487,-0.222038236073,0.0,0.0,0.0,-0.157857657354,0.987461877753,0.234676668415,0.05,0.05,0.0,1.0,0.0,1.0,0,0,,,0
1449617626121079233,174,0,/odom,bcmd_vector,0,0,0,1.16600848467,-0.223833826556,0.0,0.0,0.0,-0.157857657354,0.987461877753,0.234676668415,0.05,0.05,0.0,1.0,0.0,1.0,0,0,,,0
1449617626164291257,175,0,/odom,bcmd_vector,0,0,0,1.17695356427,-0.22742500752,0.0,0.0,0.0,-0.157857657354,0.987461877753,0.173216349373,0.05,0.05,0.0,1.0,0.0,1.0,0,0,,,0
1449617626234772462,176,0,/odom,bcmd_vector,0,0,0,1.18242610406,-0.229220598003,0.0,0.0,0.0,-0.157857657354,0.987461877753,0.173216349373,0.05,0.05,0.0,1.0,0.0,1.0,0,0,,,0
1449617626262966141,177,0,/odom,bcmd_vector,0,0,0,1.19605925074,-0.233853906015,0.0,0.0,0.0,-0.163073201911,0.986613972544,0.173216349373,0.05,0.05,0.0,1.0,0.0,1.0,0,0,,,0
1449617626352937492,178,0,/odom,bcmd_vector,0,0,0,1.19605925074,-0.233853906015,0.0,0.0,0.0,-0.163073201911,0.986613972544,0.173216349373,0.05,0.05,0.0,1.0,0.0,1.0,0,0,,,0
1449617626374318191,179,0,/odom,bcmd_vector,0,0,0,1.21241902674,-0.239413875629,0.0,0.0,0.0,-0.163073201911,0.986613972544,0.173216349373,0.05,0.05,0.0,1.0,0.0,1.0,0,0,,,0
1449617626451966170,180,0,/odom,bcmd_vector,0,0,0,1.21241902674,-0.239413875629,0.0,0.0,0.0,-0.163073201911,0.986613972544,0.173216349373,0.05,0.05,0.0,1.0,0.0,1.0,0,0,,,0
1449617626501830530,181,0,/odom,bcmd_vector,0,0,0,1.22600244801,-0.244190997987,0.0,0.0,0.0,-0.168284193326,0.985738520236,0.173216349373,0.05,0.05,0.0,1.0,0.0,1.0,0,0,,,0
1449617626601778073,182,0,/odom,bcmd_vector,0,0,0,1.23418233602,-0.246970982794,0.0,0.0,0.0,-0.110944310086,0.993826624749,0.35201,0.05,0.05,0.0,1.0,0.0,1.0,0,0,,,0
1449617626637852032,183,0,/odom,bcmd_vector,0,0,0,1.24776575728,-0.251748105151,0.0,0.0,0.0,-0.116194140894,0.993226520801,0.35201,0.05,0.05,0.0,1.0,0.0,1.0,0,0,,,0
1449617626726238445,184,0,/odom,bcmd_vector,0,0,0,1.25319912579,-0.253658954095,0.0,0.0,0.0,-0.116194140894,0.993226520801,0.35201,0.05,0.05,0.0,1.0,0.0,1.0,0,0,,,0
1449617626777624226,185,0,/odom,bcmd_vector,0,0,0,1.26133893006,-0.256553883674,0.0,0.0,0.0,-0.121440727464,0.992598685126,0.35201,0.05,0.05,0.0,1.0,0.0,1.0,0,0,,,0
1449617626848139450,186,0,/odom,bcmd_vector,0,0,0,1.26405561432,-0.257509308146,0.0,0.0,0.0,-0.116194140894,0.993226520801,0.35201,0.05,0.05,0.0,1.0,0.0,1.0,0,0,,,0
1449617626896803737,187,0,/odom,bcmd_vector,0,0,0,1.27219541859,-0.260404237725,0.0,0.0,0.0,-0.121440727464,0.992598685126,0.35201,0.05,0.05,0.0,1.0,0.0,1.0,0,0,,,0
1449617626955187613,188,0,/odom,bcmd_vector,0,0,0,1.27491210284,-0.261359662197,0.0,0.0,0.0,-0.119844305551,0.992792698617,0.279616349373,0.05,0.05,0.0,1.0,0.0,1.0,0,0,,,0
1449617626976811254,189,0,/odom,bcmd_vector,0,0,0,1.28577883986,-0.265181360083,0.0,0.0,0.0,-0.11826829372,0.992981676921,0.256416349373,0.05,0.05,0.0,1.0,0.0,1.0,0,0,,,0
1449617627019174749,190,0,/odom,bcmd_vector,0,0,0,1.28577883986,-0.265181360083,0.0,0.0,0.0,-0.119844305551,0.992792698617,0.256416349373,0.05,0.05,0.0,1.0,0.0,1.0,0,0,,,0
1449617627044304568,191,0,/odom,bcmd_vector,0,0,0,1.28848527562,-0.266165440719,0.0,0.0,0.0,-0.125088548846,0.992145581529,0.256416349373,0.05,0.05,0.0,1.0,0.0,1.0,0,0,,,0
1449617627070090154,192,0,/odom,bcmd_vector,0,0,0,1.29120195987,-0.267120865191,0.0,0.0,0.0,-0.119844305551,0.992792698617,0.256416349373,0.05,0.05,0.0,1.0,0.0,1.0,0,0,,,0
1449617627139265050,193,0,/odom,bcmd_vector,0,0,0,1.29663532838,-0.269031714134,0.0,0.0,0.0,-0.119844305551,0.992792698617,0.256416349373,0.05,0.05,0.0,1.0,0.0,1.0,0,0,,,0
1449617627166030193,194,0,/odom,bcmd_vector,0,0,0,1.30206869689,-0.270942563077,0.0,0.0,0.0,-0.119844305551,0.992792698617,0.256416349373,0.05,0.05,0.0,1.0,0.0,1.0,0,0,,,0
1449617627214058847,195,0,/odom,bcmd_vector,0,0,0,1.3075020654,-0.27285341202,0.0,0.0,0.0,-0.116194140894,0.993226520801,0.35201,0.05,0.05,0.0,1.0,0.0,1.0,0,0,,,0
1449617627289370740,196,0,/odom,bcmd_vector,0,0,0,1.3129354339,-0.274764260964,0.0,0.0,0.0,-0.116194140894,0.993226520801,0.35201,0.05,0.05,0.0,1.0,0.0,1.0,0,0,,,0
1449617627335284312,197,0,/odom,bcmd_vector,0,0,0,1.32380217092,-0.27858595885,0.0,0.0,0.0,-0.116194140894,0.993226520801,0.35201,0.05,0.05,0.0,1.0,0.0,1.0,0,0,,,0
1449617627370152213,198,0,/odom,bcmd_vector,0,0,0,1.32923553942,-0.280496807793,0.0,0.0,0.0,-0.116194140894,0.993226520801,0.35201,0.05,0.05,0.0,1.0,0.0,1.0,0,0,,,0
1449617627439033101,199,0,/odom,bcmd_vector,0,0,0,1.33466890793,-0.282407656736,0.0,0.0,0.0,-0.116194140894,0.993226520801,0.35201,0.05,0.05,0.0,1.0,0.0,1.0,0,0,,,0
1449617627467714625,200,0,/odom,bcmd_vector,0,0,0,1.34553564494,-0.286229354622,0.0,0.0,0.0,-0.116194140894,0.993226520801,0.35201,0.05,0.05,0.0,1.0,0.0,1.0,0,0,,,0
1449617627505535564,201,0,/odom,bcmd_vector,0,0,0,1.35371553295,-0.289009339429,0.0,0.0,0.0,-0.107539581374,0.994200803881,0.350613174686,0.05,0.05,0.0,1.0,0.0,1.0,0,0,,,0
1449617627527504314,202,0,/odom,bcmd_vector,0,0,0,1.35371553295,-0.289009339429,0.0,0.0,0.0,-0.107539581374,0.994200803881,0.339438572178,0.05,0.05,0.0,1.0,0.0,1.0,0,0,,,0
1449617627588105680,203,0,/odom,bcmd_vector,0,0,0,1.35916879162,-0.290862662634,0.0,0.0,0.0,-0.107539581374,0.994200803881,0.339438572178,0.05,0.05,0.0,1.0,0.0,1.0,0,0,,,0
1449617627636761477,204,0,/odom,bcmd_vector,0,0,0,1.37549873238,-0.296508920856,0.0,0.0,0.0,-0.110944310086,0.993826624749,0.35201,0.05,0.05,0.0,1.0,0.0,1.0,0,0,,,0
1449617627708150008,205,0,/odom,bcmd_vector,0,0,0,1.38095199105,-0.298362244061,0.0,0.0,0.0,-0.110944310086,0.993826624749,0.35201,0.05,0.05,0.0,1.0,0.0,1.0,0,0,,,0
1449617627744600641,206,0,/odom,bcmd_vector,0,0,0,1.39463334054,-0.302851220267,0.0,0.0,0.0,-0.0847347915864,0.996403540286,0.35201,0.05,0.05,0.0,1.0,0.0,1.0,0,0,,,0
1449617627799263823,207,0,/odom,bcmd_vector,0,0,0,1.39463334054,-0.302851220267,0.0,0.0,0.0,-0.0847347915864,0.996403540286,0.35201,0.05,0.05,0.0,1.0,0.0,1.0,0,0,,,0
1449617627839310085,208,0,/odom,bcmd_vector,0,0,0,1.41105095994,-0.308237991714,0.0,0.0,0.0,-0.102284723275,0.994755163538,0.346422698746,0.05,0.05,0.0,1.0,0.0,1.0,0,0,,,0
1449617627907931879,209,0,/odom,bcmd_vector,0,0,0,1.41928777454,-0.310844477549,0.0,0.0,0.0,-0.100435502156,0.994943571217,0.35201,0.05,0.05,0.0,1.0,0.0,1.0,0,0,,,0
1449617627958948690,210,0,/odom,bcmd_vector,0,0,0,1.43844166383,-0.317129044238,0.0,0.0,0.0,-0.105691381617,0.994398980215,0.35201,0.05,0.05,0.0,1.0,0.0,1.0,0,0,,,0
1449617627978169880,211,0,/odom,bcmd_vector,0,0,0,1.44667847844,-0.319735530073,0.0,0.0,0.0,-0.0978168848542,0.995204429772,0.310105240593,0.05,0.05,0.0,1.0,0.0,1.0,0,0,,,0
1449617628086357272,212,0,/odom,bcmd_vector,0,0,0,1.44667847844,-0.319735530073,0.0,0.0,0.0,-0.100435502156,0.994943571217,0.35201,0.05,0.05,0.0,1.0,0.0,1.0,0,0,,,0
1449617628137636162,213,0,/odom,bcmd_vector,0,0,0,1.47425097254,-0.32804570722,0.0,0.0,0.0,-0.0899154773276,0.995949399787,0.35201,0.05,0.05,0.0,1.0,0.0,1.0,0,0,,,0
1449617628225315345,214,0,/odom,bcmd_vector,0,0,0,1.48530438811,-0.33128813722,0.0,0.0,0.0,-0.087294249538,0.996182570615,0.310105240593,0.05,0.05,0.0,1.0,0.0,1.0,0,0,,,0
1449617628348179224,215,0,/odom,bcmd_vector,0,0,0,1.50468992571,-0.33681614982,0.0,0.0,0.0,-0.0846516256881,0.996410609271,0.35201,0.05,0.05,0.0,1.0,0.0,1.0,0,0,,,0
1449617628384981832,216,0,/odom,bcmd_vector,0,0,0,1.54632313275,-0.348331195905,0.0,0.0,0.0,-0.0793854105034,0.996843998126,0.35201,0.05,0.05,0.0,1.0,0.0,1.0,0,0,,,0
1449617628452559026,217,0,/odom,bcmd_vector,0,0,0,1.54632313275,-0.348331195905,0.0,0.0,0.0,-0.0793854105034,0.996843998126,0.35201,0.05,0.05,0.0,1.0,0.0,1.0,0,0,,,0
1449617628506015355,218,0,/odom,bcmd_vector,0,0,0,1.56583675642,-0.353389431204,0.0,0.0,0.0,-0.0741169788107,0.99724955425,0.35201,0.05,0.05,0.0,1.0,0.0,1.0,0,0,,,0
1449617628561735060,219,0,/odom,bcmd_vector,0,0,0,1.57981246264,-0.356854956742,0.0,0.0,0.0,-0.0688464777091,0.997627266321,0.35201,0.05,0.05,0.0,1.0,0.0,1.0,0,0,,,0
1449617628599080351,220,0,/odom,bcmd_vector,0,0,0,1.60217359257,-0.362399797604,0.0,0.0,0.0,-0.0688464777091,0.997627266321,0.35201,0.05,0.05,0.0,1.0,0.0,1.0,0,0,,,0
1449617628638501219,221,0,/odom,bcmd_vector,0,0,0,1.61335415754,-0.365172218035,0.0,0.0,0.0,-0.0688464777091,0.997627266321,0.35201,0.05,0.05,0.0,1.0,0.0,1.0,0,0,,,0
1449617628726775005,222,0,/odom,bcmd_vector,0,0,0,1.62459081901,-0.367707723305,0.0,0.0,0.0,-0.0582998559602,0.998299116896,0.35201,0.05,0.05,0.0,1.0,0.0,1.0,0,0,,,0
1449617628769656546,223,0,/odom,bcmd_vector,0,0,0,1.64428768581,-0.371996246327,0.0,0.0,0.0,-0.0661584453781,0.997809130097,0.311502065907,0.05,0.05,0.0,1.0,0.0,1.0,0,0,,,0
1449617628821896935,224,0,/odom,bcmd_vector,0,0,0,1.65555051466,-0.374412862637,0.0,0.0,0.0,-0.0530240297836,0.998593236641,0.35201,0.05,0.05,0.0,1.0,0.0,1.0,0,0,,,0
1449617628891158806,225,0,/odom,bcmd_vector,0,0,0,1.66681334351,-0.376829478946,0.0,0.0,0.0,-0.0530240297836,0.998593236641,0.35201,0.05,0.05,0.0,1.0,0.0,1.0,0,0,,,0
1449617628967593974,226,0,/odom,bcmd_vector,0,0,0,1.68656688564,-0.380850029492,0.0,0.0,0.0,-0.0608850985824,0.998144781467,0.311502065907,0.05,0.05,0.0,1.0,0.0,1.0,0,0,,,0
1449617629031209133,227,0,/odom,bcmd_vector,0,0,0,1.70636181329,-0.384661603015,0.0,0.0,0.0,-0.0634907571904,0.997982426574,0.35201,0.05,0.05,0.0,1.0,0.0,1.0,0,0,,,0
1449617629052141656,228,0,/odom,bcmd_vector,0,0,0,1.72901256973,-0.388868113679,0.0,0.0,0.0,-0.0634907571904,0.997982426574,0.35201,0.05,0.05,0.0,1.0,0.0,1.0,0,0,,,0
1449617629125523142,229,0,/odom,bcmd_vector,0,0,0,1.72901256973,-0.388868113679,0.0,0.0,0.0,-0.0424680833496,0.999097823988,0.35201,0.05,0.05,0.0,1.0,0.0,1.0,0,0,,,0
1449617629145724209,230,0,/odom,bcmd_vector,0,0,0,1.75451355856,-0.393499476155,0.0,0.0,0.0,-0.0371882578232,0.9993082775,0.35201,0.05,0.05,0.0,1.0,0.0,1.0,0,0,,,0
1449617629181958904,231,0,/odom,bcmd_vector,0,0,0,1.75451355856,-0.393499476155,0.0,0.0,0.0,-0.0582165319382,0.998303979462,0.35201,0.05,0.05,0.0,1.0,0.0,1.0,0,0,,,0
1449617629238029908,232,0,/odom,bcmd_vector,0,0,0,1.76870717432,-0.395922594589,0.0,0.0,0.0,-0.052940681231,0.998597658855,0.35201,0.05,0.05,0.0,1.0,0.0,1.0,0,0,,,0
1449617629282875163,233,0,/odom,bcmd_vector,0,0,0,1.78860305095,-0.399164829055,0.0,0.0,0.0,-0.0476633523751,0.998863456555,0.35201,0.05,0.05,0.0,1.0,0.0,1.0,0,0,,,0
1449617629345149997,234,0,/odom,bcmd_vector,0,0,0,1.79997779521,-0.40098321873,0.0,0.0,0.0,-0.0476633523751,0.998863456555,0.35201,0.05,0.05,0.0,1.0,0.0,1.0,0,0,,,0
1449617629406433524,235,0,/odom,bcmd_vector,0,0,0,1.80852278938,-0.402256779869,0.0,0.0,0.0,-0.0423846927179,0.999101365139,0.35201,0.05,0.05,0.0,1.0,0.0,1.0,0,0,,,0
1449617629454992085,236,0,/odom,bcmd_vector,0,0,0,1.83417940795,-0.405926841037,0.0,0.0,0.0,-0.0371048496442,0.999311377966,0.35201,0.05,0.05,0.0,1.0,0.0,1.0,0,0,,,0
1449617629496625230,237,0,/odom,bcmd_vector,0,0,0,1.83988472516,-0.406715632896,0.0,0.0,0.0,-0.0371048496442,0.999311377966,0.35201,0.05,0.05,0.0,1.0,0.0,1.0,0,0,,,0
1449617629524956092,238,0,/odom,bcmd_vector,0,0,0,1.85416806128,-0.408536770058,0.0,0.0,0.0,-0.0397136349377,0.99921110242,0.350613174686,0.05,0.05,0.0,1.0,0.0,1.0,0,0,,,0
1449617629539632681,239,0,/odom,bcmd_vector,0,0,0,1.86559473018,-0.409993679786,0.0,0.0,0.0,-0.0397136349377,0.99921110242,0.350613174686,0.05,0.05,0.0,1.0,0.0,1.0,0,0,,,0
1449617629655428582,240,0,/odom,bcmd_vector,0,0,0,1.86559473018,-0.409993679786,0.0,0.0,0.0,-0.0397136349377,0.99921110242,0.350613174686,0.05,0.05,0.0,1.0,0.0,1.0,0,0,,,0
1449617629704238834,241,0,/odom,bcmd_vector,0,0,0,1.90276461033,-0.414456753828,0.0,0.0,0.0,-0.0344332493013,0.999406999847,0.350613174686,0.05,0.05,0.0,1.0,0.0,1.0,0,0,,,0
1449617629725215498,242,0,/odom,bcmd_vector,0,0,0,1.91135579114,-0.415368069161,0.0,0.0,0.0,-0.0370422933404,0.999313698747,0.349216349373,0.05,0.05,0.0,1.0,0.0,1.0,0,0,,,0
1449617629767515504,243,0,/odom,bcmd_vector,0,0,0,1.92565757517,-0.417038160445,0.0,0.0,0.0,-0.0344332493013,0.999406999847,0.350613174686,0.05,0.05,0.0,1.0,0.0,1.0,0,0,,,0
1449617629807171676,244,0,/odom,bcmd_vector,0,0,0,1.93997620984,-0.418557019333,0.0,0.0,0.0,-0.0370422933404,0.999313698747,0.349216349373,0.05,0.05,0.0,1.0,0.0,1.0,0,0,,,0
1449617629850613774,245,0,/odom,bcmd_vector,0,0,0,1.94857654155,-0.41937749345,0.0,0.0,0.0,-0.0370214412068,0.999314471471,0.35201,0.05,0.05,0.0,1.0,0.0,1.0,0,0,,,0
1449617629912397578,246,0,/odom,bcmd_vector,0,0,0,1.9600436505,-0.420471458939,0.0,0.0,0.0,-0.0370214412068,0.999314471471,0.35201,0.05,0.05,0.0,1.0,0.0,1.0,0,0,,,0
1449617629944561911,247,0,/odom,bcmd_vector,0,0,0,1.98585829628,-0.422781326542,0.0,0.0,0.0,-0.0343706870169,0.999409153387,0.350613174686,0.05,0.05,0.0,1.0,0.0,1.0,0,0,,,0
1449617629989168525,248,0,/odom,bcmd_vector,0,0,0,1.98585829628,-0.422781326542,0.0,0.0,0.0,-0.0343706870169,0.999409153387,0.350613174686,0.05,0.05,0.0,1.0,0.0,1.0,0,0,,,0
1449617630016781192,249,0,/odom,bcmd_vector,0,0,0,2.01455336996,-0.425213130768,0.0,0.0,0.0,-0.0343706870169,0.999409153387,0.350613174686,0.05,0.05,0.0,1.0,0.0,1.0,0,0,,,0
1449617630052617995,250,0,/odom,bcmd_vector,0,0,0,2.01455336996,-0.425213130768,0.0,0.0,0.0,-0.0343706870169,0.999409153387,0.340835397491,0.05,0.05,0.0,1.0,0.0,1.0,0,0,,,0
1449617630086914295,251,0,/odom,bcmd_vector,0,0,0,2.0202923847,-0.425699491614,0.0,0.0,0.0,-0.0343706870169,0.999409153387,0.340835397491,0.05,0.05,0.0,1.0,0.0,1.0,0,0,,,0
1449617630124273537,252,0,/odom,bcmd_vector,0,0,0,2.03465196983,-0.426763703184,0.0,0.0,0.0,-0.0369797368913,0.999316015612,0.307311589966,0.05,0.05,0.0,1.0,0.0,1.0,0,0,,,0
1449617630164229192,253,0,/odom,bcmd_vector,0,0,0,2.05188347198,-0.428040757069,0.0,0.0,0.0,-0.0369797368913,0.999316015612,0.346422698746,0.05,0.05,0.0,1.0,0.0,1.0,0,0,,,0
1449617630182674583,254,0,/odom,bcmd_vector,0,0,0,2.05762730604,-0.428466441697,0.0,0.0,0.0,-0.0369797368913,0.999316015612,0.346422698746,0.05,0.05,0.0,1.0,0.0,1.0,0,0,,,0
1449617630234239268,255,0,/odom,bcmd_vector,0,0,0,2.05762730604,-0.428466441697,0.0,0.0,0.0,-0.0369797368913,0.999316015612,0.31289889122,0.05,0.05,0.0,1.0,0.0,1.0,0,0,,,0
1449617630271321541,256,0,/odom,bcmd_vector,0,0,0,2.08061308681,-0.430017370813,0.0,0.0,0.0,-0.0369797368913,0.999316015612,0.31289889122,0.05,0.05,0.0,1.0,0.0,1.0,0,0,,,0
1449617630310771618,257,0,/odom,bcmd_vector,0,0,0,2.09498311652,-0.430929772986,0.0,0.0,0.0,-0.0316988350601,0.999497465658,0.31289889122,0.05,0.05,0.0,1.0,0.0,1.0,0,0,,,0
1449617630341738371,258,0,/odom,bcmd_vector,0,0,0,2.10647914028,-0.431659694725,0.0,0.0,0.0,-0.0316988350601,0.999497465658,0.346422698746,0.05,0.05,0.0,1.0,0.0,1.0,0,0,,,0
1449617630402870802,259,0,/odom,bcmd_vector,0,0,0,2.10647914028,-0.431659694725,0.0,0.0,0.0,-0.0316988350601,0.999497465658,0.346422698746,0.05,0.05,0.0,1.0,0.0,1.0,0,0,,,0
1449617630427314376,260,0,/odom,bcmd_vector,0,0,0,2.1294711878,-0.433119538202,0.0,0.0,0.0,-0.0316988350601,0.999497465658,0.346422698746,0.05,0.05,0.0,1.0,0.0,1.0,0,0,,,0
1449617630463560382,261,0,/odom,bcmd_vector,0,0,0,2.14385005719,-0.433880029079,0.0,0.0,0.0,-0.0264170481704,0.999651008886,0.346422698746,0.05,0.05,0.0,1.0,0.0,1.0,0,0,,,0
1449617630520246292,262,0,/odom,bcmd_vector,0,0,0,2.14385005719,-0.433880029079,0.0,0.0,0.0,-0.0264170481704,0.999651008886,0.346422698746,0.05,0.05,0.0,1.0,0.0,1.0,0,0,,,0
1449617630548941179,263,0,/odom,bcmd_vector,0,0,0,2.16397517052,-0.435035863085,0.0,0.0,0.0,-0.0316988350601,0.999497465658,0.346422698746,0.05,0.05,0.0,1.0,0.0,1.0,0,0,,,0
1449617630589849754,264,0,/odom,bcmd_vector,0,0,0,2.17835403992,-0.435796353962,0.0,0.0,0.0,-0.0264170481704,0.999651008886,0.346422698746,0.05,0.05,0.0,1.0,0.0,1.0,0,0,,,0
1449617630623769019,265,0,/odom,bcmd_vector,0,0,0,2.18985713543,-0.436404746663,0.0,0.0,0.0,-0.0264170481704,0.999651008886,0.346422698746,0.05,0.05,0.0,1.0,0.0,1.0,0,0,,,0
1449617630661351139,266,0,/odom,bcmd_vector,0,0,0,2.18985713543,-0.436404746663,0.0,0.0,0.0,-0.0264170481704,0.999651008886,0.346422698746,0.05,0.05,0.0,1.0,0.0,1.0,0,0,,,0
1449617630702824851,267,0,/odom,bcmd_vector,0,0,0,2.19560868318,-0.436708943014,0.0,0.0,0.0,-0.0264170481704,0.999651008886,0.346422698746,0.05,0.05,0.0,1.0,0.0,1.0,0,0,,,0
1449617630765198585,268,0,/odom,bcmd_vector,0,0,0,2.2071117787,-0.437317335716,0.0,0.0,0.0,-0.0264170481704,0.999651008886,0.346422698746,0.05,0.05,0.0,1.0,0.0,1.0,0,0,,,0
1449617630785492183,269,0,/odom,bcmd_vector,0,0,0,2.23012520354,-0.438382124889,0.0,0.0,0.0,-0.0264170481704,0.999651008886,0.346422698746,0.05,0.05,0.0,1.0,0.0,1.0,0,0,,,0
1449617630827993101,270,0,/odom,bcmd_vector,0,0,0,2.23012520354,-0.438382124889,0.0,0.0,0.0,-0.0264170481704,0.999651008886,0.346422698746,0.05,0.05,0.0,1.0,0.0,1.0,0,0,,,0
1449617630872990709,271,0,/odom,bcmd_vector,0,0,0,2.25313139457,-0.439598910292,0.0,0.0,0.0,-0.0264170481704,0.999651008886,0.346422698746,0.05,0.05,0.0,1.0,0.0,1.0,0,0,,,0
1449617630908758395,272,0,/odom,bcmd_vector,0,0,0,2.26463449008,-0.440207302994,0.0,0.0,0.0,-0.0264170481704,0.999651008886,0.346422698746,0.05,0.05,0.0,1.0,0.0,1.0,0,0,,,0
1449617630949652568,273,0,/odom,bcmd_vector,0,0,0,2.2761375856,-0.440815695696,0.0,0.0,0.0,-0.0232434249345,0.999729835104,0.346422698746,0.05,0.05,0.0,1.0,0.0,1.0,0,0,,,0
1449617631004902509,274,0,/odom,bcmd_vector,0,0,0,2.28764068111,-0.441424088397,0.0,0.0,0.0,-0.0232434249345,0.999729835104,0.346422698746,0.05,0.05,0.0,1.0,0.0,1.0,0,0,,,0
1449617631019790799,275,0,/odom,bcmd_vector,0,0,0,2.29339222886,-0.441728284748,0.0,0.0,0.0,-0.0232434249345,0.999729835104,0.346422698746,0.05,0.05,0.0,1.0,0.0,1.0,0,0,,,0
1449617631093522972,276,0,/odom,bcmd_vector,0,0,0,2.29339222886,-0.441728284748,0.0,0.0,0.0,0.00854218084735,0.999963514908,0.272747284793,0.05,0.05,0.0,1.0,0.0,1.0,0,0,,,0
1449617631137642825,277,0,/odom,bcmd_vector,0,0,0,2.32214112796,-0.443401177798,0.0,0.0,0.0,-0.00724712550892,0.999973739241,0.268500148449,0.05,0.05,0.0,1.0,0.0,1.0,0,0,,,0
1449617631189274857,278,0,/odom,bcmd_vector,0,0,0,2.33076314578,-0.443948619103,0.0,0.0,0.0,-0.0133244697293,0.999911225313,0.267103323136,0.05,0.05,0.0,1.0,0.0,1.0,0,0,,,0
1449617631234345269,279,0,/odom,bcmd_vector,0,0,0,2.3537551933,-0.44540846258,0.0,0.0,0.0,-0.0133244697293,0.999911225313,0.259171564958,0.05,0.05,0.0,1.0,0.0,1.0,0,0,,,0
1449617631270973422,280,0,/odom,bcmd_vector,0,0,0,2.36525121706,-0.446138384319,0.0,0.0,0.0,-0.0125308853259,0.999921485374,0.260568390272,0.05,0.05,0.0,1.0,0.0,1.0,0,0,,,0
1449617631327716199,281,0,/odom,bcmd_vector,0,0,0,2.37674724082,-0.446868306057,0.0,0.0,0.0,-0.0125308853259,0.999921485374,0.260568390272,0.05,0.05,0.0,1.0,0.0,1.0,0,0,,,0
1449617631391530009,282,0,/odom,bcmd_vector,0,0,0,2.39110682595,-0.447932517628,0.0,0.0,0.0,-0.0186078143804,0.999826859633,0.2570637535,0.05,0.05,0.0,1.0,0.0,1.0,0,0,,,0
1449617631422938636,283,0,/odom,bcmd_vector,0,0,0,2.41122486753,-0.449209880671,0.0,0.0,0.0,-0.0133244697293,0.999911225313,0.2570637535,0.05,0.05,0.0,1.0,0.0,1.0,0,0,,,0
1449617631464493462,284,0,/odom,bcmd_vector,0,0,0,2.41122486753,-0.449209880671,0.0,0.0,0.0,0.0419677351422,0.999118966493,0.35201,0.05,0.05,0.0,1.0,0.0,1.0,0,0,,,0
1449617631507721682,285,0,/odom,bcmd_vector,0,0,0,2.42272089129,-0.449939802409,0.0,0.0,0.0,0.0419677351422,0.999118966493,0.35201,0.05,0.05,0.0,1.0,0.0,1.0,0,0,,,0
1449617631557875295,286,0,/odom,bcmd_vector,0,0,0,2.44571293882,-0.451399645887,0.0,0.0,0.0,0.0419677351422,0.999118966493,0.35201,0.05,0.05,0.0,1.0,0.0,1.0,0,0,,,0
1449617631600122983,287,0,/odom,bcmd_vector,0,0,0,2.45720896258,-0.452129567626,0.0,0.0,0.0,0.0209259053812,0.999781029268,0.35201,0.05,0.05,0.0,1.0,0.0,1.0,0,0,,,0
1449617631635127734,288,0,/odom,bcmd_vector,0,0,0,2.46582471365,-0.452768094568,0.0,0.0,0.0,0.0156427705362,0.99987764438,0.35201,0.05,0.05,0.0,1.0,0.0,1.0,0,0,,,0
1449617631664047440,289,0,/odom,bcmd_vector,0,0,0,2.47731238176,-0.453619463824,0.0,0.0,0.0,0.0156427705362,0.99987764438,0.35201,0.05,0.05,0.0,1.0,0.0,1.0,0,0,,,0
1449617631719405974,290,0,/odom,bcmd_vector,0,0,0,2.47731238176,-0.453619463824,0.0,0.0,0.0,0.0156427705362,0.99987764438,0.35201,0.05,0.05,0.0,1.0,0.0,1.0,0,0,,,0
1449617631754449684,291,0,/odom,bcmd_vector,0,0,0,2.49742206768,-0.455018274385,0.0,0.0,0.0,0.104944367247,0.99447809417,0.35201,0.05,0.05,0.0,1.0,0.0,1.0,0,0,,,0
1449617631792505711,292,0,/odom,bcmd_vector,0,0,0,2.50603781876,-0.455656801327,0.0,0.0,0.0,0.0996880801764,0.995018736844,0.35201,0.05,0.05,0.0,1.0,0.0,1.0,0,0,,,0
1449617631815166535,293,0,/odom,bcmd_vector,0,0,0,2.51178165281,-0.456082485955,0.0,0.0,0.0,0.0366878048838,0.999326775871,0.271454566842,0.05,0.05,0.0,1.0,0.0,1.0,0,0,,,0
1449617631872083665,294,0,/odom,bcmd_vector,0,0,0,2.51178165281,-0.456082485955,0.0,0.0,0.0,0.0366878048838,0.999326775871,0.265673996584,0.05,0.05,0.0,1.0,0.0,1.0,0,0,,,0
1449617631904977152,295,0,/odom,bcmd_vector,0,0,0,2.52901315497,-0.457359539839,0.0,0.0,0.0,0.0366878048838,0.999326775871,0.265673996584,0.05,0.05,0.0,1.0,0.0,1.0,0,0,,,0
1449617631969410568,296,0,/odom,bcmd_vector,0,0,0,2.52901315497,-0.457359539839,0.0,0.0,0.0,0.0156427705362,0.99987764438,0.233269045407,0.05,0.05,0.0,1.0,0.0,1.0,0,0,,,0
1449617632005070339,297,0,/odom,bcmd_vector,0,0,0,2.54624465712,-0.458636593724,0.0,0.0,0.0,0.0156427705362,0.99987764438,0.230665399211,0.05,0.05,0.0,1.0,0.0,1.0,0,0,,,0
1449617632030543878,298,0,/odom,bcmd_vector,0,0,0,2.55486667494,-0.459184035028,0.0,0.0,0.0,0.0209259053812,0.999781029268,0.230665399211,0.05,0.05,0.0,1.0,0.0,1.0,0,0,,,0
1449617632096838451,299,0,/odom,bcmd_vector,0,0,0,2.56348242602,-0.45982256197,0.0,0.0,0.0,0.0156427705362,0.99987764438,0.226784529219,0.05,0.05,0.0,1.0,0.0,1.0,0,0,,,0
1449617632125137248,300,0,/odom,bcmd_vector,0,0,0,2.56922626007,-0.460248246598,0.0,0.0,0.0,0.0156427705362,0.99987764438,0.226784529219,0.05,0.05,0.0,1.0,0.0,1.0,0,0,,,0
1449617632152322316,301,0,/odom,bcmd_vector,0,0,0,2.58071392817,-0.461099615855,0.0,0.0,0.0,0.0156427705362,0.99987764438,0.223560708873,0.05,0.05,0.0,1.0,0.0,1.0,0,0,,,0
1449617632186234653,302,0,/odom,bcmd_vector,0,0,0,2.59220159628,-0.461950985111,0.0,0.0,0.0,0.0156427705362,0.99987764438,0.223560708873,0.05,0.05,0.0,1.0,0.0,1.0,0,0,,,0
1449617632223879525,303,0,/odom,bcmd_vector,0,0,0,2.6008236141,-0.462498426415,0.0,0.0,0.0,0.0209259053812,0.999781029268,0.223560708873,0.05,0.05,0.0,1.0,0.0,1.0,0,0,,,0
1449617632280779742,304,0,/odom,bcmd_vector,0,0,0,2.6008236141,-0.462498426415,0.0,0.0,0.0,0.0209259053812,0.999781029268,0.220372658494,0.05,0.05,0.0,1.0,0.0,1.0,0,0,,,0
1449617632314363233,305,0,/odom,bcmd_vector,0,0,0,2.61518737705,-0.463501914227,0.0,0.0,0.0,0.0156427705362,0.99987764438,0.215321512177,0.05,0.05,0.0,1.0,0.0,1.0,0,0,,,0
1449617632336974701,306,0,/odom,bcmd_vector,0,0,0,2.62093121111,-0.463927598855,0.0,0.0,0.0,0.0156427705362,0.99987764438,0.215321512177,0.05,0.05,0.0,1.0,0.0,1.0,0,0,,,0
1449617632394161975,307,0,/odom,bcmd_vector,0,0,0,2.62093121111,-0.463927598855,0.0,0.0,0.0,0.0156427705362,0.99987764438,0.213429931449,0.05,0.05,0.0,1.0,0.0,1.0,0,0,,,0
1449617632436080904,308,0,/odom,bcmd_vector,0,0,0,2.63816271326,-0.465204652739,0.0,0.0,0.0,0.0156427705362,0.99987764438,0.213429931449,0.05,0.05,0.0,1.0,0.0,1.0,0,0,,,0
1449617632483582882,309,0,/odom,bcmd_vector,0,0,0,2.64390654731,-0.465630337367,0.0,0.0,0.0,-0.00540919663922,0.999985370189,0.210312201491,0.05,0.05,0.0,1.0,0.0,1.0,0,0,,,0
1449617632503625723,310,0,/odom,bcmd_vector,0,0,0,2.64965038136,-0.466056021996,0.0,0.0,0.0,-0.00540919663922,0.999985370189,0.210312201491,0.05,0.05,0.0,1.0,0.0,1.0,0,0,,,0
1449617632551527956,311,0,/odom,bcmd_vector,0,0,0,2.64965038136,-0.466056021996,0.0,0.0,0.0,-0.00540919663922,0.999985370189,0.184966699001,0.05,0.05,0.0,1.0,0.0,1.0,0,0,,,0
1449617632563427072,312,0,/odom,bcmd_vector,0,0,0,2.66113804947,-0.466907391252,0.0,0.0,0.0,-0.00540919663922,0.999985370189,0.184966699001,0.05,0.05,0.0,1.0,0.0,1.0,0,0,,,0
1449617632626915141,313,0,/odom,bcmd_vector,0,0,0,2.66113804947,-0.466907391252,0.0,0.0,0.0,-0.00540919663922,0.999985370189,0.183137604556,0.05,0.05,0.0,1.0,0.0,1.0,0,0,,,0
1449617632654390521,314,0,/odom,bcmd_vector,0,0,0,2.66976006729,-0.467454832556,0.0,0.0,0.0,-0.000125198676654,0.999999992163,0.183137604556,0.05,0.05,0.0,1.0,0.0,1.0,0,0,,,0
1449617632717391446,315,0,/odom,bcmd_vector,0,0,0,2.67837581837,-0.468093359498,0.0,0.0,0.0,-0.00540919663922,0.999985370189,0.181323232362,0.05,0.05,0.0,1.0,0.0,1.0,0,0,,,0
1449617632744722806,316,0,/odom,bcmd_vector,0,0,0,2.68986557538,-0.468914366875,0.0,0.0,0.0,-0.00540919663922,0.999985370189,0.181323232362,0.05,0.05,0.0,1.0,0.0,1.0,0,0,,,0
1449617632785526877,317,0,/odom,bcmd_vector,0,0,0,2.68986557538,-0.468914366875,0.0,0.0,0.0,0.0156427705362,0.99987764438,0.198750644879,0.05,0.05,0.0,1.0,0.0,1.0,0,0,,,0
1449617632810641711,318,0,/odom,bcmd_vector,0,0,0,2.69273958132,-0.46909684731,0.0,0.0,0.0,0.0209259053812,0.999781029268,0.198750644879,0.05,0.05,0.0,1.0,0.0,1.0,0,0,,,0
1449617632852647282,319,0,/odom,bcmd_vector,0,0,0,2.69561149835,-0.469309689624,0.0,0.0,0.0,-0.0306341701942,0.99953066367,0.167629048119,0.05,0.05,0.0,1.0,0.0,1.0,0,0,,,0
1449617632877934689,320,0,/odom,bcmd_vector,0,0,0,2.70423351617,-0.469857130928,0.0,0.0,0.0,-0.0253522227495,0.999678580746,0.167629048119,0.05,0.05,0.0,1.0,0.0,1.0,0,0,,,0
1449617632934028068,321,0,/odom,bcmd_vector,0,0,0,2.7071054332,-0.470069973242,0.0,0.0,0.0,-0.0306341701942,0.99953066367,0.167629048119,0.05,0.05,0.0,1.0,0.0,1.0,0,0,,,0
1449617632959722386,322,0,/odom,bcmd_vector,0,0,0,2.71284926725,-0.47049565787,0.0,0.0,0.0,-0.0338071238985,0.99942837581,0.00559730190992,0.05,0.05,0.0,1.0,0.0,1.0,0,0,,,0
1449617632995595836,323,0,/odom,bcmd_vector,0,0,0,2.71572327319,-0.470678138305,0.0,0.0,0.0,-0.028525672647,0.9995930602,0.00559730190992,0.05,0.05,0.0,1.0,0.0,1.0,0,0,,,0
1449617633051626991,324,0,/odom,bcmd_vector,0,0,0,2.72147128507,-0.471043099174,0.0,0.0,0.0,-0.0316988350601,0.999497465658,0.00559730190992,0.05,0.05,0.0,1.0,0.0,1.0,0,0,,,0
1449617633077237201,325,0,/odom,bcmd_vector,0,0,0,2.72721929695,-0.471408060044,0.0,0.0,0.0,-0.0316988350601,0.999497465658,0.00559730190992,0.05,0.05,0.0,1.0,0.0,1.0,0,0,,,0
1449617633123012075,326,0,/odom,bcmd_vector,0,0,0,2.73009121397,-0.471620902358,0.0,0.0,0.0,-0.0369797368913,0.999316015612,0.00559730190992,0.05,0.05,0.0,1.0,0.0,1.0,0,0,,,0
1449617636474880723,327,0,/odom,bcmd_vector,0,0,0,2.77605233096,-0.474874569986,0.0,0.0,0.0,-0.0306341701942,0.99953066367,1e-05,0.05,0.05,0.0,1.0,0.0,1.0,0,0,,,0
1449617636515584050,328,0,/odom,bcmd_vector,0,0,0,2.77317832502,-0.474692089551,0.0,0.0,0.0,-0.0253522227495,0.999678580746,1e-05,0.05,0.05,0.0,1.0,0.0,1.0,0,0,,,0
1449617636566412264,329,0,/odom,bcmd_vector,0,0,0,2.77317832502,-0.474692089551,0.0,0.0,0.0,-0.0316988350601,0.999497465658,1e-05,0.05,0.05,0.0,1.0,0.0,1.0,0,0,,,0
1449617636610898748,330,0,/odom,bcmd_vector,0,0,0,2.77317832502,-0.474692089551,0.0,0.0,0.0,-0.0316988350601,0.999497465658,1e-05,0.05,0.05,0.0,1.0,0.0,1.0,0,0,,,0
1449617636646846089,331,0,/odom,bcmd_vector,0,0,0,2.77317832502,-0.474692089551,0.0,0.0,0.0,-0.0316988350601,0.999497465658,1e-05,0.05,0.05,0.0,1.0,0.0,1.0,0,0,,,0
1449617636693337815,332,0,/odom,bcmd_vector,0,0,0,2.77317832502,-0.474692089551,0.0,0.0,0.0,-0.0316988350601,0.999497465658,1e-05,0.05,0.05,0.0,1.0,0.0,1.0,0,0,,,0
1449617636721518584,333,0,/odom,bcmd_vector,0,0,0,2.77317832502,-0.474692089551,0.0,0.0,0.0,-0.0316988350601,0.999497465658,1e-05,0.05,0.05,0.0,1.0,0.0,1.0,0,0,,,0
1449617636780023526,334,0,/odom,bcmd_vector,0,0,0,2.77317832502,-0.474692089551,0.0,0.0,0.0,-0.00551364049939,0.999984799769,1e-05,0.05,0.05,0.0,1.0,0.0,1.0,0,0,,,0
1449617636807854071,335,0,/odom,bcmd_vector,0,0,0,2.77317832502,-0.474692089551,0.0,0.0,0.0,-0.00551364049939,0.999984799769,1e-05,0.05,0.05,0.0,1.0,0.0,1.0,0,0,,,0
1449617636842288404,336,0,/odom,bcmd_vector,0,0,0,2.77317832502,-0.474692089551,0.0,0.0,0.0,0.00162918681557,0.999998672874,1e-05,0.05,0.05,0.0,1.0,0.0,1.0,0,0,,,0
1449617636882430830,337,0,/odom,bcmd_vector,0,0,0,2.77317832502,-0.474692089551,0.0,0.0,0.0,0.00162918681557,0.999998672874,1e-05,0.05,0.05,0.0,1.0,0.0,1.0,0,0,,,0
1449617636943435602,338,0,/odom,bcmd_vector,0,0,0,2.77317832502,-0.474692089551,0.0,0.0,0.0,0.00162918681557,0.999998672874,1e-05,0.05,0.05,0.0,1.0,0.0,1.0,0,0,,,0
1449617636958410469,339,0,/odom,bcmd_vector,0,0,0,2.77317832502,-0.474692089551,0.0,0.0,0.0,-0.028525672647,0.9995930602,0.346422698746,0.05,0.05,0.0,1.0,0.0,1.0,0,0,,,0
1449617637022394435,340,0,/odom,bcmd_vector,0,0,0,2.77317832502,-0.474692089551,0.0,0.0,0.0,-0.028525672647,0.9995930602,0.346422698746,0.05,0.05,0.0,1.0,0.0,1.0,0,0,,,0
1449617637039734220,341,0,/odom,bcmd_vector,0,0,0,2.77317832502,-0.474692089551,0.0,0.0,0.0,-0.028525672647,0.9995930602,0.346422698746,0.05,0.05,0.0,1.0,0.0,1.0,0,0,,,0
1449617637112637536,342,0,/odom,bcmd_vector,0,0,0,2.77317832502,-0.474692089551,0.0,0.0,0.0,-0.028525672647,0.9995930602,0.346422698746,0.05,0.05,0.0,1.0,0.0,1.0,0,0,,,0
1449617637122604598,343,0,/odom,bcmd_vector,0,0,0,2.77317832502,-0.474692089551,0.0,0.0,0.0,-0.028525672647,0.9995930602,0.346422698746,0.05,0.05,0.0,1.0,0.0,1.0,0,0,,,0
1449617637169171745,344,0,/odom,bcmd_vector,0,0,0,2.77317832502,-0.474692089551,0.0,0.0,0.0,-0.0253522227495,0.999678580746,0.340835397491,0.05,0.05,0.0,1.0,0.0,1.0,0,0,,,0
1449617637200105945,345,0,/odom,bcmd_vector,0,0,0,2.77317832502,-0.474692089551,0.0,0.0,0.0,-0.0253522227495,0.999678580746,0.340835397491,0.05,0.05,0.0,1.0,0.0,1.0,0,0,,,0
1449617637249575593,346,0,/odom,bcmd_vector,0,0,0,2.77317832502,-0.474692089551,0.0,0.0,0.0,-0.0253522227495,0.999678580746,0.346422698746,0.05,0.05,0.0,1.0,0.0,1.0,0,0,,,0
1449617637278510653,347,0,/odom,bcmd_vector,0,0,0,2.77317832502,-0.474692089551,0.0,0.0,0.0,-0.0253522227495,0.999678580746,0.346422698746,0.05,0.05,0.0,1.0,0.0,1.0,0,0,,,0
1449617637319543351,348,0,/odom,bcmd_vector,0,0,0,2.77317832502,-0.474692089551,0.0,0.0,0.0,-0.0253522227495,0.999678580746,0.346422698746,0.05,0.05,0.0,1.0,0.0,1.0,0,0,,,0
1449617637365902635,349,0,/odom,bcmd_vector,0,0,0,2.77317832502,-0.474692089551,0.0,0.0,0.0,-0.0253522227495,0.999678580746,0.346422698746,0.05,0.05,0.0,1.0,0.0,1.0,0,0,,,0
1449617637397930798,350,0,/odom,bcmd_vector,0,0,0,2.77317832502,-0.474692089551,0.0,0.0,0.0,-0.0253522227495,0.999678580746,0.346422698746,0.05,0.05,0.0,1.0,0.0,1.0,0,0,,,0
1449617637441502064,351,0,/odom,bcmd_vector,0,0,0,2.77317832502,-0.474692089551,0.0,0.0,0.0,-0.028525672647,0.9995930602,0.346422698746,0.05,0.05,0.0,1.0,0.0,1.0,0,0,,,0
1449617637480030026,352,0,/odom,bcmd_vector,0,0,0,2.77317832502,-0.474692089551,0.0,0.0,0.0,-0.028525672647,0.9995930602,0.346422698746,0.05,0.05,0.0,1.0,0.0,1.0,0,0,,,0
1449617637517463363,353,0,/odom,bcmd_vector,0,0,0,2.77317832502,-0.474692089551,0.0,0.0,0.0,-0.028525672647,0.9995930602,0.346422698746,0.05,0.05,0.0,1.0,0.0,1.0,0,0,,,0
1449617637557489003,354,0,/odom,bcmd_vector,0,0,0,2.77317832502,-0.474692089551,0.0,0.0,0.0,-0.028525672647,0.9995930602,0.346422698746,0.05,0.05,0.0,1.0,0.0,1.0,0,0,,,0
1449617637604119493,355,0,/odom,bcmd_vector,0,0,0,2.77317832502,-0.474692089551,0.0,0.0,0.0,-0.028525672647,0.9995930602,0.346422698746,0.05,0.05,0.0,1.0,0.0,1.0,0,0,,,0
