%time,field.header.seq,field.header.stamp,field.header.frame_id,field.polygon.points0.x,field.polygon.points0.y,field.polygon.points0.z,field.polygon.points1.x,field.polygon.points1.y,field.polygon.points1.z,field.polygon.points2.x,field.polygon.points2.y,field.polygon.points2.z,field.polygon.points3.x,field.polygon.points3.y,field.polygon.points3.z,field.polygon.points4.x,field.polygon.points4.y,field.polygon.points4.z
1449617598695692328,1,1449617598695399934,odom,0.569999992847,0.0,0.0,0.469999998808,-0.305000007153,0.0,-0.730000019073,-0.305000007153,0.0,-0.730000019073,0.305000007153,0.0,0.469999998808,0.305000007153,0.0
1449617598895772994,2,1449617598895550378,odom,0.569999992847,0.0,0.0,0.469999998808,-0.305000007153,0.0,-0.730000019073,-0.305000007153,0.0,-0.730000019073,0.305000007153,0.0,0.469999998808,0.305000007153,0.0
1449617599095630557,3,1449617599095423661,odom,0.569999992847,0.0,0.0,0.469999998808,-0.305000007153,0.0,-0.730000019073,-0.305000007153,0.0,-0.730000019073,0.305000007153,0.0,0.469999998808,0.305000007153,0.0
1449617599295686153,4,1449617599295462177,odom,0.569999992847,0.0,0.0,0.469999998808,-0.305000007153,0.0,-0.730000019073,-0.305000007153,0.0,-0.730000019073,0.305000007153,0.0,0.469999998808,0.305000007153,0.0
1449617599496720736,5,1449617599495607449,odom,0.569999992847,0.0,0.0,0.469999998808,-0.305000007153,0.0,-0.730000019073,-0.305000007153,0.0,-0.730000019073,0.305000007153,0.0,0.469999998808,0.305000007153,0.0
1449617599695440259,6,1449617599695327149,odom,0.569999992847,0.0,0.0,0.469999998808,-0.305000007153,0.0,-0.730000019073,-0.305000007153,0.0,-0.730000019073,0.305000007153,0.0,0.469999998808,0.305000007153,0.0
1449617599896214411,7,1449617599895475802,odom,0.569999992847,0.0,0.0,0.469999998808,-0.305000007153,0.0,-0.730000019073,-0.305000007153,0.0,-0.730000019073,0.305000007153,0.0,0.469999998808,0.305000007153,0.0
1449617600096784019,8,1449617600095618290,odom,0.569999992847,0.0,0.0,0.469999998808,-0.305000007153,0.0,-0.730000019073,-0.305000007153,0.0,-0.730000019073,0.305000007153,0.0,0.469999998808,0.305000007153,0.0
1449617600296456493,9,1449617600296109837,odom,0.569999992847,0.0,0.0,0.469999998808,-0.305000007153,0.0,-0.730000019073,-0.305000007153,0.0,-0.730000019073,0.305000007153,0.0,0.469999998808,0.305000007153,0.0
1449617600495533792,10,1449617600495266647,odom,0.569999992847,0.0,0.0,0.469999998808,-0.305000007153,0.0,-0.730000019073,-0.305000007153,0.0,-0.730000019073,0.305000007153,0.0,0.469999998808,0.305000007153,0.0
1449617600828628966,11,1449617600828445568,odom,0.569999992847,0.0,0.0,0.469999998808,-0.305000007153,0.0,-0.730000019073,-0.305000007153,0.0,-0.730000019073,0.305000007153,0.0,0.469999998808,0.305000007153,0.0
1449617601113952517,12,1449617601113814961,odom,0.569999992847,0.0,0.0,0.469999998808,-0.305000007153,0.0,-0.730000019073,-0.305000007153,0.0,-0.730000019073,0.305000007153,0.0,0.469999998808,0.305000007153,0.0
1449617601278530859,13,1449617601274482548,odom,0.569999992847,0.0,0.0,0.469999998808,-0.305000007153,0.0,-0.730000019073,-0.305000007153,0.0,-0.730000019073,0.305000007153,0.0,0.469999998808,0.305000007153,0.0
1449617601426498343,14,1449617601424734319,odom,0.569999992847,0.0,0.0,0.469999998808,-0.305000007153,0.0,-0.730000019073,-0.305000007153,0.0,-0.730000019073,0.305000007153,0.0,0.469999998808,0.305000007153,0.0
1449617601602204130,15,1449617601600717010,odom,0.569999992847,0.0,0.0,0.469999998808,-0.305000007153,0.0,-0.730000019073,-0.305000007153,0.0,-0.730000019073,0.305000007153,0.0,0.469999998808,0.305000007153,0.0
1449617601813813091,16,1449617601813543348,odom,0.569999992847,0.0,0.0,0.469999998808,-0.305000007153,0.0,-0.730000019073,-0.305000007153,0.0,-0.730000019073,0.305000007153,0.0,0.469999998808,0.305000007153,0.0
1449617602039215813,17,1449617602037075157,odom,0.569999992847,0.0,0.0,0.469999998808,-0.305000007153,0.0,-0.730000019073,-0.305000007153,0.0,-0.730000019073,0.305000007153,0.0,0.469999998808,0.305000007153,0.0
1449617602190121134,18,1449617602187490553,odom,0.569999992847,0.0,0.0,0.469999998808,-0.305000007153,0.0,-0.730000019073,-0.305000007153,0.0,-0.730000019073,0.305000007153,0.0,0.469999998808,0.305000007153,0.0
1449617602371365215,19,1449617602371174259,odom,0.569999992847,0.0,0.0,0.469999998808,-0.305000007153,0.0,-0.730000019073,-0.305000007153,0.0,-0.730000019073,0.305000007153,0.0,0.469999998808,0.305000007153,0.0
1449617602593803008,20,1449617602592393458,odom,0.569999992847,0.0,0.0,0.469999998808,-0.305000007153,0.0,-0.730000019073,-0.305000007153,0.0,-0.730000019073,0.305000007153,0.0,0.469999998808,0.305000007153,0.0
1449617602834442289,21,1449617602832740221,odom,0.569999992847,0.0,0.0,0.469999998808,-0.305000007153,0.0,-0.730000019073,-0.305000007153,0.0,-0.730000019073,0.305000007153,0.0,0.469999998808,0.305000007153,0.0
1449617603012440157,22,1449617603012299798,odom,0.569999992847,0.0,0.0,0.469999998808,-0.305000007153,0.0,-0.730000019073,-0.305000007153,0.0,-0.730000019073,0.305000007153,0.0,0.469999998808,0.305000007153,0.0
1449617603187550244,23,1449617603187320265,odom,0.569999992847,0.0,0.0,0.469999998808,-0.305000007153,0.0,-0.730000019073,-0.305000007153,0.0,-0.730000019073,0.305000007153,0.0,0.469999998808,0.305000007153,0.0
1449617603390653414,24,1449617603390409158,odom,0.569999992847,0.0,0.0,0.469999998808,-0.305000007153,0.0,-0.730000019073,-0.305000007153,0.0,-0.730000019073,0.305000007153,0.0,0.469999998808,0.305000007153,0.0
1449617603577639187,25,1449617603575714120,odom,0.569999992847,0.0,0.0,0.469999998808,-0.305000007153,0.0,-0.730000019073,-0.305000007153,0.0,-0.730000019073,0.305000007153,0.0,0.469999998808,0.305000007153,0.0
1449617603792756640,26,1449617603792383604,odom,0.569999992847,0.0,0.0,0.469999998808,-0.305000007153,0.0,-0.730000019073,-0.305000007153,0.0,-0.730000019073,0.305000007153,0.0,0.469999998808,0.305000007153,0.0
1449617604008109871,27,1449617604007900100,odom,0.569999992847,0.0,0.0,0.469999998808,-0.305000007153,0.0,-0.730000019073,-0.305000007153,0.0,-0.730000019073,0.305000007153,0.0,0.469999998808,0.305000007153,0.0
1449617604177384461,28,1449617604177131193,odom,0.569999992847,0.0,0.0,0.469999998808,-0.305000007153,0.0,-0.730000019073,-0.305000007153,0.0,-0.730000019073,0.305000007153,0.0,0.469999998808,0.305000007153,0.0
1449617604385077268,29,1449617604384502486,odom,0.569999992847,0.0,0.0,0.469999998808,-0.305000007153,0.0,-0.730000019073,-0.305000007153,0.0,-0.730000019073,0.305000007153,0.0,0.469999998808,0.305000007153,0.0
1449617604593794167,30,1449617604593452890,odom,0.569999992847,0.0,0.0,0.469999998808,-0.305000007153,0.0,-0.730000019073,-0.305000007153,0.0,-0.730000019073,0.305000007153,0.0,0.469999998808,0.305000007153,0.0
1449617604784708708,31,1449617604784478579,odom,0.569999992847,0.0,0.0,0.469999998808,-0.305000007153,0.0,-0.730000019073,-0.305000007153,0.0,-0.730000019073,0.305000007153,0.0,0.469999998808,0.305000007153,0.0
1449617605025357466,32,1449617605024012786,odom,0.569999992847,0.0,0.0,0.469999998808,-0.305000007153,0.0,-0.730000019073,-0.305000007153,0.0,-0.730000019073,0.305000007153,0.0,0.469999998808,0.305000007153,0.0
1449617605252087174,33,1449617605251863060,odom,0.569999992847,0.0,0.0,0.469999998808,-0.305000007153,0.0,-0.730000019073,-0.305000007153,0.0,-0.730000019073,0.305000007153,0.0,0.469999998808,0.305000007153,0.0
1449617605397780377,34,1449617605395953935,odom,0.569999992847,0.0,0.0,0.469999998808,-0.305000007153,0.0,-0.730000019073,-0.305000007153,0.0,-0.730000019073,0.305000007153,0.0,0.469999998808,0.305000007153,0.0
1449617605577802278,35,1449617605576440771,odom,0.569999992847,0.0,0.0,0.469999998808,-0.305000007153,0.0,-0.730000019073,-0.305000007153,0.0,-0.730000019073,0.305000007153,0.0,0.469999998808,0.305000007153,0.0
1449617605799335239,36,1449617605796610434,odom,0.569999992847,0.0,0.0,0.469999998808,-0.305000007153,0.0,-0.730000019073,-0.305000007153,0.0,-0.730000019073,0.305000007153,0.0,0.469999998808,0.305000007153,0.0
1449617606017827145,37,1449617606015931538,odom,0.569999992847,0.0,0.0,0.469999998808,-0.305000007153,0.0,-0.730000019073,-0.305000007153,0.0,-0.730000019073,0.305000007153,0.0,0.469999998808,0.305000007153,0.0
1449617606214065156,38,1449617606211428415,odom,0.569999992847,0.0,0.0,0.469999998808,-0.305000007153,0.0,-0.730000019073,-0.305000007153,0.0,-0.730000019073,0.305000007153,0.0,0.469999998808,0.305000007153,0.0
1449617606390012695,39,1449617606388749109,odom,0.569999992847,0.0,0.0,0.469999998808,-0.305000007153,0.0,-0.730000019073,-0.305000007153,0.0,-0.730000019073,0.305000007153,0.0,0.469999998808,0.305000007153,0.0
1449617606586282495,40,1449617606585679617,odom,0.569999992847,0.0,0.0,0.469999998808,-0.305000007153,0.0,-0.730000019073,-0.305000007153,0.0,-0.730000019073,0.305000007153,0.0,0.469999998808,0.305000007153,0.0
1449617606859135867,41,1449617606858824955,odom,0.569999992847,0.0,0.0,0.469999998808,-0.305000007153,0.0,-0.730000019073,-0.305000007153,0.0,-0.730000019073,0.305000007153,0.0,0.469999998808,0.305000007153,0.0
1449617607022116947,42,1449617607020363195,odom,0.569999992847,0.0,0.0,0.469999998808,-0.305000007153,0.0,-0.730000019073,-0.305000007153,0.0,-0.730000019073,0.305000007153,0.0,0.469999998808,0.305000007153,0.0
1449617607218434215,43,1449617607218263275,odom,0.569999992847,0.0,0.0,0.469999998808,-0.305000007153,0.0,-0.730000019073,-0.305000007153,0.0,-0.730000019073,0.305000007153,0.0,0.469999998808,0.305000007153,0.0
1449617607385922528,44,1449617607385804045,odom,0.569999992847,0.0,0.0,0.469999998808,-0.305000007153,0.0,-0.730000019073,-0.305000007153,0.0,-0.730000019073,0.305000007153,0.0,0.469999998808,0.305000007153,0.0
1449617607621981293,45,1449617607621264716,odom,0.569999992847,0.0,0.0,0.469999998808,-0.305000007153,0.0,-0.730000019073,-0.305000007153,0.0,-0.730000019073,0.305000007153,0.0,0.469999998808,0.305000007153,0.0
1449617607828440625,46,1449617607828087794,odom,0.569999992847,0.0,0.0,0.469999998808,-0.305000007153,0.0,-0.730000019073,-0.305000007153,0.0,-0.730000019073,0.305000007153,0.0,0.469999998808,0.305000007153,0.0
1449617607995412039,47,1449617607995174259,odom,0.569999992847,0.0,0.0,0.469999998808,-0.305000007153,0.0,-0.730000019073,-0.305000007153,0.0,-0.730000019073,0.305000007153,0.0,0.469999998808,0.305000007153,0.0
1449617608213465723,48,1449617608209856188,odom,0.569999992847,0.0,0.0,0.469999998808,-0.305000007153,0.0,-0.730000019073,-0.305000007153,0.0,-0.730000019073,0.305000007153,0.0,0.469999998808,0.305000007153,0.0
1449617608411423018,49,1449617608411118763,odom,0.569999992847,0.0,0.0,0.469999998808,-0.305000007153,0.0,-0.730000019073,-0.305000007153,0.0,-0.730000019073,0.305000007153,0.0,0.469999998808,0.305000007153,0.0
1449617608596082179,50,1449617608595163994,odom,0.569999992847,0.0,0.0,0.469999998808,-0.305000007153,0.0,-0.730000019073,-0.305000007153,0.0,-0.730000019073,0.305000007153,0.0,0.469999998808,0.305000007153,0.0
1449617608813620369,51,1449617608812842677,odom,0.569999992847,0.0,0.0,0.469999998808,-0.305000007153,0.0,-0.730000019073,-0.305000007153,0.0,-0.730000019073,0.305000007153,0.0,0.469999998808,0.305000007153,0.0
1449617609021063045,52,1449617609019328028,odom,0.569999992847,0.0,0.0,0.469999998808,-0.305000007153,0.0,-0.730000019073,-0.305000007153,0.0,-0.730000019073,0.305000007153,0.0,0.469999998808,0.305000007153,0.0
1449617609187409752,53,1449617609187261837,odom,0.569999992847,0.0,0.0,0.469999998808,-0.305000007153,0.0,-0.730000019073,-0.305000007153,0.0,-0.730000019073,0.305000007153,0.0,0.469999998808,0.305000007153,0.0
1449617609405763058,54,1449617609405484254,odom,0.569999992847,0.0,0.0,0.469999998808,-0.305000007153,0.0,-0.730000019073,-0.305000007153,0.0,-0.730000019073,0.305000007153,0.0,0.469999998808,0.305000007153,0.0
1449617609628831562,55,1449617609628453889,odom,0.569999992847,0.0,0.0,0.469999998808,-0.305000007153,0.0,-0.730000019073,-0.305000007153,0.0,-0.730000019073,0.305000007153,0.0,0.469999998808,0.305000007153,0.0
1449617609799814008,56,1449617609798219044,odom,0.569999992847,0.0,0.0,0.469999998808,-0.305000007153,0.0,-0.730000019073,-0.305000007153,0.0,-0.730000019073,0.305000007153,0.0,0.469999998808,0.305000007153,0.0
1449617609992097914,57,1449617609991898755,odom,0.569999992847,0.0,0.0,0.469999998808,-0.305000007153,0.0,-0.730000019073,-0.305000007153,0.0,-0.730000019073,0.305000007153,0.0,0.469999998808,0.305000007153,0.0
1449617610216048317,58,1449617610215729133,odom,0.569999992847,0.0,0.0,0.469999998808,-0.305000007153,0.0,-0.730000019073,-0.305000007153,0.0,-0.730000019073,0.305000007153,0.0,0.469999998808,0.305000007153,0.0
1449617610378315188,59,1449617610378130782,odom,0.569999992847,0.0,0.0,0.469999998808,-0.305000007153,0.0,-0.730000019073,-0.305000007153,0.0,-0.730000019073,0.305000007153,0.0,0.469999998808,0.305000007153,0.0
1449617610596939743,60,1449617610595575081,odom,0.569999992847,0.0,0.0,0.469999998808,-0.305000007153,0.0,-0.730000019073,-0.305000007153,0.0,-0.730000019073,0.305000007153,0.0,0.469999998808,0.305000007153,0.0
1449617610800204400,61,1449617610799223428,odom,0.569999992847,0.0,0.0,0.469999998808,-0.305000007153,0.0,-0.730000019073,-0.305000007153,0.0,-0.730000019073,0.305000007153,0.0,0.469999998808,0.305000007153,0.0
1449617611051244390,62,1449617611050917810,odom,0.569999992847,0.0,0.0,0.469999998808,-0.305000007153,0.0,-0.730000019073,-0.305000007153,0.0,-0.730000019073,0.305000007153,0.0,0.469999998808,0.305000007153,0.0
1449617611225537175,63,1449617611224883122,odom,0.569999992847,0.0,0.0,0.469999998808,-0.305000007153,0.0,-0.730000019073,-0.305000007153,0.0,-0.730000019073,0.305000007153,0.0,0.469999998808,0.305000007153,0.0
1449617611399358414,64,1449617611395921270,odom,0.569999992847,0.0,0.0,0.469999998808,-0.305000007153,0.0,-0.730000019073,-0.305000007153,0.0,-0.730000019073,0.305000007153,0.0,0.469999998808,0.305000007153,0.0
1449617611609775233,65,1449617611609495786,odom,0.569999992847,0.0,0.0,0.469999998808,-0.305000007153,0.0,-0.730000019073,-0.305000007153,0.0,-0.730000019073,0.305000007153,0.0,0.469999998808,0.305000007153,0.0
1449617611789329845,66,1449617611789041085,odom,0.569999992847,0.0,0.0,0.469999998808,-0.305000007153,0.0,-0.730000019073,-0.305000007153,0.0,-0.730000019073,0.305000007153,0.0,0.469999998808,0.305000007153,0.0
1449617611985809353,67,1449617611985532753,odom,0.569999992847,0.0,0.0,0.469999998808,-0.305000007153,0.0,-0.730000019073,-0.305000007153,0.0,-0.730000019073,0.305000007153,0.0,0.469999998808,0.305000007153,0.0
1449617612185233996,68,1449617612184941320,odom,0.569999992847,0.0,0.0,0.469999998808,-0.305000007153,0.0,-0.730000019073,-0.305000007153,0.0,-0.730000019073,0.305000007153,0.0,0.469999998808,0.305000007153,0.0
1449617612416383059,69,1449617612416171538,odom,0.569999992847,0.0,0.0,0.469999998808,-0.305000007153,0.0,-0.730000019073,-0.305000007153,0.0,-0.730000019073,0.305000007153,0.0,0.469999998808,0.305000007153,0.0
1449617612605192395,70,1449617612604963766,odom,0.569999992847,0.0,0.0,0.469999998808,-0.305000007153,0.0,-0.730000019073,-0.305000007153,0.0,-0.730000019073,0.305000007153,0.0,0.469999998808,0.305000007153,0.0
1449617612823144307,71,1449617612822932750,odom,0.569999992847,0.0,0.0,0.469999998808,-0.305000007153,0.0,-0.730000019073,-0.305000007153,0.0,-0.730000019073,0.305000007153,0.0,0.469999998808,0.305000007153,0.0
1449617612989867754,72,1449617612989490202,odom,0.569999992847,0.0,0.0,0.469999998808,-0.305000007153,0.0,-0.730000019073,-0.305000007153,0.0,-0.730000019073,0.305000007153,0.0,0.469999998808,0.305000007153,0.0
1449617613207097105,73,1449617613206775620,odom,0.569999992847,0.0,0.0,0.469999998808,-0.305000007153,0.0,-0.730000019073,-0.305000007153,0.0,-0.730000019073,0.305000007153,0.0,0.469999998808,0.305000007153,0.0
1449617613401378603,74,1449617613400144966,odom,0.569999992847,0.0,0.0,0.469999998808,-0.305000007153,0.0,-0.730000019073,-0.305000007153,0.0,-0.730000019073,0.305000007153,0.0,0.469999998808,0.305000007153,0.0
1449617613589816802,75,1449617613587793734,odom,0.569999992847,0.0,0.0,0.469999998808,-0.305000007153,0.0,-0.730000019073,-0.305000007153,0.0,-0.730000019073,0.305000007153,0.0,0.469999998808,0.305000007153,0.0
1449617613787152690,76,1449617613786955464,odom,0.569999992847,0.0,0.0,0.469999998808,-0.305000007153,0.0,-0.730000019073,-0.305000007153,0.0,-0.730000019073,0.305000007153,0.0,0.469999998808,0.305000007153,0.0
1449617614013400501,77,1449617614013084960,odom,0.569999992847,0.0,0.0,0.469999998808,-0.305000007153,0.0,-0.730000019073,-0.305000007153,0.0,-0.730000019073,0.305000007153,0.0,0.469999998808,0.305000007153,0.0
1449617614193371615,78,1449617614192718672,odom,0.569999992847,0.0,0.0,0.469999998808,-0.305000007153,0.0,-0.730000019073,-0.305000007153,0.0,-0.730000019073,0.305000007153,0.0,0.469999998808,0.305000007153,0.0
1449617614383766153,79,1449617614383588383,odom,0.569999992847,0.0,0.0,0.469999998808,-0.305000007153,0.0,-0.730000019073,-0.305000007153,0.0,-0.730000019073,0.305000007153,0.0,0.469999998808,0.305000007153,0.0
1449617614596096573,80,1449617614595731935,odom,0.569999992847,0.0,0.0,0.469999998808,-0.305000007153,0.0,-0.730000019073,-0.305000007153,0.0,-0.730000019073,0.305000007153,0.0,0.469999998808,0.305000007153,0.0
1449617614800302122,81,1449617614797631098,odom,0.569999992847,0.0,0.0,0.469999998808,-0.305000007153,0.0,-0.730000019073,-0.305000007153,0.0,-0.730000019073,0.305000007153,0.0,0.469999998808,0.305000007153,0.0
1449617615006990569,82,1449617615006857990,odom,0.569999992847,0.0,0.0,0.469999998808,-0.305000007153,0.0,-0.730000019073,-0.305000007153,0.0,-0.730000019073,0.305000007153,0.0,0.469999998808,0.305000007153,0.0
1449617615188991581,83,1449617615186806543,odom,0.569999992847,0.0,0.0,0.469999998808,-0.305000007153,0.0,-0.730000019073,-0.305000007153,0.0,-0.730000019073,0.305000007153,0.0,0.469999998808,0.305000007153,0.0
1449617615389904437,84,1449617615387122853,odom,0.569999992847,0.0,0.0,0.469999998808,-0.305000007153,0.0,-0.730000019073,-0.305000007153,0.0,-0.730000019073,0.305000007153,0.0,0.469999998808,0.305000007153,0.0
1449617615630740533,85,1449617615627613416,odom,0.569999992847,0.0,0.0,0.469999998808,-0.305000007153,0.0,-0.730000019073,-0.305000007153,0.0,-0.730000019073,0.305000007153,0.0,0.469999998808,0.305000007153,0.0
1449617615788599914,86,1449617615788421825,odom,0.569999992847,0.0,0.0,0.469999998808,-0.305000007153,0.0,-0.730000019073,-0.305000007153,0.0,-0.730000019073,0.305000007153,0.0,0.469999998808,0.305000007153,0.0
1449617616014915314,87,1449617616014601856,odom,0.569999992847,0.0,0.0,0.469999998808,-0.305000007153,0.0,-0.730000019073,-0.305000007153,0.0,-0.730000019073,0.305000007153,0.0,0.469999998808,0.305000007153,0.0
1449617616201585318,88,1449617616200255584,odom,0.569999992847,0.0,0.0,0.469999998808,-0.305000007153,0.0,-0.730000019073,-0.305000007153,0.0,-0.730000019073,0.305000007153,0.0,0.469999998808,0.305000007153,0.0
1449617616385826016,89,1449617616385567519,odom,0.569999992847,0.0,0.0,0.469999998808,-0.305000007153,0.0,-0.730000019073,-0.305000007153,0.0,-0.730000019073,0.305000007153,0.0,0.469999998808,0.305000007153,0.0
1449617616593934837,90,1449617616593047716,odom,0.569999992847,0.0,0.0,0.469999998808,-0.305000007153,0.0,-0.730000019073,-0.305000007153,0.0,-0.730000019073,0.305000007153,0.0,0.469999998808,0.305000007153,0.0
1449617616789874093,91,1449617616789251417,odom,0.569999992847,0.0,0.0,0.469999998808,-0.305000007153,0.0,-0.730000019073,-0.305000007153,0.0,-0.730000019073,0.305000007153,0.0,0.469999998808,0.305000007153,0.0
1449617617040185948,92,1449617617039868194,odom,0.569999992847,0.0,0.0,0.469999998808,-0.305000007153,0.0,-0.730000019073,-0.305000007153,0.0,-0.730000019073,0.305000007153,0.0,0.469999998808,0.305000007153,0.0
1449617617214579769,93,1449617617212849940,odom,0.569999992847,0.0,0.0,0.469999998808,-0.305000007153,0.0,-0.730000019073,-0.305000007153,0.0,-0.730000019073,0.305000007153,0.0,0.469999998808,0.305000007153,0.0
1449617617455441828,94,1449617617452630905,odom,0.569999992847,0.0,0.0,0.469999998808,-0.305000007153,0.0,-0.730000019073,-0.305000007153,0.0,-0.730000019073,0.305000007153,0.0,0.469999998808,0.305000007153,0.0
1449617617602110873,95,1449617617601855890,odom,0.569999992847,0.0,0.0,0.469999998808,-0.305000007153,0.0,-0.730000019073,-0.305000007153,0.0,-0.730000019073,0.305000007153,0.0,0.469999998808,0.305000007153,0.0
1449617617777805964,96,1449617617777452142,odom,0.569999992847,0.0,0.0,0.469999998808,-0.305000007153,0.0,-0.730000019073,-0.305000007153,0.0,-0.730000019073,0.305000007153,0.0,0.469999998808,0.305000007153,0.0
1449617617985999645,97,1449617617985754270,odom,0.569999992847,0.0,0.0,0.469999998808,-0.305000007153,0.0,-0.730000019073,-0.305000007153,0.0,-0.730000019073,0.305000007153,0.0,0.469999998808,0.305000007153,0.0
1449617618190914722,98,1449617618190663627,odom,0.569999992847,0.0,0.0,0.469999998808,-0.305000007153,0.0,-0.730000019073,-0.305000007153,0.0,-0.730000019073,0.305000007153,0.0,0.469999998808,0.305000007153,0.0
1449617618438188381,99,1449617618437634282,odom,0.569999992847,0.0,0.0,0.469999998808,-0.305000007153,0.0,-0.730000019073,-0.305000007153,0.0,-0.730000019073,0.305000007153,0.0,0.469999998808,0.305000007153,0.0
1449617618608155805,100,1449617618606711409,odom,0.569999992847,0.0,0.0,0.469999998808,-0.305000007153,0.0,-0.730000019073,-0.305000007153,0.0,-0.730000019073,0.305000007153,0.0,0.469999998808,0.305000007153,0.0
1449617618809098087,101,1449617618807010651,odom,0.569999992847,0.0,0.0,0.469999998808,-0.305000007153,0.0,-0.730000019073,-0.305000007153,0.0,-0.730000019073,0.305000007153,0.0,0.469999998808,0.305000007153,0.0
1449617618988633933,102,1449617618987858170,odom,0.569999992847,0.0,0.0,0.469999998808,-0.305000007153,0.0,-0.730000019073,-0.305000007153,0.0,-0.730000019073,0.305000007153,0.0,0.469999998808,0.305000007153,0.0
1449617619189744841,103,1449617619188832200,odom,0.569999992847,0.0,0.0,0.469999998808,-0.305000007153,0.0,-0.730000019073,-0.305000007153,0.0,-0.730000019073,0.305000007153,0.0,0.469999998808,0.305000007153,0.0
1449617619442239619,104,1449617619440956287,odom,0.569999992847,0.0,0.0,0.469999998808,-0.305000007153,0.0,-0.730000019073,-0.305000007153,0.0,-0.730000019073,0.305000007153,0.0,0.469999998808,0.305000007153,0.0
1449617619603423465,105,1449617619601386575,odom,0.569999992847,0.0,0.0,0.469999998808,-0.305000007153,0.0,-0.730000019073,-0.305000007153,0.0,-0.730000019073,0.305000007153,0.0,0.469999998808,0.305000007153,0.0
1449617619823269175,106,1449617619822203287,odom,0.569999992847,0.0,0.0,0.469999998808,-0.305000007153,0.0,-0.730000019073,-0.305000007153,0.0,-0.730000019073,0.305000007153,0.0,0.469999998808,0.305000007153,0.0
1449617620006709315,107,1449617620003713295,odom,0.569999992847,0.0,0.0,0.469999998808,-0.305000007153,0.0,-0.730000019073,-0.305000007153,0.0,-0.730000019073,0.305000007153,0.0,0.469999998808,0.305000007153,0.0
1449617620189704586,108,1449617620186603761,odom,0.569999992847,0.0,0.0,0.469999998808,-0.305000007153,0.0,-0.730000019073,-0.305000007153,0.0,-0.730000019073,0.305000007153,0.0,0.469999998808,0.305000007153,0.0
1449617620392796659,109,1449617620392357592,odom,0.569999992847,0.0,0.0,0.469999998808,-0.305000007153,0.0,-0.730000019073,-0.305000007153,0.0,-0.730000019073,0.305000007153,0.0,0.469999998808,0.305000007153,0.0
1449617620622491141,110,1449617620619730194,odom,0.572847783566,0.00605410896242,0.0,0.476076573133,-0.299985647202,0.0,-0.723856449127,-0.312667071819,0.0,-0.730302810669,0.297298878431,0.0,0.469630181789,0.309980303049,0.0
1449617620806397075,111,1449617620798236562,odom,0.57860660553,0.00614540511742,0.0,0.481835365295,-0.299894362688,0.0,-0.718097627163,-0.312575787306,0.0,-0.724544048309,0.297390162945,0.0,0.475388973951,0.310071587563,0.0
1449617621030918229,112,1449617621030659910,odom,0.584365844727,0.00620627170429,0.0,0.487594634295,-0.299833476543,0.0,-0.712338387966,-0.312514901161,0.0,-0.718784749508,0.297451049089,0.0,0.48114824295,0.310132473707,0.0
1449617621216080205,113,1449617621214030066,odom,0.590124607086,0.00629756785929,0.0,0.493353396654,-0.29974219203,0.0,-0.706579625607,-0.312423616648,0.0,-0.713025987148,0.297542333603,0.0,0.486907035112,0.310223758221,0.0
1449617621457281442,114,1449617621453764378,odom,0.59588342905,0.0063888640143,0.0,0.499112188816,-0.299650907516,0.0,-0.700820803642,-0.312332332134,0.0,-0.707267224789,0.297633618116,0.0,0.492665797472,0.310315042734,0.0
1449617621654367846,115,1449617621654149900,odom,0.59588342905,0.0063888640143,0.0,0.499112188816,-0.299650907516,0.0,-0.700820803642,-0.312332332134,0.0,-0.707267224789,0.297633618116,0.0,0.492665797472,0.310315042734,0.0
1449617621854758670,116,1449617621852575964,odom,0.601642847061,0.00641929730773,0.0,0.504871606827,-0.299620449543,0.0,-0.695061385632,-0.312301874161,0.0,-0.701507806778,0.29766407609,0.0,0.498425215483,0.310345500708,0.0
1449617621999727535,117,1449617621999123134,odom,0.616073608398,0.000395621784264,0.0,0.516073644161,-0.304604381323,0.0,-0.683926403522,-0.304604381323,0.0,-0.683926403522,0.305395632982,0.0,0.516073644161,0.305395632982,0.0
1449617622197931105,118,1449617622196162544,odom,0.636199533939,-0.00578022003174,0.0,0.532981932163,-0.309706419706,0.0,-0.666951060295,-0.297024995089,0.0,-0.660504698753,0.312940955162,0.0,0.53942835331,0.300259530544,0.0
1449617622453671286,119,1449617622451509721,odom,0.664732396603,-0.0185856260359,0.0,0.555114507675,-0.320262461901,0.0,-0.644282460213,-0.282223880291,0.0,-0.624946177006,0.327469587326,0.0,0.574450790882,0.289431005716,0.0
1449617622611872767,120,1449617622607581091,odom,0.7044942379,-0.0325387939811,0.0,0.588525056839,-0.331831544638,0.0,-0.609800100327,-0.268452763557,0.0,-0.577582538128,0.340695887804,0.0,0.620742619038,0.277317076921,0.0
1449617622818331491,121,1449617622815890917,odom,0.752083897591,-0.0540635846555,0.0,0.626685738564,-0.349529832602,0.0,-0.569028139114,-0.248197391629,0.0,-0.517517507076,0.359623849392,0.0,0.678196430206,0.258291423321,0.0
1449617623015563982,122,1449617623011945153,odom,0.806045055389,-0.0648956596851,0.0,0.677531480789,-0.359020233154,0.0,-0.517044842243,-0.245057299733,0.0,-0.459113657475,0.362185657024,0.0,0.735462605953,0.248222723603,0.0
1449617623237329875,123,1449617623237186268,odom,0.869830608368,-0.0905373618007,0.0,0.732058167458,-0.38044038415,0.0,-0.458305299282,-0.228668063879,0.0,-0.381154358387,0.376433372498,0.0,0.809209108353,0.224661052227,0.0
1449617623425039432,124,1449617623422722861,odom,0.925228893757,-0.110389150679,0.0,0.781360268593,-0.397315680981,0.0,-0.40552970767,-0.220419481397,0.0,-0.315607458353,0.382916241884,0.0,0.87128251791,0.206020057201,0.0
1449617623643167216,125,1449617623642867940,odom,0.984073281288,-0.125588104129,0.0,0.837180495262,-0.410978227854,0.0,-0.347773760557,-0.221549019217,0.0,-0.251480579376,0.380802720785,0.0,0.933473706245,0.191373541951,0.0
1449617623794289899,126,1449617623794069977,odom,1.04612159729,-0.155130177736,0.0,0.890256166458,-0.435720533133,0.0,-0.288097947836,-0.208824872971,0.0,-0.172759309411,0.390171796083,0.0,1.00559484959,0.163276135921,0.0
1449617624017832053,127,1449617624017368014,odom,1.10267698765,-0.166020080447,0.0,0.946811497211,-0.446610450745,0.0,-0.231542572379,-0.219714790583,0.0,-0.116203948855,0.379281878471,0.0,1.06215012074,0.152386218309,0.0
1449617624220548769,128,1449617624220215851,odom,1.16231846809,-0.190639957786,0.0,1.00055766106,-0.467873513699,0.0,-0.172737926245,-0.216124564409,0.0,-0.0447655506432,0.380300700665,0.0,1.12853002548,0.128551751375,0.0
1449617624502949564,129,1449617624499758283,odom,1.22009456158,-0.209477633238,0.0,1.05541300774,-0.484986245632,0.0,-0.115156553686,-0.220852151513,0.0,0.019111610949,0.374187409878,0.0,1.18968117237,0.110053315759,0.0
1449617624604754273,130,1449617624604298442,odom,1.28882288933,-0.231816157699,0.0,1.12123894691,-0.505569040775,0.0,-0.0464739613235,-0.229079291224,0.0,0.0940750017762,0.364508092403,0.0,1.26178789139,0.0880183503032,0.0
1449617624866371224,131,1449617624862549224,odom,1.33494281769,-0.249364480376,0.0,1.16447532177,-0.521331071854,0.0,-0.000250443263212,-0.232516556978,0.0,0.146563604474,0.359552413225,0.0,1.31128942966,0.0707378685474,0.0
1449617624980905188,132,1449617624978310214,odom,1.39203298092,-0.270260125399,0.0,1.21870088577,-0.540410101414,0.0,0.0570922903717,-0.239303022623,0.0,0.210155040026,0.351181358099,0.0,1.37176370621,0.0500743091106,0.0
1449617625233233198,133,1449617625226636709,odom,1.44889128208,-0.291787356138,0.0,1.27271401882,-0.560090482235,0.0,0.114352315664,-0.246724531054,0.0,0.273646682501,0.34210935235,0.0,1.43200838566,0.0287433974445,0.0
1449617625498697620,134,1449617625496659089,odom,1.50659179688,-0.320601612329,0.0,1.3247833252,-0.585121333599,0.0,0.173303231597,-0.247343987226,0.0,0.345006734133,0.33799174428,0.0,1.49648690224,0.000214379193494,0.0
1449617625646213325,135,1449617625644537047,odom,1.57839536667,-0.341823190451,0.0,1.3965870142,-0.60634291172,0.0,0.245106831193,-0.268565565348,0.0,0.416810333729,0.316770166159,0.0,1.56829047203,-0.0210072025657,0.0
1449617625795907167,136,1449617625790169212,odom,1.61798882484,-0.360190808773,0.0,1.43339514732,-0.622774481773,0.0,0.285548865795,-0.272847294807,0.0,0.463428527117,0.310641229153,0.0,1.61127471924,-0.0392859652638,0.0
1449617626016145981,137,1449617626013855790,odom,1.66840445995,-0.382334887981,0.0,1.48104608059,-0.642953157425,0.0,0.33696192503,-0.280915230513,0.0,0.520997881889,0.300660908222,0.0,1.66508197784,-0.0613770149648,0.0
1449617626200327295,138,1449617626196743164,odom,1.70760071278,-0.401535212994,0.0,1.51749873161,-0.660158932209,0.0,0.377304434776,-0.286050707102,0.0,0.567476093769,0.293548077345,0.0,1.70767045021,-0.0805601477623,0.0
1449617626449167862,139,1449617626447845455,odom,1.74119663239,-0.419122159481,0.0,1.54837214947,-0.67572247982,0.0,0.412194997072,-0.289585739374,0.0,0.608481168747,0.28797096014,0.0,1.74465835094,-0.0981657505035,0.0
1449617626617715918,140,1449617626608692711,odom,1.77386641502,-0.430385917425,0.0,1.58104193211,-0.686986207962,0.0,0.444864809513,-0.300849497318,0.0,0.64115101099,0.276707231998,0.0,1.77732813358,-0.109429508448,0.0
1449617626797168740,141,1449617626791587305,odom,1.79634821415,-0.44467779994,0.0,1.60082268715,-0.699226021767,0.0,0.468789666891,-0.301103919744,0.0,0.671168446541,0.274346232414,0.0,1.803201437,-0.12377589196,0.0
1449617627022280521,142,1449617627021016968,odom,1.81262779236,-0.450467675924,0.0,1.61710238457,-0.705015897751,0.0,0.485069274902,-0.306893765926,0.0,0.68744802475,0.26855635643,0.0,1.81948113441,-0.129565745592,0.0
1449617627212503516,143,1449617627210897366,odom,1.83435106277,-0.458139717579,0.0,1.63882553577,-0.712687969208,0.0,0.506792485714,-0.314565837383,0.0,0.709171235561,0.260884314775,0.0,1.84120428562,-0.137237802148,0.0
1449617627385734421,144,1449617627383544491,odom,1.86151790619,-0.467693954706,0.0,1.66599237919,-0.722242176533,0.0,0.533959329128,-0.324120074511,0.0,0.736338078976,0.251330077648,0.0,1.86837112904,-0.146792054176,0.0
1449617627570387763,145,1449617627568857101,odom,1.89339959621,-0.472424268723,0.0,1.7005751133,-0.729024589062,0.0,0.564397990704,-0.342887848616,0.0,0.760684192181,0.2346688658,0.0,1.89686131477,-0.151467859745,0.0
1449617627809537026,146,1449617627804740856,odom,1.93075311184,-0.478757023811,0.0,1.74065101147,-0.737380743027,0.0,0.60045671463,-0.36327251792,0.0,0.790628433228,0.216326266527,0.0,1.93082273006,-0.157781943679,0.0
1449617628030216749,147,1449617628024575463,odom,1.96908891201,-0.491239249706,0.0,1.77898681164,-0.749862968922,0.0,0.638792514801,-0.375754743814,0.0,0.828964173794,0.203844025731,0.0,1.96915853024,-0.170264184475,0.0
1449617628231618472,148,1449617628226942329,odom,2.02120399475,-0.488489955664,0.0,1.83939564228,-0.753009736538,0.0,0.687915444374,-0.415232330561,0.0,0.859618961811,0.170103400946,0.0,2.01109910011,-0.167673975229,0.0
1449617628450956485,149,1449617628450803959,odom,2.07548213005,-0.4977222085,0.0,1.896479249,-0.764148533344,0.0,0.741493821144,-0.438558667898,0.0,0.907002031803,0.148558929563,0.0,2.06198740005,-0.177030920982,0.0
1449617628602935126,150,1449617628602328365,odom,2.13305711746,-0.494041860104,0.0,1.96258974075,-0.76600843668,0.0,0.797863900661,-0.477193921804,0.0,0.944677948952,0.114875033498,0.0,2.10940384865,-0.173939496279,0.0
1449617628800661345,151,1449617628783898606,odom,2.18622970581,-0.494439154863,0.0,2.02154827118,-0.769947767258,0.0,0.850978553295,-0.505813658237,0.0,0.98524671793,0.0892258808017,0.0,2.1558163166,-0.174908220768,0.0
1449617629001275125,152,1449617628995945237,odom,2.24511480331,-0.49453446269,0.0,2.08629274368,-0.773461997509,0.0,0.910402357578,-0.534126341343,0.0,1.03206467628,0.0636180117726,0.0,2.20795512199,-0.175717651844,0.0
1449617629202490840,153,1449617629201282276,odom,2.30400562286,-0.493295490742,0.0,2.15111422539,-0.775517344475,0.0,0.970428049564,-0.561087012291,0.0,1.0794301033,0.0390950776637,0.0,2.26011610031,-0.175335243344,0.0
1449617629417466598,154,1449617629416922440,odom,2.36283111572,-0.490962088108,0.0,2.2159383297,-0.776352226734,0.0,1.03098404408,-0.586923003197,0.0,1.12727713585,0.0154287535697,0.0,2.31223154068,-0.174000442028,0.0
1449617629597836158,155,1449617629578082502,odom,2.41959071159,-0.480628609657,0.0,2.28181838989,-0.770531654358,0.0,1.09145486355,-0.618759334087,0.0,1.16860568523,-0.013657883741,0.0,2.35896921158,-0.165430217981,0.0
1449617629776430433,156,1449617629768899957,odom,2.47817587852,-0.475493878126,0.0,2.34656119347,-0.768243908882,0.0,1.15325582027,-0.641663253307,0.0,1.21760106087,-0.0350664146245,0.0,2.41090631485,-0.161647081375,0.0
1449617629997943219,157,1449617629994849556,odom,2.53893446922,-0.475697815418,0.0,2.41042089462,-0.769822359085,0.0,1.2158446312,-0.655859470367,0.0,1.27377569675,-0.0486165061593,0.0,2.46835207939,-0.16257943213,0.0
1449617630205561979,158,1449617630204067246,odom,2.60309290886,-0.468891769648,0.0,2.4808242321,-0.765666723251,0.0,1.28410625458,-0.676976025105,0.0,1.32919073105,-0.0686443820596,0.0,2.52590870857,-0.157335042953,0.0
1449617630375086004,159,1449617630373744753,odom,2.66383767128,-0.467048287392,0.0,2.54471206665,-0.765098750591,0.0,1.34712350368,-0.689059793949,0.0,1.38577675819,-0.0802856609225,0.0,2.58336520195,-0.156324639916,0.0
1449617630578708361,160,1449617630577402893,odom,2.72455763817,-0.464593350887,0.0,2.60858845711,-0.763886094093,0.0,1.41026318073,-0.700507283211,0.0,1.44248080254,-0.0913586765528,0.0,2.6408059597,-0.154737472534,0.0
1449617630800155837,161,1449617630798476208,odom,2.77631616592,-0.467422246933,0.0,2.66034698486,-0.766714990139,0.0,1.4620218277,-0.703336238861,0.0,1.4942394495,-0.0941875949502,0.0,2.69256448746,-0.157566383481,0.0
1449617630992826927,162,1449617630992573227,odom,2.83383893967,-0.47031223774,0.0,2.71786975861,-0.769604980946,0.0,1.51954460144,-0.706226170063,0.0,1.55176210403,-0.0970775559545,0.0,2.7500872612,-0.160456344485,0.0
1449617631198981840,163,1449617631198344783,odom,2.89134550095,-0.473506093025,0.0,2.77537631989,-0.772798836231,0.0,1.57705116272,-0.709420084953,0.0,1.60926878452,-0.100271433592,0.0,2.80759382248,-0.163650229573,0.0
1449617631372309001,164,1449617631362695175,odom,2.94560170174,-0.482986807823,0.0,2.82647609711,-0.781037330627,0.0,1.62888765335,-0.704998314381,0.0,1.66754078865,-0.0962241962552,0.0,2.86512923241,-0.172263160348,0.0
1449617631557519820,165,1449617631557229097,odom,3.00307130814,-0.486788243055,0.0,2.88394570351,-0.784838736057,0.0,1.68635737896,-0.708799779415,0.0,1.72501051426,-0.100025609136,0.0,2.92259907722,-0.176064580679,0.0
1449617631807305733,166,1449617631807128913,odom,3.0572412014,-0.496598899364,0.0,2.93497228622,-0.793373823166,0.0,1.73825442791,-0.704683184624,0.0,1.78333878517,-0.0963515117764,0.0,2.9800567627,-0.18504217267,0.0
1449617631988770393,167,1449617631987889177,odom,3.09745430946,-0.499487608671,0.0,2.97518539429,-0.796262562275,0.0,1.77846741676,-0.707571864128,0.0,1.82355189323,-0.0992402210832,0.0,3.02026987076,-0.187930881977,0.0
1449617632167862273,168,1449617632166074733,odom,3.13766741753,-0.502376317978,0.0,3.01539850235,-0.799151241779,0.0,1.81868052483,-0.710460603237,0.0,1.8637650013,-0.102128922939,0.0,3.06048297882,-0.190819591284,0.0
1449617632363857989,169,1449617632362411462,odom,3.18362832069,-0.505629956722,0.0,3.06135964394,-0.802404940128,0.0,1.86464166641,-0.713714241982,0.0,1.90972614288,-0.105382591486,0.0,3.10644412041,-0.19407325983,0.0
1449617632546109821,170,1449617632544165698,odom,3.21809148788,-0.508184075356,0.0,3.09582281113,-0.804959058762,0.0,1.89910471439,-0.716268360615,0.0,1.94418907166,-0.107936702669,0.0,3.14090704918,-0.196627363563,0.0
1449617632772883221,171,1449617632768631722,odom,3.25010442734,-0.504394352436,0.0,3.13097882271,-0.802444815636,0.0,1.93339025974,-0.726405858994,0.0,1.97204339504,-0.117631725967,0.0,3.16963195801,-0.193670704961,0.0
1449617632944010759,172,1449617632942421618,odom,3.27554655075,-0.512198030949,0.0,3.15327787399,-0.80897295475,0.0,1.95655977726,-0.720282316208,0.0,2.00164413452,-0.111950650811,0.0,3.19836211205,-0.200641319156,0.0
1449617633168516263,173,1449617633165472388,odom,3.29853224754,-0.513748943806,0.0,3.17626357079,-0.810523927212,0.0,1.97954559326,-0.721833229065,0.0,2.02463006973,-0.113501578569,0.0,3.22134804726,-0.202192246914,0.0
1449617633361691062,174,1449617633358072273,odom,3.31905341148,-0.509168565273,0.0,3.19992780685,-0.807219088078,0.0,2.0023393631,-0.731180071831,0.0,2.0409924984,-0.122405961156,0.0,3.23858094215,-0.198444932699,0.0
1449617633548487348,175,1449617633548180928,odom,3.33629107475,-0.510354578495,0.0,3.21716547012,-0.808405041695,0.0,2.01957702637,-0.732366085052,0.0,2.05823016167,-0.123591929674,0.0,3.25581860542,-0.199630901217,0.0
1449617633753149953,176,1449617633752521445,odom,3.34203696251,-0.510749876499,0.0,3.22291135788,-0.808800339699,0.0,2.02532291412,-0.732761383057,0.0,2.06397604942,-0.12398725003,0.0,3.26156449318,-0.200026229024,0.0
1449617633940219608,177,1449617633939548392,odom,3.3444955349,-0.516972243786,0.0,3.22222685814,-0.813747227192,0.0,2.0255086422,-0.725056529045,0.0,2.07059311867,-0.116724886,0.0,3.26731109619,-0.205415546894,0.0
1449617634145817393,178,1449617634145560994,odom,3.34203481674,-0.510780215263,0.0,3.22290921211,-0.808830738068,0.0,2.02532076836,-0.732791781425,0.0,2.06397390366,-0.124017618597,0.0,3.26156234741,-0.200056582689,0.0
1449617634360947420,179,1449617634360752063,odom,3.34203481674,-0.510780215263,0.0,3.22290921211,-0.808830738068,0.0,2.02532076836,-0.732791781425,0.0,2.06397390366,-0.124017618597,0.0,3.26156234741,-0.200056582689,0.0
1449617634549646210,180,1449617634549466542,odom,3.34203481674,-0.510780215263,0.0,3.22290921211,-0.808830738068,0.0,2.02532076836,-0.732791781425,0.0,2.06397390366,-0.124017618597,0.0,3.26156234741,-0.200056582689,0.0
1449617634734955125,181,1449617634734786219,odom,3.34203481674,-0.510780215263,0.0,3.22290921211,-0.808830738068,0.0,2.02532076836,-0.732791781425,0.0,2.06397390366,-0.124017618597,0.0,3.26156234741,-0.200056582689,0.0
1449617634942518972,182,1449617634942230528,odom,3.34203481674,-0.510780215263,0.0,3.22290921211,-0.808830738068,0.0,2.02532076836,-0.732791781425,0.0,2.06397390366,-0.124017618597,0.0,3.26156234741,-0.200056582689,0.0
1449617635133819152,183,1449617635131802632,odom,3.34203481674,-0.510780215263,0.0,3.22290921211,-0.808830738068,0.0,2.02532076836,-0.732791781425,0.0,2.06397390366,-0.124017618597,0.0,3.26156234741,-0.200056582689,0.0
1449617635329060183,184,1449617635328726961,odom,3.34203481674,-0.510780215263,0.0,3.22290921211,-0.808830738068,0.0,2.02532076836,-0.732791781425,0.0,2.06397390366,-0.124017618597,0.0,3.26156234741,-0.200056582689,0.0
1449617635530037695,185,1449617635529563017,odom,3.34203481674,-0.510780215263,0.0,3.22290921211,-0.808830738068,0.0,2.02532076836,-0.732791781425,0.0,2.06397390366,-0.124017618597,0.0,3.26156234741,-0.200056582689,0.0
1449617635726545066,186,1449617635726246519,odom,3.34203481674,-0.510780215263,0.0,3.22290921211,-0.808830738068,0.0,2.02532076836,-0.732791781425,0.0,2.06397390366,-0.124017618597,0.0,3.26156234741,-0.200056582689,0.0
1449617635938101351,187,1449617635936197645,odom,3.34203481674,-0.510780215263,0.0,3.22290921211,-0.808830738068,0.0,2.02532076836,-0.732791781425,0.0,2.06397390366,-0.124017618597,0.0,3.26156234741,-0.200056582689,0.0
1449617636128109843,188,1449617636127817057,odom,3.34203481674,-0.510780215263,0.0,3.22290921211,-0.808830738068,0.0,2.02532076836,-0.732791781425,0.0,2.06397390366,-0.124017618597,0.0,3.26156234741,-0.200056582689,0.0
1449617636337028768,189,1449617636336617628,odom,3.34449338913,-0.517002642155,0.0,3.22222471237,-0.813777565956,0.0,2.02550673485,-0.725086927414,0.0,2.0705909729,-0.116755247116,0.0,3.26730918884,-0.205445915461,0.0
1449617636532477799,190,1449617636532261491,odom,3.34203290939,-0.510810613632,0.0,3.22290730476,-0.808861076832,0.0,2.02531886101,-0.73282212019,0.0,2.06397199631,-0.124047979712,0.0,3.26156044006,-0.200086951256,0.0
1449617636739323997,191,1449617636738976498,odom,3.34203290939,-0.510810613632,0.0,3.22290730476,-0.808861076832,0.0,2.02531886101,-0.73282212019,0.0,2.06397199631,-0.124047979712,0.0,3.26156044006,-0.200086951256,0.0
1449617636954028581,192,1449617636953644370,odom,3.34203290939,-0.510810613632,0.0,3.22290730476,-0.808861076832,0.0,2.02531886101,-0.73282212019,0.0,2.06397199631,-0.124047979712,0.0,3.26156044006,-0.200086951256,0.0
1449617637178207029,193,1449617637175474639,odom,3.34203290939,-0.510810613632,0.0,3.22290730476,-0.808861076832,0.0,2.02531886101,-0.73282212019,0.0,2.06397199631,-0.124047979712,0.0,3.26156044006,-0.200086951256,0.0
1449617637365751820,194,1449617637361031651,odom,3.34203290939,-0.510810613632,0.0,3.22290730476,-0.808861076832,0.0,2.02531886101,-0.73282212019,0.0,2.06397199631,-0.124047979712,0.0,3.26156044006,-0.200086951256,0.0
1449617637549580584,195,1449617637549262071,odom,3.34203290939,-0.510810613632,0.0,3.22290730476,-0.808861076832,0.0,2.02531886101,-0.73282212019,0.0,2.06397199631,-0.124047979712,0.0,3.26156044006,-0.200086951256,0.0
1449617637740878958,196,1449617637739869853,odom,3.34449124336,-0.517032980919,0.0,3.2222225666,-0.813807964325,0.0,2.02550458908,-0.725117266178,0.0,2.07058906555,-0.116785608232,0.0,3.26730704308,-0.205476284027,0.0
1449617637952666521,197,1449617637950731309,odom,3.35352468491,-0.511601269245,0.0,3.23439908028,-0.809651732445,0.0,2.03681063652,-0.733612775803,0.0,2.07546377182,-0.124838620424,0.0,3.27305221558,-0.200877591968,0.0
1449617638143194006,198,1449617638142858726,odom,3.36747503281,-0.518614292145,0.0,3.24520635605,-0.815389215946,0.0,2.04848814011,-0.726698577404,0.0,2.09357261658,-0.118366904557,0.0,3.2902905941,-0.207057565451,0.0
1449617638346924001,199,1449617638346557214,odom,3.39045238495,-0.520286679268,0.0,3.26818370819,-0.817061603069,0.0,2.07146573067,-0.728370964527,0.0,2.11655020714,-0.120039276779,0.0,3.31326818466,-0.208729937673,0.0
1449617638600210929,200,1449617638599149794,odom,3.42246317863,-0.516527295113,0.0,3.30333757401,-0.814577758312,0.0,2.10574913025,-0.73853880167,0.0,2.14440226555,-0.129764661193,0.0,3.3419907093,-0.205803647637,0.0
1449617638775489402,201,1449617638770828167,odom,3.45938467979,-0.525303781033,0.0,3.33711600304,-0.822078764439,0.0,2.14039802551,-0.733388066292,0.0,2.18548226357,-0.125056415796,0.0,3.38220047951,-0.21374706924,0.0
1449617638978194506,202,1449617638977521056,odom,3.49959158897,-0.528283596039,0.0,3.37732291222,-0.82505851984,0.0,2.18060469627,-0.736367881298,0.0,2.22568917274,-0.128036201,0.0,3.42240715027,-0.216726869345,0.0
1449617639173195639,203,1449617639170638098,odom,3.55128598213,-0.532114744186,0.0,3.42901730537,-0.828889667988,0.0,2.23229932785,-0.740199029446,0.0,2.27738380432,-0.131867364049,0.0,3.47410178185,-0.220558032393,0.0
1449617639385339857,204,1449617639374522024,odom,3.5972366333,-0.535520195961,0.0,3.47496795654,-0.832295179367,0.0,2.27824997902,-0.74360448122,0.0,2.32333445549,-0.135272845626,0.0,3.52005243301,-0.223963499069,0.0
1449617639566523304,205,1449617639565337981,odom,3.64318728447,-0.53892570734,0.0,3.52091860771,-0.835700631142,0.0,2.32420063019,-0.747009992599,0.0,2.36928510666,-0.138678312302,0.0,3.56600308418,-0.227368980646,0.0
1449617639787130260,206,1449617639786783381,odom,3.70062565804,-0.543182551861,0.0,3.57835698128,-0.839957475662,0.0,2.38163900375,-0.75126683712,0.0,2.42672348022,-0.142935156822,0.0,3.62344145775,-0.231625825167,0.0
1449617639976139864,207,1449617639975143428,odom,3.75232028961,-0.547013700008,0.0,3.63005161285,-0.843788683414,0.0,2.43333339691,-0.755097985268,0.0,2.47841787338,-0.146766319871,0.0,3.67513585091,-0.235456988215,0.0
1449617640157793799,208,1449617640157103494,odom,3.80975866318,-0.551270544529,0.0,3.687489748,-0.848045527935,0.0,2.49077177048,-0.759354829788,0.0,2.53585624695,-0.151023164392,0.0,3.73257422447,-0.239713832736,0.0
1449617640381923257,209,1449617640381320618,odom,3.86145305634,-0.555101692677,0.0,3.73918437958,-0.851876676083,0.0,2.54246640205,-0.763185977936,0.0,2.58755087852,-0.15485432744,0.0,3.78426885605,-0.243544995785,0.0
1449617640592520267,210,1449617640591392273,odom,3.90740275383,-0.558507144451,0.0,3.78513407707,-0.855282068253,0.0,2.58841609955,-0.76659142971,0.0,2.63350057602,-0.158259734511,0.0,3.83021855354,-0.246950402856,0.0
1449617640779093387,211,1449617640777359685,odom,3.9418656826,-0.56106120348,0.0,3.81959700584,-0.857836186886,0.0,2.62287902832,-0.769145488739,0.0,2.66796350479,-0.160813853145,0.0,3.86468148232,-0.249504506588,0.0
1449617640976788827,212,1449617640972237424,odom,3.97058486938,-0.56318962574,0.0,3.84831619263,-0.859964609146,0.0,2.6515982151,-0.771273910999,0.0,2.69668269157,-0.162942275405,0.0,3.8934006691,-0.251632928848,0.0
1449617641180610627,213,1449617641175758210,odom,4.00008869171,-0.55296087265,0.0,3.88411974907,-0.852253615856,0.0,2.6857945919,-0.788874804974,0.0,2.7180120945,-0.179726183414,0.0,3.91633725166,-0.243104979396,0.0
1449617641376811712,214,1449617641376540084,odom,4.03512525558,-0.542354226112,0.0,3.92550730705,-0.8440310359,0.0,2.72611021996,-0.805992484093,0.0,2.74544644356,-0.196298986673,0.0,3.94484353065,-0.234337598085,0.0
1449617641575839541,215,1449617641574632139,odom,4.08423137665,-0.51254349947,0.0,3.99069976807,-0.819588840008,0.0,2.79096770287,-0.844950258732,0.0,2.77807569504,-0.235086485744,0.0,3.97780776024,-0.209725067019,0.0
1449617641778307068,216,1449617641777505170,odom,4.13498258591,-0.485946893692,0.0,4.05451011658,-0.796670556068,0.0,2.85692191124,-0.872709512711,0.0,2.81826877594,-0.263935387135,0.0,4.0158572197,-0.187896415591,0.0
1449617641976610328,217,1449617641967884125,odom,4.18309879303,-0.444566756487,0.0,4.12247753143,-0.759765148163,0.0,2.9321141243,-0.911537528038,0.0,2.85496306419,-0.306436061859,0.0,4.04532670975,-0.154663741589,0.0
1449617642176086752,218,1449617642172081139,odom,4.23010492325,-0.393497914076,0.0,4.19294500351,-0.712314724922,0.0,3.01705479622,-0.951650381088,0.0,2.89539241791,-0.353906065226,0.0,4.07128286362,-0.114570386708,0.0
1449617642378687964,219,1449617642377234248,odom,4.26533460617,-0.354146063328,0.0,4.24506521225,-0.674480497837,0.0,3.08345651627,-0.975587546825,0.0,2.93039369583,-0.385103166103,0.0,4.09200239182,-0.0839961245656,0.0
1449617642570049631,220,1449617642567916182,odom,4.29291248322,-0.314608871937,0.0,4.28959035873,-0.63556677103,0.0,3.14550590515,-0.99760466814,0.0,2.96147012711,-0.416028559208,0.0,4.10555410385,-0.0539906360209,0.0
1449617642773038106,221,1449617642772503692,odom,4.32327127457,-0.278651744127,0.0,4.33351516724,-0.599463284016,0.0,3.20575261116,-1.00952637196,0.0,2.99730396271,-0.436247050762,0.0,4.12506628036,-0.0261840000749,0.0
1449617642950580590,222,1449617642950253733,odom,4.35707998276,-0.246096774936,0.0,4.37748813629,-0.566422402859,0.0,3.26329088211,-1.01202809811,0.0,3.03677463531,-0.445644497871,0.0,4.1509718895,-3.8765843783e-05,0.0
1449617643171888139,223,1449617643167345161,odom,4.39525794983,-0.210516154766,0.0,4.42580986023,-0.530033886433,0.0,3.32629776001,-1.0107344389,0.0,3.08194160461,-0.451815724373,0.0,4.18145370483,0.0288848150522,0.0
1449617643373498190,224,1449617643370872337,odom,4.44287729263,-0.175985008478,0.0,4.48017501831,-0.494785666466,0.0,3.39106798172,-0.99861651659,0.0,3.13495397568,-0.444986999035,0.0,4.22406101227,0.0588438399136,0.0
1449617643555584062,225,1449617643554145804,odom,4.48975944519,-0.147089898586,0.0,4.53042411804,-0.465478599072,0.0,3.4467022419,-0.9807908535,0.0,3.18475198746,-0.429898828268,0.0,4.26847362518,0.0854134187102,0.0
1449617643745088168,226,1449617643744915635,odom,4.53629207611,-0.117619432509,0.0,4.5803194046,-0.435560613871,0.0,3.50210380554,-0.962296664715,0.0,3.23434638977,-0.414203673601,0.0,4.31256198883,0.112532399595,0.0
1449617643965668201,227,1449617643965462374,odom,4.5876326561,-0.0850213170052,0.0,4.63501787186,-0.402479439974,0.0,3.56242871284,-0.940580546856,0.0,3.28889393806,-0.395347774029,0.0,4.36148309708,0.142753317952,0.0
1449617644154397853,228,1449617644154099122,odom,4.633477211,-0.0544654540718,0.0,4.68421459198,-0.371405094862,0.0,3.61737179756,-0.920811116695,0.0,3.33809041977,-0.378499448299,0.0,4.40493297577,0.170906543732,0.0
1449617644362198415,229,1449617644361533042,odom,4.68421697617,-0.0209779869765,0.0,4.73830032349,-0.337363749743,0.0,3.67732357979,-0.898013293743,0.0,3.39232683182,-0.358683347702,0.0,4.45330381393,0.201966196299,0.0
1449617644557243917,230,1449617644557085622,odom,4.72955036163,0.0102723957971,0.0,4.78697443008,-0.305524170399,0.0,3.7319817543,-0.877354681492,0.0,3.44130134583,-0.341066628695,0.0,4.49629402161,0.230763882399,0.0
1449617644746209060,231,1449617644744231810,odom,4.77463912964,0.0418400391936,0.0,4.8353972435,-0.273332029581,0.0,3.78650641441,-0.856279611588,0.0,3.49017477036,-0.323093384504,0.0,4.53906583786,0.259854197502,0.0
1449617644934465019,232,1449617644934079361,odom,4.81946611404,0.0737497955561,0.0,4.8835515976,-0.240762591362,0.0,3.84087991714,-0.83476215601,0.0,3.53893017769,-0.304737269878,0.0,4.58160209656,0.289262264967,0.0
1449617645148893577,233,1449617645148628028,odom,4.87458992004,0.104978106916,0.0,4.93867540359,-0.209534287453,0.0,3.89600372314,-0.8035338521,0.0,3.59405398369,-0.273508965969,0.0,4.63672590256,0.320490568876,0.0
1449617645337714377,234,1449617645337559814,odom,4.91889476776,0.137676164508,0.0,4.98630046844,-0.176141411066,0.0,3.9499642849,-0.781126558781,0.0,3.64243030548,-0.254322290421,0.0,4.67876672745,0.350662887096,0.0
1449617645539600887,235,1449617645539432818,odom,4.96366167068,0.163809657097,0.0,5.03106737137,-0.150007933378,0.0,3.9947309494,-0.754993081093,0.0,3.68719673157,-0.228188797832,0.0,4.72353315353,0.376796364784,0.0
1449617645737096955,236,1449617645736869053,odom,5.00267553329,0.194017976522,0.0,5.07339382172,-0.119069747627,0.0,4.04350852966,-0.734973013401,0.0,3.73042440414,-0.211448073387,0.0,4.7603096962,0.404455155134,0.0
1449617645932431724,237,1449617645931838071,odom,5.03655099869,0.221472486854,0.0,5.11057376862,-0.090850405395,0.0,4.08725500107,-0.717602908611,0.0,3.76865577698,-0.197415888309,0.0,4.79197454453,0.429336637259,0.0
1449617646138121599,238,1449617646137940656,odom,5.07501363754,0.252343386412,0.0,5.15233325958,-0.0591797977686,0.0,4.13569498062,-0.696711599827,0.0,3.81161642075,-0.179920509458,0.0,4.82825469971,0.457611292601,0.0
1449617646336812911,239,1449617646336548956,odom,5.10241699219,0.284286141396,0.0,5.18630313873,-0.0255333464593,0.0,4.18336582184,-0.684408903122,0.0,3.84843754768,-0.174582496285,0.0,4.85137462616,0.484293073416,0.0
1449617646534157974,240,1449617646533970347,odom,5.13280010223,0.326665729284,0.0,5.22646474838,0.019661007449,0.0,4.24491739273,-0.670675396919,0.0,3.89399623871,-0.171722024679,0.0,4.8755440712,0.518614351749,0.0
1449617646740062419,241,1449617646739272011,odom,5.16493844986,0.380168735981,0.0,5.27149343491,0.0773965194821,0.0,4.31999588013,-0.653802990913,0.0,3.94830274582,-0.17012514174,0.0,4.8998003006,0.561074376106,0.0
1449617646931404607,242,1449617646931271871,odom,5.19033479691,0.431330800056,0.0,5.30958986282,0.133332043886,0.0,4.38984251022,-0.637424170971,0.0,3.99804162979,-0.169886007905,0.0,4.91778898239,0.600870192051,0.0
1449617647136560322,243,1449617647136244194,odom,5.21338605881,0.48370346427,0.0,5.34512805939,0.191010594368,0.0,4.45877408981,-0.617925226688,0.0,4.04756546021,-0.167362093925,0.0,4.93391895294,0.641573727131,0.0
1449617647338674167,244,1449617647338279537,odom,5.23181009293,0.543459355831,0.0,5.37882709503,0.25813305378,0.0,4.53643465042,-0.596487104893,0.0,4.10200309753,-0.168271079659,0.0,4.94439506531,0.686349034309,0.0
1449617647535336237,245,1449617647534819160,odom,5.24862718582,0.587126016617,0.0,5.40461444855,0.306603312492,0.0,4.5897359848,-0.574290156364,0.0,4.14194869995,-0.160060361028,0.0,4.9568271637,0.72083312273,0.0
1449617647738387782,246,1449617647738268400,odom,5.26393795013,0.631404876709,0.0,5.42873907089,0.355967760086,0.0,4.64219331741,-0.550313770771,0.0,4.18150043488,-0.150486454368,0.0,4.96804571152,0.755795061588,0.0
1449617647938891421,247,1449617647938601522,odom,5.2844247818,0.674457728863,0.0,5.45501041412,0.402565151453,0.0,4.68779420853,-0.520137190819,0.0,4.2187538147,-0.130135715008,0.0,4.98597002029,0.792566657066,0.0
1449617648144339664,248,1449617648142505820,odom,5.30098772049,0.723970353603,0.0,5.48010587692,0.457621723413,0.0,4.74252414703,-0.488936781883,0.0,4.2613568306,-0.113999329507,0.0,4.99893856049,0.832559168339,0.0
1449617648335651955,249,1449617648335390449,odom,5.32295417786,0.772403597832,0.0,5.50766181946,0.509900033474,0.0,4.79024982452,-0.452035486698,0.0,4.30126571655,-0.0873510241508,0.0,5.01867771149,0.874584496021,0.0
1449617648531505093,250,1449617648531409555,odom,5.35413885117,0.82454764843,0.0,5.54161024094,0.564010739326,0.0,4.8344039917,-0.405452549458,0.0,4.34159326553,-0.0459559671581,0.0,5.04879999161,0.923507332802,0.0
1449617648745526482,251,1449617648745274888,odom,5.38100528717,0.872631072998,0.0,5.57121992111,0.614089906216,0.0,4.8742980957,-0.362792938948,0.0,4.37771606445,-0.00852436386049,0.0,5.07463741302,0.968358457088,0.0
1449617648951719068,252,1449617648949811092,odom,5.40375137329,0.926986277103,0.0,5.59938764572,0.672522962093,0.0,4.9232673645,-0.318870812654,0.0,4.41930866241,0.0248236097395,0.0,5.09542894363,1.01621735096,0.0
1449617649148349852,253,1449617649147747366,odom,5.42230129242,0.976917266846,0.0,5.6232714653,0.726645410061,0.0,4.96825504303,-0.278816401958,0.0,4.45714521408,0.0541503243148,0.0,5.11216211319,1.05961215496,0.0
1449617649340509839,254,1449617649340247475,odom,5.43999767303,1.02709829807,0.0,5.64621210098,0.781129777431,0.0,5.01259183884,-0.237950876355,0.0,4.49455928802,0.0841394141316,0.0,5.12817955017,1.10322010517,0.0
1449617649542696306,255,1449617649542431108,odom,5.45956611633,1.08259665966,0.0,5.67093324661,0.841041266918,0.0,5.05899190903,-0.191203027964,0.0,4.53426790237,0.1198669523,0.0,5.14620876312,1.15211129189,0.0
1449617649742768877,256,1449617649742180413,odom,5.48232221603,1.13267529011,0.0,5.69622993469,0.893367111683,0.0,5.09523200989,-0.145286440849,0.0,4.56724977493,0.160220950842,0.0,5.16824769974,1.19887459278,0.0
1449617649933730572,257,1449617649933162314,odom,5.50449562073,1.18302297592,0.0,5.72092056274,0.945988714695,0.0,5.13093233109,-0.09895811975,0.0,4.59975099564,0.200952574611,0.0,5.18973922729,1.24589943886,0.0
1449617650143149040,258,1449617650142370661,odom,5.52883481979,1.23869252205,0.0,5.74775266647,1.00395858288,0.0,5.16884040833,-0.0471647791564,0.0,4.63451910019,0.247115731239,0.0,5.21343135834,1.2982391119,0.0
1449617650337098081,259,1449617650336865200,odom,5.5494852066,1.28974556923,0.0,5.77087116241,1.05733835697,0.0,5.20309925079,0.000155739311595,0.0,4.66569805145,0.288773179054,0.0,5.23347043991,1.34595572948,0.0
1449617650535859962,260,1449617650535199441,odom,5.56293439865,1.34121322632,0.0,5.78918266296,1.11353671551,0.0,5.24388074875,0.044590741396,0.0,4.70049953461,0.321786016226,0.0,5.24580192566,1.39073204994,0.0
1449617650755931675,261,1449617650755688704,odom,5.58910703659,1.39251899719,0.0,5.8153553009,1.16484248638,0.0,5.27005338669,0.0958964675665,0.0,4.72667217255,0.373091727495,0.0,5.2719745636,1.44203770161,0.0
1449617650938319092,262,1449617650938091169,odom,5.60038518906,1.4287545681,0.0,5.8290271759,1.20348167419,0.0,5.29505205154,0.12883271277,0.0,4.74877214432,0.400270134211,0.0,5.28274726868,1.47491919994,0.0
1449617651147306890,263,1449617651146975478,odom,5.61917257309,1.49644076824,0.0,5.85252428055,1.27605056763,0.0,5.34138059616,0.190356239676,0.0,4.7894859314,0.450187683105,0.0,5.30062961578,1.53588199615,0.0
1449617651349745175,264,1449617651349295335,odom,5.63428592682,1.54339909554,0.0,5.86995410919,1.32548713684,0.0,5.3703122139,0.234451845288,0.0,4.81570291519,0.488436430693,0.0,5.31534433365,1.57947182655,0.0
1449617651544898869,265,1449617651543522367,odom,5.64890289307,1.59051454067,0.0,5.88686037064,1.3751052618,0.0,5.39877653122,0.278850734234,0.0,4.84151363373,0.526960074902,0.0,5.32959747314,1.62321460247,0.0
1449617651763315784,266,1449617651762951927,odom,5.66302061081,1.63778173923,0.0,5.90324163437,1.42489933968,0.0,5.42676973343,0.323547929525,0.0,4.86691617966,0.565754354,0.0,5.34338760376,1.66710567474,0.0
1449617651967935352,267,1449617651967262451,odom,5.68123197556,1.68010640144,0.0,5.92145252228,1.46722400188,0.0,5.44498109818,0.365872591734,0.0,4.8851275444,0.608079016209,0.0,5.36159896851,1.70943033695,0.0
1449617652170049491,268,1449617652169914308,odom,5.69239425659,1.72230482101,0.0,5.93485116959,1.51197290421,0.0,5.47004508972,0.405647754669,0.0,4.90766334534,0.641924202442,0.0,5.3724694252,1.74824929237,0.0
1449617652361209888,269,1449617652361061625,odom,5.70534086227,1.76992893219,0.0,5.95000696182,1.56217086315,0.0,5.49691867828,0.450995564461,0.0,4.93207073212,0.681315660477,0.0,5.38515949249,1.79249095917,0.0
1449617652569839321,270,1449617652569536262,odom,5.70401906967,1.81679797173,0.0,5.95514822006,1.6169000864,0.0,5.53751039505,0.491920739412,0.0,4.9656457901,0.704220056534,0.0,5.38328361511,1.82919943333,0.0
1449617652762505924,271,1449617652762348640,odom,5.70828819275,1.86422252655,0.0,5.96358585358,1.66967666149,0.0,5.56981706619,0.536122024059,0.0,4.99359321594,0.736287891865,0.0,5.38736200333,1.8698425293,0.0
1449617652965761577,272,1449617652965525481,odom,5.70632505417,1.91641676426,0.0,5.96766138077,1.73006129265,0.0,5.6100230217,0.58459430933,0.0,5.02774381638,0.766393959522,0.0,5.38538265228,1.91186094284,0.0
1449617653181760837,273,1449617653179264641,odom,5.69053983688,1.97177040577,0.0,5.96135377884,1.79947781563,0.0,5.66471290588,0.636720597744,0.0,5.07364463806,0.787513017654,0.0,5.37028551102,1.95027017593,0.0
1449617653397969964,274,1449617653397092673,odom,5.67202997208,2.02616930008,0.0,5.95156574249,1.86842024326,0.0,5.7167506218,0.691618740559,0.0,5.11854314804,0.81098306179,0.0,5.35335826874,1.9877846241,0.0
1449617653590190788,275,1449617653590038705,odom,5.64972639084,2.07383918762,0.0,5.93720340729,1.93107414246,0.0,5.76486968994,0.743513166904,0.0,5.16119289398,0.831116199493,0.0,5.33352661133,2.01867723465,0.0
1449617653779595566,276,1449617653779091668,odom,5.63740444183,2.11897993088,0.0,5.92926263809,1.98539948463,0.0,5.79465961456,0.792972505093,0.0,5.18850946426,0.861395657063,0.0,5.32311248779,2.0538225174,0.0
1449617654009979940,277,1449617654008139759,odom,5.61656045914,2.15558576584,0.0,5.91380310059,2.03445839882,0.0,5.8297123909,0.837408423424,0.0,5.22121191025,0.880154728889,0.0,5.30530261993,2.07720470428,0.0
