%time,field.linear.x,field.linear.y,field.linear.z,field.angular.x,field.angular.y,field.angular.z
1449617601364119935,0.0,0.0,0.0,0.0,0.0,0.0
1449617601463414725,0.0,0.0,0.0,0.0,0.0,0.0
1449617601613267378,0.0,0.0,0.0,0.0,0.0,0.0
1449617601665665153,0.0,0.0,0.0,0.0,0.0,0.0
1449617601880073043,0.0,0.0,0.0,0.0,0.0,0.0
1449617602028125647,0.0,0.0,0.0,0.0,0.0,0.0
1449617602126762593,0.0,0.0,0.0,0.0,0.0,0.0
1449617602228237725,0.0,0.0,0.0,0.0,0.0,0.0
1449617602376876564,0.0,0.0,0.0,0.0,0.0,0.0
1449617602426935561,0.0,0.0,0.0,0.0,0.0,0.0
1449617602537745918,0.0,0.0,0.0,0.0,0.0,0.0
1449617602637434610,0.0,0.0,0.0,0.0,0.0,0.0
1449617602737712987,0.0,0.0,0.0,0.0,0.0,0.0
1449617602837420976,0.0,0.0,0.0,0.0,0.0,0.0
1449617602937656022,0.0,0.0,0.0,0.0,0.0,0.0
1449617602987120183,0.0,0.0,0.0,0.0,0.0,0.0
1449617603107145021,0.0,0.0,0.0,0.0,0.0,0.0
1449617603209882669,0.0,0.0,0.0,0.0,0.0,0.0
1449617603259301277,0.0,0.0,0.0,0.0,0.0,0.0
1449617603388966407,0.0,0.0,0.0,0.0,0.0,0.0
1449617603439356289,0.0,0.0,0.0,0.0,0.0,0.0
1449617603591469612,0.0,0.0,0.0,0.0,0.0,0.0
1449617603641264566,0.0,0.0,0.0,0.0,0.0,0.0
1449617603696575995,0.0,0.0,0.0,0.0,0.0,0.0
1449617603746336324,0.0,0.0,0.0,0.0,0.0,0.0
1449617603907710588,0.0,0.0,0.0,0.0,0.0,0.0
1449617603958553528,0.0,0.0,0.0,0.0,0.0,0.0
1449617603983037639,0.0,0.0,0.0,0.0,0.0,0.0
1449617604032067148,0.0,0.0,0.0,0.0,0.0,0.0
1449617604193279261,0.0,0.0,0.0,0.0,0.0,0.0
1449617604243287437,0.0,0.0,0.0,0.0,0.0,0.0
1449617604331079403,0.0,0.0,0.0,0.0,0.0,0.0
1449617604384591637,0.0,0.0,0.0,0.0,0.0,0.0
1449617604457445274,0.0,0.0,0.0,0.0,0.0,0.0
1449617604507576947,0.0,0.0,0.0,0.0,0.0,0.0
1449617604669421517,0.0,0.0,0.0,0.0,0.0,0.0
1449617604769010067,0.0,0.0,0.0,0.0,0.0,0.0
1449617604919939613,0.0,0.0,0.0,0.0,0.0,0.0
1449617604969786044,0.0,0.0,0.0,0.0,0.0,0.0
1449617604979800152,0.0,0.0,0.0,0.0,0.0,0.0
1449617605026712641,0.0,0.0,0.0,0.0,0.0,0.0
1449617605104536308,0.0,0.0,0.0,0.0,0.0,0.0
1449617605158097893,0.0,0.0,0.0,0.0,0.0,0.0
1449617605172268627,0.0,0.0,0.0,0.0,0.0,0.0
1449617605222068583,0.0,0.0,0.0,0.0,0.0,0.0
1449617605296983782,0.0,0.0,0.0,0.0,0.0,0.0
1449617605347646499,0.0,0.0,0.0,0.0,0.0,0.0
1449617605352315947,0.0,0.0,0.0,0.0,0.0,0.0
1449617605403827206,0.0,0.0,0.0,0.0,0.0,0.0
1449617605498994714,0.0,0.0,0.0,0.0,0.0,0.0
1449617605600902754,0.0,0.0,0.0,0.0,0.0,0.0
1449617605648862707,0.0,0.0,0.0,0.0,0.0,0.0
1449617605811868112,0.0,0.0,0.0,0.0,0.0,0.0
1449617605861720014,0.0,0.0,0.0,0.0,0.0,0.0
1449617605921045401,0.0,0.0,0.0,0.0,0.0,0.0
1449617606020819325,0.0,0.0,0.0,0.0,0.0,0.0
1449617606125732771,0.0,0.0,0.0,0.0,0.0,0.0
1449617606170735651,0.0,0.0,0.0,0.0,0.0,0.0
1449617606235027261,0.0,0.0,0.0,0.0,0.0,0.0
1449617606285841474,0.0,0.0,0.0,0.0,0.0,0.0
1449617606364679699,0.0,0.0,0.0,0.0,0.0,0.0
1449617606464064815,0.0,0.0,0.0,0.0,0.0,0.0
1449617606614808341,0.0,0.0,0.0,0.0,0.0,0.0
1449617606667062780,0.0,0.0,0.0,0.0,0.0,0.0
1449617606821290725,0.0,0.0,0.0,0.0,0.0,0.0
1449617606873504585,0.0,0.0,0.0,0.0,0.0,0.0
1449617606991001724,0.0,0.0,0.0,0.0,0.0,0.0
1449617607041837032,0.0,0.0,0.0,0.0,0.0,0.0
1449617607106477410,0.0,0.0,0.0,0.0,0.0,0.0
1449617607152411997,0.0,0.0,0.0,0.0,0.0,0.0
1449617607217804322,0.0,0.0,0.0,0.0,0.0,0.0
1449617607268447535,0.0,0.0,0.0,0.0,0.0,0.0
1449617607367019393,0.0,0.0,0.0,0.0,0.0,0.0
1449617607467782453,0.0,0.0,0.0,0.0,0.0,0.0
1449617607566296946,0.0,0.0,0.0,0.0,0.0,0.0
1449617607672744514,0.0,0.0,0.0,0.0,0.0,0.0
1449617607718061062,0.0,0.0,0.0,0.0,0.0,0.0
1449617607932266228,0.0,0.0,0.0,0.0,0.0,0.0
1449617608032414880,0.0,0.0,0.0,0.0,0.0,0.0
1449617608082022491,0.0,0.0,0.0,0.0,0.0,0.0
1449617608141081566,0.0,0.0,0.0,0.0,0.0,0.0
1449617608243949871,0.0,0.0,0.0,0.0,0.0,0.0
1449617608291409581,0.0,0.0,0.0,0.0,0.0,0.0
1449617608373760785,0.0,0.0,0.0,0.0,0.0,0.0
1449617608473006706,0.0,0.0,0.0,0.0,0.0,0.0
1449617608624369733,0.0,0.0,0.0,0.0,0.0,0.0
1449617608673330547,0.0,0.0,0.0,0.0,0.0,0.0
1449617608693330033,0.0,0.0,0.0,0.0,0.0,0.0
1449617608742818856,0.0,0.0,0.0,0.0,0.0,0.0
1449617608817902285,0.0,0.0,0.0,0.0,0.0,0.0
1449617608868182345,0.0,0.0,0.0,0.0,0.0,0.0
1449617608928756140,0.0,0.0,0.0,0.0,0.0,0.0
1449617608980443689,0.0,0.0,0.0,0.0,0.0,0.0
1449617609044135138,0.0,0.0,0.0,0.0,0.0,0.0
1449617609193770404,0.0,0.0,0.0,0.0,0.0,0.0
1449617609244582388,0.0,0.0,0.0,0.0,0.0,0.0
1449617609339861369,0.0,0.0,0.0,0.0,0.0,0.0
1449617609439898362,0.0,0.0,0.0,0.0,0.0,0.0
1449617609493000684,0.0,0.0,0.0,0.0,0.0,0.0
1449617609639452973,0.0,0.0,0.0,0.0,0.0,0.0
1449617609737414310,0.0,0.0,0.0,0.0,0.0,0.0
1449617609787928646,0.0,0.0,0.0,0.0,0.0,0.0
1449617609990008344,0.0,0.0,0.0,0.0,0.0,0.0
1449617610037947142,0.0,0.0,0.0,0.0,0.0,0.0
1449617610092870115,0.0,0.0,0.0,0.0,0.0,0.0
1449617610142681502,0.0,0.0,0.0,0.0,0.0,0.0
1449617610248268750,0.0,0.0,0.0,0.0,0.0,0.0
1449617610298385258,0.0,0.0,0.0,0.0,0.0,0.0
1449617610403065601,0.0,0.0,0.0,0.0,0.0,0.0
1449617610502865319,0.0,0.0,0.0,0.0,0.0,0.0
1449617610552835262,0.0,0.0,0.0,0.0,0.0,0.0
1449617610647327887,0.0,0.0,0.0,0.0,0.0,0.0
1449617610748480769,0.0,0.0,0.0,0.0,0.0,0.0
1449617610798012313,0.0,0.0,0.0,0.0,0.0,0.0
1449617610866922415,0.0,0.0,0.0,0.0,0.0,0.0
1449617610915250303,0.0,0.0,0.0,0.0,0.0,0.0
1449617611061861467,0.0,0.0,0.0,0.0,0.0,0.0
1449617611162197422,0.0,0.0,0.0,0.0,0.0,0.0
1449617611261996946,0.0,0.0,0.0,0.0,0.0,0.0
1449617611311875417,0.0,0.0,0.0,0.0,0.0,0.0
1449617611388990699,0.0,0.0,0.0,0.0,0.0,0.0
1449617611538735955,0.0,0.0,0.0,0.0,0.0,0.0
1449617611589734723,0.0,0.0,0.0,0.0,0.0,0.0
1449617611739595209,0.0,0.0,0.0,0.0,0.0,0.0
1449617611836630748,0.0,0.0,0.0,0.0,0.0,0.0
1449617611886506264,0.0,0.0,0.0,0.0,0.0,0.0
1449617611988637811,0.0,0.0,0.0,0.0,0.0,0.0
1449617612039706894,0.0,0.0,0.0,0.0,0.0,0.0
1449617612148993992,0.0,0.0,0.0,0.0,0.0,0.0
1449617612193783005,0.0,0.0,0.0,0.0,0.0,0.0
1449617612432999589,0.0,0.0,0.0,0.0,0.0,0.0
1449617612482276710,0.0,0.0,0.0,0.0,0.0,0.0
1449617612547739648,0.0,0.0,0.0,0.0,0.0,0.0
1449617612698224155,0.0,0.0,0.0,0.0,0.0,0.0
1449617612751241346,0.0,0.0,0.0,0.0,0.0,0.0
1449617612814955658,0.0,0.0,0.0,0.0,0.0,0.0
1449617612915026163,0.0,0.0,0.0,0.0,0.0,0.0
1449617613015141227,0.0,0.0,0.0,0.0,0.0,0.0
1449617613115434279,0.0,0.0,0.0,0.0,0.0,0.0
1449617613214911911,0.0,0.0,0.0,0.0,0.0,0.0
1449617613265274558,0.0,0.0,0.0,0.0,0.0,0.0
1449617613413689720,0.0,0.0,0.0,0.0,0.0,0.0
1449617613460088592,0.0,0.0,0.0,0.0,0.0,0.0
1449617613567539017,0.0,0.0,0.0,0.0,0.0,0.0
1449617613668759395,0.0,0.0,0.0,0.0,0.0,0.0
1449617613817292896,0.0,0.0,0.0,0.0,0.0,0.0
1449617613868745225,0.0,0.0,0.0,0.0,0.0,0.0
1449617613939192744,0.0,0.0,0.0,0.0,0.0,0.0
1449617614039491109,0.0,0.0,0.0,0.0,0.0,0.0
1449617614092632121,0.0,0.0,0.0,0.0,0.0,0.0
1449617614180742925,0.0,0.0,0.0,0.0,0.0,0.0
1449617614230992299,0.0,0.0,0.0,0.0,0.0,0.0
1449617614292312124,0.0,0.0,0.0,0.0,0.0,0.0
1449617614392022552,0.0,0.0,0.0,0.0,0.0,0.0
1449617614442374398,0.0,0.0,0.0,0.0,0.0,0.0
1449617614495111601,0.0,0.0,0.0,0.0,0.0,0.0
1449617614545823607,0.0,0.0,0.0,0.0,0.0,0.0
1449617614808421088,0.0,0.0,0.0,0.0,0.0,0.0
1449617614859561253,0.0,0.0,0.0,0.0,0.0,0.0
1449617614873765901,0.0,0.0,0.0,0.0,0.0,0.0
1449617614920445627,0.0,0.0,0.0,0.0,0.0,0.0
1449617615008988926,0.0,0.0,0.0,0.0,0.0,0.0
1449617615109272092,0.0,0.0,0.0,0.0,0.0,0.0
1449617615161392404,0.0,0.0,0.0,0.0,0.0,0.0
1449617615259413121,0.0,0.0,0.0,0.0,0.0,0.0
1449617615309142185,0.0,0.0,0.0,0.0,0.0,0.0
1449617615422907232,0.0,0.0,0.0,0.0,0.0,0.0
1449617615478099105,0.0,0.0,0.0,0.0,0.0,0.0
1449617615542914780,0.0,0.0,0.0,0.0,0.0,0.0
1449617615641557648,0.0,0.0,0.0,0.0,0.0,0.0
1449617615791618607,0.0,0.0,0.0,0.0,0.0,0.0
1449617615842126130,0.0,0.0,0.0,0.0,0.0,0.0
1449617615994137472,0.0,0.0,0.0,0.0,0.0,0.0
1449617616096574154,0.0,0.0,0.0,0.0,0.0,0.0
1449617616197766795,0.0,0.0,0.0,0.0,0.0,0.0
1449617616244974208,0.0,0.0,0.0,0.0,0.0,0.0
1449617616422343337,0.0,0.0,0.0,0.0,0.0,0.0
1449617616473393074,0.0,0.0,0.0,0.0,0.0,0.0
1449617616542653912,0.0,0.0,0.0,0.0,0.0,0.0
1449617616643217586,0.0,0.0,0.0,0.0,0.0,0.0
1449617616692801580,0.0,0.0,0.0,0.0,0.0,0.0
1449617616827923285,0.0,0.0,0.0,0.0,0.0,0.0
1449617616877721062,0.0,0.0,0.0,0.0,0.0,0.0
1449617616939604445,0.0,0.0,0.0,0.0,0.0,0.0
1449617617039216999,0.0,0.0,0.0,0.0,0.0,0.0
1449617617138058749,0.0,0.0,0.0,0.0,0.0,0.0
1449617617189330252,0.0,0.0,0.0,0.0,0.0,0.0
1449617617379488032,0.0,0.0,0.0,0.0,0.0,0.0
1449617617529153719,0.0,0.0,0.0,0.0,0.0,0.0
1449617617638829086,0.0,0.0,0.0,0.0,0.0,0.0
1449617617679059900,0.0,0.0,0.0,0.0,0.0,0.0
1449617617747707461,0.0,0.0,0.0,0.0,0.0,0.0
1449617617797344860,0.0,0.0,0.0,0.0,0.0,0.0
1449617617871670761,0.0,0.0,0.0,0.0,0.0,0.0
1449617617921667391,0.0,0.0,0.0,0.0,0.0,0.0
1449617617926715948,0.0,0.0,0.0,0.0,0.0,0.0
1449617617974089540,0.0,0.0,0.0,0.0,0.0,0.0
1449617618071216356,0.0,0.0,0.0,0.0,0.0,0.0
1449617618173527428,0.0,0.0,0.0,0.0,0.0,0.0
1449617618271403818,0.0,0.0,0.0,0.0,0.0,0.0
1449617618320998891,0.0,0.0,0.0,0.0,0.0,0.0
1449617618474823235,0.0,0.0,0.0,0.0,0.0,0.0
1449617618573515624,0.0,0.0,0.0,0.0,0.0,0.0
1449617618674084030,0.0,0.0,0.0,0.0,0.0,0.0
1449617618773165272,0.0,0.0,0.0,0.0,0.0,0.0
1449617618823970521,0.0,0.0,0.0,0.0,0.0,0.0
1449617618893084433,0.0,0.0,0.0,0.0,0.0,0.0
1449617618991725887,0.0,0.0,0.0,0.0,0.0,0.0
1449617619090257061,0.0,0.0,0.0,0.0,0.0,0.0
1449617619190146140,0.0,0.0,0.0,0.0,0.0,0.0
1449617619240202548,0.0,0.0,0.0,0.0,0.0,0.0
1449617619461172853,0.0,0.0,0.0,0.0,0.0,0.0
1449617619564942376,0.0,0.0,0.0,0.0,0.0,0.0
1449617619757721578,0.0,0.0,0.0,0.0,0.0,0.31
1449617619872412514,0.0,0.0,0.0,0.0,0.0,0.31
1449617619922855492,0.0,0.0,0.0,0.0,0.0,0.0
1449617619972738596,0.0,0.0,0.0,0.0,0.0,0.0
1449617620111413211,0.0,0.0,0.0,0.0,0.0,0.31
1449617620190319869,0.12,0.0,0.0,0.0,0.0,0.0
1449617620287570215,0.12,0.0,0.0,0.0,0.0,0.0
1449617620351027523,0.12,0.0,0.0,0.0,0.0,0.0
1449617620432343182,0.12,0.0,0.0,0.0,0.0,0.0
1449617620536182062,0.12,0.0,0.0,0.0,0.0,0.0
1449617620602180268,0.12,0.0,0.0,0.0,0.0,0.0
1449617620706045601,0.12,0.0,0.0,0.0,0.0,0.0
1449617620777692982,0.12,0.0,0.0,0.0,0.0,0.0
1449617620838166516,0.12,0.0,0.0,0.0,0.0,0.0
1449617620889787278,0.12,0.0,0.0,0.0,0.0,0.0
1449617620993236091,0.12,0.0,0.0,0.0,0.0,0.0631578947368
1449617621060228608,0.12,0.0,0.0,0.0,0.0,0.105263157895
1449617621130215778,0.12,0.0,0.0,0.0,0.0,0.0
1449617621190362584,0.12,0.0,0.0,0.0,0.0,0.0
1449617621281524835,0.12,0.0,0.0,0.0,0.0,0.0
1449617621422172942,0.12,0.0,0.0,0.0,0.0,0.0
1449617621602256173,0.12,0.0,0.0,0.0,0.0,0.0
1449617621675265312,0.12,0.0,0.0,0.0,0.0,0.0
1449617621813787811,0.12,0.0,0.0,0.0,0.0,0.0
1449617621905855562,0.12,0.0,0.0,0.0,0.0,0.0
1449617621994991583,0.12,0.0,0.0,0.0,0.0,0.0
1449617622089042270,0.12,0.0,0.0,0.0,0.0,0.0210526315789
1449617622153613292,0.12,0.0,0.0,0.0,0.0,0.0631578947368
1449617622245350679,0.0,0.0,0.0,0.0,0.0,0.31
1449617622352037232,0.12,0.0,0.0,0.0,0.0,0.0631578947368
1449617622415847882,0.0,0.0,0.0,0.0,0.0,0.357894736842
1449617622483761727,0.0,0.0,0.0,0.0,0.0,0.31
1449617622562199187,0.0,0.0,0.0,0.0,0.0,0.4
1449617622585719590,0.0,0.0,0.0,0.0,0.0,0.0
1449617622614474140,0.0,0.0,0.0,0.0,0.0,0.0
1449617626431154258,0.352,0.0,0.0,0.0,0.0,0.105263157895
1449617626534177837,0.352,0.0,0.0,0.0,0.0,0.105263157895
1449617626615409732,0.352,0.0,0.0,0.0,0.0,0.105263157895
1449617626705621160,0.352,0.0,0.0,0.0,0.0,0.105263157895
1449617626780211235,0.2128,0.0,0.0,0.0,0.0,0.189473684211
1449617626877840732,0.1664,0.0,0.0,0.0,0.0,0.189473684211
1449617626959232031,0.1664,0.0,0.0,0.0,0.0,0.189473684211
1449617627070073024,0.352,0.0,0.0,0.0,0.0,0.105263157895
1449617627169347166,0.352,0.0,0.0,0.0,0.0,0.105263157895
1449617627243384191,0.352,0.0,0.0,0.0,0.0,0.105263157895
1449617627324570290,0.352,0.0,0.0,0.0,0.0,0.105263157895
1449617627370911822,0.352,0.0,0.0,0.0,0.0,0.147368421053
1449617627458932006,0.352,0.0,0.0,0.0,0.0,0.147368421053
1449617627515918835,0.352,0.0,0.0,0.0,0.0,0.105263157895
1449617627620676630,0.352,0.0,0.0,0.0,0.0,0.147368421053
1449617627707474641,0.352,0.0,0.0,0.0,0.0,0.147368421053
1449617627785777151,0.352,0.0,0.0,0.0,0.0,0.105263157895
1449617627856270067,0.352,0.0,0.0,0.0,0.0,0.147368421053
1449617627912425182,0.352,0.0,0.0,0.0,0.0,0.105263157895
1449617628038000692,0.352,0.0,0.0,0.0,0.0,0.147368421053
1449617628119888593,0.352,0.0,0.0,0.0,0.0,0.105263157895
1449617628222732551,0.352,0.0,0.0,0.0,0.0,0.105263157895
1449617628294271815,0.352,0.0,0.0,0.0,0.0,0.105263157895
1449617628366294137,0.352,0.0,0.0,0.0,0.0,0.105263157895
1449617628498019856,0.352,0.0,0.0,0.0,0.0,0.105263157895
1449617628568048504,0.352,0.0,0.0,0.0,0.0,0.105263157895
1449617628622685381,0.352,0.0,0.0,0.0,0.0,0.105263157895
1449617628766727480,0.352,0.0,0.0,0.0,0.0,0.105263157895
1449617628841526359,0.352,0.0,0.0,0.0,0.0,0.0631578947368
1449617628931359383,0.352,0.0,0.0,0.0,0.0,0.0631578947368
1449617628997966120,0.352,0.0,0.0,0.0,0.0,0.105263157895
1449617629064551825,0.352,0.0,0.0,0.0,0.0,0.0631578947368
1449617629150684933,0.352,0.0,0.0,0.0,0.0,0.0631578947368
1449617629221154290,0.352,0.0,0.0,0.0,0.0,0.0631578947368
1449617629290212671,0.352,0.0,0.0,0.0,0.0,0.0631578947368
1449617629350076521,0.352,0.0,0.0,0.0,0.0,0.0631578947368
1449617629487385133,0.352,0.0,0.0,0.0,0.0,0.0631578947368
1449617629560076733,0.352,0.0,0.0,0.0,0.0,0.0631578947368
1449617629670902460,0.352,0.0,0.0,0.0,0.0,0.0631578947368
1449617629755445174,0.352,0.0,0.0,0.0,0.0,0.0210526315789
1449617629807001030,0.352,0.0,0.0,0.0,0.0,0.0210526315789
1449617629865176168,0.352,0.0,0.0,0.0,0.0,0.0210526315789
1449617629937612596,0.352,0.0,0.0,0.0,0.0,0.0210526315789
1449617630067396768,0.352,0.0,0.0,0.0,0.0,0.0
1449617630158711731,0.352,0.0,0.0,0.0,0.0,0.0
1449617630234521685,0.352,0.0,0.0,0.0,0.0,-0.0210526315789
1449617630290425186,0.352,0.0,0.0,0.0,0.0,-0.0210526315789
1449617630367480950,0.351863962526,0.0,0.0,0.0,0.0,-0.0210526315789
1449617630420742082,0.344585703761,0.0,0.0,0.0,0.0,-0.0210526315789
1449617630500373723,0.340953175043,0.0,0.0,0.0,0.0,-0.0210526315789
1449617630583773903,0.33011497654,0.0,0.0,0.0,0.0,-0.0210526315789
1449617630646436634,0.322025325305,0.0,0.0,0.0,0.0,-0.0631578947368
1449617630685480721,0.320231578031,0.0,0.0,0.0,0.0,-0.0631578947368
1449617630737482996,0.31664838176,0.0,0.0,0.0,0.0,-0.0631578947368
1449617630793826671,0.312196912066,0.0,0.0,0.0,0.0,-0.0631578947368
1449617630880280193,0.305955468852,0.0,0.0,0.0,0.0,-0.0631578947368
1449617630953215080,0.263078283487,0.0,0.0,0.0,0.0,-0.0210526315789
1449617631013350850,0.257415435029,0.0,0.0,0.0,0.0,-0.0631578947368
1449617631110009964,0.256003517138,0.0,0.0,0.0,0.0,-0.0631578947368
1449617631163947585,0.246839757458,0.0,0.0,0.0,0.0,-0.0631578947368
1449617631263243540,0.244029342181,0.0,0.0,0.0,0.0,-0.0631578947368
1449617631356949281,0.352,0.0,0.0,0.0,0.0,0.147368421053
1449617631490199289,0.352,0.0,0.0,0.0,0.0,0.105263157895
1449617631654433487,0.352,0.0,0.0,0.0,0.0,0.273684210526
1449617631728058770,0.271444566842,0.0,0.0,0.0,0.0,0.147368421053
1449617631791225823,0.265663996584,0.0,0.0,0.0,0.0,0.147368421053
1449617631828524712,0.233259045407,0.0,0.0,0.0,0.0,0.105263157895
1449617631901918168,0.230655399211,0.0,0.0,0.0,0.0,0.105263157895
1449617631973246932,0.226774529219,0.0,0.0,0.0,0.0,0.105263157895
1449617632095087848,0.223550708873,0.0,0.0,0.0,0.0,0.105263157895
1449617632152946585,0.220362658494,0.0,0.0,0.0,0.0,0.105263157895
1449617632216815097,0.215311512177,0.0,0.0,0.0,0.0,0.105263157895
1449617632281256358,0.213419931449,0.0,0.0,0.0,0.0,0.105263157895
1449617632381417617,0.210302201491,0.0,0.0,0.0,0.0,0.0631578947368
1449617632465559134,0.184956699001,0.0,0.0,0.0,0.0,0.0631578947368
1449617632517975207,0.183127604556,0.0,0.0,0.0,0.0,0.0631578947368
1449617632602134738,0.181313232362,0.0,0.0,0.0,0.0,0.0631578947368
1449617632701034008,0.198740644879,0.0,0.0,0.0,0.0,0.105263157895
1449617632770963167,0.175949058447,0.0,0.0,0.0,0.0,0.105263157895
1449617632836414065,0.194008225631,0.0,0.0,0.0,0.0,0.105263157895
1449617632902926505,0.173749303133,0.0,0.0,0.0,0.0,0.105263157895
1449617632945644737,0.172452373461,0.0,0.0,0.0,0.0,0.105263157895
1449617633033068020,0.172018394691,0.0,0.0,0.0,0.0,0.105263157895
1449617633098747887,0.170294128329,0.0,0.0,0.0,0.0,0.105263157895
1449617633133319749,0.169870183031,0.0,0.0,0.0,0.0,0.105263157895
1449617633182970556,0.168601687956,0.0,0.0,0.0,0.0,0.105263157895
1449617633257340142,0.168601687956,0.0,0.0,0.0,0.0,0.105263157895
1449617633308098915,0.167348926832,0.0,0.0,0.0,0.0,0.105263157895
1449617633361682480,0.166516133012,0.0,0.0,0.0,0.0,0.105263157895
1449617633450310221,0.150462014054,0.0,0.0,0.0,0.0,0.105263157895
1449617633512676003,0.1501861901,0.0,0.0,0.0,0.0,0.105263157895
1449617633577478568,0.149367083129,0.0,0.0,0.0,0.0,0.105263157895
1449617633611919184,0.149367083129,0.0,0.0,0.0,0.0,0.105263157895
1449617633703113180,0.163642486539,0.0,0.0,0.0,0.0,0.105263157895
1449617633933921748,0.16324009503,0.0,0.0,0.0,0.0,0.105263157895
1449617633989966241,0.16324009503,0.0,0.0,0.0,0.0,0.105263157895
1449617634060507153,0.163646785039,0.0,0.0,0.0,0.0,0.105263157895
1449617634134059687,0.0,0.0,0.0,0.0,0.0,0.0
1449617634234556329,0.0,0.0,0.0,0.0,0.0,0.0
1449617634334057052,0.0,0.0,0.0,0.0,0.0,0.0
1449617634384147160,0.0,0.0,0.0,0.0,0.0,0.0
1449617634445547986,0.0,0.0,0.0,0.0,0.0,0.0
1449617634496149618,0.0,0.0,0.0,0.0,0.0,0.0
1449617634547771559,0.0,0.0,0.0,0.0,0.0,0.0
1449617634648047570,0.0,0.0,0.0,0.0,0.0,0.0
1449617634747911354,0.0,0.0,0.0,0.0,0.0,0.0
1449617634847773153,0.0,0.0,0.0,0.0,0.0,0.0
1449617634947974572,0.0,0.0,0.0,0.0,0.0,0.0
1449617634998063371,0.0,0.0,0.0,0.0,0.0,0.0
1449617635050422836,0.0,0.0,0.0,0.0,0.0,0.0
1449617635150155462,0.0,0.0,0.0,0.0,0.0,0.0
1449617635250254175,0.0,0.0,0.0,0.0,0.0,0.0
1449617635350118441,0.0,0.0,0.0,0.0,0.0,0.0
1449617635450176192,0.0,0.0,0.0,0.0,0.0,0.0
1449617635550108510,0.0,0.0,0.0,0.0,0.0,0.0
1449617635650258711,0.0,0.0,0.0,0.0,0.0,0.0
1449617635750133659,0.0,0.0,0.0,0.0,0.0,0.0
1449617635850205677,0.0,0.0,0.0,0.0,0.0,0.0
1449617635950323979,0.0,0.0,0.0,0.0,0.0,0.0
1449617636050300490,0.0,0.0,0.0,0.0,0.0,0.0
1449617636150150004,0.0,0.0,0.0,0.0,0.0,0.0
1449617636204749425,0.0,0.0,0.0,0.0,0.0,0.0
1449617636250171584,0.0,0.0,0.0,0.0,0.0,0.0
1449617636326793614,0.0,0.0,0.0,0.0,0.0,0.0
1449617636376655543,0.0,0.0,0.0,0.0,0.0,0.0
1449617636445892061,0.0,0.0,0.0,0.0,0.0,0.0
1449617636546886040,0.0,0.0,0.0,0.0,0.0,0.0
1449617636645770478,0.0,0.0,0.0,0.0,0.0,0.0
1449617636695655272,0.0,0.0,0.0,0.0,0.0,0.0
1449617636821303429,-0.0,0.0,0.0,0.0,0.0,0.0
1449617636871814986,0.0,0.0,0.0,0.0,0.0,0.0
1449617636922391979,0.0,0.0,0.0,0.0,0.0,0.0
1449617636999529780,0.0,0.0,0.0,0.0,0.0,0.0
1449617637101884331,0.0,0.0,0.0,0.0,0.0,0.0
1449617637192854296,0.0,0.0,0.0,0.0,0.0,0.0
1449617637305023181,0.197346647742,0.0,0.0,0.0,0.0,0.105263157895
1449617637372160190,0.197346647742,0.0,0.0,0.0,0.0,0.105263157895
1449617637432124018,0.197346647742,0.0,0.0,0.0,0.0,0.105263157895
1449617637479804473,0.197346647742,0.0,0.0,0.0,0.0,0.105263157895
1449617637517443146,0.197346647742,0.0,0.0,0.0,0.0,0.105263157895
1449617637622547753,0.197346647742,0.0,0.0,0.0,0.0,0.105263157895
1449617637748156300,0.196434683509,0.0,0.0,0.0,0.0,0.105263157895
1449617637808155723,0.196434683509,0.0,0.0,0.0,0.0,0.105263157895
1449617637912079781,0.194609044669,0.0,0.0,0.0,0.0,0.105263157895
1449617637977640038,0.192785235678,0.0,0.0,0.0,0.0,0.105263157895
1449617638065683931,0.191872463739,0.0,0.0,0.0,0.0,0.105263157895
1449617638124655135,0.18914331892,0.0,0.0,0.0,0.0,0.105263157895
1449617638201080711,0.187328537495,0.0,0.0,0.0,0.0,0.105263157895
1449617638292427276,0.185512624382,0.0,0.0,0.0,0.0,0.105263157895
1449617638351983206,0.18189390879,0.0,0.0,0.0,0.0,0.105263157895
1449617638406243274,0.178284516426,0.0,0.0,0.0,0.0,0.105263157895
1449617638486530574,0.176483390061,0.0,0.0,0.0,0.0,0.105263157895
1449617638571938144,0.171981273679,0.0,0.0,0.0,0.0,0.105263157895
1449617638663785258,0.167506578437,0.0,0.0,0.0,0.0,0.105263157895
1449617638715530432,0.163940075228,0.0,0.0,0.0,0.0,0.105263157895
1449617638816584639,0.158614283607,0.0,0.0,0.0,0.0,0.105263157895
1449617638909049557,0.146655886905,0.0,0.0,0.0,0.0,0.105263157895
1449617639009381553,0.139659876236,0.0,0.0,0.0,0.0,0.105263157895
1449617639084574727,0.131629097456,0.0,0.0,0.0,0.0,0.105263157895
1449617639139291146,0.125012247478,0.0,0.0,0.0,0.0,0.105263157895
1449617639185220543,0.122166444776,0.0,0.0,0.0,0.0,0.105263157895
1449617639259455130,0.12,0.0,0.0,0.0,0.0,0.105263157895
1449617639324497823,0.12,0.0,0.0,0.0,0.0,0.105263157895
1449617639374848931,0.12,0.0,0.0,0.0,0.0,0.105263157895
1449617639477566696,0.12,0.0,0.0,0.0,0.0,0.105263157895
1449617639547887967,0.12,0.0,0.0,0.0,0.0,0.147368421053
1449617639628979468,0.12,0.0,0.0,0.0,0.0,0.147368421053
1449617639690771503,0.12,0.0,0.0,0.0,0.0,0.147368421053
1449617639752994373,0.12,0.0,0.0,0.0,0.0,0.189473684211
1449617639895110887,0.12,0.0,0.0,0.0,0.0,0.273684210526
1449617639959534256,0.12,0.0,0.0,0.0,0.0,0.315789473684
1449617640023351011,0.0,0.0,0.0,0.0,0.0,-0.357894736842
1449617640075319958,0.0,0.0,0.0,0.0,0.0,-0.4
1449617640136026773,0.208033905523,0.0,0.0,0.0,0.0,0.231578947368
1449617640205847596,0.200723609257,0.0,0.0,0.0,0.0,0.231578947368
1449617640263494497,0.198900422366,0.0,0.0,0.0,0.0,0.231578947368
1449617640349174890,0.19525952464,0.0,0.0,0.0,0.0,0.273684210526
1449617640408026019,0.186182226355,0.0,0.0,0.0,0.0,0.273684210526
1449617640492618536,0.183482974103,0.0,0.0,0.0,0.0,0.273684210526
1449617640564401829,0.177181401869,0.0,0.0,0.0,0.0,0.273684210526
1449617640613920099,0.173594648181,0.0,0.0,0.0,0.0,0.273684210526
1449617640711538703,0.170018860166,0.0,0.0,0.0,0.0,0.315789473684
1449617640750827225,0.166454837734,0.0,0.0,0.0,0.0,0.315789473684
1449617640837571856,0.162903340699,0.0,0.0,0.0,0.0,0.315789473684
1449617640878155422,0.159365294413,0.0,0.0,0.0,0.0,0.315789473684
1449617640950361798,0.15760149108,0.0,0.0,0.0,0.0,0.315789473684
1449617641039357895,0.147268119308,0.0,0.0,0.0,0.0,0.357894736842
1449617641119791996,0.150555763701,0.0,0.0,0.0,0.0,0.315789473684
1449617641179218366,0.147037796128,0.0,0.0,0.0,0.0,0.357894736842
1449617641247474154,0.144397628486,0.0,0.0,0.0,0.0,0.357894736842
1449617641323768315,0.140892003147,0.0,0.0,0.0,0.0,0.357894736842
1449617641399322942,0.134770753086,0.0,0.0,0.0,0.0,0.357894736842
1449617641449529954,0.127615102572,0.0,0.0,0.0,0.0,0.357894736842
1449617641528105732,0.12551731601,0.0,0.0,0.0,0.0,0.357894736842
1449617641603591837,0.12,0.0,0.0,0.0,0.0,0.357894736842
1449617641706879629,0.12,0.0,0.0,0.0,0.0,0.357894736842
1449617641821635785,0.12,0.0,0.0,0.0,0.0,0.315789473684
1449617641888099613,0.12,0.0,0.0,0.0,0.0,0.315789473684
1449617641941681767,0.12,0.0,0.0,0.0,0.0,0.315789473684
1449617642012210563,0.12,0.0,0.0,0.0,0.0,0.273684210526
1449617642096730515,0.12,0.0,0.0,0.0,0.0,0.231578947368
1449617642159048698,0.12,0.0,0.0,0.0,0.0,0.198600355889
1449617642235206232,0.12,0.0,0.0,0.0,0.0,0.150764540748
1449617642324918404,0.0,0.0,0.0,0.0,0.0,0.316919317622
1449617642385660544,0.0,0.0,0.0,0.0,0.0,0.31
1449617642469724180,0.0,0.0,0.0,0.0,0.0,0.357894736842
1449617642548250240,0.0,0.0,0.0,0.0,0.0,0.317028274913
1449617642554320068,0.0,0.0,0.0,0.0,0.0,0.0
1449617642565759396,0.0,0.0,0.0,0.0,0.0,0.0
1449617656035162192,0.20199783303,0.0,0.0,0.0,0.0,0.231578947368
1449617656149145903,0.197425476877,0.0,0.0,0.0,0.0,0.231578947368
1449617656255355090,0.188314715029,0.0,0.0,0.0,0.0,0.273684210526
1449617656315781284,0.181943686713,0.0,0.0,0.0,0.0,0.273684210526
1449617656428674322,0.177398782925,0.0,0.0,0.0,0.0,0.273684210526
1449617656524987530,0.169230713712,0.0,0.0,0.0,0.0,0.231578947368
1449617656595584730,0.163798316747,0.0,0.0,0.0,0.0,0.231578947368
1449617656673328657,0.156546128592,0.0,0.0,0.0,0.0,0.231578947368
1449617656761323692,0.151126762848,0.0,0.0,0.0,0.0,0.231578947368
1449617656821544973,0.145701583576,0.0,0.0,0.0,0.0,0.231578947368
1449617656956185787,0.134796320448,0.0,0.0,0.0,0.0,0.315789473684
1449617657068841251,0.127600374349,0.0,0.0,0.0,0.0,0.315789473684
1449617657187027905,0.12,0.0,0.0,0.0,0.0,0.273684210526
1449617657301743901,0.12,0.0,0.0,0.0,0.0,0.315789473684
1449617657449957832,0.12,0.0,0.0,0.0,0.0,0.315789473684
1449617657554242674,0.12,0.0,0.0,0.0,0.0,0.357894736842
1449617657634027856,0.12,0.0,0.0,0.0,0.0,0.357894736842
1449617657715618919,0.12,0.0,0.0,0.0,0.0,0.273684210526
1449617657810786363,0.12,0.0,0.0,0.0,0.0,0.315789473684
1449617657932707740,0.12,0.0,0.0,0.0,0.0,0.315789473684
1449617658049949122,0.0,0.0,0.0,0.0,0.0,0.357894736842
1449617658134281657,0.0,0.0,0.0,0.0,0.0,0.0
1449617658180645913,0.0,0.0,0.0,0.0,0.0,0.0
1449617658260508550,0.0,0.0,0.0,0.0,0.0,0.0
1449617658365824946,0.0,0.0,0.0,0.0,0.0,0.0
1449617658451747544,0.0,0.0,0.0,0.0,0.0,0.0
1449617658544438001,0.0,0.0,0.0,0.0,0.0,0.0
1449617658649840905,0.0,0.0,0.0,0.0,0.0,0.0
1449617658772475772,0.0,0.0,0.0,0.0,0.0,0.0
1449617658870920038,0.0,0.0,0.0,0.0,0.0,0.4
1449617658938517538,0.0,0.0,0.0,0.0,0.0,0.4
1449617659087215136,0.0,0.0,0.0,0.0,0.0,0.4
1449617659183875342,0.0,0.0,0.0,0.0,0.0,0.4
1449617659299224401,0.0,0.0,0.0,0.0,0.0,0.357894736842
1449617659379375252,0.0,0.0,0.0,0.0,0.0,0.4
1449617659459910810,0.0,0.0,0.0,0.0,0.0,0.4
1449617659536563532,0.0,0.0,0.0,0.0,0.0,0.357894736842
1449617659615461294,0.0,0.0,0.0,0.0,0.0,0.4
1449617659731839083,0.0,0.0,0.0,0.0,0.0,0.357894736842
1449617659794550606,0.0,0.0,0.0,0.0,0.0,0.4
1449617659883984674,0.0,0.0,0.0,0.0,0.0,0.4
1449617660003385648,0.0,0.0,0.0,0.0,0.0,0.4
1449617660189820523,0.223360075013,0.0,0.0,0.0,0.0,0.0
1449617660241703745,0.210885822485,0.0,0.0,0.0,0.0,0.0
1449617660365901590,0.208966351074,0.0,0.0,0.0,0.0,0.0
1449617660429438005,0.202246950604,0.0,0.0,0.0,0.0,0.0
1449617660513313701,-0.1,0.0,0.0,0.0,0.0,0.0
1449617660549364653,-0.1,0.0,0.0,0.0,0.0,0.0
1449617660607966909,-0.1,0.0,0.0,0.0,0.0,0.0
1449617660671228274,-0.1,0.0,0.0,0.0,0.0,0.0
1449617660721013161,-0.1,0.0,0.0,0.0,0.0,0.0
1449617660778468444,-0.1,0.0,0.0,0.0,0.0,0.0
1449617660846418973,-0.1,0.0,0.0,0.0,0.0,0.0
1449617660923096007,0.0,0.0,0.0,0.0,0.0,0.31
1449617660955890950,0.0,0.0,0.0,0.0,0.0,0.31
1449617661068455039,0.0,0.0,0.0,0.0,0.0,0.31
1449617661141535816,0.0,0.0,0.0,0.0,0.0,0.31
1449617661209500586,0.0,0.0,0.0,0.0,0.0,0.31
1449617661284017915,0.0,0.0,0.0,0.0,0.0,0.31
1449617661342114947,0.0,0.0,0.0,0.0,0.0,0.31
1449617661401328197,0.0,0.0,0.0,0.0,0.0,0.31
1449617661494525046,0.0,0.0,0.0,0.0,0.0,0.31
1449617661575844931,0.0,0.0,0.0,0.0,0.0,0.31
1449617661684972430,0.0,0.0,0.0,0.0,0.0,0.31
1449617661740692872,0.0,0.0,0.0,0.0,0.0,0.31
1449617661850601397,0.352,0.0,0.0,0.0,0.0,-0.273684210526
1449617661919439336,0.352,0.0,0.0,0.0,0.0,-0.231578947368
1449617662013842333,0.352,0.0,0.0,0.0,0.0,-0.273684210526
1449617662117734277,0.352,0.0,0.0,0.0,0.0,-0.315789473684
1449617662184011383,0.352,0.0,0.0,0.0,0.0,-0.315789473684
1449617662258131306,0.352,0.0,0.0,0.0,0.0,-0.315789473684
1449617662330858472,0.352,0.0,0.0,0.0,0.0,-0.273684210526
1449617662366900320,0.352,0.0,0.0,0.0,0.0,-0.273684210526
1449617662465819395,0.352,0.0,0.0,0.0,0.0,-0.315789473684
1449617662539446428,0.352,0.0,0.0,0.0,0.0,-0.357894736842
1449617662646174972,0.352,0.0,0.0,0.0,0.0,-0.357894736842
1449617662728109600,0.352,0.0,0.0,0.0,0.0,-0.357894736842
1449617662821454165,0.352,0.0,0.0,0.0,0.0,-0.357894736842
1449617662913236376,0.352,0.0,0.0,0.0,0.0,-0.357894736842
1449617663004393153,0.352,0.0,0.0,0.0,0.0,-0.357894736842
1449617663083013200,0.352,0.0,0.0,0.0,0.0,-0.4
1449617663152016397,0.352,0.0,0.0,0.0,0.0,-0.4
1449617663276766176,0.352,0.0,0.0,0.0,0.0,-0.4
1449617663392004683,0.352,0.0,0.0,0.0,0.0,-0.4
1449617663483778574,0.3056,0.0,0.0,0.0,0.0,-0.357894736842
1449617663572703960,0.3056,0.0,0.0,0.0,0.0,-0.357894736842
1449617663702837523,0.3056,0.0,0.0,0.0,0.0,-0.357894736842
1449617663774888068,0.3056,0.0,0.0,0.0,0.0,-0.357894736842
1449617663831417597,0.3056,0.0,0.0,0.0,0.0,-0.357894736842
1449617663936372858,0.3056,0.0,0.0,0.0,0.0,-0.357894736842
1449617663996945143,0.2128,0.0,0.0,0.0,0.0,-0.319312924084
1449617664071840600,0.2128,0.0,0.0,0.0,0.0,-0.316533004234
1449617664158689652,0.2128,0.0,0.0,0.0,0.0,-0.316533004234
1449617664243352409,0.2128,0.0,0.0,0.0,0.0,-0.319323609001
1449617664322935197,0.2592,0.0,0.0,0.0,0.0,-0.255448819964
1449617664396265131,0.2592,0.0,0.0,0.0,0.0,-0.255450263023
1449617664489423785,0.2592,0.0,0.0,0.0,0.0,-0.255450263023
1449617664577158582,0.2592,0.0,0.0,0.0,0.0,-0.212361335127
1449617664657042586,0.2592,0.0,0.0,0.0,0.0,-0.205425456323
1449617664762121018,0.2592,0.0,0.0,0.0,0.0,-0.204926016456
1449617664840783098,0.2592,0.0,0.0,0.0,0.0,-0.20509330944
1449617664933820808,0.2592,0.0,0.0,0.0,0.0,-0.166111971328
1449617664989123491,0.2592,0.0,0.0,0.0,0.0,-0.191193694504
1449617665078872445,0.3056,0.0,0.0,0.0,0.0,-0.0770120480186
1449617665169075709,0.3056,0.0,0.0,0.0,0.0,-0.108064051616
1449617665241385623,0.352,0.0,0.0,0.0,0.0,-0.149585799293
1449617665309353589,0.352,0.0,0.0,0.0,0.0,-0.189473684211
1449617665370311486,0.352,0.0,0.0,0.0,0.0,-0.105263157895
1449617665440119701,0.352,0.0,0.0,0.0,0.0,-0.107853458994
1449617665533764003,0.352,0.0,0.0,0.0,0.0,-0.105263157895
1449617665597252699,0.352,0.0,0.0,0.0,0.0,-0.105263157895
1449617665677967157,0.352,0.0,0.0,0.0,0.0,-0.0631578947368
1449617666090786465,0.0,0.0,0.0,0.0,0.0,0.0
1449617666140530384,0.0,0.0,0.0,0.0,0.0,0.0
1449617666343424378,0.0,0.0,0.0,0.0,0.0,0.0
1449617666393384669,0.0,0.0,0.0,0.0,0.0,0.0
1449617666512241499,0.0,0.0,0.0,0.0,0.0,0.0
1449617666562260353,0.0,0.0,0.0,0.0,0.0,0.0
1449617666688581154,0.0,0.0,0.0,0.0,0.0,0.0
1449617666738471669,0.0,0.0,0.0,0.0,0.0,0.0
1449617666871468598,0.124624338726,0.0,0.0,0.0,0.0,0.0
1449617666951010153,0.124624338726,0.0,0.0,0.0,0.0,0.0
1449617667097049940,0.304139689767,0.0,0.0,0.0,0.0,0.0
1449617667156477354,0.304139689767,0.0,0.0,0.0,0.0,0.0
1449617667268828293,0.352,0.0,0.0,0.0,0.0,-0.0210526315789
1449617667377847699,0.352,0.0,0.0,0.0,0.0,0.0
1449617667467550324,0.352,0.0,0.0,0.0,0.0,-0.0210526315789
1449617667527764924,0.352,0.0,0.0,0.0,0.0,0.0
1449617667606019139,0.352,0.0,0.0,0.0,0.0,0.0
1449617667727559285,0.352,0.0,0.0,0.0,0.0,0.0
1449617667893346411,0.190503142808,0.0,0.0,0.0,0.0,0.0
1449617667992044230,0.184746277247,0.0,0.0,0.0,0.0,0.0210526315789
1449617668075010811,0.179952323145,0.0,0.0,0.0,0.0,0.0210526315789
1449617668172530574,0.174205120313,0.0,0.0,0.0,0.0,0.0631578947368
1449617668260229398,0.169420598317,0.0,0.0,0.0,0.0,0.0631578947368
1449617668390113691,0.164641360553,0.0,0.0,0.0,0.0,0.0631578947368
1449617668457920027,0.15510554366,0.0,0.0,0.0,0.0,0.105263157895
1449617668519735820,0.152252921056,0.0,0.0,0.0,0.0,0.105263157895
1449617668635116626,0.148451112962,0.0,0.0,0.0,0.0,0.105263157895
1449617668690962694,0.141813845372,0.0,0.0,0.0,0.0,0.105263157895
1449617668782482415,0.138976785504,0.0,0.0,0.0,0.0,0.147368421053
1449617668860424451,0.132364582678,0.0,0.0,0.0,0.0,0.147368421053
1449617668931131347,0.129533967912,0.0,0.0,0.0,0.0,0.147368421053
1449617669004429464,0.122328960961,0.0,0.0,0.0,0.0,0.147368421053
1449617669061105044,0.121199439064,0.0,0.0,0.0,0.0,0.147368421053
1449617669112498968,0.12,0.0,0.0,0.0,0.0,0.147368421053
1449617669215311671,0.12,0.0,0.0,0.0,0.0,0.147368421053
1449617669288913091,0.12,0.0,0.0,0.0,0.0,0.147368421053
1449617669359752524,0.12,0.0,0.0,0.0,0.0,0.189473684211
1449617669475252817,0.12,0.0,0.0,0.0,0.0,0.189473684211
1449617669604577699,0.290996814441,0.0,0.0,0.0,0.0,0.357894736842
1449617669675688880,0.287814277713,0.0,0.0,0.0,0.0,0.315789473684
1449617669761920183,0.285432433488,0.0,0.0,0.0,0.0,0.315789473684
1449617669840109064,0.283042451885,0.0,0.0,0.0,0.0,0.357894736842
1449617669942534772,0.28144670204,0.0,0.0,0.0,0.0,0.231578947368
1449617670036149437,0.277458111112,0.0,0.0,0.0,0.0,0.231578947368
1449617670105920981,0.275053602079,0.0,0.0,0.0,0.0,0.273684210526
1449617670170224409,0.272641372775,0.0,0.0,0.0,0.0,0.231578947368
1449617670236653392,0.271016232967,0.0,0.0,0.0,0.0,0.273684210526
1449617670289661022,0.267777804758,0.0,0.0,0.0,0.0,0.231578947368
1449617670356570225,0.26534306856,0.0,0.0,0.0,0.0,0.273684210526
1449617670412644688,0.262072817563,0.0,0.0,0.0,0.0,0.273684210526
1449617670550119512,0.12,0.0,0.0,0.0,0.0,0.0
1449617670633689509,0.12,0.0,0.0,0.0,0.0,0.0
1449617670705958118,0.12,0.0,0.0,0.0,0.0,0.0
1449617670824071354,0.12,0.0,0.0,0.0,0.0,0.0
1449617670938042602,0.12,0.0,0.0,0.0,0.0,-0.0210526315789
1449617671013620082,0.12,0.0,0.0,0.0,0.0,-0.0631578947368
1449617671113891197,0.12,0.0,0.0,0.0,0.0,-0.0631578947368
1449617671184281384,0.12,0.0,0.0,0.0,0.0,-0.0631578947368
1449617671246327572,0.12,0.0,0.0,0.0,0.0,-0.0631578947368
1449617671329104586,0.12,0.0,0.0,0.0,0.0,-0.0631578947368
1449617671375677142,0.12,0.0,0.0,0.0,0.0,-0.0631578947368
1449617671439548422,0.12,0.0,0.0,0.0,0.0,-0.105263157895
1449617671514671308,0.12,0.0,0.0,0.0,0.0,-0.0631578947368
1449617671592015422,0.12,0.0,0.0,0.0,0.0,-0.105263157895
1449617671685402949,0.12,0.0,0.0,0.0,0.0,-0.105263157895
1449617671725815259,0.12,0.0,0.0,0.0,0.0,-0.105263157895
1449617671829573865,0.12,0.0,0.0,0.0,0.0,-0.105263157895
1449617671875401515,0.12,0.0,0.0,0.0,0.0,-0.105263157895
1449617671980921165,0.12,0.0,0.0,0.0,0.0,-0.105263157895
1449617672052898884,0.12,0.0,0.0,0.0,0.0,-0.147368421053
1449617672052903079,0.0,0.0,0.0,0.0,0.0,0.0
1449617672077771226,0.0,0.0,0.0,0.0,0.0,0.0
1449617673996768220,0.0,0.0,0.0,0.0,0.0,0.0
1449617674096732764,0.0,0.0,0.0,0.0,0.0,0.0
1449617674146716615,0.0,0.0,0.0,0.0,0.0,0.0
1449617674224075453,0.0,0.0,0.0,0.0,0.0,0.0
1449617674273673745,0.0,0.0,0.0,0.0,0.0,0.0
1449617674394749468,0.0,0.0,0.0,0.0,0.0,0.0
1449617674444429621,0.0,0.0,0.0,0.0,0.0,0.0
1449617674517282768,0.0,0.0,0.0,0.0,0.0,0.0
1449617674616139326,0.0,0.0,0.0,0.0,0.0,0.0
1449617674666403391,0.0,0.0,0.0,0.0,0.0,0.0
1449617674804198520,0.0,0.0,0.0,0.0,0.0,0.0
1449617674854820834,0.0,0.0,0.0,0.0,0.0,0.0
1449617674921214656,0.0,0.0,0.0,0.0,0.0,0.0
1449617675019504489,0.0,0.0,0.0,0.0,0.0,0.0
1449617675070073522,0.0,0.0,0.0,0.0,0.0,0.0
1449617675199259505,0.0,0.0,0.0,0.0,0.0,0.0
1449617675246544444,0.0,0.0,0.0,0.0,0.0,0.0
1449617675313242199,0.0,0.0,0.0,0.0,0.0,0.0
1449617675413178702,0.0,0.0,0.0,0.0,0.0,0.0
1449617675463648234,0.0,0.0,0.0,0.0,0.0,0.0
1449617675557905270,0.0,0.0,0.0,0.0,0.0,0.0
1449617675707300357,0.0,0.0,0.0,0.0,0.0,0.0
1449617675810309288,0.0,0.0,0.0,0.0,0.0,0.0
1449617675859935214,0.0,0.0,0.0,0.0,0.0,0.0
1449617675914900461,0.0,0.0,0.0,0.0,0.0,0.0
1449617676017757304,0.0,0.0,0.0,0.0,0.0,0.0
1449617676115064736,0.0,0.0,0.0,0.0,0.0,0.0
1449617676215786715,0.0,0.0,0.0,0.0,0.0,0.0
1449617676266632222,0.0,0.0,0.0,0.0,0.0,0.0
1449617676408795982,0.0,0.0,0.0,0.0,0.0,0.0
1449617676458513871,0.0,0.0,0.0,0.0,0.0,0.0
1449617676600850307,0.0,0.0,0.0,0.0,0.0,0.0
1449617676751132506,0.0,0.0,0.0,0.0,0.0,0.0
1449617676901389334,0.0,0.0,0.0,0.0,0.0,0.0
1449617677000877750,0.0,0.0,0.0,0.0,0.0,0.0
1449617677104959799,0.0,0.0,0.0,0.0,0.0,0.0
1449617677201448193,0.0,0.0,0.0,0.0,0.0,0.0
1449617677251234896,0.0,0.0,0.0,0.0,0.0,0.0
1449617677318784703,0.0,0.0,0.0,0.0,0.0,0.0
1449617677419157323,0.0,0.0,0.0,0.0,0.0,0.0
1449617677468806404,0.0,0.0,0.0,0.0,0.0,0.0
1449617677540125738,0.0,0.0,0.0,0.0,0.0,0.0
1449617677641975820,0.0,0.0,0.0,0.0,0.0,0.0
1449617677740965483,0.0,0.0,0.0,0.0,0.0,0.0
1449617677840128159,0.0,0.0,0.0,0.0,0.0,0.0
1449617677940312820,0.0,0.0,0.0,0.0,0.0,0.0
1449617678042141518,0.0,0.0,0.0,0.0,0.0,0.0
1449617678140718035,0.0,0.0,0.0,0.0,0.0,0.0
1449617678285291575,0.0,0.0,0.0,0.0,0.0,-0.4
1449617678348671768,0.0,0.0,0.0,0.0,0.0,-0.4
1449617678386304884,0.0,0.0,0.0,0.0,0.0,-0.4
1449617678469051740,0.0,0.0,0.0,0.0,0.0,-0.4
1449617678566949349,0.0,0.0,0.0,0.0,0.0,-0.4
1449617678637274275,0.0,0.0,0.0,0.0,0.0,-0.4
1449617678693101253,0.0,0.0,0.0,0.0,0.0,-0.4
1449617678766274014,0.0,0.0,0.0,0.0,0.0,-0.4
1449617678769614709,0.0,0.0,0.0,0.0,0.0,0.0
1449617678820597178,0.0,0.0,0.0,0.0,0.0,0.0
1449617678913730791,0.0,0.0,0.0,0.0,0.0,0.0
1449617678966307574,0.0,0.0,0.0,0.0,0.0,0.0
1449617679081450898,0.0,0.0,0.0,0.0,0.0,-0.4
1449617679188252334,0.0,0.0,0.0,0.0,0.0,-0.4
1449617679226707820,0.0,0.0,0.0,0.0,0.0,0.0
1449617679278499606,0.0,0.0,0.0,0.0,0.0,0.0
1449617679364118229,0.0,0.0,0.0,0.0,0.0,-0.4
1449617679415990137,0.0,0.0,0.0,0.0,0.0,-0.4
1449617679533006978,0.0,0.0,0.0,0.0,0.0,-0.4
1449617679610900372,0.0,0.0,0.0,0.0,0.0,-0.4
1449617679715864948,0.0,0.0,0.0,0.0,0.0,-0.4
1449617679768405369,0.0,0.0,0.0,0.0,0.0,-0.4
1449617679810728278,0.0,0.0,0.0,0.0,0.0,-0.4
1449617679900297156,0.0,0.0,0.0,0.0,0.0,-0.4
1449617680003393633,0.0,0.0,0.0,0.0,0.0,-0.4
1449617680065731834,0.0,0.0,0.0,0.0,0.0,-0.4
1449617680119919874,0.0,0.0,0.0,0.0,0.0,-0.4
1449617680186408551,0.0,0.0,0.0,0.0,0.0,-0.4
1449617680278607498,0.0,0.0,0.0,0.0,0.0,-0.4
1449617680328442631,0.0,0.0,0.0,0.0,0.0,-0.4
1449617680416158173,0.0,0.0,0.0,0.0,0.0,-0.4
1449617680419878822,0.0,0.0,0.0,0.0,0.0,0.0
1449617680420008965,0.0,0.0,0.0,0.0,0.0,0.0
1449617680521420336,0.0,0.0,0.0,0.0,0.0,0.0
1449617680574044599,0.0,0.0,0.0,0.0,0.0,0.0
1449617680828511772,0.0,0.0,0.0,0.0,0.0,0.0
1449617680980598587,0.0,0.0,0.0,0.0,0.0,-0.4
1449617681024205922,0.0,0.0,0.0,0.0,0.0,-0.4
1449617681088955875,0.0,0.0,0.0,0.0,0.0,-0.4
1449617681151024032,0.0,0.0,0.0,0.0,0.0,-0.4
1449617681210834658,0.0,0.0,0.0,0.0,0.0,-0.4
1449617681283195454,0.0,0.0,0.0,0.0,0.0,-0.4
1449617681329475188,0.0,0.0,0.0,0.0,0.0,-0.4
1449617681456696226,0.0,0.0,0.0,0.0,0.0,-0.315789473684
1449617681539839268,0.0,0.0,0.0,0.0,0.0,-0.315789473684
1449617681592616735,0.0,0.0,0.0,0.0,0.0,-0.4
1449617681656048903,0.0,0.0,0.0,0.0,0.0,-0.315789473684
1449617681735993029,0.0,0.0,0.0,0.0,0.0,-0.315789473684
1449617681799846378,0.0,0.0,0.0,0.0,0.0,-0.4
1449617681876849516,0.0,0.0,0.0,0.0,0.0,-0.4
1449617681963398187,0.0,0.0,0.0,0.0,0.0,-0.31
1449617682031200623,0.0,0.0,0.0,0.0,0.0,-0.4
1449617682086957877,0.0,0.0,0.0,0.0,0.0,-0.4
1449617682159018299,0.0,0.0,0.0,0.0,0.0,-0.4
1449617682249780241,0.0,0.0,0.0,0.0,0.0,-0.4
1449617682347422114,0.0,0.0,0.0,0.0,0.0,-0.4
1449617682411586775,0.0,0.0,0.0,0.0,0.0,-0.4
1449617682489791238,0.0,0.0,0.0,0.0,0.0,-0.4
1449617682560744674,0.0,0.0,0.0,0.0,0.0,-0.4
1449617682606049109,0.0,0.0,0.0,0.0,0.0,-0.4
1449617682695371891,0.0,0.0,0.0,0.0,0.0,-0.4
1449617682699927608,0.0,0.0,0.0,0.0,0.0,0.0
1449617682713330488,0.0,0.0,0.0,0.0,0.0,0.0
1449617683797139766,0.0,0.0,0.0,0.0,0.0,0.0
1449617683846648630,0.0,0.0,0.0,0.0,0.0,0.0
1449617683910639648,0.0,0.0,0.0,0.0,0.0,0.0
1449617684010703869,0.0,0.0,0.0,0.0,0.0,0.0
1449617684060965157,0.0,0.0,0.0,0.0,0.0,0.0
1449617684114009462,0.0,0.0,0.0,0.0,0.0,0.0
1449617684164444920,0.0,0.0,0.0,0.0,0.0,0.0
1449617684216077970,0.0,0.0,0.0,0.0,0.0,0.0
1449617684266457799,0.0,0.0,0.0,0.0,0.0,0.0
1449617684321052750,0.0,0.0,0.0,0.0,0.0,0.0
1449617684418666445,0.0,0.0,0.0,0.0,0.0,0.0
1449617684519187988,0.0,0.0,0.0,0.0,0.0,0.0
1449617684568311746,0.0,0.0,0.0,0.0,0.0,0.0
1449617684659801598,0.0,0.0,0.0,0.0,0.0,0.0
1449617684710827821,0.0,0.0,0.0,0.0,0.0,0.0
1449617684766136846,0.0,0.0,0.0,0.0,0.0,0.0
1449617684916330702,0.0,0.0,0.0,0.0,0.0,0.0
1449617684966627236,0.0,0.0,0.0,0.0,0.0,0.0
1449617685050171085,0.0,0.0,0.0,0.0,0.0,0.0
1449617685200158255,0.0,0.0,0.0,0.0,0.0,0.0
1449617685250834316,0.0,0.0,0.0,0.0,0.0,0.0
1449617685411858480,0.0,0.0,0.0,0.0,0.0,0.0
1449617685460486225,0.0,0.0,0.0,0.0,0.0,0.0
1449617685558824559,0.0,0.0,0.0,0.0,0.0,0.0
1449617685709615654,0.0,0.0,0.0,0.0,0.0,0.0
1449617685807826423,0.0,0.0,0.0,0.0,0.0,0.0
1449617685861253729,0.0,0.0,0.0,0.0,0.0,0.0
1449617686027182723,0.0,0.0,0.0,0.0,0.0,0.0
1449617686126123741,0.0,0.0,0.0,0.0,0.0,0.0
1449617686227657025,0.0,0.0,0.0,0.0,0.0,0.0
1449617686276101564,0.0,0.0,0.0,0.0,0.0,0.0
1449617686358534455,0.0,0.0,0.0,0.0,0.0,0.0
1449617686408229321,0.0,0.0,0.0,0.0,0.0,0.0
1449617686561831164,0.0,0.0,0.0,0.0,0.0,0.0
1449617686660146149,0.0,0.0,0.0,0.0,0.0,0.0
1449617686749708972,0.0,0.0,0.0,0.0,0.0,0.0
1449617686870322896,0.0,0.0,0.0,0.0,0.0,0.0
1449617686946950052,0.0,0.0,0.0,0.0,0.0,0.0
1449617687050865734,0.0,0.0,0.0,0.0,0.0,0.0
1449617687163211020,0.0,0.0,0.0,0.0,0.0,0.0
1449617688988521009,0.0,0.0,0.0,0.0,0.0,0.31
1449617689189736593,0.0,0.0,0.0,0.0,0.0,0.0
1449617689303144212,0.0,0.0,0.0,0.0,0.0,0.0
1449617689431655312,0.0,0.0,0.0,0.0,0.0,0.0
1449617689533274030,0.0,0.0,0.0,0.0,0.0,0.0
1449617689661991453,0.0,0.0,0.0,0.0,0.0,0.0
1449617689805750953,0.253341266636,0.0,0.0,0.0,0.0,0.231578947368
1449617689888354287,0.250819745127,0.0,0.0,0.0,0.0,0.231578947368
1449617689969480165,0.249139689521,0.0,0.0,0.0,0.0,0.231578947368
1449617690047296159,0.246611662227,0.0,0.0,0.0,0.0,0.357894736842
1449617690115928032,0.244086324948,0.0,0.0,0.0,0.0,0.357894736842
1449617690186722004,0.23985436885,0.0,0.0,0.0,0.0,0.357894736842
1449617690249268559,0.237311091103,0.0,0.0,0.0,0.0,0.357894736842
1449617690326833562,0.234761160023,0.0,0.0,0.0,0.0,0.357894736842
1449617690376562991,0.230504661589,0.0,0.0,0.0,0.0,0.357894736842
1449617690457192608,0.227947040849,0.0,0.0,0.0,0.0,0.357894736842
1449617690529646319,0.223687358095,0.0,0.0,0.0,0.0,0.357894736842
1449617690608938805,0.219416697437,0.0,0.0,0.0,0.0,0.357894736842
1449617690666119603,0.215144744196,0.0,0.0,0.0,0.0,0.357894736842
1449617690740620023,0.210006247678,0.0,0.0,0.0,0.0,0.189473684211
1449617690789232649,0.204831229013,0.0,0.0,0.0,0.0,0.189473684211
1449617690835088834,0.202241898838,0.0,0.0,0.0,0.0,0.189473684211
1449617690957148786,0.198802050866,0.0,0.0,0.0,0.0,0.189473684211
1449617691010354251,0.191021326066,0.0,0.0,0.0,0.0,0.189473684211
1449617691081577915,0.188421957727,0.0,0.0,0.0,0.0,0.189473684211
1449617691159425064,0.182323187967,0.0,0.0,0.0,0.0,0.147368421053
1449617691223448823,0.17707005493,0.0,0.0,0.0,0.0,0.147368421053
1449617691397471236,0.12,0.0,0.0,0.0,0.0,0.0
1449617691400452958,0.0,0.0,0.0,0.0,0.0,0.0
1449617691448116765,0.0,0.0,0.0,0.0,0.0,0.0
1449617691498459242,0.0,0.0,0.0,0.0,0.0,0.0
1449617691544456727,0.0,0.0,0.0,0.0,0.0,0.0
1449617691636175290,0.0,0.0,0.0,0.0,0.0,0.0
1449617691686459991,0.0,0.0,0.0,0.0,0.0,0.0
1449617691754119496,0.0,0.0,0.0,0.0,0.0,0.0
1449617691852316547,0.0,0.0,0.0,0.0,0.0,0.0
1449617691965122224,0.0,0.0,0.0,0.0,0.0,0.0
1449617692127993253,0.12,0.0,0.0,0.0,0.0,-0.357894736842
1449617692184470647,0.12,0.0,0.0,0.0,0.0,-0.357894736842
1449617692252981181,0.12,0.0,0.0,0.0,0.0,-0.315789473684
1449617692300118738,0.12,0.0,0.0,0.0,0.0,-0.315789473684
1449617692356428896,0.12,0.0,0.0,0.0,0.0,-0.315789473684
1449617692402313542,0.12,0.0,0.0,0.0,0.0,-0.315789473684
1449617692494632947,0.12,0.0,0.0,0.0,0.0,-0.315789473684
1449617692568059582,0.12,0.0,0.0,0.0,0.0,-0.273684210526
1449617692647006442,0.12,0.0,0.0,0.0,0.0,-0.273684210526
1449617692725751254,0.12,0.0,0.0,0.0,0.0,-0.273684210526
1449617692771297671,0.12,0.0,0.0,0.0,0.0,-0.273684210526
1449617692835218184,0.12,0.0,0.0,0.0,0.0,-0.231578947368
1449617692909709691,0.12,0.0,0.0,0.0,0.0,-0.315789473684
1449617693015107515,0.12,0.0,0.0,0.0,0.0,-0.315789473684
1449617693144616876,0.12,0.0,0.0,0.0,0.0,-0.231578947368
1449617693258931928,0.12,0.0,0.0,0.0,0.0,-0.231578947368
1449617693320468677,0.12,0.0,0.0,0.0,0.0,-0.189473684211
1449617693382949039,0.12,0.0,0.0,0.0,0.0,-0.189473684211
1449617693438691345,0.12,0.0,0.0,0.0,0.0,-0.231578947368
1449617693570167049,0.12,0.0,0.0,0.0,0.0,-0.189473684211
1449617693616973306,0.12,0.0,0.0,0.0,0.0,-0.189473684211
1449617693730067876,0.12,0.0,0.0,0.0,0.0,-0.189473684211
1449617693807158392,0.12,0.0,0.0,0.0,0.0,-0.189473684211
1449617693910774443,0.0,0.0,0.0,0.0,0.0,0.0
1449617693910792282,0.0,0.0,0.0,0.0,0.0,0.0
1449617701802381507,0.0,0.0,0.0,0.0,0.0,0.0
1449617701902803424,0.0,0.0,0.0,0.0,0.0,0.0
1449617701953247181,0.0,0.0,0.0,0.0,0.0,0.0
1449617702042065540,0.0,0.0,0.0,0.0,0.0,0.0
1449617702143280931,0.0,0.0,0.0,0.0,0.0,0.0
1449617702243106854,0.0,0.0,0.0,0.0,0.0,0.0
1449617702297889434,0.0,0.0,0.0,0.0,0.0,0.0
1449617702517216972,0.12,0.0,0.0,0.0,0.0,0.0
1449617702626559737,0.12,0.0,0.0,0.0,0.0,0.0
1449617702675150448,0.12,0.0,0.0,0.0,0.0,0.0
1449617702777020787,0.12,0.0,0.0,0.0,0.0,0.0
1449617702864348130,0.12,0.0,0.0,0.0,0.0,0.0
1449617702977993279,0.12,0.0,0.0,0.0,0.0,0.0
1449617703027941936,0.12,0.0,0.0,0.0,0.0,0.0
1449617703082163767,0.12,0.0,0.0,0.0,0.0,0.0
1449617703190427498,0.12,0.0,0.0,0.0,0.0,0.0
1449617703272625777,0.12,0.0,0.0,0.0,0.0,0.0
1449617703337683282,0.12,0.0,0.0,0.0,0.0,0.0
1449617703423740769,0.12,0.0,0.0,0.0,0.0,0.0
1449617703538499766,0.12,0.0,0.0,0.0,0.0,0.0
1449617703597565700,0.12,0.0,0.0,0.0,0.0,0.0
1449617703662288731,0.12,0.0,0.0,0.0,0.0,0.0
1449617703732436335,0.12,0.0,0.0,0.0,0.0,0.0
1449617703821552332,0.12,0.0,0.0,0.0,0.0,0.0
1449617703938604182,0.12,0.0,0.0,0.0,0.0,0.0
1449617704026400152,0.12,0.0,0.0,0.0,0.0,0.0
1449617704089387652,0.12,0.0,0.0,0.0,0.0,0.0
1449617704191066987,0.334000848055,0.0,0.0,0.0,0.0,0.357894736842
1449617704278162122,0.330174418271,0.0,0.0,0.0,0.0,0.357894736842
1449617704373733972,0.223680771082,0.0,0.0,0.0,0.0,0.315789473684
1449617704487995226,0.221070283284,0.0,0.0,0.0,0.0,0.315789473684
1449617704570011321,0.216730298793,0.0,0.0,0.0,0.0,0.315789473684
1449617704704962934,0.214120855246,0.0,0.0,0.0,0.0,0.315789473684
1449617704789895118,0.209738937371,0.0,0.0,0.0,0.0,0.273684210526
1449617704893875649,0.204401871556,0.0,0.0,0.0,0.0,0.273684210526
1449617704970463528,0.199880471559,0.0,0.0,0.0,0.0,0.273684210526
1449617705054886020,0.197138996484,0.0,0.0,0.0,0.0,0.238467663715
1449617705130057630,0.192534745911,0.0,0.0,0.0,0.0,0.219092126897
1449617705196606593,0.188816650628,0.0,0.0,0.0,0.0,0.155174191939
1449617705257519904,0.186944789324,0.0,0.0,0.0,0.0,0.191777982335
1449617705325266879,-0.1,0.0,0.0,0.0,0.0,0.0
1449617705376140130,-0.1,0.0,0.0,0.0,0.0,0.0
1449617705414307753,-0.1,0.0,0.0,0.0,0.0,0.0
1449617705493851952,0.0,0.0,0.0,0.0,0.0,0.31
1449617705564967431,0.0,0.0,0.0,0.0,0.0,0.31
1449617705667730256,0.0,0.0,0.0,0.0,0.0,0.31
1449617705765053635,0.0,0.0,0.0,0.0,0.0,0.31
1449617705858006172,0.0,0.0,0.0,0.0,0.0,0.31
1449617705921545828,0.0,0.0,0.0,0.0,0.0,0.31
1449617706025818462,0.13691933623,0.0,0.0,0.0,0.0,-0.0511875082945
1449617706062773297,0.129833814554,0.0,0.0,0.0,0.0,-0.0854963975204
1449617706132588405,0.124287910636,0.0,0.0,0.0,0.0,-0.120934317928
1449617706244943458,0.130133694133,0.0,0.0,0.0,0.0,0.068562059026
1449617706341519803,0.126305012901,0.0,0.0,0.0,0.0,0.0540434027973
1449617706542266377,0.196601833039,0.0,0.0,0.0,0.0,-0.046264477529
1449617706588254319,0.192771752739,0.0,0.0,0.0,0.0,-0.040978096849
1449617706651320521,0.188948758995,0.0,0.0,0.0,0.0,-0.0559495962294
1449617706708161637,0.18703762643,0.0,0.0,0.0,0.0,-0.0559495962294
1449617706790754260,0.183221094344,0.0,0.0,0.0,0.0,-0.0631578947368
1449617706849210104,0.178460062445,0.0,0.0,0.0,0.0,-0.0631578947368
1449617706922360587,0.17655725666,0.0,0.0,0.0,0.0,-0.0631578947368
1449617707008483262,0.171806401995,0.0,0.0,0.0,0.0,-0.105263157895
1449617707062135683,0.167069313712,0.0,0.0,0.0,0.0,-0.105263157895
1449617707121172528,0.166124066119,0.0,0.0,0.0,0.0,-0.147368421053
1449617707180945089,0.160450741997,0.0,0.0,0.0,0.0,-0.105263157895
1449617707253882776,0.155742063797,0.0,0.0,0.0,0.0,-0.105263157895
1449617707356231638,0.15197922896,0.0,0.0,0.0,0.0,-0.105263157895
1449617707411126538,0.142608269632,0.0,0.0,0.0,0.0,-0.189473684211
1449617707497037146,0.138880032171,0.0,0.0,0.0,0.0,-0.147368421053
1449617707573377550,0.126939535112,0.0,0.0,0.0,0.0,-0.189473684211
1449617707618239933,0.124096912273,0.0,0.0,0.0,0.0,-0.189473684211
1449617707726139756,0.120894807224,0.0,0.0,0.0,0.0,-0.189473684211
1449617707784570331,0.12,0.0,0.0,0.0,0.0,-0.231578947368
1449617707859810085,0.12,0.0,0.0,0.0,0.0,-0.231578947368
1449617707922457511,0.12,0.0,0.0,0.0,0.0,-0.231578947368
1449617707983660987,0.12,0.0,0.0,0.0,0.0,-0.315789473684
1449617708060286939,0.12,0.0,0.0,0.0,0.0,-0.357894736842
1449617708134795483,0.12,0.0,0.0,0.0,0.0,-0.273684210526
1449617708192298118,0.12,0.0,0.0,0.0,0.0,-0.4
1449617708255064270,0.12,0.0,0.0,0.0,0.0,-0.357894736842
1449617708318769638,0.12,0.0,0.0,0.0,0.0,-0.4
1449617708372191179,0.0,0.0,0.0,0.0,0.0,-0.31
1449617708417379929,0.0,0.0,0.0,0.0,0.0,-0.315789473684
1449617708495251471,0.0,0.0,0.0,0.0,0.0,-0.31
1449617708546714619,0.0,0.0,0.0,0.0,0.0,-0.315789473684
1449617708561521844,0.0,0.0,0.0,0.0,0.0,0.0
1449617708596919012,0.0,0.0,0.0,0.0,0.0,0.0
1449617710151835572,0.352,0.0,0.0,0.0,0.0,-0.315789473684
1449617710199198897,0.352,0.0,0.0,0.0,0.0,-0.315789473684
1449617710237528722,0.352,0.0,0.0,0.0,0.0,-0.315789473684
1449617710278363784,0.352,0.0,0.0,0.0,0.0,-0.315789473684
1449617710341724541,0.352,0.0,0.0,0.0,0.0,-0.315789473684
1449617710389793468,0.352,0.0,0.0,0.0,0.0,-0.315789473684
1449617710419760942,0.352,0.0,0.0,0.0,0.0,-0.315789473684
1449617710464975522,0.352,0.0,0.0,0.0,0.0,-0.315789473684
1449617710524346835,0.352,0.0,0.0,0.0,0.0,-0.315789473684
1449617710567713773,0.352,0.0,0.0,0.0,0.0,-0.315789473684
1449617710666103671,0.352,0.0,0.0,0.0,0.0,-0.315789473684
1449617710744795518,0.352,0.0,0.0,0.0,0.0,-0.315789473684
1449617710889767204,0.352,0.0,0.0,0.0,0.0,-0.315789473684
1449617711032746575,0.352,0.0,0.0,0.0,0.0,-0.315789473684
1449617711085579898,0.352,0.0,0.0,0.0,0.0,-0.315789473684
1449617711149691350,0.352,0.0,0.0,0.0,0.0,-0.315789473684
1449617711262394820,0.216817223182,0.0,0.0,0.0,0.0,-0.147368421053
1449617711336217554,0.211221427182,0.0,0.0,0.0,0.0,-0.147368421053
1449617711407369031,0.204664098015,0.0,0.0,0.0,0.0,-0.147368421053
1449617711518118699,0.198101887268,0.0,0.0,0.0,0.0,-0.147368421053
1449617711594903186,0.187756541681,0.0,0.0,0.0,0.0,-0.105263157895
1449617711682666845,0.181161121211,0.0,0.0,0.0,0.0,-0.105263157895
1449617711763223031,0.172667063567,0.0,0.0,0.0,0.0,-0.105263157895
1449617711869584277,0.166057635695,0.0,0.0,0.0,0.0,-0.105263157895
1449617711945397383,0.158494745543,0.0,0.0,0.0,0.0,-0.105263157895
1449617712034317419,0.15187328693,0.0,0.0,0.0,0.0,-0.105263157895
1449617712093701550,0.134893447875,0.0,0.0,0.0,0.0,-0.105263157895
1449617712136282854,0.132624893473,0.0,0.0,0.0,0.0,-0.105263157895
1449617712217164378,0.126630128139,0.0,0.0,0.0,0.0,-0.105263157895
1449617712276110496,0.12,0.0,0.0,0.0,0.0,-0.105263157895
1449617712324308473,0.12,0.0,0.0,0.0,0.0,-0.105263157895
1449617712387566919,0.12,0.0,0.0,0.0,0.0,-0.105263157895
1449617712534919067,0.12,0.0,0.0,0.0,0.0,-0.147368421053
1449617712601566992,0.12,0.0,0.0,0.0,0.0,-0.189473684211
1449617712695492965,0.12,0.0,0.0,0.0,0.0,-0.189473684211
1449617712763947386,0.12,0.0,0.0,0.0,0.0,-0.189473684211
1449617712852524993,0.12,0.0,0.0,0.0,0.0,-0.231578947368
1449617712915585095,0.12,0.0,0.0,0.0,0.0,-0.231578947368
1449617713002030596,0.0,0.0,0.0,0.0,0.0,-0.357894736842
1449617713063700210,0.0,0.0,0.0,0.0,0.0,-0.315789473684
1449617713130470977,0.0,0.0,0.0,0.0,0.0,-0.315789473684
1449617713132859995,0.0,0.0,0.0,0.0,0.0,0.0
1449617713150516156,0.0,0.0,0.0,0.0,0.0,0.0
1449617714431157008,0.283999232422,0.0,0.0,0.0,0.0,0.0631578947368
1449617714477545670,0.277304427072,0.0,0.0,0.0,0.0,0.0631578947368
1449617714574439222,0.274432949572,0.0,0.0,0.0,0.0,0.0631578947368
1449617714649629563,0.267728641624,0.0,0.0,0.0,0.0,0.0631578947368
1449617714781601385,0.262938272646,0.0,0.0,0.0,0.0,0.0631578947368
1449617714856002691,0.254312527888,0.0,0.0,0.0,0.0,0.0631578947368
1449617714933312823,0.245680037648,0.0,0.0,0.0,0.0,0.0210526315789
1449617714994920566,0.243761726637,0.0,0.0,0.0,0.0,0.0210526315789
1449617715068201361,0.238004102463,0.0,0.0,0.0,0.0,0.0
1449617715134865560,0.232245791844,0.0,0.0,0.0,0.0,0.0
1449617715180006072,0.225526643044,0.0,0.0,0.0,0.0,0.0
1449617715255831047,0.22360687385,0.0,0.0,0.0,0.0,0.0
1449617715296680960,0.219767341238,0.0,0.0,0.0,0.0,0.0
1449617715417969839,0.216887591186,0.0,0.0,0.0,0.0,-0.0210526315789
1449617715507384658,0.206328845757,0.0,0.0,0.0,0.0,-0.0210526315789
1449617715634274234,0.195776047504,0.0,0.0,0.0,0.0,-0.0631578947368
1449617715722955487,0.190022184037,0.0,0.0,0.0,0.0,-0.0631578947368
1449617715904433362,0.178525607277,0.0,0.0,0.0,0.0,-0.0631578947368
1449617716037217229,0.161316260143,0.0,0.0,0.0,0.0,-0.105263157895
1449617716176739611,0.151783833779,0.0,0.0,0.0,0.0,-0.0631578947368
1449617716256729164,0.140388076773,0.0,0.0,0.0,0.0,-0.147368421053
1449617716351379830,0.130947193024,0.0,0.0,0.0,0.0,-0.189473684211
1449617716425261335,0.123492185498,0.0,0.0,0.0,0.0,-0.105263157895
1449617716515401208,0.12,0.0,0.0,0.0,0.0,-0.231578947368
1449617716637833249,0.12,0.0,0.0,0.0,0.0,-0.189473684211
1449617716708635634,0.12,0.0,0.0,0.0,0.0,-0.273684210526
1449617716844643967,0.12,0.0,0.0,0.0,0.0,-0.231578947368
1449617716945902081,0.12,0.0,0.0,0.0,0.0,-0.4
1449617717015609764,0.12,0.0,0.0,0.0,0.0,-0.4
1449617717074626329,0.12,0.0,0.0,0.0,0.0,-0.4
1449617717127580381,0.12,0.0,0.0,0.0,0.0,-0.4
1449617717233354093,0.0,0.0,0.0,0.0,0.0,-0.31
1449617717314601717,0.0,0.0,0.0,0.0,0.0,-0.315789473684
1449617717314610994,0.0,0.0,0.0,0.0,0.0,0.0
1449617717336216947,0.0,0.0,0.0,0.0,0.0,0.0
1449617717641813055,0.0,0.0,0.0,0.0,0.0,0.0
1449617717812010367,0.352,0.0,0.0,0.0,0.0,-0.273684210526
1449617717928414074,0.352,0.0,0.0,0.0,0.0,-0.231578947368
1449617717985260197,0.352,0.0,0.0,0.0,0.0,-0.231578947368
1449617718057779034,0.352,0.0,0.0,0.0,0.0,-0.231578947368
1449617718146781905,0.352,0.0,0.0,0.0,0.0,-0.231578947368
1449617718271081964,0.25581507495,0.0,0.0,0.0,0.0,-0.357894736842
1449617718339641991,0.254971127525,0.0,0.0,0.0,0.0,-0.315789473684
1449617718415182064,0.252439250141,0.0,0.0,0.0,0.0,-0.315789473684
1449617718471129249,0.25075388948,0.0,0.0,0.0,0.0,-0.315789473684
1449617718564776524,0.247383562824,0.0,0.0,0.0,0.0,-0.315789473684
1449617718652839037,0.243992979788,0.0,0.0,0.0,0.0,-0.315789473684
1449617718718189006,0.240611014061,0.0,0.0,0.0,0.0,-0.315789473684
1449617718805556330,0.237218763543,0.0,0.0,0.0,0.0,-0.315789473684
1449617718882921318,0.232092028327,0.0,0.0,0.0,0.0,-0.315789473684
1449617718931662897,0.227807643169,0.0,0.0,0.0,0.0,-0.315789473684
1449617718980943684,0.225233082685,0.0,0.0,0.0,0.0,-0.315789473684
1449617719028079997,0.220065327071,0.0,0.0,0.0,0.0,-0.315789473684
1449617719136823962,0.21747226095,0.0,0.0,0.0,0.0,-0.315789473684
1449617719193720959,0.212268173014,0.0,0.0,0.0,0.0,-0.315789473684
1449617719248987667,0.207903593651,0.0,0.0,0.0,0.0,-0.315789473684
1449617719309664173,0.205266233612,0.0,0.0,0.0,0.0,-0.315789473684
1449617719385732973,0.199974506934,0.0,0.0,0.0,0.0,-0.315789473684
1449617719494004722,0.19466045474,0.0,0.0,0.0,0.0,-0.273684210526
1449617719612646733,0.19109299711,0.0,0.0,0.0,0.0,-0.273684210526
1449617719691038452,0.184834205536,0.0,0.0,0.0,0.0,-0.273684210526
1449617719793638677,0.180338525678,0.0,0.0,0.0,0.0,-0.231578947368
1449617719847070260,0.174021521095,0.0,0.0,0.0,0.0,-0.231578947368
1449617719970451817,0.171302584321,0.0,0.0,0.0,0.0,-0.231578947368
1449617720068213103,0.164932490294,0.0,0.0,0.0,0.0,-0.189473684211
1449617723293522706,0.220371841771,0.0,0.0,0.0,0.0,0.0631578947368
1449617723360930570,0.216547785119,0.0,0.0,0.0,0.0,0.0631578947368
1449617723423874014,0.352,0.0,0.0,0.0,0.0,0.0631578947368
1449617723493294165,0.352,0.0,0.0,0.0,0.0,0.0631578947368
1449617723554519246,0.352,0.0,0.0,0.0,0.0,0.0631578947368
1449617725185230725,0.12,0.0,0.0,0.0,0.0,0.189473684211
1449617725295615866,0.12,0.0,0.0,0.0,0.0,0.147368421053
1449617725388813617,0.12,0.0,0.0,0.0,0.0,0.105263157895
1449617725458449273,0.12,0.0,0.0,0.0,0.0,0.147368421053
1449617725531215382,0.12,0.0,0.0,0.0,0.0,0.147368421053
1449617725581553329,0.12,0.0,0.0,0.0,0.0,0.147368421053
1449617725645615089,0.12,0.0,0.0,0.0,0.0,0.147368421053
1449617725739053315,0.12,0.0,0.0,0.0,0.0,0.147368421053
1449617725828632964,0.12,0.0,0.0,0.0,0.0,0.147368421053
1449617725909638723,0.12,0.0,0.0,0.0,0.0,0.147368421053
1449617725988650737,0.12,0.0,0.0,0.0,0.0,0.147368421053
1449617726107434630,0.12,0.0,0.0,0.0,0.0,0.147368421053
1449617726215190808,0.12,0.0,0.0,0.0,0.0,0.147368421053
1449617726306028098,0.12,0.0,0.0,0.0,0.0,0.147368421053
1449617726376954936,0.12,0.0,0.0,0.0,0.0,0.147368421053
1449617726423969414,0.12,0.0,0.0,0.0,0.0,0.147368421053
1449617726481912236,0.12,0.0,0.0,0.0,0.0,0.147368421053
1449617726580871497,0.12,0.0,0.0,0.0,0.0,0.147368421053
1449617726635683351,0.12,0.0,0.0,0.0,0.0,0.147368421053
1449617726689859054,0.12,0.0,0.0,0.0,0.0,0.147368421053
1449617726755295713,0.12,0.0,0.0,0.0,0.0,0.147368421053
1449617726809103353,0.12,0.0,0.0,0.0,0.0,0.147368421053
1449617726875639695,0.12,0.0,0.0,0.0,0.0,0.147368421053
1449617726922030417,0.12,0.0,0.0,0.0,0.0,0.105263157895
1449617726977787726,0.12,0.0,0.0,0.0,0.0,0.147368421053
1449617727053420523,0.12,0.0,0.0,0.0,0.0,0.147368421053
1449617727181849957,0.12,0.0,0.0,0.0,0.0,0.147368421053
1449617727282327762,0.12,0.0,0.0,0.0,0.0,0.105263157895
1449617727351178268,0.12,0.0,0.0,0.0,0.0,0.105263157895
1449617727412018847,0.12,0.0,0.0,0.0,0.0,0.105263157895
1449617727503092457,0.12,0.0,0.0,0.0,0.0,0.147368421053
1449617727578797769,0.12,0.0,0.0,0.0,0.0,0.147368421053
1449617727640851520,0.12,0.0,0.0,0.0,0.0,0.147368421053
1449617727740017900,0.12,0.0,0.0,0.0,0.0,0.147368421053
1449617727788412984,0.12,0.0,0.0,0.0,0.0,0.147368421053
1449617727868352752,0.12,0.0,0.0,0.0,0.0,0.147368421053
1449617727947658516,0.12,0.0,0.0,0.0,0.0,0.147368421053
1449617728010264697,0.12,0.0,0.0,0.0,0.0,0.105263157895
1449617728075551124,0.12,0.0,0.0,0.0,0.0,0.105263157895
1449617728146178362,0.12,0.0,0.0,0.0,0.0,0.105263157895
1449617728248267971,0.12,0.0,0.0,0.0,0.0,0.147368421053
1449617728344147001,0.12,0.0,0.0,0.0,0.0,0.147368421053
1449617728471793442,0.12,0.0,0.0,0.0,0.0,0.147368421053
1449617728557555924,0.12,0.0,0.0,0.0,0.0,0.147368421053
1449617728657859946,0.12,0.0,0.0,0.0,0.0,0.147368421053
1449617730223614891,0.282743773761,0.0,0.0,0.0,0.0,0.105263157895
1449617730286499999,0.282743773761,0.0,0.0,0.0,0.0,0.105263157895
1449617730303499632,0.0,0.0,0.0,0.0,0.0,0.0
1449617730403184731,0.0,0.0,0.0,0.0,0.0,0.0
1449617730503757569,0.0,0.0,0.0,0.0,0.0,0.0
1449617730603593879,0.0,0.0,0.0,0.0,0.0,0.0
1449617730703360819,0.0,0.0,0.0,0.0,0.0,0.0
1449617730803660645,0.0,0.0,0.0,0.0,0.0,0.0
1449617730854298557,0.0,0.0,0.0,0.0,0.0,0.0
1449617730980409994,0.0,0.0,0.0,0.0,0.0,0.0
1449617731080298701,0.0,0.0,0.0,0.0,0.0,0.0
1449617731130529125,0.0,0.0,0.0,0.0,0.0,0.0
1449617731439667236,0.12,0.0,0.0,0.0,0.0,-0.273684210526
1449617731503082335,0.12,0.0,0.0,0.0,0.0,-0.273684210526
1449617731615536648,0.12,0.0,0.0,0.0,0.0,-0.273684210526
1449617731727034210,0.12,0.0,0.0,0.0,0.0,-0.273684210526
1449617731840111183,0.12,0.0,0.0,0.0,0.0,-0.273684210526
1449617731940224860,0.12,0.0,0.0,0.0,0.0,-0.231578947368
1449617732035942106,0.12,0.0,0.0,0.0,0.0,-0.231578947368
1449617732091469511,0.126610156404,0.0,0.0,0.0,0.0,-0.273684210526
1449617732166994241,0.12,0.0,0.0,0.0,0.0,-0.231578947368
1449617732226559460,0.12,0.0,0.0,0.0,0.0,-0.231578947368
1449617732335811768,0.12,0.0,0.0,0.0,0.0,-0.231578947368
1449617732401773484,0.12,0.0,0.0,0.0,0.0,-0.189473684211
1449617732499264518,0.12,0.0,0.0,0.0,0.0,-0.189473684211
1449617732537239415,0.12,0.0,0.0,0.0,0.0,-0.189473684211
1449617732609694404,0.12,0.0,0.0,0.0,0.0,-0.189473684211
1449617732667262486,0.12,0.0,0.0,0.0,0.0,-0.147368421053
1449617732770391037,0.12,0.0,0.0,0.0,0.0,-0.147368421053
1449617732844564600,0.12,0.0,0.0,0.0,0.0,-0.147368421053
1449617732917894715,0.12,0.0,0.0,0.0,0.0,-0.147368421053
1449617732968013393,0.0,0.0,0.0,0.0,0.0,0.0
1449617733018935790,0.0,0.0,0.0,0.0,0.0,0.0
1449617733228641195,-0.0,0.0,0.0,0.0,0.0,-0.0
1449617733296239128,-0.0,0.0,0.0,0.0,0.0,-0.0
1449617733356536360,-0.0,0.0,0.0,0.0,0.0,-0.0
1449617733405564238,-0.0,0.0,0.0,0.0,0.0,-0.0
1449617733922925171,0.0,0.0,0.0,0.0,0.0,0.0
1449617733989044135,-0.0,0.0,0.0,0.0,0.0,0.0
1449617734063338956,-0.0,0.0,0.0,0.0,0.0,0.0
