%time,field.header.seq,field.header.stamp,field.header.frame_id,field.goal_id.stamp,field.goal_id.id,field.goal.target_pose.header.seq,field.goal.target_pose.header.stamp,field.goal.target_pose.header.frame_id,field.goal.target_pose.pose.position.x,field.goal.target_pose.pose.position.y,field.goal.target_pose.pose.position.z,field.goal.target_pose.pose.orientation.x,field.goal.target_pose.pose.orientation.y,field.goal.target_pose.pose.orientation.z,field.goal.target_pose.pose.orientation.w
1449617601215586432,0,1449617601215289591,,0,,0,1449617601114851357,/odom,nan,nan,0.0,nan,nan,nan,nan
1449617601312633884,1,1449617601312457421,,0,,1,1449617601227783959,/odom,0.0,0.0,0.0,0.0,0.0,0.0,1.0
1449617601383675398,2,1449617601381086871,,0,,2,1449617601321744385,/odom,0.0,0.0,0.0,0.0,0.0,0.0,1.0
1449617601511628153,3,1449617601510384903,,0,,3,1449617601405407112,/odom,0.0,0.0,0.0,0.0,0.0,0.0,1.0
1449617601535395580,4,1449617601535236053,,0,,4,1449617601507602260,/odom,0.0,0.0,0.0,0.0,0.0,0.0,1.0
1449617601720744065,5,1449617601720500528,,0,,5,1449617601603807680,/odom,0.0,0.0,0.0,0.0,0.0,0.0,1.0
1449617601826592613,6,1449617601826054979,,0,,6,1449617601706936900,/odom,0.0,0.0,0.0,0.0,0.0,0.0,1.0
1449617601909315630,7,1449617601909020301,,0,,7,1449617601804195895,/odom,0.0,0.0,0.0,0.0,0.0,0.0,1.0
1449617601966202439,8,1449617601966045240,,0,,8,1449617601921578170,/odom,0.0,0.0,0.0,0.0,0.0,0.0,1.0
1449617602057824240,9,1449617602057507546,,0,,9,1449617602004068537,/odom,0.0,0.0,0.0,0.0,0.0,0.0,1.0
1449617602161727503,10,1449617602161265380,,0,,10,1449617602135630699,/odom,0.0,0.0,0.0,0.0,0.0,0.0,1.0
1449617602256242016,11,1449617602256081702,,0,,11,1449617602209640127,/odom,0.0,0.0,0.0,0.0,0.0,0.0,1.0
1449617602326435990,12,1449617602326013955,,0,,12,1449617602303095794,/odom,0.0,0.0,0.0,0.0,0.0,0.0,1.0
1449617602486764808,13,1449617602486291108,,0,,13,1449617602402418294,/odom,0.0,0.0,0.0,0.0,0.0,0.0,1.0
1449617602574772939,14,1449617602574604934,,0,,14,1449617602503890432,/odom,0.0,0.0,0.0,0.0,0.0,0.0,1.0
1449617602681328294,15,1449617602681125028,,0,,15,1449617602605184148,/odom,0.0,0.0,0.0,0.0,0.0,0.0,1.0
1449617602764130826,16,1449617602763128262,,0,,16,1449617602702897967,/odom,0.0,0.0,0.0,0.0,0.0,0.0,1.0
1449617602850595684,17,1449617602850364067,,0,,17,1449617602813668692,/odom,0.0,0.0,0.0,0.0,0.0,0.0,1.0
1449617602955816121,18,1449617602955197964,,0,,18,1449617602904502175,/odom,0.0,0.0,0.0,0.0,0.0,0.0,1.0
1449617603043919471,19,1449617603043676829,,0,,19,1449617603002636973,/odom,0.0,0.0,0.0,0.0,0.0,0.0,1.0
1449617603121646257,20,1449617603121485833,,0,,20,1449617603109935531,/odom,0.0,0.0,0.0,0.0,0.0,0.0,1.0
1449617603288573748,21,1449617603288098676,,0,,21,1449617603202227052,/odom,0.0,0.0,0.0,0.0,0.0,0.0,1.0
1449617603326521068,22,1449617603326042303,,0,,22,1449617603306681151,/odom,0.0,0.0,0.0,0.0,0.0,0.0,1.0
1449617603490688752,23,1449617603490256197,,0,,23,1449617603403413620,/odom,0.0,0.0,0.0,0.0,0.0,0.0,1.0
1449617603525251614,24,1449617603525039829,,0,,24,1449617603503435584,/odom,0.0,0.0,0.0,0.0,0.0,0.0,1.0
1449617603645753182,25,1449617603644856104,,0,,25,1449617603604354295,/odom,0.0,0.0,0.0,0.0,0.0,0.0,1.0
1449617603806562558,26,1449617603806391802,,0,,26,1449617603702059319,/odom,0.0,0.0,0.0,0.0,0.0,0.0,1.0
1449617603846350898,27,1449617603846119822,,0,,27,1449617603802391099,/odom,0.0,0.0,0.0,0.0,0.0,0.0,1.0
1449617603981100561,28,1449617603980932124,,0,,28,1449617603907846881,/odom,0.0,0.0,0.0,0.0,0.0,0.0,1.0
1449617604092550910,29,1449617604092339172,,0,,29,1449617604001530729,/odom,0.0,0.0,0.0,0.0,0.0,0.0,1.0
1449617604123647290,30,1449617604123388550,,0,,30,1449617604102061236,/odom,0.0,0.0,0.0,0.0,0.0,0.0,1.0
1449617604279879239,31,1449617604279611925,,0,,31,1449617604203586957,/odom,0.0,0.0,0.0,0.0,0.0,0.0,1.0
1449617604405530121,32,1449617604404678675,,0,,32,1449617604303548557,/odom,0.0,0.0,0.0,0.0,0.0,0.0,1.0
1449617604524905648,33,1449617604522748906,,0,,33,1449617604402258711,/odom,0.0,0.0,0.0,0.0,0.0,0.0,1.0
1449617604618166358,34,1449617604617974431,,0,,34,1449617604508171058,/odom,0.0,0.0,0.0,0.0,0.0,0.0,1.0
1449617604707484405,35,1449617604706930974,,0,,35,1449617604602203284,/odom,0.0,0.0,0.0,0.0,0.0,0.0,1.0
1449617604779794081,36,1449617604779538682,,0,,36,1449617604702466310,/odom,0.0,0.0,0.0,0.0,0.0,0.0,1.0
1449617604867990793,37,1449617604867818333,,0,,37,1449617604802111183,/odom,0.0,0.0,0.0,0.0,0.0,0.0,1.0
1449617604975887098,38,1449617604975536287,,0,,38,1449617604927824819,/odom,0.0,0.0,0.0,0.0,0.0,0.0,1.0
1449617605054597962,39,1449617605053564193,,0,,39,1449617605020872763,/odom,0.0,0.0,0.0,0.0,0.0,0.0,1.0
1449617605169745780,40,1449617605169651609,,0,,40,1449617605116143988,/odom,0.0,0.0,0.0,0.0,0.0,0.0,1.0
1449617605246274054,41,1449617605246139591,,0,,41,1449617605205663172,/odom,0.0,0.0,0.0,0.0,0.0,0.0,1.0
1449617605351596624,42,1449617605349554883,,0,,42,1449617605303687103,/odom,0.0,0.0,0.0,0.0,0.0,0.0,1.0
1449617605447981994,43,1449617605447271195,,0,,43,1449617605403586633,/odom,0.0,0.0,0.0,0.0,0.0,0.0,1.0
1449617605525299110,44,1449617605525076397,,0,,44,1449617605502432354,/odom,0.0,0.0,0.0,0.0,0.0,0.0,1.0
1449617605710755345,45,1449617605710291326,,0,,45,1449617605601542467,/odom,0.0,0.0,0.0,0.0,0.0,0.0,1.0
1449617605729191680,46,1449617605729071589,,0,,46,1449617605706727190,/odom,0.0,0.0,0.0,0.0,0.0,0.0,1.0
1449617605870153176,47,1449617605869830132,,0,,47,1449617605802626745,/odom,0.0,0.0,0.0,0.0,0.0,0.0,1.0
1449617605961470341,48,1449617605960889003,,0,,48,1449617605928818738,/odom,0.0,0.0,0.0,0.0,0.0,0.0,1.0
1449617606042277633,49,1449617606041763375,,0,,49,1449617606003912241,/odom,0.0,0.0,0.0,0.0,0.0,0.0,1.0
1449617606184062970,50,1449617606183856370,,0,,50,1449617606121404011,/odom,0.0,0.0,0.0,0.0,0.0,0.0,1.0
1449617606244381123,51,1449617606244078117,,0,,51,1449617606202160782,/odom,0.0,0.0,0.0,0.0,0.0,0.0,1.0
1449617606407458581,52,1449617606407280161,,0,,52,1449617606304775555,/odom,0.0,0.0,0.0,0.0,0.0,0.0,1.0
1449617606510899798,53,1449617606510179008,,0,,53,1449617606408872109,/odom,0.0,0.0,0.0,0.0,0.0,0.0,1.0
1449617606557047658,54,1449617606556894185,,0,,54,1449617606504081691,/odom,0.0,0.0,0.0,0.0,0.0,0.0,1.0
1449617606698871830,55,1449617606696745011,,0,,55,1449617606601381394,/odom,0.0,0.0,0.0,0.0,0.0,0.0,1.0
1449617606770115079,56,1449617606769849915,,0,,56,1449617606724533023,/odom,0.0,0.0,0.0,0.0,0.0,0.0,1.0
1449617606939899495,57,1449617606939160819,,0,,57,1449617606832040527,/odom,0.0,0.0,0.0,0.0,0.0,0.0,1.0
1449617607050340092,58,1449617607049797661,,0,,59,1449617607002409939,/odom,0.0,0.0,0.0,0.0,0.0,0.0,1.0
1449617607215483438,59,1449617607215309607,,0,,60,1449617607113667341,/odom,0.0,0.0,0.0,0.0,0.0,0.0,1.0
1449617607315596731,60,1449617607315415091,,0,,61,1449617607219381307,/odom,0.0,0.0,0.0,0.0,0.0,0.0,1.0
1449617607403202621,61,1449617607401812775,,0,,62,1449617607305149979,/odom,0.0,0.0,0.0,0.0,0.0,0.0,1.0
1449617607473727084,62,1449617607473134075,,0,,63,1449617607403616733,/odom,0.0,0.0,0.0,0.0,0.0,0.0,1.0
1449617607568111143,63,1449617607567839590,,0,,64,1449617607525814825,/odom,0.0,0.0,0.0,0.0,0.0,0.0,1.0
1449617607718077858,64,1449617607714142827,,0,,65,1449617607603726701,/odom,0.0,0.0,0.0,0.0,0.0,0.0,1.0
1449617607829215292,65,1449617607828882679,,0,,66,1449617607707579862,/odom,0.0,0.0,0.0,0.0,0.0,0.0,1.0
1449617607842797189,66,1449617607842470912,,0,,67,1449617607802499124,/odom,0.0,0.0,0.0,0.0,0.0,0.0,1.0
1449617607971188190,67,1449617607970692011,,0,,68,1449617607904531164,/odom,0.0,0.0,0.0,0.0,0.0,0.0,1.0
1449617608090693397,68,1449617608090304417,,0,,69,1449617608004144247,/odom,0.0,0.0,0.0,0.0,0.0,0.0,1.0
1449617608175375863,69,1449617608175152914,,0,,70,1449617608103595762,/odom,0.0,0.0,0.0,0.0,0.0,0.0,1.0
1449617608321988092,70,1449617608321532914,,0,,71,1449617608202949447,/odom,0.0,0.0,0.0,0.0,0.0,0.0,1.0
1449617608330223179,71,1449617608329616884,,0,,72,1449617608304222439,/odom,0.0,0.0,0.0,0.0,0.0,0.0,1.0
1449617608494005947,72,1449617608493804286,,0,,73,1449617608401425265,/odom,0.0,0.0,0.0,0.0,0.0,0.0,1.0
1449617608523641258,73,1449617608523377111,,0,,74,1449617608502991297,/odom,0.0,0.0,0.0,0.0,0.0,0.0,1.0
1449617608690718208,74,1449617608690544398,,0,,75,1449617608602368181,/odom,0.0,0.0,0.0,0.0,0.0,0.0,1.0
1449617608763839667,75,1449617608763464262,,0,,76,1449617608720230551,/odom,0.0,0.0,0.0,0.0,0.0,0.0,1.0
1449617608874589243,76,1449617608874303218,,0,,77,1449617608802970228,/odom,0.0,0.0,0.0,0.0,0.0,0.0,1.0
1449617608992832744,77,1449617608992560225,,0,,78,1449617608903297889,/odom,0.0,0.0,0.0,0.0,0.0,0.0,1.0
1449617609089114336,78,1449617609088814881,,0,,79,1449617609002951750,/odom,0.0,0.0,0.0,0.0,0.0,0.0,1.0
1449617609120933775,79,1449617609120783679,,0,,80,1449617609103154231,/odom,0.0,0.0,0.0,0.0,0.0,0.0,1.0
1449617609289196129,80,1449617609288961442,,0,,81,1449617609201839095,/odom,0.0,0.0,0.0,0.0,0.0,0.0,1.0
1449617609385680623,81,1449617609385455490,,0,,82,1449617609304394788,/odom,0.0,0.0,0.0,0.0,0.0,0.0,1.0
1449617609493135695,82,1449617609492500953,,0,,83,1449617609402237523,/odom,0.0,0.0,0.0,0.0,0.0,0.0,1.0
1449617609671580350,83,1449617609671120497,,0,,85,1449617609603460692,/odom,0.0,0.0,0.0,0.0,0.0,0.0,1.0
1449617609845545498,84,1449617609845316990,,0,,86,1449617609710610665,/odom,0.0,0.0,0.0,0.0,0.0,0.0,1.0
1449617609887698277,85,1449617609887301637,,0,,87,1449617609804039588,/odom,0.0,0.0,0.0,0.0,0.0,0.0,1.0
1449617609924580953,86,1449617609923306137,,0,,88,1449617609903018214,/odom,0.0,0.0,0.0,0.0,0.0,0.0,1.0
1449617610041862572,87,1449617610040911886,,0,,89,1449617610004831281,/odom,0.0,0.0,0.0,0.0,0.0,0.0,1.0
1449617610196698017,88,1449617610196258049,,0,,90,1449617610111111838,/odom,0.0,0.0,0.0,0.0,0.0,0.0,1.0
1449617610300090708,89,1449617610299917899,,0,,91,1449617610201979475,/odom,0.0,0.0,0.0,0.0,0.0,0.0,1.0
1449617610328541491,90,1449617610327620987,,0,,92,1449617610302456748,/odom,0.0,0.0,0.0,0.0,0.0,0.0,1.0
1449617610440741197,91,1449617610440623359,,0,,93,1449617610404343113,/odom,0.0,0.0,0.0,0.0,0.0,0.0,1.0
1449617610591618921,92,1449617610591287630,,0,,94,1449617610503316736,/odom,0.0,0.0,0.0,0.0,0.0,0.0,1.0
1449617610688145754,93,1449617610687923512,,0,,95,1449617610612403732,/odom,0.0,0.0,0.0,0.0,0.0,0.0,1.0
1449617610812732634,94,1449617610812341318,,0,,96,1449617610703746150,/odom,0.0,0.0,0.0,0.0,0.0,0.0,1.0
1449617610888770616,95,1449617610888448629,,0,,97,1449617610805640862,/odom,0.0,0.0,0.0,0.0,0.0,0.0,1.0
1449617610968743480,96,1449617610968547432,,0,,98,1449617610905833062,/odom,0.0,0.0,0.0,0.0,0.0,0.0,1.0
1449617611066613618,97,1449617611066333432,,0,,99,1449617611019035538,/odom,0.0,0.0,0.0,0.0,0.0,0.0,1.0
1449617611162197429,98,1449617611161907138,,0,,100,1449617611113733388,/odom,0.0,0.0,0.0,0.0,0.0,0.0,1.0
1449617611280222134,99,1449617611279839471,,0,,101,1449617611219899083,/odom,0.0,0.0,0.0,0.0,0.0,0.0,1.0
1449617611399331690,100,1449617611395686959,,0,,102,1449617611305688489,/odom,0.0,0.0,0.0,0.0,0.0,0.0,1.0
1449617611471347769,101,1449617611471128612,,0,,103,1449617611404290420,/odom,0.0,0.0,0.0,0.0,0.0,0.0,1.0
1449617611613198371,102,1449617611612681702,,0,,104,1449617611513463936,/odom,0.0,0.0,0.0,0.0,0.0,0.0,1.0
1449617611686190076,103,1449617611685927071,,0,,105,1449617611602203391,/odom,0.0,0.0,0.0,0.0,0.0,0.0,1.0
1449617611739724677,104,1449617611739459827,,0,,106,1449617611703072910,/odom,0.0,0.0,0.0,0.0,0.0,0.0,1.0
1449617611887770275,105,1449617611887519810,,0,,107,1449617611801362955,/odom,0.0,0.0,0.0,0.0,0.0,0.0,1.0
1449617611921490678,106,1449617611921285939,,0,,108,1449617611902775658,/odom,0.0,0.0,0.0,0.0,0.0,0.0,1.0
1449617612093879710,107,1449617612092965673,,0,,109,1449617612003003286,/odom,0.0,0.0,0.0,0.0,0.0,0.0,1.0
1449617612209294957,108,1449617612208569089,,0,,110,1449617612106224178,/odom,0.0,0.0,0.0,0.0,0.0,0.0,1.0
1449617612281801427,109,1449617612281588238,,0,,111,1449617612203038356,/odom,0.0,0.0,0.0,0.0,0.0,0.0,1.0
1449617612361044826,110,1449617612360701191,,0,,112,1449617612305077539,/odom,0.0,0.0,0.0,0.0,0.0,0.0,1.0
1449617612497405396,111,1449617612497085807,,0,,113,1449617612403763488,/odom,0.0,0.0,0.0,0.0,0.0,0.0,1.0
1449617612573861214,112,1449617612573656416,,0,,114,1449617612505220195,/odom,0.0,0.0,0.0,0.0,0.0,0.0,1.0
1449617612647152538,113,1449617612646782067,,0,,115,1449617612618086902,/odom,0.0,0.0,0.0,0.0,0.0,0.0,1.0
1449617612764626363,114,1449617612764217317,,0,,116,1449617612718897047,/odom,0.0,0.0,0.0,0.0,0.0,0.0,1.0
1449617612864422656,115,1449617612864195260,,0,,117,1449617612812631187,/odom,0.0,0.0,0.0,0.0,0.0,0.0,1.0
1449617612920626083,116,1449617612920269313,,0,,118,1449617612904089334,/odom,0.0,0.0,0.0,0.0,0.0,0.0,1.0
1449617613048445595,117,1449617613048267544,,0,,119,1449617613007529289,/odom,0.0,0.0,0.0,0.0,0.0,0.0,1.0
1449617613144065323,118,1449617613141260805,,0,,120,1449617613103769026,/odom,0.0,0.0,0.0,0.0,0.0,0.0,1.0
1449617613308829805,119,1449617613308043910,,0,,121,1449617613206920492,/odom,0.0,0.0,0.0,0.0,0.0,0.0,1.0
1449617613332082478,120,1449617613331897482,,0,,122,1449617613303520861,/odom,0.0,0.0,0.0,0.0,0.0,0.0,1.0
1449617613516630241,121,1449617613516503465,,0,,123,1449617613403703971,/odom,0.0,0.0,0.0,0.0,0.0,0.0,1.0
1449617613576911630,122,1449617613576717270,,0,,124,1449617613505125450,/odom,0.0,0.0,0.0,0.0,0.0,0.0,1.0
1449617613706660776,123,1449617613705140665,,0,,125,1449617613602926208,/odom,0.0,0.0,0.0,0.0,0.0,0.0,1.0
1449617613751948587,124,1449617613751739687,,0,,126,1449617613704357485,/odom,0.0,0.0,0.0,0.0,0.0,0.0,1.0
1449617613888998607,125,1449617613886635373,,0,,127,1449617613804118501,/odom,0.0,0.0,0.0,0.0,0.0,0.0,1.0
1449617613962379910,126,1449617613962050101,,0,,128,1449617613902554973,/odom,0.0,0.0,0.0,0.0,0.0,0.0,1.0
1449617614072069782,127,1449617614070479854,,0,,129,1449617614014497382,/odom,0.0,0.0,0.0,0.0,0.0,0.0,1.0
1449617614129394851,128,1449617614128944466,,0,,130,1449617614105201836,/odom,0.0,0.0,0.0,0.0,0.0,0.0,1.0
1449617614241833535,129,1449617614241207056,,0,,131,1449617614211200047,/odom,0.0,0.0,0.0,0.0,0.0,0.0,1.0
1449617614322179036,130,1449617614322033786,,0,,132,1449617614307661807,/odom,0.0,0.0,0.0,0.0,0.0,0.0,1.0
1449617614444582059,131,1449617614444122846,,0,,133,1449617614402481121,/odom,0.0,0.0,0.0,0.0,0.0,0.0,1.0
1449617614640507522,132,1449617614640054241,,0,,134,1449617614504271569,/odom,0.0,0.0,0.0,0.0,0.0,0.0,1.0
1449617614707256538,133,1449617614706695607,,0,,135,1449617614603859375,/odom,0.0,0.0,0.0,0.0,0.0,0.0,1.0
1449617614722881931,134,1449617614722647988,,0,,136,1449617614704275969,/odom,0.0,0.0,0.0,0.0,0.0,0.0,1.0
1449617614869966199,135,1449617614869712656,,0,,137,1449617614802908129,/odom,0.0,0.0,0.0,0.0,0.0,0.0,1.0
1449617614958925155,136,1449617614958197764,,0,,138,1449617614904377837,/odom,0.0,0.0,0.0,0.0,0.0,0.0,1.0
1449617615050643412,137,1449617615049861351,,0,,139,1449617615004878391,/odom,0.0,0.0,0.0,0.0,0.0,0.0,1.0
1449617615207941843,138,1449617615207787007,,0,,140,1449617615104280787,/odom,0.0,0.0,0.0,0.0,0.0,0.0,1.0
1449617615322508007,139,1449617615322334525,,0,,141,1449617615203450917,/odom,0.0,0.0,0.0,0.0,0.0,0.0,1.0
1449617615325827431,140,1449617615325348633,,0,,142,1449617615304213256,/odom,0.0,0.0,0.0,0.0,0.0,0.0,1.0
1449617615489500916,141,1449617615489252524,,0,,143,1449617615403415539,/odom,0.0,0.0,0.0,0.0,0.0,0.0,1.0
1449617615571961522,142,1449617615571778844,,0,,144,1449617615503491043,/odom,0.0,0.0,0.0,0.0,0.0,0.0,1.0
1449617615653139133,143,1449617615652917435,,0,,145,1449617615615180635,/odom,0.0,0.0,0.0,0.0,0.0,0.0,1.0
1449617615730116417,144,1449617615729777899,,0,,146,1449617615704193649,/odom,0.0,0.0,0.0,0.0,0.0,0.0,1.0
1449617615864095888,145,1449617615863853374,,0,,147,1449617615814298843,/odom,0.0,0.0,0.0,0.0,0.0,0.0,1.0
1449617615947984596,146,1449617615945895467,,0,,148,1449617615905108077,/odom,0.0,0.0,0.0,0.0,0.0,0.0,1.0
1449617616121460911,147,1449617616120848421,,0,,149,1449617616004317192,/odom,0.0,0.0,0.0,0.0,0.0,0.0,1.0
1449617616132674554,148,1449617616130400711,,0,,150,1449617616104435413,/odom,0.0,0.0,0.0,0.0,0.0,0.0,1.0
1449617616248790227,149,1449617616248360068,,0,,151,1449617616206600255,/odom,0.0,0.0,0.0,0.0,0.0,0.0,1.0
1449617616323093710,150,1449617616320803278,,0,,152,1449617616308107964,/odom,0.0,0.0,0.0,0.0,0.0,0.0,1.0
1449617616492246719,151,1449617616491838049,,0,,153,1449617616406576796,/odom,0.0,0.0,0.0,0.0,0.0,0.0,1.0
1449617616593575751,152,1449617616593242065,,0,,154,1449617616504478514,/odom,0.0,0.0,0.0,0.0,0.0,0.0,1.0
1449617616721587064,153,1449617616714657180,,0,,155,1449617616604224355,/odom,0.0,0.0,0.0,0.0,0.0,0.0,1.0
1449617616774844931,154,1449617616774579263,,0,,156,1449617616703983029,/odom,0.0,0.0,0.0,0.0,0.0,0.0,1.0
1449617616889773429,155,1449617616887599941,,0,,157,1449617616803637416,/odom,0.0,0.0,0.0,0.0,0.0,0.0,1.0
1449617616974810444,156,1449617616974626447,,0,,158,1449617616904078459,/odom,0.0,0.0,0.0,0.0,0.0,0.0,1.0
1449617617061204643,157,1449617617060796912,,0,,159,1449617617005761575,/odom,0.0,0.0,0.0,0.0,0.0,0.0,1.0
1449617617214612215,158,1449617617212910474,,0,,160,1449617617106194721,/odom,0.0,0.0,0.0,0.0,0.0,0.0,1.0
1449617617280701037,159,1449617617278403053,,0,,161,1449617617202349774,/odom,0.0,0.0,0.0,0.0,0.0,0.0,1.0
1449617617368179910,160,1449617617368032819,,0,,162,1449617617313758523,/odom,0.0,0.0,0.0,0.0,0.0,0.0,1.0
1449617617442989646,161,1449617617442863169,,0,,163,1449617617406417275,/odom,0.0,0.0,0.0,0.0,0.0,0.0,1.0
1449617617535885448,162,1449617617535603657,,0,,164,1449617617509779928,/odom,0.0,0.0,0.0,0.0,0.0,0.0,1.0
1449617617696607592,163,1449617617695556396,,0,,165,1449617617603811105,/odom,0.0,0.0,0.0,0.0,0.0,0.0,1.0
1449617617821109460,164,1449617617820909176,,0,,166,1449617617704509457,/odom,0.0,0.0,0.0,0.0,0.0,0.0,1.0
1449617617923375991,165,1449617617922510079,,0,,167,1449617617805739051,/odom,0.0,0.0,0.0,0.0,0.0,0.0,1.0
1449617618019884497,166,1449617618019663164,,0,,168,1449617617903697658,/odom,0.0,0.0,0.0,0.0,0.0,0.0,1.0
1449617618100024185,167,1449617618099535603,,0,,169,1449617618010440590,/odom,0.0,0.0,0.0,0.0,0.0,0.0,1.0
1449617618125238049,168,1449617618124458737,,0,,170,1449617618103772525,/odom,0.0,0.0,0.0,0.0,0.0,0.0,1.0
1449617618315720413,169,1449617618315214925,,0,,171,1449617618202587661,/odom,0.0,0.0,0.0,0.0,0.0,0.0,1.0
1449617618374210494,170,1449617618372649297,,0,,172,1449617618329079309,/odom,0.0,0.0,0.0,0.0,0.0,0.0,1.0
1449617618500122836,171,1449617618498335393,,0,,173,1449617618402811089,/odom,0.0,0.0,0.0,0.0,0.0,0.0,1.0
1449617618587426337,172,1449617618587012191,,0,,174,1449617618504735964,/odom,0.0,0.0,0.0,0.0,0.0,0.0,1.0
1449617618676909430,173,1449617618676451003,,0,,175,1449617618604619190,/odom,0.0,0.0,0.0,0.0,0.0,0.0,1.0
1449617618740500057,174,1449617618739755863,,0,,176,1449617618710329876,/odom,0.0,0.0,0.0,0.0,0.0,0.0,1.0
1449617618905790489,175,1449617618904691322,,0,,177,1449617618809250328,/odom,0.0,0.0,0.0,0.0,0.0,0.0,1.0
1449617619015837926,176,1449617619015613895,,0,,178,1449617618904466178,/odom,0.00362622985169,0.0,0.0,0.0,0.0,0.0,1.0
1449617619123076951,177,1449617619122514241,,0,,179,1449617619002203980,/odom,0.0106040958947,0.0,0.0,0.0,0.0,0.0,1.0
1449617619135023448,178,1449617619134662744,,0,,180,1449617619104602922,/odom,0.0176206769688,0.0,0.0,0.0,0.0,0.0,1.0
1449617619343484851,179,1449617619343106936,,0,,181,1449617619209225927,/odom,0.0336940550588,0.0,0.0,0.0,0.0,0.0,1.0
1449617619409262933,180,1449617619408812723,,0,,182,1449617619303968007,/odom,0.0591563186403,0.0,0.0,0.0,0.0,0.0,1.0
1449617619470575276,181,1449617619470098722,,0,,183,1449617619403491538,/odom,0.0913401479374,0.0,0.0,0.0,0.0,0.0,1.0
1449617619575951009,182,1449617619575064915,,0,,184,1449617619505350040,/odom,0.210067623351,0.0,0.0,0.0,0.0,0.0,1.0
1449617619765600959,183,1449617619765271906,,0,,185,1449617619604680272,/odom,0.282553977587,0.0,0.0,0.0,0.0,0.0,1.0
1449617619854608757,184,1449617619854347860,,0,,186,1449617619807916948,/odom,0.092449967361,0.0,0.0,0.0,0.0,0.0,1.0
1449617619977366274,185,1449617619975725070,,0,,187,1449617619905572529,/odom,0.176255959492,0.0,0.0,0.0,0.0,0.0,1.0
1449617620063368659,186,1449617620063156142,,0,,188,1449617620007651366,/odom,0.295084898413,0.0,0.0,0.0,0.0,0.0,1.0
1449617626259573249,187,1449617626258876253,,0,,189,1449617626125629574,/odom,3.07346904005,-0.826959450595,0.0,0.0,0.0,-0.152638184287,0.988282138206
1449617631205963582,188,1449617631204046561,,0,,190,1449617631092386433,/odom,3.51367040599,-0.282577299778,0.0,0.0,0.0,0.146341101604,0.989234189654
1449617631464180867,189,1449617631463357144,,0,,191,1449617631390273704,/odom,3.31849388098,0.785036816703,0.0,0.0,0.0,0.7740783832,0.633089769829
1449617631516363446,190,1449617631513061379,,0,,192,1449617631422605095,/odom,3.20729151013,-0.0926904168879,0.0,0.0,0.0,0.409910659728,0.912125677219
1449617634003861808,191,1449617634003465862,,0,,193,1449617633951354487,/odom,2.8928516378,-0.477041007367,0.0,0.0,0.0,0.0135838177846,0.999907735691
1449617634080486660,192,1449617634080315480,,0,,194,1449617634045688694,/odom,2.83773990459,-0.476787215128,0.0,0.0,0.0,-0.00374832318457,0.999992975012
1449617634157142303,193,1449617634156554965,,0,,195,1449617634146455262,/odom,2.80857768005,-0.476315249232,0.0,0.0,0.0,-0.0163685262096,0.9998660267
1449617634279180198,194,1449617634278837008,,0,,196,1449617634247213658,/odom,2.79267643726,-0.475719274135,0.0,0.0,0.0,-0.0232529614114,0.999729613338
1449617634394742943,195,1449617634394606718,,0,,197,1449617634345782420,/odom,2.78705689951,-0.475451414218,0.0,0.0,0.0,-0.0256867461879,0.999670041099
1449617634497639770,196,1449617634497138501,,0,,198,1449617634448526482,/odom,2.78054184045,-0.47510340403,0.0,0.0,0.0,-0.0285090116148,0.999593535522
1449617634561078292,197,1449617634560982426,,0,,199,1449617634547165853,/odom,2.77831792796,-0.474975394402,0.0,0.0,0.0,-0.0294725606607,0.999565589728
1449617634679117889,198,1449617634678841103,,0,,200,1449617634650084135,/odom,2.77602369528,-0.474838418489,0.0,0.0,0.0,-0.0304666734129,0.999535783157
1449617634754706118,199,1449617634754447572,,0,,201,1449617634746649635,/odom,2.7751645549,-0.474785838053,0.0,0.0,0.0,-0.0308389729506,0.99952436576
1449617634873738638,200,1449617634873645542,,0,,202,1449617634845065837,/odom,2.77427312524,-0.474730540599,0.0,0.0,0.0,-0.0312252799205,0.999512372056
1449617635000574429,201,1449617634999764651,,0,,203,1449617634949380288,/odom,2.77394337381,-0.474709894147,0.0,0.0,0.0,-0.0313681838607,0.999507897438
1449617635085719739,202,1449617635085545213,,0,,204,1449617635045200083,/odom,2.77371310239,-0.474695415117,0.0,0.0,0.0,-0.0314679775588,0.999504760563
1449617635154001606,203,1449617635153834818,,0,,205,1449617635146267328,/odom,2.77347403633,-0.474680329814,0.0,0.0,0.0,-0.0315715837442,0.999501493295
1449617635281089305,204,1449617635280920453,,0,,206,1449617635245130862,/odom,2.7733420006,-0.474671974959,0.0,0.0,0.0,-0.0316288057357,0.999499684166
1449617635354514012,205,1449617635354261983,,0,,207,1449617635345869873,/odom,2.77329339819,-0.474668895365,0.0,0.0,0.0,-0.0316498692598,0.999499017396
1449617635478160042,206,1449617635477544799,,0,,208,1449617635445469597,/odom,2.77324266206,-0.474665678177,0.0,0.0,0.0,-0.0316718575607,0.999498320878
1449617635553918950,207,1449617635553788759,,0,,209,1449617635546511790,/odom,2.7732238748,-0.474664486253,0.0,0.0,0.0,-0.0316799996976,0.999498062839
1449617635679390713,208,1449617635679222798,,0,,210,1449617635644940510,/odom,2.77320438747,-0.474663249561,0.0,0.0,0.0,-0.0316884452413,0.999497795114
1449617635754616765,209,1449617635754318282,,0,,211,1449617635745566056,/odom,2.77319716174,-0.474662790914,0.0,0.0,0.0,-0.0316915767783,0.999497695826
1449617635883382956,210,1449617635883207006,,0,,212,1449617635845254302,/odom,2.77318966338,-0.47466231491,0.0,0.0,0.0,-0.0316948264715,0.999497592781
1449617635954270499,211,1449617635954143495,,0,,213,1449617635946677374,/odom,2.77318686407,-0.474662137193,0.0,0.0,0.0,-0.0316960396538,0.999497554309
1449617636079695330,212,1449617636079551675,,0,,214,1449617636045058300,/odom,2.77318396907,-0.474661953394,0.0,0.0,0.0,-0.0316972943081,0.999497514521
1449617636155632536,213,1449617636155181311,,0,,215,1449617636145680415,/odom,2.77318290058,-0.474661885554,0.0,0.0,0.0,-0.0316977573806,0.999497499835
1449617636276430227,214,1449617636276294489,,0,,216,1449617636245240846,/odom,2.77318177886,-0.474661814335,0.0,0.0,0.0,-0.0316982435165,0.999497484418
1449617636394862717,215,1449617636394719313,,0,,217,1449617636349612610,/odom,2.77605328433,-0.474874640641,0.0,0.0,0.0,-0.0369793234893,0.99931603091
1449617636477766968,216,1449617636477637358,,0,,218,1449617636444926023,/odom,2.77605299696,-0.474874619344,0.0,0.0,0.0,-0.0369794480967,0.999316026299
1449617636571317715,217,1449617636571163906,,0,,219,1449617636549800557,/odom,2.77317869211,-0.474692110336,0.0,0.0,0.0,-0.0254234344376,0.999676772253
1449617636727557631,218,1449617636727292550,,0,,220,1449617636694052548,/odom,2.77317880655,-0.474691845183,0.0,0.0,0.0,0.465394599459,0.885103308544
1449617637143727615,219,1449617637143456687,,0,,221,1449617637054899018,/odom,3.34785261796,-0.332351753687,0.0,0.0,0.0,0.259687968559,0.965692579958
1449617640023353897,220,1449617640013833963,,0,,222,1449617639947078690,/odom,3.84874804356,-0.365855741737,0.0,0.0,0.0,0.213889496447,0.976857862388
1449617655940184607,221,1449617655939999133,,0,,223,1449617655857292830,/odom,5.33836602151,2.65255709178,0.0,0.0,0.0,0.885242799546,0.465129214146
1449617659937221680,222,1449617659936809236,,0,,224,1449617659872092237,/odom,4.92962864992,3.62154693961,0.0,0.0,0.0,0.901431656146,0.43292143548
1449617660533616648,223,1449617660529989346,,0,,225,1449617660393303177,/odom,4.10893631559,4.74153775393,0.0,0.0,0.0,0.902878445585,0.429895932171
1449617663494367795,224,1449617663491759090,,0,,226,1449617663389687457,/odom,4.44036803693,5.08999744201,0.0,0.0,0.0,0.687067587568,0.726593510921
1449617664623812594,225,1449617664623403912,,0,,227,1449617664508172124,/odom,5.27270344847,5.00399253084,0.0,0.0,0.0,0.318638534017,0.947876302394
1449617664772284694,226,1449617664771114459,,0,,228,1449617664733324692,/odom,5.60125267569,5.09325871985,0.0,0.0,0.0,0.162812090618,0.986657095018
1449617665650524164,227,1449617665650127551,,0,,229,1449617665583685515,/odom,5.30095676413,4.79314579644,0.0,0.0,0.0,0.308659436426,0.951172619615
1449617665966351628,228,1449617665961046576,,0,,230,1449617665908947024,/odom,4.85520026631,4.08561133493,0.0,0.0,0.0,0.629959622098,0.776627886781
1449617666010818254,229,1449617666009798242,,0,,231,1449617665983152333,/odom,4.82940180149,3.86497500192,0.0,0.0,0.0,0.704725098462,0.709480468792
1449617666292698744,230,1449617666292401568,,0,,232,1449617666219907742,/odom,4.82945159977,3.86785436459,0.0,0.0,0.0,0.70096636558,0.713194331389
1449617666461954032,231,1449617666461617734,,0,,233,1449617666428032956,/odom,4.82966184639,3.87649107851,0.0,0.0,0.0,0.697188061122,0.716888280996
1449617666637124332,232,1449617666636865009,,0,,234,1449617666572760430,/odom,4.83051593716,3.90348380119,0.0,0.0,0.0,0.695352400784,0.71866893541
1449617666743493891,233,1449617666743390709,,0,,235,1449617666703204279,/odom,4.84293320204,4.27095049174,0.0,0.0,0.0,0.693227892188,0.720718453692
1449617666871478082,234,1449617666870219503,,0,,236,1449617666841732646,/odom,4.86429906807,4.78825265869,0.0,0.0,0.0,0.690164783371,0.723652245069
1449617667124986975,235,1449617667124538737,,0,,237,1449617667010908483,/odom,4.88624749838,5.10598641077,0.0,0.0,0.0,0.684521904188,0.728992292611
1449617667673134315,236,1449617667672899482,,0,,238,1449617667594589124,/odom,4.8631739308,4.48162899452,0.0,0.0,0.0,0.68513492044,0.728416186526
1449617669376088182,237,1449617669374707842,,0,,239,1449617669272445521,/odom,3.74929279824,5.12162507094,0.0,0.0,0.0,-0.993622369813,0.112758973958
1449617669464739468,238,1449617669463466040,,0,,240,1449617669401100296,/odom,4.53825058089,5.00604109888,0.0,0.0,0.0,0.940443864895,0.339949021149
1449617670378447770,239,1449617670378275191,,0,,241,1449617670264916378,/odom,4.7801224357,4.74035047938,0.0,0.0,0.0,0.870907361075,0.491447218352
1449617670388051817,240,1449617670387920387,,0,,242,1449617670312812765,/odom,4.89479981662,4.40002812439,0.0,0.0,0.0,0.734608216507,0.678491538813
1449617670428320419,241,1449617670427674859,,0,,243,1449617670407763191,/odom,4.90673940171,4.5306238171,0.0,0.0,0.0,0.701543628618,0.712626506065
1449617670590780285,242,1449617670590558951,,0,,244,1449617670513582072,/odom,4.90735699551,4.57346499166,0.0,0.0,0.0,0.700215715428,0.713931335542
1449617670717860084,243,1449617670711187850,,0,,245,1449617670609628678,/odom,4.9094851268,4.7605246249,0.0,0.0,0.0,0.703472500567,0.710722478149
1449617673945997359,244,1449617673945502960,,0,,246,1449617673909783165,/odom,4.82572720883,5.21111570768,0.0,0.0,0.0,0.749917823947,0.661530994986
1449617674023272789,245,1449617674023119998,,0,,247,1449617674010220087,/odom,4.82605837659,5.20219812118,0.0,0.0,0.0,0.752889678348,0.658146740657
1449617674173409727,246,1449617674171924611,,0,,248,1449617674107694932,/odom,4.82850065517,5.18508126805,0.0,0.0,0.0,0.752379523604,0.658729878221
1449617674294252545,247,1449617674293789462,,0,,249,1449617674216048963,/odom,4.8279199988,5.189668934,0.0,0.0,0.0,0.752192652209,0.658943255495
1449617674339923095,248,1449617674339582360,,0,,250,1449617674309651146,/odom,4.82673284872,5.19808414556,0.0,0.0,0.0,0.752062959462,0.659091272136
1449617674459250114,249,1449617674459049939,,0,,251,1449617674411139377,/odom,4.82579572578,5.2031901313,0.0,0.0,0.0,0.755399803649,0.655264173175
1449617674545774381,250,1449617674545553910,,0,,252,1449617674510649281,/odom,4.82474268726,5.21125667833,0.0,0.0,0.0,0.755350097134,0.65532147131
1449617674703760961,251,1449617674703555496,,0,,253,1449617674611208359,/odom,4.82410197874,5.21631113649,0.0,0.0,0.0,0.75182444973,0.659363326846
1449617674741794806,252,1449617674741498810,,0,,254,1449617674708856333,/odom,4.82305368945,5.22357804081,0.0,0.0,0.0,0.755278971705,0.655403444377
1449617674869363400,253,1449617674869106928,,0,,255,1449617674810488138,/odom,4.82243459942,5.22793359894,0.0,0.0,0.0,0.755258989052,0.655426471433
1449617674945557289,254,1449617674945284988,,0,,256,1449617674921893174,/odom,4.82250495507,5.22743898815,0.0,0.0,0.0,0.755251649694,0.655434928604
1449617675096214087,255,1449617675095590125,,0,,257,1449617675012362881,/odom,4.82257836578,5.22692280738,0.0,0.0,0.0,0.755243990192,0.655443754474
1449617675142058055,256,1449617675141490722,,0,,258,1449617675108211957,/odom,4.82260558951,5.22673136212,0.0,0.0,0.0,0.755241149356,0.655447027852
1449617675262555873,257,1449617675262295560,,0,,259,1449617675219763948,/odom,4.8226337619,5.22653323204,0.0,0.0,0.0,0.755238209313,0.655450415511
1449617675342531929,258,1449617675342110991,,0,,260,1449617675311508609,/odom,4.8226442089,5.22645975709,0.0,0.0,0.0,0.755237119019,0.655451671793
1449617675507543278,259,1449617675506646315,,0,,261,1449617675411932361,/odom,4.82265513689,5.2263828972,0.0,0.0,0.0,0.755235978494,0.655452985948
1449617675558649621,260,1449617675558183276,,0,,262,1449617675509394661,/odom,4.8226591577,5.2263546171,0.0,0.0,0.0,0.755235558845,0.655453469482
1449617675653030618,261,1449617675652253887,,0,,263,1449617675608931232,/odom,4.8226633525,5.22632511298,0.0,0.0,0.0,0.755235121032,0.655453973944
1449617675742071153,262,1449617675741782223,,0,,264,1449617675711364006,/odom,4.82266566071,5.22630887803,0.0,0.0,0.0,0.755234880121,0.65545425153
1449617675864291854,263,1449617675863943375,,0,,265,1449617675816277567,/odom,4.82266650296,5.22630295396,0.0,0.0,0.0,0.755234792214,0.65545435282
1449617675942903903,264,1449617675942381068,,0,,266,1449617675909524623,/odom,4.82266710246,5.22629873736,0.0,0.0,0.0,0.755234729643,0.655454424915
1449617676059914415,265,1449617676059630658,,0,,267,1449617676009428101,/odom,4.82266771582,5.22629442318,0.0,0.0,0.0,0.755234665625,0.655454498679
1449617676147736226,266,1449617676147392276,,0,,268,1449617676111027220,/odom,4.82266794983,5.22629277725,0.0,0.0,0.0,0.755234641201,0.655454526821
1449617676305643250,267,1449617676305075265,,0,,269,1449617676219321758,/odom,4.82266818989,5.22629108876,0.0,0.0,0.0,0.755234616145,0.655454555691
1449617676345474367,268,1449617676345266239,,0,,270,1449617676309005463,/odom,4.82266827822,5.22629046752,0.0,0.0,0.0,0.755234606927,0.655454566313
1449617676511461564,269,1449617676511070536,,0,,271,1449617676410463622,/odom,4.8226683696,5.22628982478,0.0,0.0,0.0,0.755234597389,0.655454577302
1449617676621219037,270,1449617676621014846,,0,,272,1449617676509211581,/odom,4.82266840392,5.22628958334,0.0,0.0,0.0,0.755234593806,0.655454581431
1449617676664161155,271,1449617676663753336,,0,,273,1449617676610419026,/odom,4.82266842772,5.22628941593,0.0,0.0,0.0,0.755234591322,0.655454584293
1449617676767161618,272,1449617676766823279,,0,,274,1449617676714960089,/odom,4.82266845262,5.22628924084,0.0,0.0,0.0,0.755234588724,0.655454587287
1449617676821943489,273,1449617676821671633,,0,,275,1449617676808846968,/odom,4.82266846626,5.22628914489,0.0,0.0,0.0,0.7552345873,0.655454588927
1449617676942459100,274,1449617676942220031,,0,,276,1449617676911585557,/odom,4.82266847384,5.2262890916,0.0,0.0,0.0,0.755234586509,0.655454589838
1449617677028868322,275,1449617677028412193,,0,,277,1449617677010675646,/odom,4.82266847662,5.22628907201,0.0,0.0,0.0,0.755234586219,0.655454590173
1449617677148708185,276,1449617677148507152,,0,,278,1449617677109041915,/odom,4.82266847952,5.22628905158,0.0,0.0,0.0,0.755234585916,0.655454590522
1449617677268204104,277,1449617677267989656,,0,,279,1449617677210824220,/odom,4.82266848059,5.22628904408,0.0,0.0,0.0,0.755234585804,0.655454590651
1449617677347800856,278,1449617677347591108,,0,,280,1449617677308249292,/odom,4.82266848134,5.22628903883,0.0,0.0,0.0,0.755234585726,0.655454590741
1449617677489553688,279,1449617677489390713,,0,,281,1449617677414308414,/odom,4.82266848211,5.2262890334,0.0,0.0,0.0,0.755234585646,0.655454590833
1449617677547150446,280,1449617677546982007,,0,,282,1449617677511732087,/odom,4.8226684824,5.22628903135,0.0,0.0,0.0,0.755234585615,0.655454590868
1449617677668169080,281,1449617677668005727,,0,,283,1449617677611746839,/odom,4.8226684827,5.22628902927,0.0,0.0,0.0,0.755234585584,0.655454590904
1449617677740977758,282,1449617677740586713,,0,,284,1449617677710005379,/odom,4.82266848281,5.22628902847,0.0,0.0,0.0,0.755234585573,0.655454590918
1449617677869335780,283,1449617677869006596,,0,,285,1449617677835635115,/odom,4.82266848293,5.22628902765,0.0,0.0,0.0,0.75523458556,0.655454590932
1449617677947662426,284,1449617677947572048,,0,,286,1449617677914712067,/odom,4.82318282722,5.22267131896,0.0,0.0,0.0,0.755234585556,0.655454590937
1449617678088514517,285,1449617678088244944,,0,,287,1449617678011866901,/odom,4.82443135107,5.21388966119,0.0,0.0,0.0,0.755234585552,0.655454590942
1449617678148621177,286,1449617678148257645,,0,,288,1449617678108930363,/odom,4.85847842624,4.97441505127,0.0,0.0,0.0,0.75523458555,0.655454590944
1449617678336621279,287,1449617678332713409,,0,,289,1449617678217891756,/odom,4.89040468861,4.74985745879,0.0,0.0,0.0,0.755234585548,0.655454590946
1449617678520606836,288,1449617678518287719,,0,,290,1449617678410932835,/odom,4.87094403282,4.88673655731,0.0,0.0,0.0,0.755234585546,0.655454590948
1449617678754580253,289,1449617678752145296,,0,,291,1449617678711786175,/odom,4.84111949942,5.09651136082,0.0,0.0,0.0,0.755234585546,0.655454590949
1449617678862810592,290,1449617678861652544,,0,,292,1449617678811232388,/odom,4.84286737267,5.08421746292,0.0,0.0,0.0,0.755234585546,0.655454590949
1449617678976016859,291,1449617678973770367,,0,,293,1449617678909356844,/odom,4.84237991931,5.07628741091,0.0,0.0,0.0,0.751760620255,0.659436099887
1449617679061801339,292,1449617679061669772,,0,,294,1449617679010543324,/odom,4.84375773645,5.06580239123,0.0,0.0,0.0,0.751760620255,0.659436099887
1449617679144198667,293,1449617679144072340,,0,,295,1449617679118747613,/odom,4.84435128745,5.07604864249,0.0,0.0,0.0,0.756617229266,0.653858064397
1449617679290082896,294,1449617679289819817,,0,,296,1449617679211226132,/odom,4.88436155423,4.80625926293,0.0,0.0,0.0,0.758039073054,0.652209141092
1449617680310172146,295,1449617680309848803,,0,,297,1449617680209099424,/odom,4.84533844489,5.06758675044,0.0,0.0,0.0,0.756410768083,0.654096896437
1449617680353923463,296,1449617680353779090,,0,,298,1449617680319771560,/odom,4.83824079722,5.11598463695,0.0,0.0,0.0,0.755809687182,0.654791353609
1449617680511129688,297,1449617680510957964,,0,,299,1449617680413337799,/odom,4.83430816245,5.1393557486,0.0,0.0,0.0,0.752139224767,0.659004238656
1449617680631744597,298,1449617680630981705,,0,,300,1449617680509001153,/odom,4.83309390386,5.15155632015,0.0,0.0,0.0,0.75549765538,0.655151350999
1449617680676730510,299,1449617680676145453,,0,,301,1449617680614839862,/odom,4.83103292648,5.16430753098,0.0,0.0,0.0,0.751906354343,0.659269925219
1449617680766062971,300,1449617680765371423,,0,,302,1449617680716124013,/odom,4.83075440514,5.16641351564,0.0,0.0,0.0,0.751862477185,0.659319964358
1449617680864398593,301,1449617680863903959,,0,,303,1449617680809710980,/odom,4.87142037474,4.88188115862,0.0,0.0,0.0,0.755296372765,0.655383391068
1449617683745993307,302,1449617683745754118,,0,,304,1449617683711072026,/odom,4.88923953668,4.62031929902,0.0,0.0,0.0,0.742092671305,0.670297297619
1449617683859922685,303,1449617683859771279,,0,,305,1449617683812371053,/odom,4.88785587327,4.63336689672,0.0,0.0,0.0,0.741828065514,0.670590129077
1449617683939558076,304,1449617683939451654,,0,,306,1449617683910872005,/odom,4.88823458198,4.62131107784,0.0,0.0,0.0,0.738087288576,0.674705235227
1449617684062470350,305,1449617684062268940,,0,,307,1449617684013147300,/odom,4.88742248543,4.63015406366,0.0,0.0,0.0,0.737894614431,0.674915948836
1449617684165677308,306,1449617684165440006,,0,,308,1449617684110425484,/odom,4.88822166421,4.61117119538,0.0,0.0,0.0,0.73064789058,0.682754465376
1449617684267375917,307,1449617684267087336,,0,,309,1449617684208958561,/odom,4.88822169489,4.60688110539,0.0,0.0,0.0,0.726954191407,0.68668595704
1449617684339442208,308,1449617684339192604,,0,,310,1449617684317832073,/odom,4.88872841558,4.58945659616,0.0,0.0,0.0,0.719614293291,0.694374012252
1449617684463384357,309,1449617684462505332,,0,,311,1449617684409963941,/odom,4.8888805963,4.582884221,0.0,0.0,0.0,0.71591943619,0.698182899307
1449617684609562337,310,1449617684609049631,,0,,312,1449617684534641420,/odom,4.88906667794,4.57065958571,0.0,0.0,0.0,0.712203595072,0.701972961849
1449617684715371282,311,1449617684715053401,,0,,313,1449617684610623933,/odom,4.88910042792,4.5625515663,0.0,0.0,0.0,0.708480335026,0.705730554023
1449617684767279446,312,1449617684767145990,,0,,314,1449617684711287008,/odom,4.88909688002,4.56346548099,0.0,0.0,0.0,0.708473295043,0.705737621366
1449617684864674248,313,1449617684864337569,,0,,315,1449617684808182416,/odom,4.88906859364,4.56112579021,0.0,0.0,0.0,0.704730105107,0.70947549567
1449617684999160163,314,1449617684998690360,,0,,316,1449617684908868060,/odom,4.88906992284,4.56132381773,0.0,0.0,0.0,0.704728571568,0.709477018948
1449617685061449113,315,1449617685061287246,,0,,317,1449617685011634713,/odom,4.8890628185,4.56440539254,0.0,0.0,0.0,0.708466055067,0.705744889332
1449617685144584284,316,1449617685143783144,,0,,318,1449617685110641780,/odom,4.88906253243,4.5644797372,0.0,0.0,0.0,0.708465482373,0.705745464233
1449617685309738451,317,1449617685309339374,,0,,319,1449617685216302912,/odom,4.88906223478,4.56455712611,0.0,0.0,0.0,0.708464886228,0.705746062675
1449617685352591414,318,1449617685350876820,,0,,320,1449617685308332696,/odom,4.88906197574,4.56458526323,0.0,0.0,0.0,0.707002454312,0.707211092671
1449617685507722187,319,1449617685507342650,,0,,321,1449617685428071259,/odom,4.88906183865,4.56461568653,0.0,0.0,0.0,0.705417821068,0.70879171674
1449617685595110372,320,1449617685594870131,,0,,322,1449617685512503856,/odom,4.88906182783,4.56462301905,0.0,0.0,0.0,0.705035370176,0.709172141868
1449617685626345033,321,1449617685626156361,,0,,323,1449617685610492045,/odom,4.88906184109,4.56464254265,0.0,0.0,0.0,0.70401605076,0.710184060841
1449617685742820985,322,1449617685742263491,,0,,324,1449617685710192277,/odom,4.8890618522,4.56464682977,0.0,0.0,0.0,0.703792026185,0.710406069709
1449617685921213721,323,1449617685920954498,,0,,325,1449617685808972529,/odom,4.88906185704,4.56464841081,0.0,0.0,0.0,0.703709390451,0.710487926562
1449617685977799922,324,1449617685977324151,,0,,326,1449617685909012268,/odom,4.88906186065,4.56464951487,0.0,0.0,0.0,0.703651679169,0.710545082597
1449617686066244632,325,1449617686066105277,,0,,327,1449617686032327600,/odom,4.88906186442,4.56465060659,0.0,0.0,0.0,0.703594608271,0.710601595278
1449617686159115863,326,1449617686158983553,,0,,328,1449617686119503035,/odom,4.88906186607,4.56465106568,0.0,0.0,0.0,0.703570607235,0.710625358846
1449617686307355801,327,1449617686307142602,,0,,329,1449617686209671104,/odom,4.88906186774,4.56465152406,0.0,0.0,0.0,0.703546643075,0.710649084301
1449617686429378045,328,1449617686429155036,,0,,330,1449617686401482192,/odom,4.88906149757,4.56465113032,0.0,0.0,0.0,0.407805706923,0.913068729834
1449617687032983790,329,1449617687032770019,,0,,331,1449617686970256655,/odom,4.29937234148,4.07610420547,0.0,0.0,0.0,-0.0668279167662,0.997764516076
1449617687163219782,330,1449617687159281789,,0,,332,1449617687111997305,/odom,4.10102047171,3.96967139776,0.0,0.0,0.0,-0.110353903538,0.993892356331
1449617687942966943,331,1449617687942766259,,0,,333,1449617687883238001,/odom,4.06791108223,3.93087297397,0.0,0.0,0.0,-0.0679288980173,0.997690164738
1449617688106002691,332,1449617688105798042,,0,,334,1449617688022376795,/odom,4.54631452769,4.01106489809,0.0,0.0,0.0,0.277131874202,0.960831891801
1449617688841507268,333,1449617688841069407,,0,,335,1449617688754641800,/odom,4.80090287193,4.25547428349,0.0,0.0,0.0,0.517953856396,0.855408558903
1449617688941198753,334,1449617688940593230,,0,,336,1449617688914848041,/odom,4.86084221142,4.39455480411,0.0,0.0,0.0,0.69998323885,0.714159271682
1449617688988530601,335,1449617688987813609,,0,,337,1449617688943433091,/odom,4.85607483611,4.45240945518,0.0,0.0,0.0,0.885018985603,0.465554932444
1449617689653830585,336,1449617689653039909,,0,,338,1449617689562293410,/odom,4.66222221573,5.15289296441,0.0,0.0,0.0,0.910803748342,0.412839595976
1449617691182986469,337,1449617691182706000,,0,,339,1449617691143387473,/odom,4.85495954777,4.90215208671,0.0,0.0,0.0,0.800220988451,0.599705235631
1449617691322725028,338,1449617691321803708,,0,,340,1449617691251611654,/odom,4.87791217554,4.80784658975,0.0,0.0,0.0,0.76789581516,0.640574755247
1449617691397924199,339,1449617691391808139,,0,,341,1449617691362686100,/odom,4.88102948729,4.79105505735,0.0,0.0,0.0,0.762064643906,0.647500948655
1449617691488668122,340,1449617691488271782,,0,,342,1449617691449847568,/odom,4.88439079404,4.76635576357,0.0,0.0,0.0,0.755366960877,0.655302032971
1449617691580372115,341,1449617691580122560,,0,,343,1449617691544194813,/odom,4.8859578983,4.75323040827,0.0,0.0,0.0,0.752892896646,0.658143059054
1449617691699166833,342,1449617691698316521,,0,,344,1449617691645755219,/odom,4.88472791051,4.76420125139,0.0,0.0,0.0,0.752893156626,0.658142761645
1449617691795107959,343,1449617691794474541,,0,,345,1449617691754246649,/odom,4.8842243957,4.76611593308,0.0,0.0,0.0,0.756194978198,0.654346357023
1449617691871261244,344,1449617691870730016,,0,,346,1449617691847302293,/odom,4.88296364306,4.77402573584,0.0,0.0,0.0,0.761752076416,0.647868639522
1449617691982169577,345,1449617691982052157,,0,,347,1449617691951566109,/odom,4.93887343531,4.43882089653,0.0,0.0,0.0,0.763810627766,0.645440411589
1449617701751181358,346,1449617701750925864,,0,,348,1449617701709138650,/odom,6.12467670737,2.34834294741,0.0,0.0,0.0,0.997717548168,0.0675255068658
1449617701834023959,347,1449617701833795646,,0,,349,1449617701809829792,/odom,6.10137729632,2.35069891947,0.0,0.0,0.0,0.996540548675,0.0831079710201
1449617701990766548,348,1449617701990441589,,0,,350,1449617701908678680,/odom,6.0908225302,2.35033895539,0.0,0.0,0.0,0.994884506402,0.101018903786
1449617702088006945,349,1449617702087668018,,0,,351,1449617702013623418,/odom,6.09315756425,2.34985321363,0.0,0.0,0.0,0.994980871399,0.100065306422
1449617702158803070,350,1449617702158637995,,0,,352,1449617702128765196,/odom,6.0868711583,2.35068027442,0.0,0.0,0.0,0.99447336951,0.104989129602
1449617702342091506,351,1449617702340126879,,0,,353,1449617702211032056,/odom,5.96508862796,2.37570945472,0.0,0.0,0.0,0.995082465435,0.0990499216744
1449617702354307512,352,1449617702350529532,,0,,354,1449617702309221368,/odom,5.91350781561,2.38465218917,0.0,0.0,0.0,0.995382270268,0.0959902913634
1449617702475231288,353,1449617702474957303,,0,,355,1449617702408524122,/odom,5.84439814935,2.39608004328,0.0,0.0,0.0,0.995650670249,0.0931651374306
1449617704065005870,354,1449617704064569685,,0,,356,1449617703922762748,/odom,5.26757568283,1.85739214198,0.0,0.0,0.0,-0.865970806852,0.50009455274
1449617704164122850,355,1449617704163551696,,0,,357,1449617704066052072,/odom,5.4784010582,2.14072543524,0.0,0.0,0.0,-0.947168814109,0.320735463552
1449617706089303803,356,1449617706089125469,,0,,358,1449617706009202247,/odom,5.52398457502,2.02284410977,0.0,0.0,0.0,-0.915112076555,0.403199562678
1449617706289175621,357,1449617706289045146,,0,,359,1449617706208258614,/odom,5.51272513381,2.0392550871,0.0,0.0,0.0,-0.942204536449,0.335038223932
1449617706375729985,358,1449617706375028117,,0,,360,1449617706336655762,/odom,5.31191369877,1.89913347563,0.0,0.0,0.0,-0.949216726735,0.314622957978
1449617710023099627,359,1449617710022906793,,0,,361,1449617709919656599,/odom,3.73051778626,1.46669265228,0.0,0.0,0.0,0.949886202957,0.312595907574
1449617711137714160,360,1449617711137445765,,0,,362,1449617711049032762,/odom,4.45597304977,1.09309133236,0.0,0.0,0.0,-0.991765616196,0.128066242749
1449617714260177251,361,1449617714259843774,,0,,363,1449617714146134201,/odom,3.51248796864,0.17881799566,0.0,0.0,0.0,-0.906694383269,0.421788211487
1449617714262145309,362,1449617714262008362,,0,,364,1449617714196714761,/odom,3.70940480194,0.363458150598,0.0,0.0,0.0,-0.913716820513,0.406351537355
1449617717529789727,363,1449617717529541785,,0,,365,1449617717444249630,/odom,2.35405429273,0.49383879322,0.0,0.0,0.0,0.865452814892,0.500990444216
1449617718119441826,364,1449617718119162830,,0,,366,1449617718030639380,/odom,3.10934834184,-0.0554215261839,0.0,0.0,0.0,-0.999447424722,0.0332392120357
1449617719949786478,365,1449617719949379641,,0,,367,1449617719856376537,/odom,2.12435502041,-1.21492489667,0.0,0.0,0.0,-0.938450316272,0.345414249689
1449617720156970533,366,1449617720155853329,,0,,368,1449617720028232359,/odom,1.91457192658,-1.08094398506,0.0,0.0,0.0,-0.956679507764,0.291143125327
1449617720967883299,367,1449617720967471890,,0,,369,1449617720780950560,/odom,2.26018025271,-1.39630187254,0.0,0.0,0.0,-0.83105062891,0.556196774701
1449617722478108570,368,1449617722477758223,,0,,370,1449617722425731645,/odom,1.98516458445,-1.17002267601,0.0,0.0,0.0,-0.890793032541,0.454409257363
1449617723167974578,369,1449617723167807324,,0,,371,1449617723055883468,/odom,2.67343307479,-0.3282043207,0.0,0.0,0.0,-0.972121372438,0.234478223401
1449617723314420323,370,1449617723312294255,,0,,372,1449617723247052183,/odom,1.87722606602,-0.601233068073,0.0,0.0,0.0,-0.981559098184,0.191158930661
1449617723554525439,371,1449617723554196175,,0,,373,1449617723491945019,/odom,1.35523312791,-0.788168066622,0.0,0.0,0.0,-0.980902058234,0.194502319145
1449617723983796301,372,1449617723983146313,,0,,374,1449617723817628460,/odom,1.64679192183,-1.27694136924,0.0,0.0,0.0,-0.881513850596,0.472158163338
1449617724338278809,373,1449617724338133566,,0,,375,1449617724133647489,/odom,1.85012035609,-1.36544669985,0.0,0.0,0.0,-0.818381975987,0.574674639583
1449617724921608950,374,1449617724919705088,,0,,376,1449617724758127331,/odom,2.03664609731,-1.57683896069,0.0,0.0,0.0,-0.666491504066,0.745512625653
1449617728525070160,375,1449617728523973945,,0,,377,1449617728162863452,/odom,1.38271499138,-1.52516759561,0.0,0.0,0.0,-0.817636154638,0.575735285204
1449617729590808167,376,1449617729590644035,,0,,378,1449617729531552252,/odom,1.48720536961,-1.02330510407,0.0,0.0,0.0,-0.896744209939,0.442549231094
1449617730065726958,377,1449617730063269042,,0,,379,1449617729930284060,/odom,1.73211328047,-0.740923694622,0.0,0.0,0.0,-0.933594907502,0.35833022296
1449617730239030591,378,1449617730217312288,,0,,380,1449617730167528205,/odom,2.39272637183,-0.334053484398,0.0,0.0,0.0,-0.982878121321,0.184256882174
1449617730322923429,379,1449617730321964232,,0,,381,1449617730264817177,/odom,2.46182660076,-0.308471496161,0.0,0.0,0.0,-0.985980010518,0.166863473711
1449617730412543064,380,1449617730412177535,,0,,382,1449617730340080857,/odom,2.46182660076,-0.308471496161,0.0,0.0,0.0,-0.985980010518,0.166863473711
1449617730531226989,381,1449617730531018450,,0,,383,1449617730441650072,/odom,2.45909731193,-0.309390295248,0.0,0.0,0.0,-0.986847952373,0.161651226095
1449617730632602717,382,1449617730632287313,,0,,384,1449617730537401598,/odom,2.45909731193,-0.309390295248,0.0,0.0,0.0,-0.986847952373,0.161651226095
1449617730713653235,383,1449617730713480948,,0,,385,1449617730638987811,/odom,2.46181673862,-0.308442704748,0.0,0.0,0.0,-0.985980010518,0.166863473711
1449617730824848751,384,1449617730824710036,,0,,386,1449617730738600361,/odom,2.46181673862,-0.308442704748,0.0,0.0,0.0,-0.985980010518,0.166863473711
1449617730881607521,385,1449617730879817408,,0,,387,1449617730839207395,/odom,2.46181673862,-0.308442704748,0.0,0.0,0.0,-0.985980010518,0.166863473711
1449617730982295293,386,1449617730982112128,,0,,388,1449617730939591043,/odom,2.45908744979,-0.309361503834,0.0,0.0,0.0,-0.986847952373,0.161651226095
1449617731220332279,387,1449617731220144311,,0,,390,1449617731139320494,/odom,2.68050076821,-0.231040716607,0.0,0.0,0.0,-0.984489025374,0.175446170999
1449617731273008703,388,1449617731272062216,,0,,391,1449617731238467079,/odom,2.90686249742,-0.146633865562,0.0,0.0,0.0,-0.983078786011,0.183183242944
1449617732513163565,389,1449617732512909963,,0,,392,1449617732457365954,/odom,2.89999159692,-0.154369497311,0.0,0.0,0.0,-0.984559969158,0.175047613898
1449617732844584364,390,1449617732839495463,,0,,393,1449617732753092502,/odom,2.67049841658,-0.239284590209,0.0,0.0,0.0,-0.987116989252,0.16000015478
1449617732863496426,391,1449617732863197722,,0,,394,1449617732842958497,/odom,2.63435191894,-0.251348024692,0.0,0.0,0.0,-0.987375376403,0.158397809562
1449617733116451657,392,1449617733115429445,,0,,395,1449617733061357664,/odom,2.74024005393,-0.156125439817,0.0,0.0,0.0,-0.891913939662,0.452205179357
1449617734000810058,393,1449617733999584792,,0,,396,1449617733319739035,/odom,2.75003875161,-0.0784580075367,0.0,0.0,0.0,-0.70079894737,0.713358840532
1449617734465457016,394,1449617734465278720,,0,,397,1449617734320835156,/odom,2.60674843798,-0.305758088343,0.0,0.0,0.0,-0.718161385464,0.695876587068
1449617734787716284,395,1449617734787426329,,0,,398,1449617734692936622,/odom,2.45569883254,-0.493710562725,0.0,0.0,0.0,-0.750370681296,0.66101727712
1449617740331120255,396,1449617740330874530,,0,,399,1449617740281785207,/odom,2.13757708967,-0.643824430659,0.0,0.0,0.0,-0.874762109358,0.484552630816
1449617740529989600,397,1449617740529812273,,0,,400,1449617740411466555,/odom,2.30322866712,-0.47769533888,0.0,0.0,0.0,-0.897519584631,0.440974597006
1449617740659954454,398,1449617740658261828,,0,,401,1449617740622546430,/odom,2.7688532629,-0.186425202018,0.0,0.0,0.0,-0.975619601681,0.219468432391
1449617740761527103,399,1449617740761080781,,0,,402,1449617740722705638,/odom,3.28717295926,-0.0464821099352,0.0,0.0,0.0,-0.99276075724,0.120108612865
1449617742375886001,400,1449617742373663371,,0,,403,1449617742343479902,/odom,2.85843633925,-0.187697067234,0.0,0.0,0.0,-0.990773899432,0.135525201359
1449617742447986291,401,1449617742447762558,,0,,404,1449617742422847555,/odom,2.89427634731,-0.176883844665,0.0,0.0,0.0,-0.988501151721,0.151213336202
1449617742624446620,402,1449617742624218975,,0,,405,1449617742533531172,/odom,2.91068075223,-0.171457732227,0.0,0.0,0.0,-0.986847952373,0.161651226095
1449617742688037419,403,1449617742681485949,,0,,406,1449617742623659738,/odom,2.76842068377,-0.226764088117,0.0,0.0,0.0,-0.983211109342,0.182471681273
1449617742766886251,404,1449617742766737356,,0,,407,1449617742724163078,/odom,2.52214296771,-0.33199833274,0.0,0.0,0.0,-0.981227871832,0.192851921274
1449617744970738862,405,1449617744968074232,,0,,408,1449617744804985096,/odom,1.39701414872,-1.42272367398,0.0,0.0,0.0,-0.902373105102,0.430955658031
1449617745249834128,406,1449617745247629492,,0,,409,1449617745174772452,/odom,2.25081677293,-0.492286470152,0.0,0.0,0.0,-0.965780298555,0.259361552515
1449617745353342474,407,1449617745353120864,,0,,410,1449617745247694080,/odom,2.63532397351,-0.285925674315,0.0,0.0,0.0,-0.97883289006,0.204661118284
1449617745952692175,408,1449617745951919402,,0,,411,1449617745782295698,/odom,1.75074097729,-1.20323926079,0.0,0.0,0.0,-0.854439953477,0.519550157254
1449617747129527593,409,1449617747129307730,,0,,412,1449617747002178652,/odom,2.41212923631,-0.910066412257,0.0,0.0,0.0,-0.672090227527,0.740469260714
1449617747259378387,410,1449617747257744227,,0,,413,1449617747142433439,/odom,2.67519774392,-0.580325106104,0.0,0.0,0.0,-0.591970041371,0.805959968063
1449617749010334862,411,1449617749010109766,,0,,414,1449617748154300616,/odom,2.6103583847,-0.985709008917,0.0,0.0,0.0,-0.487925165537,0.872885463756
1449617749546271459,412,1449617749546142916,,0,,415,1449617749458259903,/odom,2.2945969049,-1.30275863849,0.0,0.0,0.0,-0.620027278818,0.784580253079
1449617749647579593,413,1449617749645771767,,0,,416,1449617749596238014,/odom,1.92681650467,-1.39432664445,0.0,0.0,0.0,-0.759994020093,0.649930065024
1449617749725826295,414,1449617749725543083,,0,,417,1449617749665039470,/odom,2.1695028835,-0.480644039292,0.0,0.0,0.0,-0.980220797715,0.197907017883
1449617750924733271,415,1449617750923747563,,0,,418,1449617750855997794,/odom,2.11775398565,-0.451245188318,0.0,0.0,0.0,-0.998566984146,0.0535161487185
1449617751118667457,416,1449617751117833171,,0,,419,1449617750992734392,/odom,2.32668340167,-0.418895171916,0.0,0.0,0.0,-0.991869993854,0.12725531538
1449617751138541213,417,1449617751134309006,,0,,420,1449617751084710356,/odom,2.33830142394,-0.423210294043,0.0,0.0,0.0,-0.989807265357,0.142413403324
1449617751234949148,418,1449617751234697053,,0,,421,1449617751201538906,/odom,2.35938527785,-0.419880260413,0.0,0.0,0.0,-0.987580237508,0.157115481362
1449617751277853479,419,1449617751277757564,,0,,422,1449617751253874435,/odom,2.07258326863,-0.437445050878,0.0,0.0,0.0,0.999632474919,0.0271093173668
1449617751492278171,420,1449617751491926204,,0,,423,1449617751442144065,/odom,1.71846109878,-0.312566815821,0.0,0.0,0.0,0.966475659909,0.256758249727
1449617757250825166,421,1449617757249939676,,0,,424,1449617757176730236,/odom,-0.0550554957781,-0.209268815712,0.0,0.0,0.0,0.999121417805,0.0419093364752
1449617757483945666,422,1449617757483659353,,0,,425,1449617757404403879,/odom,1.25896834013,-0.357328078885,0.0,0.0,0.0,0.998031551428,0.0627138131048
1449617759239060743,423,1449617759229503351,,0,,426,1449617758953008621,/odom,-0.0543945505646,-0.788735061617,0.0,0.0,0.0,-0.960238667782,0.279180409228
1449617760166576056,424,1449617760159856675,,0,,428,1449617760113506968,/odom,0.943886426155,0.0623032705839,0.0,0.0,0.0,0.915738231739,0.401775423503
1449617764406839017,425,1449617764406722722,,0,,429,1449617764298117296,/odom,-0.821713229306,-0.946112226688,0.0,0.0,0.0,-0.673963353704,0.73876477844
1449617764628785791,426,1449617764627589698,,0,,430,1449617764556774998,/odom,-1.19002792546,-0.676457678788,0.0,0.0,0.0,-0.821523558433,0.570174572337
1449617765066738651,427,1449617765064652271,,0,,431,1449617764929232731,/odom,-0.99397228269,-0.677669165634,0.0,0.0,0.0,-0.765003626096,0.644025971573
1449617765176299112,428,1449617765176086087,,0,,432,1449617765079894952,/odom,-0.176716003151,0.183968806334,0.0,0.0,0.0,-0.980364011982,0.197196359019
1449617765197727744,429,1449617765197541901,,0,,433,1449617765135026087,/odom,0.114703603477,0.195398884107,0.0,0.0,0.0,-0.969008496022,0.247027396531
1449617766433357386,430,1449617766432529490,,0,,434,1449617766334961038,/odom,0.0501400958172,0.229502565556,0.0,0.0,0.0,-0.96227273081,0.272086735325
1449617766542411672,431,1449617766540182250,,0,,435,1449617766440724762,/odom,-0.255635166621,0.254326984186,0.0,0.0,0.0,-0.995745553079,0.0921455019182
1449617766933290294,432,1449617766928570679,,0,,436,1449617766755172208,/odom,-1.18429230798,-0.016158160262,0.0,0.0,0.0,-0.956056481834,0.29318254304
1449617767959359705,433,1449617767959159152,,0,,437,1449617767887319842,/odom,-1.54358417049,-0.320782082371,0.0,0.0,0.0,-0.921240439746,0.388993640277
1449617768101227601,434,1449617768100932555,,0,,438,1449617768044067601,/odom,-1.43428562918,-0.520420800221,0.0,0.0,0.0,-0.868757389631,0.495237920561
1449617768317411491,435,1449617768317021632,,0,,439,1449617768169213399,/odom,-1.19050208439,-0.670842854559,0.0,0.0,0.0,-0.787567822842,0.616227980883
1449617768440747740,436,1449617768440543688,,0,,440,1449617768334056708,/odom,-0.877759412907,-0.72212796584,0.0,0.0,0.0,-0.676322604497,0.736605548884
1449617769937286872,437,1449617769936784991,,0,,441,1449617769822260031,/odom,-0.309525526193,0.0614176930079,0.0,0.0,0.0,-0.792685659615,0.609630580796
1449617771006306674,438,1449617771005409549,,0,,442,1449617770904363152,/odom,-0.329932901018,-0.264604747633,0.0,0.0,0.0,-0.594249416305,0.804280816147
1449617771259326837,439,1449617771257092427,,0,,443,1449617771111263348,/odom,0.0931215476691,-0.751114932401,0.0,0.0,0.0,-0.0756915532133,0.997131279608
1449617772099156543,440,1449617772097040558,,0,,444,1449617771987321366,/odom,-0.290264273099,-0.397929439719,0.0,0.0,0.0,-0.586335776178,0.810068119095
1449617772153618446,441,1449617772152650565,,0,,445,1449617772041655639,/odom,-0.270214526173,-0.166302963507,0.0,0.0,0.0,-0.580780439147,0.814060244395
1449617772648904562,442,1449617772646172025,,0,,446,1449617772560018933,/odom,-0.537705292286,0.455307925381,0.0,0.0,0.0,-0.00726741391921,0.999973591999
1449617772924681426,443,1449617772924469022,,0,,447,1449617772853747838,/odom,-0.697969283552,0.999103374301,0.0,0.0,0.0,-0.303466295985,0.952842173291
1449617773166443605,444,1449617773165736853,,0,,448,1449617773035002112,/odom,-0.641387328822,1.24018479921,0.0,0.0,0.0,-0.422164025919,0.90651946213
1449617773274106888,445,1449617773273966947,,0,,449,1449617773172604762,/odom,-0.575476561361,1.42913137856,0.0,0.0,0.0,-0.506466610075,0.862259573956
1449617773827184926,446,1449617773826761396,,0,,450,1449617773732781715,/odom,-0.291380071905,1.46471930394,0.0,0.0,0.0,-0.649972186562,0.759957996666
1449617774047733580,447,1449617774047592715,,0,,451,1449617773932515133,/odom,-0.470750438716,1.23456886565,0.0,0.0,0.0,-0.527163866921,0.849763647971
1449617774343749939,448,1449617774343394675,,0,,452,1449617774238474326,/odom,-0.658336398259,0.903786383927,0.0,0.0,0.0,-0.286543605435,0.958067201288
1449617776398442454,449,1449617776397761329,,0,,453,1449617776340880908,/odom,-0.295226474889,0.113161732922,0.0,0.0,0.0,0.403616784004,0.914928134703
1449617776490143603,450,1449617776489941897,,0,,454,1449617776377125105,/odom,-0.278738494085,0.103346601655,0.0,0.0,0.0,-0.124448455553,0.992226073992
1449617777075492910,451,1449617777074911737,,0,,455,1449617776941098376,/odom,0.132532559425,-0.0226952041124,0.0,0.0,0.0,0.306723921164,0.951798527098
1449617779589033779,452,1449617779588716705,,0,,456,1449617779448338032,/odom,0.244903438767,-0.105756580063,0.0,0.0,0.0,0.012518880887,0.99992163574
