%time,field.header.seq,field.header.stamp,field.header.frame_id,field.polygon.points0.x,field.polygon.points0.y,field.polygon.points0.z,field.polygon.points1.x,field.polygon.points1.y,field.polygon.points1.z,field.polygon.points2.x,field.polygon.points2.y,field.polygon.points2.z,field.polygon.points3.x,field.polygon.points3.y,field.polygon.points3.z,field.polygon.points4.x,field.polygon.points4.y,field.polygon.points4.z
1449617599124193765,1,1449617599124065934,odom,0.479999989271,0.0,0.0,0.329999983311,-0.264999985695,0.0,-0.539999961853,-0.264999985695,0.0,-0.539999961853,0.264999985695,0.0,0.329999983311,0.264999985695,0.0
1449617599325086845,2,1449617599324438630,odom,0.479999989271,0.0,0.0,0.329999983311,-0.264999985695,0.0,-0.539999961853,-0.264999985695,0.0,-0.539999961853,0.264999985695,0.0,0.329999983311,0.264999985695,0.0
1449617599610179748,3,1449617599609074168,odom,0.479999989271,0.0,0.0,0.329999983311,-0.264999985695,0.0,-0.539999961853,-0.264999985695,0.0,-0.539999961853,0.264999985695,0.0,0.329999983311,0.264999985695,0.0
1449617599810194027,4,1449617599809922069,odom,0.479999989271,0.0,0.0,0.329999983311,-0.264999985695,0.0,-0.539999961853,-0.264999985695,0.0,-0.539999961853,0.264999985695,0.0,0.329999983311,0.264999985695,0.0
1449617600036191782,5,1449617600035832492,odom,0.479999989271,0.0,0.0,0.329999983311,-0.264999985695,0.0,-0.539999961853,-0.264999985695,0.0,-0.539999961853,0.264999985695,0.0,0.329999983311,0.264999985695,0.0
1449617600215310247,6,1449617600215043880,odom,0.479999989271,0.0,0.0,0.329999983311,-0.264999985695,0.0,-0.539999961853,-0.264999985695,0.0,-0.539999961853,0.264999985695,0.0,0.329999983311,0.264999985695,0.0
1449617600422982233,7,1449617600422770325,odom,0.479999989271,0.0,0.0,0.329999983311,-0.264999985695,0.0,-0.539999961853,-0.264999985695,0.0,-0.539999961853,0.264999985695,0.0,0.329999983311,0.264999985695,0.0
1449617600640132385,8,1449617600639888355,odom,0.479999989271,0.0,0.0,0.329999983311,-0.264999985695,0.0,-0.539999961853,-0.264999985695,0.0,-0.539999961853,0.264999985695,0.0,0.329999983311,0.264999985695,0.0
1449617600816782031,9,1449617600816592091,odom,0.479999989271,0.0,0.0,0.329999983311,-0.264999985695,0.0,-0.539999961853,-0.264999985695,0.0,-0.539999961853,0.264999985695,0.0,0.329999983311,0.264999985695,0.0
1449617601033380240,10,1449617601033142017,odom,0.479999989271,0.0,0.0,0.329999983311,-0.264999985695,0.0,-0.539999961853,-0.264999985695,0.0,-0.539999961853,0.264999985695,0.0,0.329999983311,0.264999985695,0.0
1449617601267559002,11,1449617601267216358,odom,0.479999989271,0.0,0.0,0.329999983311,-0.264999985695,0.0,-0.539999961853,-0.264999985695,0.0,-0.539999961853,0.264999985695,0.0,0.329999983311,0.264999985695,0.0
1449617601409499791,12,1449617601409155175,odom,0.479999989271,0.0,0.0,0.329999983311,-0.264999985695,0.0,-0.539999961853,-0.264999985695,0.0,-0.539999961853,0.264999985695,0.0,0.329999983311,0.264999985695,0.0
1449617601621362414,13,1449617601621009878,odom,0.479999989271,0.0,0.0,0.329999983311,-0.264999985695,0.0,-0.539999961853,-0.264999985695,0.0,-0.539999961853,0.264999985695,0.0,0.329999983311,0.264999985695,0.0
1449617601847582544,14,1449617601847042615,odom,0.479999989271,0.0,0.0,0.329999983311,-0.264999985695,0.0,-0.539999961853,-0.264999985695,0.0,-0.539999961853,0.264999985695,0.0,0.329999983311,0.264999985695,0.0
1449617602014515881,15,1449617602014283983,odom,0.479999989271,0.0,0.0,0.329999983311,-0.264999985695,0.0,-0.539999961853,-0.264999985695,0.0,-0.539999961853,0.264999985695,0.0,0.329999983311,0.264999985695,0.0
1449617602220441940,16,1449617602220188294,odom,0.479999989271,0.0,0.0,0.329999983311,-0.264999985695,0.0,-0.539999961853,-0.264999985695,0.0,-0.539999961853,0.264999985695,0.0,0.329999983311,0.264999985695,0.0
1449617602407504540,17,1449617602407240822,odom,0.479999989271,0.0,0.0,0.329999983311,-0.264999985695,0.0,-0.539999961853,-0.264999985695,0.0,-0.539999961853,0.264999985695,0.0,0.329999983311,0.264999985695,0.0
1449617602621089871,18,1449617602620313962,odom,0.479999989271,0.0,0.0,0.329999983311,-0.264999985695,0.0,-0.539999961853,-0.264999985695,0.0,-0.539999961853,0.264999985695,0.0,0.329999983311,0.264999985695,0.0
1449617602833570940,19,1449617602833148047,odom,0.479999989271,0.0,0.0,0.329999983311,-0.264999985695,0.0,-0.539999961853,-0.264999985695,0.0,-0.539999961853,0.264999985695,0.0,0.329999983311,0.264999985695,0.0
1449617603022837084,20,1449617603022650279,odom,0.479999989271,0.0,0.0,0.329999983311,-0.264999985695,0.0,-0.539999961853,-0.264999985695,0.0,-0.539999961853,0.264999985695,0.0,0.329999983311,0.264999985695,0.0
1449617603208683652,21,1449617603208278564,odom,0.479999989271,0.0,0.0,0.329999983311,-0.264999985695,0.0,-0.539999961853,-0.264999985695,0.0,-0.539999961853,0.264999985695,0.0,0.329999983311,0.264999985695,0.0
1449617603408417486,22,1449617603408318159,odom,0.479999989271,0.0,0.0,0.329999983311,-0.264999985695,0.0,-0.539999961853,-0.264999985695,0.0,-0.539999961853,0.264999985695,0.0,0.329999983311,0.264999985695,0.0
1449617603614301734,23,1449617603613680616,odom,0.479999989271,0.0,0.0,0.329999983311,-0.264999985695,0.0,-0.539999961853,-0.264999985695,0.0,-0.539999961853,0.264999985695,0.0,0.329999983311,0.264999985695,0.0
1449617603814979456,24,1449617603814518284,odom,0.479999989271,0.0,0.0,0.329999983311,-0.264999985695,0.0,-0.539999961853,-0.264999985695,0.0,-0.539999961853,0.264999985695,0.0,0.329999983311,0.264999985695,0.0
1449617604013848668,25,1449617604013468712,odom,0.479999989271,0.0,0.0,0.329999983311,-0.264999985695,0.0,-0.539999961853,-0.264999985695,0.0,-0.539999961853,0.264999985695,0.0,0.329999983311,0.264999985695,0.0
1449617604227086287,26,1449617604226507627,odom,0.479999989271,0.0,0.0,0.329999983311,-0.264999985695,0.0,-0.539999961853,-0.264999985695,0.0,-0.539999961853,0.264999985695,0.0,0.329999983311,0.264999985695,0.0
1449617604410227757,27,1449617604410013913,odom,0.479999989271,0.0,0.0,0.329999983311,-0.264999985695,0.0,-0.539999961853,-0.264999985695,0.0,-0.539999961853,0.264999985695,0.0,0.329999983311,0.264999985695,0.0
1449617604647787845,28,1449617604647395756,odom,0.479999989271,0.0,0.0,0.329999983311,-0.264999985695,0.0,-0.539999961853,-0.264999985695,0.0,-0.539999961853,0.264999985695,0.0,0.329999983311,0.264999985695,0.0
1449617604799792426,29,1449617604799476546,odom,0.479999989271,0.0,0.0,0.329999983311,-0.264999985695,0.0,-0.539999961853,-0.264999985695,0.0,-0.539999961853,0.264999985695,0.0,0.329999983311,0.264999985695,0.0
1449617605034148515,30,1449617605030379034,odom,0.479999989271,0.0,0.0,0.329999983311,-0.264999985695,0.0,-0.539999961853,-0.264999985695,0.0,-0.539999961853,0.264999985695,0.0,0.329999983311,0.264999985695,0.0
1449617605230528185,31,1449617605227823027,odom,0.479999989271,0.0,0.0,0.329999983311,-0.264999985695,0.0,-0.539999961853,-0.264999985695,0.0,-0.539999961853,0.264999985695,0.0,0.329999983311,0.264999985695,0.0
1449617605449906777,32,1449617605449634603,odom,0.479999989271,0.0,0.0,0.329999983311,-0.264999985695,0.0,-0.539999961853,-0.264999985695,0.0,-0.539999961853,0.264999985695,0.0,0.329999983311,0.264999985695,0.0
1449617605610041963,33,1449617605608438988,odom,0.479999989271,0.0,0.0,0.329999983311,-0.264999985695,0.0,-0.539999961853,-0.264999985695,0.0,-0.539999961853,0.264999985695,0.0,0.329999983311,0.264999985695,0.0
1449617605813771517,34,1449617605813353535,odom,0.479999989271,0.0,0.0,0.329999983311,-0.264999985695,0.0,-0.539999961853,-0.264999985695,0.0,-0.539999961853,0.264999985695,0.0,0.329999983311,0.264999985695,0.0
1449617606018800919,35,1449617606018413469,odom,0.479999989271,0.0,0.0,0.329999983311,-0.264999985695,0.0,-0.539999961853,-0.264999985695,0.0,-0.539999961853,0.264999985695,0.0,0.329999983311,0.264999985695,0.0
1449617606214199572,36,1449617606214046700,odom,0.479999989271,0.0,0.0,0.329999983311,-0.264999985695,0.0,-0.539999961853,-0.264999985695,0.0,-0.539999961853,0.264999985695,0.0,0.329999983311,0.264999985695,0.0
1449617606425646240,37,1449617606424257137,odom,0.479999989271,0.0,0.0,0.329999983311,-0.264999985695,0.0,-0.539999961853,-0.264999985695,0.0,-0.539999961853,0.264999985695,0.0,0.329999983311,0.264999985695,0.0
1449617606657574167,38,1449617606657032187,odom,0.479999989271,0.0,0.0,0.329999983311,-0.264999985695,0.0,-0.539999961853,-0.264999985695,0.0,-0.539999961853,0.264999985695,0.0,0.329999983311,0.264999985695,0.0
1449617606820228208,39,1449617606819080599,odom,0.479999989271,0.0,0.0,0.329999983311,-0.264999985695,0.0,-0.539999961853,-0.264999985695,0.0,-0.539999961853,0.264999985695,0.0,0.329999983311,0.264999985695,0.0
1449617607039014924,40,1449617607038075189,odom,0.479999989271,0.0,0.0,0.329999983311,-0.264999985695,0.0,-0.539999961853,-0.264999985695,0.0,-0.539999961853,0.264999985695,0.0,0.329999983311,0.264999985695,0.0
1449617607224786054,41,1449617607224581517,odom,0.479999989271,0.0,0.0,0.329999983311,-0.264999985695,0.0,-0.539999961853,-0.264999985695,0.0,-0.539999961853,0.264999985695,0.0,0.329999983311,0.264999985695,0.0
1449617607443118202,42,1449617607442527335,odom,0.479999989271,0.0,0.0,0.329999983311,-0.264999985695,0.0,-0.539999961853,-0.264999985695,0.0,-0.539999961853,0.264999985695,0.0,0.329999983311,0.264999985695,0.0
1449617607632725065,43,1449617607632436657,odom,0.479999989271,0.0,0.0,0.329999983311,-0.264999985695,0.0,-0.539999961853,-0.264999985695,0.0,-0.539999961853,0.264999985695,0.0,0.329999983311,0.264999985695,0.0
1449617607846973953,44,1449617607844042643,odom,0.479999989271,0.0,0.0,0.329999983311,-0.264999985695,0.0,-0.539999961853,-0.264999985695,0.0,-0.539999961853,0.264999985695,0.0,0.329999983311,0.264999985695,0.0
1449617608042600547,45,1449617608042095379,odom,0.479999989271,0.0,0.0,0.329999983311,-0.264999985695,0.0,-0.539999961853,-0.264999985695,0.0,-0.539999961853,0.264999985695,0.0,0.329999983311,0.264999985695,0.0
1449617608253895644,46,1449617608253435968,odom,0.479999989271,0.0,0.0,0.329999983311,-0.264999985695,0.0,-0.539999961853,-0.264999985695,0.0,-0.539999961853,0.264999985695,0.0,0.329999983311,0.264999985695,0.0
1449617608425151127,47,1449617608424337333,odom,0.479999989271,0.0,0.0,0.329999983311,-0.264999985695,0.0,-0.539999961853,-0.264999985695,0.0,-0.539999961853,0.264999985695,0.0,0.329999983311,0.264999985695,0.0
1449617608599197532,48,1449617608598901055,odom,0.479999989271,0.0,0.0,0.329999983311,-0.264999985695,0.0,-0.539999961853,-0.264999985695,0.0,-0.539999961853,0.264999985695,0.0,0.329999983311,0.264999985695,0.0
1449617608821562157,49,1449617608821126658,odom,0.479999989271,0.0,0.0,0.329999983311,-0.264999985695,0.0,-0.539999961853,-0.264999985695,0.0,-0.539999961853,0.264999985695,0.0,0.329999983311,0.264999985695,0.0
1449617609023704836,50,1449617609023201899,odom,0.479999989271,0.0,0.0,0.329999983311,-0.264999985695,0.0,-0.539999961853,-0.264999985695,0.0,-0.539999961853,0.264999985695,0.0,0.329999983311,0.264999985695,0.0
1449617609219057048,51,1449617609216876988,odom,0.479999989271,0.0,0.0,0.329999983311,-0.264999985695,0.0,-0.539999961853,-0.264999985695,0.0,-0.539999961853,0.264999985695,0.0,0.329999983311,0.264999985695,0.0
1449617609432255314,52,1449617609429328817,odom,0.479999989271,0.0,0.0,0.329999983311,-0.264999985695,0.0,-0.539999961853,-0.264999985695,0.0,-0.539999961853,0.264999985695,0.0,0.329999983311,0.264999985695,0.0
1449617609611946952,53,1449617609611398834,odom,0.479999989271,0.0,0.0,0.329999983311,-0.264999985695,0.0,-0.539999961853,-0.264999985695,0.0,-0.539999961853,0.264999985695,0.0,0.329999983311,0.264999985695,0.0
1449617609833735484,54,1449617609833384195,odom,0.479999989271,0.0,0.0,0.329999983311,-0.264999985695,0.0,-0.539999961853,-0.264999985695,0.0,-0.539999961853,0.264999985695,0.0,0.329999983311,0.264999985695,0.0
1449617610021901663,55,1449617610021404676,odom,0.479999989271,0.0,0.0,0.329999983311,-0.264999985695,0.0,-0.539999961853,-0.264999985695,0.0,-0.539999961853,0.264999985695,0.0,0.329999983311,0.264999985695,0.0
1449617610234040128,56,1449617610233321682,odom,0.479999989271,0.0,0.0,0.329999983311,-0.264999985695,0.0,-0.539999961853,-0.264999985695,0.0,-0.539999961853,0.264999985695,0.0,0.329999983311,0.264999985695,0.0
1449617610417031238,57,1449617610416564263,odom,0.479999989271,0.0,0.0,0.329999983311,-0.264999985695,0.0,-0.539999961853,-0.264999985695,0.0,-0.539999961853,0.264999985695,0.0,0.329999983311,0.264999985695,0.0
1449617610639081931,58,1449617610638732204,odom,0.479999989271,0.0,0.0,0.329999983311,-0.264999985695,0.0,-0.539999961853,-0.264999985695,0.0,-0.539999961853,0.264999985695,0.0,0.329999983311,0.264999985695,0.0
1449617610837960210,59,1449617610837663395,odom,0.479999989271,0.0,0.0,0.329999983311,-0.264999985695,0.0,-0.539999961853,-0.264999985695,0.0,-0.539999961853,0.264999985695,0.0,0.329999983311,0.264999985695,0.0
1449617611069150681,60,1449617611068859826,odom,0.479999989271,0.0,0.0,0.329999983311,-0.264999985695,0.0,-0.539999961853,-0.264999985695,0.0,-0.539999961853,0.264999985695,0.0,0.329999983311,0.264999985695,0.0
1449617611225311825,61,1449617611225032388,odom,0.479999989271,0.0,0.0,0.329999983311,-0.264999985695,0.0,-0.539999961853,-0.264999985695,0.0,-0.539999961853,0.264999985695,0.0,0.329999983311,0.264999985695,0.0
1449617611464264391,62,1449617611463780152,odom,0.479999989271,0.0,0.0,0.329999983311,-0.264999985695,0.0,-0.539999961853,-0.264999985695,0.0,-0.539999961853,0.264999985695,0.0,0.329999983311,0.264999985695,0.0
1449617611611400952,63,1449617611611074295,odom,0.479999989271,0.0,0.0,0.329999983311,-0.264999985695,0.0,-0.539999961853,-0.264999985695,0.0,-0.539999961853,0.264999985695,0.0,0.329999983311,0.264999985695,0.0
1449617611838706258,64,1449617611837743394,odom,0.479999989271,0.0,0.0,0.329999983311,-0.264999985695,0.0,-0.539999961853,-0.264999985695,0.0,-0.539999961853,0.264999985695,0.0,0.329999983311,0.264999985695,0.0
1449617612020507240,65,1449617612017232024,odom,0.479999989271,0.0,0.0,0.329999983311,-0.264999985695,0.0,-0.539999961853,-0.264999985695,0.0,-0.539999961853,0.264999985695,0.0,0.329999983311,0.264999985695,0.0
1449617612223897134,66,1449617612223686679,odom,0.479999989271,0.0,0.0,0.329999983311,-0.264999985695,0.0,-0.539999961853,-0.264999985695,0.0,-0.539999961853,0.264999985695,0.0,0.329999983311,0.264999985695,0.0
1449617612429563651,67,1449617612428764798,odom,0.479999989271,0.0,0.0,0.329999983311,-0.264999985695,0.0,-0.539999961853,-0.264999985695,0.0,-0.539999961853,0.264999985695,0.0,0.329999983311,0.264999985695,0.0
1449617612624140807,68,1449617612623710097,odom,0.479999989271,0.0,0.0,0.329999983311,-0.264999985695,0.0,-0.539999961853,-0.264999985695,0.0,-0.539999961853,0.264999985695,0.0,0.329999983311,0.264999985695,0.0
1449617612818476471,69,1449617612818218887,odom,0.479999989271,0.0,0.0,0.329999983311,-0.264999985695,0.0,-0.539999961853,-0.264999985695,0.0,-0.539999961853,0.264999985695,0.0,0.329999983311,0.264999985695,0.0
1449617613048634557,70,1449617613048523664,odom,0.479999989271,0.0,0.0,0.329999983311,-0.264999985695,0.0,-0.539999961853,-0.264999985695,0.0,-0.539999961853,0.264999985695,0.0,0.329999983311,0.264999985695,0.0
1449617613247964236,71,1449617613247671979,odom,0.479999989271,0.0,0.0,0.329999983311,-0.264999985695,0.0,-0.539999961853,-0.264999985695,0.0,-0.539999961853,0.264999985695,0.0,0.329999983311,0.264999985695,0.0
1449617613451453531,72,1449617613450356382,odom,0.479999989271,0.0,0.0,0.329999983311,-0.264999985695,0.0,-0.539999961853,-0.264999985695,0.0,-0.539999961853,0.264999985695,0.0,0.329999983311,0.264999985695,0.0
1449617613630326571,73,1449617613629756691,odom,0.479999989271,0.0,0.0,0.329999983311,-0.264999985695,0.0,-0.539999961853,-0.264999985695,0.0,-0.539999961853,0.264999985695,0.0,0.329999983311,0.264999985695,0.0
1449617613814808833,74,1449617613814541246,odom,0.479999989271,0.0,0.0,0.329999983311,-0.264999985695,0.0,-0.539999961853,-0.264999985695,0.0,-0.539999961853,0.264999985695,0.0,0.329999983311,0.264999985695,0.0
1449617614018351556,75,1449617614017921224,odom,0.479999989271,0.0,0.0,0.329999983311,-0.264999985695,0.0,-0.539999961853,-0.264999985695,0.0,-0.539999961853,0.264999985695,0.0,0.329999983311,0.264999985695,0.0
1449617614264697301,76,1449617614264342650,odom,0.479999989271,0.0,0.0,0.329999983311,-0.264999985695,0.0,-0.539999961853,-0.264999985695,0.0,-0.539999961853,0.264999985695,0.0,0.329999983311,0.264999985695,0.0
1449617614421539097,77,1449617614421189229,odom,0.479999989271,0.0,0.0,0.329999983311,-0.264999985695,0.0,-0.539999961853,-0.264999985695,0.0,-0.539999961853,0.264999985695,0.0,0.329999983311,0.264999985695,0.0
1449617614686742019,78,1449617614686466286,odom,0.479999989271,0.0,0.0,0.329999983311,-0.264999985695,0.0,-0.539999961853,-0.264999985695,0.0,-0.539999961853,0.264999985695,0.0,0.329999983311,0.264999985695,0.0
1449617614825961452,79,1449617614825698959,odom,0.479999989271,0.0,0.0,0.329999983311,-0.264999985695,0.0,-0.539999961853,-0.264999985695,0.0,-0.539999961853,0.264999985695,0.0,0.329999983311,0.264999985695,0.0
1449617615042491318,80,1449617615037746027,odom,0.479999989271,0.0,0.0,0.329999983311,-0.264999985695,0.0,-0.539999961853,-0.264999985695,0.0,-0.539999961853,0.264999985695,0.0,0.329999983311,0.264999985695,0.0
1449617615217122737,81,1449617615216917103,odom,0.479999989271,0.0,0.0,0.329999983311,-0.264999985695,0.0,-0.539999961853,-0.264999985695,0.0,-0.539999961853,0.264999985695,0.0,0.329999983311,0.264999985695,0.0
1449617615467928275,82,1449617615467633571,odom,0.479999989271,0.0,0.0,0.329999983311,-0.264999985695,0.0,-0.539999961853,-0.264999985695,0.0,-0.539999961853,0.264999985695,0.0,0.329999983311,0.264999985695,0.0
1449617615659526421,83,1449617615658642430,odom,0.479999989271,0.0,0.0,0.329999983311,-0.264999985695,0.0,-0.539999961853,-0.264999985695,0.0,-0.539999961853,0.264999985695,0.0,0.329999983311,0.264999985695,0.0
1449617615841036559,84,1449617615840759982,odom,0.479999989271,0.0,0.0,0.329999983311,-0.264999985695,0.0,-0.539999961853,-0.264999985695,0.0,-0.539999961853,0.264999985695,0.0,0.329999983311,0.264999985695,0.0
1449617616058110627,85,1449617616057644993,odom,0.479999989271,0.0,0.0,0.329999983311,-0.264999985695,0.0,-0.539999961853,-0.264999985695,0.0,-0.539999961853,0.264999985695,0.0,0.329999983311,0.264999985695,0.0
1449617616217240331,86,1449617616216910030,odom,0.479999989271,0.0,0.0,0.329999983311,-0.264999985695,0.0,-0.539999961853,-0.264999985695,0.0,-0.539999961853,0.264999985695,0.0,0.329999983311,0.264999985695,0.0
1449617616413418152,87,1449617616412781254,odom,0.479999989271,0.0,0.0,0.329999983311,-0.264999985695,0.0,-0.539999961853,-0.264999985695,0.0,-0.539999961853,0.264999985695,0.0,0.329999983311,0.264999985695,0.0
1449617616609446229,88,1449617616609279970,odom,0.479999989271,0.0,0.0,0.329999983311,-0.264999985695,0.0,-0.539999961853,-0.264999985695,0.0,-0.539999961853,0.264999985695,0.0,0.329999983311,0.264999985695,0.0
1449617616837407044,89,1449617616837129962,odom,0.479999989271,0.0,0.0,0.329999983311,-0.264999985695,0.0,-0.539999961853,-0.264999985695,0.0,-0.539999961853,0.264999985695,0.0,0.329999983311,0.264999985695,0.0
1449617617024293587,90,1449617617023957859,odom,0.479999989271,0.0,0.0,0.329999983311,-0.264999985695,0.0,-0.539999961853,-0.264999985695,0.0,-0.539999961853,0.264999985695,0.0,0.329999983311,0.264999985695,0.0
1449617617222426254,91,1449617617218270365,odom,0.479999989271,0.0,0.0,0.329999983311,-0.264999985695,0.0,-0.539999961853,-0.264999985695,0.0,-0.539999961853,0.264999985695,0.0,0.329999983311,0.264999985695,0.0
1449617617445682479,92,1449617617445465548,odom,0.479999989271,0.0,0.0,0.329999983311,-0.264999985695,0.0,-0.539999961853,-0.264999985695,0.0,-0.539999961853,0.264999985695,0.0,0.329999983311,0.264999985695,0.0
1449617617641746037,93,1449617617641331949,odom,0.479999989271,0.0,0.0,0.329999983311,-0.264999985695,0.0,-0.539999961853,-0.264999985695,0.0,-0.539999961853,0.264999985695,0.0,0.329999983311,0.264999985695,0.0
1449617617824895003,94,1449617617824662626,odom,0.479999989271,0.0,0.0,0.329999983311,-0.264999985695,0.0,-0.539999961853,-0.264999985695,0.0,-0.539999961853,0.264999985695,0.0,0.329999983311,0.264999985695,0.0
1449617618020109673,95,1449617618019943727,odom,0.479999989271,0.0,0.0,0.329999983311,-0.264999985695,0.0,-0.539999961853,-0.264999985695,0.0,-0.539999961853,0.264999985695,0.0,0.329999983311,0.264999985695,0.0
1449617618237935297,96,1449617618237063549,odom,0.479999989271,0.0,0.0,0.329999983311,-0.264999985695,0.0,-0.539999961853,-0.264999985695,0.0,-0.539999961853,0.264999985695,0.0,0.329999983311,0.264999985695,0.0
1449617618421681205,97,1449617618421450457,odom,0.479999989271,0.0,0.0,0.329999983311,-0.264999985695,0.0,-0.539999961853,-0.264999985695,0.0,-0.539999961853,0.264999985695,0.0,0.329999983311,0.264999985695,0.0
1449617618637369212,98,1449617618636745225,odom,0.479999989271,0.0,0.0,0.329999983311,-0.264999985695,0.0,-0.539999961853,-0.264999985695,0.0,-0.539999961853,0.264999985695,0.0,0.329999983311,0.264999985695,0.0
1449617618893133921,99,1449617618892428168,odom,0.479999989271,0.0,0.0,0.329999983311,-0.264999985695,0.0,-0.539999961853,-0.264999985695,0.0,-0.539999961853,0.264999985695,0.0,0.329999983311,0.264999985695,0.0
1449617619045888908,100,1449617619043519696,odom,0.479999989271,0.0,0.0,0.329999983311,-0.264999985695,0.0,-0.539999961853,-0.264999985695,0.0,-0.539999961853,0.264999985695,0.0,0.329999983311,0.264999985695,0.0
1449617619231646304,101,1449617619229567134,odom,0.479999989271,0.0,0.0,0.329999983311,-0.264999985695,0.0,-0.539999961853,-0.264999985695,0.0,-0.539999961853,0.264999985695,0.0,0.329999983311,0.264999985695,0.0
1449617619441916672,102,1449617619433764161,odom,0.479999989271,0.0,0.0,0.329999983311,-0.264999985695,0.0,-0.539999961853,-0.264999985695,0.0,-0.539999961853,0.264999985695,0.0,0.329999983311,0.264999985695,0.0
1449617619655017327,103,1449617619651866474,odom,0.479999989271,0.0,0.0,0.329999983311,-0.264999985695,0.0,-0.539999961853,-0.264999985695,0.0,-0.539999961853,0.264999985695,0.0,0.329999983311,0.264999985695,0.0
1449617619890954429,104,1449617619889832626,odom,0.479999989271,0.0,0.0,0.329999983311,-0.264999985695,0.0,-0.539999961853,-0.264999985695,0.0,-0.539999961853,0.264999985695,0.0,0.329999983311,0.264999985695,0.0
1449617620052828944,105,1449617620052652160,odom,0.479999989271,0.0,0.0,0.329999983311,-0.264999985695,0.0,-0.539999961853,-0.264999985695,0.0,-0.539999961853,0.264999985695,0.0,0.329999983311,0.264999985695,0.0
1449617620224910224,106,1449617620224525417,odom,0.479999989271,0.0,0.0,0.329999983311,-0.264999985695,0.0,-0.539999961853,-0.264999985695,0.0,-0.539999961853,0.264999985695,0.0,0.329999983311,0.264999985695,0.0
1449617620509771762,107,1449617620506138967,odom,0.482852816582,0.00510300230235,0.0,0.335661679506,-0.261467367411,0.0,-0.534289717674,-0.27066141367,0.0,-0.539890646935,0.259308993816,0.0,0.330060720444,0.268503010273,0.0
1449617620681625100,108,1449617620678957502,odom,0.482852816582,0.00510300230235,0.0,0.335661679506,-0.261467367411,0.0,-0.534289717674,-0.27066141367,0.0,-0.539890646935,0.259308993816,0.0,0.330060720444,0.268503010273,0.0
1449617621041605762,109,1449617621041343371,odom,0.494370877743,0.00525516504422,0.0,0.347179710865,-0.261315196753,0.0,-0.522771656513,-0.270509243011,0.0,-0.528372645378,0.259461164474,0.0,0.341578751802,0.268655180931,0.0
1449617621398422873,110,1449617621396513982,odom,0.500129640102,0.00534646119922,0.0,0.352938503027,-0.261223912239,0.0,-0.517012894154,-0.270417958498,0.0,-0.522613823414,0.259552448988,0.0,0.347337543964,0.268746495247,0.0
1449617621553408977,111,1449617621553155559,odom,0.505888462067,0.00543775735423,0.0,0.358697295189,-0.261132627726,0.0,-0.511254072189,-0.270326644182,0.0,-0.516855061054,0.259643733501,0.0,0.353096336126,0.26883777976,0.0
1449617621817824860,112,1449617621817396474,odom,0.508795022964,0.00036518854904,0.0,0.358795017004,-0.264634817839,0.0,-0.511204957962,-0.264634817839,0.0,-0.511204957962,0.265365183353,0.0,0.358795017004,0.265365183353,0.0
1449617622044140473,113,1449617622042525078,odom,0.526073634624,0.000395621784264,0.0,0.376073628664,-0.264604359865,0.0,-0.493926346302,-0.264604359865,0.0,-0.493926346302,0.265395611525,0.0,0.376073628664,0.265395611525,0.0
1449617622446422836,114,1449617622446264288,odom,0.569020926952,-0.0155501589179,0.0,0.410696148872,-0.275662153959,0.0,-0.458866626024,-0.248084172606,0.0,-0.442066252232,0.281649470329,0.0,0.427496522665,0.254071503878,0.0
1449617622672835133,115,1449617622672511223,odom,0.634443223476,-0.0341268219054,0.0,0.467952758074,-0.289089381695,0.0,-0.400298833847,-0.233961135149,0.0,-0.366714954376,0.294973731041,0.0,0.501536607742,0.239845499396,0.0
1449617622859103501,116,1449617622858816415,odom,0.662405371666,-0.04646364972,0.0,0.490563541651,-0.297850579023,0.0,-0.376329004765,-0.22438454628,0.0,-0.331573843956,0.303722411394,0.0,0.535318732262,0.230256393552,0.0
1449617622951491995,117,1449617622951075689,odom,0.716451823711,-0.0563484430313,0.0,0.541962981224,-0.305905342102,0.0,-0.324104756117,-0.223282217979,0.0,-0.273771136999,0.304322302341,0.0,0.592296600342,0.221699178219,0.0
1449617623154056464,118,1449617623153585965,odom,0.766884982586,-0.0722980797291,0.0,0.587160825729,-0.318111479282,0.0,-0.276967287064,-0.21720290184,0.0,-0.21549423039,0.3092199862,0.0,0.648633897305,0.208311393857,0.0
1449617623411585339,119,1449617623411333818,odom,0.828388392925,-0.0908272787929,0.0,0.643509268761,-0.332787394524,0.0,-0.218293204904,-0.213638409972,0.0,-0.145708188415,0.311367690563,0.0,0.716094255447,0.192218706012,0.0
1449617623552834892,120,1449617623552619955,odom,0.889514327049,-0.110471718013,0.0,0.69956278801,-0.348470449448,0.0,-0.159529015422,-0.211134299636,0.0,-0.0758644640446,0.312220484018,0.0,0.783227324486,0.174884319305,0.0
1449617623777374967,121,1449617623777034878,odom,0.944538652897,-0.130404308438,0.0,0.749599516392,-0.364335358143,0.0,-0.1063978374,-0.208873391151,0.0,-0.0116911148652,0.312596291304,0.0,0.84430629015,0.157134309411,0.0
1449617623955576764,122,1449617623955311590,odom,1.0048314333,-0.152345374227,0.0,0.804991841316,-0.382104218006,0.0,-0.0475286990404,-0.208585888147,0.0,0.0581778846681,0.310765743256,0.0,0.910698473454,0.137247398496,0.0
1449617624201266998,123,1449617624200044610,odom,1.06305849552,-0.169342160225,0.0,0.860801935196,-0.396976321936,0.0,0.0101627176628,-0.214458346367,0.0,0.121351830661,0.303747177124,0.0,0.971991062164,0.121229216456,0.0
1449617624379289328,124,1449617624378897237,odom,1.11544692516,-0.185864314437,0.0,0.910796105862,-0.411348342896,0.0,0.0621331594884,-0.219851136208,0.0,0.178792387247,0.297150433064,0.0,1.0274553299,0.105653218925,0.0
1449617624545504949,125,1449617624545178656,odom,1.17882585526,-0.205771207809,0.0,0.971803605556,-0.429079920053,0.0,0.125211805105,-0.228624850512,0.0,0.24732811749,0.287115007639,0.0,1.09391999245,0.086659938097,0.0
1449617624757876676,126,1449617624757586118,odom,1.23640787601,-0.224930971861,0.0,1.02703726292,-0.446039438248,0.0,0.182611107826,-0.236648902297,0.0,0.310170859098,0.277771651745,0.0,1.15459704399,0.0683811157942,0.0
1449617624938585319,127,1449617624938165379,odom,1.29376173019,-0.244786694646,0.0,1.08206617832,-0.463670194149,0.0,0.23989996314,-0.245367601514,0.0,0.372888892889,0.267676174641,0.0,1.21505510807,0.0493735857308,0.0
1449617625144882462,128,1449617625144570079,odom,1.35089468956,-0.265276819468,0.0,1.13689792156,-0.481910943985,0.0,0.297085672617,-0.254720658064,0.0,0.435488969088,0.256889075041,0.0,1.27530121803,0.0296987872571,0.0
1449617625359012958,129,1449617625354415348,odom,1.40781617165,-0.286340236664,0.0,1.19154191017,-0.500700771809,0.0,0.354177474976,-0.264648169279,0.0,0.497979640961,0.245470374823,0.0,1.33534407616,0.00941775087267,0.0
1449617625543538033,130,1449617625543338525,odom,1.46444439888,-0.30823802948,0.0,1.24591696262,-0.520301043987,0.0,0.411093860865,-0.2754124403,0.0,0.560278892517,0.233157917857,0.0,1.39510190487,-0.0117306606844,0.0
1449617625732753765,131,1449617625732377519,odom,1.52088177204,-0.330587208271,0.0,1.30012536049,-0.540329039097,0.0,0.467936933041,-0.286631822586,0.0,0.622488081455,0.220333576202,0.0,1.45467662811,-0.0333636179566,0.0
1449617625943606304,132,1449617625942021453,odom,1.57161569595,-0.35170674324,0.0,1.34865510464,-0.559103906155,0.0,0.519194126129,-0.296626448631,0.0,0.679094195366,0.208677381277,0.0,1.50855517387,-0.0538000948727,0.0
1449617626130943881,133,1449617626130584398,odom,1.61661362648,-0.371681511402,0.0,1.39147377014,-0.576710879803,0.0,0.564832985401,-0.305482447147,0.0,0.730064094067,0.198103353381,0.0,1.55670487881,-0.0731250867248,0.0
1449617626349011572,134,1449617626346326362,odom,1.65053009987,-0.38830858469,0.0,1.42323613167,-0.590947270393,0.0,0.599507749081,-0.310998171568,0.0,0.770051419735,0.1908133775,0.0,1.59377980232,-0.0891357287765,0.0
1449617626674326205,135,1449617626670904278,odom,1.67881560326,-0.403439849615,0.0,1.44939291477,-0.603665173054,0.0,0.628668963909,-0.315026670694,0.0,0.804506242275,0.184954568744,0.0,1.62523019314,-0.103683948517,0.0
1449617626848137436,136,1449617626845531051,odom,1.71244394779,-0.420579105616,0.0,1.48091804981,-0.61836874485,0.0,0.663290262222,-0.32107308507,0.0,0.844401419163,0.177022024989,0.0,1.66202914715,-0.120273664594,0.0
1449617627051128775,137,1449617627049498004,odom,1.73859202862,-0.424430191517,0.0,1.50916934013,-0.624655544758,0.0,0.688445389271,-0.336017042398,0.0,0.864282608032,0.16396419704,0.0,1.68500649929,-0.12467431277,0.0
1449617627389456221,138,1449617627389080762,odom,1.77118206024,-0.435923963785,0.0,1.54175925255,-0.636149287224,0.0,0.72103536129,-0.347510784864,0.0,0.896872580051,0.152470454574,0.0,1.71759653091,-0.136168062687,0.0
1449617627579246369,139,1449617627578407683,odom,1.80818641186,-0.443464040756,0.0,1.58089232445,-0.64610272646,0.0,0.757164001465,-0.366153597832,0.0,0.927707731724,0.135657951236,0.0,1.75143611431,-0.144291162491,0.0
1449617628073843599,140,1449617628072949826,odom,1.8452385664,-0.450698912144,0.0,1.62009871006,-0.655728280544,0.0,0.79345780611,-0.384499847889,0.0,0.95868897438,0.11908596009,0.0,1.78532981873,-0.152142480016,0.0
1449617628207384171,141,1449617628206946449,odom,1.9458963871,-0.466399073601,0.0,1.72736895084,-0.678462088108,0.0,0.892545878887,-0.433573514223,0.0,1.04173088074,0.0749968588352,0.0,1.87655389309,-0.169891729951,0.0
1449617628470560456,142,1449617628466932250,odom,2.00410795212,-0.472173511982,0.0,1.79011118412,-0.688807666302,0.0,0.950299024582,-0.461617350578,0.0,1.08870232105,0.0499923862517,0.0,1.92851448059,-0.177197918296,0.0
1449617628765189612,143,1449617628760140636,odom,2.06806397438,-0.477925598621,0.0,1.85869336128,-0.699034035206,0.0,1.01426708698,-0.489643543959,0.0,1.14182686806,0.0247770063579,0.0,1.98625302315,-0.184613510966,0.0
1449617628954652623,144,1449617628952192608,odom,2.12486863136,-0.475112438202,0.0,1.92261219025,-0.70274657011,0.0,1.07197296619,-0.520228624344,0.0,1.18316209316,-0.00202308245935,0.0,2.03380131721,-0.184541046619,0.0
1449617629133108919,145,1449617629132743091,odom,2.19280338287,-0.473006725311,0.0,1.99786436558,-0.706937730312,0.0,1.14186692238,-0.551475763321,0.0,1.23657369614,-0.0300061032176,0.0,2.09257102013,-0.18546807766,0.0
1449617629238022360,146,1449617629237507030,odom,2.2418615818,-0.476698994637,0.0,2.0494055748,-0.712677061558,0.0,1.19181311131,-0.566269814968,0.0,1.28100371361,-0.0438284315169,0.0,2.13859629631,-0.190235674381,0.0
1449617629465801007,147,1449617629465501302,odom,2.28327870369,-0.473015248775,0.0,2.09585285187,-0.713008105755,0.0,1.23535776138,-0.584758341312,0.0,1.31348693371,-0.0605486407876,0.0,2.1739821434,-0.188798367977,0.0
1449617629827074959,148,1449617629826630167,odom,2.38867783546,-0.466000318527,0.0,2.21156144142,-0.71369934082,0.0,1.3464152813,-0.621928334236,0.0,1.40232169628,-0.0948852151632,0.0,2.26746797562,-0.186656191945,0.0
1449617630238242694,149,1449617630236682669,odom,2.53631448746,-0.463942706585,0.0,2.36713886261,-0.717131614685,0.0,1.49951839447,-0.652830839157,0.0,1.53869009018,-0.124280422926,0.0,2.40631055832,-0.18858115375,0.0
1449617630451040221,150,1449617630450573677,odom,2.59701061249,-0.462805211544,0.0,2.43052005768,-0.717767775059,0.0,1.56226849556,-0.662639498711,0.0,1.59585237503,-0.133704632521,0.0,2.46410393715,-0.188832893968,0.0
1449617630789974067,151,1449617630783048661,odom,2.65768408775,-0.461147874594,0.0,2.49389719963,-0.717855632305,0.0,1.6251115799,-0.67190605402,0.0,1.65310394764,-0.142645776272,0.0,2.52188968658,-0.188595384359,0.0
1449617630945869648,152,1449617630944931891,odom,2.72095823288,-0.464342027903,0.0,2.55717158318,-0.721049785614,0.0,1.68838584423,-0.675100207329,0.0,1.71637821198,-0.145839929581,0.0,2.58516383171,-0.191789552569,0.0
1449617631073110275,153,1449617631072692419,odom,2.76697063446,-0.466775596142,0.0,2.60318398476,-0.723483383656,0.0,1.73439824581,-0.677533745766,0.0,1.76239049435,-0.148273512721,0.0,2.63117623329,-0.194223120809,0.0
1449617631215387983,154,1449617631213232483,odom,2.82129454613,-0.475094139576,0.0,2.65480399132,-0.730056703091,0.0,1.7865524292,-0.674928426743,0.0,1.82013630867,-0.145993560553,0.0,2.68838787079,-0.201121822,0.0
1449617631541707378,155,1449617631540926367,odom,2.87876415253,-0.478895545006,0.0,2.71227383614,-0.733858108521,0.0,1.84402215481,-0.678729891777,0.0,1.87760603428,-0.149794980884,0.0,2.74585771561,-0.204923227429,0.0
1449617631622068349,156,1449617631619099877,odom,2.93624424934,-0.482545167208,0.0,2.76975393295,-0.73750770092,0.0,1.90150225163,-0.682379484177,0.0,1.9350861311,-0.153444588184,0.0,2.80333781242,-0.208572849631,0.0
1449617631848908770,157,1449617631848607590,odom,2.98472499847,-0.491133064032,0.0,2.81554937363,-0.744321942329,0.0,1.94792890549,-0.680021226406,0.0,1.9871006012,-0.151470780373,0.0,2.85472106934,-0.215771511197,0.0
1449617632032259939,158,1449617632032065893,odom,3.02493190765,-0.494112849236,0.0,2.85575628281,-0.747301757336,0.0,1.98813569546,-0.683001041412,0.0,2.02730751038,-0.154450580478,0.0,2.89492797852,-0.218751311302,0.0
1449617632292572552,159,1449617632288274626,odom,3.07088875771,-0.497427254915,0.0,2.90171313286,-0.750616133213,0.0,2.03409266472,-0.68631541729,0.0,2.07326436043,-0.157764971256,0.0,2.94088482857,-0.222065702081,0.0
1449617632570808007,160,1449617632570564033,odom,3.1111061573,-0.500255227089,0.0,2.94193053246,-0.753444135189,0.0,2.07431006432,-0.689143419266,0.0,2.11348176003,-0.160592958331,0.0,2.98110222816,-0.224893674254,0.0
1449617632654874507,161,1449617632654596735,odom,3.14879536629,-0.497870415449,0.0,2.9823050499,-0.752833008766,0.0,2.11405324936,-0.697704732418,0.0,2.14763712883,-0.168769851327,0.0,3.01588892937,-0.223898112774,0.0
1449617632846542491,162,1449617632844383214,odom,3.1717748642,-0.499512434006,0.0,3.00528454781,-0.75447499752,0.0,2.13703298569,-0.699346780777,0.0,2.17061686516,-0.170411869884,0.0,3.03886842728,-0.225540116429,0.0
1449617633087794010,163,1449617633086587871,odom,3.19475865364,-0.501093745232,0.0,3.02826809883,-0.756056308746,0.0,2.16001653671,-0.700928032398,0.0,2.19360041618,-0.171993166208,0.0,3.0618519783,-0.227121412754,0.0
1449617633245707070,164,1449617633244200870,odom,3.21774435043,-0.502644658089,0.0,3.05125403404,-0.757607221603,0.0,2.18300223351,-0.702478945255,0.0,2.21658611298,-0.173544093966,0.0,3.08483791351,-0.228672340512,0.0
1449617633402116225,165,1449617633401840815,odom,3.23750185966,-0.509164869785,0.0,3.06832623482,-0.762353777885,0.0,2.20070552826,-0.698053002357,0.0,2.23987746239,-0.169502586126,0.0,3.10749793053,-0.233803316951,0.0
1449617633671960869,166,1449617633671644891,odom,3.24899578094,-0.509925127029,0.0,3.0798201561,-0.76311403513,0.0,2.21219968796,-0.698813319206,0.0,2.25137138367,-0.170262873173,0.0,3.11899185181,-0.234563603997,0.0
1449617633791922415,167,1449617633791626969,odom,3.2547416687,-0.510320484638,0.0,3.08556604385,-0.763509333134,0.0,2.21794557571,-0.69920861721,0.0,2.25711727142,-0.170658186078,0.0,3.12473773956,-0.234958916903,0.0
1449617634124535424,168,1449617634124194685,odom,3.25221586227,-0.505077302456,0.0,3.08572530746,-0.760039865971,0.0,2.21747374535,-0.704911649227,0.0,2.25105762482,-0.175976753235,0.0,3.11930918694,-0.231104999781,0.0
1449617634197457023,169,1449617634195329612,odom,3.25221586227,-0.505077302456,0.0,3.08572530746,-0.760039865971,0.0,2.21747374535,-0.704911649227,0.0,2.25105762482,-0.175976753235,0.0,3.11930918694,-0.231104999781,0.0
1449617634408930363,170,1449617634408464012,odom,3.25221586227,-0.505077302456,0.0,3.08572530746,-0.760039865971,0.0,2.21747374535,-0.704911649227,0.0,2.25105762482,-0.175976753235,0.0,3.11930918694,-0.231104999781,0.0
1449617634596198290,171,1449617634590062236,odom,3.25221586227,-0.505077302456,0.0,3.08572530746,-0.760039865971,0.0,2.21747374535,-0.704911649227,0.0,2.25105762482,-0.175976753235,0.0,3.11930918694,-0.231104999781,0.0
1449617634804122293,172,1449617634803894607,odom,3.25221586227,-0.505077302456,0.0,3.08572530746,-0.760039865971,0.0,2.21747374535,-0.704911649227,0.0,2.25105762482,-0.175976753235,0.0,3.11930918694,-0.231104999781,0.0
1449617634994868335,173,1449617634994298712,odom,3.25221586227,-0.505077302456,0.0,3.08572530746,-0.760039865971,0.0,2.21747374535,-0.704911649227,0.0,2.25105762482,-0.175976753235,0.0,3.11930918694,-0.231104999781,0.0
1449617635190738694,174,1449617635190475634,odom,3.25221586227,-0.505077302456,0.0,3.08572530746,-0.760039865971,0.0,2.21747374535,-0.704911649227,0.0,2.25105762482,-0.175976753235,0.0,3.11930918694,-0.231104999781,0.0
1449617635391521703,175,1449617635391248452,odom,3.25221586227,-0.505077302456,0.0,3.08572530746,-0.760039865971,0.0,2.21747374535,-0.704911649227,0.0,2.25105762482,-0.175976753235,0.0,3.11930918694,-0.231104999781,0.0
1449617635584605433,176,1449617635584310765,odom,3.25221586227,-0.505077302456,0.0,3.08572530746,-0.760039865971,0.0,2.21747374535,-0.704911649227,0.0,2.25105762482,-0.175976753235,0.0,3.11930918694,-0.231104999781,0.0
1449617635797078607,177,1449617635796869695,odom,3.25221586227,-0.505077302456,0.0,3.08572530746,-0.760039865971,0.0,2.21747374535,-0.704911649227,0.0,2.25105762482,-0.175976753235,0.0,3.11930918694,-0.231104999781,0.0
1449617635995519462,178,1449617635995141580,odom,3.25221586227,-0.505077302456,0.0,3.08572530746,-0.760039865971,0.0,2.21747374535,-0.704911649227,0.0,2.25105762482,-0.175976753235,0.0,3.11930918694,-0.231104999781,0.0
1449617636184161222,179,1449617636183975613,odom,3.25221586227,-0.505077302456,0.0,3.08572530746,-0.760039865971,0.0,2.21747374535,-0.704911649227,0.0,2.25105762482,-0.175976753235,0.0,3.11930918694,-0.231104999781,0.0
1449617636384994135,180,1449617636384789033,odom,3.25473952293,-0.510350823402,0.0,3.08556389809,-0.763539731503,0.0,2.21794342995,-0.699239015579,0.0,2.25711512566,-0.170688554645,0.0,3.1247355938,-0.234989285469,0.0
1449617636588101944,181,1449617636587930048,odom,3.25221371651,-0.505107700825,0.0,3.0857231617,-0.760070264339,0.0,2.21747159958,-0.704941987991,0.0,2.25105547905,-0.1760071069,0.0,3.11930704117,-0.231135368347,0.0
1449617636804535918,182,1449617636804206886,odom,3.25221371651,-0.505107700825,0.0,3.0857231617,-0.760070264339,0.0,2.21747159958,-0.704941987991,0.0,2.25105547905,-0.1760071069,0.0,3.11930704117,-0.231135368347,0.0
1449617637054445113,183,1449617637053826117,odom,3.25221371651,-0.505107700825,0.0,3.0857231617,-0.760070264339,0.0,2.21747159958,-0.704941987991,0.0,2.25105547905,-0.1760071069,0.0,3.11930704117,-0.231135368347,0.0
1449617637230513276,184,1449617637229289365,odom,3.25221371651,-0.505107700825,0.0,3.0857231617,-0.760070264339,0.0,2.21747159958,-0.704941987991,0.0,2.25105547905,-0.1760071069,0.0,3.11930704117,-0.231135368347,0.0
1449617637560403186,185,1449617637559828269,odom,3.25221371651,-0.505107700825,0.0,3.0857231617,-0.760070264339,0.0,2.21747159958,-0.704941987991,0.0,2.25105547905,-0.1760071069,0.0,3.11930704117,-0.231135368347,0.0
1449617637694045498,186,1449617637693475910,odom,3.25473737717,-0.510381221771,0.0,3.08556175232,-0.763570070267,0.0,2.21794128418,-0.699269354343,0.0,2.25711297989,-0.17071890831,0.0,3.12473344803,-0.235019639134,0.0
1449617638042972093,187,1449617638042266370,odom,3.2662293911,-0.51117181778,0.0,3.09705376625,-0.76436072588,0.0,2.22943305969,-0.700060009956,0.0,2.2686047554,-0.171509563923,0.0,3.13622546196,-0.235810294747,0.0
1449617638204974033,188,1449617638200868498,odom,3.2834649086,-0.512388169765,0.0,3.11428928375,-0.765577077866,0.0,2.24666881561,-0.701276302338,0.0,2.28584051132,-0.172725886106,0.0,3.15346097946,-0.237026616931,0.0
1449617638467644451,189,1449617638467366954,odom,3.30069851875,-0.513634860516,0.0,3.13152289391,-0.766823768616,0.0,2.26390242577,-0.702522993088,0.0,2.30307412148,-0.173972576857,0.0,3.17069458961,-0.238273307681,0.0
1449617638640872695,190,1449617638639363234,odom,3.33264398575,-0.510824382305,0.0,3.16615366936,-0.76578694582,0.0,2.29790210724,-0.710658669472,0.0,2.33148598671,-0.181723803282,0.0,3.19973754883,-0.236852049828,0.0
1449617638792508225,191,1449617638790182862,odom,3.37537455559,-0.519077658653,0.0,3.20619916916,-0.772266566753,0.0,2.3385784626,-0.70796585083,0.0,2.37775015831,-0.179415404797,0.0,3.24537086487,-0.24371612072,0.0
1449617638875317544,192,1449617638873508763,odom,3.39260625839,-0.520354747772,0.0,3.22343063354,-0.773543596268,0.0,2.35580992699,-0.709242880344,0.0,2.39498186111,-0.180692449212,0.0,3.26260232925,-0.244993180037,0.0
1449617639078070623,193,1449617639074623454,odom,3.42706918716,-0.522908866405,0.0,3.25789356232,-0.776097714901,0.0,2.39027309418,-0.711796998978,0.0,2.42944478989,-0.183246552944,0.0,3.29706525803,-0.247547283769,0.0
1449617639345511695,194,1449617639344528189,odom,3.49025130272,-0.527591347694,0.0,3.32107567787,-0.780780255795,0.0,2.45345520973,-0.716479539871,0.0,2.49262690544,-0.187929093838,0.0,3.36024737358,-0.252229809761,0.0
1449617639575240807,195,1449617639574210397,odom,3.55343341827,-0.532273888588,0.0,3.38425779343,-0.785462796688,0.0,2.51663732529,-0.721162080765,0.0,2.555809021,-0.19261161983,0.0,3.42342972755,-0.256912350655,0.0
1449617639829873255,196,1449617639828177233,odom,3.62810325623,-0.537807822227,0.0,3.4589278698,-0.790996670723,0.0,2.59130716324,-0.7266959548,0.0,2.63047885895,-0.198145523667,0.0,3.49809956551,-0.262446254492,0.0
1449617640112145408,197,1449617640111293728,odom,3.68554162979,-0.542064666748,0.0,3.51636600494,-0.795253515244,0.0,2.6487455368,-0.73095279932,0.0,2.68791723251,-0.202402368188,0.0,3.55553770065,-0.266703099012,0.0
1449617640352204560,198,1449617640350349947,odom,3.74298000336,-0.546321511269,0.0,3.57380437851,-0.799510359764,0.0,2.70618391037,-0.735209643841,0.0,2.74535560608,-0.206659212708,0.0,3.61297607422,-0.270959943533,0.0
1449617640576288764,199,1449617640572925462,odom,3.81764888763,-0.551855325699,0.0,3.64847326279,-0.805044233799,0.0,2.78085279465,-0.740743458271,0.0,2.82002449036,-0.21219304204,0.0,3.6876449585,-0.276493757963,0.0
1449617641103257277,200,1449617641102962574,odom,3.90446305275,-0.547903239727,0.0,3.74067616463,-0.804611027241,0.0,2.87189054489,-0.758661389351,0.0,2.89988279343,-0.229401156306,0.0,3.76866841316,-0.275350779295,0.0
1449617641388778954,201,1449617641387766100,odom,3.93634772301,-0.544296622276,0.0,3.7752828598,-0.802720963955,0.0,2.90606021881,-0.765955090523,0.0,2.92845773697,-0.236428573728,0.0,3.79768061638,-0.273194432259,0.0
1449617641528137408,202,1449617641525214252,odom,3.98284220695,-0.524833619595,0.0,3.83284211159,-0.789833605289,0.0,2.96284222603,-0.789833605289,0.0,2.96284222603,-0.2598336339,0.0,3.83284211159,-0.2598336339,0.0
1449617641785620112,203,1449617641783208119,odom,4.03366756439,-0.492379754782,0.0,3.90076112747,-0.766352057457,0.0,3.03250932693,-0.821480333805,0.0,2.99892544746,-0.292545437813,0.0,3.867177248,-0.237417176366,0.0
1449617642001802916,204,1449617641997468990,odom,4.0858669281,-0.462077587843,0.0,3.9676156044,-0.742687046528,0.0,3.10348749161,-0.843595683575,0.0,3.04201436043,-0.317172765732,0.0,3.90614247322,-0.21626418829,0.0
1449617642140713705,205,1449617642138494549,odom,4.13254356384,-0.423707693815,0.0,4.03231143951,-0.711246311665,0.0,3.17631387711,-0.866708278656,0.0,3.08160710335,-0.345238626003,0.0,3.93760466576,-0.189776644111,0.0
1449617642388892410,206,1449617642388640611,odom,4.17263841629,-0.378174304962,0.0,4.09393215179,-0.672334551811,0.0,3.251765728,-0.890637159348,0.0,3.11877679825,-0.377593398094,0.0,3.96094298363,-0.159290790558,0.0
1449617642602730998,207,1449617642597778803,odom,4.20710611343,-0.34176170826,0.0,4.14404582977,-0.639668345451,0.0,3.31458473206,-0.902145862579,0.0,3.15468478203,-0.396842002869,0.0,3.98414564133,-0.134364545345,0.0
1449617642692415435,208,1449617642692054942,odom,4.23227787018,-0.317135065794,0.0,4.17869234085,-0.616890966892,0.0,3.35796833038,-0.905529499054,0.0,3.18213105202,-0.405548214912,0.0,4.00285482407,-0.116909712553,0.0
1449617642888011345,209,1449617642887601427,odom,4.26816749573,-0.281655937433,0.0,4.22729730606,-0.583408534527,0.0,3.41950416565,-0.906472682953,0.0,3.22269511223,-0.414368897676,0.0,4.03048801422,-0.0913047790527,0.0
1449617643110023175,210,1449617643108829777,odom,4.30688619614,-0.254688024521,0.0,4.27240228653,-0.557236969471,0.0,3.47161769867,-0.897301316261,0.0,3.26445221901,-0.409466892481,0.0,4.06523704529,-0.0694025978446,0.0
1449617643314980535,211,1449617643310781767,odom,4.35023117065,-0.224432915449,0.0,4.32214975357,-0.527643144131,0.0,3.52873086929,-0.884555637836,0.0,3.31130123138,-0.40120857954,0.0,4.10472011566,-0.0442960262299,0.0
1449617643486718433,212,1449617643486451218,odom,4.39807701111,-0.190684959292,0.0,4.37641000748,-0.494420915842,0.0,3.59071159363,-0.86802226305,0.0,3.36311531067,-0.389378428459,0.0,4.14881372452,-0.0157770644873,0.0
1449617643710279739,213,1449617643710168569,odom,4.4454126358,-0.156370863318,0.0,4.43016958237,-0.460496902466,0.0,3.65254282951,-0.850620150566,0.0,3.41488146782,-0.376893341541,0.0,4.19250869751,0.0132299102843,0.0
1449617643882697997,214,1449617643882295186,odom,4.49201965332,-0.127313673496,0.0,4.47999191284,-0.431583821774,0.0,3.7065308094,-0.829903125763,0.0,3.46387648582,-0.35871437192,0.0,4.23733758926,0.0396049655974,0.0
1449617644096956004,215,1449617644093151714,odom,4.54343700409,-0.095128916204,0.0,4.53462505341,-0.399509191513,0.0,3.76541686058,-0.805980086327,0.0,3.51779675484,-0.337381958961,0.0,4.28700494766,0.0690889582038,0.0
1449617644282398172,216,1449617644282178595,odom,4.589366436,-0.0710994750261,0.0,4.58055448532,-0.375479727983,0.0,3.8113462925,-0.781950652599,0.0,3.56372618675,-0.313352495432,0.0,4.33293437958,0.0931183993816,0.0
1449617644497770926,217,1449617644497333626,odom,4.64016056061,-0.0439487360418,0.0,4.63134860992,-0.348329007626,0.0,3.8621404171,-0.754799902439,0.0,3.61452007294,-0.286201775074,0.0,4.38372850418,0.120269142091,0.0
1449617644686974044,218,1449617644686561905,odom,4.69086170197,-0.0105247776955,0.0,4.68526649475,-0.314981162548,0.0,3.92039680481,-0.729558229446,0.0,3.66783857346,-0.26360309124,0.0,4.4327082634,0.15097399056,0.0
1449617644879013840,219,1449617644878760583,odom,4.73624658585,0.0205025542527,0.0,4.73386955261,-0.283995956182,0.0,3.97342371941,-0.706632912159,0.0,3.71595525742,-0.243372783065,0.0,4.47640132904,0.179264172912,0.0
1449617645082711946,220,1449617645082522653,odom,4.78137636185,0.0518751628697,0.0,4.78221702576,-0.252631485462,0.0,4.0262799263,-0.683281123638,0.0,3.76393032074,-0.222767740488,0.0,4.5198674202,0.207881912589,0.0
1449617645279467566,221,1449617645278995449,odom,4.83122158051,0.0864948406816,0.0,4.8352804184,-0.217985898256,0.0,4.08393669128,-0.656600117683,0.0,3.81673502922,-0.198884934187,0.0,4.56807851791,0.23972928524,0.0
1449617645479800758,222,1449617645478568822,odom,4.8660402298,0.106820881367,0.0,4.87009906769,-0.197659865022,0.0,4.11875486374,-0.63627409935,0.0,3.85155344009,-0.178558900952,0.0,4.60289716721,0.260055333376,0.0
1449617645679561692,223,1449617645679390569,odom,4.91554784775,0.141912981868,0.0,4.92282390594,-0.162507861853,0.0,4.17615747452,-0.609037697315,0.0,3.90413355827,-0.154171794653,0.0,4.65080022812,0.292358011007,0.0
1449617645893619970,224,1449617645893370953,odom,4.95489025116,0.171457856894,0.0,4.96538352966,-0.13286909461,0.0,4.22347736359,-0.587264657021,0.0,3.94666147232,-0.135298877954,0.0,4.6885676384,0.319096684456,0.0
1449617646086148646,225,1449617646085567505,odom,4.98900699615,0.198408648372,0.0,5.00271511078,-0.105790428817,0.0,4.26565265656,-0.568000972271,0.0,3.9840760231,-0.118985764682,0.0,4.72113895416,0.34322476387,0.0
1449617646289319395,226,1449617646289075982,odom,5.02273893356,0.225872650743,0.0,5.03966140747,-0.078164562583,0.0,4.30752420425,-0.548138439655,0.0,4.02121829987,-0.102123998106,0.0,4.75335550308,0.367849886417,0.0
1449617646487792719,227,1449617646487447447,odom,5.05501365662,0.265755861998,0.0,5.08156490326,-0.0375921353698,0.0,4.36469364166,-0.530537724495,0.0,4.06439352036,-0.0938229784369,0.0,4.78126478195,0.399122625589,0.0
1449617646676232989,228,1449617646676027550,odom,5.08522844315,0.312516570091,0.0,5.12457561493,0.0105616096407,0.0,4.42917633057,-0.512238323689,0.0,4.11068916321,-0.0886042714119,0.0,4.80608844757,0.434195667505,0.0
1449617646879710860,229,1449617646879426553,odom,5.11796951294,0.36406993866,0.0,5.1700425148,0.0640475153923,0.0,4.49735736847,-0.487672686577,0.0,4.16125202179,-0.0778762251139,0.0,4.83393669128,0.473843991756,0.0
1449617647089985709,230,1449617647089778654,odom,5.14392805099,0.413444548845,0.0,5.20863294601,0.115890733898,0.0,4.55986452103,-0.463763982058,0.0,4.20674180984,-0.0685372948647,0.0,4.85551023483,0.511117398739,0.0
1449617647278729744,231,1449617647278499668,odom,5.16616010666,0.46963006258,0.0,5.24649000168,0.175908967853,0.0,4.62924194336,-0.437201857567,0.0,4.25573778152,-0.0611772015691,0.0,4.87298583984,0.551933586597,0.0
1449617647479516024,232,1449617647479300840,odom,5.18926143646,0.51548075676,0.0,5.27886152267,0.224453628063,0.0,4.68135881424,-0.407915115356,0.0,4.29612255096,-0.0439190901816,0.0,4.8936252594,0.588449656963,0.0
1449617647685072181,233,1449617647684787788,odom,5.20309734344,0.553563892841,0.0,5.30187797546,0.265523284674,0.0,4.7247209549,-0.38546782732,0.0,4.32813978195,-0.0338662602007,0.0,4.90529727936,0.617124855518,0.0
1449617647880737417,234,1449617647880439183,odom,5.21951913834,0.59639775753,0.0,5.32738018036,0.311633110046,0.0,4.77114868164,-0.357326060534,0.0,4.36362171173,-0.0184723250568,0.0,4.91985368729,0.650486826897,0.0
1449617648080577736,235,1449617648080305178,odom,5.24434328079,0.643024742603,0.0,5.35819911957,0.360603243113,0.0,4.81622982025,-0.3199621737,0.0,4.4016327858,0.0102029712871,0.0,4.94360160828,0.690768420696,0.0
1449617648284723979,236,1449617648284456965,odom,5.26803350449,0.690278887749,0.0,5.3878326416,0.410326808691,0.0,4.86036777496,-0.281540900469,0.0,4.43888521194,0.0397881940007,0.0,4.96635007858,0.73165589571,0.0
1449617648477660532,237,1449617648477254527,odom,5.29669475555,0.737194061279,0.0,5.41944599152,0.458523660898,0.0,4.89932203293,-0.238879576325,0.0,4.47446727753,0.0779774039984,0.0,4.99459075928,0.77538061142,0.0
1449617648690275032,238,1449617648690108269,odom,5.31957387924,0.795256018639,0.0,5.45109653473,0.520616650581,0.0,4.95334100723,-0.192923411727,0.0,4.51865577698,0.110306940973,0.0,5.01641130447,0.823846995831,0.0
1449617648878233591,239,1449617648877078004,odom,5.34655237198,0.843115091324,0.0,5.48096990585,0.569881021976,0.0,4.99078273773,-0.148879438639,0.0,4.55291748047,0.149740278721,0.0,5.04310464859,0.868500709534,0.0
1449617649080502117,240,1449617649077936670,odom,5.36688756943,0.891855895519,0.0,5.50705003738,0.621523678303,0.0,5.03216314316,-0.107436090708,0.0,4.58808422089,0.181862846017,0.0,5.06297111511,0.910822629929,0.0
1449617649273285901,241,1449617649273067270,odom,5.39220809937,0.940629243851,0.0,5.5352191925,0.671793401241,0.0,5.06806230545,-0.0621442086995,0.0,4.62095117569,0.222445622087,0.0,5.08810806274,0.956383228302,0.0
1449617649476400541,242,1449617649476070241,odom,5.41067743301,0.990182459354,0.0,5.55933856964,0.72442907095,0.0,5.10779762268,-0.0192177016288,0.0,4.65477132797,0.255859076977,0.0,5.10631227493,0.999505877495,0.0
1449617649670606379,243,1449617649670318059,odom,5.43441295624,1.03974962234,0.0,5.58587408066,0.775582134724,0.0,5.14221715927,0.027205048129,0.0,4.68630933762,0.297478944063,0.0,5.129966259,1.04585599899,0.0
1449617649872091492,244,1449617649871893146,odom,5.46040248871,1.09461152554,0.0,5.61464738846,0.832059442997,0.0,5.17892360687,0.0790356472135,0.0,4.72018480301,0.344476491213,0.0,5.15590858459,1.09750032425,0.0
1449617650084166798,245,1449617650083926422,odom,5.48290014267,1.144775033,0.0,5.63991069794,0.883867621422,0.0,5.21216917038,0.126281186938,0.0,4.75065135956,0.386859327555,0.0,5.17839241028,1.14444577694,0.0
1449617650283024805,246,1449617650282707179,odom,5.50145196915,1.20030868053,0.0,5.6639418602,0.942777872086,0.0,5.25230693817,0.176320537925,0.0,4.785384655,0.427086502314,0.0,5.19701957703,1.19354379177,0.0
1449617650477827225,247,1449617650477554659,odom,5.52261686325,1.25101745129,0.0,5.68781900406,0.995218217373,0.0,5.28430747986,0.224453613162,0.0,4.8147611618,0.470271199942,0.0,5.218272686,1.24103581905,0.0
1449617650694316668,248,1449617650694000541,odom,5.54297447205,1.30208683014,0.0,5.7108707428,1.04804766178,0.0,5.31552648544,0.273061901331,0.0,4.84340906143,0.513903677464,0.0,5.23875284195,1.28888952732,0.0
1449617650880109880,249,1449617650879698933,odom,5.56033706665,1.34815585613,0.0,5.73090839386,1.09590518475,0.0,5.34377670288,0.316784709692,0.0,4.86914014816,0.552623748779,0.0,5.25627183914,1.33174419403,0.0
1449617651080246186,250,1449617651079820330,odom,5.57593011856,1.40459179878,0.0,5.75179433823,1.15600240231,0.0,5.38121509552,0.368874102831,0.0,4.90170049667,0.594629228115,0.0,5.27227973938,1.381757617,0.0
1449617651286452967,251,1449617651286181317,odom,5.59781646729,1.45158016682,0.0,5.77368116379,1.20299077034,0.0,5.40310192108,0.415862441063,0.0,4.9235868454,0.641617596149,0.0,5.2941660881,1.42874586582,0.0
1449617651483834881,252,1449617651483682894,odom,5.6134057045,1.49831533432,0.0,5.79188728333,1.25159823895,0.0,5.42964696884,0.460597723722,0.0,4.94777297974,0.681272804737,0.0,5.31001329422,1.47227334976,0.0
1449617651686961309,253,1449617651686523468,odom,5.62849998474,1.54521250725,0.0,5.80957889557,1.30039548874,0.0,5.45571804047,0.505611002445,0.0,4.97153902054,0.721181452274,0.0,5.32539987564,1.51596593857,0.0
1449617651902518114,254,1449617651902130972,odom,5.64092254639,1.58693289757,0.0,5.82457876205,1.34404313564,0.0,5.47913694382,0.545563459396,0.0,4.99270677567,0.756005108356,0.0,5.3381485939,1.554484725,0.0
1449617652111326386,255,1449617652111020214,odom,5.64950037003,1.63330566883,0.0,5.83824872971,1.3943516016,0.0,5.50975942612,0.588749527931,0.0,5.01899051666,0.78886371851,0.0,5.34747982025,1.59446573257,0.0
1449617652305853462,256,1449617652305505723,odom,5.66700983047,1.67592418194,0.0,5.85575819016,1.43697023392,0.0,5.52726888657,0.631368160248,0.0,5.03649997711,0.831482291222,0.0,5.3649892807,1.63708436489,0.0
1449617652508659192,257,1449617652508410174,odom,5.67443561554,1.72253477573,0.0,5.86819219589,1.48762321472,0.0,5.5568022728,0.675258636475,0.0,5.0619134903,0.8649559021,0.0,5.37330341339,1.67732048035,0.0
1449617652715087083,258,1449617652714931576,odom,5.67881345749,1.76391434669,0.0,5.87749147415,1.53315031528,0.0,5.583340168,0.714386045933,0.0,5.08455276489,0.893581748009,0.0,5.37870407104,1.71234595776,0.0
1449617652918330810,259,1449617652917642670,odom,5.68176174164,1.82072257996,0.0,5.88765478134,1.59637224674,0.0,5.61960506439,0.768695235252,0.0,5.11538791656,0.931989908218,0.0,5.38343763351,1.75966691971,0.0
1449617653105746704,260,1449617653103295313,odom,5.67106437683,1.87491250038,0.0,5.88851928711,1.66174972057,0.0,5.66455793381,0.821070611477,0.0,5.15242004395,0.957506835461,0.0,5.37638139725,1.79818594456,0.0
1449617653334933579,261,1449617653334653245,odom,5.65769720078,1.92841792107,0.0,5.88610696793,1.72703766823,0.0,5.70685958862,0.875703275204,0.0,5.18823051453,0.984900176525,0.0,5.36747837067,1.83623456955,0.0
1449617653536769790,262,1449617653536573744,odom,5.6459980011,1.97750914097,0.0,5.88271427155,1.78596138954,0.0,5.73960351944,0.927812576294,0.0,5.21682310104,1.0149948597,0.0,5.35993385315,1.87314355373,0.0
1449617653722328958,263,1449617653722092127,odom,5.63137769699,2.02036738396,0.0,5.87597703934,1.8389942646,0.0,5.76925945282,0.975564301014,0.0,5.24326181412,1.04057621956,0.0,5.34997940063,1.90400612354,0.0
1449617653941651576,264,1449617653941094208,odom,5.61470651627,2.05680656433,0.0,5.86675214767,1.88593220711,0.0,5.79661798477,1.01876366138,0.0,5.2683429718,1.06148910522,0.0,5.3384771347,1.92865753174,0.0
1449617654150166194,265,1449617654146753329,odom,5.60679531097,2.09200406075,0.0,5.8623957634,1.92649447918,0.0,5.8106045723,1.05803740025,0.0,5.28154468536,1.0895884037,0.0,5.33333587646,1.95804548264,0.0
1449617654346564214,266,1449617654346138506,odom,5.59274864197,2.12432432175,0.0,5.85346746445,1.96700024605,0.0,5.82923126221,1.0973379612,0.0,5.29943704605,1.11210250854,0.0,5.32367324829,1.9817647934,0.0
1449617654546033690,267,1449617654545730174,odom,5.58321094513,2.16481137276,0.0,5.84719657898,2.01303243637,0.0,5.84134531021,1.14305222034,0.0,5.31135749817,1.1466165781,0.0,5.3172082901,2.01659679413,0.0
1449617654744073817,268,1449617654743757542,odom,5.57807207108,2.21377444267,0.0,5.84364652634,2.06479406357,0.0,5.84699010849,1.1948004961,0.0,5.31699371338,1.19276380539,0.0,5.31365060806,2.06275725365,0.0
1449617654960507089,269,1449617654960028902,odom,5.56708955765,2.26545739174,0.0,5.83575344086,2.12212300301,0.0,5.85748291016,1.25239443779,0.0,5.32764816284,1.23915696144,0.0,5.30591869354,2.10888552666,0.0
1449617655141852937,270,1449617655136502159,odom,5.56056165695,2.32000017166,0.0,5.83072519302,2.1795129776,0.0,5.86164426804,1.31006264687,0.0,5.33197927475,1.29122662544,0.0,5.3010597229,2.16067695618,0.0
1449617655344538104,271,1449617655341981167,odom,5.55328321457,2.38022661209,0.0,5.82491636276,2.24260210991,0.0,5.86502218246,1.37352705002,0.0,5.33558559418,1.3490947485,0.0,5.29547977448,2.21816968918,0.0
1449617655533443418,272,1449617655533124613,odom,5.55089330673,2.43200778961,0.0,5.82252645493,2.29438328743,0.0,5.86263275146,1.42530822754,0.0,5.33319616318,1.40087592602,0.0,5.29308986664,2.2699508667,0.0
1449617655748745069,273,1449617655746977383,odom,5.54273557663,2.49214267731,0.0,5.8158082962,2.35739660263,0.0,5.86509609222,1.48879396915,0.0,5.33594703674,1.45876801014,0.0,5.28665924072,2.32737064362,0.0
1449617655980529787,274,1449617655980321421,odom,5.5346865654,2.54069328308,0.0,5.80916786194,2.40884065628,0.0,5.86763238907,1.54080724716,0.0,5.33883047104,1.50519096851,0.0,5.28036594391,2.37322425842,0.0
1449617656439884475,275,1449617656439357661,odom,5.52648162842,2.58340740204,0.0,5.80234098434,2.45446252823,0.0,5.86997509003,1.58709549904,0.0,5.34157943726,1.54589295387,0.0,5.27394485474,2.41325998306,0.0
1449617656652937670,276,1449617656648580608,odom,5.50141096115,2.68806600571,0.0,5.78121900558,2.56793045998,0.0,5.87631368637,1.70314311981,0.0,5.34948921204,1.64521169662,0.0,5.25439453125,2.50999903679,0.0
1449617656956285888,277,1449617656953028159,odom,5.47360992432,2.74250078201,0.0,5.7582449913,2.63429713249,0.0,5.88980054855,1.7743011713,0.0,5.36589479446,1.69415807724,0.0,5.23433923721,2.55415391922,0.0
