%time,field.header.seq,field.header.stamp,field.header.frame_id,field.poses0.header.seq,field.poses0.header.stamp,field.poses0.header.frame_id,field.poses0.pose.position.x,field.poses0.pose.position.y,field.poses0.pose.position.z,field.poses0.pose.orientation.x,field.poses0.pose.orientation.y,field.poses0.pose.orientation.z,field.poses0.pose.orientation.w,field.poses1.header.seq,field.poses1.header.stamp,field.poses1.header.frame_id,field.poses1.pose.position.x,field.poses1.pose.position.y,field.poses1.pose.position.z,field.poses1.pose.orientation.x,field.poses1.pose.orientation.y,field.poses1.pose.orientation.z,field.poses1.pose.orientation.w,field.poses2.header.seq,field.poses2.header.stamp,field.poses2.header.frame_id,field.poses2.pose.position.x,field.poses2.pose.position.y,field.poses2.pose.position.z,field.poses2.pose.orientation.x,field.poses2.pose.orientation.y,field.poses2.pose.orientation.z,field.poses2.pose.orientation.w,field.poses3.header.seq,field.poses3.header.stamp,field.poses3.header.frame_id,field.poses3.pose.position.x,field.poses3.pose.position.y,field.poses3.pose.position.z,field.poses3.pose.orientation.x,field.poses3.pose.orientation.y,field.poses3.pose.orientation.z,field.poses3.pose.orientation.w,field.poses4.header.seq,field.poses4.header.stamp,field.poses4.header.frame_id,field.poses4.pose.position.x,field.poses4.pose.position.y,field.poses4.pose.position.z,field.poses4.pose.orientation.x,field.poses4.pose.orientation.y,field.poses4.pose.orientation.z,field.poses4.pose.orientation.w,field.poses5.header.seq,field.poses5.header.stamp,field.poses5.header.frame_id,field.poses5.pose.position.x,field.poses5.pose.position.y,field.poses5.pose.position.z,field.poses5.pose.orientation.x,field.poses5.pose.orientation.y,field.poses5.pose.orientation.z,field.poses5.pose.orientation.w,field.poses6.header.seq,field.poses6.header.stamp,field.poses6.header.frame_id,field.poses6.pose.position.x,field.poses6.pose.position.y,field.poses6.pose.position.z,field.poses6.pose.orientation.x,field.poses6.pose.orientation.y,field.poses6.pose.orientation.z,field.poses6.pose.orientation.w,field.poses7.header.seq,field.poses7.header.stamp,field.poses7.header.frame_id,field.poses7.pose.position.x,field.poses7.pose.position.y,field.poses7.pose.position.z,field.poses7.pose.orientation.x,field.poses7.pose.orientation.y,field.poses7.pose.orientation.z,field.poses7.pose.orientation.w,field.poses8.header.seq,field.poses8.header.stamp,field.poses8.header.frame_id,field.poses8.pose.position.x,field.poses8.pose.position.y,field.poses8.pose.position.z,field.poses8.pose.orientation.x,field.poses8.pose.orientation.y,field.poses8.pose.orientation.z,field.poses8.pose.orientation.w,field.poses9.header.seq,field.poses9.header.stamp,field.poses9.header.frame_id,field.poses9.pose.position.x,field.poses9.pose.position.y,field.poses9.pose.position.z,field.poses9.pose.orientation.x,field.poses9.pose.orientation.y,field.poses9.pose.orientation.z,field.poses9.pose.orientation.w,field.poses10.header.seq,field.poses10.header.stamp,field.poses10.header.frame_id,field.poses10.pose.position.x,field.poses10.pose.position.y,field.poses10.pose.position.z,field.poses10.pose.orientation.x,field.poses10.pose.orientation.y,field.poses10.pose.orientation.z,field.poses10.pose.orientation.w,field.poses11.header.seq,field.poses11.header.stamp,field.poses11.header.frame_id,field.poses11.pose.position.x,field.poses11.pose.position.y,field.poses11.pose.position.z,field.poses11.pose.orientation.x,field.poses11.pose.orientation.y,field.poses11.pose.orientation.z,field.poses11.pose.orientation.w
1449617619758276187,0,1449617619756839779,odom,0,1449617619756839779,odom,0.0,0.0,0.0,0.0,0.0,0.0,1.0,0,1449617619756849361,odom,0.0,0.0,0.0,0.0,0.0,0.0387403031369,0.999249312691,0,1449617619756851883,odom,0.0,0.0,0.0,0.0,0.0,0.077422442566,0.996998377826,0,1449617619756852935,odom,0.0,0.0,0.0,0.0,0.0,0.115988341905,0.993250574902,0,1449617619756853501,odom,0.0,0.0,0.0,0.0,0.0,0.154380099291,0.988011530774,0,1449617619756854651,odom,0.0,0.0,0.0,0.0,0.0,0.192540074315,0.981289111212,0,1449617619756855017,odom,0.0,0.0,0.0,0.0,0.0,0.230410974558,0.973093409084,0,1449617619756855217,odom,0.0,0.0,0.0,0.0,0.0,0.267935941612,0.963436729211,0,1449617619756855587,odom,0.0,0.0,0.0,0.0,0.0,0.305058636443,0.952333569886,0,1449617619756858873,odom,0.0,0.0,0.0,0.0,0.0,0.341723323981,0.93980060111,0,1449617619756859321,odom,0.0,0.0,0.0,0.0,0.0,0.377874956794,0.925856639566,0,1449617619756859623,odom,0.0,0.0,0.0,0.0,0.0,0.413459257737,0.910522620362
1449617619872390378,1,1449617619869812540,odom,0,1449617619869812540,odom,0.0,0.0,0.0,0.0,0.0,0.0,1.0,0,1449617619869818740,odom,0.0,0.0,0.0,0.0,0.0,0.0387403031369,0.999249312691,0,1449617619869820696,odom,0.0,0.0,0.0,0.0,0.0,0.077422442566,0.996998377826,0,1449617619869821983,odom,0.0,0.0,0.0,0.0,0.0,0.115988341905,0.993250574902,0,1449617619869822711,odom,0.0,0.0,0.0,0.0,0.0,0.154380099291,0.988011530774,0,1449617619869824207,odom,0.0,0.0,0.0,0.0,0.0,0.192540074315,0.981289111212,0,1449617619869824832,odom,0.0,0.0,0.0,0.0,0.0,0.230410974558,0.973093409084,0,1449617619869825104,odom,0.0,0.0,0.0,0.0,0.0,0.267935941612,0.963436729211,0,1449617619869825977,odom,0.0,0.0,0.0,0.0,0.0,0.305058636443,0.952333569886,0,1449617619869827789,odom,0.0,0.0,0.0,0.0,0.0,0.341723323981,0.93980060111,0,1449617619869828137,odom,0.0,0.0,0.0,0.0,0.0,0.377874956794,0.925856639566,0,1449617619869829257,odom,0.0,0.0,0.0,0.0,0.0,0.413459257737,0.910522620362
1449617620111557899,2,1449617620098018489,odom,0,1449617620098018489,odom,0.0,0.0,0.0,0.0,0.0,0.0,1.0,0,1449617620098025677,odom,0.0,0.0,0.0,0.0,0.0,0.0387403031369,0.999249312691,0,1449617620098028684,odom,0.0,0.0,0.0,0.0,0.0,0.077422442566,0.996998377826,0,1449617620098030373,odom,0.0,0.0,0.0,0.0,0.0,0.115988341905,0.993250574902,0,1449617620098031196,odom,0.0,0.0,0.0,0.0,0.0,0.154380099291,0.988011530774,0,1449617620098032628,odom,0.0,0.0,0.0,0.0,0.0,0.192540074315,0.981289111212,0,1449617620098033018,odom,0.0,0.0,0.0,0.0,0.0,0.230410974558,0.973093409084,0,1449617620098033532,odom,0.0,0.0,0.0,0.0,0.0,0.267935941612,0.963436729211,0,1449617620098035103,odom,0.0,0.0,0.0,0.0,0.0,0.305058636443,0.952333569886,0,1449617620098040558,odom,0.0,0.0,0.0,0.0,0.0,0.341723323981,0.93980060111,0,1449617620098041073,odom,0.0,0.0,0.0,0.0,0.0,0.377874956794,0.925856639566,0,1449617620098041386,odom,0.0,0.0,0.0,0.0,0.0,0.413459257737,0.910522620362
1449617620194432715,3,1449617620189140636,odom,0,1449617620189140636,odom,0.0,0.0,0.0,0.0,0.0,0.0,1.0,0,1449617620189145226,odom,0.0257142857143,0.0,0.0,0.0,0.0,0.0,1.0,0,1449617620189147468,odom,0.0514285714286,0.0,0.0,0.0,0.0,0.0,1.0,0,1449617620189147958,odom,0.0771428571429,0.0,0.0,0.0,0.0,0.0,1.0,0,1449617620189148159,odom,0.102857142857,0.0,0.0,0.0,0.0,0.0,1.0,0,1449617620189149254,odom,0.128571428571,0.0,0.0,0.0,0.0,0.0,1.0,0,1449617620189149641,odom,0.154285714286,0.0,0.0,0.0,0.0,0.0,1.0,0,1449617620189149825,odom,0.18,0.0,0.0,0.0,0.0,0.0,1.0,0,1449617620189149999,odom,0.205714285714,0.0,0.0,0.0,0.0,0.0,1.0,0,1449617620189151341,odom,0.231428571429,0.0,0.0,0.0,0.0,0.0,1.0,0,1449617620189151519,odom,0.257142857143,0.0,0.0,0.0,0.0,0.0,1.0,0,1449617620189151692,odom,0.282857142857,0.0,0.0,0.0,0.0,0.0,1.0,0,1449617620189151872,odom,0.308571428571,0.0,0.0,0.0,0.0,0.0,1.0,0,1449617620189152048,odom,0.334285714286,0.0,0.0,0.0,0.0,0.0,1.0
1449617620301690396,4,1449617620285602756,odom,0,1449617620285602756,odom,0.0,0.0,0.0,0.0,0.0,0.0,1.0,0,1449617620285610979,odom,0.0257142857143,0.0,0.0,0.0,0.0,0.0,1.0,0,1449617620285613680,odom,0.0514285714286,0.0,0.0,0.0,0.0,0.0,1.0,0,1449617620285615016,odom,0.0771428571429,0.0,0.0,0.0,0.0,0.0,1.0,0,1449617620285615431,odom,0.102857142857,0.0,0.0,0.0,0.0,0.0,1.0,0,1449617620285616384,odom,0.128571428571,0.0,0.0,0.0,0.0,0.0,1.0,0,1449617620285616776,odom,0.154285714286,0.0,0.0,0.0,0.0,0.0,1.0,0,1449617620285616968,odom,0.18,0.0,0.0,0.0,0.0,0.0,1.0,0,1449617620285617131,odom,0.205714285714,0.0,0.0,0.0,0.0,0.0,1.0,0,1449617620285620001,odom,0.231428571429,0.0,0.0,0.0,0.0,0.0,1.0,0,1449617620285620277,odom,0.257142857143,0.0,0.0,0.0,0.0,0.0,1.0,0,1449617620285620422,odom,0.282857142857,0.0,0.0,0.0,0.0,0.0,1.0,0,1449617620285620560,odom,0.308571428571,0.0,0.0,0.0,0.0,0.0,1.0,0,1449617620285620774,odom,0.334285714286,0.0,0.0,0.0,0.0,0.0,1.0
1449617620353588086,5,1449617620349194417,odom,0,1449617620349194417,odom,0.0,0.0,0.0,0.0,0.0,0.0,1.0,0,1449617620349197905,odom,0.0257142857143,0.0,0.0,0.0,0.0,0.0,1.0,0,1449617620349198837,odom,0.0514285714286,0.0,0.0,0.0,0.0,0.0,1.0,0,1449617620349199512,odom,0.0771428571429,0.0,0.0,0.0,0.0,0.0,1.0,0,1449617620349200048,odom,0.102857142857,0.0,0.0,0.0,0.0,0.0,1.0,0,1449617620349201299,odom,0.128571428571,0.0,0.0,0.0,0.0,0.0,1.0,0,1449617620349201515,odom,0.154285714286,0.0,0.0,0.0,0.0,0.0,1.0,0,1449617620349201689,odom,0.18,0.0,0.0,0.0,0.0,0.0,1.0,0,1449617620349201849,odom,0.205714285714,0.0,0.0,0.0,0.0,0.0,1.0,0,1449617620349204647,odom,0.231428571429,0.0,0.0,0.0,0.0,0.0,1.0,0,1449617620349204806,odom,0.257142857143,0.0,0.0,0.0,0.0,0.0,1.0,0,1449617620349204962,odom,0.282857142857,0.0,0.0,0.0,0.0,0.0,1.0,0,1449617620349205111,odom,0.308571428571,0.0,0.0,0.0,0.0,0.0,1.0,0,1449617620349205271,odom,0.334285714286,0.0,0.0,0.0,0.0,0.0,1.0
1449617620432350778,6,1449617620430617299,odom,0,1449617620430617299,odom,0.00287963240407,3.04332297674e-05,0.0,0.0,0.0,0.0052839998134,0.999986039576,0,1449617620430624950,odom,0.028592482199,0.000302177997874,0.0,0.0,0.0,0.0052839998134,0.999986039576,0,1449617620430626764,odom,0.0543053319939,0.000573922765981,0.0,0.0,0.0,0.0052839998134,0.999986039576,0,1449617620430628126,odom,0.0800181817889,0.000845667534088,0.0,0.0,0.0,0.0052839998134,0.999986039576,0,1449617620430628299,odom,0.105731031584,0.00111741230219,0.0,0.0,0.0,0.0052839998134,0.999986039576,0,1449617620430628807,odom,0.131443881379,0.0013891570703,0.0,0.0,0.0,0.0052839998134,0.999986039576,0,1449617620430629093,odom,0.157156731174,0.00166090183841,0.0,0.0,0.0,0.0052839998134,0.999986039576,0,1449617620430629316,odom,0.182869580969,0.00193264660652,0.0,0.0,0.0,0.0052839998134,0.999986039576,0,1449617620430629492,odom,0.208582430764,0.00220439137462,0.0,0.0,0.0,0.0052839998134,0.999986039576,0,1449617620430632143,odom,0.234295280558,0.00247613614273,0.0,0.0,0.0,0.0052839998134,0.999986039576,0,1449617620430632434,odom,0.260008130353,0.00274788091084,0.0,0.0,0.0,0.0052839998134,0.999986039576,0,1449617620430632644,odom,0.285720980148,0.00301962567894,0.0,0.0,0.0,0.0052839998134,0.999986039576,0,1449617620430632865,odom,0.311433829943,0.00329137044705,0.0,0.0,0.0,0.0052839998134,0.999986039576,0,1449617620430633089,odom,0.337146679738,0.00356311521516,0.0,0.0,0.0,0.0052839998134,0.999986039576
1449617620536565584,7,1449617620535001448,odom,0,1449617620535001448,odom,0.00287963240407,3.04332297674e-05,0.0,0.0,0.0,0.0052839998134,0.999986039576,0,1449617620535004804,odom,0.028592482199,0.000302177997874,0.0,0.0,0.0,0.0052839998134,0.999986039576,0,1449617620535005926,odom,0.0543053319939,0.000573922765981,0.0,0.0,0.0,0.0052839998134,0.999986039576,0,1449617620535006623,odom,0.0800181817889,0.000845667534088,0.0,0.0,0.0,0.0052839998134,0.999986039576,0,1449617620535006872,odom,0.105731031584,0.00111741230219,0.0,0.0,0.0,0.0052839998134,0.999986039576,0,1449617620535007515,odom,0.131443881379,0.0013891570703,0.0,0.0,0.0,0.0052839998134,0.999986039576,0,1449617620535007788,odom,0.157156731174,0.00166090183841,0.0,0.0,0.0,0.0052839998134,0.999986039576,0,1449617620535007982,odom,0.182869580969,0.00193264660652,0.0,0.0,0.0,0.0052839998134,0.999986039576,0,1449617620535008150,odom,0.208582430764,0.00220439137462,0.0,0.0,0.0,0.0052839998134,0.999986039576,0,1449617620535010536,odom,0.234295280558,0.00247613614273,0.0,0.0,0.0,0.0052839998134,0.999986039576,0,1449617620535010741,odom,0.260008130353,0.00274788091084,0.0,0.0,0.0,0.0052839998134,0.999986039576,0,1449617620535010940,odom,0.285720980148,0.00301962567894,0.0,0.0,0.0,0.0052839998134,0.999986039576,0,1449617620535011152,odom,0.311433829943,0.00329137044705,0.0,0.0,0.0,0.0052839998134,0.999986039576,0,1449617620535011366,odom,0.337146679738,0.00356311521516,0.0,0.0,0.0,0.0052839998134,0.999986039576
1449617620610154690,8,1449617620598570718,odom,0,1449617620598570718,odom,0.00287963240407,3.04332297674e-05,0.0,0.0,0.0,0.0052839998134,0.999986039576,0,1449617620598575079,odom,0.028592482199,0.000302177997874,0.0,0.0,0.0,0.0052839998134,0.999986039576,0,1449617620598576111,odom,0.0543053319939,0.000573922765981,0.0,0.0,0.0,0.0052839998134,0.999986039576,0,1449617620598576832,odom,0.0800181817889,0.000845667534088,0.0,0.0,0.0,0.0052839998134,0.999986039576,0,1449617620598577038,odom,0.105731031584,0.00111741230219,0.0,0.0,0.0,0.0052839998134,0.999986039576,0,1449617620598577616,odom,0.131443881379,0.0013891570703,0.0,0.0,0.0,0.0052839998134,0.999986039576,0,1449617620598577836,odom,0.157156731174,0.00166090183841,0.0,0.0,0.0,0.0052839998134,0.999986039576,0,1449617620598578031,odom,0.182869580969,0.00193264660652,0.0,0.0,0.0,0.0052839998134,0.999986039576,0,1449617620598578224,odom,0.208582430764,0.00220439137462,0.0,0.0,0.0,0.0052839998134,0.999986039576,0,1449617620598580344,odom,0.234295280558,0.00247613614273,0.0,0.0,0.0,0.0052839998134,0.999986039576,0,1449617620598580562,odom,0.260008130353,0.00274788091084,0.0,0.0,0.0,0.0052839998134,0.999986039576,0,1449617620598580772,odom,0.285720980148,0.00301962567894,0.0,0.0,0.0,0.0052839998134,0.999986039576,0,1449617620598581050,odom,0.311433829943,0.00329137044705,0.0,0.0,0.0,0.0052839998134,0.999986039576,0,1449617620598581254,odom,0.337146679738,0.00356311521516,0.0,0.0,0.0,0.0052839998134,0.999986039576
1449617620706017819,9,1449617620702941363,odom,0,1449617620702941363,odom,0.00287963240407,3.04332297674e-05,0.0,0.0,0.0,0.0052839998134,0.999986039576,0,1449617620702945229,odom,0.028592482199,0.000302177997874,0.0,0.0,0.0,0.0052839998134,0.999986039576,0,1449617620702946608,odom,0.0543053319939,0.000573922765981,0.0,0.0,0.0,0.0052839998134,0.999986039576,0,1449617620702947446,odom,0.0800181817889,0.000845667534088,0.0,0.0,0.0,0.0052839998134,0.999986039576,0,1449617620702947654,odom,0.105731031584,0.00111741230219,0.0,0.0,0.0,0.0052839998134,0.999986039576,0,1449617620702948267,odom,0.131443881379,0.0013891570703,0.0,0.0,0.0,0.0052839998134,0.999986039576,0,1449617620702948844,odom,0.157156731174,0.00166090183841,0.0,0.0,0.0,0.0052839998134,0.999986039576,0,1449617620702949060,odom,0.182869580969,0.00193264660652,0.0,0.0,0.0,0.0052839998134,0.999986039576,0,1449617620702949258,odom,0.208582430764,0.00220439137462,0.0,0.0,0.0,0.0052839998134,0.999986039576,0,1449617620702951002,odom,0.234295280558,0.00247613614273,0.0,0.0,0.0,0.0052839998134,0.999986039576,0,1449617620702951293,odom,0.260008130353,0.00274788091084,0.0,0.0,0.0,0.0052839998134,0.999986039576,0,1449617620702951478,odom,0.285720980148,0.00301962567894,0.0,0.0,0.0,0.0052839998134,0.999986039576,0,1449617620702951737,odom,0.311433829943,0.00329137044705,0.0,0.0,0.0,0.0052839998134,0.999986039576,0,1449617620702951954,odom,0.337146679738,0.00356311521516,0.0,0.0,0.0,0.0052839998134,0.999986039576
1449617620776631838,10,1449617620775677369,odom,0,1449617620775677369,odom,0.0086384145543,0.000121729513921,0.0,0.0,0.0,0.0052839998134,0.999986039576,0,1449617620775680927,odom,0.0343512643492,0.000393474282028,0.0,0.0,0.0,0.0052839998134,0.999986039576,0,1449617620775681972,odom,0.0600641141442,0.000665219050135,0.0,0.0,0.0,0.0052839998134,0.999986039576,0,1449617620775682699,odom,0.0857769639391,0.000936963818242,0.0,0.0,0.0,0.0052839998134,0.999986039576,0,1449617620775682919,odom,0.111489813734,0.00120870858635,0.0,0.0,0.0,0.0052839998134,0.999986039576,0,1449617620775683641,odom,0.137202663529,0.00148045335446,0.0,0.0,0.0,0.0052839998134,0.999986039576,0,1449617620775683911,odom,0.162915513324,0.00175219812256,0.0,0.0,0.0,0.0052839998134,0.999986039576,0,1449617620775684106,odom,0.188628363119,0.00202394289067,0.0,0.0,0.0,0.0052839998134,0.999986039576,0,1449617620775684276,odom,0.214341212914,0.00229568765878,0.0,0.0,0.0,0.0052839998134,0.999986039576,0,1449617620775685541,odom,0.240054062709,0.00256743242688,0.0,0.0,0.0,0.0052839998134,0.999986039576,0,1449617620775685751,odom,0.265766912504,0.00283917719499,0.0,0.0,0.0,0.0052839998134,0.999986039576,0,1449617620775685962,odom,0.291479762299,0.0031109219631,0.0,0.0,0.0,0.0052839998134,0.999986039576,0,1449617620775686189,odom,0.317192612094,0.0033826667312,0.0,0.0,0.0,0.0052839998134,0.999986039576,0,1449617620775686396,odom,0.342905461888,0.00365441149931,0.0,0.0,0.0,0.0052839998134,0.999986039576
1449617620842716969,11,1449617620836870355,odom,0,1449617620836870355,odom,0.0086384145543,0.000121729513921,0.0,0.0,0.0,0.0052839998134,0.999986039576,0,1449617620836876190,odom,0.0343512643492,0.000393474282028,0.0,0.0,0.0,0.0052839998134,0.999986039576,0,1449617620836877655,odom,0.0600641141442,0.000665219050135,0.0,0.0,0.0,0.0052839998134,0.999986039576,0,1449617620836878990,odom,0.0857769639391,0.000936963818242,0.0,0.0,0.0,0.0052839998134,0.999986039576,0,1449617620836879258,odom,0.111489813734,0.00120870858635,0.0,0.0,0.0,0.0052839998134,0.999986039576,0,1449617620836879922,odom,0.137202663529,0.00148045335446,0.0,0.0,0.0,0.0052839998134,0.999986039576,0,1449617620836880163,odom,0.162915513324,0.00175219812256,0.0,0.0,0.0,0.0052839998134,0.999986039576,0,1449617620836880439,odom,0.188628363119,0.00202394289067,0.0,0.0,0.0,0.0052839998134,0.999986039576,0,1449617620836880630,odom,0.214341212914,0.00229568765878,0.0,0.0,0.0,0.0052839998134,0.999986039576,0,1449617620836882767,odom,0.240054062709,0.00256743242688,0.0,0.0,0.0,0.0052839998134,0.999986039576,0,1449617620836882978,odom,0.265766912504,0.00283917719499,0.0,0.0,0.0,0.0052839998134,0.999986039576,0,1449617620836883183,odom,0.291479762299,0.0031109219631,0.0,0.0,0.0,0.0052839998134,0.999986039576,0,1449617620836883408,odom,0.317192612094,0.0033826667312,0.0,0.0,0.0,0.0052839998134,0.999986039576,0,1449617620836883640,odom,0.342905461888,0.00365441149931,0.0,0.0,0.0,0.0052839998134,0.999986039576
1449617620896813287,12,1449617620886919911,odom,0,1449617620886919911,odom,0.0143976798281,0.000182595977094,0.0,0.0,0.0,0.0052839998134,0.999986039576,0,1449617620886925626,odom,0.040110529623,0.000454340745201,0.0,0.0,0.0,0.0052839998134,0.999986039576,0,1449617620886927009,odom,0.065823379418,0.000726085513308,0.0,0.0,0.0,0.0052839998134,0.999986039576,0,1449617620886927854,odom,0.0915362292129,0.000997830281414,0.0,0.0,0.0,0.0052839998134,0.999986039576,0,1449617620886928052,odom,0.117249079008,0.00126957504952,0.0,0.0,0.0,0.0052839998134,0.999986039576,0,1449617620886928654,odom,0.142961928803,0.00154131981763,0.0,0.0,0.0,0.0052839998134,0.999986039576,0,1449617620886929288,odom,0.168674778598,0.00181306458573,0.0,0.0,0.0,0.0052839998134,0.999986039576,0,1449617620886929537,odom,0.194387628393,0.00208480935384,0.0,0.0,0.0,0.0052839998134,0.999986039576,0,1449617620886929740,odom,0.220100478188,0.00235655412195,0.0,0.0,0.0,0.0052839998134,0.999986039576,0,1449617620886932468,odom,0.245813327983,0.00262829889006,0.0,0.0,0.0,0.0052839998134,0.999986039576,0,1449617620886932866,odom,0.271526177777,0.00290004365816,0.0,0.0,0.0,0.0052839998134,0.999986039576,0,1449617620886933072,odom,0.297239027572,0.00317178842627,0.0,0.0,0.0,0.0052839998134,0.999986039576,0,1449617620886933317,odom,0.322951877367,0.00344353319438,0.0,0.0,0.0,0.0052839998134,0.999986039576,0,1449617620886933480,odom,0.348664727162,0.00371527796248,0.0,0.0,0.0,0.0052839998134,0.999986039576
1449617620996390685,13,1449617620988700766,odom,0,1449617620988700766,odom,0.0172768291086,0.000243459027843,0.0,0.0,0.0,0.010567852093,0.999944158692,0,1449617620988707829,odom,0.0429853713058,0.00078691821489,0.0,0.0,0.0,0.0173340979154,0.999849753238,0,1449617620988709079,odom,0.0686842042284,0.00167825216751,0.0,0.0,0.0,0.0240995499921,0.999709563668,0,1449617620988710198,odom,0.0943686208296,0.00291729762731,0.0,0.0,0.0,0.0308638985264,0.999523596404,0,1449617620988710427,odom,0.120033916703,0.00450382764839,0.0,0.0,0.0,0.0376268337722,0.999291859959,0,1449617620988711115,odom,0.145675390946,0.00643755163891,0.0,0.0,0.0,0.0443880460478,0.999014364946,0,1449617620988711378,odom,0.171288347016,0.00871811541435,0.0,0.0,0.0,0.0511472257505,0.998691124071,0,1449617620988712032,odom,0.196868093597,0.0113451012624,0.0,0.0,0.0,0.057904063371,0.998322152136,0,1449617620988712239,odom,0.222409945454,0.0143180280193,0.0,0.0,0.0,0.0646582495067,0.997907466036,0,1449617620988714577,odom,0.247909224294,0.0176363511582,0.0,0.0,0.0,0.0714094748769,0.997447084761,0,1449617620988714805,odom,0.27336125962,0.0212994628888,0.0,0.0,0.0,0.0781574303362,0.996941029391,0,1449617620988715140,odom,0.29876138959,0.0253066922687,0.0,0.0,0.0,0.084901806889,0.9963893231,0,1449617620988715448,odom,0.324104961868,0.0296573053263,0.0,0.0,0.0,0.0916422957036,0.99579199115,0,1449617620988715652,odom,0.349387334478,0.0343505051949,0.0,0.0,0.0,0.0983785881263,0.995149060894
1449617621068541677,14,1449617621059265137,odom,0,1449617621059265137,odom,0.0201564617455,0.000273892248515,0.0,0.0,0.0,0.0052839998134,0.999986039576,0,1449617621059273285,odom,0.0458693115404,0.000545637016622,0.0,0.0,0.0,0.0165614627124,0.999862849571,0,1449617621059274654,odom,0.0715694913209,0.00139725256923,0.0,0.0,0.0,0.027836819054,0.999612480667,0,1449617621059275587,odom,0.0972439256268,0.00282830563058,0.0,0.0,0.0,0.0391086346538,0.999234964708,0,1449617621059275844,odom,0.122879552097,0.00483806812494,0.0,0.0,0.0,0.0503754757783,0.998730349714,0,1449617621059277009,odom,0.148463328114,0.00742551754705,0.0,0.0,0.0,0.0616359093264,0.99809869987,0,1449617621059277802,odom,0.17398223744,0.0105893374823,0.0,0.0,0.0,0.072888503012,0.997340095518,0,1449617621059278128,odom,0.199423296841,0.0143279182767,0.0,0.0,0.0,0.0841318255465,0.996454633152,0,1449617621059278287,odom,0.224773562689,0.0186393578552,0.0,0.0,0.0,0.0953644468203,0.995442425398,0,1449617621059281103,odom,0.250020137549,0.0235214626904,0.0,0.0,0.0,0.106584938085,0.994303601006,0,1449617621059281381,odom,0.275150176742,0.0289717489176,0.0,0.0,0.0,0.117791872135,0.99303830483,0,1449617621059281991,odom,0.300150894878,0.034987443599,0.0,0.0,0.0,0.128983823489,0.99164669781,0,1449617621059282199,odom,0.325009572361,0.0415654861345,0.0,0.0,0.0,0.140159368573,0.990128956955,0,1449617621059282581,odom,0.349713561861,0.0487025298186,0.0,0.0,0.0,0.151317085897,0.988485275316
1449617621130364330,15,1449617621128808080,odom,0,1449617621128808080,odom,0.0201564617455,0.000273892248515,0.0,0.0,0.0,0.0052839998134,0.999986039576,0,1449617621128813650,odom,0.0458693115404,0.000545637016622,0.0,0.0,0.0,0.0052839998134,0.999986039576,0,1449617621128815021,odom,0.0715821613354,0.000817381784729,0.0,0.0,0.0,0.0052839998134,0.999986039576,0,1449617621128816163,odom,0.0972950111303,0.00108912655284,0.0,0.0,0.0,0.0052839998134,0.999986039576,0,1449617621128816380,odom,0.123007860925,0.00136087132094,0.0,0.0,0.0,0.0052839998134,0.999986039576,0,1449617621128817872,odom,0.14872071072,0.00163261608905,0.0,0.0,0.0,0.0052839998134,0.999986039576,0,1449617621128818119,odom,0.174433560515,0.00190436085716,0.0,0.0,0.0,0.0052839998134,0.999986039576,0,1449617621128818322,odom,0.20014641031,0.00217610562526,0.0,0.0,0.0,0.0052839998134,0.999986039576,0,1449617621128818612,odom,0.225859260105,0.00244785039337,0.0,0.0,0.0,0.0052839998134,0.999986039576,0,1449617621128820683,odom,0.2515721099,0.00271959516148,0.0,0.0,0.0,0.0052839998134,0.999986039576,0,1449617621128820903,odom,0.277284959695,0.00299133992958,0.0,0.0,0.0,0.0052839998134,0.999986039576,0,1449617621128821127,odom,0.30299780949,0.00326308469769,0.0,0.0,0.0,0.0052839998134,0.999986039576,0,1449617621128821387,odom,0.328710659285,0.0035348294658,0.0,0.0,0.0,0.0052839998134,0.999986039576,0,1449617621128821590,odom,0.35442350908,0.0038065742339,0.0,0.0,0.0,0.0052839998134,0.999986039576
1449617621190373509,16,1449617621184351856,odom,0,1449617621184351856,odom,0.0201564617455,0.000273892248515,0.0,0.0,0.0,0.0052839998134,0.999986039576,0,1449617621184356320,odom,0.0458693115404,0.000545637016622,0.0,0.0,0.0,0.0052839998134,0.999986039576,0,1449617621184357503,odom,0.0715821613354,0.000817381784729,0.0,0.0,0.0,0.0052839998134,0.999986039576,0,1449617621184358881,odom,0.0972950111303,0.00108912655284,0.0,0.0,0.0,0.0052839998134,0.999986039576,0,1449617621184359108,odom,0.123007860925,0.00136087132094,0.0,0.0,0.0,0.0052839998134,0.999986039576,0,1449617621184360228,odom,0.14872071072,0.00163261608905,0.0,0.0,0.0,0.0052839998134,0.999986039576,0,1449617621184360528,odom,0.174433560515,0.00190436085716,0.0,0.0,0.0,0.0052839998134,0.999986039576,0,1449617621184360744,odom,0.20014641031,0.00217610562526,0.0,0.0,0.0,0.0052839998134,0.999986039576,0,1449617621184360936,odom,0.225859260105,0.00244785039337,0.0,0.0,0.0,0.0052839998134,0.999986039576,0,1449617621184363033,odom,0.2515721099,0.00271959516148,0.0,0.0,0.0,0.0052839998134,0.999986039576,0,1449617621184363317,odom,0.277284959695,0.00299133992958,0.0,0.0,0.0,0.0052839998134,0.999986039576,0,1449617621184363523,odom,0.30299780949,0.00326308469769,0.0,0.0,0.0,0.0052839998134,0.999986039576,0,1449617621184363880,odom,0.328710659285,0.0035348294658,0.0,0.0,0.0,0.0052839998134,0.999986039576,0,1449617621184364085,odom,0.35442350908,0.0038065742339,0.0,0.0,0.0,0.0052839998134,0.999986039576
1449617621281554066,17,1449617621261074397,odom,0,1449617621261074397,odom,0.0259152445942,0.00036518854904,0.0,0.0,0.0,0.0052839998134,0.999986039576,0,1449617621261078123,odom,0.0516280943892,0.000636933317147,0.0,0.0,0.0,0.0052839998134,0.999986039576,0,1449617621261078892,odom,0.0773409441841,0.000908678085254,0.0,0.0,0.0,0.0052839998134,0.999986039576,0,1449617621261079895,odom,0.103053793979,0.00118042285336,0.0,0.0,0.0,0.0052839998134,0.999986039576,0,1449617621261080135,odom,0.128766643774,0.00145216762147,0.0,0.0,0.0,0.0052839998134,0.999986039576,0,1449617621261080729,odom,0.154479493569,0.00172391238957,0.0,0.0,0.0,0.0052839998134,0.999986039576,0,1449617621261080964,odom,0.180192343364,0.00199565715768,0.0,0.0,0.0,0.0052839998134,0.999986039576,0,1449617621261081177,odom,0.205905193159,0.00226740192579,0.0,0.0,0.0,0.0052839998134,0.999986039576,0,1449617621261081457,odom,0.231618042954,0.00253914669389,0.0,0.0,0.0,0.0052839998134,0.999986039576,0,1449617621261082779,odom,0.257330892749,0.002810891462,0.0,0.0,0.0,0.0052839998134,0.999986039576,0,1449617621261082963,odom,0.283043742544,0.00308263623011,0.0,0.0,0.0,0.0052839998134,0.999986039576,0,1449617621261083196,odom,0.308756592339,0.00335438099821,0.0,0.0,0.0,0.0052839998134,0.999986039576,0,1449617621261083408,odom,0.334469442133,0.00362612576632,0.0,0.0,0.0,0.0052839998134,0.999986039576,0,1449617621261083687,odom,0.360182291928,0.00389787053443,0.0,0.0,0.0,0.0052839998134,0.999986039576
1449617621425379067,18,1449617621420808290,odom,0,1449617621420808290,odom,0.0259152445942,0.00036518854904,0.0,0.0,0.0,0.0052839998134,0.999986039576,0,1449617621420812276,odom,0.0516280943892,0.000636933317147,0.0,0.0,0.0,0.0052839998134,0.999986039576,0,1449617621420813411,odom,0.0773409441841,0.000908678085254,0.0,0.0,0.0,0.0052839998134,0.999986039576,0,1449617621420814435,odom,0.103053793979,0.00118042285336,0.0,0.0,0.0,0.0052839998134,0.999986039576,0,1449617621420814626,odom,0.128766643774,0.00145216762147,0.0,0.0,0.0,0.0052839998134,0.999986039576,0,1449617621420815412,odom,0.154479493569,0.00172391238957,0.0,0.0,0.0,0.0052839998134,0.999986039576,0,1449617621420815697,odom,0.180192343364,0.00199565715768,0.0,0.0,0.0,0.0052839998134,0.999986039576,0,1449617621420815888,odom,0.205905193159,0.00226740192579,0.0,0.0,0.0,0.0052839998134,0.999986039576,0,1449617621420816123,odom,0.231618042954,0.00253914669389,0.0,0.0,0.0,0.0052839998134,0.999986039576,0,1449617621420818007,odom,0.257330892749,0.002810891462,0.0,0.0,0.0,0.0052839998134,0.999986039576,0,1449617621420818210,odom,0.283043742544,0.00308263623011,0.0,0.0,0.0,0.0052839998134,0.999986039576,0,1449617621420818401,odom,0.308756592339,0.00335438099821,0.0,0.0,0.0,0.0052839998134,0.999986039576,0,1449617621420818613,odom,0.334469442133,0.00362612576632,0.0,0.0,0.0,0.0052839998134,0.999986039576,0,1449617621420818872,odom,0.360182291928,0.00389787053443,0.0,0.0,0.0,0.0052839998134,0.999986039576
1449617621602324781,19,1449617621598793650,odom,0,1449617621598793650,odom,0.0259152445942,0.00036518854904,0.0,0.0,0.0,0.0052839998134,0.999986039576,0,1449617621598806257,odom,0.0516280943892,0.000636933317147,0.0,0.0,0.0,0.0052839998134,0.999986039576,0,1449617621598809825,odom,0.0773409441841,0.000908678085254,0.0,0.0,0.0,0.0052839998134,0.999986039576,0,1449617621598811175,odom,0.103053793979,0.00118042285336,0.0,0.0,0.0,0.0052839998134,0.999986039576,0,1449617621598811423,odom,0.128766643774,0.00145216762147,0.0,0.0,0.0,0.0052839998134,0.999986039576,0,1449617621598813182,odom,0.154479493569,0.00172391238957,0.0,0.0,0.0,0.0052839998134,0.999986039576,0,1449617621598813580,odom,0.180192343364,0.00199565715768,0.0,0.0,0.0,0.0052839998134,0.999986039576,0,1449617621598813848,odom,0.205905193159,0.00226740192579,0.0,0.0,0.0,0.0052839998134,0.999986039576,0,1449617621598814483,odom,0.231618042954,0.00253914669389,0.0,0.0,0.0,0.0052839998134,0.999986039576,0,1449617621598818503,odom,0.257330892749,0.002810891462,0.0,0.0,0.0,0.0052839998134,0.999986039576,0,1449617621598818871,odom,0.283043742544,0.00308263623011,0.0,0.0,0.0,0.0052839998134,0.999986039576,0,1449617621598819231,odom,0.308756592339,0.00335438099821,0.0,0.0,0.0,0.0052839998134,0.999986039576,0,1449617621598819456,odom,0.334469442133,0.00362612576632,0.0,0.0,0.0,0.0052839998134,0.999986039576,0,1449617621598819665,odom,0.360182291928,0.00389787053443,0.0,0.0,0.0,0.0052839998134,0.999986039576
1449617621675302211,20,1449617621670517755,odom,0,1449617621670517755,odom,0.0287950374186,0.00036518854904,0.0,0.0,0.0,0.0,1.0,0,1449617621670522250,odom,0.0545093231329,0.00036518854904,0.0,0.0,0.0,0.0,1.0,0,1449617621670524029,odom,0.0802236088472,0.00036518854904,0.0,0.0,0.0,0.0,1.0,0,1449617621670525038,odom,0.105937894561,0.00036518854904,0.0,0.0,0.0,0.0,1.0,0,1449617621670525240,odom,0.131652180276,0.00036518854904,0.0,0.0,0.0,0.0,1.0,0,1449617621670525949,odom,0.15736646599,0.00036518854904,0.0,0.0,0.0,0.0,1.0,0,1449617621670526140,odom,0.183080751704,0.00036518854904,0.0,0.0,0.0,0.0,1.0,0,1449617621670526303,odom,0.208795037419,0.00036518854904,0.0,0.0,0.0,0.0,1.0,0,1449617621670526477,odom,0.234509323133,0.00036518854904,0.0,0.0,0.0,0.0,1.0,0,1449617621670528575,odom,0.260223608847,0.00036518854904,0.0,0.0,0.0,0.0,1.0,0,1449617621670528718,odom,0.285937894561,0.00036518854904,0.0,0.0,0.0,0.0,1.0,0,1449617621670528862,odom,0.311652180276,0.00036518854904,0.0,0.0,0.0,0.0,1.0,0,1449617621670529025,odom,0.33736646599,0.00036518854904,0.0,0.0,0.0,0.0,1.0,0,1449617621670529191,odom,0.363080751704,0.00036518854904,0.0,0.0,0.0,0.0,1.0
1449617621815835614,21,1449617621810497731,odom,0,1449617621810497731,odom,0.0316746719182,0.000395621784264,0.0,0.0,0.0,0.0052839998134,0.999986039576,0,1449617621810503752,odom,0.0573875217131,0.000667366552371,0.0,0.0,0.0,0.0052839998134,0.999986039576,0,1449617621810504699,odom,0.083100371508,0.000939111320478,0.0,0.0,0.0,0.0052839998134,0.999986039576,0,1449617621810505952,odom,0.108813221303,0.00121085608858,0.0,0.0,0.0,0.0052839998134,0.999986039576,0,1449617621810506183,odom,0.134526071098,0.00148260085669,0.0,0.0,0.0,0.0052839998134,0.999986039576,0,1449617621810506920,odom,0.160238920893,0.0017543456248,0.0,0.0,0.0,0.0052839998134,0.999986039576,0,1449617621810507211,odom,0.185951770688,0.00202609039291,0.0,0.0,0.0,0.0052839998134,0.999986039576,0,1449617621810507418,odom,0.211664620483,0.00229783516101,0.0,0.0,0.0,0.0052839998134,0.999986039576,0,1449617621810507614,odom,0.237377470278,0.00256957992912,0.0,0.0,0.0,0.0052839998134,0.999986039576,0,1449617621810509330,odom,0.263090320073,0.00284132469723,0.0,0.0,0.0,0.0052839998134,0.999986039576,0,1449617621810509580,odom,0.288803169868,0.00311306946533,0.0,0.0,0.0,0.0052839998134,0.999986039576,0,1449617621810509787,odom,0.314516019662,0.00338481423344,0.0,0.0,0.0,0.0052839998134,0.999986039576,0,1449617621810510039,odom,0.340228869457,0.00365655900155,0.0,0.0,0.0,0.0052839998134,0.999986039576,0,1449617621810510242,odom,0.365941719252,0.00392830376965,0.0,0.0,0.0,0.0052839998134,0.999986039576
1449617621905960310,22,1449617621899522051,odom,0,1449617621899522051,odom,0.0403140485287,0.000395621784264,0.0,0.0,0.0,0.0,1.0,0,1449617621899527165,odom,0.066028334243,0.000395621784264,0.0,0.0,0.0,0.0,1.0,0,1449617621899529235,odom,0.0917426199572,0.000395621784264,0.0,0.0,0.0,0.0,1.0,0,1449617621899530380,odom,0.117456905672,0.000395621784264,0.0,0.0,0.0,0.0,1.0,0,1449617621899530585,odom,0.143171191386,0.000395621784264,0.0,0.0,0.0,0.0,1.0,0,1449617621899531162,odom,0.1688854771,0.000395621784264,0.0,0.0,0.0,0.0,1.0,0,1449617621899531433,odom,0.194599762814,0.000395621784264,0.0,0.0,0.0,0.0,1.0,0,1449617621899531593,odom,0.220314048529,0.000395621784264,0.0,0.0,0.0,0.0,1.0,0,1449617621899531819,odom,0.246028334243,0.000395621784264,0.0,0.0,0.0,0.0,1.0,0,1449617621899533469,odom,0.271742619957,0.000395621784264,0.0,0.0,0.0,0.0,1.0,0,1449617621899533637,odom,0.297456905672,0.000395621784264,0.0,0.0,0.0,0.0,1.0,0,1449617621899533785,odom,0.323171191386,0.000395621784264,0.0,0.0,0.0,0.0,1.0,0,1449617621899533977,odom,0.3488854771,0.000395621784264,0.0,0.0,0.0,0.0,1.0,0,1449617621899534149,odom,0.374599762814,0.000395621784264,0.0,0.0,0.0,0.0,1.0
1449617621995119787,23,1449617621986094448,odom,0,1449617621986094448,odom,0.0460736379027,0.000395621784264,0.0,0.0,0.0,0.0,1.0,0,1449617621986099609,odom,0.071787923617,0.000395621784264,0.0,0.0,0.0,0.0,1.0,0,1449617621986100689,odom,0.0975022093313,0.000395621784264,0.0,0.0,0.0,0.0,1.0,0,1449617621986102525,odom,0.123216495046,0.000395621784264,0.0,0.0,0.0,0.0,1.0,0,1449617621986102689,odom,0.14893078076,0.000395621784264,0.0,0.0,0.0,0.0,1.0,0,1449617621986103531,odom,0.174645066474,0.000395621784264,0.0,0.0,0.0,0.0,1.0,0,1449617621986103706,odom,0.200359352188,0.000395621784264,0.0,0.0,0.0,0.0,1.0,0,1449617621986103889,odom,0.226073637903,0.000395621784264,0.0,0.0,0.0,0.0,1.0,0,1449617621986104022,odom,0.251787923617,0.000395621784264,0.0,0.0,0.0,0.0,1.0,0,1449617621986105904,odom,0.277502209331,0.000395621784264,0.0,0.0,0.0,0.0,1.0,0,1449617621986106247,odom,0.303216495046,0.000395621784264,0.0,0.0,0.0,0.0,1.0,0,1449617621986106425,odom,0.32893078076,0.000395621784264,0.0,0.0,0.0,0.0,1.0,0,1449617621986106584,odom,0.354645066474,0.000395621784264,0.0,0.0,0.0,0.0,1.0,0,1449617621986106736,odom,0.380359352188,0.000395621784264,0.0,0.0,0.0,0.0,1.0
1449617622089465131,24,1449617622088026815,odom,0,1449617622088026815,odom,0.0547128543258,0.00036518854904,0.0,0.0,0.0,-0.0052839998134,0.999986039576,0,1449617622088034956,odom,0.0804257041207,9.34437809331e-05,0.0,0.0,0.0,-0.00302838067581,0.999995414445,0,1449617622088036511,odom,0.106139518179,-6.23007967871e-05,0.0,0.0,0.0,-0.000772746130105,0.999999701432,0,1449617622088039717,odom,0.131853773183,-0.00010204201447,0.0,0.0,0.0,0.00148289234726,0.999998900515,0,1449617622088040221,odom,0.157567945808,-2.5779063318e-05,0.0,0.0,0.0,0.00373852327981,0.999993011697,0,1449617622088041416,odom,0.183281512728,0.000166486504596,0.0,0.0,0.0,0.00599413519111,0.99998203501,0,1449617622088041704,odom,0.208993950631,0.00047475077636,0.0,0.0,0.0,0.00824971660481,0.999965970509,0,1449617622088041886,odom,0.234704736229,0.000899007478305,0.0,0.0,0.0,0.0105052560447,0.999944818275,0,1449617622088042666,odom,0.260413346265,0.00143924797613,0.0,0.0,0.0,0.0127607420349,0.999918578417,0,1449617622088046564,odom,0.286119257529,0.00209546127508,0.0,0.0,0.0,0.0150161630996,0.999887251067,0,1449617622088046817,odom,0.311821946864,0.00286763402016,0.0,0.0,0.0,0.0172715077635,0.999850836385,0,1449617622088047190,odom,0.337520891179,0.00375575049643,0.0,0.0,0.0,0.0195267645516,0.999809334556,0,1449617622088047725,odom,0.36321556746,0.00475979262929,0.0,0.0,0.0,0.0217819219894,0.999762745792,0,1449617622088047905,odom,0.388905452779,0.0058797399849,0.0,0.0,0.0,0.0240369686028,0.99971107033
1449617622158982928,25,1449617622152821838,odom,0,1449617622152821838,odom,0.0662313848734,0.000243455637246,0.0,0.0,0.0,-0.0052839998134,0.999986039576,0,1449617622152824663,odom,0.0919442346683,-2.82891308605e-05,0.0,0.0,0.0,0.00148289234726,0.999998900515,0,1449617622152825514,odom,0.117658407293,4.79738202914e-05,0.0,0.0,0.0,0.00824971660481,0.999965970509,0,1449617622152826534,odom,0.14336919289,0.000472230522236,0.0,0.0,0.0,0.0150161630996,0.999887251067,0,1449617622152826738,odom,0.169071882225,0.00124440326732,0.0,0.0,0.0,0.0217819219894,0.999762745792,0,1449617622152827379,odom,0.194761767545,0.00236435062292,0.0,0.0,0.0,0.0285466834633,0.999592460387,0,1449617622152827641,odom,0.22043414344,0.00383186745738,0.0,0.0,0.0,0.0353101377561,0.999376402649,0,1449617622152828017,odom,0.246084307712,0.00564668497755,0.0,0.0,0.0,0.0420719751626,0.999114582471,0,1449617622152828270,odom,0.271707562227,0.00780847077804,0.0,0.0,0.0,0.0488318860516,0.998807011842,0,1449617622152830111,odom,0.297299213782,0.0103168289021,0.0,0.0,0.0,0.0555895608798,0.998453704846,0,1449617622152830346,odom,0.322854574962,0.0131712999141,0.0,0.0,0.0,0.0623446902068,0.998054677662,0,1449617622152830520,odom,0.348368964999,0.0163713609838,0.0,0.0,0.0,0.0690969647084,0.997609948561,0,1449617622152830726,odom,0.373837710629,0.0199164259819,0.0,0.0,0.0,0.0758460751912,0.997119537908,0,1449617622152830907,odom,0.399256146948,0.0238058455878,0.0,0.0,0.0,0.0825917126067,0.996583468159
1449617622245428893,26,1449617622240213283,odom,0,1449617622240213283,odom,0.0748688355088,6.08664595347e-05,0.0,0.0,0.0,-0.010567852093,0.999944158692,0,1449617622240223205,odom,0.0748688355088,6.08664595347e-05,0.0,0.0,0.0,0.0281782208871,0.999602915096,0,1449617622240226014,odom,0.0748688355088,6.08664595347e-05,0.0,0.0,0.0,0.0668819878016,0.997760893054,0,1449617622240228925,odom,0.0748688355088,6.08664595347e-05,0.0,0.0,0.0,0.105485339797,0.994420858132,0,1449617622240229490,odom,0.0748688355088,6.08664595347e-05,0.0,0.0,0.0,0.143930318781,0.989587824973,0,1449617622240231072,odom,0.0748688355088,6.08664595347e-05,0.0,0.0,0.0,0.182159204437,0.983269049772,0,1449617622240231663,odom,0.0748688355088,6.08664595347e-05,0.0,0.0,0.0,0.220114600888,0.975474019375,0,1449617622240232144,odom,0.0748688355088,6.08664595347e-05,0.0,0.0,0.0,0.257739522863,0.966214437045,0,1449617622240232705,odom,0.0748688355088,6.08664595347e-05,0.0,0.0,0.0,0.29497748126,0.955504204883,0,1449617622240235888,odom,0.0748688355088,6.08664595347e-05,0.0,0.0,0.0,0.331772567954,0.94335940296,0,1449617622240236169,odom,0.0748688355088,6.08664595347e-05,0.0,0.0,0.0,0.368069539736,0.929798265173,0,1449617622240236590,odom,0.0748688355088,6.08664595347e-05,0.0,0.0,0.0,0.403813901252,0.91484115187
1449617622352050024,27,1449617622350703957,odom,0,1449617622350703957,odom,0.0892621725798,-0.000334717944497,0.0,0.0,0.0,-0.0158514093093,0.999874358519,0,1449617622350707135,odom,0.114963535982,-0.00114983085554,0.0,0.0,0.0,-0.00908503093323,0.999958730255,0,1449617622350707914,odom,0.140673576896,-0.00161704173535,0.0,0.0,0.0,-0.00231823654457,0.999997312886,0,1449617622350708786,odom,0.166387586222,-0.00173626500871,0.0,0.0,0.0,0.00444866399844,0.999990104645,0,1449617622350709168,odom,0.192100854133,-0.00150747883844,0.0,0.0,0.0,0.0112153608327,0.999937105863,0,1449617622350710170,odom,0.21780867094,-0.000930725129469,0.0,0.0,0.0,0.0179815441044,0.999838318965,0,1449617622350710435,odom,0.243506327949,-6.10952107973e-06,0.0,0.0,0.0,0.0247469039834,0.999693748477,0,1449617622350710658,odom,0.26918911833,0.00126619863239,0.0,0.0,0.0,0.031511130677,0.999503401016,0,1449617622350710937,odom,0.294852337975,0.00288596629258,0.0,0.0,0.0,0.0382739144445,0.999267285301,0,1449617622350712419,odom,0.320491286359,0.0048528967798,0.0,0.0,0.0,0.0450349456115,0.998985412143,0,1449617622350712627,odom,0.346101267405,0.00716662982736,0.0,0.0,0.0,0.0517939145834,0.998657794448,0,1449617622350712853,odom,0.37167759034,0.00982674164755,0.0,0.0,0.0,0.0585505118605,0.99828444722,0,1449617622350713061,odom,0.397215570558,0.0128327450093,0.0,0.0,0.0,0.0653044280514,0.997865387553,0,1449617622350713290,odom,0.422710530473,0.0161840893273,0.0,0.0,0.0,0.0720553538876,0.997400634638
1449617622415835044,28,1449617622414985431,odom,0,1449617622414985431,odom,0.109404966235,-0.00112578482367,0.0,0.0,0.0,-0.0211345239407,0.999776641004,0,1449617622414989140,odom,0.109404966235,-0.00112578482367,0.0,0.0,0.0,0.017208917544,0.999851915614,0,1449617622414990386,odom,0.109404966235,-0.00112578482367,0.0,0.0,0.0,0.055527058045,0.99845718277,0,1449617622414991374,odom,0.109404966235,-0.00112578482367,0.0,0.0,0.0,0.0937635612676,0.995594493043,0,1449617622414991664,odom,0.109404966235,-0.00112578482367,0.0,0.0,0.0,0.131862210942,0.991268055233,0,1449617622414992615,odom,0.109404966235,-0.00112578482367,0.0,0.0,0.0,0.169766993475,0.985484230176,0,1449617622414993037,odom,0.109404966235,-0.00112578482367,0.0,0.0,0.0,0.207422180301,0.978251521399,0,1449617622414993297,odom,0.109404966235,-0.00112578482367,0.0,0.0,0.0,0.244772409817,0.969580562611,0,1449617622414993560,odom,0.109404966235,-0.00112578482367,0.0,0.0,0.0,0.281762768774,0.959484102074,0,1449617622414995053,odom,0.109404966235,-0.00112578482367,0.0,0.0,0.0,0.318338873016,0.947976983859,0,1449617622414995333,odom,0.109404966235,-0.00112578482367,0.0,0.0,0.0,0.354446947435,0.935076126021,0,1449617622414995751,odom,0.109404966235,-0.00112578482367,0.0,0.0,0.0,0.390033905029,0.920800495725,0,1449617622414996011,odom,0.109404966235,-0.00112578482367,0.0,0.0,0.0,0.425047424958,0.905171081363,0,1449617622414996192,odom,0.109404966235,-0.00112578482367,0.0,0.0,0.0,0.459436029465,0.888210861693
1449617622488109368,29,1449617622481511809,odom,0,1449617622481511809,odom,0.115159407258,-0.0013691826025,0.0,0.0,0.0,-0.0211345239407,0.999776641004,0,1449617622481519480,odom,0.115159407258,-0.0013691826025,0.0,0.0,0.0,0.0176129916199,0.999844879232,0,1449617622481522163,odom,0.115159407258,-0.0013691826025,0.0,0.0,0.0,0.0563340634819,0.998411975735,0,1449617622481523292,odom,0.115159407258,-0.0013691826025,0.0,0.0,0.0,0.0949705568109,0.995480081839,0,1449617622481523928,odom,0.115159407258,-0.0013691826025,0.0,0.0,0.0,0.133464463756,0.991053599415,0,1449617622481527904,odom,0.115159407258,-0.0013691826025,0.0,0.0,0.0,0.171757990543,0.985139174272,0,1449617622481528367,odom,0.115159407258,-0.0013691826025,0.0,0.0,0.0,0.209793644243,0.977745686176,0,1449617622481528806,odom,0.115159407258,-0.0013691826025,0.0,0.0,0.0,0.24751431909,0.968884235523,0,1449617622481529103,odom,0.115159407258,-0.0013691826025,0.0,0.0,0.0,0.28486338222,0.958568126671,0,1449617622481532392,odom,0.115159407258,-0.0013691826025,0.0,0.0,0.0,0.321784758699,0.946812847964,0,1449617622481532647,odom,0.115159407258,-0.0013691826025,0.0,0.0,0.0,0.358223015709,0.933636048478,0,1449617622481532973,odom,0.115159407258,-0.0013691826025,0.0,0.0,0.0,0.394123445774,0.919057511525
1449617622562213441,30,1449617622561314996,odom,0,1449617622561314996,odom,0.13528983295,-0.0024338697549,0.0,0.0,0.0,-0.0264170484783,0.999651008877,0,1449617622561323604,odom,0.13528983295,-0.0024338697549,0.0,0.0,0.0,0.0110796512878,0.99993861878,0,1449617622561326495,odom,0.13528983295,-0.0024338697549,0.0,0.0,0.0,0.04856077212,0.998820229777,0,1449617622561328051,odom,0.13528983295,-0.0024338697549,0.0,0.0,0.0,0.0859736123686,0.996297414418,0,1449617622561328371,odom,0.13528983295,-0.0024338697549,0.0,0.0,0.0,0.123265566392,0.992373719998,0,1449617622561330424,odom,0.13528983295,-0.0024338697549,0.0,0.0,0.0,0.160384198526,0.987054663564,0,1449617622561331062,odom,0.13528983295,-0.0024338697549,0.0,0.0,0.0,0.197277316809,0.980347724164,0,1449617622561331418,odom,0.13528983295,-0.0024338697549,0.0,0.0,0.0,0.233893046375,0.972262332325,0,1449617622561332013,odom,0.13528983295,-0.0024338697549,0.0,0.0,0.0,0.270179902386,0.962809856798,0,1449617622561336775,odom,0.13528983295,-0.0024338697549,0.0,0.0,0.0,0.306086862432,0.952003588568,0,1449617622561337140,odom,0.13528983295,-0.0024338697549,0.0,0.0,0.0,0.341563438267,0.93985872217,0,1449617622561337364,odom,0.13528983295,-0.0024338697549,0.0,0.0,0.0,0.376559746803,0.926392334321,0,1449617622561337747,odom,0.13528983295,-0.0024338697549,0.0,0.0,0.0,0.411026580246,0.911623359909,0,1449617622561338161,odom,0.13528983295,-0.0024338697549,0.0,0.0,0.0,0.444915475293,0.895572565371,0,1449617622561338445,odom,0.13528983295,-0.0024338697549,0.0,0.0,0.0,0.478178781269,0.878262519492,0,1449617622561338741,odom,0.13528983295,-0.0024338697549,0.0,0.0,0.0,0.510769727132,0.859717561671
1449617626448979498,31,1449617626427321249,odom,0,1449617626427321249,odom,1.2069658041,-0.237560555339,0.0,0.0,0.0,-0.163073201958,0.986613972536,0,1449617626427324177,odom,1.23077141982,-0.245651038976,0.0,0.0,0.0,-0.159362983248,0.987220056305,0,1449617626427325402,odom,1.25463719278,-0.253562306021,0.0,0.0,0.0,-0.155650512252,0.987812187633,0,1449617626427325984,odom,1.2785617738,-0.261293909236,0.0,0.0,0.0,-0.151935841437,0.988390358151,0,1449617626427326217,odom,1.30254381038,-0.268845411536,0.0,0.0,0.0,-0.148219023304,0.98895455969,0,1449617626427327500,odom,1.32658194676,-0.276216386019,0.0,0.0,0.0,-0.144500110383,0.989504784273,0,1449617626427327711,odom,1.35067482401,-0.28340641599,0.0,0.0,0.0,-0.140779155233,0.990041024126,0,1449617626427327962,odom,1.37482108012,-0.29041509498,0.0,0.0,0.0,-0.137056210443,0.990563271669,0,1449617626427328271,odom,1.39901935005,-0.297242026777,0.0,0.0,0.0,-0.133331328629,0.991071519521,0,1449617626427329873,odom,1.42326826582,-0.303886825438,0.0,0.0,0.0,-0.129604562435,0.9915657605,0,1449617626427330162,odom,1.44756645659,-0.31034911532,0.0,0.0,0.0,-0.125875964532,0.99204598762,0,1449617626427330409,odom,1.47191254874,-0.316628531096,0.0,0.0,0.0,-0.122145587617,0.992512194094,0,1449617626427330634,odom,1.49630516592,-0.322724717778,0.0,0.0,0.0,-0.11841348441,0.992964373334,0,1449617626427330861,odom,1.52074292919,-0.328637330737,0.0,0.0,0.0,-0.114679707659,0.993402518948,0,1449617626427331123,odom,1.54522445701,-0.33436603572,0.0,0.0,0.0,-0.110944310132,0.993826624744,0,1449617626427331572,odom,1.5697483654,-0.339910508872,0.0,0.0,0.0,-0.107207344623,0.994236684728,0,1449617626427331798,odom,1.59431326797,-0.345270436753,0.0,0.0,0.0,-0.103468863946,0.994632693105,0,1449617626427332923,odom,1.61891777602,-0.350445516354,0.0,0.0,0.0,-0.0997289209369,0.995014644279,0,1449617626427333250,odom,1.64356049861,-0.355435455119,0.0,0.0,0.0,-0.0959875684532,0.99538253285,0,1449617626427333646,odom,1.66824004263,-0.360239970954,0.0,0.0,0.0,-0.0922448593714,0.99573635362,0,1449617626427333848,odom,1.69295501289,-0.364858792253,0.0,0.0,0.0,-0.0885008465874,0.996076101587,0,1449617626427334051,odom,1.71770401221,-0.369291657902,0.0,0.0,0.0,-0.0847555830156,0.996401771951,0,1449617626427334411,odom,1.74248564148,-0.373538317304,0.0,0.0,0.0,-0.081009121588,0.996713360109,0,1449617626427334923,odom,1.76729849974,-0.377598530385,0.0,0.0,0.0,-0.0772615152536,0.997010861656,0,1449617626427335134,odom,1.79214118427,-0.381472067614,0.0,0.0,0.0,-0.0735128169776,0.997294272389,0,1449617626427335438,odom,1.81701229066,-0.385158710012,0.0,0.0,0.0,-0.0697630797405,0.997563588302,0,1449617626427335790,odom,1.8419104129,-0.388658249165,0.0,0.0,0.0,-0.0660123565375,0.997818805588,0,1449617626427336266,odom,1.86683414345,-0.391970487237,0.0,0.0,0.0,-0.062260700378,0.99805992064,0,1449617626427336549,odom,1.89178207331,-0.395095236981,0.0,0.0,0.0,-0.0585081642841,0.998286930052,0,1449617626427336781,odom,1.91675279213,-0.398032321748,0.0,0.0,0.0,-0.0547548012909,0.998499830614,0,1449617626427337146,odom,1.94174488826,-0.400781575499,0.0,0.0,0.0,-0.0510006644448,0.998698619317,0,1449617626427337342,odom,1.96675694885,-0.403342842812,0.0,0.0,0.0,-0.0472458068032,0.998883293353,0,1449617626427337684,odom,1.99178755992,-0.405715978895,0.0,0.0,0.0,-0.0434902814337,0.999053850111,0,1449617626427339926,odom,2.01683530643,-0.407900849588,0.0,0.0,0.0,-0.0397341414135,0.99921028718,0,1449617626427340190,odom,2.04189877239,-0.409897331377,0.0,0.0,0.0,-0.0359774398282,0.99935260235,0,1449617626427340392,odom,2.0669765409,-0.411705311397,0.0,0.0,0.0,-0.0322202297716,0.999480793609,0,1449617626427340729,odom,2.09206719427,-0.413324687438,0.0,0.0,0.0,-0.0284625643446,0.999594859146,0,1449617626427340954,odom,2.11716931407,-0.414755367955,0.0,0.0,0.0,-0.0247044966544,0.999694797348,0,1449617626427341182,odom,2.14228148123,-0.415997272067,0.0,0.0,0.0,-0.0209460798141,0.999780606804,0,1449617626427341375,odom,2.16740227611,-0.417050329568,0.0,0.0,0.0,-0.0171873669416,0.999852286299,0,1449617626427341587,odom,2.19253027857,-0.417914480925,0.0,0.0,0.0,-0.013428411159,0.999909834822,0,1449617626427342077,odom,2.21766406808,-0.418589677287,0.0,0.0,0.0,-0.00966926559178,0.999953251559
1449617626534157087,32,1449617626533408462,odom,0,1449617626533408462,odom,1.22600245476,-0.244190990925,0.0,0.0,0.0,-0.16828419527,0.985738519904,0,1449617626533411974,odom,1.24972124208,-0.252532597093,0.0,0.0,0.0,-0.164577230904,0.986364200013,0,1449617626533413067,odom,1.27350207721,-0.26069563241,0.0,0.0,0.0,-0.160867940558,0.986975939778,0,1449617626533413685,odom,1.29734361578,-0.268679635404,0.0,0.0,0.0,-0.157156376656,0.987573730552,0,1449617626533413952,odom,1.32124450998,-0.276484154723,0.0,0.0,0.0,-0.153442591653,0.988157563887,0,1449617626533414778,odom,1.34520340864,-0.28410874916,0.0,0.0,0.0,-0.149726638037,0.988727431531,0,1449617626533415088,odom,1.36921895732,-0.291552987683,0.0,0.0,0.0,-0.146008568326,0.989283325431,0,1449617626533415326,odom,1.39328979836,-0.298816449453,0.0,0.0,0.0,-0.142288435066,0.98982523773,0,1449617626533415561,odom,1.41741457099,-0.305898723852,0.0,0.0,0.0,-0.138566290836,0.990353160768,0,1449617626533417381,odom,1.4415919114,-0.312799410504,0.0,0.0,0.0,-0.134842188239,0.990867087086,0,1449617626533417622,odom,1.46582045278,-0.3195181193,0.0,0.0,0.0,-0.13111617991,0.99136700942,0,1449617626533417833,odom,1.49009882544,-0.326054470416,0.0,0.0,0.0,-0.127388318508,0.991852920703,0,1449617626533418101,odom,1.51442565689,-0.332408094341,0.0,0.0,0.0,-0.123658656719,0.99232481407,0,1449617626533418306,odom,1.53879957188,-0.33857863189,0.0,0.0,0.0,-0.119927247255,0.992782682849,0,1449617626533418639,odom,1.56321919249,-0.344565734231,0.0,0.0,0.0,-0.116194142852,0.993226520572,0,1449617626533418867,odom,1.58768313824,-0.3503690629,0.0,0.0,0.0,-0.11245939627,0.993656320963,0,1449617626533419128,odom,1.61219002613,-0.355988289824,0.0,0.0,0.0,-0.108723060293,0.99407207795,0,1449617626533420224,odom,1.63673847074,-0.361423097335,0.0,0.0,0.0,-0.104985187726,0.994473785657,0,1449617626533420437,odom,1.66132708429,-0.366673178194,0.0,0.0,0.0,-0.101245831397,0.994861438405,0,1449617626533420636,odom,1.68595447673,-0.371738235602,0.0,0.0,0.0,-0.0975050441545,0.995235030716,0,1449617626533420837,odom,1.71061925584,-0.376617983221,0.0,0.0,0.0,-0.0937628788674,0.995594557311,0,1449617626533421117,odom,1.73532002726,-0.38131214519,0.0,0.0,0.0,-0.0900193884238,0.995940013107,0,1449617626533421385,odom,1.76005539461,-0.385820456138,0.0,0.0,0.0,-0.0862746257308,0.996271393223,0,1449617626533421581,odom,1.78482395954,-0.3901426612,0.0,0.0,0.0,-0.0825286437133,0.996588692976,0,1449617626533421772,odom,1.80962432183,-0.394278516033,0.0,0.0,0.0,-0.0787814953135,0.99689190788,0,1449617626533422041,odom,1.83445507949,-0.398227786831,0.0,0.0,0.0,-0.0750332334901,0.99718103365,0,1449617626533422264,odom,1.85931482875,-0.401990250331,0.0,0.0,0.0,-0.0712839112174,0.997456066201,0,1449617626533422523,odom,1.88420216427,-0.405565693834,0.0,0.0,0.0,-0.067533581485,0.997717001645,0,1449617626533422740,odom,1.9091156791,-0.408953915213,0.0,0.0,0.0,-0.0637822972963,0.997963836294,0,1449617626533423057,odom,1.93405396483,-0.412154722925,0.0,0.0,0.0,-0.0600301116686,0.998196566661,0,1449617626533423282,odom,1.95901561166,-0.415167936023,0.0,0.0,0.0,-0.0562770776317,0.998415189454,0,1449617626533423538,odom,1.98399920844,-0.417993384161,0.0,0.0,0.0,-0.0525232482274,0.998619701586,0,1449617626533423777,odom,2.0090033428,-0.420630907614,0.0,0.0,0.0,-0.0487686765089,0.998810100165,0,1449617626533425773,odom,2.03402660122,-0.423080357275,0.0,0.0,0.0,-0.0450134155398,0.998986382501,0,1449617626533425977,odom,2.05906756906,-0.425341594672,0.0,0.0,0.0,-0.0412575183933,0.999148546101,0,1449617626533426188,odom,2.08412483073,-0.427414491974,0.0,0.0,0.0,-0.0375010381518,0.999296588675,0,1449617626533426393,odom,2.10919696967,-0.429298931994,0.0,0.0,0.0,-0.0337440279059,0.99943050813,0,1449617626533426743,odom,2.13428256851,-0.430994808202,0.0,0.0,0.0,-0.0299865407536,0.999550302573,0,1449617626533427001,odom,2.15938020911,-0.432502024727,0.0,0.0,0.0,-0.0262286297997,0.999655970311,0,1449617626533427235,odom,2.18448847265,-0.433820496361,0.0,0.0,0.0,-0.0224703481551,0.999747509851,0,1449617626533427516,odom,2.2096059397,-0.434950148571,0.0,0.0,0.0,-0.0187117489356,0.999824919899,0,1449617626533427902,odom,2.23473119033,-0.435890917493,0.0,0.0,0.0,-0.0149528852618,0.999888199361
1449617626617662684,33,1449617626607907117,odom,0,1449617626607907117,odom,1.23689901829,-0.247926414013,0.0,0.0,0.0,-0.16828419527,0.985738519904,0,1449617626607910993,odom,1.26061780561,-0.256268020181,0.0,0.0,0.0,-0.164577230904,0.986364200013,0,1449617626607912062,odom,1.28439864074,-0.264431055498,0.0,0.0,0.0,-0.160867940558,0.986975939778,0,1449617626607913191,odom,1.30824017931,-0.272415058492,0.0,0.0,0.0,-0.157156376656,0.987573730552,0,1449617626607913564,odom,1.33214107351,-0.280219577811,0.0,0.0,0.0,-0.153442591653,0.988157563887,0,1449617626607914283,odom,1.35609997217,-0.287844172248,0.0,0.0,0.0,-0.149726638037,0.988727431531,0,1449617626607914495,odom,1.38011552085,-0.295288410771,0.0,0.0,0.0,-0.146008568326,0.989283325431,0,1449617626607914711,odom,1.40418636189,-0.302551872541,0.0,0.0,0.0,-0.142288435066,0.98982523773,0,1449617626607915056,odom,1.42831113452,-0.30963414694,0.0,0.0,0.0,-0.138566290836,0.990353160768,0,1449617626607916789,odom,1.45248847493,-0.316534833592,0.0,0.0,0.0,-0.134842188239,0.990867087086,0,1449617626607917076,odom,1.47671701631,-0.323253542388,0.0,0.0,0.0,-0.13111617991,0.99136700942,0,1449617626607917324,odom,1.50099538897,-0.329789893504,0.0,0.0,0.0,-0.127388318508,0.991852920703,0,1449617626607917550,odom,1.52532222042,-0.336143517429,0.0,0.0,0.0,-0.123658656719,0.99232481407,0,1449617626607917759,odom,1.54969613541,-0.342314054978,0.0,0.0,0.0,-0.119927247255,0.992782682849,0,1449617626607918241,odom,1.57411575602,-0.348301157319,0.0,0.0,0.0,-0.116194142852,0.993226520572,0,1449617626607918460,odom,1.59857970177,-0.354104485988,0.0,0.0,0.0,-0.11245939627,0.993656320963,0,1449617626607918696,odom,1.62308658966,-0.359723712912,0.0,0.0,0.0,-0.108723060293,0.99407207795,0,1449617626607920017,odom,1.64763503427,-0.365158520423,0.0,0.0,0.0,-0.104985187726,0.994473785657,0,1449617626607920251,odom,1.67222364782,-0.370408601282,0.0,0.0,0.0,-0.101245831397,0.994861438405,0,1449617626607920445,odom,1.69685104026,-0.37547365869,0.0,0.0,0.0,-0.0975050441545,0.995235030716,0,1449617626607920639,odom,1.72151581937,-0.380353406309,0.0,0.0,0.0,-0.0937628788674,0.995594557311,0,1449617626607920881,odom,1.74621659079,-0.385047568278,0.0,0.0,0.0,-0.0900193884238,0.995940013107,0,1449617626607921073,odom,1.77095195814,-0.389555879226,0.0,0.0,0.0,-0.0862746257308,0.996271393223,0,1449617626607921277,odom,1.79572052307,-0.393878084288,0.0,0.0,0.0,-0.0825286437133,0.996588692976,0,1449617626607921474,odom,1.82052088536,-0.398013939122,0.0,0.0,0.0,-0.0787814953135,0.99689190788,0,1449617626607921703,odom,1.84535164302,-0.401963209919,0.0,0.0,0.0,-0.0750332334901,0.99718103365,0,1449617626607921940,odom,1.87021139228,-0.405725673419,0.0,0.0,0.0,-0.0712839112174,0.997456066201,0,1449617626607922167,odom,1.8950987278,-0.409301116922,0.0,0.0,0.0,-0.067533581485,0.997717001645,0,1449617626607922366,odom,1.92001224263,-0.412689338301,0.0,0.0,0.0,-0.0637822972963,0.997963836294,0,1449617626607922596,odom,1.94495052836,-0.415890146013,0.0,0.0,0.0,-0.0600301116686,0.998196566661,0,1449617626607922893,odom,1.96991217519,-0.418903359111,0.0,0.0,0.0,-0.0562770776317,0.998415189454,0,1449617626607923131,odom,1.99489577197,-0.42172880725,0.0,0.0,0.0,-0.0525232482274,0.998619701586,0,1449617626607923343,odom,2.01989990633,-0.424366330702,0.0,0.0,0.0,-0.0487686765089,0.998810100165,0,1449617626607925430,odom,2.04492316475,-0.426815780363,0.0,0.0,0.0,-0.0450134155398,0.998986382501,0,1449617626607925637,odom,2.06996413259,-0.42907701776,0.0,0.0,0.0,-0.0412575183933,0.999148546101,0,1449617626607925849,odom,2.09502139426,-0.431149915062,0.0,0.0,0.0,-0.0375010381518,0.999296588675,0,1449617626607926068,odom,2.1200935332,-0.433034355082,0.0,0.0,0.0,-0.0337440279059,0.99943050813,0,1449617626607926297,odom,2.14517913204,-0.43473023129,0.0,0.0,0.0,-0.0299865407536,0.999550302573,0,1449617626607926552,odom,2.17027677264,-0.436237447815,0.0,0.0,0.0,-0.0262286297997,0.999655970311,0,1449617626607926775,odom,2.19538503618,-0.437555919449,0.0,0.0,0.0,-0.0224703481551,0.999747509851,0,1449617626607926988,odom,2.22050250323,-0.438685571659,0.0,0.0,0.0,-0.0187117489356,0.999824919899,0,1449617626607927278,odom,2.24562775386,-0.439626340581,0.0,0.0,0.0,-0.0149528852618,0.999888199361
