%time,field.header.seq,field.header.stamp,field.header.frame_id,field.polygon.points0.x,field.polygon.points0.y,field.polygon.points0.z,field.polygon.points1.x,field.polygon.points1.y,field.polygon.points1.z,field.polygon.points2.x,field.polygon.points2.y,field.polygon.points2.z,field.polygon.points3.x,field.polygon.points3.y,field.polygon.points3.z,field.polygon.points4.x,field.polygon.points4.y,field.polygon.points4.z
1449617599092202694,1,1449617599091803186,odom,0.479999989271,0.0,0.0,0.329999983311,-0.264999985695,0.0,-0.539999961853,-0.264999985695,0.0,-0.539999961853,0.264999985695,0.0,0.329999983311,0.264999985695,0.0
1449617599291557463,2,1449617599291120662,odom,0.479999989271,0.0,0.0,0.329999983311,-0.264999985695,0.0,-0.539999961853,-0.264999985695,0.0,-0.539999961853,0.264999985695,0.0,0.329999983311,0.264999985695,0.0
1449617599618928933,3,1449617599618383590,odom,0.479999989271,0.0,0.0,0.329999983311,-0.264999985695,0.0,-0.539999961853,-0.264999985695,0.0,-0.539999961853,0.264999985695,0.0,0.329999983311,0.264999985695,0.0
1449617599786621214,4,1449617599785643313,odom,0.479999989271,0.0,0.0,0.329999983311,-0.264999985695,0.0,-0.539999961853,-0.264999985695,0.0,-0.539999961853,0.264999985695,0.0,0.329999983311,0.264999985695,0.0
1449617599967470394,5,1449617599967093140,odom,0.479999989271,0.0,0.0,0.329999983311,-0.264999985695,0.0,-0.539999961853,-0.264999985695,0.0,-0.539999961853,0.264999985695,0.0,0.329999983311,0.264999985695,0.0
1449617600174322980,6,1449617600174103632,odom,0.479999989271,0.0,0.0,0.329999983311,-0.264999985695,0.0,-0.539999961853,-0.264999985695,0.0,-0.539999961853,0.264999985695,0.0,0.329999983311,0.264999985695,0.0
1449617600386035858,7,1449617600385602919,odom,0.479999989271,0.0,0.0,0.329999983311,-0.264999985695,0.0,-0.539999961853,-0.264999985695,0.0,-0.539999961853,0.264999985695,0.0,0.329999983311,0.264999985695,0.0
1449617600622876037,8,1449617600622331430,odom,0.479999989271,0.0,0.0,0.329999983311,-0.264999985695,0.0,-0.539999961853,-0.264999985695,0.0,-0.539999961853,0.264999985695,0.0,0.329999983311,0.264999985695,0.0
1449617600798554748,9,1449617600797847166,odom,0.479999989271,0.0,0.0,0.329999983311,-0.264999985695,0.0,-0.539999961853,-0.264999985695,0.0,-0.539999961853,0.264999985695,0.0,0.329999983311,0.264999985695,0.0
1449617601030053904,10,1449617601029748722,odom,0.479999989271,0.0,0.0,0.329999983311,-0.264999985695,0.0,-0.539999961853,-0.264999985695,0.0,-0.539999961853,0.264999985695,0.0,0.329999983311,0.264999985695,0.0
1449617601184738385,11,1449617601184083685,odom,0.479999989271,0.0,0.0,0.329999983311,-0.264999985695,0.0,-0.539999961853,-0.264999985695,0.0,-0.539999961853,0.264999985695,0.0,0.329999983311,0.264999985695,0.0
1449617601390500021,12,1449617601390265636,odom,0.479999989271,0.0,0.0,0.329999983311,-0.264999985695,0.0,-0.539999961853,-0.264999985695,0.0,-0.539999961853,0.264999985695,0.0,0.329999983311,0.264999985695,0.0
1449617601600223766,13,1449617601599986510,odom,0.479999989271,0.0,0.0,0.329999983311,-0.264999985695,0.0,-0.539999961853,-0.264999985695,0.0,-0.539999961853,0.264999985695,0.0,0.329999983311,0.264999985695,0.0
1449617601809951552,14,1449617601807537307,odom,0.479999989271,0.0,0.0,0.329999983311,-0.264999985695,0.0,-0.539999961853,-0.264999985695,0.0,-0.539999961853,0.264999985695,0.0,0.329999983311,0.264999985695,0.0
1449617601983779383,15,1449617601979468212,odom,0.479999989271,0.0,0.0,0.329999983311,-0.264999985695,0.0,-0.539999961853,-0.264999985695,0.0,-0.539999961853,0.264999985695,0.0,0.329999983311,0.264999985695,0.0
1449617602178441188,16,1449617602176242906,odom,0.479999989271,0.0,0.0,0.329999983311,-0.264999985695,0.0,-0.539999961853,-0.264999985695,0.0,-0.539999961853,0.264999985695,0.0,0.329999983311,0.264999985695,0.0
1449617602377224119,17,1449617602376969577,odom,0.479999989271,0.0,0.0,0.329999983311,-0.264999985695,0.0,-0.539999961853,-0.264999985695,0.0,-0.539999961853,0.264999985695,0.0,0.329999983311,0.264999985695,0.0
1449617602576027096,18,1449617602575745846,odom,0.479999989271,0.0,0.0,0.329999983311,-0.264999985695,0.0,-0.539999961853,-0.264999985695,0.0,-0.539999961853,0.264999985695,0.0,0.329999983311,0.264999985695,0.0
1449617602839238958,19,1449617602838942201,odom,0.479999989271,0.0,0.0,0.329999983311,-0.264999985695,0.0,-0.539999961853,-0.264999985695,0.0,-0.539999961853,0.264999985695,0.0,0.329999983311,0.264999985695,0.0
1449617602998207746,20,1449617602997996481,odom,0.479999989271,0.0,0.0,0.329999983311,-0.264999985695,0.0,-0.539999961853,-0.264999985695,0.0,-0.539999961853,0.264999985695,0.0,0.329999983311,0.264999985695,0.0
1449617603198988280,21,1449617603198863837,odom,0.479999989271,0.0,0.0,0.329999983311,-0.264999985695,0.0,-0.539999961853,-0.264999985695,0.0,-0.539999961853,0.264999985695,0.0,0.329999983311,0.264999985695,0.0
1449617603394222937,22,1449617603393875171,odom,0.479999989271,0.0,0.0,0.329999983311,-0.264999985695,0.0,-0.539999961853,-0.264999985695,0.0,-0.539999961853,0.264999985695,0.0,0.329999983311,0.264999985695,0.0
1449617603578875919,23,1449617603578408513,odom,0.479999989271,0.0,0.0,0.329999983311,-0.264999985695,0.0,-0.539999961853,-0.264999985695,0.0,-0.539999961853,0.264999985695,0.0,0.329999983311,0.264999985695,0.0
1449617603784779552,24,1449617603784573312,odom,0.479999989271,0.0,0.0,0.329999983311,-0.264999985695,0.0,-0.539999961853,-0.264999985695,0.0,-0.539999961853,0.264999985695,0.0,0.329999983311,0.264999985695,0.0
1449617603996694070,25,1449617603995846170,odom,0.479999989271,0.0,0.0,0.329999983311,-0.264999985695,0.0,-0.539999961853,-0.264999985695,0.0,-0.539999961853,0.264999985695,0.0,0.329999983311,0.264999985695,0.0
1449617604180424573,26,1449617604180160270,odom,0.479999989271,0.0,0.0,0.329999983311,-0.264999985695,0.0,-0.539999961853,-0.264999985695,0.0,-0.539999961853,0.264999985695,0.0,0.329999983311,0.264999985695,0.0
1449617604384829523,27,1449617604379167069,odom,0.479999989271,0.0,0.0,0.329999983311,-0.264999985695,0.0,-0.539999961853,-0.264999985695,0.0,-0.539999961853,0.264999985695,0.0,0.329999983311,0.264999985695,0.0
1449617604631245684,28,1449617604629410580,odom,0.479999989271,0.0,0.0,0.329999983311,-0.264999985695,0.0,-0.539999961853,-0.264999985695,0.0,-0.539999961853,0.264999985695,0.0,0.329999983311,0.264999985695,0.0
1449617604775651451,29,1449617604775397936,odom,0.479999989271,0.0,0.0,0.329999983311,-0.264999985695,0.0,-0.539999961853,-0.264999985695,0.0,-0.539999961853,0.264999985695,0.0,0.329999983311,0.264999985695,0.0
1449617605008300586,30,1449617605008140186,odom,0.479999989271,0.0,0.0,0.329999983311,-0.264999985695,0.0,-0.539999961853,-0.264999985695,0.0,-0.539999961853,0.264999985695,0.0,0.329999983311,0.264999985695,0.0
1449617605233767632,31,1449617605233328192,odom,0.479999989271,0.0,0.0,0.329999983311,-0.264999985695,0.0,-0.539999961853,-0.264999985695,0.0,-0.539999961853,0.264999985695,0.0,0.329999983311,0.264999985695,0.0
1449617605413065260,32,1449617605412651972,odom,0.479999989271,0.0,0.0,0.329999983311,-0.264999985695,0.0,-0.539999961853,-0.264999985695,0.0,-0.539999961853,0.264999985695,0.0,0.329999983311,0.264999985695,0.0
1449617605566342358,33,1449617605566163405,odom,0.479999989271,0.0,0.0,0.329999983311,-0.264999985695,0.0,-0.539999961853,-0.264999985695,0.0,-0.539999961853,0.264999985695,0.0,0.329999983311,0.264999985695,0.0
1449617605780481499,34,1449617605779105884,odom,0.479999989271,0.0,0.0,0.329999983311,-0.264999985695,0.0,-0.539999961853,-0.264999985695,0.0,-0.539999961853,0.264999985695,0.0,0.329999983311,0.264999985695,0.0
1449617606019866465,35,1449617606019693887,odom,0.479999989271,0.0,0.0,0.329999983311,-0.264999985695,0.0,-0.539999961853,-0.264999985695,0.0,-0.539999961853,0.264999985695,0.0,0.329999983311,0.264999985695,0.0
1449617606219415113,36,1449617606218738801,odom,0.479999989271,0.0,0.0,0.329999983311,-0.264999985695,0.0,-0.539999961853,-0.264999985695,0.0,-0.539999961853,0.264999985695,0.0,0.329999983311,0.264999985695,0.0
1449617606388643087,37,1449617606388356450,odom,0.479999989271,0.0,0.0,0.329999983311,-0.264999985695,0.0,-0.539999961853,-0.264999985695,0.0,-0.539999961853,0.264999985695,0.0,0.329999983311,0.264999985695,0.0
1449617606598297016,38,1449617606596365130,odom,0.479999989271,0.0,0.0,0.329999983311,-0.264999985695,0.0,-0.539999961853,-0.264999985695,0.0,-0.539999961853,0.264999985695,0.0,0.329999983311,0.264999985695,0.0
1449617606781658275,39,1449617606781239584,odom,0.479999989271,0.0,0.0,0.329999983311,-0.264999985695,0.0,-0.539999961853,-0.264999985695,0.0,-0.539999961853,0.264999985695,0.0,0.329999983311,0.264999985695,0.0
1449617607010323334,40,1449617607008709325,odom,0.479999989271,0.0,0.0,0.329999983311,-0.264999985695,0.0,-0.539999961853,-0.264999985695,0.0,-0.539999961853,0.264999985695,0.0,0.329999983311,0.264999985695,0.0
1449617607221753353,41,1449617607220704926,odom,0.479999989271,0.0,0.0,0.329999983311,-0.264999985695,0.0,-0.539999961853,-0.264999985695,0.0,-0.539999961853,0.264999985695,0.0,0.329999983311,0.264999985695,0.0
1449617607419228478,42,1449617607417184325,odom,0.479999989271,0.0,0.0,0.329999983311,-0.264999985695,0.0,-0.539999961853,-0.264999985695,0.0,-0.539999961853,0.264999985695,0.0,0.329999983311,0.264999985695,0.0
1449617607586476455,43,1449617607586094379,odom,0.479999989271,0.0,0.0,0.329999983311,-0.264999985695,0.0,-0.539999961853,-0.264999985695,0.0,-0.539999961853,0.264999985695,0.0,0.329999983311,0.264999985695,0.0
1449617607808252878,44,1449617607807818096,odom,0.479999989271,0.0,0.0,0.329999983311,-0.264999985695,0.0,-0.539999961853,-0.264999985695,0.0,-0.539999961853,0.264999985695,0.0,0.329999983311,0.264999985695,0.0
1449617608030543259,45,1449617608026590915,odom,0.479999989271,0.0,0.0,0.329999983311,-0.264999985695,0.0,-0.539999961853,-0.264999985695,0.0,-0.539999961853,0.264999985695,0.0,0.329999983311,0.264999985695,0.0
1449617608191096424,46,1449617608190752198,odom,0.479999989271,0.0,0.0,0.329999983311,-0.264999985695,0.0,-0.539999961853,-0.264999985695,0.0,-0.539999961853,0.264999985695,0.0,0.329999983311,0.264999985695,0.0
1449617608413534852,47,1449617608413089239,odom,0.479999989271,0.0,0.0,0.329999983311,-0.264999985695,0.0,-0.539999961853,-0.264999985695,0.0,-0.539999961853,0.264999985695,0.0,0.329999983311,0.264999985695,0.0
1449617608569494326,48,1449617608569144786,odom,0.479999989271,0.0,0.0,0.329999983311,-0.264999985695,0.0,-0.539999961853,-0.264999985695,0.0,-0.539999961853,0.264999985695,0.0,0.329999983311,0.264999985695,0.0
1449617608797471296,49,1449617608797293756,odom,0.479999989271,0.0,0.0,0.329999983311,-0.264999985695,0.0,-0.539999961853,-0.264999985695,0.0,-0.539999961853,0.264999985695,0.0,0.329999983311,0.264999985695,0.0
1449617608982497071,50,1449617608982084145,odom,0.479999989271,0.0,0.0,0.329999983311,-0.264999985695,0.0,-0.539999961853,-0.264999985695,0.0,-0.539999961853,0.264999985695,0.0,0.329999983311,0.264999985695,0.0
1449617609180920719,51,1449617609180611005,odom,0.479999989271,0.0,0.0,0.329999983311,-0.264999985695,0.0,-0.539999961853,-0.264999985695,0.0,-0.539999961853,0.264999985695,0.0,0.329999983311,0.264999985695,0.0
1449617609376288526,52,1449617609375833027,odom,0.479999989271,0.0,0.0,0.329999983311,-0.264999985695,0.0,-0.539999961853,-0.264999985695,0.0,-0.539999961853,0.264999985695,0.0,0.329999983311,0.264999985695,0.0
1449617609586831610,53,1449617609586606034,odom,0.479999989271,0.0,0.0,0.329999983311,-0.264999985695,0.0,-0.539999961853,-0.264999985695,0.0,-0.539999961853,0.264999985695,0.0,0.329999983311,0.264999985695,0.0
1449617609811203355,54,1449617609810938305,odom,0.479999989271,0.0,0.0,0.329999983311,-0.264999985695,0.0,-0.539999961853,-0.264999985695,0.0,-0.539999961853,0.264999985695,0.0,0.329999983311,0.264999985695,0.0
1449617609998442919,55,1449617609998177858,odom,0.479999989271,0.0,0.0,0.329999983311,-0.264999985695,0.0,-0.539999961853,-0.264999985695,0.0,-0.539999961853,0.264999985695,0.0,0.329999983311,0.264999985695,0.0
1449617610223106313,56,1449617610222334438,odom,0.479999989271,0.0,0.0,0.329999983311,-0.264999985695,0.0,-0.539999961853,-0.264999985695,0.0,-0.539999961853,0.264999985695,0.0,0.329999983311,0.264999985695,0.0
1449617610402569899,57,1449617610401903489,odom,0.479999989271,0.0,0.0,0.329999983311,-0.264999985695,0.0,-0.539999961853,-0.264999985695,0.0,-0.539999961853,0.264999985695,0.0,0.329999983311,0.264999985695,0.0
1449617610603482820,58,1449617610599551287,odom,0.479999989271,0.0,0.0,0.329999983311,-0.264999985695,0.0,-0.539999961853,-0.264999985695,0.0,-0.539999961853,0.264999985695,0.0,0.329999983311,0.264999985695,0.0
1449617610788834743,59,1449617610788549783,odom,0.479999989271,0.0,0.0,0.329999983311,-0.264999985695,0.0,-0.539999961853,-0.264999985695,0.0,-0.539999961853,0.264999985695,0.0,0.329999983311,0.264999985695,0.0
1449617611037091568,60,1449617611036467588,odom,0.479999989271,0.0,0.0,0.329999983311,-0.264999985695,0.0,-0.539999961853,-0.264999985695,0.0,-0.539999961853,0.264999985695,0.0,0.329999983311,0.264999985695,0.0
1449617611186350572,61,1449617611185756215,odom,0.479999989271,0.0,0.0,0.329999983311,-0.264999985695,0.0,-0.539999961853,-0.264999985695,0.0,-0.539999961853,0.264999985695,0.0,0.329999983311,0.264999985695,0.0
1449617611413373432,62,1449617611411081089,odom,0.479999989271,0.0,0.0,0.329999983311,-0.264999985695,0.0,-0.539999961853,-0.264999985695,0.0,-0.539999961853,0.264999985695,0.0,0.329999983311,0.264999985695,0.0
1449617611671459297,63,1449617611670430488,odom,0.479999989271,0.0,0.0,0.329999983311,-0.264999985695,0.0,-0.539999961853,-0.264999985695,0.0,-0.539999961853,0.264999985695,0.0,0.329999983311,0.264999985695,0.0
1449617611792709421,64,1449617611792463383,odom,0.479999989271,0.0,0.0,0.329999983311,-0.264999985695,0.0,-0.539999961853,-0.264999985695,0.0,-0.539999961853,0.264999985695,0.0,0.329999983311,0.264999985695,0.0
1449617611980659685,65,1449617611980080575,odom,0.479999989271,0.0,0.0,0.329999983311,-0.264999985695,0.0,-0.539999961853,-0.264999985695,0.0,-0.539999961853,0.264999985695,0.0,0.329999983311,0.264999985695,0.0
1449617612195323292,66,1449617612194088028,odom,0.479999989271,0.0,0.0,0.329999983311,-0.264999985695,0.0,-0.539999961853,-0.264999985695,0.0,-0.539999961853,0.264999985695,0.0,0.329999983311,0.264999985695,0.0
1449617612388036185,67,1449617612387802168,odom,0.479999989271,0.0,0.0,0.329999983311,-0.264999985695,0.0,-0.539999961853,-0.264999985695,0.0,-0.539999961853,0.264999985695,0.0,0.329999983311,0.264999985695,0.0
1449617612588182373,68,1449617612587719724,odom,0.479999989271,0.0,0.0,0.329999983311,-0.264999985695,0.0,-0.539999961853,-0.264999985695,0.0,-0.539999961853,0.264999985695,0.0,0.329999983311,0.264999985695,0.0
1449617612794055190,69,1449617612793827367,odom,0.479999989271,0.0,0.0,0.329999983311,-0.264999985695,0.0,-0.539999961853,-0.264999985695,0.0,-0.539999961853,0.264999985695,0.0,0.329999983311,0.264999985695,0.0
1449617612978781912,70,1449617612978101668,odom,0.479999989271,0.0,0.0,0.329999983311,-0.264999985695,0.0,-0.539999961853,-0.264999985695,0.0,-0.539999961853,0.264999985695,0.0,0.329999983311,0.264999985695,0.0
1449617613205301298,71,1449617613204845899,odom,0.479999989271,0.0,0.0,0.329999983311,-0.264999985695,0.0,-0.539999961853,-0.264999985695,0.0,-0.539999961853,0.264999985695,0.0,0.329999983311,0.264999985695,0.0
1449617613401373923,72,1449617613399828863,odom,0.479999989271,0.0,0.0,0.329999983311,-0.264999985695,0.0,-0.539999961853,-0.264999985695,0.0,-0.539999961853,0.264999985695,0.0,0.329999983311,0.264999985695,0.0
1449617613601423423,73,1449617613601163836,odom,0.479999989271,0.0,0.0,0.329999983311,-0.264999985695,0.0,-0.539999961853,-0.264999985695,0.0,-0.539999961853,0.264999985695,0.0,0.329999983311,0.264999985695,0.0
1449617613805637126,74,1449617613805337763,odom,0.479999989271,0.0,0.0,0.329999983311,-0.264999985695,0.0,-0.539999961853,-0.264999985695,0.0,-0.539999961853,0.264999985695,0.0,0.329999983311,0.264999985695,0.0
1449617614014897775,75,1449617613993746584,odom,0.479999989271,0.0,0.0,0.329999983311,-0.264999985695,0.0,-0.539999961853,-0.264999985695,0.0,-0.539999961853,0.264999985695,0.0,0.329999983311,0.264999985695,0.0
1449617614217346342,76,1449617614217147662,odom,0.479999989271,0.0,0.0,0.329999983311,-0.264999985695,0.0,-0.539999961853,-0.264999985695,0.0,-0.539999961853,0.264999985695,0.0,0.329999983311,0.264999985695,0.0
1449617614403108910,77,1449617614402929194,odom,0.479999989271,0.0,0.0,0.329999983311,-0.264999985695,0.0,-0.539999961853,-0.264999985695,0.0,-0.539999961853,0.264999985695,0.0,0.329999983311,0.264999985695,0.0
1449617614621903488,78,1449617614621471071,odom,0.479999989271,0.0,0.0,0.329999983311,-0.264999985695,0.0,-0.539999961853,-0.264999985695,0.0,-0.539999961853,0.264999985695,0.0,0.329999983311,0.264999985695,0.0
1449617614809201531,79,1449617614809029609,odom,0.479999989271,0.0,0.0,0.329999983311,-0.264999985695,0.0,-0.539999961853,-0.264999985695,0.0,-0.539999961853,0.264999985695,0.0,0.329999983311,0.264999985695,0.0
1449617614976545859,80,1449617614976329892,odom,0.479999989271,0.0,0.0,0.329999983311,-0.264999985695,0.0,-0.539999961853,-0.264999985695,0.0,-0.539999961853,0.264999985695,0.0,0.329999983311,0.264999985695,0.0
1449617615215907347,81,1449617615215677775,odom,0.479999989271,0.0,0.0,0.329999983311,-0.264999985695,0.0,-0.539999961853,-0.264999985695,0.0,-0.539999961853,0.264999985695,0.0,0.329999983311,0.264999985695,0.0
1449617615421106237,82,1449617615417127183,odom,0.479999989271,0.0,0.0,0.329999983311,-0.264999985695,0.0,-0.539999961853,-0.264999985695,0.0,-0.539999961853,0.264999985695,0.0,0.329999983311,0.264999985695,0.0
1449617615586596162,83,1449617615585162946,odom,0.479999989271,0.0,0.0,0.329999983311,-0.264999985695,0.0,-0.539999961853,-0.264999985695,0.0,-0.539999961853,0.264999985695,0.0,0.329999983311,0.264999985695,0.0
1449617615784903069,84,1449617615784562684,odom,0.479999989271,0.0,0.0,0.329999983311,-0.264999985695,0.0,-0.539999961853,-0.264999985695,0.0,-0.539999961853,0.264999985695,0.0,0.329999983311,0.264999985695,0.0
1449617616017337616,85,1449617616016884975,odom,0.479999989271,0.0,0.0,0.329999983311,-0.264999985695,0.0,-0.539999961853,-0.264999985695,0.0,-0.539999961853,0.264999985695,0.0,0.329999983311,0.264999985695,0.0
1449617616197833776,86,1449617616194623900,odom,0.479999989271,0.0,0.0,0.329999983311,-0.264999985695,0.0,-0.539999961853,-0.264999985695,0.0,-0.539999961853,0.264999985695,0.0,0.329999983311,0.264999985695,0.0
1449617616391214589,87,1449617616390372338,odom,0.479999989271,0.0,0.0,0.329999983311,-0.264999985695,0.0,-0.539999961853,-0.264999985695,0.0,-0.539999961853,0.264999985695,0.0,0.329999983311,0.264999985695,0.0
1449617616576573894,88,1449617616576096958,odom,0.479999989271,0.0,0.0,0.329999983311,-0.264999985695,0.0,-0.539999961853,-0.264999985695,0.0,-0.539999961853,0.264999985695,0.0,0.329999983311,0.264999985695,0.0
1449617616812301190,89,1449617616811960167,odom,0.479999989271,0.0,0.0,0.329999983311,-0.264999985695,0.0,-0.539999961853,-0.264999985695,0.0,-0.539999961853,0.264999985695,0.0,0.329999983311,0.264999985695,0.0
1449617617001454872,90,1449617617001056526,odom,0.479999989271,0.0,0.0,0.329999983311,-0.264999985695,0.0,-0.539999961853,-0.264999985695,0.0,-0.539999961853,0.264999985695,0.0,0.329999983311,0.264999985695,0.0
1449617617222496795,91,1449617617218329677,odom,0.479999989271,0.0,0.0,0.329999983311,-0.264999985695,0.0,-0.539999961853,-0.264999985695,0.0,-0.539999961853,0.264999985695,0.0,0.329999983311,0.264999985695,0.0
1449617617420193497,92,1449617617420060892,odom,0.479999989271,0.0,0.0,0.329999983311,-0.264999985695,0.0,-0.539999961853,-0.264999985695,0.0,-0.539999961853,0.264999985695,0.0,0.329999983311,0.264999985695,0.0
1449617617600440202,93,1449617617600113813,odom,0.479999989271,0.0,0.0,0.329999983311,-0.264999985695,0.0,-0.539999961853,-0.264999985695,0.0,-0.539999961853,0.264999985695,0.0,0.329999983311,0.264999985695,0.0
1449617617772897498,94,1449617617772619434,odom,0.479999989271,0.0,0.0,0.329999983311,-0.264999985695,0.0,-0.539999961853,-0.264999985695,0.0,-0.539999961853,0.264999985695,0.0,0.329999983311,0.264999985695,0.0
1449617617993496887,95,1449617617990319119,odom,0.479999989271,0.0,0.0,0.329999983311,-0.264999985695,0.0,-0.539999961853,-0.264999985695,0.0,-0.539999961853,0.264999985695,0.0,0.329999983311,0.264999985695,0.0
1449617618199140067,96,1449617618198870936,odom,0.479999989271,0.0,0.0,0.329999983311,-0.264999985695,0.0,-0.539999961853,-0.264999985695,0.0,-0.539999961853,0.264999985695,0.0,0.329999983311,0.264999985695,0.0
1449617618395380332,97,1449617618395137627,odom,0.479999989271,0.0,0.0,0.329999983311,-0.264999985695,0.0,-0.539999961853,-0.264999985695,0.0,-0.539999961853,0.264999985695,0.0,0.329999983311,0.264999985695,0.0
1449617618589881949,98,1449617618589738681,odom,0.479999989271,0.0,0.0,0.329999983311,-0.264999985695,0.0,-0.539999961853,-0.264999985695,0.0,-0.539999961853,0.264999985695,0.0,0.329999983311,0.264999985695,0.0
1449617618850251492,99,1449617618850006394,odom,0.479999989271,0.0,0.0,0.329999983311,-0.264999985695,0.0,-0.539999961853,-0.264999985695,0.0,-0.539999961853,0.264999985695,0.0,0.329999983311,0.264999985695,0.0
1449617619025528522,100,1449617619024923021,odom,0.479999989271,0.0,0.0,0.329999983311,-0.264999985695,0.0,-0.539999961853,-0.264999985695,0.0,-0.539999961853,0.264999985695,0.0,0.329999983311,0.264999985695,0.0
1449617619196143211,101,1449617619190222495,odom,0.479999989271,0.0,0.0,0.329999983311,-0.264999985695,0.0,-0.539999961853,-0.264999985695,0.0,-0.539999961853,0.264999985695,0.0,0.329999983311,0.264999985695,0.0
1449617619372005776,102,1449617619371451092,odom,0.479999989271,0.0,0.0,0.329999983311,-0.264999985695,0.0,-0.539999961853,-0.264999985695,0.0,-0.539999961853,0.264999985695,0.0,0.329999983311,0.264999985695,0.0
1449617619591159454,103,1449617619590916215,odom,0.479999989271,0.0,0.0,0.329999983311,-0.264999985695,0.0,-0.539999961853,-0.264999985695,0.0,-0.539999961853,0.264999985695,0.0,0.329999983311,0.264999985695,0.0
1449617619855756298,104,1449617619855536335,odom,0.479999989271,0.0,0.0,0.329999983311,-0.264999985695,0.0,-0.539999961853,-0.264999985695,0.0,-0.539999961853,0.264999985695,0.0,0.329999983311,0.264999985695,0.0
1449617620006730221,105,1449617620004538595,odom,0.479999989271,0.0,0.0,0.329999983311,-0.264999985695,0.0,-0.539999961853,-0.264999985695,0.0,-0.539999961853,0.264999985695,0.0,0.329999983311,0.264999985695,0.0
1449617620199456685,106,1449617620198213867,odom,0.479999989271,0.0,0.0,0.329999983311,-0.264999985695,0.0,-0.539999961853,-0.264999985695,0.0,-0.539999961853,0.264999985695,0.0,0.329999983311,0.264999985695,0.0
1449617620447827545,107,1449617620447510580,odom,0.479999989271,0.0,0.0,0.329999983311,-0.264999985695,0.0,-0.539999961853,-0.264999985695,0.0,-0.539999961853,0.264999985695,0.0,0.329999983311,0.264999985695,0.0
1449617620618849073,108,1449617620618432351,odom,0.482852816582,0.00510300230235,0.0,0.335661679506,-0.261467367411,0.0,-0.534289717674,-0.27066141367,0.0,-0.539890646935,0.259308993816,0.0,0.330060720444,0.268503010273,0.0
1449617620818198095,109,1449617620817799515,odom,0.488611608744,0.00519429845735,0.0,0.341420471668,-0.261376082897,0.0,-0.52853089571,-0.270570099354,0.0,-0.534131884575,0.25940027833,0.0,0.335819512606,0.268594324589,0.0
1449617621068648962,110,1449617621057517005,odom,0.494370877743,0.00525516504422,0.0,0.347179710865,-0.261315196753,0.0,-0.522771656513,-0.270509243011,0.0,-0.528372645378,0.259461164474,0.0,0.341578751802,0.268655180931,0.0
1449617621269271071,111,1449617621260194607,odom,0.500129640102,0.00534646119922,0.0,0.352938503027,-0.261223912239,0.0,-0.517012894154,-0.270417958498,0.0,-0.522613823414,0.259552448988,0.0,0.347337543964,0.268746495247,0.0
1449617621425403567,112,1449617621420700065,odom,0.505888462067,0.00543775735423,0.0,0.358697295189,-0.261132627726,0.0,-0.511254072189,-0.270326644182,0.0,-0.516855061054,0.259643733501,0.0,0.353096336126,0.26883777976,0.0
1449617621675307380,113,1449617621672021247,odom,0.505888462067,0.00543775735423,0.0,0.358697295189,-0.261132627726,0.0,-0.511254072189,-0.270326644182,0.0,-0.516855061054,0.259643733501,0.0,0.353096336126,0.26883777976,0.0
1449617621842615428,114,1449617621838112891,odom,0.511647880077,0.00546819064766,0.0,0.3644567132,-0.261102169752,0.0,-0.505494654179,-0.270296216011,0.0,-0.511095643044,0.259674191475,0.0,0.358855754137,0.268868207932,0.0
1449617622039185245,115,1449617622038817682,odom,0.526073634624,0.000395621784264,0.0,0.376073628664,-0.264604359865,0.0,-0.493926346302,-0.264604359865,0.0,-0.493926346302,0.265395611525,0.0,0.376073628664,0.265395611525,0.0
1449617622184759098,116,1449617622184312660,odom,0.546204566956,-0.00482911337167,0.0,0.393412470818,-0.26822912693,0.0,-0.476538926363,-0.259035110474,0.0,-0.470937937498,0.270935297012,0.0,0.39901342988,0.261741250753,0.0
1449617622431410542,117,1449617622430389261,odom,0.574777662754,-0.0157327316701,0.0,0.416452825069,-0.275844722986,0.0,-0.453109920025,-0.248266741633,0.0,-0.436309546232,0.281466901302,0.0,0.433253198862,0.253888905048,0.0
1449617622641634063,118,1449617622637320225,odom,0.614619851112,-0.0277853850275,0.0,0.450833082199,-0.284493178129,0.0,-0.417952597141,-0.238543540239,0.0,-0.389960318804,0.290716707706,0.0,0.478825390339,0.244767099619,0.0
1449617622795247077,119,1449617622794623189,odom,0.662405371666,-0.04646364972,0.0,0.490563541651,-0.297850579023,0.0,-0.376329004765,-0.22438454628,0.0,-0.331573843956,0.303722411394,0.0,0.535318732262,0.230256393552,0.0
1449617622999924615,120,1449617622999251963,odom,0.716451823711,-0.0563484430313,0.0,0.541962981224,-0.305905342102,0.0,-0.324104756117,-0.223282217979,0.0,-0.273771136999,0.304322302341,0.0,0.592296600342,0.221699178219,0.0
1449617623213410399,121,1449617623213085330,odom,0.780553340912,-0.0791544392705,0.0,0.598241508007,-0.323054820299,0.0,-0.264771968126,-0.213019892573,0.0,-0.197739183903,0.312723964453,0.0,0.665274262428,0.202689021826,0.0
1449617623402893773,122,1449617623401704783,odom,0.836212158203,-0.0971219390631,0.0,0.648786306381,-0.337114781141,0.0,-0.211708858609,-0.208865046501,0.0,-0.133579716086,0.315344661474,0.0,0.726915478706,0.187094941735,0.0
1449617623618123730,123,1449617623617763125,odom,0.895201742649,-0.111380912364,0.0,0.705250144005,-0.349379658699,0.0,-0.153841644526,-0.212043493986,0.0,-0.0701770931482,0.311311274767,0.0,0.788914680481,0.173975124955,0.0
1449617623797825718,124,1449617623797287912,odom,0.957745075226,-0.138113006949,0.0,0.760344684124,-0.369970887899,0.0,-0.093961969018,-0.205471545458,0.0,0.00625028181821,0.314968168736,0.0,0.860556960106,0.150468811393,0.0
1449617624026780762,125,1449617624023285809,odom,1.01430046558,-0.14900290966,0.0,0.816900074482,-0.380860805511,0.0,-0.0374066121876,-0.21636146307,0.0,0.0628056377172,0.304078251123,0.0,0.917112290859,0.139578908682,0.0
1449617624202104932,126,1449617624201877347,odom,1.07432126999,-0.171758785844,0.0,0.872064769268,-0.399392932653,0.0,0.0214255470783,-0.216874957085,0.0,0.132614657283,0.301330566406,0.0,0.983253896236,0.118812598288,0.0
1449617624405209705,127,1449617624403801941,odom,1.13230192661,-0.189667582512,0.0,0.927651047707,-0.415151596069,0.0,0.0789881497622,-0.223654389381,0.0,0.195647373796,0.29334717989,0.0,1.04431033134,0.101849965751,0.0
1449617624666142686,128,1449617624665149356,odom,1.19003510475,-0.208425313234,0.0,0.983012855053,-0.431734025478,0.0,0.136421054602,-0.231278970838,0.0,0.258537352085,0.284460902214,0.0,1.10512912273,0.0840058252215,0.0
1449617624789040134,129,1449617624788554291,odom,1.24758839607,-0.227703392506,0.0,1.03821778297,-0.448811858892,0.0,0.193791672587,-0.239421322942,0.0,0.321351408958,0.2749992311,0.0,1.16577756405,0.0656086951494,0.0
1449617624992003422,130,1449617624991644310,odom,1.30491232872,-0.247677117586,0.0,1.09321677685,-0.46656063199,0.0,0.251050591469,-0.248258024454,0.0,0.38403955102,0.264785766602,0.0,1.2262057066,0.0464831665158,0.0
1449617625208295162,131,1449617625208009358,odom,1.36201417446,-0.268284916878,0.0,1.14801728725,-0.484919041395,0.0,0.308205157518,-0.257728755474,0.0,0.446608453989,0.253880977631,0.0,1.28642058372,0.0266906898469,0.0
1449617625459475296,132,1449617625457802635,odom,1.42023074627,-0.295268297195,0.0,1.20170331001,-0.507331311703,0.0,0.366880208254,-0.262442737818,0.0,0.516065239906,0.246127650142,0.0,1.35088825226,0.00123905891087,0.0
1449617625594275789,133,1449617625593712481,odom,1.47676408291,-0.317296773195,0.0,1.25600767136,-0.527038574219,0.0,0.423819214106,-0.27334138751,0.0,0.578370392323,0.233624026179,0.0,1.41055881977,-0.0200731661171,0.0
1449617625794623167,134,1449617625794263384,odom,1.53190028667,-0.333946287632,0.0,1.31114399433,-0.543688058853,0.0,0.478955477476,-0.289990901947,0.0,0.633506655693,0.216974511743,0.0,1.46569514275,-0.0367226786911,0.0
1449617626004054225,135,1449617626003830997,odom,1.58259809017,-0.355182051659,0.0,1.35963749886,-0.562579214573,0.0,0.530176579952,-0.30010175705,0.0,0.690076649189,0.205202057958,0.0,1.51953756809,-0.0572754070163,0.0
1449617626176464670,136,1449617626176179531,odom,1.62208616734,-0.373477101326,0.0,1.396946311,-0.578506469727,0.0,0.570305526257,-0.307278037071,0.0,0.735536634922,0.196307763457,0.0,1.56217741966,-0.0749206766486,0.0
1449617626409926883,137,1449617626409640784,odom,1.65598332882,-0.390161901712,0.0,1.42868936062,-0.592800617218,0.0,0.604960978031,-0.31285148859,0.0,0.77550470829,0.188960060477,0.0,1.59923303127,-0.0909890532494,0.0
1449617626617672698,138,1449617626614135597,odom,1.68865323067,-0.401425659657,0.0,1.46135914326,-0.60406434536,0.0,0.637630820274,-0.324115246534,0.0,0.808174490929,0.177696302533,0.0,1.63190293312,-0.102252803743,0.0
1449617626809846405,139,1449617626809532564,odom,1.7114456892,-0.414818644524,0.0,1.48202288151,-0.615043997765,0.0,0.661299049854,-0.326405495405,0.0,0.837136268616,0.173575758934,0.0,1.65786015987,-0.115062758327,0.0
1449617626987057928,140,1449617626985362953,odom,1.72772526741,-0.420608490705,0.0,1.49830257893,-0.620833873749,0.0,0.677578628063,-0.332195341587,0.0,0.853415906429,0.167785897851,0.0,1.67413985729,-0.12085261941,0.0
1449617627200582886,141,1449617627200373996,odom,1.74944853783,-0.428280562162,0.0,1.52002573013,-0.628505885601,0.0,0.699301838875,-0.339867413044,0.0,0.875139117241,0.160113841295,0.0,1.6958630085,-0.128524661064,0.0
1449617627416191314,142,1449617627414184512,odom,1.77661538124,-0.43783479929,0.0,1.54719257355,-0.638060152531,0.0,0.726468682289,-0.349421650171,0.0,0.902305960655,0.150559604168,0.0,1.72302985191,-0.138078913093,0.0
1449617627581637536,143,1449617627579901305,odom,1.80818641186,-0.443464040756,0.0,1.58089232445,-0.64610272646,0.0,0.757164001465,-0.366153597832,0.0,0.927707731724,0.135657951236,0.0,1.75143611431,-0.144291162491,0.0
1449617627809558605,144,1449617627806176209,odom,1.8452385664,-0.450698912144,0.0,1.62009871006,-0.655728280544,0.0,0.79345780611,-0.384499847889,0.0,0.95868897438,0.11908596009,0.0,1.78532981873,-0.152142480016,0.0
1449617628064377611,145,1449617628063650913,odom,1.88357424736,-0.463181138039,0.0,1.65843439102,-0.668210506439,0.0,0.831793606281,-0.396982073784,0.0,0.997024714947,0.106603726745,0.0,1.8236656189,-0.164624705911,0.0
1449617628190761190,146,1449617628188640516,odom,1.93484306335,-0.463156670332,0.0,1.71631550789,-0.675219655037,0.0,0.881492435932,-0.430331081152,0.0,1.03067743778,0.0782392919064,0.0,1.86550045013,-0.16664929688,0.0
1449617628461358473,147,1449617628458583852,odom,1.98885822296,-0.473302960396,0.0,1.77258396149,-0.687663495541,0.0,0.935219585896,-0.451610863209,0.0,1.07902169228,0.0585076622665,0.0,1.91638612747,-0.17754496634,0.0
1449617628586608610,148,1449617628586123182,odom,2.04570269585,-0.472380757332,0.0,1.83633220196,-0.693489253521,0.0,0.991905987263,-0.484098702669,0.0,1.11946570873,0.0303218476474,0.0,1.96389186382,-0.179068669677,0.0
1449617628812881320,149,1449617628812011920,odom,2.09843707085,-0.474629104137,0.0,1.89378619194,-0.700113117695,0.0,1.04512321949,-0.508615911007,0.0,1.16178250313,0.00838564056903,0.0,2.01044535637,-0.183111563325,0.0
1449617629030767838,150,1449617629030428549,odom,2.15692305565,-0.476584285498,0.0,1.95708346367,-0.706343173981,0.0,1.10456287861,-0.53282481432,0.0,1.21026945114,-0.0134731745347,0.0,2.06279015541,-0.186991527677,0.0
1449617629181958317,151,1449617629176733607,odom,2.21545410156,-0.477213233709,0.0,2.02051520348,-0.711144268513,0.0,1.16451776028,-0.555682301521,0.0,1.25922441483,-0.0342126153409,0.0,2.11522173882,-0.189674586058,0.0
1449617629403354744,152,1449617629400760502,odom,2.27395939827,-0.476754903793,0.0,2.08400797844,-0.714753627777,0.0,1.2249161005,-0.577417492867,0.0,1.30858063698,-0.0540626943111,0.0,2.16767239571,-0.191398859024,0.0
1449617629584860494,153,1449617629577949463,odom,2.33031344414,-0.469245702028,0.0,2.14800167084,-0.713146090508,0.0,1.2849881649,-0.603111147881,0.0,1.35202097893,-0.0773673057556,0.0,2.21503448486,-0.187402233481,0.0
1449617629779042641,154,1449617629774405388,odom,2.38867783546,-0.466000318527,0.0,2.21156144142,-0.71369934082,0.0,1.3464152813,-0.621928334236,0.0,1.40232169628,-0.0948852151632,0.0,2.26746797562,-0.186656191945,0.0
1449617629982915210,155,1449617629980727962,odom,2.44934129715,-0.467150598764,0.0,2.27485251427,-0.716707468033,0.0,1.40878462791,-0.63408434391,0.0,1.45911824703,-0.106479860842,0.0,2.32518601418,-0.189102977514,0.0
1449617630166423035,156,1449617630164630494,odom,2.51333928108,-0.462239980698,0.0,2.34416365623,-0.715428829193,0.0,1.47654306889,-0.65112811327,0.0,1.5157147646,-0.122577689588,0.0,2.38333535194,-0.186878412962,0.0
1449617630373540635,157,1449617630371848264,odom,2.57401847839,-0.461345374584,0.0,2.40752792358,-0.716307938099,0.0,1.53927636147,-0.661179661751,0.0,1.57286024094,-0.132244795561,0.0,2.44111180305,-0.187373042107,0.0
1449617630551244852,158,1449617630551004467,odom,2.63468313217,-0.459839940071,0.0,2.47089648247,-0.716547727585,0.0,1.60211074352,-0.670598089695,0.0,1.63010299206,-0.141337841749,0.0,2.498888731,-0.187287464738,0.0
1449617630750922390,159,1449617630750616324,odom,2.68644189835,-0.462668865919,0.0,2.52265501022,-0.719376623631,0.0,1.65386939049,-0.673426985741,0.0,1.68186163902,-0.144166752696,0.0,2.55064725876,-0.190116375685,0.0
1449617631030180739,160,1449617631026215980,odom,2.74396443367,-0.465558826923,0.0,2.58017778397,-0.722266614437,0.0,1.71139204502,-0.676316976547,0.0,1.73938441277,-0.1470567137,0.0,2.6081700325,-0.193006336689,0.0
1449617631171220506,161,1449617631160712322,odom,2.80147123337,-0.468752682209,0.0,2.63768434525,-0.725460469723,0.0,1.76889872551,-0.679510831833,0.0,1.79689097404,-0.150250598788,0.0,2.66567659378,-0.196200221777,0.0
1449617631400341099,162,1449617631399904602,odom,2.85578250885,-0.477283895016,0.0,2.68929219246,-0.73224645853,0.0,1.82104051113,-0.677118241787,0.0,1.8546243906,-0.148183330894,0.0,2.72287607193,-0.203311577439,0.0
1449617631567668761,163,1449617631566404563,odom,2.91325235367,-0.481085300446,0.0,2.74676179886,-0.73604786396,0.0,1.87851023674,-0.680919647217,0.0,1.91209411621,-0.151984751225,0.0,2.78034567833,-0.20711299777,0.0
1449617631772947956,164,1449617631772666315,odom,2.96748733521,-0.489947110415,0.0,2.79831171036,-0.743135988712,0.0,1.93069112301,-0.678835272789,0.0,1.96986281872,-0.150284811854,0.0,2.83748340607,-0.214585542679,0.0
1449617631961020551,165,1449617631957898785,odom,3.00770044327,-0.492835819721,0.0,2.83852481842,-0.746024668217,0.0,1.97090423107,-0.681723952293,0.0,2.01007604599,-0.153173521161,0.0,2.87769651413,-0.217474251986,0.0
1449617632170077728,166,1449617632169773114,odom,3.04791355133,-0.495724499226,0.0,2.87873792648,-0.748913407326,0.0,2.01111721992,-0.684612691402,0.0,2.05028915405,-0.156062230468,0.0,2.91790962219,-0.220362961292,0.0
1449617632340138703,167,1449617632339748245,odom,3.09387469292,-0.498978167772,0.0,2.92469906807,-0.75216704607,0.0,2.05707836151,-0.687866330147,0.0,2.09625005722,-0.159315899014,0.0,2.96387076378,-0.223616629839,0.0
1449617632530781028,168,1449617632530520819,odom,3.12833762169,-0.501532316208,0.0,2.95916199684,-0.754721164703,0.0,2.0915415287,-0.69042044878,0.0,2.13071322441,-0.161870002747,0.0,2.99833369255,-0.226170733571,0.0
1449617632771696540,169,1449617632770342803,odom,3.16028523445,-0.498691439629,0.0,2.99379467964,-0.753654003143,0.0,2.12554311752,-0.698525726795,0.0,2.15912699699,-0.169590860605,0.0,3.02737855911,-0.224719107151,0.0
1449617632951384799,170,1449617632950726410,odom,3.18579268456,-0.505546212196,0.0,3.01661705971,-0.758735120296,0.0,2.14899659157,-0.694434404373,0.0,2.18816828728,-0.16588395834,0.0,3.05578875542,-0.230184689164,0.0
1449617633154103529,171,1449617633153630448,odom,3.20877838135,-0.507097184658,0.0,3.0396027565,-0.760286033154,0.0,2.17198228836,-0.69598531723,0.0,2.21115398407,-0.167434886098,0.0,3.07877445221,-0.231735616922,0.0
1449617633353699331,172,1449617633353287866,odom,3.2292342186,-0.503465652466,0.0,3.06274366379,-0.758428215981,0.0,2.19449210167,-0.703299999237,0.0,2.22807598114,-0.174365103245,0.0,3.09632754326,-0.229493349791,0.0
1449617633557147626,173,1449617633554149136,odom,3.24647188187,-0.504651606083,0.0,3.07998156548,-0.759614229202,0.0,2.21172976494,-0.704485952854,0.0,2.24531364441,-0.175551071763,0.0,3.11356544495,-0.230679318309,0.0
1449617633751618424,174,1449617633750878165,odom,3.25221776962,-0.505046963692,0.0,3.08572745323,-0.760009527206,0.0,2.21747589111,-0.704881250858,0.0,2.25105977058,-0.175946384668,0.0,3.1193113327,-0.231074646115,0.0
1449617633949861388,175,1449617633949300905,odom,3.2547416687,-0.510320484638,0.0,3.08556604385,-0.763509333134,0.0,2.21794557571,-0.69920861721,0.0,2.25711727142,-0.170658186078,0.0,3.12473773956,-0.234958916903,0.0
1449617634126081696,176,1449617634125934591,odom,3.25221586227,-0.505077302456,0.0,3.08572530746,-0.760039865971,0.0,2.21747374535,-0.704911649227,0.0,2.25105762482,-0.175976753235,0.0,3.11930918694,-0.231104999781,0.0
1449617634349786964,177,1449617634349376905,odom,3.25221586227,-0.505077302456,0.0,3.08572530746,-0.760039865971,0.0,2.21747374535,-0.704911649227,0.0,2.25105762482,-0.175976753235,0.0,3.11930918694,-0.231104999781,0.0
1449617634526837291,178,1449617634526437094,odom,3.25221586227,-0.505077302456,0.0,3.08572530746,-0.760039865971,0.0,2.21747374535,-0.704911649227,0.0,2.25105762482,-0.175976753235,0.0,3.11930918694,-0.231104999781,0.0
1449617634733424678,179,1449617634733152961,odom,3.25221586227,-0.505077302456,0.0,3.08572530746,-0.760039865971,0.0,2.21747374535,-0.704911649227,0.0,2.25105762482,-0.175976753235,0.0,3.11930918694,-0.231104999781,0.0
1449617634923360876,180,1449617634923030188,odom,3.25221586227,-0.505077302456,0.0,3.08572530746,-0.760039865971,0.0,2.21747374535,-0.704911649227,0.0,2.25105762482,-0.175976753235,0.0,3.11930918694,-0.231104999781,0.0
1449617635125274562,181,1449617635124960673,odom,3.25221586227,-0.505077302456,0.0,3.08572530746,-0.760039865971,0.0,2.21747374535,-0.704911649227,0.0,2.25105762482,-0.175976753235,0.0,3.11930918694,-0.231104999781,0.0
1449617635324293527,182,1449617635323794248,odom,3.25221586227,-0.505077302456,0.0,3.08572530746,-0.760039865971,0.0,2.21747374535,-0.704911649227,0.0,2.25105762482,-0.175976753235,0.0,3.11930918694,-0.231104999781,0.0
1449617635522999184,183,1449617635522839459,odom,3.25221586227,-0.505077302456,0.0,3.08572530746,-0.760039865971,0.0,2.21747374535,-0.704911649227,0.0,2.25105762482,-0.175976753235,0.0,3.11930918694,-0.231104999781,0.0
1449617635724529175,184,1449617635724311503,odom,3.25221586227,-0.505077302456,0.0,3.08572530746,-0.760039865971,0.0,2.21747374535,-0.704911649227,0.0,2.25105762482,-0.175976753235,0.0,3.11930918694,-0.231104999781,0.0
1449617635922637972,185,1449617635922450213,odom,3.25221586227,-0.505077302456,0.0,3.08572530746,-0.760039865971,0.0,2.21747374535,-0.704911649227,0.0,2.25105762482,-0.175976753235,0.0,3.11930918694,-0.231104999781,0.0
1449617636124344086,186,1449617636123831948,odom,3.25221586227,-0.505077302456,0.0,3.08572530746,-0.760039865971,0.0,2.21747374535,-0.704911649227,0.0,2.25105762482,-0.175976753235,0.0,3.11930918694,-0.231104999781,0.0
1449617636324023808,187,1449617636323709790,odom,3.25473952293,-0.510350823402,0.0,3.08556389809,-0.763539731503,0.0,2.21794342995,-0.699239015579,0.0,2.25711512566,-0.170688554645,0.0,3.1247355938,-0.234989285469,0.0
1449617636525089628,188,1449617636524919072,odom,3.25221371651,-0.505107700825,0.0,3.0857231617,-0.760070264339,0.0,2.21747159958,-0.704941987991,0.0,2.25105547905,-0.1760071069,0.0,3.11930704117,-0.231135368347,0.0
1449617636723418937,189,1449617636723091083,odom,3.25221371651,-0.505107700825,0.0,3.0857231617,-0.760070264339,0.0,2.21747159958,-0.704941987991,0.0,2.25105547905,-0.1760071069,0.0,3.11930704117,-0.231135368347,0.0
1449617636943427890,190,1449617636942717320,odom,3.25221371651,-0.505107700825,0.0,3.0857231617,-0.760070264339,0.0,2.21747159958,-0.704941987991,0.0,2.25105547905,-0.1760071069,0.0,3.11930704117,-0.231135368347,0.0
1449617637164072267,191,1449617637163368902,odom,3.25221371651,-0.505107700825,0.0,3.0857231617,-0.760070264339,0.0,2.21747159958,-0.704941987991,0.0,2.25105547905,-0.1760071069,0.0,3.11930704117,-0.231135368347,0.0
1449617637345676220,192,1449617637345112499,odom,3.25221371651,-0.505107700825,0.0,3.0857231617,-0.760070264339,0.0,2.21747159958,-0.704941987991,0.0,2.25105547905,-0.1760071069,0.0,3.11930704117,-0.231135368347,0.0
1449617637537312383,193,1449617637536890630,odom,3.25221371651,-0.505107700825,0.0,3.0857231617,-0.760070264339,0.0,2.21747159958,-0.704941987991,0.0,2.25105547905,-0.1760071069,0.0,3.11930704117,-0.231135368347,0.0
1449617637748839521,194,1449617637742981266,odom,3.25473737717,-0.510381221771,0.0,3.08556175232,-0.763570070267,0.0,2.21794128418,-0.699269354343,0.0,2.25711297989,-0.17071890831,0.0,3.12473344803,-0.235019639134,0.0
1449617637949187683,195,1449617637948710695,odom,3.26370549202,-0.505898296833,0.0,3.09721493721,-0.760860919952,0.0,2.22896337509,-0.705732643604,0.0,2.26254725456,-0.176797762513,0.0,3.13079881668,-0.231926009059,0.0
1449617638138646293,196,1449617638135670062,odom,3.27772116661,-0.511962473392,0.0,3.10854554176,-0.765151381493,0.0,2.24092507362,-0.700850665569,0.0,2.28009676933,-0.172300204635,0.0,3.14771723747,-0.236600935459,0.0
1449617638359224395,197,1449617638358752260,odom,3.30069851875,-0.513634860516,0.0,3.13152289391,-0.766823768616,0.0,2.26390242577,-0.702522993088,0.0,2.30307412148,-0.173972576857,0.0,3.17069458961,-0.238273307681,0.0
1449617638586856972,198,1449617638585808223,odom,3.33264398575,-0.510824382305,0.0,3.16615366936,-0.76578694582,0.0,2.29790210724,-0.710658669472,0.0,2.33148598671,-0.181723803282,0.0,3.19973754883,-0.236852049828,0.0
1449617638771945471,199,1449617638771577946,odom,3.3696308136,-0.518652021885,0.0,3.20045518875,-0.77184087038,0.0,2.33283472061,-0.707540154457,0.0,2.37200641632,-0.178989708424,0.0,3.23962688446,-0.243290439248,0.0
1449617638978122938,200,1449617638977484830,odom,3.40983772278,-0.521631777287,0.0,3.24066209793,-0.774820685387,0.0,2.37304162979,-0.710519969463,0.0,2.4122133255,-0.181969508529,0.0,3.27983379364,-0.246270239353,0.0
1449617639167706836,201,1449617639167418630,odom,3.46153211594,-0.525462925434,0.0,3.29235649109,-0.778651833534,0.0,2.42473602295,-0.714351117611,0.0,2.46390771866,-0.185800671577,0.0,3.3315281868,-0.250101387501,0.0
1449617639401447769,202,1449617639371513850,odom,3.50748276711,-0.528868436813,0.0,3.33830714226,-0.782057285309,0.0,2.47068667412,-0.717756569386,0.0,2.50985836983,-0.189206138253,0.0,3.37747883797,-0.253506869078,0.0
1449617639583753015,203,1449617639583020992,odom,3.55343341827,-0.532273888588,0.0,3.38425779343,-0.785462796688,0.0,2.51663732529,-0.721162080765,0.0,2.555809021,-0.19261161983,0.0,3.42342972755,-0.256912350655,0.0
1449617639758358473,204,1449617639752076830,odom,3.61087179184,-0.536530733109,0.0,3.44169616699,-0.789719641209,0.0,2.57407569885,-0.725418925285,0.0,2.61324739456,-0.196868464351,0.0,3.4808678627,-0.261169195175,0.0
1449617639968593201,205,1449617639968250595,odom,3.66256642342,-0.540361881256,0.0,3.49339079857,-0.793550789356,0.0,2.62577033043,-0.729250073433,0.0,2.66494202614,-0.200699627399,0.0,3.53256249428,-0.265000343323,0.0
1449617640161830817,206,1449617640160684818,odom,3.72000479698,-0.544618785381,0.0,3.55082917213,-0.797807633877,0.0,2.68320870399,-0.733506917953,0.0,2.7223803997,-0.20495647192,0.0,3.59000086784,-0.269257217646,0.0
1449617640376592547,207,1449617640376048466,odom,3.77169919014,-0.548449933529,0.0,3.60252356529,-0.801638782024,0.0,2.73490309715,-0.737338066101,0.0,2.77407479286,-0.208787634969,0.0,3.641695261,-0.273088365793,0.0
1449617640623315809,208,1449617640613919848,odom,3.81764888763,-0.551855325699,0.0,3.64847326279,-0.805044233799,0.0,2.78085279465,-0.740743458271,0.0,2.82002449036,-0.21219304204,0.0,3.6876449585,-0.276493757963,0.0
1449617640760865371,209,1449617640757521398,odom,3.85211181641,-0.554409444332,0.0,3.68293642998,-0.807598292828,0.0,2.81531572342,-0.743297576904,0.0,2.85448741913,-0.214747145772,0.0,3.72210812569,-0.279047876596,0.0
1449617640976762100,210,1449617640975814954,odom,3.88083100319,-0.556537866592,0.0,3.71165537834,-0.809726715088,0.0,2.8440349102,-0.745425999165,0.0,2.88320660591,-0.216875568032,0.0,3.75082731247,-0.281176298857,0.0
1449617641188280077,211,1449617641172285824,odom,3.91021442413,-0.548207461834,0.0,3.74642777443,-0.804915249348,0.0,2.87764191628,-0.758965611458,0.0,2.90563440323,-0.229705348611,0.0,3.77442002296,-0.2756549716,0.0
1449617641408998868,212,1449617641404647937,odom,3.94517040253,-0.539501309395,0.0,3.78684544563,-0.799613296986,0.0,2.91728281975,-0.772035360336,0.0,2.93408322334,-0.242301687598,0.0,3.80364584923,-0.269879668951,0.0
1449617641612175380,213,1449617641611451086,odom,3.99425148964,-0.514445602894,0.0,3.84988570213,-0.782556593418,0.0,2.98008012772,-0.800943613052,0.0,2.96887874603,-0.271062016487,0.0,3.83868432045,-0.252674967051,0.0
1449617641782530177,214,1449617641781877638,odom,4.04516363144,-0.491649836302,0.0,3.9122569561,-0.765622138977,0.0,3.04400539398,-0.820750415325,0.0,3.01042151451,-0.291815489531,0.0,3.87867307663,-0.236687257886,0.0
1449617641997081720,215,1449617641996599896,odom,4.09382152557,-0.455949693918,0.0,3.97854280472,-0.737793147564,0.0,3.11552929878,-0.847828090191,0.0,3.04849648476,-0.322084248066,0.0,3.91150999069,-0.212049305439,0.0
1449617642152145143,216,1449617642151850099,odom,4.141913414,-0.411448091269,0.0,4.04778003693,-0.701040863991,0.0,3.19525957108,-0.874559223652,0.0,3.08955311775,-0.355207592249,0.0,3.9420735836,-0.181689247489,0.0
1449617642352781817,217,1449617642351993133,odom,4.17821407318,-0.376729100943,0.0,4.09950733185,-0.670889377594,0.0,3.25734114647,-0.88919198513,0.0,3.1243519783,-0.376148194075,0.0,3.9665184021,-0.157845586538,0.0
1449617642608679115,218,1449617642608246239,odom,4.20710611343,-0.34176170826,0.0,4.14404582977,-0.639668345451,0.0,3.31458473206,-0.902145862579,0.0,3.15468478203,-0.396842002869,0.0,3.98414564133,-0.134364545345,0.0
1449617642753089838,219,1449617642752563312,odom,4.23868894577,-0.309406459332,0.0,4.18827390671,-0.609711885452,0.0,3.37064623833,-0.907007575035,0.0,3.18953514099,-0.408912479877,0.0,4.00716304779,-0.111616782844,0.0
1449617642934151000,220,1449617642933779324,odom,4.27351522446,-0.279517203569,0.0,4.23264503479,-0.581269800663,0.0,3.4248521328,-0.904333949089,0.0,3.22804284096,-0.412230163813,0.0,4.03583574295,-0.0891660228372,0.0
1449617643204901029,221,1449617643203965210,odom,4.31279468536,-0.246568694711,0.0,4.28151035309,-0.549465179443,0.0,3.48436403275,-0.897973060608,0.0,3.27205443382,-0.412355214357,0.0,4.06920099258,-0.0638473331928,0.0
1449617643370151695,222,1449617643369837445,odom,4.36119413376,-0.213772326708,0.0,4.33631849289,-0.517262339592,0.0,3.54671573639,-0.882539689541,0.0,3.32419037819,-0.401517361403,0.0,4.11379289627,-0.0362400114536,0.0
1449617643555404036,223,1449617643555199620,odom,4.40848016739,-0.185738325119,0.0,4.38681316376,-0.48947429657,0.0,3.60111451149,-0.863075613976,0.0,3.37351822853,-0.384431779385,0.0,4.1592168808,-0.010830421932,0.0
1449617643742165362,224,1449617643741741054,odom,4.45542621613,-0.157124638557,0.0,4.43696975708,-0.46107262373,0.0,3.65526366234,-0.842956244946,0.0,3.42262172699,-0.366744309664,0.0,4.20432806015,0.0151393180713,0.0
1449617643938204266,225,1449617643937879629,odom,4.507188797,-0.125378891826,0.0,4.49194574356,-0.429504930973,0.0,3.71431851387,-0.819628179073,0.0,3.47665739059,-0.345901399851,0.0,4.25428438187,0.0442218743265,0.0
1449617644151914845,226,1449617644151469269,odom,4.55346393585,-0.0956709012389,0.0,4.54143619537,-0.399941056967,0.0,3.76797509193,-0.798260390759,0.0,3.52532076836,-0.327071577311,0.0,4.2987818718,0.07124774158,0.0
1449617644356816709,227,1449617644356612192,odom,4.60464382172,-0.0630267038941,0.0,4.5958313942,-0.367406964302,0.0,3.82662343979,-0.773877859116,0.0,3.57900309563,-0.30527973175,0.0,4.34821128845,0.101191177964,0.0
1449617644550978877,228,1449617644550712304,odom,4.65042591095,-0.0326148867607,0.0,4.64483118057,-0.337071269751,0.0,3.87996125221,-0.751648366451,0.0,3.62740278244,-0.285693198442,0.0,4.39227247238,0.128883883357,0.0
1449617644728535133,229,1449617644728296813,odom,4.69597244263,-0.00188102619722,0.0,4.69359493256,-0.306379556656,0.0,3.93314933777,-0.72901648283,0.0,3.67568087578,-0.265756368637,0.0,4.43612670898,0.156880602241,0.0
1449617644935384936,230,1449617644935035374,odom,4.74126577377,0.0291998311877,0.0,4.74210691452,-0.275306791067,0.0,3.98616981506,-0.705956459045,0.0,3.72381997108,-0.245443060994,0.0,4.47975683212,0.185206577182,0.0
1449617645140002023,231,1449617645139829494,odom,4.79638957977,0.0604281425476,0.0,4.79723072052,-0.244078502059,0.0,4.04129362106,-0.674728155136,0.0,3.77894377708,-0.214214757085,0.0,4.53488063812,0.216434895992,0.0
1449617645341511093,232,1449617645340969536,odom,4.84116983414,0.0923022851348,0.0,4.84522867203,-0.212178468704,0.0,4.09388494492,-0.650792717934,0.0,3.82668304443,-0.193077489734,0.0,4.57802677155,0.245536729693,0.0
1449617645534304894,233,1449617645533912571,odom,4.88593626022,0.118435762823,0.0,4.88999509811,-0.186044976115,0.0,4.138651371,-0.624659180641,0.0,3.87144947052,-0.166944012046,0.0,4.62279319763,0.271670222282,0.0
1449617645740970387,234,1449617645739032693,odom,4.92543411255,0.147825241089,0.0,4.93271017075,-0.156595617533,0.0,4.18604373932,-0.603125452995,0.0,3.91401982307,-0.148259550333,0.0,4.66068649292,0.29827028513,0.0
1449617645937466133,235,1449617645937271994,odom,4.95980167389,0.174466058612,0.0,4.97029495239,-0.129860907793,0.0,4.22838878632,-0.584256470203,0.0,3.95157313347,-0.132290676236,0.0,4.69347906113,0.322104871273,0.0
1449617646134752375,236,1449617646134457241,odom,4.99876594543,0.204528510571,0.0,5.0124745369,-0.0996705591679,0.0,4.27541160583,-0.561881065369,0.0,3.9938352108,-0.112865902483,0.0,4.73089790344,0.34934464097,0.0
1449617646332182751,237,1449617646331894079,odom,5.02719688416,0.234870493412,0.0,5.04733133316,-0.0689709112048,0.0,4.32020187378,-0.546655654907,0.0,4.02919816971,-0.103691764176,0.0,4.75632762909,0.373993009329,0.0
1449617646527011882,238,1449617646526822600,odom,5.0591840744,0.274890482426,0.0,5.08893966675,-0.0281599797308,0.0,4.37731790543,-0.528653860092,0.0,4.07241916656,-0.0951370000839,0.0,4.78404140472,0.4053568542,0.0
1449617646731832772,239,1449617646731423285,odom,5.09357595444,0.3253287673,0.0,5.1361117363,0.0238064974546,0.0,4.4462761879,-0.506313145161,0.0,4.12333011627,-0.0860684514046,0.0,4.81316566467,0.44405117631,0.0
1449617646933613826,240,1449617646933327830,odom,5.12135362625,0.373524099588,0.0,5.17659425735,0.0740687325597,0.0,4.50977754593,-0.484729498625,0.0,4.16936016083,-0.0785078331828,0.0,4.83617687225,0.480290383101,0.0
1449617647130686726,241,1449617647127696655,odom,5.14690971375,0.423033297062,0.0,5.21475553513,0.126179873943,0.0,4.57214927673,-0.46029856801,0.0,4.21486902237,-0.0688256919384,0.0,4.8574757576,0.517652750015,0.0
1449617647337604790,242,1449617647336366067,odom,5.16863107681,0.479362875223,0.0,5.25206041336,0.186507105827,0.0,4.64132642746,-0.433092445135,0.0,4.26386880875,-0.0610359460115,0.0,4.87460327148,0.55856359005,0.0
1449617647537235767,243,1449617647536718058,odom,5.18751144409,0.521059036255,0.0,5.2801823616,0.230995029211,0.0,4.6893954277,-0.407652705908,0.0,4.30033397675,-0.0477481372654,0.0,4.89112091064,0.590899586678,0.0
1449617647727318547,244,1449617647726701447,odom,5.20494699478,0.563433766365,0.0,5.30676603317,0.276453107595,0.0,4.73652029037,-0.380600959063,0.0,4.33624601364,-0.0332100391388,0.0,4.9064912796,0.623844027519,0.0
1449617647925835937,245,1449617647925488080,odom,5.22688388824,0.605255067348,0.0,5.33474493027,0.320490419865,0.0,4.77851343155,-0.348468750715,0.0,4.37098646164,-0.00961501803249,0.0,4.92721843719,0.659344136715,0.0
1449617648129858287,246,1449617648129509601,odom,5.24566888809,0.652978479862,0.0,5.36250257492,0.371775984764,0.0,4.82775592804,-0.314478904009,0.0,4.40969276428,0.0112864030525,0.0,4.94443941116,0.697541296482,0.0
1449617648337997832,247,1449617648336912106,odom,5.26914834976,0.700258433819,0.0,5.39189910889,0.421587973833,0.0,4.87177562714,-0.275815248489,0.0,4.4469203949,0.0410417318344,0.0,4.96704435349,0.738444983959,0.0
1449617648533709238,248,1449617648533556022,odom,5.30109834671,0.751837909222,0.0,5.4267873764,0.474480271339,0.0,4.91406297684,-0.228380605578,0.0,4.48588323593,0.0839688777924,0.0,4.99860811234,0.786829769611,0.0
1449617648752901432,249,1449617648752080649,odom,5.32873630524,0.799364864826,0.0,5.45734930038,0.523350954056,0.0,4.95208120346,-0.184889048338,0.0,4.5206246376,0.122918054461,0.0,5.02589273453,0.831158101559,0.0
1449617648944490459,250,1449617648943632066,odom,5.35304260254,0.852631747723,0.0,5.48746013641,0.579397678375,0.0,4.99727344513,-0.139362737536,0.0,4.55940771103,0.159256979823,0.0,5.04959487915,0.878017425537,0.0
1449617649128103349,251,1449617649127884388,odom,5.3731751442,0.901507616043,0.0,5.51333761215,0.631175398827,0.0,5.03845071793,-0.0977843552828,0.0,4.59437179565,0.191514596343,0.0,5.06925868988,0.920474350452,0.0
1449617649331826052,252,1449617649331651019,odom,5.39247608185,0.950667262077,0.0,5.53832054138,0.683357715607,0.0,5.07894563675,-0.0554757155478,0.0,4.62885189056,0.224373221397,0.0,5.08822631836,0.963206648827,0.0
1449617649529221582,253,1449617649528946778,odom,5.41367053986,1.00517833233,0.0,5.56513166428,0.741010844707,0.0,5.12147474289,-0.0073662661016,0.0,4.66556692123,0.262907624245,0.0,5.10922384262,1.01128470898,0.0
1449617649724384510,254,1449617649723987092,odom,5.43724727631,1.05477631092,0.0,5.59149169922,0.792224168777,0.0,5.15576791763,0.0392003580928,0.0,4.69702959061,0.304641216993,0.0,5.13275337219,1.05766499043,0.0
1449617649932721399,255,1449617649932442964,odom,5.46024656296,1.10465192795,0.0,5.61725711823,0.843744516373,0.0,5.18951559067,0.0861581116915,0.0,4.72799730301,0.346736252308,0.0,5.15573883057,1.10432267189,0.0
1449617650139071965,256,1449617650138573508,odom,5.48541641235,1.15985822678,0.0,5.645175457,0.900624632835,0.0,5.22546386719,0.138560220599,0.0,4.76121759415,0.394246548414,0.0,5.18092918396,1.15631091595,0.0
1449617650335720778,257,1449617650335481843,odom,5.50690221786,1.21045684814,0.0,5.66939210892,0.9529260993,0.0,5.25775718689,0.18646876514,0.0,4.79083490372,0.437234729528,0.0,5.20246982574,1.20369207859,0.0
1449617650533224223,258,1449617650533058770,odom,5.52203655243,1.26104223728,0.0,5.68993282318,1.00700318813,0.0,5.29458856583,0.232017308474,0.0,4.82247066498,0.472859084606,0.0,5.21781492233,1.24784493446,0.0
1449617650745985112,259,1449617650745687535,odom,5.54820919037,1.31234800816,0.0,5.71610546112,1.0583088398,0.0,5.32076120377,0.283323049545,0.0,4.84864330292,0.524164795876,0.0,5.24398756027,1.29915058613,0.0
1449617650967845983,260,1449617650967489811,odom,5.56033706665,1.34815585613,0.0,5.73090839386,1.09590518475,0.0,5.34377670288,0.316784709692,0.0,4.86914014816,0.552623748779,0.0,5.25627183914,1.33174419403,0.0
1449617651155775563,261,1449617651155529837,odom,5.58083677292,1.41501367092,0.0,5.75670099258,1.16642427444,0.0,5.38612174988,0.379296004772,0.0,4.90660715103,0.605051159859,0.0,5.27718639374,1.39217948914,0.0
1449617651348845875,262,1449617651348560832,odom,5.5968132019,1.461571455,0.0,5.77529478073,1.21485447884,0.0,5.41305446625,0.423853874207,0.0,4.93118047714,0.644528985023,0.0,5.29342079163,1.43552958965,0.0
1449617651542651588,263,1449617651541460204,odom,5.61229658127,1.50829541683,0.0,5.7933754921,1.26347839832,0.0,5.43951463699,0.468693882227,0.0,4.95533561707,0.684264302254,0.0,5.30919647217,1.47904884815,0.0
1449617651747566042,264,1449617651747322140,odom,5.62728500366,1.55518043041,0.0,5.81094121933,1.31229066849,0.0,5.46549940109,0.513810992241,0.0,4.97906923294,0.724252641201,0.0,5.32451105118,1.52273237705,0.0
1449617651972503350,265,1449617651972178776,odom,5.64549636841,1.59750509262,0.0,5.82915258408,1.3546153307,0.0,5.48371076584,0.556135654449,0.0,4.99728059769,0.76657730341,0.0,5.34272241592,1.56505703926,0.0
1449617652169450895,266,1449617652169265957,odom,5.65753364563,1.63933050632,0.0,5.8437461853,1.3983951807,0.0,5.50676202774,0.596309483051,0.0,5.0181350708,0.801598846912,0.0,5.35511922836,1.60368454456,0.0
1449617652378376093,267,1449617652378070302,odom,5.67135906219,1.68659079075,0.0,5.86010742188,1.44763672352,0.0,5.53161811829,0.642034649849,0.0,5.04084920883,0.842148840427,0.0,5.36933851242,1.6477509737,0.0
1449617652562545563,268,1449617652561959718,odom,5.67269611359,1.73242461681,0.0,5.86892461777,1.49957370758,0.0,5.56613683701,0.683963775635,0.0,5.06927108765,0.868420600891,0.0,5.37205839157,1.68403053284,0.0
1449617652759061611,269,1449617652758909196,odom,5.67875528336,1.77920591831,0.0,5.87986087799,1.55055427551,0.0,5.59437847137,0.728727221489,0.0,5.09372520447,0.902641773224,0.0,5.37920761108,1.72446882725,0.0
1449617652978677997,270,1449617652978315132,odom,5.67950248718,1.8305066824,0.0,5.88775491714,1.60834479332,0.0,5.62846660614,0.777881264687,0.0,5.12255239487,0.935838341713,0.0,5.38184022903,1.76630187035,0.0
1449617653155651881,271,1449617653155496510,odom,5.66829156876,1.88456368446,0.0,5.88798713684,1.67371082306,0.0,5.67292261124,0.830711901188,0.0,5.15937137604,0.961728274822,0.0,5.37443590164,1.80472719669,0.0
1449617653397545268,272,1449617653396876594,odom,5.65441894531,1.93790912628,0.0,5.8849439621,1.73895394802,0.0,5.71470308304,0.885772824287,0.0,5.19494915009,0.989482820034,0.0,5.36519002914,1.84266388416,0.0
1449617653598327207,273,1449617653598111483,odom,5.63680124283,1.98477196693,0.0,5.87751245499,1.7982698679,0.0,5.75257062912,0.937288165092,0.0,5.22806453705,1.01340222359,0.0,5.35300636292,1.87438392639,0.0
1449617653768613500,274,1449617653767961370,odom,5.62730932236,2.02954792976,0.0,5.87381124496,1.85076975822,0.0,5.77622461319,0.98626023531,0.0,5.24956893921,1.0457098484,0.0,5.34715604782,1.91021931171,0.0
1449617653981692822,275,1449617653981398952,odom,5.61025381088,2.06580710411,0.0,5.86409091949,1.89760565758,0.0,5.80312490463,1.02974438667,0.0,5.27442789078,1.06688463688,0.0,5.33539390564,1.93474590778,0.0
1449617654188014945,276,1449617654187635121,odom,5.60215330124,2.10090827942,0.0,5.85948896408,1.93810915947,0.0,5.81687831879,1.06915318966,0.0,5.28751420975,1.0951114893,0.0,5.33012485504,1.9640673399,0.0
1449617654400654280,277,1449617654400436482,odom,5.59290933609,2.13008165359,0.0,5.85362768173,1.9727575779,0.0,5.82939147949,1.10309529305,0.0,5.29959726334,1.11785984039,0.0,5.32383346558,1.98752212524,0.0
