%time,field.header.seq,field.header.stamp,field.header.frame_id,field.ns,field.id,field.type,field.action,field.pose.position.x,field.pose.position.y,field.pose.position.z,field.pose.orientation.x,field.pose.orientation.y,field.pose.orientation.z,field.pose.orientation.w,field.scale.x,field.scale.y,field.scale.z,field.color.r,field.color.g,field.color.b,field.color.a,field.lifetime,field.frame_locked,field.text,field.mesh_resource,field.mesh_use_embedded_materials
1449617618868536304,0,0,/odom,ucmd_vector,0,0,0,0.0,0.0,0.0,0.0,0.0,0.0,1.0,0.00559730190992,0.05,0.05,0.0,0.0,1.0,1.0,0,0,,,0
1449617618882332875,1,0,/odom,ucmd_vector,0,0,0,0.0,0.0,0.0,0.0,0.0,0.0,1.0,0.00559730190992,0.05,0.05,0.0,0.0,1.0,1.0,0,0,,,0
1449617618932699204,2,0,/odom,ucmd_vector,0,0,0,0.0,0.0,0.0,0.0,0.0,0.0,1.0,0.0111846038198,0.05,0.05,0.0,0.0,1.0,1.0,0,0,,,0
1449617618982634658,3,0,/odom,ucmd_vector,0,0,0,0.0,0.0,0.0,0.0,0.0,0.0,1.0,0.0111846038198,0.05,0.05,0.0,0.0,1.0,1.0,0,0,,,0
1449617619006328095,4,0,/odom,ucmd_vector,0,0,0,0.0,0.0,0.0,0.0,0.0,0.0,1.0,0.0111846038198,0.05,0.05,0.0,0.0,1.0,1.0,0,0,,,0
1449617619062159103,5,0,/odom,ucmd_vector,0,0,0,0.0,0.0,0.0,0.0,0.0,0.0,1.0,0.0167719050741,0.05,0.05,0.0,0.0,1.0,1.0,0,0,,,0
1449617619086540761,6,0,/odom,ucmd_vector,0,0,0,0.0,0.0,0.0,0.0,0.0,0.0,1.0,0.0167719050741,0.05,0.05,0.0,0.0,1.0,1.0,0,0,,,0
1449617619123180958,7,0,/odom,ucmd_vector,0,0,0,0.0,0.0,0.0,0.0,0.0,0.0,1.0,0.0335338101482,0.05,0.05,0.0,0.0,1.0,1.0,0,0,,,0
1449617619187121123,8,0,/odom,ucmd_vector,0,0,0,0.0,0.0,0.0,0.0,0.0,0.0,1.0,0.0335338101482,0.05,0.05,0.0,0.0,1.0,1.0,0,0,,,0
1449617619209172322,9,0,/odom,ucmd_vector,0,0,0,0.0,0.0,0.0,0.0,0.0,0.0,1.0,0.0335338101482,0.05,0.05,0.0,0.0,1.0,1.0,0,0,,,0
1449617619242707928,10,0,/odom,ucmd_vector,0,0,0,0.0,0.0,0.0,0.0,0.0,0.0,1.0,0.0558830177879,0.05,0.05,0.0,0.0,1.0,1.0,0,0,,,0
1449617619292189014,11,0,/odom,ucmd_vector,0,0,0,0.0,0.0,0.0,0.0,0.0,0.0,1.0,0.0558830177879,0.05,0.05,0.0,0.0,1.0,1.0,0,0,,,0
1449617619353683790,12,0,/odom,ucmd_vector,0,0,0,0.0,0.0,0.0,0.0,0.0,0.0,1.0,0.0558830177879,0.05,0.05,0.0,0.0,1.0,1.0,0,0,,,0
1449617619380124062,13,0,/odom,ucmd_vector,0,0,0,0.0,0.0,0.0,0.0,0.0,0.0,1.0,0.184390962372,0.05,0.05,0.0,0.0,1.0,1.0,0,0,,,0
1449617619412351203,14,0,/odom,ucmd_vector,0,0,0,0.0,0.0,0.0,0.0,0.0,0.0,1.0,0.184390962372,0.05,0.05,0.0,0.0,1.0,1.0,0,0,,,0
1449617619460658418,15,0,/odom,ucmd_vector,0,0,0,0.0,0.0,0.0,0.0,0.0,0.0,1.0,0.189978263626,0.05,0.05,0.0,0.0,1.0,1.0,0,0,,,0
1449617619483841768,16,0,/odom,ucmd_vector,0,0,0,0.0,0.0,0.0,0.0,0.0,0.0,1.0,0.189978263626,0.05,0.05,0.0,0.0,1.0,1.0,0,0,,,0
1449617619528691450,17,0,/odom,ucmd_vector,0,0,0,0.0,0.0,0.0,0.0,0.0,0.0,1.0,0.189978263626,0.05,0.05,0.0,0.0,1.0,1.0,0,0,,,0
1449617619570532019,18,0,/odom,ucmd_vector,0,0,0,0.0,0.0,0.0,0.0,0.0,0.0,1.0,0.189978263626,0.05,0.05,0.0,0.0,1.0,1.0,0,0,,,0
1449617619600576784,19,0,/odom,ucmd_vector,0,0,0,0.0,0.0,0.0,0.0,0.0,0.0,1.0,0.189978263626,0.05,0.05,0.0,0.0,1.0,1.0,0,0,,,0
1449617619773900605,20,0,/odom,ucmd_vector,0,0,0,0.0,0.0,0.0,0.0,0.0,0.0,1.0,0.189978263626,0.05,0.05,0.0,0.0,1.0,1.0,0,0,,,0
1449617619804214319,21,0,/odom,ucmd_vector,0,0,0,0.0,0.0,0.0,0.0,0.0,0.0,1.0,0.189978263626,0.05,0.05,0.0,0.0,1.0,1.0,0,0,,,0
1449617619842990186,22,0,/odom,ucmd_vector,0,0,0,0.0,0.0,0.0,0.0,0.0,0.0,1.0,0.189978263626,0.05,0.05,0.0,0.0,1.0,1.0,0,0,,,0
1449617619900243279,23,0,/odom,ucmd_vector,0,0,0,0.0,0.0,0.0,0.0,0.0,0.0,1.0,0.189978263626,0.05,0.05,0.0,0.0,1.0,1.0,0,0,,,0
1449617619920803246,24,0,/odom,ucmd_vector,0,0,0,0.0,0.0,0.0,0.0,0.0,0.0,1.0,0.189978263626,0.05,0.05,0.0,0.0,1.0,1.0,0,0,,,0
1449617619966014140,25,0,/odom,ucmd_vector,0,0,0,0.0,0.0,0.0,0.0,0.0,0.0,1.0,0.173216349373,0.05,0.05,0.0,0.0,1.0,1.0,0,0,,,0
1449617620007442474,26,0,/odom,ucmd_vector,0,0,0,0.0,0.0,0.0,0.0,0.0,0.0,1.0,0.173216349373,0.05,0.05,0.0,0.0,1.0,1.0,0,0,,,0
1449617620043078182,27,0,/odom,ucmd_vector,0,0,0,0.0,0.0,0.0,0.0,0.0,0.0,1.0,0.189978263626,0.05,0.05,0.0,0.0,1.0,1.0,0,0,,,0
1449617620081222296,28,0,/odom,ucmd_vector,0,0,0,0.0,0.0,0.0,0.0,0.0,0.0,1.0,0.189978263626,0.05,0.05,0.0,0.0,1.0,1.0,0,0,,,0
1449617620120663049,29,0,/odom,ucmd_vector,0,0,0,0.0,0.0,0.0,0.0,0.0,0.0,1.0,0.189978263626,0.05,0.05,0.0,0.0,1.0,1.0,0,0,,,0
1449617620160558147,30,0,/odom,ucmd_vector,0,0,0,0.0,0.0,0.0,0.0,0.0,0.0,1.0,0.189978263626,0.05,0.05,0.0,0.0,1.0,1.0,0,0,,,0
1449617620209835386,31,0,/odom,ucmd_vector,0,0,0,0.0,0.0,0.0,0.0,0.0,0.0,1.0,0.189978263626,0.05,0.05,0.0,0.0,1.0,1.0,0,0,,,0
1449617620244263985,32,0,/odom,ucmd_vector,0,0,0,0.0,0.0,0.0,0.0,0.0,0.0,1.0,0.167629048119,0.05,0.05,0.0,0.0,1.0,1.0,0,0,,,0
1449617620286117518,33,0,/odom,ucmd_vector,0,0,0,0.0,0.0,0.0,0.0,0.0,0.0,1.0,0.167629048119,0.05,0.05,0.0,0.0,1.0,1.0,0,0,,,0
1449617620322131460,34,0,/odom,ucmd_vector,0,0,0,0.0,0.0,0.0,0.0,0.0,0.0,1.0,0.167629048119,0.05,0.05,0.0,0.0,1.0,1.0,0,0,,,0
1449617620370361135,35,0,/odom,ucmd_vector,0,0,0,0.00287963245437,3.04332289367e-05,0.0,0.0,0.0,0.00845852683232,0.999964226022,0.346422698746,0.05,0.05,0.0,0.0,1.0,1.0,0,0,,,0
1449617620434810196,36,0,/odom,ucmd_vector,0,0,0,0.00287963245437,3.04332289367e-05,0.0,0.0,0.0,0.00845852683232,0.999964226022,0.346422698746,0.05,0.05,0.0,0.0,1.0,1.0,0,0,,,0
1449617620446971349,37,0,/odom,ucmd_vector,0,0,0,0.00287963245437,3.04332289367e-05,0.0,0.0,0.0,0.00845852683232,0.999964226022,0.346422698746,0.05,0.05,0.0,0.0,1.0,1.0,0,0,,,0
1449617620509795145,38,0,/odom,ucmd_vector,0,0,0,0.00287963245437,3.04332289367e-05,0.0,0.0,0.0,0.00845852683232,0.999964226022,0.346422698746,0.05,0.05,0.0,0.0,1.0,1.0,0,0,,,0
1449617620535348352,39,0,/odom,ucmd_vector,0,0,0,0.00287963245437,3.04332289367e-05,0.0,0.0,0.0,0.00845852683232,0.999964226022,0.346422698746,0.05,0.05,0.0,0.0,1.0,1.0,0,0,,,0
1449617620563692812,40,0,/odom,ucmd_vector,0,0,0,0.00287963245437,3.04332289367e-05,0.0,0.0,0.0,0.011632968667,0.999932334731,0.340835397491,0.05,0.05,0.0,0.0,1.0,1.0,0,0,,,0
1449617620610669134,41,0,/odom,ucmd_vector,0,0,0,0.00287963245437,3.04332289367e-05,0.0,0.0,0.0,0.011632968667,0.999932334731,0.340835397491,0.05,0.05,0.0,0.0,1.0,1.0,0,0,,,0
1449617620648923474,42,0,/odom,ucmd_vector,0,0,0,0.00287963245437,3.04332289367e-05,0.0,0.0,0.0,0.00845852683232,0.999964226022,0.128517939339,0.05,0.05,0.0,0.0,1.0,1.0,0,0,,,0
1449617620688484015,43,0,/odom,ucmd_vector,0,0,0,0.00575878249245,9.12962879474e-05,0.0,0.0,0.0,0.0137422194698,0.999905571244,0.128517939339,0.05,0.05,0.0,0.0,1.0,1.0,0,0,,,0
1449617620727239859,44,0,/odom,ucmd_vector,0,0,0,0.00863841494682,0.000121729516884,0.0,0.0,0.0,0.00845852683232,0.999964226022,0.128517939339,0.05,0.05,0.0,0.0,1.0,1.0,0,0,,,0
1449617620784743098,45,0,/odom,ucmd_vector,0,0,0,0.00863841494682,0.000121729516884,0.0,0.0,0.0,0.00845852683232,0.999964226022,0.0726449215508,0.05,0.05,0.0,0.0,1.0,1.0,0,0,,,0
1449617620811283264,46,0,/odom,ucmd_vector,0,0,0,0.00863841494682,0.000121729516884,0.0,0.0,0.0,0.00845852683232,0.999964226022,0.0726449215508,0.05,0.05,0.0,0.0,1.0,1.0,0,0,,,0
1449617620844789149,47,0,/odom,ucmd_vector,0,0,0,0.0143976798556,0.000182595974757,0.0,0.0,0.0,0.00845852683232,0.999964226022,0.128517939339,0.05,0.05,0.0,0.0,1.0,1.0,0,0,,,0
1449617620897808751,48,0,/odom,ucmd_vector,0,0,0,0.0143976798556,0.000182595974757,0.0,0.0,0.0,0.00845852683232,0.999964226022,0.128517939339,0.05,0.05,0.0,0.0,1.0,1.0,0,0,,,0
1449617620928781055,49,0,/odom,ucmd_vector,0,0,0,0.0143976798556,0.000182595974757,0.0,0.0,0.0,0.00845852683232,0.999964226022,0.128517939339,0.05,0.05,0.0,0.0,1.0,1.0,0,0,,,0
1449617620974155394,50,0,/odom,ucmd_vector,0,0,0,0.0172768298936,0.000243459033768,0.0,0.0,0.0,0.0137422194698,0.999905571244,0.189978263626,0.05,0.05,0.0,0.0,1.0,1.0,0,0,,,0
1449617621045280953,51,0,/odom,ucmd_vector,0,0,0,0.020156462348,0.000273892262705,0.0,0.0,0.0,0.00845852683232,0.999964226022,0.189978263626,0.05,0.05,0.0,0.0,1.0,1.0,0,0,,,0
1449617621068791934,52,0,/odom,ucmd_vector,0,0,0,0.020156462348,0.000273892262705,0.0,0.0,0.0,0.0052839997518,0.999986039576,0.167629048119,0.05,0.05,0.0,0.0,1.0,1.0,0,0,,,0
1449617621085151466,53,0,/odom,ucmd_vector,0,0,0,0.020156462348,0.000273892262705,0.0,0.0,0.0,0.0052839997518,0.999986039576,0.167629048119,0.05,0.05,0.0,0.0,1.0,1.0,0,0,,,0
1449617621157289701,54,0,/odom,ucmd_vector,0,0,0,0.020156462348,0.000273892262705,0.0,0.0,0.0,0.0052839997518,0.999986039576,0.167629048119,0.05,0.05,0.0,0.0,1.0,1.0,0,0,,,0
1449617621171053876,55,0,/odom,ucmd_vector,0,0,0,0.0230356123861,0.000334755321716,0.0,0.0,0.0,0.0105678519699,0.999944158693,0.184390962372,0.05,0.05,0.0,0.0,1.0,1.0,0,0,,,0
1449617621210093005,56,0,/odom,ucmd_vector,0,0,0,0.0230356123861,0.000334755321716,0.0,0.0,0.0,0.0105678519699,0.999944158693,0.189978263626,0.05,0.05,0.0,0.0,1.0,1.0,0,0,,,0
1449617621241915250,57,0,/odom,ucmd_vector,0,0,0,0.0259152448405,0.000365188550652,0.0,0.0,0.0,0.0052839997518,0.999986039576,0.189978263626,0.05,0.05,0.0,0.0,1.0,1.0,0,0,,,0
1449617621333917025,58,0,/odom,ucmd_vector,0,0,0,0.0259152448405,0.000365188550652,0.0,0.0,0.0,0.0052839997518,0.999986039576,0.189978263626,0.05,0.05,0.0,0.0,1.0,1.0,0,0,,,0
1449617621345836598,59,0,/odom,ucmd_vector,0,0,0,0.0259152448405,0.000365188550652,0.0,0.0,0.0,0.0052839997518,0.999986039576,0.189978263626,0.05,0.05,0.0,0.0,1.0,1.0,0,0,,,0
1449617621421416633,60,0,/odom,ucmd_vector,0,0,0,0.0259152448405,0.000365188550652,0.0,0.0,0.0,0.0052839997518,0.999986039576,0.251438577423,0.05,0.05,0.0,0.0,1.0,1.0,0,0,,,0
1449617621441751895,61,0,/odom,ucmd_vector,0,0,0,0.0259152448405,0.000365188550652,0.0,0.0,0.0,0.0052839997518,0.999986039576,0.251438577423,0.05,0.05,0.0,0.0,1.0,1.0,0,0,,,0
1449617621447219495,62,0,/odom,ucmd_vector,0,0,0,0.0259152448405,0.000365188550652,0.0,0.0,0.0,0.00210941941862,0.999997775172,0.346422698746,0.05,0.05,0.0,0.0,1.0,1.0,0,0,,,0
1449617621481284723,63,0,/odom,ucmd_vector,0,0,0,0.0259152448405,0.000365188550652,0.0,0.0,0.0,0.00210941941862,0.999997775172,0.346422698746,0.05,0.05,0.0,0.0,1.0,1.0,0,0,,,0
1449617621560551063,64,0,/odom,ucmd_vector,0,0,0,0.0259152448405,0.000365188550652,0.0,0.0,0.0,0.00210941941862,0.999997775172,0.346422698746,0.05,0.05,0.0,0.0,1.0,1.0,0,0,,,0
1449617621579106316,65,0,/odom,ucmd_vector,0,0,0,0.0259152448405,0.000365188550652,0.0,0.0,0.0,0.00210941941862,0.999997775172,0.340835397491,0.05,0.05,0.0,0.0,1.0,1.0,0,0,,,0
1449617621608434922,66,0,/odom,ucmd_vector,0,0,0,0.0259152448405,0.000365188550652,0.0,0.0,0.0,0.00210941941862,0.999997775172,0.346422698746,0.05,0.05,0.0,0.0,1.0,1.0,0,0,,,0
1449617621643020254,67,0,/odom,ucmd_vector,0,0,0,0.0287950381062,0.000365188550652,0.0,0.0,0.0,-0.00317459802558,0.999994960951,0.346422698746,0.05,0.05,0.0,0.0,1.0,1.0,0,0,,,0
1449617621738457661,68,0,/odom,ucmd_vector,0,0,0,0.0287950381062,0.000365188550652,0.0,0.0,0.0,-0.00317459802558,0.999994960951,0.346422698746,0.05,0.05,0.0,0.0,1.0,1.0,0,0,,,0
1449617621746225797,69,0,/odom,ucmd_vector,0,0,0,0.0345544638264,0.000395621779589,0.0,0.0,0.0,-0.00317459802558,0.999994960951,0.346422698746,0.05,0.05,0.0,0.0,1.0,1.0,0,0,,,0
1449617621766773221,70,0,/odom,ucmd_vector,0,0,0,0.0345544638264,0.000395621779589,0.0,0.0,0.0,-0.00317459802558,0.999994960951,0.346422698746,0.05,0.05,0.0,0.0,1.0,1.0,0,0,,,0
1449617621819508030,71,0,/odom,ucmd_vector,0,0,0,0.0345544638264,0.000395621779589,0.0,0.0,0.0,-0.00317459802558,0.999994960951,0.346422698746,0.05,0.05,0.0,0.0,1.0,1.0,0,0,,,0
1449617621848434788,72,0,/odom,ucmd_vector,0,0,0,0.040314050358,0.000395621779589,0.0,0.0,0.0,-0.00317459802558,0.999994960951,0.346422698746,0.05,0.05,0.0,0.0,1.0,1.0,0,0,,,0
1449617621883201670,73,0,/odom,ucmd_vector,0,0,0,0.040314050358,0.000395621779589,0.0,0.0,0.0,-0.00317459802558,0.999994960951,0.346422698746,0.05,0.05,0.0,0.0,1.0,1.0,0,0,,,0
1449617621930130017,74,0,/odom,ucmd_vector,0,0,0,0.0460736368896,0.000395621779589,0.0,0.0,0.0,-0.00317459802558,0.999994960951,0.346422698746,0.05,0.05,0.0,0.0,1.0,1.0,0,0,,,0
1449617621970536652,75,0,/odom,ucmd_vector,0,0,0,0.0460736368896,0.000395621779589,0.0,0.0,0.0,-0.00317459802558,0.999994960951,0.346422698746,0.05,0.05,0.0,0.0,1.0,1.0,0,0,,,0
1449617622031505430,76,0,/odom,ucmd_vector,0,0,0,0.0518332234211,0.000395621779589,0.0,0.0,0.0,-0.00317459802558,0.999994960951,0.346422698746,0.05,0.05,0.0,0.0,1.0,1.0,0,0,,,0
1449617622041222526,77,0,/odom,ucmd_vector,0,0,0,0.0604721207843,0.000304322092779,0.0,0.0,0.0,-0.0052839997518,0.999986039576,0.346422698746,0.05,0.05,0.0,0.0,1.0,1.0,0,0,,,0
1449617622084001683,78,0,/odom,ucmd_vector,0,0,0,0.0604721207843,0.000304322092779,0.0,0.0,0.0,-0.0052839997518,0.999986039576,0.346422698746,0.05,0.05,0.0,0.0,1.0,1.0,0,0,,,0
1449617622120467136,79,0,/odom,ucmd_vector,0,0,0,0.066231385693,0.000243455634906,0.0,0.0,0.0,-0.0052839997518,0.999986039576,0.346422698746,0.05,0.05,0.0,0.0,1.0,1.0,0,0,,,0
1449617622167516759,80,0,/odom,ucmd_vector,0,0,0,0.0691105357311,0.000182592575895,0.0,0.0,0.0,-0.0137422194698,0.999905571244,0.346422698746,0.05,0.05,0.0,0.0,1.0,1.0,0,0,,,0
1449617622223599518,81,0,/odom,ucmd_vector,0,0,0,0.0748688358072,6.08664578733e-05,0.0,0.0,0.0,-0.0137422194698,0.999905571244,0.346422698746,0.05,0.05,0.0,0.0,1.0,1.0,0,0,,,0
1449617622292881596,82,0,/odom,ucmd_vector,0,0,0,0.0806271358834,-6.08596601482e-05,0.0,0.0,0.0,-0.0137422194698,0.999905571244,0.346422698746,0.05,0.05,0.0,0.0,1.0,1.0,0,0,,,0
1449617622303084988,83,0,/odom,ucmd_vector,0,0,0,0.0950188662373,-0.000517290118845,0.0,0.0,0.0,-0.0190255284129,0.999818998253,0.346422698746,0.05,0.05,0.0,0.0,1.0,1.0,0,0,,,0
1449617622324950941,84,0,/odom,ucmd_vector,0,0,0,0.0950188662373,-0.000517290118845,0.0,0.0,0.0,-0.0190255284129,0.999818998253,0.346422698746,0.05,0.05,0.0,0.0,1.0,1.0,0,0,,,0
1449617622365166037,85,0,/odom,ucmd_vector,0,0,0,0.103650528164,-0.000882386907041,0.0,0.0,0.0,-0.024308306147,0.999704509469,0.346422698746,0.05,0.05,0.0,0.0,1.0,1.0,0,0,,,0
1449617622431432771,86,0,/odom,ucmd_vector,0,0,0,0.109404969449,-0.00112578476584,0.0,0.0,0.0,-0.024308306147,0.999704509469,0.346422698746,0.05,0.05,0.0,0.0,1.0,1.0,0,0,,,0
1449617622446327108,87,0,/odom,ucmd_vector,0,0,0,0.123786732368,-0.00182547715085,0.0,0.0,0.0,-0.0295904051727,0.999562108086,0.35201,0.05,0.05,0.0,0.0,1.0,1.0,0,0,,,0
1449617622488500146,88,0,/odom,ucmd_vector,0,0,0,0.123786732368,-0.00182547715085,0.0,0.0,0.0,-0.0295904051727,0.999562108086,0.35201,0.05,0.05,0.0,0.0,1.0,1.0,0,0,,,0
1449617622549607837,89,0,/odom,ucmd_vector,0,0,0,0.135289827881,-0.00243386985246,0.0,0.0,0.0,-0.0295904051727,0.999562108086,0.35201,0.05,0.05,0.0,0.0,1.0,1.0,0,0,,,0
1449617622567173435,90,0,/odom,ucmd_vector,0,0,0,0.155407869463,-0.00371123289527,0.0,0.0,0.0,-0.0316988350601,0.999497465658,0.346422698746,0.05,0.05,0.0,0.0,1.0,1.0,0,0,,,0
1449617622603488179,91,0,/odom,ucmd_vector,0,0,0,0.155407869463,-0.00371123289527,0.0,0.0,0.0,-0.0316988350601,0.999497465658,0.346422698746,0.05,0.05,0.0,0.0,1.0,1.0,0,0,,,0
1449617622656897746,92,0,/odom,ucmd_vector,0,0,0,0.16402362054,-0.0043497598375,0.0,0.0,0.0,-0.0401519771987,0.99919358421,0.346422698746,0.05,0.05,0.0,0.0,1.0,1.0,0,0,,,0
1449617622685987869,93,0,/odom,ucmd_vector,0,0,0,0.175511288643,-0.00520112909381,0.0,0.0,0.0,-0.0401519771987,0.99919358421,0.346422698746,0.05,0.05,0.0,0.0,1.0,1.0,0,0,,,0
1449617622793423885,94,0,/odom,ucmd_vector,0,0,0,0.184119810747,-0.00593067036186,0.0,0.0,0.0,-0.042259606217,0.999106663816,0.346422698746,0.05,0.05,0.0,0.0,1.0,1.0,0,0,,,0
1449617622835092584,95,0,/odom,ucmd_vector,0,0,0,0.218553899165,-0.00884883543406,0.0,0.0,0.0,-0.042259606217,0.999106663816,0.346422698746,0.05,0.05,0.0,0.0,1.0,1.0,0,0,,,0
1449617622844300098,96,0,/odom,ucmd_vector,0,0,0,0.232887785347,-0.0102162922954,0.0,0.0,0.0,-0.050709064947,0.998713467784,0.346422698746,0.05,0.05,0.0,0.0,1.0,1.0,0,0,,,0
1449617622848754217,97,0,/odom,ucmd_vector,0,0,0,0.232887785347,-0.0102162922954,0.0,0.0,0.0,-0.050709064947,0.998713467784,0.346422698746,0.05,0.05,0.0,0.0,1.0,1.0,0,0,,,0
1449617622884295182,98,0,/odom,ucmd_vector,0,0,0,0.232887785347,-0.0102162922954,0.0,0.0,0.0,-0.050709064947,0.998713467784,0.346422698746,0.05,0.05,0.0,0.0,1.0,1.0,0,0,,,0
1449617622926627884,99,0,/odom,ucmd_vector,0,0,0,0.23862133982,-0.0107632750399,0.0,0.0,0.0,-0.050709064947,0.998713467784,0.346422698746,0.05,0.05,0.0,0.0,1.0,1.0,0,0,,,0
1449617622961254331,100,0,/odom,ucmd_vector,0,0,0,0.252939974497,-0.012282133928,0.0,0.0,0.0,-0.0528156577107,0.998604279132,0.346422698746,0.05,0.05,0.0,0.0,1.0,1.0,0,0,,,0
1449617623021493317,101,0,/odom,ucmd_vector,0,0,0,0.267241758527,-0.0139522252126,0.0,0.0,0.0,-0.0580915451448,0.99831126027,0.346422698746,0.05,0.05,0.0,0.0,1.0,1.0,0,0,,,0
1449617623049981715,102,0,/odom,ucmd_vector,0,0,0,0.272962472139,-0.0146202617265,0.0,0.0,0.0,-0.0612604893744,0.998121812427,0.346422698746,0.05,0.05,0.0,0.0,1.0,1.0,0,0,,,0
1449617623080934391,103,0,/odom,ucmd_vector,0,0,0,0.290124612975,-0.0166243712681,0.0,0.0,0.0,-0.0612604893744,0.998121812427,0.346422698746,0.05,0.05,0.0,0.0,1.0,1.0,0,0,,,0
1449617623132492994,104,0,/odom,ucmd_vector,0,0,0,0.304407949097,-0.0184455084292,0.0,0.0,0.0,-0.0665337095611,0.997784177812,0.346422698746,0.05,0.05,0.0,0.0,1.0,1.0,0,0,,,0
1449617623162342887,105,0,/odom,ucmd_vector,0,0,0,0.310121283546,-0.0191739632937,0.0,0.0,0.0,-0.0633658106137,0.997990367712,0.346422698746,0.05,0.05,0.0,0.0,1.0,1.0,0,0,,,0
1449617623236539569,106,0,/odom,ucmd_vector,0,0,0,0.32438457656,-0.0211459429419,0.0,0.0,0.0,-0.0686383068554,0.997641610415,0.346422698746,0.05,0.05,0.0,0.0,1.0,1.0,0,0,,,0
1449617623259748460,107,0,/odom,ucmd_vector,0,0,0,0.352911162589,-0.0250899022384,0.0,0.0,0.0,-0.0718050720702,0.997418684217,0.307311589966,0.05,0.05,0.0,0.0,1.0,1.0,0,0,,,0
1449617623280968046,108,0,/odom,ucmd_vector,0,0,0,0.352911162589,-0.0250899022384,0.0,0.0,0.0,-0.0718050720702,0.997418684217,0.307311589966,0.05,0.05,0.0,0.0,1.0,1.0,0,0,,,0
1449617623347298417,109,0,/odom,ucmd_vector,0,0,0,0.361456156755,-0.0263634633781,0.0,0.0,0.0,-0.0739088866573,0.997264998119,0.346422698746,0.05,0.05,0.0,0.0,1.0,1.0,0,0,,,0
1449617623365271206,110,0,/odom,ucmd_vector,0,0,0,0.389939470644,-0.030608667177,0.0,0.0,0.0,-0.0739088866573,0.997264998119,0.346422698746,0.05,0.05,0.0,0.0,1.0,1.0,0,0,,,0
1449617623426849436,111,0,/odom,ucmd_vector,0,0,0,0.389939470644,-0.030608667177,0.0,0.0,0.0,-0.0739088866573,0.997264998119,0.346422698746,0.05,0.05,0.0,0.0,1.0,1.0,0,0,,,0
1449617623473672234,112,0,/odom,ucmd_vector,0,0,0,0.415532645236,-0.0347000439445,0.0,0.0,0.0,-0.0823416353879,0.996604161682,0.307311589966,0.05,0.05,0.0,0.0,1.0,1.0,0,0,,,0
1449617623482759768,113,0,/odom,ucmd_vector,0,0,0,0.421220017368,-0.0356092387817,0.0,0.0,0.0,-0.0823416353879,0.996604161682,0.307311589966,0.05,0.05,0.0,0.0,1.0,1.0,0,0,,,0
1449617623542994204,114,0,/odom,ucmd_vector,0,0,0,0.421220017368,-0.0356092387817,0.0,0.0,0.0,-0.0791774028604,0.996860541338,0.346422698746,0.05,0.05,0.0,0.0,1.0,1.0,0,0,,,0
1449617623560669919,115,0,/odom,ucmd_vector,0,0,0,0.43541363313,-0.0380323572151,0.0,0.0,0.0,-0.0844437083633,0.996428251365,0.346422698746,0.05,0.05,0.0,0.0,1.0,1.0,0,0,,,0
1449617623622607023,116,0,/odom,ucmd_vector,0,0,0,0.449580849145,-0.0406053363687,0.0,0.0,0.0,-0.0897076561262,0.99596814027,0.346422698746,0.05,0.05,0.0,0.0,1.0,1.0,0,0,,,0
1449617623672226434,117,0,/odom,ucmd_vector,0,0,0,0.458097018602,-0.0420592074287,0.0,0.0,0.0,-0.0876065420068,0.996155155484,0.31289889122,0.05,0.05,0.0,0.0,1.0,1.0,0,0,,,0
1449617623686181143,118,0,/odom,ucmd_vector,0,0,0,0.486403468653,-0.047354739099,0.0,0.0,0.0,-0.0981288701651,0.995173715911,0.31289889122,0.05,0.05,0.0,0.0,1.0,1.0,0,0,,,0
1449617623724365328,119,0,/odom,ucmd_vector,0,0,0,0.486403468653,-0.047354739099,0.0,0.0,0.0,-0.0949690991753,0.995480220899,0.346422698746,0.05,0.05,0.0,0.0,1.0,1.0,0,0,,,0
1449617623786741372,120,0,/odom,ucmd_vector,0,0,0,0.500570684668,-0.0499277182526,0.0,0.0,0.0,-0.0897076561262,0.99596814027,0.346422698746,0.05,0.05,0.0,0.0,1.0,1.0,0,0,,,0
1449617623802901377,121,0,/odom,ucmd_vector,0,0,0,0.520365612319,-0.0537392917761,0.0,0.0,0.0,-0.0949690991753,0.995480220899,0.346422698746,0.05,0.05,0.0,0.0,1.0,1.0,0,0,,,0
1449617623852246575,122,0,/odom,ucmd_vector,0,0,0,0.520365612319,-0.0537392917761,0.0,0.0,0.0,-0.0981288701651,0.995173715911,0.346422698746,0.05,0.05,0.0,0.0,1.0,1.0,0,0,,,0
1449617623926471861,123,0,/odom,ucmd_vector,0,0,0,0.53447528527,-0.0566111135942,0.0,0.0,0.0,-0.103385997912,0.994641309938,0.346422698746,0.05,0.05,0.0,0.0,1.0,1.0,0,0,,,0
1449617623942020137,124,0,/odom,ucmd_vector,0,0,0,0.557068498643,-0.0611164669224,0.0,0.0,0.0,-0.103385997912,0.994641309938,0.346422698746,0.05,0.05,0.0,0.0,1.0,1.0,0,0,,,0
1449617623986462923,125,0,/odom,ucmd_vector,0,0,0,0.557068498643,-0.0611164669224,0.0,0.0,0.0,-0.100227890607,0.994964506877,0.346422698746,0.05,0.05,0.0,0.0,1.0,1.0,0,0,,,0
1449617623999319185,126,0,/odom,ucmd_vector,0,0,0,0.565552039065,-0.0627499984324,0.0,0.0,0.0,-0.0949690991753,0.995480220899,0.346422698746,0.05,0.05,0.0,0.0,1.0,1.0,0,0,,,0
1449617624050412307,127,0,/odom,ucmd_vector,0,0,0,0.579661712016,-0.0656218202505,0.0,0.0,0.0,-0.100227890607,0.994964506877,0.346422698746,0.05,0.05,0.0,0.0,1.0,1.0,0,0,,,0
1449617624109233278,128,0,/odom,ucmd_vector,0,0,0,0.593740248077,-0.0686425906375,0.0,0.0,0.0,-0.10548388359,0.994421012601,0.346422698746,0.05,0.05,0.0,0.0,1.0,1.0,0,0,,,0
1449617624129031861,129,0,/odom,ucmd_vector,0,0,0,0.616265905774,-0.0734758232566,0.0,0.0,0.0,-0.10548388359,0.994421012601,0.346422698746,0.05,0.05,0.0,0.0,1.0,1.0,0,0,,,0
1449617624186297534,130,0,/odom,ucmd_vector,0,0,0,0.616265905774,-0.0734758232566,0.0,0.0,0.0,-0.10548388359,0.994421012601,0.189978263626,0.05,0.05,0.0,0.0,1.0,1.0,0,0,,,0
1449617624237015956,131,0,/odom,ucmd_vector,0,0,0,0.627528734623,-0.0758924395661,0.0,0.0,0.0,-0.10548388359,0.994421012601,0.189978263626,0.05,0.05,0.0,0.0,1.0,1.0,0,0,,,0
1449617624270009015,132,0,/odom,ucmd_vector,0,0,0,0.647219059577,-0.0802106848286,0.0,0.0,0.0,-0.110736931374,0.993849753247,0.346422698746,0.05,0.05,0.0,0.0,1.0,1.0,0,0,,,0
1449617624283871038,133,0,/odom,ucmd_vector,0,0,0,0.664074051788,-0.0840139427344,0.0,0.0,0.0,-0.110736931374,0.993849753247,0.346422698746,0.05,0.05,0.0,0.0,1.0,1.0,0,0,,,0
1449617624342421851,134,0,/odom,ucmd_vector,0,0,0,0.664074051788,-0.0840139427344,0.0,0.0,0.0,-0.110736931374,0.993849753247,0.346422698746,0.05,0.05,0.0,0.0,1.0,1.0,0,0,,,0
1449617624367086294,135,0,/odom,ucmd_vector,0,0,0,0.675310713262,-0.086549448005,0.0,0.0,0.0,-0.110736931374,0.993849753247,0.346422698746,0.05,0.05,0.0,0.0,1.0,1.0,0,0,,,0
1449617624406681069,136,0,/odom,ucmd_vector,0,0,0,0.683717642632,-0.0885400312998,0.0,0.0,0.0,-0.115986887289,0.993250744765,0.346422698746,0.05,0.05,0.0,0.0,1.0,1.0,0,0,,,0
1449617624460170277,137,0,/odom,ucmd_vector,0,0,0,0.700531501371,-0.0925211978894,0.0,0.0,0.0,-0.115986887289,0.993250744765,0.346422698746,0.05,0.05,0.0,0.0,1.0,1.0,0,0,,,0
1449617624512387245,138,0,/odom,ucmd_vector,0,0,0,0.711740740531,-0.0951753089491,0.0,0.0,0.0,-0.115986887289,0.993250744765,0.346422698746,0.05,0.05,0.0,0.0,1.0,1.0,0,0,,,0
1449617624535583334,139,0,/odom,ucmd_vector,0,0,0,0.734159218851,-0.100483531069,0.0,0.0,0.0,-0.115986887289,0.993250744765,0.31289889122,0.05,0.05,0.0,0.0,1.0,1.0,0,0,,,0
1449617624563326634,140,0,/odom,ucmd_vector,0,0,0,0.734159218851,-0.100483531069,0.0,0.0,0.0,-0.115986887289,0.993250744765,0.31289889122,0.05,0.05,0.0,0.0,1.0,1.0,0,0,,,0
1449617624626149873,141,0,/odom,ucmd_vector,0,0,0,0.748134925061,-0.103949056607,0.0,0.0,0.0,-0.121233604752,0.99262400388,0.31289889122,0.05,0.05,0.0,0.0,1.0,1.0,0,0,,,0
1449617624646662663,142,0,/odom,ucmd_vector,0,0,0,0.756541854431,-0.105939639902,0.0,0.0,0.0,-0.115986887289,0.993250744765,0.346422698746,0.05,0.05,0.0,0.0,1.0,1.0,0,0,,,0
1449617624684923313,143,0,/odom,ucmd_vector,0,0,0,0.770517560642,-0.10940516544,0.0,0.0,0.0,-0.121233604752,0.99262400388,0.346422698746,0.05,0.05,0.0,0.0,1.0,1.0,0,0,,,0
1449617624746787092,144,0,/odom,ucmd_vector,0,0,0,0.78169812561,-0.112177585871,0.0,0.0,0.0,-0.121233604752,0.99262400388,0.346422698746,0.05,0.05,0.0,0.0,1.0,1.0,0,0,,,0
1449617624762591485,145,0,/odom,ucmd_vector,0,0,0,0.806816993207,-0.118563031516,0.0,0.0,0.0,-0.126476937269,0.991969548091,0.346422698746,0.05,0.05,0.0,0.0,1.0,1.0,0,0,,,0
1449617624809165880,146,0,/odom,ucmd_vector,0,0,0,0.806816993207,-0.118563031516,0.0,0.0,0.0,-0.126476937269,0.991969548091,0.346422698746,0.05,0.05,0.0,0.0,1.0,1.0,0,0,,,0
1449617624854876774,147,0,/odom,ucmd_vector,0,0,0,0.812392314258,-0.120008241601,0.0,0.0,0.0,-0.126476937269,0.991969548091,0.346422698746,0.05,0.05,0.0,0.0,1.0,1.0,0,0,,,0
1449617624897149193,148,0,/odom,ucmd_vector,0,0,0,0.829118277411,-0.124343871857,0.0,0.0,0.0,-0.126476937269,0.991969548091,0.346422698746,0.05,0.05,0.0,0.0,1.0,1.0,0,0,,,0
1449617624923122367,149,0,/odom,ucmd_vector,0,0,0,0.840268919514,-0.127234292028,0.0,0.0,0.0,-0.126476937269,0.991969548091,0.346422698746,0.05,0.05,0.0,0.0,1.0,1.0,0,0,,,0
1449617624981036162,150,0,/odom,ucmd_vector,0,0,0,0.854168261893,-0.130994413404,0.0,0.0,0.0,-0.131716738444,0.99128739567,0.346422698746,0.05,0.05,0.0,0.0,1.0,1.0,0,0,,,0
1449617625003515479,151,0,/odom,ucmd_vector,0,0,0,0.86253124347,-0.133162228532,0.0,0.0,0.0,-0.126476937269,0.991969548091,0.346422698746,0.05,0.05,0.0,0.0,1.0,1.0,0,0,,,0
1449617625050160044,152,0,/odom,ucmd_vector,0,0,0,0.876430585849,-0.136922349909,0.0,0.0,0.0,-0.131716738444,0.99128739567,0.346422698746,0.05,0.05,0.0,0.0,1.0,1.0,0,0,,,0
1449617625152352147,153,0,/odom,ucmd_vector,0,0,0,0.887550059753,-0.13993044701,0.0,0.0,0.0,-0.131716738444,0.99128739567,0.346422698746,0.05,0.05,0.0,0.0,1.0,1.0,0,0,,,0
1449617625197170857,154,0,/odom,ucmd_vector,0,0,0,0.918104305449,-0.148290719771,0.0,0.0,0.0,-0.136952861975,0.990577565664,0.346422698746,0.05,0.05,0.0,0.0,1.0,1.0,0,0,,,0
1449617625221730674,155,0,/odom,ucmd_vector,0,0,0,0.934734901228,-0.15297887689,0.0,0.0,0.0,-0.136952861975,0.990577565664,0.189978263626,0.05,0.05,0.0,0.0,1.0,1.0,0,0,,,0
1449617625256275588,156,0,/odom,ucmd_vector,0,0,0,0.934734901228,-0.15297887689,0.0,0.0,0.0,-0.136952861975,0.990577565664,0.346422698746,0.05,0.05,0.0,0.0,1.0,1.0,0,0,,,0
1449617625415561961,157,0,/odom,ucmd_vector,0,0,0,0.945821965081,-0.156104314969,0.0,0.0,0.0,-0.136952861975,0.990577565664,0.346422698746,0.05,0.05,0.0,0.0,1.0,1.0,0,0,,,0
1449617625431302805,158,0,/odom,ucmd_vector,0,0,0,0.998325689036,-0.17150585747,0.0,0.0,0.0,-0.142185161666,0.989840077892,0.346422698746,0.05,0.05,0.0,0.0,1.0,1.0,0,0,,,0
1449617625477331444,159,0,/odom,ucmd_vector,0,0,0,1.00385239682,-0.17312707247,0.0,0.0,0.0,-0.142185161666,0.989840077892,0.346422698746,0.05,0.05,0.0,0.0,1.0,1.0,0,0,,,0
1449617625543114970,160,0,/odom,ucmd_vector,0,0,0,1.01762556284,-0.177325897218,0.0,0.0,0.0,-0.147413491427,0.989074952946,0.346422698746,0.05,0.05,0.0,0.0,1.0,1.0,0,0,,,0
1449617625560097229,161,0,/odom,ucmd_vector,0,0,0,1.0314423323,-0.181378934718,0.0,0.0,0.0,-0.142185161666,0.989840077892,0.346422698746,0.05,0.05,0.0,0.0,1.0,1.0,0,0,,,0
1449617625600378391,162,0,/odom,ucmd_vector,0,0,0,1.03970623191,-0.183898229567,0.0,0.0,0.0,-0.147413491427,0.989074952946,0.346422698746,0.05,0.05,0.0,0.0,1.0,1.0,0,0,,,0
1449617625629023212,163,0,/odom,ucmd_vector,0,0,0,1.05072476472,-0.187257289365,0.0,0.0,0.0,-0.147413491427,0.989074952946,0.346422698746,0.05,0.05,0.0,0.0,1.0,1.0,0,0,,,0
1449617625663720888,164,0,/odom,ucmd_vector,0,0,0,1.06174329753,-0.190616349163,0.0,0.0,0.0,-0.147413491427,0.989074952946,0.346422698746,0.05,0.05,0.0,0.0,1.0,1.0,0,0,,,0
1449617625709832390,165,0,/odom,ucmd_vector,0,0,0,1.06174329753,-0.190616349163,0.0,0.0,0.0,-0.147413491427,0.989074952946,0.346422698746,0.05,0.05,0.0,0.0,1.0,1.0,0,0,,,0
1449617625746040850,166,0,/odom,ucmd_vector,0,0,0,1.08378036316,-0.197334468759,0.0,0.0,0.0,-0.147413491427,0.989074952946,0.346422698746,0.05,0.05,0.0,0.0,1.0,1.0,0,0,,,0
1449617625835190666,167,0,/odom,ucmd_vector,0,0,0,1.08378036316,-0.197334468759,0.0,0.0,0.0,-0.147413491427,0.989074952946,0.346422698746,0.05,0.05,0.0,0.0,1.0,1.0,0,0,,,0
1449617625867480480,168,0,/odom,ucmd_vector,0,0,0,1.11398201671,-0.20689158349,0.0,0.0,0.0,-0.152637705278,0.988282212188,0.346422698746,0.05,0.05,0.0,0.0,1.0,1.0,0,0,,,0
1449617625929260710,169,0,/odom,ucmd_vector,0,0,0,1.11398201671,-0.20689158349,0.0,0.0,0.0,-0.152637705278,0.988282212188,0.31289889122,0.05,0.05,0.0,0.0,1.0,1.0,0,0,,,0
1449617625956944321,170,0,/odom,ucmd_vector,0,0,0,1.13317324589,-0.213060283661,0.0,0.0,0.0,-0.157857657354,0.987461877753,0.346422698746,0.05,0.05,0.0,0.0,1.0,1.0,0,0,,,0
1449617626026830877,171,0,/odom,ucmd_vector,0,0,0,1.14411832548,-0.216651464626,0.0,0.0,0.0,-0.157857657354,0.987461877753,0.346422698746,0.05,0.05,0.0,0.0,1.0,1.0,0,0,,,0
1449617626044497739,172,0,/odom,ucmd_vector,0,0,0,1.14959086528,-0.218447055108,0.0,0.0,0.0,-0.157857657354,0.987461877753,0.31289889122,0.05,0.05,0.0,0.0,1.0,1.0,0,0,,,0
1449617626105251662,173,0,/odom,ucmd_vector,0,0,0,1.16053594487,-0.222038236073,0.0,0.0,0.0,-0.157857657354,0.987461877753,0.31289889122,0.05,0.05,0.0,0.0,1.0,1.0,0,0,,,0
1449617626121101162,174,0,/odom,ucmd_vector,0,0,0,1.16600848467,-0.223833826556,0.0,0.0,0.0,-0.157857657354,0.987461877753,0.31289889122,0.05,0.05,0.0,0.0,1.0,1.0,0,0,,,0
1449617626164357530,175,0,/odom,ucmd_vector,0,0,0,1.17695356427,-0.22742500752,0.0,0.0,0.0,-0.157857657354,0.987461877753,0.346422698746,0.05,0.05,0.0,0.0,1.0,1.0,0,0,,,0
1449617626235141962,176,0,/odom,ucmd_vector,0,0,0,1.18242610406,-0.229220598003,0.0,0.0,0.0,-0.157857657354,0.987461877753,0.346422698746,0.05,0.05,0.0,0.0,1.0,1.0,0,0,,,0
1449617626263001917,177,0,/odom,ucmd_vector,0,0,0,1.19605925074,-0.233853906015,0.0,0.0,0.0,-0.163073201911,0.986613972544,0.346422698746,0.05,0.05,0.0,0.0,1.0,1.0,0,0,,,0
1449617626352950548,178,0,/odom,ucmd_vector,0,0,0,1.19605925074,-0.233853906015,0.0,0.0,0.0,-0.163073201911,0.986613972544,0.346422698746,0.05,0.05,0.0,0.0,1.0,1.0,0,0,,,0
1449617626374535550,179,0,/odom,ucmd_vector,0,0,0,1.21241902674,-0.239413875629,0.0,0.0,0.0,-0.163073201911,0.986613972544,0.346422698746,0.05,0.05,0.0,0.0,1.0,1.0,0,0,,,0
1449617626452168308,180,0,/odom,ucmd_vector,0,0,0,1.21241902674,-0.239413875629,0.0,0.0,0.0,-0.163073201911,0.986613972544,0.346422698746,0.05,0.05,0.0,0.0,1.0,1.0,0,0,,,0
1449617626501890010,181,0,/odom,ucmd_vector,0,0,0,1.22600244801,-0.244190997987,0.0,0.0,0.0,-0.168284193326,0.985738520236,0.346422698746,0.05,0.05,0.0,0.0,1.0,1.0,0,0,,,0
1449617626601821097,182,0,/odom,ucmd_vector,0,0,0,1.23418233602,-0.246970982794,0.0,0.0,0.0,-0.163073201911,0.986613972544,0.346422698746,0.05,0.05,0.0,0.0,1.0,1.0,0,0,,,0
1449617626637914376,183,0,/odom,ucmd_vector,0,0,0,1.24776575728,-0.251748105151,0.0,0.0,0.0,-0.168284193326,0.985738520236,0.35201,0.05,0.05,0.0,0.0,1.0,1.0,0,0,,,0
1449617626726341930,184,0,/odom,ucmd_vector,0,0,0,1.25319912579,-0.253658954095,0.0,0.0,0.0,-0.168284193326,0.985738520236,0.346422698746,0.05,0.05,0.0,0.0,1.0,1.0,0,0,,,0
1449617626777807021,185,0,/odom,ucmd_vector,0,0,0,1.26133893006,-0.256553883674,0.0,0.0,0.0,-0.173490486104,0.984835545272,0.346422698746,0.05,0.05,0.0,0.0,1.0,1.0,0,0,,,0
1449617626848429330,186,0,/odom,ucmd_vector,0,0,0,1.26405561432,-0.257509308146,0.0,0.0,0.0,-0.168284193326,0.985738520236,0.346422698746,0.05,0.05,0.0,0.0,1.0,1.0,0,0,,,0
1449617626896942312,187,0,/odom,ucmd_vector,0,0,0,1.27219541859,-0.260404237725,0.0,0.0,0.0,-0.170363154899,0.985381345192,0.346422698746,0.05,0.05,0.0,0.0,1.0,1.0,0,0,,,0
1449617626956975406,188,0,/odom,ucmd_vector,0,0,0,1.27491210284,-0.261359662197,0.0,0.0,0.0,-0.165154021774,0.986267787719,0.346422698746,0.05,0.05,0.0,0.0,1.0,1.0,0,0,,,0
1449617626976993607,189,0,/odom,ucmd_vector,0,0,0,1.28577883986,-0.265181360083,0.0,0.0,0.0,-0.162022185783,0.986787115499,0.346422698746,0.05,0.05,0.0,0.0,1.0,1.0,0,0,,,0
1449617627019631764,190,0,/odom,ucmd_vector,0,0,0,1.28577883986,-0.265181360083,0.0,0.0,0.0,-0.165154021774,0.986267787719,0.346422698746,0.05,0.05,0.0,0.0,1.0,1.0,0,0,,,0
1449617627044472855,191,0,/odom,ucmd_vector,0,0,0,1.28848527562,-0.266165440719,0.0,0.0,0.0,-0.170363154899,0.985381345192,0.346422698746,0.05,0.05,0.0,0.0,1.0,1.0,0,0,,,0
1449617627070200238,192,0,/odom,ucmd_vector,0,0,0,1.29120195987,-0.267120865191,0.0,0.0,0.0,-0.165154021774,0.986267787719,0.346422698746,0.05,0.05,0.0,0.0,1.0,1.0,0,0,,,0
1449617627139458403,193,0,/odom,ucmd_vector,0,0,0,1.29663532838,-0.269031714134,0.0,0.0,0.0,-0.165154021774,0.986267787719,0.346422698746,0.05,0.05,0.0,0.0,1.0,1.0,0,0,,,0
1449617627166297856,194,0,/odom,ucmd_vector,0,0,0,1.30206869689,-0.270942563077,0.0,0.0,0.0,-0.165154021774,0.986267787719,0.346422698746,0.05,0.05,0.0,0.0,1.0,1.0,0,0,,,0
1449617627214322697,195,0,/odom,ucmd_vector,0,0,0,1.3075020654,-0.27285341202,0.0,0.0,0.0,-0.165154021774,0.986267787719,0.346422698746,0.05,0.05,0.0,0.0,1.0,1.0,0,0,,,0
1449617627289422615,196,0,/odom,ucmd_vector,0,0,0,1.3129354339,-0.274764260964,0.0,0.0,0.0,-0.165154021774,0.986267787719,0.346422698746,0.05,0.05,0.0,0.0,1.0,1.0,0,0,,,0
1449617627335308369,197,0,/odom,ucmd_vector,0,0,0,1.32380217092,-0.27858595885,0.0,0.0,0.0,-0.165154021774,0.986267787719,0.346422698746,0.05,0.05,0.0,0.0,1.0,1.0,0,0,,,0
1449617627370175212,198,0,/odom,ucmd_vector,0,0,0,1.32923553942,-0.280496807793,0.0,0.0,0.0,-0.165154021774,0.986267787719,0.301724288712,0.05,0.05,0.0,0.0,1.0,1.0,0,0,,,0
1449617627439258409,199,0,/odom,ucmd_vector,0,0,0,1.33466890793,-0.282407656736,0.0,0.0,0.0,-0.165154021774,0.986267787719,0.301724288712,0.05,0.05,0.0,0.0,1.0,1.0,0,0,,,0
1449617627467826926,200,0,/odom,ucmd_vector,0,0,0,1.34553564494,-0.286229354622,0.0,0.0,0.0,-0.165154021774,0.986267787719,0.346422698746,0.05,0.05,0.0,0.0,1.0,1.0,0,0,,,0
1449617627505606506,201,0,/odom,ucmd_vector,0,0,0,1.35371553295,-0.289009339429,0.0,0.0,0.0,-0.159940277408,0.987126692812,0.346422698746,0.05,0.05,0.0,0.0,1.0,1.0,0,0,,,0
1449617627527562683,202,0,/odom,ucmd_vector,0,0,0,1.35371553295,-0.289009339429,0.0,0.0,0.0,-0.159940277408,0.987126692812,0.301724288712,0.05,0.05,0.0,0.0,1.0,1.0,0,0,,,0
1449617627588193691,203,0,/odom,ucmd_vector,0,0,0,1.35916879162,-0.290862662634,0.0,0.0,0.0,-0.159940277408,0.987126692812,0.301724288712,0.05,0.05,0.0,0.0,1.0,1.0,0,0,,,0
1449617627637186522,204,0,/odom,ucmd_vector,0,0,0,1.37549873238,-0.296508920856,0.0,0.0,0.0,-0.159940277408,0.987126692812,0.301724288712,0.05,0.05,0.0,0.0,1.0,1.0,0,0,,,0
1449617627711087284,205,0,/odom,ucmd_vector,0,0,0,1.38095199105,-0.298362244061,0.0,0.0,0.0,-0.159940277408,0.987126692812,0.346422698746,0.05,0.05,0.0,0.0,1.0,1.0,0,0,,,0
1449617627744622885,206,0,/odom,ucmd_vector,0,0,0,1.39463334054,-0.302851220267,0.0,0.0,0.0,-0.154722067374,0.987958036491,0.346422698746,0.05,0.05,0.0,0.0,1.0,1.0,0,0,,,0
1449617627799284944,207,0,/odom,ucmd_vector,0,0,0,1.39463334054,-0.302851220267,0.0,0.0,0.0,-0.154722067374,0.987958036491,0.329660794983,0.05,0.05,0.0,0.0,1.0,1.0,0,0,,,0
1449617627839850559,208,0,/odom,ucmd_vector,0,0,0,1.41105095994,-0.308237991714,0.0,0.0,0.0,-0.154722067374,0.987958036491,0.329660794983,0.05,0.05,0.0,0.0,1.0,1.0,0,0,,,0
1449617627907988057,209,0,/odom,ucmd_vector,0,0,0,1.41928777454,-0.310844477549,0.0,0.0,0.0,-0.152637705278,0.988282212188,0.346422698746,0.05,0.05,0.0,0.0,1.0,1.0,0,0,,,0
1449617627959352993,210,0,/odom,ucmd_vector,0,0,0,1.43844166383,-0.317129044238,0.0,0.0,0.0,-0.157857657354,0.987461877753,0.346422698746,0.05,0.05,0.0,0.0,1.0,1.0,0,0,,,0
1449617627977577685,211,0,/odom,ucmd_vector,0,0,0,1.44667847844,-0.319735530073,0.0,0.0,0.0,-0.152637705278,0.988282212188,0.184390962372,0.05,0.05,0.0,0.0,1.0,1.0,0,0,,,0
1449617628086438683,212,0,/odom,ucmd_vector,0,0,0,1.44667847844,-0.319735530073,0.0,0.0,0.0,-0.152637705278,0.988282212188,0.189978263626,0.05,0.05,0.0,0.0,1.0,1.0,0,0,,,0
1449617628138198053,213,0,/odom,ucmd_vector,0,0,0,1.47425097254,-0.32804570722,0.0,0.0,0.0,-0.142185161666,0.989840077892,0.189978263626,0.05,0.05,0.0,0.0,1.0,1.0,0,0,,,0
1449617628225448818,214,0,/odom,ucmd_vector,0,0,0,1.48530438811,-0.33128813722,0.0,0.0,0.0,-0.142185161666,0.989840077892,0.184390962372,0.05,0.05,0.0,0.0,1.0,1.0,0,0,,,0
1449617628348316757,215,0,/odom,ucmd_vector,0,0,0,1.50468992571,-0.33681614982,0.0,0.0,0.0,-0.136952861975,0.990577565664,0.184390962372,0.05,0.05,0.0,0.0,1.0,1.0,0,0,,,0
1449617628385108740,216,0,/odom,ucmd_vector,0,0,0,1.54632313275,-0.348331195905,0.0,0.0,0.0,-0.131716738444,0.99128739567,0.189978263626,0.05,0.05,0.0,0.0,1.0,1.0,0,0,,,0
1449617628452703421,217,0,/odom,ucmd_vector,0,0,0,1.54632313275,-0.348331195905,0.0,0.0,0.0,-0.131716738444,0.99128739567,0.184390962372,0.05,0.05,0.0,0.0,1.0,1.0,0,0,,,0
1449617628506844422,218,0,/odom,ucmd_vector,0,0,0,1.56583675642,-0.353389431204,0.0,0.0,0.0,-0.126476937269,0.991969548091,0.189978263626,0.05,0.05,0.0,0.0,1.0,1.0,0,0,,,0
1449617628561752526,219,0,/odom,ucmd_vector,0,0,0,1.57981246264,-0.356854956742,0.0,0.0,0.0,-0.121233604752,0.99262400388,0.189978263626,0.05,0.05,0.0,0.0,1.0,1.0,0,0,,,0
1449617628600540215,220,0,/odom,ucmd_vector,0,0,0,1.60217359257,-0.362399797604,0.0,0.0,0.0,-0.121233604752,0.99262400388,0.184390962372,0.05,0.05,0.0,0.0,1.0,1.0,0,0,,,0
1449617628638751073,221,0,/odom,ucmd_vector,0,0,0,1.61335415754,-0.365172218035,0.0,0.0,0.0,-0.121233604752,0.99262400388,0.189978263626,0.05,0.05,0.0,0.0,1.0,1.0,0,0,,,0
1449617628727004653,222,0,/odom,ucmd_vector,0,0,0,1.62459081901,-0.367707723305,0.0,0.0,0.0,-0.110736931374,0.993849753247,0.189978263626,0.05,0.05,0.0,0.0,1.0,1.0,0,0,,,0
1449617628770221533,223,0,/odom,ucmd_vector,0,0,0,1.64428768581,-0.371996246327,0.0,0.0,0.0,-0.10548388359,0.994421012601,0.189978263626,0.05,0.05,0.0,0.0,1.0,1.0,0,0,,,0
1449617628822145794,224,0,/odom,ucmd_vector,0,0,0,1.65555051466,-0.374412862637,0.0,0.0,0.0,-0.10548388359,0.994421012601,0.184390962372,0.05,0.05,0.0,0.0,1.0,1.0,0,0,,,0
1449617628891222527,225,0,/odom,ucmd_vector,0,0,0,1.66681334351,-0.376829478946,0.0,0.0,0.0,-0.10548388359,0.994421012601,0.189978263626,0.05,0.05,0.0,0.0,1.0,1.0,0,0,,,0
1449617628971414334,226,0,/odom,ucmd_vector,0,0,0,1.68656688564,-0.380850029492,0.0,0.0,0.0,-0.100227890607,0.994964506877,0.189978263626,0.05,0.05,0.0,0.0,1.0,1.0,0,0,,,0
1449617629031244523,227,0,/odom,ucmd_vector,0,0,0,1.70636181329,-0.384661603015,0.0,0.0,0.0,-0.0949690991753,0.995480220899,0.189978263626,0.05,0.05,0.0,0.0,1.0,1.0,0,0,,,0
1449617629052275379,228,0,/odom,ucmd_vector,0,0,0,1.72901256973,-0.388868113679,0.0,0.0,0.0,-0.0949690991753,0.995480220899,0.189978263626,0.05,0.05,0.0,0.0,1.0,1.0,0,0,,,0
1449617629125618684,229,0,/odom,ucmd_vector,0,0,0,1.72901256973,-0.388868113679,0.0,0.0,0.0,-0.0949690991753,0.995480220899,0.189978263626,0.05,0.05,0.0,0.0,1.0,1.0,0,0,,,0
1449617629146374835,230,0,/odom,ucmd_vector,0,0,0,1.75451355856,-0.393499476155,0.0,0.0,0.0,-0.0897076561262,0.99596814027,0.189978263626,0.05,0.05,0.0,0.0,1.0,1.0,0,0,,,0
1449617629182165157,231,0,/odom,ucmd_vector,0,0,0,1.75451355856,-0.393499476155,0.0,0.0,0.0,-0.0897076561262,0.99596814027,0.346422698746,0.05,0.05,0.0,0.0,1.0,1.0,0,0,,,0
1449617629238126141,232,0,/odom,ucmd_vector,0,0,0,1.76870717432,-0.395922594589,0.0,0.0,0.0,-0.0844437083633,0.996428251365,0.346422698746,0.05,0.05,0.0,0.0,1.0,1.0,0,0,,,0
1449617629282907538,233,0,/odom,ucmd_vector,0,0,0,1.78860305095,-0.399164829055,0.0,0.0,0.0,-0.0791774028604,0.996860541338,0.346422698746,0.05,0.05,0.0,0.0,1.0,1.0,0,0,,,0
1449617629345239099,234,0,/odom,ucmd_vector,0,0,0,1.79997779521,-0.40098321873,0.0,0.0,0.0,-0.0791774028604,0.996860541338,0.346422698746,0.05,0.05,0.0,0.0,1.0,1.0,0,0,,,0
1449617629406477805,235,0,/odom,ucmd_vector,0,0,0,1.80852278938,-0.402256779869,0.0,0.0,0.0,-0.0739088866573,0.997264998119,0.346422698746,0.05,0.05,0.0,0.0,1.0,1.0,0,0,,,0
1449617629455022508,236,0,/odom,ucmd_vector,0,0,0,1.83417940795,-0.405926841037,0.0,0.0,0.0,-0.0686383068554,0.997641610415,0.346422698746,0.05,0.05,0.0,0.0,1.0,1.0,0,0,,,0
1449617629499063250,237,0,/odom,ucmd_vector,0,0,0,1.83988472516,-0.406715632896,0.0,0.0,0.0,-0.0686383068554,0.997641610415,0.346422698746,0.05,0.05,0.0,0.0,1.0,1.0,0,0,,,0
1449617629525039508,238,0,/odom,ucmd_vector,0,0,0,1.85416806128,-0.408536770058,0.0,0.0,0.0,-0.0633658106137,0.997990367712,0.346422698746,0.05,0.05,0.0,0.0,1.0,1.0,0,0,,,0
1449617629539681689,239,0,/odom,ucmd_vector,0,0,0,1.86559473018,-0.409993679786,0.0,0.0,0.0,-0.0633658106137,0.997990367712,0.346422698746,0.05,0.05,0.0,0.0,1.0,1.0,0,0,,,0
1449617629655444078,240,0,/odom,ucmd_vector,0,0,0,1.86559473018,-0.409993679786,0.0,0.0,0.0,-0.0633658106137,0.997990367712,0.346422698746,0.05,0.05,0.0,0.0,1.0,1.0,0,0,,,0
1449617629704296652,241,0,/odom,ucmd_vector,0,0,0,1.90276461033,-0.414456753828,0.0,0.0,0.0,-0.0580915451448,0.99831126027,0.346422698746,0.05,0.05,0.0,0.0,1.0,1.0,0,0,,,0
1449617629725270436,242,0,/odom,ucmd_vector,0,0,0,1.91135579114,-0.415368069161,0.0,0.0,0.0,-0.0528156577107,0.998604279132,0.346422698746,0.05,0.05,0.0,0.0,1.0,1.0,0,0,,,0
1449617629767619901,243,0,/odom,ucmd_vector,0,0,0,1.92565757517,-0.417038160445,0.0,0.0,0.0,-0.0580915451448,0.99831126027,0.346422698746,0.05,0.05,0.0,0.0,1.0,1.0,0,0,,,0
1449617629808530131,244,0,/odom,ucmd_vector,0,0,0,1.93997620984,-0.418557019333,0.0,0.0,0.0,-0.0528156577107,0.998604279132,0.346422698746,0.05,0.05,0.0,0.0,1.0,1.0,0,0,,,0
1449617629850999793,245,0,/odom,ucmd_vector,0,0,0,1.94857654155,-0.41937749345,0.0,0.0,0.0,-0.0475382956186,0.998869416115,0.346422698746,0.05,0.05,0.0,0.0,1.0,1.0,0,0,,,0
1449617629912476585,246,0,/odom,ucmd_vector,0,0,0,1.9600436505,-0.420471458939,0.0,0.0,0.0,-0.0475382956186,0.998869416115,0.346422698746,0.05,0.05,0.0,0.0,1.0,1.0,0,0,,,0
1449617629944602896,247,0,/odom,ucmd_vector,0,0,0,1.98585829628,-0.422781326542,0.0,0.0,0.0,-0.042259606217,0.999106663816,0.346422698746,0.05,0.05,0.0,0.0,1.0,1.0,0,0,,,0
1449617629989184825,248,0,/odom,ucmd_vector,0,0,0,1.98585829628,-0.422781326542,0.0,0.0,0.0,-0.042259606217,0.999106663816,0.346422698746,0.05,0.05,0.0,0.0,1.0,1.0,0,0,,,0
1449617630016929535,249,0,/odom,ucmd_vector,0,0,0,2.01455336996,-0.425213130768,0.0,0.0,0.0,-0.042259606217,0.999106663816,0.346422698746,0.05,0.05,0.0,0.0,1.0,1.0,0,0,,,0
1449617630052996847,250,0,/odom,ucmd_vector,0,0,0,2.01455336996,-0.425213130768,0.0,0.0,0.0,-0.042259606217,0.999106663816,0.307311589966,0.05,0.05,0.0,0.0,1.0,1.0,0,0,,,0
1449617630086981111,251,0,/odom,ucmd_vector,0,0,0,2.0202923847,-0.425699491614,0.0,0.0,0.0,-0.042259606217,0.999106663816,0.307311589966,0.05,0.05,0.0,0.0,1.0,1.0,0,0,,,0
1449617630124302984,252,0,/odom,ucmd_vector,0,0,0,2.03465196983,-0.426763703184,0.0,0.0,0.0,-0.0369797368913,0.999316015612,0.307311589966,0.05,0.05,0.0,0.0,1.0,1.0,0,0,,,0
1449617630164260363,253,0,/odom,ucmd_vector,0,0,0,2.05188347198,-0.428040757069,0.0,0.0,0.0,-0.0369797368913,0.999316015612,0.346422698746,0.05,0.05,0.0,0.0,1.0,1.0,0,0,,,0
1449617630182751747,254,0,/odom,ucmd_vector,0,0,0,2.05762730604,-0.428466441697,0.0,0.0,0.0,-0.0369797368913,0.999316015612,0.346422698746,0.05,0.05,0.0,0.0,1.0,1.0,0,0,,,0
1449617630234313979,255,0,/odom,ucmd_vector,0,0,0,2.05762730604,-0.428466441697,0.0,0.0,0.0,-0.0369797368913,0.999316015612,0.31289889122,0.05,0.05,0.0,0.0,1.0,1.0,0,0,,,0
1449617630272130274,256,0,/odom,ucmd_vector,0,0,0,2.08061308681,-0.430017370813,0.0,0.0,0.0,-0.0369797368913,0.999316015612,0.31289889122,0.05,0.05,0.0,0.0,1.0,1.0,0,0,,,0
1449617630310822887,257,0,/odom,ucmd_vector,0,0,0,2.09498311652,-0.430929772986,0.0,0.0,0.0,-0.0316988350601,0.999497465658,0.31289889122,0.05,0.05,0.0,0.0,1.0,1.0,0,0,,,0
1449617630341812690,258,0,/odom,ucmd_vector,0,0,0,2.10647914028,-0.431659694725,0.0,0.0,0.0,-0.0316988350601,0.999497465658,0.346422698746,0.05,0.05,0.0,0.0,1.0,1.0,0,0,,,0
1449617630402884505,259,0,/odom,ucmd_vector,0,0,0,2.10647914028,-0.431659694725,0.0,0.0,0.0,-0.0316988350601,0.999497465658,0.346422698746,0.05,0.05,0.0,0.0,1.0,1.0,0,0,,,0
1449617630427367449,260,0,/odom,ucmd_vector,0,0,0,2.1294711878,-0.433119538202,0.0,0.0,0.0,-0.0316988350601,0.999497465658,0.346422698746,0.05,0.05,0.0,0.0,1.0,1.0,0,0,,,0
1449617630463741359,261,0,/odom,ucmd_vector,0,0,0,2.14385005719,-0.433880029079,0.0,0.0,0.0,-0.0264170481704,0.999651008886,0.346422698746,0.05,0.05,0.0,0.0,1.0,1.0,0,0,,,0
1449617630520525968,262,0,/odom,ucmd_vector,0,0,0,2.14385005719,-0.433880029079,0.0,0.0,0.0,-0.0264170481704,0.999651008886,0.346422698746,0.05,0.05,0.0,0.0,1.0,1.0,0,0,,,0
1449617630549013404,263,0,/odom,ucmd_vector,0,0,0,2.16397517052,-0.435035863085,0.0,0.0,0.0,-0.0316988350601,0.999497465658,0.346422698746,0.05,0.05,0.0,0.0,1.0,1.0,0,0,,,0
1449617630589867466,264,0,/odom,ucmd_vector,0,0,0,2.17835403992,-0.435796353962,0.0,0.0,0.0,-0.0264170481704,0.999651008886,0.346422698746,0.05,0.05,0.0,0.0,1.0,1.0,0,0,,,0
1449617630623835881,265,0,/odom,ucmd_vector,0,0,0,2.18985713543,-0.436404746663,0.0,0.0,0.0,-0.0264170481704,0.999651008886,0.346422698746,0.05,0.05,0.0,0.0,1.0,1.0,0,0,,,0
1449617630661383590,266,0,/odom,ucmd_vector,0,0,0,2.18985713543,-0.436404746663,0.0,0.0,0.0,-0.0264170481704,0.999651008886,0.346422698746,0.05,0.05,0.0,0.0,1.0,1.0,0,0,,,0
1449617630703133580,267,0,/odom,ucmd_vector,0,0,0,2.19560868318,-0.436708943014,0.0,0.0,0.0,-0.0264170481704,0.999651008886,0.346422698746,0.05,0.05,0.0,0.0,1.0,1.0,0,0,,,0
1449617630765233669,268,0,/odom,ucmd_vector,0,0,0,2.2071117787,-0.437317335716,0.0,0.0,0.0,-0.0264170481704,0.999651008886,0.346422698746,0.05,0.05,0.0,0.0,1.0,1.0,0,0,,,0
1449617630785529489,269,0,/odom,ucmd_vector,0,0,0,2.23012520354,-0.438382124889,0.0,0.0,0.0,-0.0264170481704,0.999651008886,0.346422698746,0.05,0.05,0.0,0.0,1.0,1.0,0,0,,,0
1449617630828053683,270,0,/odom,ucmd_vector,0,0,0,2.23012520354,-0.438382124889,0.0,0.0,0.0,-0.0264170481704,0.999651008886,0.346422698746,0.05,0.05,0.0,0.0,1.0,1.0,0,0,,,0
1449617630873018151,271,0,/odom,ucmd_vector,0,0,0,2.25313139457,-0.439598910292,0.0,0.0,0.0,-0.0264170481704,0.999651008886,0.346422698746,0.05,0.05,0.0,0.0,1.0,1.0,0,0,,,0
1449617630908790563,272,0,/odom,ucmd_vector,0,0,0,2.26463449008,-0.440207302994,0.0,0.0,0.0,-0.0264170481704,0.999651008886,0.346422698746,0.05,0.05,0.0,0.0,1.0,1.0,0,0,,,0
1449617630949675557,273,0,/odom,ucmd_vector,0,0,0,2.2761375856,-0.440815695696,0.0,0.0,0.0,-0.0232434249345,0.999729835104,0.346422698746,0.05,0.05,0.0,0.0,1.0,1.0,0,0,,,0
1449617631004925461,274,0,/odom,ucmd_vector,0,0,0,2.28764068111,-0.441424088397,0.0,0.0,0.0,-0.0232434249345,0.999729835104,0.346422698746,0.05,0.05,0.0,0.0,1.0,1.0,0,0,,,0
1449617631019989550,275,0,/odom,ucmd_vector,0,0,0,2.29339222886,-0.441728284748,0.0,0.0,0.0,-0.0232434249345,0.999729835104,0.346422698746,0.05,0.05,0.0,0.0,1.0,1.0,0,0,,,0
1449617631093581191,276,0,/odom,ucmd_vector,0,0,0,2.29339222886,-0.441728284748,0.0,0.0,0.0,0.144500792442,0.98950468467,0.301724288712,0.05,0.05,0.0,0.0,1.0,1.0,0,0,,,0
1449617631137709918,277,0,/odom,ucmd_vector,0,0,0,2.32214112796,-0.443401177798,0.0,0.0,0.0,0.144500792442,0.98950468467,0.301724288712,0.05,0.05,0.0,0.0,1.0,1.0,0,0,,,0
1449617631189383458,278,0,/odom,ucmd_vector,0,0,0,2.33076314578,-0.443948619103,0.0,0.0,0.0,0.136125871517,0.99069154993,0.296136987457,0.05,0.05,0.0,0.0,1.0,1.0,0,0,,,0
1449617631234733769,279,0,/odom,ucmd_vector,0,0,0,2.3537551933,-0.44540846258,0.0,0.0,0.0,0.136125871517,0.99069154993,0.296136987457,0.05,0.05,0.0,0.0,1.0,1.0,0,0,,,0
1449617631271092334,280,0,/odom,ucmd_vector,0,0,0,2.36525121706,-0.446138384319,0.0,0.0,0.0,0.139270232642,0.990254412916,0.301724288712,0.05,0.05,0.0,0.0,1.0,1.0,0,0,,,0
1449617631328764685,281,0,/odom,ucmd_vector,0,0,0,2.37674724082,-0.446868306057,0.0,0.0,0.0,0.139270232642,0.990254412916,0.301724288712,0.05,0.05,0.0,0.0,1.0,1.0,0,0,,,0
1449617631391622993,282,0,/odom,ucmd_vector,0,0,0,2.39110682595,-0.447932517628,0.0,0.0,0.0,0.130889157238,0.991397008528,0.296136987457,0.05,0.05,0.0,0.0,1.0,1.0,0,0,,,0
1449617631423013128,283,0,/odom,ucmd_vector,0,0,0,2.41122486753,-0.449209880671,0.0,0.0,0.0,0.136125871517,0.99069154993,0.296136987457,0.05,0.05,0.0,0.0,1.0,1.0,0,0,,,0
1449617631464672714,284,0,/odom,ucmd_vector,0,0,0,2.41122486753,-0.449209880671,0.0,0.0,0.0,0.139270232642,0.990254412916,0.301724288712,0.05,0.05,0.0,0.0,1.0,1.0,0,0,,,0
1449617631507823684,285,0,/odom,ucmd_vector,0,0,0,2.42272089129,-0.449939802409,0.0,0.0,0.0,0.139270232642,0.990254412916,0.301724288712,0.05,0.05,0.0,0.0,1.0,1.0,0,0,,,0
1449617631558002578,286,0,/odom,ucmd_vector,0,0,0,2.44571293882,-0.451399645887,0.0,0.0,0.0,0.136125871517,0.99069154993,0.296136987457,0.05,0.05,0.0,0.0,1.0,1.0,0,0,,,0
1449617631600196008,287,0,/odom,ucmd_vector,0,0,0,2.45720896258,-0.452129567626,0.0,0.0,0.0,0.136125871517,0.99069154993,0.296136987457,0.05,0.05,0.0,0.0,1.0,1.0,0,0,,,0
1449617631635261203,288,0,/odom,ucmd_vector,0,0,0,2.46582471365,-0.452768094568,0.0,0.0,0.0,0.130889157238,0.991397008528,0.301724288712,0.05,0.05,0.0,0.0,1.0,1.0,0,0,,,0
1449617631664190741,289,0,/odom,ucmd_vector,0,0,0,2.47731238176,-0.453619463824,0.0,0.0,0.0,0.130889157238,0.991397008528,0.301724288712,0.05,0.05,0.0,0.0,1.0,1.0,0,0,,,0
1449617631719535024,290,0,/odom,ucmd_vector,0,0,0,2.47731238176,-0.453619463824,0.0,0.0,0.0,0.130889157238,0.991397008528,0.301724288712,0.05,0.05,0.0,0.0,1.0,1.0,0,0,,,0
1449617631754513126,291,0,/odom,ucmd_vector,0,0,0,2.49742206768,-0.455018274385,0.0,0.0,0.0,0.139270232642,0.990254412916,0.296136987457,0.05,0.05,0.0,0.0,1.0,1.0,0,0,,,0
1449617631792618612,292,0,/odom,ucmd_vector,0,0,0,2.50603781876,-0.455656801327,0.0,0.0,0.0,0.134035784298,0.990976492419,0.296136987457,0.05,0.05,0.0,0.0,1.0,1.0,0,0,,,0
1449617631816941175,293,0,/odom,ucmd_vector,0,0,0,2.51178165281,-0.456082485955,0.0,0.0,0.0,0.134035784298,0.990976492419,0.301724288712,0.05,0.05,0.0,0.0,1.0,1.0,0,0,,,0
1449617631872198373,294,0,/odom,ucmd_vector,0,0,0,2.51178165281,-0.456082485955,0.0,0.0,0.0,0.134035784298,0.990976492419,0.301724288712,0.05,0.05,0.0,0.0,1.0,1.0,0,0,,,0
1449617631905602570,295,0,/odom,ucmd_vector,0,0,0,2.52901315497,-0.457359539839,0.0,0.0,0.0,0.134035784298,0.990976492419,0.301724288712,0.05,0.05,0.0,0.0,1.0,1.0,0,0,,,0
1449617631969629397,296,0,/odom,ucmd_vector,0,0,0,2.52901315497,-0.457359539839,0.0,0.0,0.0,0.134035784298,0.990976492419,0.296136987457,0.05,0.05,0.0,0.0,1.0,1.0,0,0,,,0
1449617632005502448,297,0,/odom,ucmd_vector,0,0,0,2.54624465712,-0.458636593724,0.0,0.0,0.0,0.134035784298,0.990976492419,0.296136987457,0.05,0.05,0.0,0.0,1.0,1.0,0,0,,,0
1449617632030607250,298,0,/odom,ucmd_vector,0,0,0,2.55486667494,-0.459184035028,0.0,0.0,0.0,0.136125871517,0.99069154993,0.296136987457,0.05,0.05,0.0,0.0,1.0,1.0,0,0,,,0
1449617632096901645,299,0,/odom,ucmd_vector,0,0,0,2.56348242602,-0.45982256197,0.0,0.0,0.0,0.130889157238,0.991397008528,0.296136987457,0.05,0.05,0.0,0.0,1.0,1.0,0,0,,,0
1449617632125270368,300,0,/odom,ucmd_vector,0,0,0,2.56922626007,-0.460248246598,0.0,0.0,0.0,0.130889157238,0.991397008528,0.296136987457,0.05,0.05,0.0,0.0,1.0,1.0,0,0,,,0
1449617632152427558,301,0,/odom,ucmd_vector,0,0,0,2.58071392817,-0.461099615855,0.0,0.0,0.0,0.134035784298,0.990976492419,0.296136987457,0.05,0.05,0.0,0.0,1.0,1.0,0,0,,,0
1449617632186255866,302,0,/odom,ucmd_vector,0,0,0,2.59220159628,-0.461950985111,0.0,0.0,0.0,0.134035784298,0.990976492419,0.296136987457,0.05,0.05,0.0,0.0,1.0,1.0,0,0,,,0
1449617632223892008,303,0,/odom,ucmd_vector,0,0,0,2.6008236141,-0.462498426415,0.0,0.0,0.0,0.139270232642,0.990254412916,0.296136987457,0.05,0.05,0.0,0.0,1.0,1.0,0,0,,,0
1449617632281064843,304,0,/odom,ucmd_vector,0,0,0,2.6008236141,-0.462498426415,0.0,0.0,0.0,0.107768693482,0.994175994834,0.251438577423,0.05,0.05,0.0,0.0,1.0,1.0,0,0,,,0
1449617632314481114,305,0,/odom,ucmd_vector,0,0,0,2.61518737705,-0.463501914227,0.0,0.0,0.0,0.102513963275,0.994731565466,0.251438577423,0.05,0.05,0.0,0.0,1.0,1.0,0,0,,,0
1449617632337072114,306,0,/odom,ucmd_vector,0,0,0,2.62093121111,-0.463927598855,0.0,0.0,0.0,0.134035784298,0.990976492419,0.301724288712,0.05,0.05,0.0,0.0,1.0,1.0,0,0,,,0
1449617632399108817,307,0,/odom,ucmd_vector,0,0,0,2.62093121111,-0.463927598855,0.0,0.0,0.0,0.134035784298,0.990976492419,0.301724288712,0.05,0.05,0.0,0.0,1.0,1.0,0,0,,,0
1449617632436182955,308,0,/odom,ucmd_vector,0,0,0,2.63816271326,-0.465204652739,0.0,0.0,0.0,0.134035784298,0.990976492419,0.301724288712,0.05,0.05,0.0,0.0,1.0,1.0,0,0,,,0
1449617632483611981,309,0,/odom,ucmd_vector,0,0,0,2.64390654731,-0.465630337367,0.0,0.0,0.0,0.130889157238,0.991397008528,0.296136987457,0.05,0.05,0.0,0.0,1.0,1.0,0,0,,,0
1449617632503669092,310,0,/odom,ucmd_vector,0,0,0,2.64965038136,-0.466056021996,0.0,0.0,0.0,0.130889157238,0.991397008528,0.296136987457,0.05,0.05,0.0,0.0,1.0,1.0,0,0,,,0
1449617632551557813,311,0,/odom,ucmd_vector,0,0,0,2.64965038136,-0.466056021996,0.0,0.0,0.0,0.105671319196,0.994401112378,0.251438577423,0.05,0.05,0.0,0.0,1.0,1.0,0,0,,,0
1449617632563065717,312,0,/odom,ucmd_vector,0,0,0,2.66113804947,-0.466907391252,0.0,0.0,0.0,0.105671319196,0.994401112378,0.251438577423,0.05,0.05,0.0,0.0,1.0,1.0,0,0,,,0
1449617632627174952,313,0,/odom,ucmd_vector,0,0,0,2.66113804947,-0.466907391252,0.0,0.0,0.0,0.105671319196,0.994401112378,0.251438577423,0.05,0.05,0.0,0.0,1.0,1.0,0,0,,,0
1449617632654463944,314,0,/odom,ucmd_vector,0,0,0,2.66976006729,-0.467454832556,0.0,0.0,0.0,0.136125871517,0.99069154993,0.296136987457,0.05,0.05,0.0,0.0,1.0,1.0,0,0,,,0
1449617632717519641,315,0,/odom,ucmd_vector,0,0,0,2.67837581837,-0.468093359498,0.0,0.0,0.0,0.130889157238,0.991397008528,0.296136987457,0.05,0.05,0.0,0.0,1.0,1.0,0,0,,,0
1449617632744945139,316,0,/odom,ucmd_vector,0,0,0,2.68986557538,-0.468914366875,0.0,0.0,0.0,0.134035784298,0.990976492419,0.301724288712,0.05,0.05,0.0,0.0,1.0,1.0,0,0,,,0
1449617632785616828,317,0,/odom,ucmd_vector,0,0,0,2.68986557538,-0.468914366875,0.0,0.0,0.0,0.134035784298,0.990976492419,0.301724288712,0.05,0.05,0.0,0.0,1.0,1.0,0,0,,,0
1449617632810433438,318,0,/odom,ucmd_vector,0,0,0,2.69273958132,-0.46909684731,0.0,0.0,0.0,0.139270232642,0.990254412916,0.301724288712,0.05,0.05,0.0,0.0,1.0,1.0,0,0,,,0
1449617632852688657,319,0,/odom,ucmd_vector,0,0,0,2.69561149835,-0.469309689624,0.0,0.0,0.0,-0.0306341701942,0.99953066367,0.167629048119,0.05,0.05,0.0,0.0,1.0,1.0,0,0,,,0
1449617632878045227,320,0,/odom,ucmd_vector,0,0,0,2.70423351617,-0.469857130928,0.0,0.0,0.0,-0.0253522227495,0.999678580746,0.167629048119,0.05,0.05,0.0,0.0,1.0,1.0,0,0,,,0
1449617632933876118,321,0,/odom,ucmd_vector,0,0,0,2.7071054332,-0.470069973242,0.0,0.0,0.0,-0.0306341701942,0.99953066367,0.167629048119,0.05,0.05,0.0,0.0,1.0,1.0,0,0,,,0
1449617632960022869,322,0,/odom,ucmd_vector,0,0,0,2.71284926725,-0.47049565787,0.0,0.0,0.0,-0.0338071238985,0.99942837581,0.00559730190992,0.05,0.05,0.0,0.0,1.0,1.0,0,0,,,0
1449617632995611066,323,0,/odom,ucmd_vector,0,0,0,2.71572327319,-0.470678138305,0.0,0.0,0.0,-0.028525672647,0.9995930602,0.00559730190992,0.05,0.05,0.0,0.0,1.0,1.0,0,0,,,0
1449617633051678713,324,0,/odom,ucmd_vector,0,0,0,2.72147128507,-0.471043099174,0.0,0.0,0.0,-0.0316988350601,0.999497465658,0.00559730190992,0.05,0.05,0.0,0.0,1.0,1.0,0,0,,,0
1449617633077249816,325,0,/odom,ucmd_vector,0,0,0,2.72721929695,-0.471408060044,0.0,0.0,0.0,-0.0316988350601,0.999497465658,0.00559730190992,0.05,0.05,0.0,0.0,1.0,1.0,0,0,,,0
1449617633123069684,326,0,/odom,ucmd_vector,0,0,0,2.73009121397,-0.471620902358,0.0,0.0,0.0,-0.0369797368913,0.999316015612,0.00559730190992,0.05,0.05,0.0,0.0,1.0,1.0,0,0,,,0
1449617636475344261,327,0,/odom,ucmd_vector,0,0,0,2.77605233096,-0.474874569986,0.0,0.0,0.0,-0.0306341701942,0.99953066367,1e-05,0.05,0.05,0.0,0.0,1.0,1.0,0,0,,,0
1449617636515622487,328,0,/odom,ucmd_vector,0,0,0,2.77317832502,-0.474692089551,0.0,0.0,0.0,-0.0253522227495,0.999678580746,1e-05,0.05,0.05,0.0,0.0,1.0,1.0,0,0,,,0
1449617636566494825,329,0,/odom,ucmd_vector,0,0,0,2.77317832502,-0.474692089551,0.0,0.0,0.0,0.164371933964,0.986398432341,1e-05,0.05,0.05,0.0,0.0,1.0,1.0,0,0,,,0
1449617636610827244,330,0,/odom,ucmd_vector,0,0,0,2.77317832502,-0.474692089551,0.0,0.0,0.0,0.164371933964,0.986398432341,1e-05,0.05,0.05,0.0,0.0,1.0,1.0,0,0,,,0
1449617636646808328,331,0,/odom,ucmd_vector,0,0,0,2.77317832502,-0.474692089551,0.0,0.0,0.0,0.164371933964,0.986398432341,1e-05,0.05,0.05,0.0,0.0,1.0,1.0,0,0,,,0
1449617636693356090,332,0,/odom,ucmd_vector,0,0,0,2.77317832502,-0.474692089551,0.0,0.0,0.0,0.164371933964,0.986398432341,1e-05,0.05,0.05,0.0,0.0,1.0,1.0,0,0,,,0
1449617636721459787,333,0,/odom,ucmd_vector,0,0,0,2.77317832502,-0.474692089551,0.0,0.0,0.0,0.164371933964,0.986398432341,1e-05,0.05,0.05,0.0,0.0,1.0,1.0,0,0,,,0
1449617636780168867,334,0,/odom,ucmd_vector,0,0,0,2.77317832502,-0.474692089551,0.0,0.0,0.0,0.0729927915333,0.997332468329,1e-05,0.05,0.05,0.0,0.0,1.0,1.0,0,0,,,0
1449617636807905387,335,0,/odom,ucmd_vector,0,0,0,2.77317832502,-0.474692089551,0.0,0.0,0.0,0.0729927915333,0.997332468329,1e-05,0.05,0.05,0.0,0.0,1.0,1.0,0,0,,,0
1449617636842303037,336,0,/odom,ucmd_vector,0,0,0,2.77317832502,-0.474692089551,0.0,0.0,0.0,0.0127399540756,0.999918843492,1e-05,0.05,0.05,0.0,0.0,1.0,1.0,0,0,,,0
1449617636882552569,337,0,/odom,ucmd_vector,0,0,0,2.77317832502,-0.474692089551,0.0,0.0,0.0,0.0127399540756,0.999918843492,1e-05,0.05,0.05,0.0,0.0,1.0,1.0,0,0,,,0
1449617636943492527,338,0,/odom,ucmd_vector,0,0,0,2.77317832502,-0.474692089551,0.0,0.0,0.0,0.0127399540756,0.999918843492,1e-05,0.05,0.05,0.0,0.0,1.0,1.0,0,0,,,0
1449617636958439884,339,0,/odom,ucmd_vector,0,0,0,2.77317832502,-0.474692089551,0.0,0.0,0.0,-0.028525672647,0.9995930602,0.346422698746,0.05,0.05,0.0,0.0,1.0,1.0,0,0,,,0
1449617637022465800,340,0,/odom,ucmd_vector,0,0,0,2.77317832502,-0.474692089551,0.0,0.0,0.0,-0.028525672647,0.9995930602,0.346422698746,0.05,0.05,0.0,0.0,1.0,1.0,0,0,,,0
1449617637039987668,341,0,/odom,ucmd_vector,0,0,0,2.77317832502,-0.474692089551,0.0,0.0,0.0,-0.028525672647,0.9995930602,0.346422698746,0.05,0.05,0.0,0.0,1.0,1.0,0,0,,,0
1449617637112654707,342,0,/odom,ucmd_vector,0,0,0,2.77317832502,-0.474692089551,0.0,0.0,0.0,-0.028525672647,0.9995930602,0.346422698746,0.05,0.05,0.0,0.0,1.0,1.0,0,0,,,0
1449617637122634631,343,0,/odom,ucmd_vector,0,0,0,2.77317832502,-0.474692089551,0.0,0.0,0.0,-0.028525672647,0.9995930602,0.346422698746,0.05,0.05,0.0,0.0,1.0,1.0,0,0,,,0
1449617637169186414,344,0,/odom,ucmd_vector,0,0,0,2.77317832502,-0.474692089551,0.0,0.0,0.0,-0.0253522227495,0.999678580746,0.340835397491,0.05,0.05,0.0,0.0,1.0,1.0,0,0,,,0
1449617637200120580,345,0,/odom,ucmd_vector,0,0,0,2.77317832502,-0.474692089551,0.0,0.0,0.0,-0.0253522227495,0.999678580746,0.340835397491,0.05,0.05,0.0,0.0,1.0,1.0,0,0,,,0
1449617637249636729,346,0,/odom,ucmd_vector,0,0,0,2.77317832502,-0.474692089551,0.0,0.0,0.0,-0.0253522227495,0.999678580746,0.346422698746,0.05,0.05,0.0,0.0,1.0,1.0,0,0,,,0
1449617637278774257,347,0,/odom,ucmd_vector,0,0,0,2.77317832502,-0.474692089551,0.0,0.0,0.0,-0.0253522227495,0.999678580746,0.346422698746,0.05,0.05,0.0,0.0,1.0,1.0,0,0,,,0
1449617637319577602,348,0,/odom,ucmd_vector,0,0,0,2.77317832502,-0.474692089551,0.0,0.0,0.0,-0.0253522227495,0.999678580746,0.346422698746,0.05,0.05,0.0,0.0,1.0,1.0,0,0,,,0
1449617637366436116,349,0,/odom,ucmd_vector,0,0,0,2.77317832502,-0.474692089551,0.0,0.0,0.0,-0.0253522227495,0.999678580746,0.346422698746,0.05,0.05,0.0,0.0,1.0,1.0,0,0,,,0
1449617637397987313,350,0,/odom,ucmd_vector,0,0,0,2.77317832502,-0.474692089551,0.0,0.0,0.0,-0.0253522227495,0.999678580746,0.346422698746,0.05,0.05,0.0,0.0,1.0,1.0,0,0,,,0
1449617637441723322,351,0,/odom,ucmd_vector,0,0,0,2.77317832502,-0.474692089551,0.0,0.0,0.0,-0.028525672647,0.9995930602,0.346422698746,0.05,0.05,0.0,0.0,1.0,1.0,0,0,,,0
1449617637480072956,352,0,/odom,ucmd_vector,0,0,0,2.77317832502,-0.474692089551,0.0,0.0,0.0,-0.028525672647,0.9995930602,0.346422698746,0.05,0.05,0.0,0.0,1.0,1.0,0,0,,,0
1449617637517476888,353,0,/odom,ucmd_vector,0,0,0,2.77317832502,-0.474692089551,0.0,0.0,0.0,-0.028525672647,0.9995930602,0.346422698746,0.05,0.05,0.0,0.0,1.0,1.0,0,0,,,0
