%time,field.x,field.y,field.z
1449617594919018411,6.0,6.0,0.0
1449617594952316995,6.0,6.0,0.0
1449617594985758474,6.0,6.0,0.0
1449617595019058541,6.0,6.0,0.0
1449617595052318070,6.0,6.0,0.0
1449617595085649788,6.0,6.0,0.0
1449617595119009122,6.0,6.0,0.0
1449617595152385816,6.0,6.0,0.0
1449617595185641435,6.0,6.0,0.0
1449617595219030671,6.0,6.0,0.0
1449617595252345372,6.0,6.0,0.0
1449617595285653090,6.0,6.0,0.0
1449617595319026208,6.0,6.0,0.0
1449617595352356966,6.0,6.0,0.0
1449617595385682203,6.0,6.0,0.0
1449617595419029844,6.0,6.0,0.0
1449617595452347001,6.0,6.0,0.0
1449617595485670590,6.0,6.0,0.0
1449617595518983248,6.0,6.0,0.0
1449617595552341748,6.0,6.0,0.0
1449617595585706524,6.0,6.0,0.0
1449617595618961077,6.0,6.0,0.0
1449617595652363166,6.0,6.0,0.0
1449617595685696063,6.0,6.0,0.0
1449617595719121997,6.0,6.0,0.0
1449617595752354422,6.0,6.0,0.0
1449617595785800481,6.0,6.0,0.0
1449617595819098137,6.0,6.0,0.0
1449617595852358590,6.0,6.0,0.0
1449617595885638414,6.0,6.0,0.0
1449617595919042591,6.0,6.0,0.0
1449617595952298064,6.0,6.0,0.0
1449617595985677470,6.0,6.0,0.0
1449617596019035766,6.0,6.0,0.0
1449617596052277897,6.0,6.0,0.0
1449617596085742353,6.0,6.0,0.0
1449617596119048111,6.0,6.0,0.0
1449617596152312360,6.0,6.0,0.0
1449617596185700856,6.0,6.0,0.0
1449617596219070702,6.0,6.0,0.0
1449617596252365066,6.0,6.0,0.0
1449617596285734166,6.0,6.0,0.0
1449617596319054580,6.0,6.0,0.0
1449617596352372343,6.0,6.0,0.0
1449617596385718650,6.0,6.0,0.0
1449617596419057016,6.0,6.0,0.0
1449617596452378988,6.0,6.0,0.0
1449617596485731759,6.0,6.0,0.0
1449617596519056329,6.0,6.0,0.0
1449617596552304567,6.0,6.0,0.0
1449617596585692073,6.0,6.0,0.0
1449617596619053457,6.0,6.0,0.0
1449617596652340455,6.0,6.0,0.0
1449617596685714340,6.0,6.0,0.0
1449617596719115741,6.0,6.0,0.0
1449617596752288052,6.0,6.0,0.0
1449617596785755143,6.0,6.0,0.0
1449617596819002529,6.0,6.0,0.0
1449617596852313068,6.0,6.0,0.0
1449617596885691684,6.0,6.0,0.0
1449617596919035730,6.0,6.0,0.0
1449617596952360165,6.0,6.0,0.0
1449617596985734943,6.0,6.0,0.0
1449617597019056654,6.0,6.0,0.0
1449617597052332646,6.0,6.0,0.0
1449617597085662387,6.0,6.0,0.0
1449617597119065761,6.0,6.0,0.0
1449617597152498811,6.0,6.0,0.0
1449617597185946312,6.0,6.0,0.0
1449617597218998046,6.0,6.0,0.0
1449617597252276479,6.0,6.0,0.0
1449617597285691805,6.0,6.0,0.0
1449617597319105968,6.0,6.0,0.0
1449617597352306686,6.0,6.0,0.0
1449617597385675458,6.0,6.0,0.0
1449617597419151103,6.0,6.0,0.0
1449617597452278184,6.0,6.0,0.0
1449617597485628672,6.0,6.0,0.0
1449617597519062205,6.0,6.0,0.0
1449617597552290480,6.0,6.0,0.0
1449617597585633513,6.0,6.0,0.0
1449617597618997411,6.0,6.0,0.0
1449617597652274678,6.0,6.0,0.0
1449617597685725887,6.0,6.0,0.0
1449617597719011008,6.0,6.0,0.0
1449617597752284757,6.0,6.0,0.0
1449617597785697381,6.0,6.0,0.0
1449617597819035226,6.0,6.0,0.0
1449617597852310983,6.0,6.0,0.0
1449617597885785200,6.0,6.0,0.0
1449617597919041190,6.0,6.0,0.0
1449617597952338626,6.0,6.0,0.0
1449617597985626064,6.0,6.0,0.0
1449617598018983321,6.0,6.0,0.0
1449617598052329403,6.0,6.0,0.0
1449617598085641213,6.0,6.0,0.0
1449617598118999077,6.0,6.0,0.0
1449617598152404460,6.0,6.0,0.0
1449617598185600938,6.0,6.0,0.0
1449617598219074263,6.0,6.0,0.0
1449617598252327804,6.0,6.0,0.0
1449617598285676608,6.0,6.0,0.0
1449617598319032876,6.0,6.0,0.0
1449617598352365520,6.0,6.0,0.0
1449617598385638186,6.0,6.0,0.0
1449617598419236852,6.0,6.0,0.0
1449617598452316706,6.0,6.0,0.0
1449617598485812017,6.0,6.0,0.0
1449617598519035636,6.0,6.0,0.0
1449617598552319170,6.0,6.0,0.0
1449617598586188201,6.0,6.0,0.0
1449617598619323044,6.0,6.0,0.0
1449617598652996481,6.0,6.0,0.0
1449617598686287407,6.0,6.0,0.0
1449617598719306230,6.0,6.0,0.0
1449617598752974657,6.0,6.0,0.0
1449617598786276340,6.0,6.0,0.0
1449617598819698825,6.0,6.0,0.0
1449617598852418581,6.0,6.0,0.0
1449617598885752418,6.0,6.0,0.0
1449617598919290730,6.0,6.0,0.0
1449617598952589847,6.0,6.0,0.0
1449617598985954686,6.0,6.0,0.0
1449617599019507659,6.0,6.0,0.0
1449617599052391760,6.0,6.0,0.0
1449617599086060931,6.0,6.0,0.0
1449617599119048827,6.0,6.0,0.0
1449617599152652251,6.0,6.0,0.0
1449617599185855034,6.0,6.0,0.0
1449617599219115675,6.0,6.0,0.0
1449617599252441891,6.0,6.0,0.0
1449617599286249449,6.0,6.0,0.0
1449617599319220326,6.0,6.0,0.0
1449617599353354116,6.0,6.0,0.0
1449617599386268963,6.0,6.0,0.0
1449617599420285763,6.0,6.0,0.0
1449617599452718505,6.0,6.0,0.0
1449617599486142371,6.0,6.0,0.0
1449617599520036330,6.0,6.0,0.0
1449617599552785140,6.0,6.0,0.0
1449617599585901803,6.0,6.0,0.0
1449617599619484065,6.0,6.0,0.0
1449617599652738175,6.0,6.0,0.0
1449617599685971719,6.0,6.0,0.0
1449617599719308270,6.0,6.0,0.0
1449617599752652541,6.0,6.0,0.0
1449617599786596376,6.0,6.0,0.0
1449617599819199394,6.0,6.0,0.0
1449617599853064038,6.0,6.0,0.0
1449617599885878362,6.0,6.0,0.0
1449617599919595370,6.0,6.0,0.0
1449617599953095073,6.0,6.0,0.0
1449617599986491524,6.0,6.0,0.0
1449617600020310438,6.0,6.0,0.0
1449617600052904983,6.0,6.0,0.0
1449617600086165955,6.0,6.0,0.0
1449617600119678049,6.0,6.0,0.0
1449617600153144904,6.0,6.0,0.0
1449617600186309632,6.0,6.0,0.0
1449617600220266925,6.0,6.0,0.0
1449617600253643919,6.0,6.0,0.0
1449617600286212668,6.0,6.0,0.0
1449617600320299812,6.0,6.0,0.0
1449617600352412648,6.0,6.0,0.0
1449617600386096119,6.0,6.0,0.0
1449617600419024528,6.0,6.0,0.0
1449617600452625081,6.0,6.0,0.0
1449617600486094613,6.0,6.0,0.0
1449617600519444467,6.0,6.0,0.0
1449617600552795308,6.0,6.0,0.0
1449617600586426088,6.0,6.0,0.0
1449617600619587008,6.0,6.0,0.0
1449617600652727744,6.0,6.0,0.0
1449617600685973980,6.0,6.0,0.0
1449617600719319534,6.0,6.0,0.0
1449617600752603298,6.0,6.0,0.0
1449617600786019293,6.0,6.0,0.0
1449617600819469109,6.0,6.0,0.0
1449617600853779317,6.0,6.0,0.0
1449617600886119567,6.0,6.0,0.0
1449617600920573178,6.0,6.0,0.0
1449617600952832143,6.0,6.0,0.0
1449617600985960326,6.0,6.0,0.0
1449617601019354738,6.0,6.0,0.0
1449617601052561213,6.0,6.0,0.0
1449617601086068536,6.0,6.0,0.0
1449617601125800440,6.0,6.0,0.0
1449617601152586771,6.0,6.0,0.0
1449617601186855385,6.0,6.0,0.0
1449617601220660894,6.0,6.0,0.0
1449617601253381862,6.0,6.0,0.0
1449617601286376355,6.0,6.0,0.0
1449617601320127968,6.0,6.0,0.0
1449617601353340544,6.0,6.0,0.0
1449617601386331353,6.0,6.0,0.0
1449617601419235248,6.0,6.0,0.0
1449617601452678200,6.0,6.0,0.0
1449617601486405633,6.0,6.0,0.0
1449617601519401428,6.0,6.0,0.0
1449617601552508985,6.0,6.0,0.0
1449617601585856345,6.0,6.0,0.0
1449617601619097726,6.0,6.0,0.0
1449617601652945117,6.0,6.0,0.0
1449617601686245365,6.0,6.0,0.0
1449617601719681293,6.0,6.0,0.0
1449617601752705201,6.0,6.0,0.0
1449617601786705158,6.0,6.0,0.0
1449617601819324729,6.0,6.0,0.0
1449617601852629492,6.0,6.0,0.0
1449617601886059487,6.0,6.0,0.0
1449617601920278459,6.0,6.0,0.0
1449617601952725329,6.0,6.0,0.0
1449617601985753294,6.0,6.0,0.0
1449617602019681427,6.0,6.0,0.0
1449617602052711129,6.0,6.0,0.0
1449617602085769324,6.0,6.0,0.0
1449617602119755461,6.0,6.0,0.0
1449617602152861280,6.0,6.0,0.0
1449617602185813709,6.0,6.0,0.0
1449617602220263365,6.0,6.0,0.0
1449617602254676125,6.0,6.0,0.0
1449617602286183112,6.0,6.0,0.0
1449617602319030462,6.0,6.0,0.0
1449617602352540801,6.0,6.0,0.0
1449617602386049581,6.0,6.0,0.0
1449617602420021206,6.0,6.0,0.0
1449617602452438321,6.0,6.0,0.0
1449617602486055439,6.0,6.0,0.0
1449617602519527709,6.0,6.0,0.0
1449617602552523549,6.0,6.0,0.0
1449617602585982604,6.0,6.0,0.0
1449617602619753226,6.0,6.0,0.0
1449617602652470423,6.0,6.0,0.0
1449617602685853561,6.0,6.0,0.0
1449617602720069094,6.0,6.0,0.0
1449617602752488012,6.0,6.0,0.0
1449617602786217113,6.0,6.0,0.0
1449617602819350608,6.0,6.0,0.0
1449617602852554172,6.0,6.0,0.0
1449617602887153859,6.0,6.0,0.0
1449617602921042253,6.0,6.0,0.0
1449617602952614012,6.0,6.0,0.0
1449617602986129623,6.0,6.0,0.0
1449617603019009210,6.0,6.0,0.0
1449617603053749650,6.0,6.0,0.0
1449617603086148982,6.0,6.0,0.0
1449617603119035351,6.0,6.0,0.0
1449617603152845953,6.0,6.0,0.0
1449617603186137995,6.0,6.0,0.0
1449617603219328744,6.0,6.0,0.0
1449617603252885910,6.0,6.0,0.0
1449617603285968385,6.0,6.0,0.0
1449617603319222335,6.0,6.0,0.0
1449617603352709589,6.0,6.0,0.0
1449617603386276220,6.0,6.0,0.0
1449617603419513478,6.0,6.0,0.0
1449617603452840543,6.0,6.0,0.0
1449617603486123988,6.0,6.0,0.0
1449617603519349816,6.0,6.0,0.0
1449617603552610895,6.0,6.0,0.0
1449617603586011865,6.0,6.0,0.0
1449617603619367037,6.0,6.0,0.0
1449617603652695344,6.0,6.0,0.0
1449617603686881446,6.0,6.0,0.0
1449617603719148912,6.0,6.0,0.0
1449617603752523680,6.0,6.0,0.0
1449617603785812657,6.0,6.0,0.0
1449617603821435352,6.0,6.0,0.0
1449617603852640321,6.0,6.0,0.0
1449617603886122342,6.0,6.0,0.0
1449617603919444539,6.0,6.0,0.0
1449617603953774827,6.0,6.0,0.0
1449617603985821126,6.0,6.0,0.0
1449617604019951812,6.0,6.0,0.0
1449617604052673046,6.0,6.0,0.0
1449617604086310057,6.0,6.0,0.0
1449617604119513216,6.0,6.0,0.0
1449617604153507387,6.0,6.0,0.0
1449617604186451550,6.0,6.0,0.0
1449617604219347580,6.0,6.0,0.0
1449617604252844392,6.0,6.0,0.0
1449617604286187366,6.0,6.0,0.0
1449617604319705876,6.0,6.0,0.0
1449617604352721196,6.0,6.0,0.0
1449617604387126180,6.0,6.0,0.0
1449617604419370467,6.0,6.0,0.0
1449617604452996852,6.0,6.0,0.0
1449617604486154732,6.0,6.0,0.0
1449617604520030418,6.0,6.0,0.0
1449617604552594028,6.0,6.0,0.0
1449617604585965281,6.0,6.0,0.0
1449617604619044026,6.0,6.0,0.0
1449617604653381974,6.0,6.0,0.0
1449617604685884623,6.0,6.0,0.0
1449617604719281006,6.0,6.0,0.0
1449617604752878506,6.0,6.0,0.0
1449617604785855150,6.0,6.0,0.0
1449617604820939721,6.0,6.0,0.0
1449617604853408677,6.0,6.0,0.0
1449617604886065760,6.0,6.0,0.0
1449617604919750037,6.0,6.0,0.0
1449617604952853306,6.0,6.0,0.0
1449617604985858528,6.0,6.0,0.0
1449617605021120142,6.0,6.0,0.0
1449617605053046824,6.0,6.0,0.0
1449617605086022201,6.0,6.0,0.0
1449617605119681968,6.0,6.0,0.0
1449617605152979445,6.0,6.0,0.0
1449617605185883068,6.0,6.0,0.0
1449617605219130623,6.0,6.0,0.0
1449617605252924952,6.0,6.0,0.0
1449617605287015854,6.0,6.0,0.0
1449617605319350119,6.0,6.0,0.0
1449617605352633223,6.0,6.0,0.0
1449617605386133073,6.0,6.0,0.0
1449617605419287982,6.0,6.0,0.0
1449617605453363890,6.0,6.0,0.0
1449617605486006589,6.0,6.0,0.0
1449617605519635872,6.0,6.0,0.0
1449617605553446572,6.0,6.0,0.0
1449617605586003495,6.0,6.0,0.0
1449617605620765907,6.0,6.0,0.0
1449617605652814891,6.0,6.0,0.0
1449617605686080860,6.0,6.0,0.0
1449617605719256076,6.0,6.0,0.0
1449617605752994896,6.0,6.0,0.0
1449617605785730935,6.0,6.0,0.0
1449617605819619587,6.0,6.0,0.0
1449617605852945779,6.0,6.0,0.0
1449617605888866329,6.0,6.0,0.0
1449617605919749947,6.0,6.0,0.0
1449617605953583481,6.0,6.0,0.0
1449617605986320138,6.0,6.0,0.0
1449617606019079211,6.0,6.0,0.0
1449617606052474552,6.0,6.0,0.0
1449617606087950819,6.0,6.0,0.0
1449617606120014986,6.0,6.0,0.0
1449617606152918570,6.0,6.0,0.0
1449617606186253551,6.0,6.0,0.0
1449617606219269459,6.0,6.0,0.0
1449617606253699904,6.0,6.0,0.0
1449617606286763226,6.0,6.0,0.0
1449617606319018852,6.0,6.0,0.0
1449617606352919242,6.0,6.0,0.0
1449617606386067377,6.0,6.0,0.0
1449617606420948111,6.0,6.0,0.0
1449617606453658694,6.0,6.0,0.0
1449617606486902322,6.0,6.0,0.0
1449617606519639920,6.0,6.0,0.0
1449617606552553381,6.0,6.0,0.0
1449617606586189550,6.0,6.0,0.0
1449617606619474716,6.0,6.0,0.0
1449617606652526303,6.0,6.0,0.0
1449617606687141190,6.0,6.0,0.0
1449617606719149941,6.0,6.0,0.0
1449617606752887396,6.0,6.0,0.0
1449617606786555507,6.0,6.0,0.0
1449617606819533226,6.0,6.0,0.0
1449617606852549487,6.0,6.0,0.0
1449617606886186499,6.0,6.0,0.0
1449617606919702870,6.0,6.0,0.0
1449617606952550184,6.0,6.0,0.0
1449617606986093790,6.0,6.0,0.0
1449617607019228614,6.0,6.0,0.0
1449617607053013342,6.0,6.0,0.0
1449617607086101321,6.0,6.0,0.0
1449617607119369630,6.0,6.0,0.0
1449617607152475068,6.0,6.0,0.0
1449617607185811140,6.0,6.0,0.0
1449617607219678424,6.0,6.0,0.0
1449617607253127068,6.0,6.0,0.0
1449617607286694664,6.0,6.0,0.0
1449617607319301024,6.0,6.0,0.0
1449617607352860019,6.0,6.0,0.0
1449617607385826595,6.0,6.0,0.0
1449617607419108370,6.0,6.0,0.0
1449617607453445737,6.0,6.0,0.0
1449617607485907582,6.0,6.0,0.0
1449617607519164537,6.0,6.0,0.0
1449617607552603903,6.0,6.0,0.0
1449617607586451825,6.0,6.0,0.0
1449617607619584291,6.0,6.0,0.0
1449617607652773038,6.0,6.0,0.0
1449617607686604490,6.0,6.0,0.0
1449617607719165138,6.0,6.0,0.0
1449617607752601009,6.0,6.0,0.0
1449617607786372841,6.0,6.0,0.0
1449617607819879678,6.0,6.0,0.0
1449617607852834152,6.0,6.0,0.0
1449617607886237893,6.0,6.0,0.0
1449617607919609089,6.0,6.0,0.0
1449617607952469298,6.0,6.0,0.0
1449617607986057694,6.0,6.0,0.0
1449617608019095479,6.0,6.0,0.0
1449617608052586692,6.0,6.0,0.0
1449617608086452764,6.0,6.0,0.0
1449617608119256715,6.0,6.0,0.0
1449617608152880866,6.0,6.0,0.0
1449617608186188799,6.0,6.0,0.0
1449617608219179301,6.0,6.0,0.0
1449617608252496479,6.0,6.0,0.0
1449617608286135714,6.0,6.0,0.0
1449617608319356898,6.0,6.0,0.0
1449617608352770821,6.0,6.0,0.0
1449617608386092171,6.0,6.0,0.0
1449617608419109667,6.0,6.0,0.0
1449617608452532856,6.0,6.0,0.0
1449617608485833623,6.0,6.0,0.0
1449617608519171850,6.0,6.0,0.0
1449617608553135878,6.0,6.0,0.0
1449617608586251008,6.0,6.0,0.0
1449617608623292250,6.0,6.0,0.0
1449617608653158059,6.0,6.0,0.0
1449617608686365044,6.0,6.0,0.0
1449617608719492292,6.0,6.0,0.0
1449617608752946754,6.0,6.0,0.0
1449617608785946362,6.0,6.0,0.0
1449617608819069075,6.0,6.0,0.0
1449617608852707693,6.0,6.0,0.0
1449617608886123418,6.0,6.0,0.0
1449617608919348509,6.0,6.0,0.0
1449617608953887416,6.0,6.0,0.0
1449617608986058228,6.0,6.0,0.0
1449617609019017265,6.0,6.0,0.0
1449617609052640079,6.0,6.0,0.0
1449617609086010824,6.0,6.0,0.0
1449617609119022102,6.0,6.0,0.0
1449617609152631444,6.0,6.0,0.0
1449617609185842703,6.0,6.0,0.0
1449617609219165673,6.0,6.0,0.0
1449617609252647119,6.0,6.0,0.0
1449617609286478289,6.0,6.0,0.0
1449617609319147601,6.0,6.0,0.0
1449617609352425277,6.0,6.0,0.0
1449617609385915220,6.0,6.0,0.0
1449617609419101254,6.0,6.0,0.0
1449617609452948559,6.0,6.0,0.0
1449617609486194708,6.0,6.0,0.0
1449617609519308663,6.0,6.0,0.0
1449617609552837922,6.0,6.0,0.0
1449617609585791392,6.0,6.0,0.0
1449617609619417077,6.0,6.0,0.0
1449617609652497567,6.0,6.0,0.0
1449617609686075662,6.0,6.0,0.0
1449617609719536472,6.0,6.0,0.0
1449617609752735016,6.0,6.0,0.0
1449617609786040162,6.0,6.0,0.0
1449617609820252594,6.0,6.0,0.0
1449617609853142742,6.0,6.0,0.0
1449617609885731654,6.0,6.0,0.0
1449617609919107264,6.0,6.0,0.0
1449617609953218813,6.0,6.0,0.0
1449617609985961806,6.0,6.0,0.0
1449617610019542623,6.0,6.0,0.0
1449617610053149868,6.0,6.0,0.0
1449617610086155332,6.0,6.0,0.0
1449617610119602116,6.0,6.0,0.0
1449617610152956776,6.0,6.0,0.0
1449617610186109785,6.0,6.0,0.0
1449617610219084407,6.0,6.0,0.0
1449617610253067022,6.0,6.0,0.0
1449617610286112172,6.0,6.0,0.0
1449617610319510329,6.0,6.0,0.0
1449617610352370554,6.0,6.0,0.0
1449617610385948819,6.0,6.0,0.0
1449617610419497798,6.0,6.0,0.0
1449617610453019923,6.0,6.0,0.0
1449617610485900991,6.0,6.0,0.0
1449617610519529297,6.0,6.0,0.0
1449617610552566783,6.0,6.0,0.0
1449617610585804445,6.0,6.0,0.0
1449617610620098161,6.0,6.0,0.0
1449617610653098600,6.0,6.0,0.0
1449617610686072544,6.0,6.0,0.0
1449617610719152110,6.0,6.0,0.0
1449617610752594567,6.0,6.0,0.0
1449617610785741357,6.0,6.0,0.0
1449617610819644504,6.0,6.0,0.0
1449617610852791202,6.0,6.0,0.0
1449617610886083993,6.0,6.0,0.0
1449617610920275961,6.0,6.0,0.0
1449617610952534040,6.0,6.0,0.0
1449617610985889335,6.0,6.0,0.0
1449617611019244599,6.0,6.0,0.0
1449617611052673677,6.0,6.0,0.0
1449617611086337717,6.0,6.0,0.0
1449617611119341877,6.0,6.0,0.0
1449617611152871072,6.0,6.0,0.0
1449617611185925054,6.0,6.0,0.0
1449617611220818211,6.0,6.0,0.0
1449617611252825920,6.0,6.0,0.0
1449617611286225058,6.0,6.0,0.0
1449617611319661442,6.0,6.0,0.0
1449617611354632170,6.0,6.0,0.0
1449617611386418491,6.0,6.0,0.0
1449617611419667799,6.0,6.0,0.0
1449617611452712290,6.0,6.0,0.0
1449617611486953533,6.0,6.0,0.0
1449617611519340176,6.0,6.0,0.0
1449617611552593894,6.0,6.0,0.0
1449617611585776337,6.0,6.0,0.0
1449617611619895014,6.0,6.0,0.0
1449617611652600253,6.0,6.0,0.0
1449617611686070357,6.0,6.0,0.0
1449617611719806516,6.0,6.0,0.0
1449617611752433298,6.0,6.0,0.0
1449617611788683639,6.0,6.0,0.0
1449617611819187742,6.0,6.0,0.0
1449617611852891619,6.0,6.0,0.0
1449617611886019343,6.0,6.0,0.0
1449617611919162321,6.0,6.0,0.0
1449617611952694003,6.0,6.0,0.0
1449617611985985990,6.0,6.0,0.0
1449617612019253382,6.0,6.0,0.0
1449617612053245928,6.0,6.0,0.0
1449617612086386608,6.0,6.0,0.0
1449617612119322965,6.0,6.0,0.0
1449617612152495987,6.0,6.0,0.0
1449617612185796591,6.0,6.0,0.0
1449617612219562626,6.0,6.0,0.0
1449617612252961545,6.0,6.0,0.0
1449617612285898490,6.0,6.0,0.0
1449617612319251297,6.0,6.0,0.0
1449617612352613496,6.0,6.0,0.0
1449617612385840778,6.0,6.0,0.0
1449617612419099885,6.0,6.0,0.0
1449617612452516150,6.0,6.0,0.0
1449617612485833691,6.0,6.0,0.0
1449617612519446016,6.0,6.0,0.0
1449617612553022392,6.0,6.0,0.0
1449617612586061303,6.0,6.0,0.0
1449617612621127377,6.0,6.0,0.0
1449617612652566541,6.0,6.0,0.0
1449617612687399091,6.0,6.0,0.0
1449617612719833580,6.0,6.0,0.0
1449617612752553581,6.0,6.0,0.0
1449617612790026797,6.0,6.0,0.0
1449617612819139776,6.0,6.0,0.0
1449617612853417718,6.0,6.0,0.0
1449617612887466095,6.0,6.0,0.0
1449617612919342677,6.0,6.0,0.0
1449617612952789613,6.0,6.0,0.0
1449617612986074321,6.0,6.0,0.0
1449617613021754709,6.0,6.0,0.0
1449617613059719129,6.0,6.0,0.0
1449617613086161845,6.0,6.0,0.0
1449617613119433562,6.0,6.0,0.0
1449617613152949130,6.0,6.0,0.0
1449617613185936183,6.0,6.0,0.0
1449617613220872913,6.0,6.0,0.0
1449617613253054339,6.0,6.0,0.0
1449617613285870587,6.0,6.0,0.0
1449617613319322682,6.0,6.0,0.0
1449617613353207161,6.0,6.0,0.0
1449617613386021893,6.0,6.0,0.0
1449617613419522788,6.0,6.0,0.0
1449617613452851335,6.0,6.0,0.0
1449617613488446992,6.0,6.0,0.0
1449617613519188566,6.0,6.0,0.0
1449617613552464930,6.0,6.0,0.0
1449617613589760094,6.0,6.0,0.0
1449617613619210155,6.0,6.0,0.0
1449617613653279720,6.0,6.0,0.0
1449617613686442104,6.0,6.0,0.0
1449617613719855368,6.0,6.0,0.0
1449617613753168208,6.0,6.0,0.0
1449617613786792740,6.0,6.0,0.0
1449617613821968952,6.0,6.0,0.0
1449617613852903459,6.0,6.0,0.0
1449617613885990875,6.0,6.0,0.0
1449617613919266718,6.0,6.0,0.0
1449617613953945662,6.0,6.0,0.0
1449617613990088705,6.0,6.0,0.0
1449617614020372817,6.0,6.0,0.0
1449617614052453318,6.0,6.0,0.0
1449617614087543810,6.0,6.0,0.0
1449617614119254803,6.0,6.0,0.0
1449617614152690646,6.0,6.0,0.0
1449617614185937084,6.0,6.0,0.0
1449617614219701859,6.0,6.0,0.0
1449617614252774232,6.0,6.0,0.0
1449617614286252616,6.0,6.0,0.0
1449617614319062126,6.0,6.0,0.0
1449617614352360875,6.0,6.0,0.0
1449617614386179608,6.0,6.0,0.0
1449617614419443393,6.0,6.0,0.0
1449617614452626204,6.0,6.0,0.0
1449617614486225999,6.0,6.0,0.0
1449617614519085452,6.0,6.0,0.0
1449617614552550278,6.0,6.0,0.0
1449617614586022635,6.0,6.0,0.0
1449617614619461591,6.0,6.0,0.0
1449617614652823049,6.0,6.0,0.0
1449617614686539268,6.0,6.0,0.0
1449617614719407604,6.0,6.0,0.0
1449617614753429334,6.0,6.0,0.0
1449617614785787646,6.0,6.0,0.0
1449617614819310793,6.0,6.0,0.0
1449617614852713061,6.0,6.0,0.0
1449617614886393748,6.0,6.0,0.0
1449617614919353913,6.0,6.0,0.0
1449617614952587429,6.0,6.0,0.0
1449617614986693462,6.0,6.0,0.0
1449617615028195781,6.0,6.0,0.0
1449617615052936363,6.0,6.0,0.0
1449617615087619114,6.0,6.0,0.0
1449617615119147578,6.0,6.0,0.0
1449617615152892432,6.0,6.0,0.0
1449617615185888593,6.0,6.0,0.0
1449617615219243258,6.0,6.0,0.0
1449617615252661044,6.0,6.0,0.0
1449617615286248294,6.0,6.0,0.0
1449617615319631705,6.0,6.0,0.0
1449617615352726396,6.0,6.0,0.0
1449617615385818369,6.0,6.0,0.0
1449617615419504561,6.0,6.0,0.0
1449617615453096677,6.0,6.0,0.0
1449617615485740113,6.0,6.0,0.0
1449617615519697355,6.0,6.0,0.0
1449617615552720784,6.0,6.0,0.0
1449617615586581650,6.0,6.0,0.0
1449617615619734686,6.0,6.0,0.0
1449617615652546867,6.0,6.0,0.0
1449617615686324614,6.0,6.0,0.0
1449617615719476424,6.0,6.0,0.0
1449617615753146814,6.0,6.0,0.0
1449617615785941887,6.0,6.0,0.0
1449617615819298729,6.0,6.0,0.0
1449617615852769811,6.0,6.0,0.0
1449617615886054799,6.0,6.0,0.0
1449617615919446943,6.0,6.0,0.0
1449617615955149448,6.0,6.0,0.0
1449617615986132410,6.0,6.0,0.0
1449617616019383269,6.0,6.0,0.0
1449617616052959271,6.0,6.0,0.0
1449617616086300890,6.0,6.0,0.0
1449617616119506960,6.0,6.0,0.0
1449617616153915067,6.0,6.0,0.0
1449617616186488904,6.0,6.0,0.0
1449617616219111187,6.0,6.0,0.0
1449617616252498294,6.0,6.0,0.0
1449617616286040729,6.0,6.0,0.0
1449617616319158829,6.0,6.0,0.0
1449617616353166213,6.0,6.0,0.0
1449617616385904978,6.0,6.0,0.0
1449617616419160591,6.0,6.0,0.0
1449617616453053197,6.0,6.0,0.0
1449617616486961142,6.0,6.0,0.0
1449617616519409063,6.0,6.0,0.0
1449617616553564057,6.0,6.0,0.0
1449617616585789899,6.0,6.0,0.0
1449617616619092615,6.0,6.0,0.0
1449617616653484919,6.0,6.0,0.0
1449617616685838006,6.0,6.0,0.0
1449617616721606698,6.0,6.0,0.0
1449617616752815339,6.0,6.0,0.0
1449617616785869562,6.0,6.0,0.0
1449617616819478517,6.0,6.0,0.0
1449617616852807429,6.0,6.0,0.0
1449617616885741624,6.0,6.0,0.0
1449617616919561756,6.0,6.0,0.0
1449617616953177103,6.0,6.0,0.0
1449617616986149272,6.0,6.0,0.0
1449617617019064171,6.0,6.0,0.0
1449617617052477021,6.0,6.0,0.0
1449617617085913905,6.0,6.0,0.0
1449617617119390818,6.0,6.0,0.0
1449617617153483210,6.0,6.0,0.0
1449617617185969287,6.0,6.0,0.0
1449617617220964469,6.0,6.0,0.0
1449617617252564770,6.0,6.0,0.0
1449617617286770169,6.0,6.0,0.0
1449617617319298603,6.0,6.0,0.0
1449617617352629336,6.0,6.0,0.0
1449617617386385049,6.0,6.0,0.0
1449617617419228269,6.0,6.0,0.0
1449617617452553462,6.0,6.0,0.0
1449617617486285446,6.0,6.0,0.0
1449617617519456513,6.0,6.0,0.0
1449617617552643425,6.0,6.0,0.0
1449617617586055354,6.0,6.0,0.0
1449617617619085968,6.0,6.0,0.0
1449617617652827966,6.0,6.0,0.0
1449617617685840579,6.0,6.0,0.0
1449617617719053079,6.0,6.0,0.0
1449617617752607805,6.0,6.0,0.0
1449617617786197549,6.0,6.0,0.0
1449617617819221485,6.0,6.0,0.0
1449617617853228928,6.0,6.0,0.0
1449617617885806492,6.0,6.0,0.0
1449617617919136929,6.0,6.0,0.0
1449617617952636345,6.0,6.0,0.0
1449617617985954711,6.0,6.0,0.0
1449617618019389061,6.0,6.0,0.0
1449617618052687921,6.0,6.0,0.0
1449617618085947942,6.0,6.0,0.0
1449617618119311994,6.0,6.0,0.0
1449617618152676015,6.0,6.0,0.0
1449617618185813688,6.0,6.0,0.0
1449617618219573451,6.0,6.0,0.0
1449617618253154309,6.0,6.0,0.0
1449617618286420616,6.0,6.0,0.0
1449617618319736001,6.0,6.0,0.0
1449617618352654606,6.0,6.0,0.0
1449617618385993552,6.0,6.0,0.0
1449617618419285523,6.0,6.0,0.0
1449617618452623394,6.0,6.0,0.0
1449617618485960624,6.0,6.0,0.0
1449617618519969701,6.0,6.0,0.0
1449617618552914529,6.0,6.0,0.0
1449617618585906420,6.0,6.0,0.0
1449617618619464685,6.0,6.0,0.0
1449617618652640698,6.0,6.0,0.0
1449617618685804309,6.0,6.0,0.0
1449617618719111407,6.0,6.0,0.0
1449617618753119649,6.0,6.0,0.0
1449617618786678029,6.0,6.0,0.0
1449617618819718527,6.0,6.0,0.0
1449617618852603864,6.0,6.0,0.0
1449617618885933631,6.0,6.0,0.0
1449617618919616045,6.01773968356,6.0,0.0
1449617618953831381,6.01773968356,6.0,0.0
1449617618985768309,6.03547936713,6.0,0.0
1449617619019015565,6.03547936713,6.0,0.0
1449617619053662558,6.03547936713,6.0,0.0
1449617619086245826,6.03547936713,6.0,0.0
1449617619120485015,6.05321904861,6.0,0.0
1449617619152515003,6.05321904861,6.0,0.0
1449617619186976585,6.10643809722,6.0,0.0
1449617619225902465,6.10643809722,6.0,0.0
1449617619252843216,6.10643809722,6.0,0.0
1449617619285971273,6.09833651131,6.0,0.0
1449617619319930808,6.09833651131,6.0,0.0
1449617619352677669,6.09833651131,6.0,0.0
1449617619385791831,6.09833651131,6.0,0.0
1449617619419971063,6.32451049377,6.0,0.0
1449617619452475997,6.32451049377,6.0,0.0
1449617619486655808,6.32451049377,6.0,0.0
1449617619520353628,6.33434414398,6.0,0.0
1449617619552754848,6.33434414398,6.0,0.0
1449617619585909844,6.33434414398,6.0,0.0
1449617619619488803,6.33434414398,6.0,0.0
1449617619652758375,6.33434414398,6.0,0.0
1449617619687270537,6.0,6.0,0.0
1449617619719429990,6.0,6.0,0.0
1449617619753691661,6.0,6.0,0.0
1449617619786436129,6.0,6.0,0.0
1449617619820763333,6.33434414398,6.0,0.0
1449617619854415902,6.33434414398,6.0,0.0
1449617619886297485,6.33434414398,6.0,0.0
1449617619919684075,6.33434414398,6.0,0.0
1449617619953315983,6.33434414398,6.0,0.0
1449617619985761538,6.33434414398,6.0,0.0
1449617620019590985,6.3048431749,6.0,0.0
1449617620052569630,6.3048431749,6.0,0.0
1449617620085964203,6.33434414398,6.0,0.0
1449617620119319895,6.33434414398,6.0,0.0
1449617620152763260,6.33434414398,6.0,0.0
1449617620185943531,6.33434414398,6.0,0.0
1449617620219617476,6.33434414398,6.0,0.0
1449617620252800229,6.33434414398,6.0,0.0
1449617620287328321,6.29500952469,6.0,0.0
1449617620319160373,6.29500952469,6.0,0.0
1449617620353640463,6.29500952469,6.0,0.0
1449617620386680514,6.29500952469,6.0,0.0
1449617620419954906,6.60968634979,5.98935714224,0.0
1449617620453029324,6.60968634979,5.98935714224,0.0
1449617620486663332,6.60968634979,5.98935714224,0.0
1449617620520097811,6.60968634979,5.98935714224,0.0
1449617620552623802,6.60968634979,5.98935714224,0.0
1449617620585899597,6.60968634979,5.98935714224,0.0
1449617620619571183,6.59985269958,5.97871428449,0.0
1449617620652677219,6.59985269958,5.97871428449,0.0
1449617620686587045,6.22617397324,5.98935714224,0.0
1449617620720162183,6.22617397324,5.98935714224,0.0
1449617620752718976,6.22617397324,5.98935714224,0.0
1449617620786640034,6.22617397324,5.98935714224,0.0
1449617620819448983,6.12783746193,5.98935714224,0.0
1449617620852492963,6.12783746193,5.98935714224,0.0
1449617620889664478,6.22617397324,5.98935714224,0.0
1449617620924437926,6.22617397324,5.98935714224,0.0
1449617620953472527,6.22617397324,5.98935714224,0.0
1449617620986546284,6.22617397324,5.98935714224,0.0
1449617621019216080,6.33434414398,5.98935714224,0.0
1449617621052853896,6.33434414398,5.98935714224,0.0
1449617621085830815,6.33434414398,5.98935714224,0.0
1449617621119259762,6.29500952469,6.0,0.0
1449617621153498148,6.29500952469,6.0,0.0
1449617621187963157,6.29500952469,6.0,0.0
1449617621219583750,6.32451049377,6.0,0.0
1449617621253252630,6.33434414398,6.0,0.0
1449617621286588595,6.33434414398,6.0,0.0
1449617621320073733,6.33434414398,6.0,0.0
1449617621352652743,6.33434414398,6.0,0.0
1449617621386109462,6.33434414398,6.0,0.0
1449617621419739971,6.33434414398,6.0,0.0
1449617621452638619,6.33434414398,6.0,0.0
1449617621489825054,6.60968634979,6.01064285776,0.0
1449617621523467691,6.60968634979,6.01064285776,0.0
1449617621552564876,6.60968634979,6.01064285776,0.0
1449617621586226014,6.60968634979,6.01064285776,0.0
1449617621619885829,6.59985269958,6.01064285776,0.0
1449617621652708044,6.60968634979,6.01064285776,0.0
1449617621687314819,6.60968634979,6.01064285776,0.0
1449617621719471033,6.60968634979,6.01064285776,0.0
1449617621752863161,6.60968634979,6.01064285776,0.0
1449617621785812440,6.60968634979,6.01064285776,0.0
1449617621819320113,6.60968634979,6.01064285776,0.0
1449617621853342678,6.60968634979,6.01064285776,0.0
1449617621885917594,6.60968634979,6.01064285776,0.0
1449617621919809769,6.60968634979,6.01064285776,0.0
1449617621952579020,6.60968634979,6.01064285776,0.0
1449617621987522544,6.60968634979,6.01064285776,0.0
1449617622020733730,6.60968634979,6.01064285776,0.0
1449617622052791726,6.60968634979,6.01064285776,0.0
1449617622087958335,6.60968634979,6.0,0.0
1449617622119494068,6.60968634979,6.0,0.0
1449617622152677852,6.60968634979,6.0,0.0
1449617622185906241,6.60968634979,6.0,0.0
1449617622219317541,6.60968634979,6.01064285776,0.0
1449617622258074810,6.60968634979,6.01064285776,0.0
1449617622287749120,6.60968634979,6.01064285776,0.0
1449617622320063242,6.60968634979,6.01064285776,0.0
1449617622352976375,6.60968634979,6.01064285776,0.0
1449617622387791956,6.60968634979,6.01064285776,0.0
1449617622419360465,6.60968634979,6.01064285776,0.0
1449617622452742475,6.60968634979,6.01064285776,0.0
1449617622488262953,6.61952,6.01064285776,0.0
1449617622519308720,6.61952,6.01064285776,0.0
1449617622553159176,6.61952,6.01064285776,0.0
1449617622585858946,6.61952,6.01064285776,0.0
1449617622619173032,6.60968634979,6.0,0.0
1449617622652817907,6.60968634979,6.0,0.0
1449617622686169747,6.60968634979,6.0,0.0
1449617622721197153,6.60968634979,6.01064285776,0.0
1449617622754230112,6.60968634979,6.01064285776,0.0
1449617622785877912,6.60968634979,6.01064285776,0.0
1449617622819200310,6.60968634979,6.01064285776,0.0
1449617622852531237,6.60968634979,6.0,0.0
1449617622886041838,6.60968634979,6.01064285776,0.0
1449617622919242498,6.60968634979,6.01064285776,0.0
1449617622952896785,6.60968634979,6.01064285776,0.0
1449617622985882645,6.60968634979,6.01064285776,0.0
1449617623019170430,6.60968634979,6.0,0.0
1449617623053840008,6.60968634979,6.0,0.0
1449617623086195076,6.60968634979,6.01064285776,0.0
1449617623119372670,6.60968634979,6.01064285776,0.0
1449617623153527422,6.60968634979,6.01064285776,0.0
1449617623185884590,6.60968634979,6.01064285776,0.0
1449617623219429401,6.60968634979,6.0,0.0
1449617623252854136,6.60968634979,6.0,0.0
1449617623285993337,6.60968634979,6.0,0.0
1449617623319646364,6.54085079834,6.01064285776,0.0
1449617623352739509,6.54085079834,6.01064285776,0.0
1449617623385798545,6.60968634979,6.0,0.0
1449617623419295374,6.60968634979,6.0,0.0
1449617623454823068,6.60968634979,6.0,0.0
1449617623485961072,6.60968634979,6.0,0.0
1449617623519817237,6.54085079834,6.01064285776,0.0
1449617623552807740,6.54085079834,6.01064285776,0.0
1449617623586469360,6.60968634979,6.0,0.0
1449617623619953605,6.60968634979,6.0,0.0
1449617623652492224,6.60968634979,6.0,0.0
1449617623686032152,6.60968634979,6.0,0.0
1449617623719376674,6.55068444855,6.01064285776,0.0
1449617623752509625,6.55068444855,6.01064285776,0.0
1449617623786109123,6.60968634979,6.0,0.0
1449617623821599285,6.60968634979,6.0,0.0
1449617623856151981,6.60968634979,6.0,0.0
1449617623886293003,6.60968634979,6.01064285776,0.0
1449617623919679885,6.60968634979,6.01064285776,0.0
1449617623952907945,6.60968634979,6.01064285776,0.0
1449617623986080037,6.60968634979,6.01064285776,0.0
1449617624019327142,6.60968634979,6.01064285776,0.0
1449617624055330938,6.60968634979,6.0,0.0
1449617624087482161,6.60968634979,6.0,0.0
1449617624119152528,6.60968634979,6.0,0.0
1449617624152567919,6.60968634979,6.0,0.0
1449617624186123481,6.60968634979,6.0,0.0
1449617624220361025,6.60968634979,6.0,0.0
1449617624252785483,6.33434414398,6.0,0.0
1449617624286260938,6.33434414398,6.0,0.0
1449617624319640357,6.60968634979,6.0,0.0
1449617624353001021,6.60968634979,6.0,0.0
1449617624386757115,6.60968634979,6.0,0.0
1449617624420150956,6.60968634979,6.0,0.0
1449617624453091796,6.60968634979,6.0,0.0
1449617624486385235,6.60968634979,6.0,0.0
1449617624519596508,6.60968634979,6.0,0.0
1449617624552600797,6.60968634979,6.0,0.0
1449617624587034466,6.55068444855,6.0,0.0
1449617624619254649,6.55068444855,6.0,0.0
1449617624652751342,6.55068444855,6.0,0.0
1449617624686555544,6.60968634979,6.0,0.0
1449617624719307298,6.60968634979,6.0,0.0
1449617624753557157,6.60968634979,6.0,0.0
1449617624786098977,6.60968634979,6.0,0.0
1449617624820075802,6.60968634979,6.0,0.0
1449617624854239730,6.60968634979,6.0,0.0
1449617624886014497,6.60968634979,6.0,0.0
1449617624919590944,6.60968634979,6.0,0.0
1449617624952678408,6.60968634979,6.0,0.0
1449617624986744319,6.60968634979,6.0,0.0
1449617625019441017,6.60968634979,6.0,0.0
1449617625053237814,6.60968634979,6.0,0.0
1449617625085995259,6.60968634979,6.0,0.0
1449617625119903108,6.60968634979,6.0,0.0
1449617625152522699,6.60968634979,6.0,0.0
1449617625186957160,6.60968634979,6.0,0.0
1449617625219334934,6.60968634979,6.0,0.0
1449617625252917495,6.45726476234,6.0,0.0
1449617625286669015,6.33434414398,6.0,0.0
1449617625320551450,6.45726476234,6.0,0.0
1449617625358738368,6.45726476234,6.0,0.0
1449617625385909312,6.45726476234,6.0,0.0
1449617625420048091,6.45726476234,6.0,0.0
1449617625452759079,6.45726476234,6.0,0.0
1449617625487628060,6.45726476234,6.0,0.0
1449617625519939863,6.45726476234,6.0,0.0
1449617625552932325,6.45726476234,6.0,0.0
1449617625586193495,6.45726476234,6.0,0.0
1449617625621567431,6.45726476234,6.0,0.0
1449617625652599899,6.45726476234,6.0,0.0
1449617625687010751,6.45726476234,6.0,0.0
1449617625719371576,6.45726476234,6.0,0.0
1449617625752383274,6.45726476234,6.0,0.0
1449617625786036856,6.45726476234,6.0,0.0
1449617625819909423,6.45726476234,6.0,0.0
1449617625855426352,6.45726476234,6.0,0.0
1449617625887109218,6.45726476234,6.0,0.0
1449617625919710242,6.3048431749,6.0,0.0
1449617625952652365,6.3048431749,6.0,0.0
1449617625986276007,6.41301333641,6.0,0.0
1449617626019291336,6.3048431749,6.0,0.0
1449617626053022589,6.3048431749,6.0,0.0
1449617626087128826,6.41301333641,6.0,0.0
1449617626119291538,6.41301333641,6.0,0.0
1449617626152615193,6.41301333641,6.0,0.0
1449617626186175291,6.41301333641,6.0,0.0
1449617626219608362,6.3048431749,6.0,0.0
1449617626253022191,6.3048431749,6.0,0.0
1449617626286543598,6.3048431749,6.0,0.0
1449617626320387068,6.3048431749,6.0,0.0
1449617626352625121,6.3048431749,6.0,0.0
1449617626387325859,6.3048431749,6.0,0.0
1449617626422407589,6.3048431749,6.0,0.0
1449617626456160998,6.3048431749,6.0,0.0
1449617626486337782,6.3048431749,6.0,0.0
1449617626519953362,6.3048431749,6.0,0.0
1449617626552834207,6.3048431749,6.0,0.0
1449617626586429869,6.3048431749,6.0,0.0
1449617626619169117,6.3048431749,6.0,0.0
1449617626652546663,6.61952,5.82355263158,0.0
1449617626687169210,6.61952,5.82355263158,0.0
1449617626719951010,6.61952,5.82355263158,0.0
1449617626752528231,6.61952,5.82355263158,0.0
1449617626785827314,6.61952,5.82355263158,0.0
1449617626819609349,6.61952,5.82355263158,0.0
1449617626854742013,6.61952,5.82355263158,0.0
1449617626888580101,6.61952,5.82355263158,0.0
1449617626920260007,6.61952,5.82355263158,0.0
1449617626952495225,6.61952,5.82355263158,0.0
1449617626986961690,6.61952,5.82355263158,0.0
1449617627019841052,6.4512751749,5.83055451066,0.0
1449617627052833139,6.4512751749,5.83055451066,0.0
1449617627086190071,6.4512751749,5.83587593954,0.0
1449617627119383927,6.4512751749,5.83587593954,0.0
1449617627152555326,6.4512751749,5.83587593954,0.0
1449617627185941084,6.4512751749,5.83587593954,0.0
1449617627219796400,6.4512751749,5.83587593954,0.0
1449617627253545727,6.61952,5.82355263158,0.0
1449617627286466308,6.61952,5.82355263158,0.0
1449617627319670207,6.61952,5.82355263158,0.0
1449617627352610422,6.61952,5.82355263158,0.0
1449617627385882333,6.61952,5.82355263158,0.0
1449617627419568559,6.61952,5.82355263158,0.0
1449617627452429565,6.61952,5.82355263158,0.0
1449617627486036907,6.61952,5.82355263158,0.0
1449617627519181922,6.61952,5.82355263158,0.0
1449617627553052572,6.61706158745,5.81206954872,0.0
1449617627585827932,6.59739428703,5.81206954872,0.0
1449617627619888382,6.59739428703,5.81206954872,0.0
1449617627653749774,6.59739428703,5.81206954872,0.0
1449617627686628479,6.61952,5.82355263158,0.0
1449617627724243327,6.61952,5.82355263158,0.0
1449617627752499769,6.61952,5.82355263158,0.0
1449617627785938906,6.61952,5.75297368421,0.0
1449617627819849976,6.61952,5.75297368421,0.0
1449617627856408451,6.61952,5.75297368421,0.0
1449617627886189348,6.60968634979,5.81206954872,0.0
1449617627919453230,6.60968634979,5.81206954872,0.0
1449617627953090685,6.61952,5.82355263158,0.0
1449617627985779684,6.61952,5.82355263158,0.0
1449617628019236602,6.54576762344,5.81473026316,0.0
1449617628052965855,6.54576762344,5.81473026316,0.0
1449617628086342458,6.54576762344,5.81473026316,0.0
1449617628119870196,6.54576762344,5.81473026316,0.0
1449617628153236947,6.61952,5.82355263158,0.0
1449617628186114347,6.61952,5.82355263158,0.0
1449617628221393932,6.61952,5.82355263158,0.0
1449617628252712543,6.61952,5.82355263158,0.0
1449617628292983121,6.54576762344,5.81473026316,0.0
1449617628319507608,6.54576762344,5.81473026316,0.0
1449617628352647631,6.54576762344,5.81473026316,0.0
1449617628385784309,6.61952,5.82355263158,0.0
1449617628419580749,6.61952,5.82355263158,0.0
1449617628452526463,6.61952,5.82355263158,0.0
1449617628488479028,6.61952,5.82355263158,0.0
1449617628519262467,6.61952,5.82355263158,0.0
1449617628555362224,6.61952,5.82355263158,0.0
1449617628586421413,6.61952,5.82355263158,0.0
1449617628620087469,6.61952,5.82355263158,0.0
1449617628653671628,6.61952,5.82355263158,0.0
1449617628686641083,6.61952,5.82355263158,0.0
1449617628719741837,6.61952,5.82355263158,0.0
1449617628753124469,6.61952,5.82355263158,0.0
1449617628787687089,6.61952,5.82355263158,0.0
1449617628821487314,6.548226036,5.86766447368,0.0
1449617628862127746,6.548226036,5.86766447368,0.0
1449617628886861251,6.61952,5.82355263158,0.0
1449617628919198209,6.61952,5.82355263158,0.0
1449617628954667470,6.61952,5.82355263158,0.0
1449617628985929817,6.61952,5.82355263158,0.0
1449617629019499806,6.548226036,5.86766447368,0.0
1449617629052814396,6.548226036,5.86766447368,0.0
1449617629089240038,6.61952,5.89413157895,0.0
1449617629120599045,6.61952,5.89413157895,0.0
1449617629152487075,6.61952,5.89413157895,0.0
1449617629185689122,6.61952,5.82355263158,0.0
1449617629220323204,6.61952,5.89413157895,0.0
1449617629253266299,6.61952,5.89413157895,0.0
1449617629287086017,6.61952,5.89413157895,0.0
1449617629319139778,6.61952,5.89413157895,0.0
1449617629353134321,6.61952,5.89413157895,0.0
1449617629385904025,6.61952,5.89413157895,0.0
1449617629419512014,6.61952,5.89413157895,0.0
1449617629452682758,6.61952,5.89413157895,0.0
1449617629486262173,6.61952,5.89413157895,0.0
1449617629519125131,6.61952,5.89413157895,0.0
1449617629553149351,6.61952,5.89413157895,0.0
1449617629586149572,6.61706158745,5.92059868421,0.0
1449617629619671961,6.61706158745,5.92059868421,0.0
1449617629654112030,6.61706158745,5.92059868421,0.0
1449617629686537507,6.61706158745,5.92059868421,0.0
1449617629721358226,6.61706158745,5.92059868421,0.0
1449617629752475177,6.61706158745,5.92059868421,0.0
1449617629786155925,6.6146031749,5.94706578947,0.0
1449617629819683197,6.61706158745,5.92059868421,0.0
1449617629852820996,6.6146031749,5.94706578947,0.0
1449617629886394722,6.61952,5.96471052632,0.0
1449617629920244209,6.61952,5.96471052632,0.0
1449617629953685821,6.61952,5.96471052632,0.0
1449617629985903468,6.61706158745,5.97353289474,0.0
1449617630019263624,6.61706158745,5.97353289474,0.0
1449617630054014769,6.61706158745,5.97353289474,0.0
1449617630086281719,6.61706158745,5.97353289474,0.0
1449617630120294294,6.59985269958,5.97353289474,0.0
1449617630157714989,6.59985269958,5.97353289474,0.0
1449617630186556870,6.54085079834,6.0,0.0
1449617630219846825,6.60968634979,6.0,0.0
1449617630253189340,6.60968634979,6.0,0.0
1449617630286060979,6.55068444855,6.0,0.0
1449617630319330953,6.55068444855,6.0,0.0
1449617630352481201,6.55068444855,6.0,0.0
1449617630385708145,6.60968634979,6.0,0.0
1449617630419295737,6.60968634979,6.0,0.0
1449617630452423022,6.60968634979,6.0,0.0
1449617630486842118,6.60968634979,6.0,0.0
1449617630519673509,6.60968634979,6.0,0.0
1449617630553051645,6.60968634979,6.0,0.0
1449617630587613486,6.60968634979,6.0,0.0
1449617630621294852,6.60968634979,6.0,0.0
1449617630652431845,6.60968634979,6.0,0.0
1449617630685681352,6.60968634979,6.0,0.0
1449617630719825420,6.60968634979,6.0,0.0
1449617630753108078,6.60968634979,6.0,0.0
1449617630785960438,6.60968634979,6.0,0.0
1449617630819075304,6.60968634979,6.0,0.0
1449617630853240268,6.60968634979,6.0,0.0
1449617630889121971,6.60968634979,6.0,0.0
1449617630919409384,6.60968634979,6.0,0.0
1449617630953119071,6.60968634979,6.0,0.0
1449617630986121358,6.60968634979,5.98935714224,0.0
1449617631019244702,6.60968634979,5.98935714224,0.0
1449617631052861152,6.60968634979,5.98935714224,0.0
1449617631086480255,6.60968634979,5.98935714224,0.0
1449617631124539680,6.60968634979,5.98935714224,0.0
1449617631153080539,6.48001762124,5.88278853241,0.0
1449617631187067514,6.47254266127,5.93572274293,0.0
1449617631219491737,6.47254266127,5.93572274293,0.0
1449617631252527366,6.47008424872,5.93838345706,0.0
1449617631286106332,6.45612435433,5.93838345706,0.0
1449617631321889208,6.45858276688,5.93572274293,0.0
1449617631353220132,6.45858276688,5.93572274293,0.0
1449617631385998106,6.45858276688,5.93572274293,0.0
1449617631420105939,6.45858276688,5.93572274293,0.0
1449617631452855767,6.45241460616,5.93838345706,0.0
1449617631486639118,6.45241460616,5.93838345706,0.0
1449617631519400058,6.61952,5.75297368421,0.0
1449617631552658135,6.61952,5.75297368421,0.0
1449617631585897385,6.61952,5.75297368421,0.0
1449617631620008697,6.61952,5.75297368421,0.0
1449617631654229806,6.61952,5.82355263158,0.0
1449617631686087892,6.61952,5.82355263158,0.0
1449617631719777866,6.61952,5.82355263158,0.0
1449617631752462560,6.61952,5.82355263158,0.0
1449617631785841123,6.61952,5.82355263158,0.0
1449617631819373415,6.61952,5.54123684211,0.0
1449617631854781990,6.47774243764,5.75297368421,0.0
1449617631887545633,6.47774243764,5.75297368421,0.0
1449617631921887196,6.46756863399,5.75297368421,0.0
1449617631952911578,6.46756863399,5.75297368421,0.0
1449617631985888797,6.46756863399,5.75297368421,0.0
1449617632019104127,6.41053591992,5.82355263158,0.0
1449617632052769712,6.40595350261,5.82355263158,0.0
1449617632086802856,6.40595350261,5.82355263158,0.0
1449617632119281997,6.40595350261,5.82355263158,0.0
1449617632152665979,6.39912317143,5.82355263158,0.0
1449617632185957581,6.39344924762,5.82355263158,0.0
1449617632219019600,6.39344924762,5.82355263158,0.0
1449617632253121917,6.39344924762,5.82355263158,0.0
1449617632288057843,6.39344924762,5.82355263158,0.0
1449617632319172284,6.38783827895,5.82355263158,0.0
1449617632352597070,6.37894826143,5.82355263158,0.0
1449617632387016803,6.37894826143,5.82355263158,0.0
1449617632420268891,6.37894826143,5.82355263158,0.0
1449617632452821864,6.37561907935,5.82355263158,0.0
1449617632485783230,6.37561907935,5.82355263158,0.0
1449617632519261893,6.37013187462,5.89413157895,0.0
1449617632552547137,6.37013187462,5.89413157895,0.0
1449617632590199995,6.32552379024,5.89413157895,0.0
1449617632619332812,6.32552379024,5.89413157895,0.0
1449617632652556920,6.32552379024,5.89413157895,0.0
1449617632685950247,6.32230458402,5.89413157895,0.0
1449617632719059451,6.32230458402,5.89413157895,0.0
1449617632752742552,6.31911128896,5.89413157895,0.0
1449617632785766010,6.31911128896,5.89413157895,0.0
1449617632819646879,6.31911128896,5.89413157895,0.0
1449617632852896977,6.34978353499,5.82355263158,0.0
1449617632886091148,6.34978353499,5.82355263158,0.0
1449617632919593235,6.29500952469,5.97871428449,0.0
1449617632953139358,6.29500952469,5.97871428449,0.0
1449617632986634553,6.29500952469,5.97871428449,0.0
1449617633019949415,6.01773968356,5.98935714224,0.0
1449617633052564409,6.01773968356,5.98935714224,0.0
1449617633086382793,6.01773968356,6.0,0.0
1449617633119578282,6.01773968356,6.0,0.0
1449617633152632380,6.01773968356,6.0,0.0
1449617633189337537,6.0,6.0,0.0
1449617633219405362,6.0,6.0,0.0
1449617633253887133,6.0,6.0,0.0
1449617633285875589,6.0,6.0,0.0
1449617633319513658,6.0,6.0,0.0
1449617633352662320,6.0,6.0,0.0
1449617633386870276,6.0,6.0,0.0
1449617633420365084,6.0,6.0,0.0
1449617633452796767,6.0,6.0,0.0
1449617633486486701,6.0,6.0,0.0
1449617633520188184,6.0,6.0,0.0
1449617633552817640,6.0,6.0,0.0
1449617633587883928,6.0,6.0,0.0
1449617633619606779,6.0,6.0,0.0
1449617633653036725,6.0,6.0,0.0
1449617633686631165,6.0,6.0,0.0
1449617633719596899,6.0,6.0,0.0
1449617633753135697,6.0,6.0,0.0
1449617633787238389,6.0,6.0,0.0
1449617633819189007,6.0,6.0,0.0
1449617633853261845,6.0,6.0,0.0
1449617633886291487,6.0,6.0,0.0
1449617633919435269,6.0,6.0,0.0
1449617633952700455,6.0,6.0,0.0
1449617633986051684,6.0,6.0,0.0
1449617634021139780,6.0,6.0,0.0
1449617634052905418,6.0,6.0,0.0
1449617634086853244,6.0,6.0,0.0
1449617634119398546,6.0,6.0,0.0
1449617634152492240,6.0,6.0,0.0
1449617634185699419,6.0,6.0,0.0
1449617634219518287,6.0,6.0,0.0
1449617634252818328,6.0,6.0,0.0
1449617634286286346,6.0,6.0,0.0
1449617634319515858,6.0,6.0,0.0
1449617634353304342,6.0,6.0,0.0
1449617634386203891,6.0,6.0,0.0
1449617634419641772,6.0,6.0,0.0
1449617634452790488,6.0,6.0,0.0
1449617634485915972,6.0,6.0,0.0
1449617634519178030,6.0,6.0,0.0
1449617634552498831,6.0,6.0,0.0
1449617634586482264,6.0,6.0,0.0
1449617634620478674,6.0,6.0,0.0
1449617634652434976,6.0,6.0,0.0
1449617634686222379,6.0,6.0,0.0
1449617634719112780,6.0,6.0,0.0
1449617634752503662,6.0,6.0,0.0
1449617634785809204,6.0,6.0,0.0
1449617634820863896,6.0,6.0,0.0
1449617634852379358,6.0,6.0,0.0
1449617634885783178,6.0,6.0,0.0
1449617634919068615,6.0,6.0,0.0
1449617634952437689,6.0,6.0,0.0
1449617634985741740,6.0,6.0,0.0
1449617635019096419,6.0,6.0,0.0
1449617635052462003,6.0,6.0,0.0
1449617635085709839,6.0,6.0,0.0
1449617635119083486,6.0,6.0,0.0
1449617635152300477,6.0,6.0,0.0
1449617635185919833,6.0,6.0,0.0
1449617635219075405,6.0,6.0,0.0
1449617635252470025,6.0,6.0,0.0
1449617635285741458,6.0,6.0,0.0
1449617635319150426,6.0,6.0,0.0
1449617635352348694,6.0,6.0,0.0
1449617635386946408,6.0,6.0,0.0
1449617635419021734,6.0,6.0,0.0
1449617635452359416,6.0,6.0,0.0
1449617635485803171,6.0,6.0,0.0
1449617635519027942,6.0,6.0,0.0
1449617635552382986,6.0,6.0,0.0
1449617635585736449,6.0,6.0,0.0
1449617635619002897,6.0,6.0,0.0
1449617635652338725,6.0,6.0,0.0
1449617635685726868,6.0,6.0,0.0
1449617635719135016,6.0,6.0,0.0
1449617635752480307,6.0,6.0,0.0
1449617635785834606,6.0,6.0,0.0
1449617635819025343,6.0,6.0,0.0
1449617635852520874,6.0,6.0,0.0
1449617635885693775,6.0,6.0,0.0
1449617635919247191,6.0,6.0,0.0
1449617635952410469,6.0,6.0,0.0
1449617635985855108,6.0,6.0,0.0
1449617636019021565,6.0,6.0,0.0
1449617636052346422,6.0,6.0,0.0
1449617636085781915,6.0,6.0,0.0
1449617636118986804,6.0,6.0,0.0
1449617636152365567,6.0,6.0,0.0
1449617636185669366,6.0,6.0,0.0
1449617636219044838,6.0,6.0,0.0
1449617636252401389,6.0,6.0,0.0
1449617636285753403,6.0,6.0,0.0
1449617636319090653,6.0,6.0,0.0
1449617636353679803,6.0,6.0,0.0
1449617636385870516,6.0,6.0,0.0
1449617636419478074,6.0,6.0,0.0
1449617636452509391,6.0,6.0,0.0
1449617636486087577,6.0,6.0,0.0
1449617636519029022,6.0,5.97871428449,0.0
1449617636552967996,6.0,5.97871428449,0.0
1449617636586093108,6.0,5.97871428449,0.0
1449617636619244953,6.0,6.0,0.0
1449617636652434175,6.0,6.0,0.0
1449617636685761035,6.0,6.0,0.0
1449617636719010408,6.0,6.0,0.0
1449617636753681544,6.0,6.0,0.0
1449617636785845670,6.0,6.0,0.0
1449617636821162440,6.0,5.91219642381,0.0
1449617636852333204,6.0,5.91219642381,0.0
1449617636885797316,6.0,5.88824999917,0.0
1449617636922316083,6.0,5.88824999917,0.0
1449617636953579212,6.0,5.88824999917,0.0
1449617636986330034,6.0,5.88824999917,0.0
1449617637020739202,6.60968634979,5.98935714224,0.0
1449617637053247042,6.60968634979,5.98935714224,0.0
1449617637089762435,6.60968634979,5.98935714224,0.0
1449617637119040487,6.60968634979,5.98935714224,0.0
1449617637159464928,6.60968634979,5.98935714224,0.0
1449617637187802939,6.60968634979,5.98935714224,0.0
1449617637219902927,6.59985269958,5.97871428449,0.0
1449617637252732512,6.59985269958,5.97871428449,0.0
1449617637286216971,6.60968634979,5.97871428449,0.0
1449617637319494049,6.60968634979,5.97871428449,0.0
1449617637352757068,6.60968634979,5.97871428449,0.0
1449617637386771212,6.60968634979,5.97871428449,0.0
1449617637419533858,6.60968634979,5.97871428449,0.0
1449617637452488305,6.60968634979,5.97871428449,0.0
1449617637486670762,6.60968634979,5.98935714224,0.0
1449617637519968381,6.60968634979,5.98935714224,0.0
1449617637552531771,6.60968634979,5.98935714224,0.0
1449617637586149759,6.60968634979,5.98935714224,0.0
1449617637620405528,6.60968634979,5.98935714224,0.0
1449617637652447344,6.60968634979,5.98935714224,0.0
1449617637686013582,6.60968634979,5.98935714224,0.0
1449617637719162159,6.60968634979,5.98935714224,0.0
1449617637752552668,6.60968634979,5.98935714224,0.0
1449617637786203083,6.60968634979,5.98935714224,0.0
1449617637819280470,6.60968634979,5.98935714224,0.0
1449617637852546236,6.60968634979,5.98935714224,0.0
1449617637885819099,6.60968634979,5.98935714224,0.0
1449617637919625343,6.60968634979,5.98935714224,0.0
1449617637952578979,6.60968634979,5.98935714224,0.0
1449617637996483554,6.60968634979,5.98935714224,0.0
1449617638019681597,6.60968634979,5.98935714224,0.0
1449617638052522201,6.60968634979,5.98935714224,0.0
1449617638085932579,6.60968634979,5.97871428449,0.0
1449617638119087336,6.60968634979,5.97871428449,0.0
1449617638152586448,6.60968634979,5.97871428449,0.0
1449617638185862867,6.60968634979,5.97871428449,0.0
1449617638219237718,6.60968634979,5.97871428449,0.0
1449617638252743421,6.60968634979,5.97871428449,0.0
1449617638285969436,6.61952,5.98935714224,0.0
1449617638319896209,6.61952,5.98935714224,0.0
1449617638352826908,6.61952,5.98935714224,0.0
1449617638386193484,6.61952,5.98935714224,0.0
1449617638419734166,6.60968634979,5.98935714224,0.0
1449617638452403177,6.60968634979,5.98935714224,0.0
1449617638485793709,6.53101714813,5.98935714224,0.0
1449617638519545040,6.53101714813,5.98935714224,0.0
1449617638553763183,6.53101714813,5.98935714224,0.0
1449617638586830875,6.53101714813,5.98935714224,0.0
1449617638619748711,6.59985269958,5.97871428449,0.0
1449617638653469644,6.59985269958,5.97871428449,0.0
1449617638686497726,6.52118349792,5.97871428449,0.0
1449617638719306827,6.52118349792,5.97871428449,0.0
1449617638752575188,6.52118349792,5.97871428449,0.0
1449617638786438841,6.52118349792,5.97871428449,0.0
1449617638822000020,6.60968634979,5.98935714224,0.0
1449617638852521892,6.60968634979,5.98935714224,0.0
1449617638886569779,6.53101714813,5.98935714224,0.0
1449617638920047243,6.53101714813,5.98935714224,0.0
1449617638953114477,6.53101714813,5.98935714224,0.0
1449617638987415171,6.53101714813,5.98935714224,0.0
1449617639019960913,6.59985269958,5.97871428449,0.0
1449617639053634495,6.59985269958,5.97871428449,0.0
1449617639086331277,6.60968634979,5.98935714224,0.0
1449617639119165649,6.60968634979,5.98935714224,0.0
1449617639153307574,6.60968634979,5.98935714224,0.0
1449617639187181385,6.60968634979,5.98935714224,0.0
1449617639220233230,6.60968634979,5.97871428449,0.0
1449617639254098857,6.60968634979,5.97871428449,0.0
1449617639287181010,6.60968634979,5.97871428449,0.0
1449617639324384138,6.60968634979,5.97871428449,0.0
1449617639352853266,6.60968634979,5.97871428449,0.0
1449617639386402057,6.60968634979,5.97871428449,0.0
1449617639419568113,6.60968634979,5.97871428449,0.0
1449617639452727841,6.60968634979,5.97871428449,0.0
1449617639485960492,6.60968634979,5.97871428449,0.0
1449617639519134832,6.60968634979,5.98935714224,0.0
1449617639552724136,6.60968634979,5.98935714224,0.0
1449617639585894142,6.60968634979,5.98935714224,0.0
1449617639622280809,6.60968634979,5.98935714224,0.0
1449617639653129936,6.60968634979,5.98935714224,0.0
1449617639685883476,6.60968634979,5.96807142798,0.0
1449617639719100317,6.60968634979,5.96807142798,0.0
1449617639752861165,6.60968634979,5.96807142798,0.0
1449617639786018357,6.60968634979,5.96807142798,0.0
1449617639822386252,6.60968634979,5.95742856897,0.0
1449617639852709008,6.60968634979,5.95742856897,0.0
1449617639886473930,6.60968634979,5.95742856897,0.0
1449617639919189686,6.2112,5.68239473684,0.0
1449617639954713318,6.2112,5.68239473684,0.0
1449617639987110853,6.2112,5.68239473684,0.0
1449617640019120802,6.2112,5.54123684211,0.0
1449617640052712245,6.2112,5.54123684211,0.0
1449617640089777382,6.2112,5.54123684211,0.0
1449617640119476939,6.2112,5.47065789474,0.0
1449617640152591644,6.26550857407,6.0126033806,0.0
1449617640185867265,6.26550857407,6.0126033806,0.0
1449617640220759722,6.26550857407,6.04789285429,0.0
1449617640253215372,6.26550857407,6.04789285429,0.0
1449617640289424390,6.26550857407,6.04789285429,0.0
1449617640320008682,6.36613967372,5.61181578947,0.0
1449617640352552350,6.35327355229,5.61181578947,0.0
1449617640386159954,6.35327355229,5.61181578947,0.0
1449617640419335185,6.35327355229,5.61181578947,0.0
1449617640458807822,6.35006474336,5.61181578947,0.0
1449617640492349987,6.34365676337,5.54123684211,0.0
1449617640519892626,6.34365676337,5.54123684211,0.0
1449617640553015834,6.32768071838,5.54123684211,0.0
1449617640586114875,6.52118349792,5.43592856508,0.0
1449617640623052272,6.52118349792,5.43592856508,0.0
1449617640652546209,6.52118349792,5.43592856508,0.0
1449617640685937939,6.53101714813,5.42528570858,0.0
1449617640719440762,6.53101714813,5.42528570858,0.0
1449617640752495495,6.53101714813,5.42528570858,0.0
1449617640786773211,6.53101714813,5.42528570858,0.0
1449617640819469034,6.50151619751,5.44657142159,0.0
1449617640858202112,6.50151619751,5.44657142159,0.0
1449617640887299236,6.53101714813,5.42528570858,0.0
1449617640919561131,6.53101714813,5.42528570858,0.0
1449617640952957784,6.53101714813,5.42528570858,0.0
1449617640985823334,6.53101714813,5.42528570858,0.0
1449617641019481477,6.52118349792,5.43592856508,0.0
1449617641055891382,6.52118349792,5.43592856508,0.0
1449617641088290447,6.52118349792,5.43592856508,0.0
1449617641121883734,6.48184889709,5.47849999112,0.0
1449617641152824157,6.52118349792,5.42528570858,0.0
1449617641186016251,6.52118349792,5.42528570858,0.0
1449617641219354513,6.52118349792,5.42528570858,0.0
1449617641252537937,6.52118349792,5.42528570858,0.0
1449617641286927347,6.53101714813,5.43592856508,0.0
1449617641326106382,6.53101714813,5.43592856508,0.0
1449617641354297005,6.53101714813,5.43592856508,0.0
1449617641386190279,6.53101714813,5.43592856508,0.0
1449617641419231856,6.4916825473,5.46785713461,0.0
1449617641455957093,6.4916825473,5.46785713461,0.0
1449617641487330247,6.53101714813,5.43592856508,0.0
1449617641519473384,6.53101714813,5.43592856508,0.0
1449617641554964442,6.53101714813,5.43592856508,0.0
1449617641586673894,6.53101714813,5.43592856508,0.0
1449617641620737259,6.52118349792,5.42528570858,0.0
1449617641653884485,6.52118349792,5.42528570858,0.0
1449617641690076210,6.51134984772,5.44657142159,0.0
1449617641720268599,6.51134984772,5.44657142159,0.0
1449617641753579452,6.51134984772,5.44657142159,0.0
1449617641786299586,6.51134984772,5.44657142159,0.0
1449617641819891173,6.52118349792,5.42528570858,0.0
1449617641852673086,6.44368762344,5.41898401827,0.0
1449617641888066781,6.44368762344,5.42696616066,0.0
1449617641919726381,6.44368762344,5.42696616066,0.0
1449617641953732073,6.44368762344,5.4446108975,0.0
1449617641987126985,6.44368762344,5.4446108975,0.0
1449617642019702117,6.44368762344,5.4446108975,0.0
1449617642053382575,6.52118349792,5.42528570858,0.0
1449617642086821650,6.59985269958,5.94678571246,0.0
1449617642119713524,6.59985269958,5.94678571246,0.0
1449617642152920882,6.59985269958,5.94678571246,0.0
1449617642186485466,6.59985269958,5.94678571246,0.0
1449617642219670458,6.59985269958,5.97871428449,0.0
1449617642253997736,6.59985269958,5.97871428449,0.0
1449617642286374461,6.59985269958,5.97871428449,0.0
1449617642319727780,6.59985269958,5.97871428449,0.0
1449617642352762851,6.61952,5.98935714224,0.0
1449617642385849507,6.61952,5.98935714224,0.0
1449617642419525510,6.61952,5.98935714224,0.0
1449617642452736498,6.61952,5.98935714224,0.0
1449617642486342033,6.60968634979,5.98935714224,0.0
1449617642523967521,6.60968634979,5.98935714224,0.0
1449617642553959289,6.60968634979,5.98935714224,0.0
1449617642586024846,6.60968634979,5.98935714224,0.0
1449617642619528657,6.60968634979,5.98935714224,0.0
1449617642652476253,6.60968634979,5.98935714224,0.0
1449617642685881250,6.60968634979,5.98935714224,0.0
1449617642719029051,6.60968634979,5.98935714224,0.0
1449617642752919223,6.60968634979,5.98935714224,0.0
1449617642786618624,6.60968634979,5.98935714224,0.0
1449617642819442086,6.60968634979,6.0,0.0
1449617642853319111,6.60968634979,6.0,0.0
1449617642886241451,6.60968634979,6.0,0.0
1449617642919830574,6.60968634979,6.0,0.0
1449617642952739914,6.60968634979,6.0,0.0
1449617642986016079,6.60968634979,6.0,0.0
1449617643019603039,6.55068444855,6.0,0.0
1449617643053240895,6.55068444855,6.0,0.0
1449617643086470161,6.60968634979,6.0,0.0
1449617643119889289,6.60968634979,6.0,0.0
1449617643152512725,6.60968634979,6.0,0.0
1449617643186261874,6.60968634979,6.0,0.0
1449617643219942262,6.60968634979,6.0,0.0
1449617643252521127,6.60968634979,6.0,0.0
1449617643285718953,6.60968634979,6.0,0.0
1449617643319450392,6.60968634979,6.0,0.0
1449617643352984481,6.60968634979,6.0,0.0
1449617643386127357,6.60968634979,6.0,0.0
1449617643419308049,6.60968634979,6.0,0.0
1449617643452606470,6.60968634979,6.0,0.0
1449617643485859393,6.60968634979,6.0,0.0
1449617643519322227,6.60968634979,6.0,0.0
1449617643552861958,6.60968634979,6.0,0.0
1449617643585877938,6.60968634979,6.0,0.0
1449617643619347114,6.60968634979,6.0,0.0
1449617643652503894,6.60968634979,6.0,0.0
1449617643685914880,6.60968634979,6.0,0.0
1449617643719021696,6.60968634979,6.0,0.0
1449617643752525287,6.60968634979,6.0,0.0
1449617643788639620,6.60968634979,6.0,0.0
1449617643819600392,6.60968634979,5.98935714224,0.0
1449617643852628752,6.60968634979,5.98935714224,0.0
1449617643885972874,6.60968634979,5.98935714224,0.0
1449617643919146752,6.60968634979,5.98935714224,0.0
1449617643952671888,6.60968634979,5.98935714224,0.0
1449617643986032521,6.60968634979,5.98935714224,0.0
1449617644019266445,6.60968634979,5.98935714224,0.0
1449617644052501166,6.60968634979,5.98935714224,0.0
1449617644086416250,6.60968634979,5.98935714224,0.0
1449617644119281404,6.60968634979,5.98935714224,0.0
1449617644152372143,6.60968634979,5.98935714224,0.0
1449617644186162554,6.60968634979,5.98935714224,0.0
1449617644219155786,6.60968634979,5.98935714224,0.0
1449617644252501468,6.60968634979,5.98935714224,0.0
1449617644286144052,6.60968634979,5.98935714224,0.0
1449617644319743825,6.60968634979,5.98935714224,0.0
1449617644352991680,6.60968634979,5.98935714224,0.0
1449617644386780798,6.60968634979,5.98935714224,0.0
1449617644419324375,6.60968634979,5.98935714224,0.0
1449617644452911160,6.60968634979,5.98935714224,0.0
1449617644485953201,6.60968634979,5.98935714224,0.0
1449617644519266184,6.60968634979,5.98935714224,0.0
1449617644552546343,6.60968634979,5.98935714224,0.0
1449617644585730466,6.60968634979,5.98935714224,0.0
1449617644619227498,6.60968634979,5.98935714224,0.0
1449617644652390578,6.60968634979,5.98935714224,0.0
1449617644686058155,6.60968634979,5.98935714224,0.0
1449617644719198072,6.60968634979,5.98935714224,0.0
1449617644752761111,6.60968634979,5.98935714224,0.0
1449617644785812698,6.60968634979,5.98935714224,0.0
1449617644819547024,6.59985269958,5.98935714224,0.0
1449617644852411831,6.59985269958,5.98935714224,0.0
1449617644885836004,6.60968634979,5.98935714224,0.0
1449617644920249236,6.60968634979,5.98935714224,0.0
1449617644953327700,6.60968634979,5.98935714224,0.0
1449617644985918896,6.60968634979,5.98935714224,0.0
1449617645019326532,6.60968634979,5.98935714224,0.0
1449617645053156307,6.60968634979,5.98935714224,0.0
1449617645086095079,6.54085079834,6.0,0.0
1449617645119091955,6.54085079834,6.0,0.0
1449617645152450223,6.54085079834,6.0,0.0
1449617645186192257,6.54085079834,6.0,0.0
1449617645219141773,6.60968634979,5.98935714224,0.0
1449617645252544861,6.45726476234,5.99201785668,0.0
1449617645288230772,6.53101714813,5.98935714224,0.0
1449617645319261938,6.53101714813,5.98935714224,0.0
1449617645353771126,6.53101714813,5.98935714224,0.0
1449617645385819962,6.53101714813,5.98935714224,0.0
1449617645419516539,6.45726476234,5.99201785668,0.0
1449617645454652638,6.45726476234,5.99201785668,0.0
1449617645485995664,6.48184889709,5.48914284763,0.0
1449617645521455002,6.48184889709,5.48914284763,0.0
1449617645553534791,6.48184889709,5.48914284763,0.0
1449617645586362282,6.48184889709,5.48914284763,0.0
1449617645620544877,6.53101714813,5.42528570858,0.0
1449617645652873890,6.53101714813,5.42528570858,0.0
1449617645685799274,6.52118349792,5.42528570858,0.0
1449617645719073120,6.52118349792,5.42528570858,0.0
1449617645752654037,6.52118349792,5.42528570858,0.0
1449617645786001768,6.52118349792,5.42528570858,0.0
