%time,field.header.seq,field.header.stamp,field.header.frame_id,field.ns,field.id,field.type,field.action,field.pose.position.x,field.pose.position.y,field.pose.position.z,field.pose.orientation.x,field.pose.orientation.y,field.pose.orientation.z,field.pose.orientation.w,field.scale.x,field.scale.y,field.scale.z,field.color.r,field.color.g,field.color.b,field.color.a,field.lifetime,field.frame_locked,field.text,field.mesh_resource,field.mesh_use_embedded_materials
1449616886343351431,0,0,/odom,fullacmd_vector,0,0,0,0.0,0.0,0.0,0.0,0.0,0.0,1.0,0.1,0.0,0.0,0.0,1.0,1.0,0.0,0,0,,,0
1449616886383453204,1,0,/odom,fullacmd_vector,0,0,0,0.0,0.0,0.0,0.0,0.0,0.0,1.0,0.1,0.0,0.0,0.0,1.0,1.0,0.0,0,0,,,0
1449616886424022587,2,0,/odom,fullacmd_vector,0,0,0,0.0,0.0,0.0,0.0,0.0,0.0,1.0,0.1,0.0,0.0,0.0,1.0,1.0,0.0,0,0,,,0
1449616886474926566,3,0,/odom,fullacmd_vector,0,0,0,0.0,0.0,0.0,0.0,0.0,0.0,1.0,0.1,0.0,0.0,0.0,1.0,1.0,0.0,0,0,,,0
1449616886503831275,4,0,/odom,fullacmd_vector,0,0,0,0.0,0.0,0.0,0.0,0.0,0.0,1.0,0.1,0.0,0.0,0.0,1.0,1.0,0.0,0,0,,,0
1449616886544809798,5,0,/odom,fullacmd_vector,0,0,0,0.0,0.0,0.0,0.0,0.0,-0.136415426176,0.990651720587,0.452,0.0,0.0,0.0,1.0,1.0,0.0,0,0,,,0
1449616886583518612,6,0,/odom,fullacmd_vector,0,0,0,0.0,0.0,0.0,0.0,0.0,-0.136415426176,0.990651720587,0.452,0.0,0.0,0.0,1.0,1.0,0.0,0,0,,,0
1449616886623982579,7,0,/odom,fullacmd_vector,0,0,0,0.0,0.0,0.0,0.0,0.0,-0.136415426176,0.990651720587,0.452,0.0,0.0,0.0,1.0,1.0,0.0,0,0,,,0
1449616886664669497,8,0,/odom,fullacmd_vector,0,0,0,0.0,0.0,0.0,0.0,0.0,-0.136415426176,0.990651720587,0.452,0.0,0.0,0.0,1.0,1.0,0.0,0,0,,,0
1449616886703035560,9,0,/odom,fullacmd_vector,0,0,0,0.0,0.0,0.0,0.0,0.0,-0.136415426176,0.990651720587,0.452,0.0,0.0,0.0,1.0,1.0,0.0,0,0,,,0
1449616886742959153,10,0,/odom,fullacmd_vector,0,0,0,0.0,0.0,0.0,0.0,0.0,-0.136415426176,0.990651720587,0.452,0.0,0.0,0.0,1.0,1.0,0.0,0,0,,,0
1449616886783639561,11,0,/odom,fullacmd_vector,0,0,0,0.0,0.0,0.0,0.0,0.0,-0.136415426176,0.990651720587,0.452,0.0,0.0,0.0,1.0,1.0,0.0,0,0,,,0
1449616886823660900,12,0,/odom,fullacmd_vector,0,0,0,0.0,0.0,0.0,0.0,0.0,-0.136415426176,0.990651720587,0.452,0.0,0.0,0.0,1.0,1.0,0.0,0,0,,,0
1449616886864526169,13,0,/odom,fullacmd_vector,0,0,0,0.0,0.0,0.0,0.0,0.0,-0.136415426176,0.990651720587,0.452,0.0,0.0,0.0,1.0,1.0,0.0,0,0,,,0
1449616886903241340,14,0,/odom,fullacmd_vector,0,0,0,0.0,0.0,0.0,0.0,0.0,-0.136415426176,0.990651720587,0.452,0.0,0.0,0.0,1.0,1.0,0.0,0,0,,,0
1449616886945184653,15,0,/odom,fullacmd_vector,0,0,0,0.0,0.0,0.0,0.0,0.0,-0.136415426176,0.990651720587,0.452,0.0,0.0,0.0,1.0,1.0,0.0,0,0,,,0
1449616886983727677,16,0,/odom,fullacmd_vector,0,0,0,0.0,0.0,0.0,0.0,0.0,-0.136415426176,0.990651720587,0.452,0.0,0.0,0.0,1.0,1.0,0.0,0,0,,,0
1449616887022975620,17,0,/odom,fullacmd_vector,0,0,0,0.0,0.0,0.0,0.0,0.0,-0.136415426176,0.990651720587,0.452,0.0,0.0,0.0,1.0,1.0,0.0,0,0,,,0
1449616887066260113,18,0,/odom,fullacmd_vector,0,0,0,0.0,0.0,0.0,0.0,0.0,-0.136415426176,0.990651720587,0.452,0.0,0.0,0.0,1.0,1.0,0.0,0,0,,,0
1449616887104075302,19,0,/odom,fullacmd_vector,0,0,0,0.0,0.0,0.0,0.0,0.0,-0.136415426176,0.990651720587,0.452,0.0,0.0,0.0,1.0,1.0,0.0,0,0,,,0
1449616887143432334,20,0,/odom,fullacmd_vector,0,0,0,0.0,0.0,0.0,0.0,0.0,-0.136415426176,0.990651720587,0.452,0.0,0.0,0.0,1.0,1.0,0.0,0,0,,,0
1449616887190148998,21,0,/odom,fullacmd_vector,0,0,0,0.0,0.0,0.0,0.0,0.0,-0.136415426176,0.990651720587,0.452,0.0,0.0,0.0,1.0,1.0,0.0,0,0,,,0
1449616887224101638,22,0,/odom,fullacmd_vector,0,0,0,0.0,0.0,0.0,0.0,0.0,-0.136415426176,0.990651720587,0.452,0.0,0.0,0.0,1.0,1.0,0.0,0,0,,,0
1449616887266176589,23,0,/odom,fullacmd_vector,0,0,0,0.0,0.0,0.0,0.0,0.0,-0.136415426176,0.990651720587,0.452,0.0,0.0,0.0,1.0,1.0,0.0,0,0,,,0
1449616887318715410,24,0,/odom,fullacmd_vector,0,0,0,0.00287963245437,-3.04332289367e-05,0.0,0.0,0.0,-0.141648125205,0.98991707159,0.452,0.0,0.0,0.0,1.0,1.0,0.0,0,0,,,0
1449616887343499411,25,0,/odom,fullacmd_vector,0,0,0,0.00287963245437,-3.04332289367e-05,0.0,0.0,0.0,-0.141648125205,0.98991707159,0.452,0.0,0.0,0.0,1.0,1.0,0.0,0,0,,,0
1449616887383194360,26,0,/odom,fullacmd_vector,0,0,0,0.00287963245437,-3.04332289367e-05,0.0,0.0,0.0,-0.141648125205,0.98991707159,0.452,0.0,0.0,0.0,1.0,1.0,0.0,0,0,,,0
1449616887423828773,27,0,/odom,fullacmd_vector,0,0,0,0.00863889736311,-9.129968681e-05,0.0,0.0,0.0,-0.141648125205,0.98991707159,0.452,0.0,0.0,0.0,1.0,1.0,0.0,0,0,,,0
1449616887463760747,28,0,/odom,fullacmd_vector,0,0,0,0.00863889736311,-9.129968681e-05,0.0,0.0,0.0,-0.141648125205,0.98991707159,0.452,0.0,0.0,0.0,1.0,1.0,0.0,0,0,,,0
1449616887503116510,29,0,/odom,fullacmd_vector,0,0,0,0.0115180474012,-0.000152162745821,0.0,0.0,0.0,-0.146876869298,0.98915478327,0.452,0.0,0.0,0.0,1.0,1.0,0.0,0,0,,,0
1449616887543573376,30,0,/odom,fullacmd_vector,0,0,0,0.0143976798556,-0.000182595974757,0.0,0.0,0.0,-0.141648125205,0.98991707159,0.452,0.0,0.0,0.0,1.0,1.0,0.0,0,0,,,0
1449616887584120177,31,0,/odom,fullacmd_vector,0,0,0,0.0172768298936,-0.000243459033768,0.0,0.0,0.0,-0.146876869298,0.98915478327,0.452,0.0,0.0,0.0,1.0,1.0,0.0,0,0,,,0
1449616887624307194,32,0,/odom,fullacmd_vector,0,0,0,0.0230351299698,-0.00036518515179,0.0,0.0,0.0,-0.146876869298,0.98915478327,0.452,0.0,0.0,0.0,1.0,1.0,0.0,0,0,,,0
1449616887665079144,33,0,/odom,fullacmd_vector,0,0,0,0.0230351299698,-0.00036518515179,0.0,0.0,0.0,-0.146876869298,0.98915478327,0.452,0.0,0.0,0.0,1.0,1.0,0.0,0,0,,,0
1449616887703016037,34,0,/odom,fullacmd_vector,0,0,0,0.0287934300459,-0.000486911269811,0.0,0.0,0.0,-0.146876869298,0.98915478327,0.452,0.0,0.0,0.0,1.0,1.0,0.0,0,0,,,0
1449616887758641396,35,0,/odom,acmd_vector,0,0,0,0.0345517301221,-0.000608637387833,0.0,0.0,0.0,-0.146876869298,0.98915478327,0.35201,0.05,0.05,1.0,0.0,0.0,1.0,0,0,,,0
1449616887788421874,36,0,/odom,acmd_vector,0,0,0,0.0403092262309,-0.000760786538583,0.0,0.0,0.0,-0.146876869298,0.98915478327,0.35201,0.05,0.05,1.0,0.0,0.0,1.0,0,0,,,0
1449616887832077893,37,0,/odom,acmd_vector,0,0,0,0.0403092262309,-0.000760786538583,0.0,0.0,0.0,-0.146876869298,0.98915478327,0.35201,0.05,0.05,1.0,0.0,0.0,1.0,0,0,,,0
1449616887892723038,38,0,/odom,acmd_vector,0,0,0,0.0547009565848,-0.00121721699728,0.0,0.0,0.0,-0.152101512463,0.988364876908,0.35201,0.05,0.05,1.0,0.0,0.0,1.0,0,0,,,0
1449616887912658219,39,0,/odom,acmd_vector,0,0,0,0.0604576487264,-0.00139978918076,0.0,0.0,0.0,-0.152101512463,0.988364876908,0.35201,0.05,0.05,1.0,0.0,0.0,1.0,0,0,,,0
1449616887947825643,40,0,/odom,acmd_vector,0,0,0,0.0662143408679,-0.00158236136424,0.0,0.0,0.0,-0.152101512463,0.988364876908,0.35201,0.05,0.05,1.0,0.0,0.0,1.0,0,0,,,0
1449616887990978163,41,0,/odom,acmd_vector,0,0,0,0.0662143408679,-0.00158236136424,0.0,0.0,0.0,-0.152101512463,0.988364876908,0.35201,0.05,0.05,1.0,0.0,0.0,1.0,0,0,,,0
1449616888027683369,42,0,/odom,acmd_vector,0,0,0,0.0719710330095,-0.00176493354772,0.0,0.0,0.0,-0.152101512463,0.988364876908,0.35201,0.05,0.05,1.0,0.0,0.0,1.0,0,0,,,0
1449616888068687560,43,0,/odom,acmd_vector,0,0,0,0.0748482536517,-0.00188663247711,0.0,0.0,0.0,-0.157321908826,0.987547374561,0.35201,0.05,0.05,1.0,0.0,0.0,1.0,0,0,,,0
1449616888108295318,44,0,/odom,acmd_vector,0,0,0,0.0834755752864,-0.00234292700333,0.0,0.0,0.0,-0.0264170481704,0.999651008886,1e-05,0.05,0.05,1.0,0.0,0.0,1.0,0,0,,,0
1449616888161603430,45,0,/odom,acmd_vector,0,0,0,0.0892271230429,-0.00264712335413,0.0,0.0,0.0,-0.0264170481704,0.999651008886,1e-05,0.05,0.05,1.0,0.0,0.0,1.0,0,0,,,0
1449616888190219220,46,0,/odom,acmd_vector,0,0,0,0.10360068862,-0.003498761009,0.0,0.0,0.0,-0.0316988350601,0.999497465658,1e-05,0.05,0.05,1.0,0.0,0.0,1.0,0,0,,,0
1449616888249528245,47,0,/odom,acmd_vector,0,0,0,0.10360068862,-0.003498761009,0.0,0.0,0.0,-0.0316988350601,0.999497465658,1e-05,0.05,0.05,1.0,0.0,0.0,1.0,0,0,,,0
1449616888283889843,48,0,/odom,acmd_vector,0,0,0,0.112220617526,-0.00407656419245,0.0,0.0,0.0,-0.0369797368913,0.999316015612,1e-05,0.05,0.05,1.0,0.0,0.0,1.0,0,0,,,0
1449616888314397177,49,0,/odom,acmd_vector,0,0,0,0.117964451578,-0.00450224882061,0.0,0.0,0.0,-0.0369797368913,0.999316015612,1e-05,0.05,0.05,1.0,0.0,0.0,1.0,0,0,,,0
1449616888353663706,50,0,/odom,acmd_vector,0,0,0,0.120838457518,-0.00468472925529,0.0,0.0,0.0,-0.0316988350601,0.999497465658,1e-05,0.05,0.05,1.0,0.0,0.0,1.0,0,0,,,0
1449616888391940508,51,0,/odom,acmd_vector,0,0,0,0.123710374544,-0.00489757156937,0.0,0.0,0.0,-0.0369797368913,0.999316015612,1e-05,0.05,0.05,1.0,0.0,0.0,1.0,0,0,,,0
1449616888467825274,52,0,/odom,acmd_vector,0,0,0,0.123710374544,-0.00489757156937,0.0,0.0,0.0,-0.172956160133,0.984929523708,0.35201,0.05,0.05,1.0,0.0,0.0,1.0,0,0,,,0
1449616888476334900,53,0,/odom,acmd_vector,0,0,0,0.132323715964,-0.00556643662021,0.0,0.0,0.0,-0.17815811295,0.984001873367,0.35201,0.05,0.05,1.0,0.0,0.0,1.0,0,0,,,0
1449616888509379735,54,0,/odom,acmd_vector,0,0,0,0.132323715964,-0.00556643662021,0.0,0.0,0.0,-0.17815811295,0.984001873367,0.35201,0.05,0.05,1.0,0.0,0.0,1.0,0,0,,,0
1449616888553481122,55,0,/odom,acmd_vector,0,0,0,0.132323715964,-0.00556643662021,0.0,0.0,0.0,-0.17815811295,0.984001873367,0.35201,0.05,0.05,1.0,0.0,0.0,1.0,0,0,,,0
1449616888619589489,56,0,/odom,acmd_vector,0,0,0,0.1351904932,-0.00583992799247,0.0,0.0,0.0,-0.183355091442,0.983046748859,0.35201,0.05,0.05,1.0,0.0,0.0,1.0,0,0,,,0
1449616888636637195,57,0,/odom,acmd_vector,0,0,0,0.138054220136,-0.00614369977008,0.0,0.0,0.0,-0.188546950504,0.982064176852,0.35201,0.05,0.05,1.0,0.0,0.0,1.0,0,0,,,0
1449616888677756340,58,0,/odom,acmd_vector,0,0,0,0.138054220136,-0.00614369977008,0.0,0.0,0.0,-0.188546950504,0.982064176852,0.35201,0.05,0.05,1.0,0.0,0.0,1.0,0,0,,,0
1449616888707461392,59,0,/odom,acmd_vector,0,0,0,0.138054220136,-0.00614369977008,0.0,0.0,0.0,-0.188546950504,0.982064176852,0.35201,0.05,0.05,1.0,0.0,0.0,1.0,0,0,,,0
1449616888749258595,60,0,/odom,acmd_vector,0,0,0,0.138054220136,-0.00614369977008,0.0,0.0,0.0,-0.188546950504,0.982064176852,0.35201,0.05,0.05,1.0,0.0,0.0,1.0,0,0,,,0
1449616888789922772,61,0,/odom,acmd_vector,0,0,0,0.140914576942,-0.00647771802702,0.0,0.0,0.0,-0.173038367446,0.984915084356,0.35201,0.05,0.05,1.0,0.0,0.0,1.0,0,0,,,0
1449616888872009358,62,0,/odom,acmd_vector,0,0,0,0.140914576942,-0.00647771802702,0.0,0.0,0.0,-0.173038367446,0.984915084356,0.35201,0.05,0.05,1.0,0.0,0.0,1.0,0,0,,,0
1449616888898579192,63,0,/odom,acmd_vector,0,0,0,0.140914576942,-0.00647771802702,0.0,0.0,0.0,-0.183437141572,0.983031441558,0.35201,0.05,0.05,1.0,0.0,0.0,1.0,0,0,,,0
1449616888922262544,64,0,/odom,acmd_vector,0,0,0,0.14376290833,-0.00690223840692,0.0,0.0,0.0,-0.188628918605,0.982048436212,0.35201,0.05,0.05,1.0,0.0,0.0,1.0,0,0,,,0
1449616888961381136,65,0,/odom,acmd_vector,0,0,0,0.140919222265,-0.00644764098831,0.0,0.0,0.0,-0.193815428958,0.98103801124,0.35201,0.05,0.05,1.0,0.0,0.0,1.0,0,0,,,0
1449616889004761510,66,0,/odom,acmd_vector,0,0,0,0.140919222265,-0.00644764098831,0.0,0.0,0.0,-0.193815428958,0.98103801124,0.35201,0.05,0.05,1.0,0.0,0.0,1.0,0,0,,,0
1449616889034805055,67,0,/odom,acmd_vector,0,0,0,0.143757945417,-0.00693226467499,0.0,0.0,0.0,-0.19899652782,0.980000194855,0.35201,0.05,0.05,1.0,0.0,0.0,1.0,0,0,,,0
1449616889071124183,68,0,/odom,acmd_vector,0,0,0,0.140924502214,-0.00641766884427,0.0,0.0,0.0,-0.204172070531,0.978935016033,0.35201,0.05,0.05,1.0,0.0,0.0,1.0,0,0,,,0
1449616889107200813,69,0,/odom,acmd_vector,0,0,0,0.143752349021,-0.00696217934762,0.0,0.0,0.0,-0.209341912584,0.977842504515,0.35201,0.05,0.05,1.0,0.0,0.0,1.0,0,0,,,0
1449616889148905617,70,0,/odom,acmd_vector,0,0,0,0.143752349021,-0.00696217934762,0.0,0.0,0.0,-0.209341912584,0.977842504515,0.35201,0.05,0.05,1.0,0.0,0.0,1.0,0,0,,,0
1449616889212499607,71,0,/odom,acmd_vector,0,0,0,0.143752349021,-0.00696217934762,0.0,0.0,0.0,-0.219663917495,0.975575606168,0.35201,0.05,0.05,1.0,0.0,0.0,1.0,0,0,,,0
1449616889233232322,72,0,/odom,acmd_vector,0,0,0,0.143752349021,-0.00696217934762,0.0,0.0,0.0,-0.209423528247,0.977825028222,0.35201,0.05,0.05,1.0,0.0,0.0,1.0,0,0,,,0
1449616889293622992,73,0,/odom,acmd_vector,0,0,0,0.143752349021,-0.00696217934762,0.0,0.0,0.0,-0.209423528247,0.977825028222,0.35201,0.05,0.05,1.0,0.0,0.0,1.0,0,0,,,0
1449616889309821485,74,0,/odom,acmd_vector,0,0,0,0.146547490263,-0.00765528445533,0.0,0.0,0.0,-0.214587431812,0.976704783498,0.35201,0.05,0.05,1.0,0.0,0.0,1.0,0,0,,,0
1449616889376987217,75,0,/odom,acmd_vector,0,0,0,0.146547490263,-0.00765528445533,0.0,0.0,0.0,-0.214587431812,0.976704783498,0.35201,0.05,0.05,1.0,0.0,0.0,1.0,0,0,,,0
1449616889394259027,76,0,/odom,acmd_vector,0,0,0,0.146539698214,-0.0076847036879,0.0,0.0,0.0,-0.224897120539,0.974382514813,0.35201,0.05,0.05,1.0,0.0,0.0,1.0,0,0,,,0
1449616889462324379,77,0,/odom,acmd_vector,0,0,0,0.146539698214,-0.0076847036879,0.0,0.0,0.0,-0.214668952495,0.976686869388,0.35201,0.05,0.05,1.0,0.0,0.0,1.0,0,0,,,0
1449616889480662248,78,0,/odom,acmd_vector,0,0,0,0.146539698214,-0.0076847036879,0.0,0.0,0.0,-0.214668952495,0.976686869388,0.35201,0.05,0.05,1.0,0.0,0.0,1.0,0,0,,,0
1449616889545254719,79,0,/odom,acmd_vector,0,0,0,0.146539698214,-0.0076847036879,0.0,0.0,0.0,-0.214668952495,0.976686869388,0.35201,0.05,0.05,1.0,0.0,0.0,1.0,0,0,,,0
1449616889556083123,80,0,/odom,acmd_vector,0,0,0,0.146539698214,-0.0076847036879,0.0,0.0,0.0,-0.224978447357,0.974363740204,0.35201,0.05,0.05,1.0,0.0,0.0,1.0,0,0,,,0
1449616889591736246,81,0,/odom,acmd_vector,0,0,0,0.146539698214,-0.0076847036879,0.0,0.0,0.0,-0.224978447357,0.974363740204,0.35201,0.05,0.05,1.0,0.0,0.0,1.0,0,0,,,0
1449616889667898029,82,0,/odom,acmd_vector,0,0,0,0.149275968112,-0.00858249892909,0.0,0.0,0.0,-0.230123844324,0.973161351613,0.35201,0.05,0.05,1.0,0.0,0.0,1.0,0,0,,,0
1449616889684287518,83,0,/odom,acmd_vector,0,0,0,0.149275968112,-0.00858249892909,0.0,0.0,0.0,-0.209586755194,0.9777900552,0.35201,0.05,0.05,1.0,0.0,0.0,1.0,0,0,,,0
1449616889722696661,84,0,/odom,acmd_vector,0,0,0,0.149275968112,-0.00858249892909,0.0,0.0,0.0,-0.209586755194,0.9777900552,0.35201,0.05,0.05,1.0,0.0,0.0,1.0,0,0,,,0
1449616889755508287,85,0,/odom,acmd_vector,0,0,0,0.149275968112,-0.00858249892909,0.0,0.0,0.0,-0.209586755194,0.9777900552,0.35201,0.05,0.05,1.0,0.0,0.0,1.0,0,0,,,0
1449616889799527303,86,0,/odom,acmd_vector,0,0,0,0.149275968112,-0.00858249892909,0.0,0.0,0.0,-0.209586755194,0.9777900552,0.35201,0.05,0.05,1.0,0.0,0.0,1.0,0,0,,,0
1449616889867062646,87,0,/odom,acmd_vector,0,0,0,0.152002597447,-0.00950916053146,0.0,0.0,0.0,-0.214750471683,0.976668948473,0.35201,0.05,0.05,1.0,0.0,0.0,1.0,0,0,,,0
1449616889890061902,88,0,/odom,acmd_vector,0,0,0,0.152002597447,-0.00950916053146,0.0,0.0,0.0,-0.214750471683,0.976668948473,0.35201,0.05,0.05,1.0,0.0,0.0,1.0,0,0,,,0
1449616889910838222,89,0,/odom,acmd_vector,0,0,0,0.152002597447,-0.00950916053146,0.0,0.0,0.0,-0.214750471683,0.976668948473,0.35201,0.05,0.05,1.0,0.0,0.0,1.0,0,0,,,0
1449616889962242024,90,0,/odom,acmd_vector,0,0,0,0.152002597447,-0.00950916053146,0.0,0.0,0.0,-0.214750471683,0.976668948473,0.35201,0.05,0.05,1.0,0.0,0.0,1.0,0,0,,,0
1449616889989953786,91,0,/odom,acmd_vector,0,0,0,0.152002597447,-0.00950916053146,0.0,0.0,0.0,-0.214750471683,0.976668948473,0.35201,0.05,0.05,1.0,0.0,0.0,1.0,0,0,,,0
1449616890037642835,92,0,/odom,acmd_vector,0,0,0,0.152002597447,-0.00950916053146,0.0,0.0,0.0,-0.214750471683,0.976668948473,0.35201,0.05,0.05,1.0,0.0,0.0,1.0,0,0,,,0
1449616890097351662,93,0,/odom,acmd_vector,0,0,0,0.152002597447,-0.00950916053146,0.0,0.0,0.0,-0.214750471683,0.976668948473,0.35201,0.05,0.05,1.0,0.0,0.0,1.0,0,0,,,0
1449616890129854078,94,0,/odom,acmd_vector,0,0,0,0.154738867346,-0.0104069557726,0.0,0.0,0.0,-0.209586755194,0.9777900552,0.35201,0.05,0.05,1.0,0.0,0.0,1.0,0,0,,,0
1449616890162959494,95,0,/odom,acmd_vector,0,0,0,0.15746549668,-0.011333617375,0.0,0.0,0.0,-0.214750471683,0.976668948473,0.35201,0.05,0.05,1.0,0.0,0.0,1.0,0,0,,,0
1449616890204678072,96,0,/odom,acmd_vector,0,0,0,0.15746549668,-0.011333617375,0.0,0.0,0.0,-0.214750471683,0.976668948473,0.35201,0.05,0.05,1.0,0.0,0.0,1.0,0,0,,,0
1449616890241494883,97,0,/odom,acmd_vector,0,0,0,0.15746549668,-0.011333617375,0.0,0.0,0.0,-0.214750471683,0.976668948473,0.35201,0.05,0.05,1.0,0.0,0.0,1.0,0,0,,,0
1449616890299445318,98,0,/odom,acmd_vector,0,0,0,0.16291875535,-0.0131869405798,0.0,0.0,0.0,-0.214750471683,0.976668948473,0.35201,0.05,0.05,1.0,0.0,0.0,1.0,0,0,,,0
1449616890313097735,99,0,/odom,acmd_vector,0,0,0,0.16291875535,-0.0131869405798,0.0,0.0,0.0,-0.214750471683,0.976668948473,0.35201,0.05,0.05,1.0,0.0,0.0,1.0,0,0,,,0
1449616890373916382,100,0,/odom,acmd_vector,0,0,0,0.168372014019,-0.0150402637845,0.0,0.0,0.0,-0.214750471683,0.976668948473,0.35201,0.05,0.05,1.0,0.0,0.0,1.0,0,0,,,0
1449616890425531176,101,0,/odom,acmd_vector,0,0,0,0.171088698272,-0.0159956882561,0.0,0.0,0.0,-0.219908192157,0.975520572321,0.35201,0.05,0.05,1.0,0.0,0.0,1.0,0,0,,,0
1449616890460592155,102,0,/odom,acmd_vector,0,0,0,0.171088698272,-0.0159956882561,0.0,0.0,0.0,-0.219908192157,0.975520572321,0.35201,0.05,0.05,1.0,0.0,0.0,1.0,0,0,,,0
1449616890560698326,103,0,/odom,acmd_vector,0,0,0,0.176522066779,-0.0179065371992,0.0,0.0,0.0,-0.219908192157,0.975520572321,0.35201,0.05,0.05,1.0,0.0,0.0,1.0,0,0,,,0
1449616890560712039,104,0,/odom,acmd_vector,0,0,0,0.184641374077,-0.0208587791085,0.0,0.0,0.0,-0.225059772607,0.974344958808,0.35201,0.05,0.05,1.0,0.0,0.0,1.0,0,0,,,0
1449616890560715821,105,0,/odom,acmd_vector,0,0,0,0.184641374077,-0.0208587791085,0.0,0.0,0.0,-0.225059772607,0.974344958808,0.35201,0.05,0.05,1.0,0.0,0.0,1.0,0,0,,,0
1449616890609148124,106,0,/odom,acmd_vector,0,0,0,0.190054245608,-0.0228269403814,0.0,0.0,0.0,-0.225059772607,0.974344958808,0.35201,0.05,0.05,1.0,0.0,0.0,1.0,0,0,,,0
1449616890682352349,107,0,/odom,acmd_vector,0,0,0,0.195424311976,-0.0249090605094,0.0,0.0,0.0,-0.235343938268,0.971912151751,0.35201,0.05,0.05,1.0,0.0,0.0,1.0,0,0,,,0
1449616890704095724,108,0,/odom,acmd_vector,0,0,0,0.20616444471,-0.0290733007655,0.0,0.0,0.0,-0.235343938268,0.971912151751,0.35201,0.05,0.05,1.0,0.0,0.0,1.0,0,0,,,0
1449616890762866290,109,0,/odom,acmd_vector,0,0,0,0.20616444471,-0.0290733007655,0.0,0.0,0.0,-0.235343938268,0.971912151751,0.35201,0.05,0.05,1.0,0.0,0.0,1.0,0,0,,,0
1449616890792659834,110,0,/odom,acmd_vector,0,0,0,0.216904577444,-0.0332375410215,0.0,0.0,0.0,-0.235343938268,0.971912151751,0.35201,0.05,0.05,1.0,0.0,0.0,1.0,0,0,,,0
1449616890805010467,111,0,/odom,acmd_vector,0,0,0,0.224926221881,-0.0364456719107,0.0,0.0,0.0,-0.219989613981,0.975502214114,0.35201,0.05,0.05,1.0,0.0,0.0,1.0,0,0,,,0
1449616890848991980,112,0,/odom,acmd_vector,0,0,0,0.224926221881,-0.0364456719107,0.0,0.0,0.0,-0.219989613981,0.975502214114,0.35201,0.05,0.05,1.0,0.0,0.0,1.0,0,0,,,0
1449616890885034264,113,0,/odom,acmd_vector,0,0,0,0.232913515327,-0.0397383952047,0.0,0.0,0.0,-0.22514109629,0.974326170623,0.35201,0.05,0.05,1.0,0.0,0.0,1.0,0,0,,,0
1449616890951881176,114,0,/odom,acmd_vector,0,0,0,0.238238377625,-0.0419335440674,0.0,0.0,0.0,-0.22514109629,0.974326170623,0.35201,0.05,0.05,1.0,0.0,0.0,1.0,0,0,,,0
1449616891037911263,115,0,/odom,acmd_vector,0,0,0,0.246190428038,-0.0453104920261,0.0,0.0,0.0,-0.230286292468,0.97312292312,0.35201,0.05,0.05,1.0,0.0,0.0,1.0,0,0,,,0
1449616891071173701,116,0,/odom,acmd_vector,0,0,0,0.269974316998,-0.0556090309393,0.0,0.0,0.0,-0.235425058858,0.971892505199,0.35201,0.05,0.05,1.0,0.0,0.0,1.0,0,0,,,0
1449616891117983982,117,0,/odom,acmd_vector,0,0,0,0.269974316998,-0.0556090309393,0.0,0.0,0.0,-0.235425058858,0.971892505199,0.35201,0.05,0.05,1.0,0.0,0.0,1.0,0,0,,,0
1449616891153967258,118,0,/odom,acmd_vector,0,0,0,0.288307899619,-0.0639897163054,0.0,0.0,0.0,-0.240557251981,0.970634951215,0.35201,0.05,0.05,1.0,0.0,0.0,1.0,0,0,,,0
1449616891249250282,119,0,/odom,acmd_vector,0,0,0,0.296148908537,-0.0676170379663,0.0,0.0,0.0,-0.245682728541,0.969350296279,0.35201,0.05,0.05,1.0,0.0,0.0,1.0,0,0,,,0
1449616891262556146,120,0,/odom,acmd_vector,0,0,0,0.314405825162,-0.0761634485755,0.0,0.0,0.0,-0.250801345431,0.968038576261,0.35201,0.05,0.05,1.0,0.0,0.0,1.0,0,0,,,0
1449616891297733026,121,0,/odom,acmd_vector,0,0,0,0.314405825162,-0.0761634485755,0.0,0.0,0.0,-0.230367514134,0.973103698704,0.35201,0.05,0.05,1.0,0.0,0.0,1.0,0,0,,,0
1449616891350513930,122,0,/odom,acmd_vector,0,0,0,0.322168421004,-0.0799556760303,0.0,0.0,0.0,-0.235506177809,0.971872851876,0.35201,0.05,0.05,1.0,0.0,0.0,1.0,0,0,,,0
1449616891421296564,123,0,/odom,acmd_vector,0,0,0,0.335038565456,-0.0864124254562,0.0,0.0,0.0,-0.240638265951,0.970614869534,0.35201,0.05,0.05,1.0,0.0,0.0,1.0,0,0,,,0
1449616891436466547,124,0,/odom,acmd_vector,0,0,0,0.350482738797,-0.0941605247673,0.0,0.0,0.0,-0.240638265951,0.970614869534,0.35201,0.05,0.05,1.0,0.0,0.0,1.0,0,0,,,0
1449616891506210313,125,0,/odom,acmd_vector,0,0,0,0.36328393059,-0.100752923421,0.0,0.0,0.0,-0.245763635268,0.969329786801,0.35201,0.05,0.05,1.0,0.0,0.0,1.0,0,0,,,0
1449616891520539943,126,0,/odom,acmd_vector,0,0,0,0.370922416269,-0.104789310397,0.0,0.0,0.0,-0.250882142656,0.968017639558,0.35201,0.05,0.05,1.0,0.0,0.0,1.0,0,0,,,0
1449616891544317285,127,0,/odom,acmd_vector,0,0,0,0.381107063841,-0.110171159697,0.0,0.0,0.0,-0.230448734196,0.973084467509,0.35201,0.05,0.05,1.0,0.0,0.0,1.0,0,0,,,0
1449616891573674209,128,0,/odom,acmd_vector,0,0,0,0.381107063841,-0.110171159697,0.0,0.0,0.0,-0.230448734196,0.973084467509,0.35201,0.05,0.05,1.0,0.0,0.0,1.0,0,0,,,0
1449616891608711654,129,0,/odom,fullacmd_vector,0,0,0,0.388702467037,-0.114288043662,0.0,0.0,0.0,-0.235587295118,0.971853191783,0.452,0.05,0.05,0.0,1.0,1.0,1.0,0,0,,,0
1449616891648647534,130,0,/odom,fullacmd_vector,0,0,0,0.396253939475,-0.11848496483,0.0,0.0,0.0,-0.240719278244,0.970594781091,0.452,0.05,0.05,0.0,1.0,1.0,1.0,0,0,,,0
1449616891690048706,131,0,/odom,fullacmd_vector,0,0,0,0.406322569393,-0.124080859722,0.0,0.0,0.0,-0.240719278244,0.970594781091,0.452,0.05,0.05,0.0,1.0,1.0,1.0,0,0,,,0
1449616891729242204,132,0,/odom,fullacmd_vector,0,0,0,0.416391199311,-0.129676754614,0.0,0.0,0.0,-0.250922540614,0.968007168678,0.452,0.05,0.05,0.0,1.0,1.0,1.0,0,0,,,0
1449616891769278884,133,0,/odom,fullacmd_vector,0,0,0,0.423897897624,-0.133953244264,0.0,0.0,0.0,-0.256033987268,0.966667780245,0.452,0.05,0.05,0.0,1.0,1.0,1.0,0,0,,,0
1449616891808978848,134,0,/odom,fullacmd_vector,0,0,0,0.431358983443,-0.138308824785,0.0,0.0,0.0,-0.250962938134,0.967996696112,0.452,0.05,0.05,0.0,1.0,1.0,1.0,0,0,,,0
1449616891848392094,135,0,/odom,fullacmd_vector,0,0,0,0.438773623495,-0.142743009736,0.0,0.0,0.0,-0.256074328887,0.966657094364,0.452,0.05,0.05,0.0,1.0,1.0,1.0,0,0,,,0
1449616891888473300,136,0,/odom,fullacmd_vector,0,0,0,0.446234709314,-0.147098590258,0.0,0.0,0.0,-0.250962938134,0.967996696112,0.452,0.05,0.05,0.0,1.0,1.0,1.0,0,0,,,0
1449616891928606067,137,0,/odom,fullacmd_vector,0,0,0,0.453649349366,-0.151532775209,0.0,0.0,0.0,-0.235668410787,0.971833524919,0.452,0.05,0.05,0.0,1.0,1.0,1.0,0,0,,,0
1449616891969918087,138,0,/odom,fullacmd_vector,0,0,0,0.461016715565,-0.156045069368,0.0,0.0,0.0,-0.24080028886,0.970574685887,0.452,0.05,0.05,0.0,1.0,1.0,1.0,0,0,,,0
1449616892019852445,139,0,/odom,fullacmd_vector,0,0,0,0.465928293031,-0.159053265474,0.0,0.0,0.0,-0.24080028886,0.970574685887,0.452,0.05,0.05,0.0,1.0,1.0,1.0,0,0,,,0
1449616892048101590,140,0,/odom,fullacmd_vector,0,0,0,0.470839870497,-0.16206146158,0.0,0.0,0.0,-0.24080028886,0.970574685887,0.452,0.05,0.05,0.0,1.0,1.0,1.0,0,0,,,0
1449616892091065053,141,0,/odom,fullacmd_vector,0,0,0,0.480663025429,-0.168077853791,0.0,0.0,0.0,-0.24080028886,0.970574685887,0.452,0.05,0.05,0.0,1.0,1.0,1.0,0,0,,,0
1449616892129187320,142,0,/odom,fullacmd_vector,0,0,0,0.483102781942,-0.169607820265,0.0,0.0,0.0,-0.245925443586,0.969288747586,0.452,0.05,0.05,0.0,1.0,1.0,1.0,0,0,,,0
1449616892170239665,143,0,/odom,fullacmd_vector,0,0,0,0.492861807993,-0.175727686161,0.0,0.0,0.0,-0.245925443586,0.969288747586,0.452,0.05,0.05,0.0,1.0,1.0,1.0,0,0,,,0
1449616892209612614,144,0,/odom,fullacmd_vector,0,0,0,0.500132163437,-0.180394678234,0.0,0.0,0.0,-0.251043731864,0.967975745921,0.452,0.05,0.05,0.0,1.0,1.0,1.0,0,0,,,0
1449616892248544633,145,0,/odom,fullacmd_vector,0,0,0,0.504979067066,-0.183506006282,0.0,0.0,0.0,-0.251043731864,0.967975745921,0.452,0.05,0.05,0.0,1.0,1.0,1.0,0,0,,,0
1449616892291156780,146,0,/odom,fullacmd_vector,0,0,0,0.512199696442,-0.188249569784,0.0,0.0,0.0,-0.256155010788,0.966635717552,0.452,0.05,0.05,0.0,1.0,1.0,1.0,0,0,,,0
1449616892329206226,147,0,/odom,fullacmd_vector,0,0,0,0.517013449359,-0.191411945452,0.0,0.0,0.0,-0.256155010788,0.966635717552,0.452,0.05,0.05,0.0,1.0,1.0,1.0,0,0,,,0
1449616892369171501,148,0,/odom,fullacmd_vector,0,0,0,0.526640955194,-0.197736696788,0.0,0.0,0.0,-0.256155010788,0.966635717552,0.452,0.05,0.05,0.0,1.0,1.0,1.0,0,0,,,0
1449616892409245190,149,0,/odom,fullacmd_vector,0,0,0,0.531454708111,-0.200899072456,0.0,0.0,0.0,-0.235749524814,0.971813851285,0.452,0.05,0.05,0.0,1.0,1.0,1.0,0,0,,,0
1449616892452173677,150,0,/odom,fullacmd_vector,0,0,0,0.538624805001,-0.205718677614,0.0,0.0,0.0,-0.240881297799,0.970554583921,0.452,0.05,0.05,0.0,1.0,1.0,1.0,0,0,,,0
1449616892490211599,151,0,/odom,fullacmd_vector,0,0,0,0.548184934188,-0.212144817824,0.0,0.0,0.0,-0.240881297799,0.970554583921,0.452,0.05,0.05,0.0,1.0,1.0,1.0,0,0,,,0
1449616892530283795,152,0,/odom,fullacmd_vector,0,0,0,0.552964998781,-0.215357887929,0.0,0.0,0.0,-0.281521188248,0.959555011746,0.452,0.05,0.05,0.0,1.0,1.0,1.0,0,0,,,0
1449616892569866920,153,0,/odom,fullacmd_vector,0,0,0,0.560083762409,-0.220252996476,0.0,0.0,0.0,-0.286587546537,0.958054058063,0.452,0.05,0.05,0.0,1.0,1.0,1.0,0,0,,,0
1449616892608704721,154,0,/odom,fullacmd_vector,0,0,0,0.564829604828,-0.223516402174,0.0,0.0,0.0,-0.286587546537,0.958054058063,0.4056,0.05,0.05,0.0,1.0,1.0,1.0,0,0,,,0
1449616892651113851,155,0,/odom,fullacmd_vector,0,0,0,0.574321289666,-0.23004321357,0.0,0.0,0.0,-0.286587546537,0.958054058063,0.4056,0.05,0.05,0.0,1.0,1.0,1.0,0,0,,,0
1449616892689025370,156,0,/odom,fullacmd_vector,0,0,0,0.583812974503,-0.236570024966,0.0,0.0,0.0,-0.286587546537,0.958054058063,0.452,0.05,0.05,0.0,1.0,1.0,1.0,0,0,,,0
1449616892732764428,157,0,/odom,fullacmd_vector,0,0,0,0.590879609828,-0.241540090204,0.0,0.0,0.0,-0.291645903058,0.956526354697,0.452,0.05,0.05,0.0,1.0,1.0,1.0,0,0,,,0
1449616892769676544,158,0,/odom,fullacmd_vector,0,0,0,0.600301790261,-0.248166843855,0.0,0.0,0.0,-0.291645903058,0.956526354697,0.3128,0.05,0.05,0.0,1.0,1.0,1.0,0,0,,,0
1449616892811396906,159,0,/odom,fullacmd_vector,0,0,0,0.609723970694,-0.254793597505,0.0,0.0,0.0,-0.291645903058,0.956526354697,0.3128,0.05,0.05,0.0,1.0,1.0,1.0,0,0,,,0
1449616892848452569,160,0,/odom,fullacmd_vector,0,0,0,0.616737688495,-0.259838064364,0.0,0.0,0.0,-0.296696116578,0.954971944304,0.3128,0.05,0.05,0.0,1.0,1.0,1.0,0,0,,,0
1449616892889371576,161,0,/odom,fullacmd_vector,0,0,0,0.62380432382,-0.264808129602,0.0,0.0,0.0,-0.291645903058,0.956526354697,0.3128,0.05,0.05,0.0,1.0,1.0,1.0,0,0,,,0
1449616892928226502,162,0,/odom,fullacmd_vector,0,0,0,0.633226504253,-0.271434883253,0.0,0.0,0.0,-0.291645903058,0.956526354697,0.3128,0.05,0.05,0.0,1.0,1.0,1.0,0,0,,,0
1449616892967933643,163,0,/odom,fullacmd_vector,0,0,0,0.644916033921,-0.279842328018,0.0,0.0,0.0,-0.235830637198,0.971794170881,0.452,0.05,0.05,0.0,1.0,1.0,1.0,0,0,,,0
1449616893009324478,164,0,/odom,fullacmd_vector,0,0,0,0.649591845788,-0.283205305924,0.0,0.0,0.0,-0.235830637198,0.971794170881,0.452,0.05,0.05,0.0,1.0,1.0,1.0,0,0,,,0
1449616893049114451,165,0,/odom,fullacmd_vector,0,0,0,0.658943469523,-0.289931261737,0.0,0.0,0.0,-0.235830637198,0.971794170881,0.452,0.05,0.05,0.0,1.0,1.0,1.0,0,0,,,0
1449616893093782443,166,0,/odom,fullacmd_vector,0,0,0,0.670543497801,-0.298461770238,0.0,0.0,0.0,-0.220478112721,0.975391922158,0.452,0.05,0.05,0.0,1.0,1.0,1.0,0,0,,,0
1449616893128700139,167,0,/odom,fullacmd_vector,0,0,0,0.675183509112,-0.301873973639,0.0,0.0,0.0,-0.220478112721,0.975391922158,0.452,0.05,0.05,0.0,1.0,1.0,1.0,0,0,,,0
1449616893169277761,168,0,/odom,fullacmd_vector,0,0,0,0.684463531734,-0.30869838044,0.0,0.0,0.0,-0.220478112721,0.975391922158,0.452,0.05,0.05,0.0,1.0,1.0,1.0,0,0,,,0
1449616893209214653,169,0,/odom,fullacmd_vector,0,0,0,0.693743554356,-0.315522787241,0.0,0.0,0.0,-0.220478112721,0.975391922158,0.452,0.05,0.05,0.0,1.0,1.0,1.0,0,0,,,0
1449616893249041663,170,0,/odom,fullacmd_vector,0,0,0,0.700649093176,-0.320714358959,0.0,0.0,0.0,-0.225629005427,0.97421329898,0.452,0.05,0.05,0.0,1.0,1.0,1.0,0,0,,,0
1449616893292111482,171,0,/odom,fullacmd_vector,0,0,0,0.709856478269,-0.327636454581,0.0,0.0,0.0,-0.225629005427,0.97421329898,0.452,0.05,0.05,0.0,1.0,1.0,1.0,0,0,,,0
1449616893328111133,172,0,/odom,fullacmd_vector,0,0,0,0.714460170815,-0.331097502393,0.0,0.0,0.0,-0.225629005427,0.97421329898,0.452,0.05,0.05,0.0,1.0,1.0,1.0,0,0,,,0
1449616893369893993,173,0,/odom,fullacmd_vector,0,0,0,0.723667555908,-0.338019598016,0.0,0.0,0.0,-0.225629005427,0.97421329898,0.452,0.05,0.05,0.0,1.0,1.0,1.0,0,0,,,0
1449616893410148492,174,0,/odom,fullacmd_vector,0,0,0,0.735084704981,-0.346793362224,0.0,0.0,0.0,-0.230773598381,0.973007474941,0.452,0.05,0.05,0.0,1.0,1.0,1.0,0,0,,,0
1449616893448544253,175,0,/odom,fullacmd_vector,0,0,0,0.73965156461,-0.350302867907,0.0,0.0,0.0,-0.210239604536,0.977649890648,0.452,0.05,0.05,0.0,1.0,1.0,1.0,0,0,,,0
1449616893488409791,176,0,/odom,fullacmd_vector,0,0,0,0.748785283869,-0.357321879274,0.0,0.0,0.0,-0.210239604536,0.977649890648,0.452,0.05,0.05,0.0,1.0,1.0,1.0,0,0,,,0
1449616893529261658,177,0,/odom,fullacmd_vector,0,0,0,0.757919003127,-0.364340890641,0.0,0.0,0.0,-0.210239604536,0.977649890648,0.452,0.05,0.05,0.0,1.0,1.0,1.0,0,0,,,0
1449616893569088700,178,0,/odom,fullacmd_vector,0,0,0,0.767052722386,-0.371359902007,0.0,0.0,0.0,-0.210239604536,0.977649890648,0.452,0.05,0.05,0.0,1.0,1.0,1.0,0,0,,,0
1449616893610960114,179,0,/odom,fullacmd_vector,0,0,0,0.771619582015,-0.374869407691,0.0,0.0,0.0,-0.210239604536,0.977649890648,0.452,0.05,0.05,0.0,1.0,1.0,1.0,0,0,,,0
1449616893649486937,180,0,/odom,fullacmd_vector,0,0,0,0.780753301274,-0.381888419057,0.0,0.0,0.0,-0.210239604536,0.977649890648,0.452,0.05,0.05,0.0,1.0,1.0,1.0,0,0,,,0
1449616893689357268,181,0,/odom,fullacmd_vector,0,0,0,0.789887020532,-0.388907430424,0.0,0.0,0.0,-0.210239604536,0.977649890648,0.452,0.05,0.05,0.0,1.0,1.0,1.0,0,0,,,0
1449616893728481508,182,0,/odom,fullacmd_vector,0,0,0,0.796681295542,-0.394243787831,0.0,0.0,0.0,-0.215402571282,0.976525336223,0.452,0.05,0.05,0.0,1.0,1.0,1.0,0,0,,,0
1449616893776817107,183,0,/odom,fullacmd_vector,0,0,0,0.805740328889,-0.40135893104,0.0,0.0,0.0,-0.215402571282,0.976525336223,0.452,0.05,0.05,0.0,1.0,1.0,1.0,0,0,,,0
1449616893810289610,184,0,/odom,fullacmd_vector,0,0,0,0.812590618333,-0.406623189565,0.0,0.0,0.0,-0.210239604536,0.977649890648,0.452,0.05,0.05,0.0,1.0,1.0,1.0,0,0,,,0
1449616893849611139,185,0,/odom,fullacmd_vector,0,0,0,0.821724337591,-0.413642200931,0.0,0.0,0.0,-0.210239604536,0.977649890648,0.452,0.05,0.05,0.0,1.0,1.0,1.0,0,0,,,0
1449616893888691723,186,0,/odom,fullacmd_vector,0,0,0,0.835424916479,-0.424170717981,0.0,0.0,0.0,-0.189612433145,0.981859014929,0.452,0.05,0.05,0.0,1.0,1.0,1.0,0,0,,,0
1449616893966322135,187,0,/odom,acmd_vector,0,0,0,0.844558635738,-0.431189729348,0.0,0.0,0.0,-0.189612433145,0.981859014929,0.35201,0.05,0.05,1.0,0.0,0.0,1.0,0,0,,,0
1449616893985984784,188,0,/odom,acmd_vector,0,0,0,0.86067155965,-0.443303396688,0.0,0.0,0.0,-0.184421643284,0.98284721981,0.35201,0.05,0.05,1.0,0.0,0.0,1.0,0,0,,,0
1449616894022224703,189,0,/odom,acmd_vector,0,0,0,0.86067155965,-0.443303396688,0.0,0.0,0.0,-0.184421643284,0.98284721981,0.35201,0.05,0.05,1.0,0.0,0.0,1.0,0,0,,,0
1449616894055428841,190,0,/odom,acmd_vector,0,0,0,0.874482637289,-0.453686540122,0.0,0.0,0.0,-0.184421643284,0.98284721981,0.35201,0.05,0.05,1.0,0.0,0.0,1.0,0,0,,,0
1449616894095574070,191,0,/odom,acmd_vector,0,0,0,0.879086329836,-0.457147587934,0.0,0.0,0.0,-0.184421643284,0.98284721981,0.35201,0.05,0.05,1.0,0.0,0.0,1.0,0,0,,,0
1449616894177106131,192,0,/odom,acmd_vector,0,0,0,0.890686358113,-0.465678096435,0.0,0.0,0.0,-0.311756837497,0.950161920029,1e-05,0.05,0.05,1.0,0.0,0.0,1.0,0,0,,,0
1449616894199472225,193,0,/odom,acmd_vector,0,0,0,0.911620109848,-0.480959173496,0.0,0.0,0.0,-0.30673182989,0.951795978418,1e-05,0.05,0.05,1.0,0.0,0.0,1.0,0,0,,,0
1449616894292250055,194,0,/odom,acmd_vector,0,0,0,0.920971733582,-0.487685129309,0.0,0.0,0.0,-0.30673182989,0.951795978418,1e-05,0.05,0.05,1.0,0.0,0.0,1.0,0,0,,,0
1449616894326273559,195,0,/odom,acmd_vector,0,0,0,0.942101082858,-0.502694527184,0.0,0.0,0.0,-0.30169825807,0.953403461855,1e-05,0.05,0.05,1.0,0.0,0.0,1.0,0,0,,,0
1449616894359669435,196,0,/odom,acmd_vector,0,0,0,0.951523263291,-0.509321280835,0.0,0.0,0.0,-0.30169825807,0.953403461855,1e-05,0.05,0.05,1.0,0.0,0.0,1.0,0,0,,,0
1449616894464976961,197,0,/odom,acmd_vector,0,0,0,0.960945443724,-0.515948034486,0.0,0.0,0.0,-0.30169825807,0.953403461855,1e-05,0.05,0.05,1.0,0.0,0.0,1.0,0,0,,,0
1449616894488576210,198,0,/odom,acmd_vector,0,0,0,0.97978980459,-0.529201541787,0.0,0.0,0.0,-0.30169825807,0.953403461855,1e-05,0.05,0.05,1.0,0.0,0.0,1.0,0,0,,,0
1449616894570658912,199,0,/odom,acmd_vector,0,0,0,0.991654410637,-0.537360056032,0.0,0.0,0.0,-0.296656262579,0.954984325459,1e-05,0.05,0.05,1.0,0.0,0.0,1.0,0,0,,,0
1449616894617477345,200,0,/odom,acmd_vector,0,0,0,1.00589193789,-0.547150273126,0.0,0.0,0.0,-0.296656262579,0.954984325459,1e-05,0.05,0.05,1.0,0.0,0.0,1.0,0,0,,,0
1449616894656936241,201,0,/odom,acmd_vector,0,0,0,1.01306203478,-0.551969878284,0.0,0.0,0.0,-0.291605984193,0.956538525091,1e-05,0.05,0.05,1.0,0.0,0.0,1.0,0,0,,,0
1449616894726455238,202,0,/odom,acmd_vector,0,0,0,1.01784209938,-0.555182948389,0.0,0.0,0.0,-0.291605984193,0.956538525091,1e-05,0.05,0.05,1.0,0.0,0.0,1.0,0,0,,,0
1449616894748411040,203,0,/odom,acmd_vector,0,0,0,1.03696235775,-0.568035228809,0.0,0.0,0.0,-0.291605984193,0.956538525091,1e-05,0.05,0.05,1.0,0.0,0.0,1.0,0,0,,,0
1449616894819711924,204,0,/odom,acmd_vector,0,0,0,1.03696235775,-0.568035228809,0.0,0.0,0.0,-0.291605984193,0.956538525091,1e-05,0.05,0.05,1.0,0.0,0.0,1.0,0,0,,,0
1449616894882033931,205,0,/odom,acmd_vector,0,0,0,1.0465393311,-0.5744360218,0.0,0.0,0.0,-0.291605984193,0.956538525091,1e-05,0.05,0.05,1.0,0.0,0.0,1.0,0,0,,,0
1449616894923044187,206,0,/odom,acmd_vector,0,0,0,1.05609946028,-0.58086216201,0.0,0.0,0.0,-0.291605984193,0.956538525091,1e-05,0.05,0.05,1.0,0.0,0.0,1.0,0,0,,,0
1449616894967142285,207,0,/odom,acmd_vector,0,0,0,1.06332008966,-0.585605725512,0.0,0.0,0.0,-0.28654756392,0.958066017355,1e-05,0.05,0.05,1.0,0.0,0.0,1.0,0,0,,,0
1449616895025347003,208,0,/odom,acmd_vector,0,0,0,1.06813384258,-0.58876810118,0.0,0.0,0.0,-0.28654756392,0.958066017355,1e-05,0.05,0.05,1.0,0.0,0.0,1.0,0,0,,,0
1449616895074316565,209,0,/odom,acmd_vector,0,0,0,1.07052387487,-0.590374636233,0.0,0.0,0.0,-0.291605984193,0.956538525091,1e-05,0.05,0.05,1.0,0.0,0.0,1.0,0,0,,,0
1449616895125312673,210,0,/odom,acmd_vector,0,0,0,1.07293075133,-0.591955824067,0.0,0.0,0.0,-0.28654756392,0.958066017355,1e-05,0.05,0.05,1.0,0.0,0.0,1.0,0,0,,,0
1449616895196899299,211,0,/odom,acmd_vector,0,0,0,1.08013453655,-0.596724734787,0.0,0.0,0.0,-0.291605984193,0.956538525091,1e-05,0.05,0.05,1.0,0.0,0.0,1.0,0,0,,,0
1449616895239087893,212,0,/odom,acmd_vector,0,0,0,1.08735516592,-0.601468298289,0.0,0.0,0.0,-0.28654756392,0.958066017355,1e-05,0.05,0.05,1.0,0.0,0.0,1.0,0,0,,,0
1449616895267352920,213,0,/odom,acmd_vector,0,0,0,1.08735516592,-0.601468298289,0.0,0.0,0.0,-0.28654756392,0.958066017355,1e-05,0.05,0.05,1.0,0.0,0.0,1.0,0,0,,,0
1449616895328079117,214,0,/odom,acmd_vector,0,0,0,1.08735516592,-0.601468298289,0.0,0.0,0.0,-0.28654756392,0.958066017355,1e-05,0.05,0.05,1.0,0.0,0.0,1.0,0,0,,,0
1449616895438180475,215,0,/odom,acmd_vector,0,0,0,1.09216891884,-0.604630673957,0.0,0.0,0.0,-0.28654756392,0.958066017355,1e-05,0.05,0.05,1.0,0.0,0.0,1.0,0,0,,,0
1449616895516885661,216,0,/odom,acmd_vector,0,0,0,1.09459237065,-0.606186337981,0.0,0.0,0.0,-0.281481142997,0.959566759604,1e-05,0.05,0.05,1.0,0.0,0.0,1.0,0,0,,,0
1449616895635614126,217,0,/odom,acmd_vector,0,0,0,1.09459237065,-0.606186337981,0.0,0.0,0.0,-0.281481142997,0.959566759604,1e-05,0.05,0.05,1.0,0.0,0.0,1.0,0,0,,,0
1449616895688868164,218,0,/odom,acmd_vector,0,0,0,1.09459237065,-0.606186337981,0.0,0.0,0.0,-0.281481142997,0.959566759604,1e-05,0.05,0.05,1.0,0.0,0.0,1.0,0,0,,,0
1449616895791474846,219,0,/odom,acmd_vector,0,0,0,1.09459237065,-0.606186337981,0.0,0.0,0.0,-0.129968603352,0.991518109841,1e-05,0.05,0.05,1.0,0.0,0.0,1.0,0,0,,,0
1449616895856924075,220,0,/odom,acmd_vector,0,0,0,1.09459237065,-0.606186337981,0.0,0.0,0.0,-0.129968603352,0.991518109841,1e-05,0.05,0.05,1.0,0.0,0.0,1.0,0,0,,,0
1449616895891509794,221,0,/odom,acmd_vector,0,0,0,1.09459237065,-0.606186337981,0.0,0.0,0.0,-0.129968603352,0.991518109841,1e-05,0.05,0.05,1.0,0.0,0.0,1.0,0,0,,,0
1449616895948382923,222,0,/odom,acmd_vector,0,0,0,1.09459237065,-0.606186337981,0.0,0.0,0.0,-0.129968603352,0.991518109841,1e-05,0.05,0.05,1.0,0.0,0.0,1.0,0,0,,,0
1449616896035484594,223,0,/odom,acmd_vector,0,0,0,1.09459237065,-0.606186337981,0.0,0.0,0.0,-0.129968603352,0.991518109841,1e-05,0.05,0.05,1.0,0.0,0.0,1.0,0,0,,,0
1449616896070216732,224,0,/odom,acmd_vector,0,0,0,1.09459237065,-0.606186337981,0.0,0.0,0.0,-0.129968603352,0.991518109841,1e-05,0.05,0.05,1.0,0.0,0.0,1.0,0,0,,,0
1449616896094161352,225,0,/odom,acmd_vector,0,0,0,1.09459237065,-0.606186337981,0.0,0.0,0.0,-0.129968603352,0.991518109841,1e-05,0.05,0.05,1.0,0.0,0.0,1.0,0,0,,,0
1449616896131005125,226,0,/odom,acmd_vector,0,0,0,1.09459237065,-0.606186337981,0.0,0.0,0.0,-0.129968603352,0.991518109841,1e-05,0.05,0.05,1.0,0.0,0.0,1.0,0,0,,,0
1449616896223610521,227,0,/odom,acmd_vector,0,0,0,1.09459237065,-0.606186337981,0.0,0.0,0.0,-0.129968603352,0.991518109841,1e-05,0.05,0.05,1.0,0.0,0.0,1.0,0,0,,,0
1449616896254167297,228,0,/odom,acmd_vector,0,0,0,1.09459237065,-0.606186337981,0.0,0.0,0.0,-0.129968603352,0.991518109841,1e-05,0.05,0.05,1.0,0.0,0.0,1.0,0,0,,,0
1449616896284626139,229,0,/odom,acmd_vector,0,0,0,1.09459237065,-0.606186337981,0.0,0.0,0.0,-0.129968603352,0.991518109841,1e-05,0.05,0.05,1.0,0.0,0.0,1.0,0,0,,,0
1449616896313258598,230,0,/odom,acmd_vector,0,0,0,1.09459237065,-0.606186337981,0.0,0.0,0.0,-0.129968603352,0.991518109841,1e-05,0.05,0.05,1.0,0.0,0.0,1.0,0,0,,,0
1449616896382848209,231,0,/odom,acmd_vector,0,0,0,1.09459237065,-0.606186337981,0.0,0.0,0.0,-0.129968603352,0.991518109841,1e-05,0.05,0.05,1.0,0.0,0.0,1.0,0,0,,,0
1449616896415748322,232,0,/odom,acmd_vector,0,0,0,1.09459237065,-0.606186337981,0.0,0.0,0.0,-0.129968603352,0.991518109841,1e-05,0.05,0.05,1.0,0.0,0.0,1.0,0,0,,,0
1449616896447727276,233,0,/odom,acmd_vector,0,0,0,1.09459237065,-0.606186337981,0.0,0.0,0.0,-0.129968603352,0.991518109841,1e-05,0.05,0.05,1.0,0.0,0.0,1.0,0,0,,,0
1449616896483398961,234,0,/odom,acmd_vector,0,0,0,1.09459237065,-0.606186337981,0.0,0.0,0.0,-0.129968603352,0.991518109841,1e-05,0.05,0.05,1.0,0.0,0.0,1.0,0,0,,,0
1449616896516773593,235,0,/odom,acmd_vector,0,0,0,1.09459237065,-0.606186337981,0.0,0.0,0.0,-0.129968603352,0.991518109841,1e-05,0.05,0.05,1.0,0.0,0.0,1.0,0,0,,,0
1449616896545285450,236,0,/odom,acmd_vector,0,0,0,1.09459237065,-0.606186337981,0.0,0.0,0.0,-0.129968603352,0.991518109841,1e-05,0.05,0.05,1.0,0.0,0.0,1.0,0,0,,,0
1449616896591901605,237,0,/odom,acmd_vector,0,0,0,1.09459237065,-0.606186337981,0.0,0.0,0.0,-0.129968603352,0.991518109841,1e-05,0.05,0.05,1.0,0.0,0.0,1.0,0,0,,,0
1449616896653403811,238,0,/odom,acmd_vector,0,0,0,1.09459237065,-0.606186337981,0.0,0.0,0.0,-0.129968603352,0.991518109841,1e-05,0.05,0.05,1.0,0.0,0.0,1.0,0,0,,,0
1449616896741467512,239,0,/odom,acmd_vector,0,0,0,1.09459237065,-0.606186337981,0.0,0.0,0.0,-0.129968603352,0.991518109841,1e-05,0.05,0.05,1.0,0.0,0.0,1.0,0,0,,,0
1449616896781586974,240,0,/odom,acmd_vector,0,0,0,1.09703212717,-0.607716304455,0.0,0.0,0.0,-0.124727607489,0.992191021896,1e-05,0.05,0.05,1.0,0.0,0.0,1.0,0,0,,,0
1449616896947308812,241,0,/odom,acmd_vector,0,0,0,1.09703212717,-0.607716304455,0.0,0.0,0.0,-0.124727607489,0.992191021896,1e-05,0.05,0.05,1.0,0.0,0.0,1.0,0,0,,,0
1449616896961396167,242,0,/odom,acmd_vector,0,0,0,1.09703212717,-0.607716304455,0.0,0.0,0.0,-0.124727607489,0.992191021896,1e-05,0.05,0.05,1.0,0.0,0.0,1.0,0,0,,,0
1449616897070142569,243,0,/odom,acmd_vector,0,0,0,1.09457633843,-0.606212206402,0.0,0.0,0.0,-0.119483129125,0.992836231135,1e-05,0.05,0.05,1.0,0.0,0.0,1.0,0,0,,,0
1449616897132871213,244,0,/odom,acmd_vector,0,0,0,1.09457633843,-0.606212206402,0.0,0.0,0.0,-0.119483129125,0.992836231135,1e-05,0.05,0.05,1.0,0.0,0.0,1.0,0,0,,,0
1449616897178081382,245,0,/odom,acmd_vector,0,0,0,1.09704788512,-0.607690268053,0.0,0.0,0.0,-0.114235314691,0.993453719545,1e-05,0.05,0.05,1.0,0.0,0.0,1.0,0,0,,,0
1449616897252750034,246,0,/odom,acmd_vector,0,0,0,1.09456085651,-0.606238407879,0.0,0.0,0.0,-0.10898431071,0.994043469884,1e-05,0.05,0.05,1.0,0.0,0.0,1.0,0,0,,,0
1449616897274783594,247,0,/odom,acmd_vector,0,0,0,1.09456085651,-0.606238407879,0.0,0.0,0.0,-0.10898431071,0.994043469884,1e-05,0.05,0.05,1.0,0.0,0.0,1.0,0,0,,,0
1449616897326821465,248,0,/odom,acmd_vector,0,0,0,1.09456085651,-0.606238407879,0.0,0.0,0.0,-0.10898431071,0.994043469884,1e-05,0.05,0.05,1.0,0.0,0.0,1.0,0,0,,,0
1449616897366453147,249,0,/odom,acmd_vector,0,0,0,1.09205862374,-0.604812911329,0.0,0.0,0.0,-0.103730263795,0.994605465686,1e-05,0.05,0.05,1.0,0.0,0.0,1.0,0,0,,,0
1449616897425081976,250,0,/odom,acmd_vector,0,0,0,1.09205862374,-0.604812911329,0.0,0.0,0.0,-0.103730263795,0.994605465686,1e-05,0.05,0.05,1.0,0.0,0.0,1.0,0,0,,,0
1449616897548145732,251,0,/odom,acmd_vector,0,0,0,1.09205862374,-0.604812911329,0.0,0.0,0.0,-0.103730263795,0.994605465686,1e-05,0.05,0.05,1.0,0.0,0.0,1.0,0,0,,,0
1449616897657313698,252,0,/odom,acmd_vector,0,0,0,1.09457578122,-0.606211885052,0.0,0.0,0.0,-0.0984733206426,0.99513969126,1e-05,0.05,0.05,1.0,0.0,0.0,1.0,0,0,,,0
1449616897691747426,253,0,/odom,acmd_vector,0,0,0,1.09204398016,-0.604839590397,0.0,0.0,0.0,-0.24580408799,0.96931952953,1e-05,0.05,0.05,1.0,0.0,0.0,1.0,0,0,,,0
1449616897768414597,254,0,/odom,acmd_vector,0,0,0,1.09204398016,-0.604839590397,0.0,0.0,0.0,-0.0903311079761,0.99591178873,1e-05,0.05,0.05,1.0,0.0,0.0,1.0,0,0,,,0
1449616897801322280,255,0,/odom,acmd_vector,0,0,0,1.09459014205,-0.606185052722,0.0,0.0,0.0,-0.0850674492711,0.996375194931,1e-05,0.05,0.05,1.0,0.0,0.0,1.0,0,0,,,0
1449616897869560608,256,0,/odom,acmd_vector,0,0,0,1.09459014205,-0.606185052722,0.0,0.0,0.0,-0.0850674492711,0.996375194931,1e-05,0.05,0.05,1.0,0.0,0.0,1.0,0,0,,,0
1449616898015610126,257,0,/odom,acmd_vector,0,0,0,1.09459014205,-0.606185052722,0.0,0.0,0.0,-0.0850674492711,0.996375194931,1e-05,0.05,0.05,1.0,0.0,0.0,1.0,0,0,,,0
1449616898065695270,258,0,/odom,acmd_vector,0,0,0,1.09459014205,-0.606185052722,0.0,0.0,0.0,-0.0879513328172,0.996124772835,1e-05,0.05,0.05,1.0,0.0,0.0,1.0,0,0,,,0
1449616898153897647,259,0,/odom,acmd_vector,0,0,0,1.09459014205,-0.606185052722,0.0,0.0,0.0,-0.0879513328172,0.996124772835,1e-05,0.05,0.05,1.0,0.0,0.0,1.0,0,0,,,0
1449616898189244057,260,0,/odom,acmd_vector,0,0,0,1.09715038041,-0.607503532453,0.0,0.0,0.0,-0.0826865819268,0.996575601332,1e-05,0.05,0.05,1.0,0.0,0.0,1.0,0,0,,,0
1449616898227787963,261,0,/odom,acmd_vector,0,0,0,1.09715038041,-0.607503532453,0.0,0.0,0.0,-0.0826865819268,0.996575601332,1e-05,0.05,0.05,1.0,0.0,0.0,1.0,0,0,,,0
1449616898297244057,262,0,/odom,acmd_vector,0,0,0,1.09715038041,-0.607503532453,0.0,0.0,0.0,-0.0826865819268,0.996575601332,1e-05,0.05,0.05,1.0,0.0,0.0,1.0,0,0,,,0
1449616898348404819,263,0,/odom,acmd_vector,0,0,0,1.09715038041,-0.607503532453,0.0,0.0,0.0,-0.0826865819268,0.996575601332,1e-05,0.05,0.05,1.0,0.0,0.0,1.0,0,0,,,0
1449616898372757927,264,0,/odom,acmd_vector,0,0,0,1.09715038041,-0.607503532453,0.0,0.0,0.0,-0.0826865819268,0.996575601332,1e-05,0.05,0.05,1.0,0.0,0.0,1.0,0,0,,,0
1449616898436881016,265,0,/odom,acmd_vector,0,0,0,1.09715038041,-0.607503532453,0.0,0.0,0.0,-0.0826865819268,0.996575601332,1e-05,0.05,0.05,1.0,0.0,0.0,1.0,0,0,,,0
1449616898484735230,266,0,/odom,acmd_vector,0,0,0,1.09715038041,-0.607503532453,0.0,0.0,0.0,-0.0826865819268,0.996575601332,1e-05,0.05,0.05,1.0,0.0,0.0,1.0,0,0,,,0
1449616898546374686,267,0,/odom,acmd_vector,0,0,0,1.0997244093,-0.608794882338,0.0,0.0,0.0,-0.116442838542,0.993197394958,0.35201,0.05,0.05,1.0,0.0,0.0,1.0,0,0,,,0
1449616898622008967,268,0,/odom,acmd_vector,0,0,0,1.0997244093,-0.608794882338,0.0,0.0,0.0,-0.116442838542,0.993197394958,0.35201,0.05,0.05,1.0,0.0,0.0,1.0,0,0,,,0
1449616898699650430,269,0,/odom,acmd_vector,0,0,0,1.09713687735,-0.60753080652,0.0,0.0,0.0,-0.111193158162,0.993798813432,0.35201,0.05,0.05,1.0,0.0,0.0,1.0,0,0,,,0
1449616898749186512,270,0,/odom,acmd_vector,0,0,0,1.09973762337,-0.608767467096,0.0,0.0,0.0,-0.105940373175,0.994372484199,0.35201,0.05,0.05,1.0,0.0,0.0,1.0,0,0,,,0
1449616898831545365,271,0,/odom,acmd_vector,0,0,0,1.09973762337,-0.608767467096,0.0,0.0,0.0,-0.126849508164,0.991921973886,0.35201,0.05,0.05,1.0,0.0,0.0,1.0,0,0,,,0
1449616898870353535,272,0,/odom,acmd_vector,0,0,0,1.10235129301,-0.609976574316,0.0,0.0,0.0,-0.121606421828,0.992578399004,0.35201,0.05,0.05,1.0,0.0,0.0,1.0,0,0,,,0
1449616898968177630,273,0,/odom,acmd_vector,0,0,0,1.10235129301,-0.609976574316,0.0,0.0,0.0,-0.121606421828,0.992578399004,0.35201,0.05,0.05,1.0,0.0,0.0,1.0,0,0,,,0
1449616899012207436,274,0,/odom,acmd_vector,0,0,0,1.10497759437,-0.611157993145,0.0,0.0,0.0,-0.116359940136,0.993207110492,0.35201,0.05,0.05,1.0,0.0,0.0,1.0,0,0,,,0
1449616899098093713,275,0,/odom,acmd_vector,0,0,0,1.10497759437,-0.611157993145,0.0,0.0,0.0,-0.116359940136,0.993207110492,0.35201,0.05,0.05,1.0,0.0,0.0,1.0,0,0,,,0
1449616899150451019,276,0,/odom,acmd_vector,0,0,0,1.10761623412,-0.612311591637,0.0,0.0,0.0,-0.111110209577,0.993808090794,0.35201,0.05,0.05,1.0,0.0,0.0,1.0,0,0,,,0
1449616899244411806,277,0,/odom,acmd_vector,0,0,0,1.10761623412,-0.612311591637,0.0,0.0,0.0,-0.111110209577,0.993808090794,0.35201,0.05,0.05,1.0,0.0,0.0,1.0,0,0,,,0
1449616899336547942,278,0,/odom,acmd_vector,0,0,0,1.11556828454,-0.615688539596,0.0,0.0,0.0,-0.105857376726,0.994381323131,0.35201,0.05,0.05,1.0,0.0,0.0,1.0,0,0,,,0
1449616899468049859,279,0,/odom,acmd_vector,0,0,0,1.12090459717,-0.61785549099,0.0,0.0,0.0,-0.0953429908876,0.995444480666,0.35201,0.05,0.05,1.0,0.0,0.0,1.0,0,0,,,0
1449616899510849193,280,0,/odom,acmd_vector,0,0,0,1.12628551537,-0.619909177951,0.0,0.0,0.0,-0.0848179568945,0.99639646436,0.35201,0.05,0.05,1.0,0.0,0.0,1.0,0,0,,,0
1449616899606634576,281,0,/odom,acmd_vector,0,0,0,1.1316772854,-0.621934431744,0.0,0.0,0.0,-0.10577437954,0.994390155137,0.35201,0.05,0.05,1.0,0.0,0.0,1.0,0,0,,,0
1449616899666380907,282,0,/odom,acmd_vector,0,0,0,1.13982703475,-0.624800598454,0.0,0.0,0.0,-0.0899986047124,0.995941891452,0.35201,0.05,0.05,1.0,0.0,0.0,1.0,0,0,,,0
1449616899693725818,283,0,/odom,acmd_vector,0,0,0,1.14528029342,-0.626653921659,0.0,0.0,0.0,-0.0899986047124,0.995941891452,0.35201,0.05,0.05,1.0,0.0,0.0,1.0,0,0,,,0
1449616899747221691,284,0,/odom,acmd_vector,0,0,0,1.15077150316,-0.628391578883,0.0,0.0,0.0,-0.0794686125932,0.996837368688,0.35201,0.05,0.05,1.0,0.0,0.0,1.0,0,0,,,0
1449616899754108273,285,0,/odom,acmd_vector,0,0,0,1.15352613636,-0.629231343832,0.0,0.0,0.0,-0.074200214769,0.997243364545,0.35201,0.05,0.05,1.0,0.0,0.0,1.0,0,0,,,0
1449616899795086288,286,0,/odom,acmd_vector,0,0,0,1.15903540277,-0.630910873732,0.0,0.0,0.0,-0.074200214769,0.997243364545,0.35201,0.05,0.05,1.0,0.0,0.0,1.0,0,0,,,0
1449616899822057196,287,0,/odom,acmd_vector,0,0,0,1.15903540277,-0.630910873732,0.0,0.0,0.0,-0.074200214769,0.997243364545,0.35201,0.05,0.05,1.0,0.0,0.0,1.0,0,0,,,0
1449616899862443907,288,0,/odom,acmd_vector,0,0,0,1.16457893469,-0.632473592771,0.0,0.0,0.0,-0.0846516256881,0.996410609271,0.35201,0.05,0.05,1.0,0.0,0.0,1.0,0,0,,,0
1449616899896852879,289,0,/odom,acmd_vector,0,0,0,1.17291854012,-0.634729665597,0.0,0.0,0.0,-0.0793854105034,0.996843998126,0.35201,0.05,0.05,1.0,0.0,0.0,1.0,0,0,,,0
1449616899927444158,290,0,/odom,fullacmd_vector,0,0,0,1.17570620065,-0.63545227064,0.0,0.0,0.0,-0.0741169788107,0.99724955425,0.452,0.05,0.05,0.0,1.0,1.0,1.0,0,0,,,0
1449616899966067236,291,0,/odom,fullacmd_vector,0,0,0,1.18131082023,-0.636779326169,0.0,0.0,0.0,-0.0635740543554,0.997977123792,0.452,0.05,0.05,0.0,1.0,1.0,1.0,0,0,,,0
1449616900006213154,292,0,/odom,fullacmd_vector,0,0,0,1.18691543981,-0.638106381699,0.0,0.0,0.0,-0.0635740543554,0.997977123792,0.452,0.05,0.05,0.0,1.0,1.0,1.0,0,0,,,0
1449616900054137097,293,0,/odom,fullacmd_vector,0,0,0,1.19534293591,-0.640008010652,0.0,0.0,0.0,-0.0582998559602,0.998299116896,0.452,0.05,0.05,0.0,1.0,1.0,1.0,0,0,,,0
1449616900087762392,294,0,/odom,fullacmd_vector,0,0,0,1.19815864313,-0.64061216473,0.0,0.0,0.0,-0.0530240297836,0.998593236641,0.452,0.05,0.05,0.0,1.0,1.0,1.0,0,0,,,0
1449616900126997413,295,0,/odom,fullacmd_vector,0,0,0,1.2066244469,-0.642335257821,0.0,0.0,0.0,-0.0477467231311,0.998859474816,0.452,0.05,0.05,0.0,1.0,1.0,1.0,0,0,,,0
1449616900166881068,296,0,/odom,fullacmd_vector,0,0,0,1.2122913333,-0.643364449482,0.0,0.0,0.0,-0.0582165319382,0.998303979462,0.452,0.05,0.05,0.0,1.0,1.0,1.0,0,0,,,0
1449616900206820905,297,0,/odom,fullacmd_vector,0,0,0,1.21795821971,-0.644393641143,0.0,0.0,0.0,-0.0582165319382,0.998303979462,0.452,0.05,0.05,0.0,1.0,1.0,1.0,0,0,,,0
1449616900247931795,298,0,/odom,fullacmd_vector,0,0,0,1.22079694286,-0.64487826483,0.0,0.0,0.0,-0.052940681231,0.998597658855,0.452,0.05,0.05,0.0,1.0,1.0,1.0,0,0,,,0
1449616900286792070,299,0,/odom,fullacmd_vector,0,0,0,1.22932800106,-0.646242057086,0.0,0.0,0.0,-0.0476633523751,0.998863456555,0.452,0.05,0.05,0.0,1.0,1.0,1.0,0,0,,,0
1449616900326664833,300,0,/odom,fullacmd_vector,0,0,0,1.23787299522,-0.647515618226,0.0,0.0,0.0,-0.0423846927179,0.999101365139,0.452,0.05,0.05,0.0,1.0,1.0,1.0,0,0,,,0
1449616900366832893,301,0,/odom,fullacmd_vector,0,0,0,1.243569658,-0.648364658985,0.0,0.0,0.0,-0.0423846927179,0.999101365139,0.452,0.05,0.05,0.0,1.0,1.0,1.0,0,0,,,0
1449616900407308837,302,0,/odom,fullacmd_vector,0,0,0,1.2464223166,-0.648759054915,0.0,0.0,0.0,-0.0371048496442,0.999311377966,0.452,0.05,0.05,0.0,1.0,1.0,1.0,0,0,,,0
1449616900449976692,303,0,/odom,fullacmd_vector,0,0,0,1.25499231828,-0.649851737212,0.0,0.0,0.0,-0.0528573323095,0.998602074112,0.452,0.05,0.05,0.0,1.0,1.0,1.0,0,0,,,0
1449616900487332002,304,0,/odom,fullacmd_vector,0,0,0,1.26070565273,-0.650580192076,0.0,0.0,0.0,-0.0528573323095,0.998602074112,0.452,0.05,0.05,0.0,1.0,1.0,1.0,0,0,,,0
1449616900526484431,305,0,/odom,fullacmd_vector,0,0,0,1.2664331066,-0.651187735631,0.0,0.0,0.0,-0.0212596942411,0.999773987159,0.452,0.05,0.05,0.0,1.0,1.0,1.0,0,0,,,0
1449616900567552992,306,0,/odom,fullacmd_vector,0,0,0,1.27503343831,-0.652008209748,0.0,0.0,0.0,-0.0159765919468,0.99987236611,0.452,0.05,0.05,0.0,1.0,1.0,1.0,0,0,,,0
1449616900606820461,307,0,/odom,fullacmd_vector,0,0,0,1.28076699278,-0.652555192493,0.0,0.0,0.0,-0.0370214412068,0.999314471471,0.452,0.05,0.05,0.0,1.0,1.0,1.0,0,0,,,0
1449616900647338593,308,0,/odom,fullacmd_vector,0,0,0,1.28937551488,-0.653284733761,0.0,0.0,0.0,-0.0317405469526,0.999496141903,0.452,0.05,0.05,0.0,1.0,1.0,1.0,0,0,,,0
1449616900690276814,309,0,/odom,fullacmd_vector,0,0,0,1.29799126596,-0.653923260703,0.0,0.0,0.0,-0.0264587664753,0.999649905555,0.452,0.05,0.05,0.0,1.0,1.0,1.0,0,0,,,0
1449616900727264473,310,0,/odom,fullacmd_vector,0,0,0,1.30373510001,-0.654348945331,0.0,0.0,0.0,-0.0264587664753,0.999649905555,0.452,0.05,0.05,0.0,1.0,1.0,1.0,0,0,,,0
1449616900766231667,311,0,/odom,fullacmd_vector,0,0,0,1.31235711783,-0.654896386635,0.0,0.0,0.0,-0.0211762472469,0.999775758134,0.452,0.05,0.05,0.0,1.0,1.0,1.0,0,0,,,0
1449616900806187076,312,0,/odom,fullacmd_vector,0,0,0,1.32098443947,-0.655352681161,0.0,0.0,0.0,-0.0158931367596,0.999873696126,0.452,0.05,0.05,0.0,1.0,1.0,1.0,0,0,,,0
1449616900847320656,313,0,/odom,fullacmd_vector,0,0,0,1.32673598723,-0.655656877512,0.0,0.0,0.0,-0.0158931367596,0.999873696126,0.452,0.05,0.05,0.0,1.0,1.0,1.0,0,0,,,0
1449616900887976625,314,0,/odom,fullacmd_vector,0,0,0,1.33536764915,-0.6560219743,0.0,0.0,0.0,-0.0106095825225,0.999943716795,0.452,0.05,0.05,0.0,1.0,1.0,1.0,0,0,,,0
1449616900927355829,315,0,/odom,fullacmd_vector,0,0,0,1.34975937951,-0.656478404759,0.0,0.0,0.0,-0.00532573205691,0.999985818188,0.452,0.05,0.05,0.0,1.0,1.0,1.0,0,0,,,0
1449616900967657992,316,0,/odom,fullacmd_vector,0,0,0,1.35551607165,-0.656660976943,0.0,0.0,0.0,-0.0158514091245,0.999874358521,0.452,0.05,0.05,0.0,1.0,1.0,1.0,0,0,,,0
1449616901008923211,317,0,/odom,fullacmd_vector,0,0,0,1.36127276379,-0.656843549126,0.0,0.0,0.0,-0.0158514091245,0.999874358521,0.452,0.05,0.05,0.0,1.0,1.0,1.0,0,0,,,0
1449616901060988417,318,0,/odom,fullacmd_vector,0,0,0,1.36127276379,-0.656843549126,0.0,0.0,0.0,-0.0158514091245,0.999874358521,0.452,0.05,0.05,0.0,1.0,1.0,1.0,0,0,,,0
1449616901086742620,319,0,/odom,fullacmd_vector,0,0,0,1.38430982342,-0.657087014958,0.0,0.0,0.0,-0.0052839997518,0.999986039576,0.452,0.05,0.05,0.0,1.0,1.0,1.0,0,0,,,0
1449616901128592712,320,0,/odom,fullacmd_vector,0,0,0,1.39294920322,-0.657087014958,0.0,0.0,0.0,-1.33226762955e-15,1.0,0.452,0.05,0.05,0.0,1.0,1.0,1.0,0,0,,,0
1449616901166333950,321,0,/odom,fullacmd_vector,0,0,0,1.40446837628,-0.657087014958,0.0,0.0,0.0,-1.33226762955e-15,1.0,0.452,0.05,0.05,0.0,1.0,1.0,1.0,0,0,,,0
1449616901209450609,322,0,/odom,fullacmd_vector,0,0,0,1.41310727365,-0.656995715271,0.0,0.0,0.0,0.0052839997518,0.999986039576,0.452,0.05,0.05,0.0,1.0,1.0,1.0,0,0,,,0
1449616901247479073,323,0,/odom,fullacmd_vector,0,0,0,1.42750302384,-0.656691399976,0.0,0.0,0.0,4.17328923131e-05,0.999999999129,0.452,0.05,0.05,0.0,1.0,1.0,1.0,0,0,,,0
1449616901286989316,324,0,/odom,fullacmd_vector,0,0,0,1.43901962399,-0.65644794774,0.0,0.0,0.0,4.17328923134e-05,0.999999999129,0.452,0.05,0.05,0.0,1.0,1.0,1.0,0,0,,,0
1449616901338491935,325,0,/odom,fullacmd_vector,0,0,0,1.4476546622,-0.656174089464,0.0,0.0,0.0,-0.0157262260538,0.999876335261,0.452,0.05,0.05,0.0,1.0,1.0,1.0,0,0,,,0
1449616901366400254,326,0,/odom,fullacmd_vector,0,0,0,1.45916804649,-0.655808945097,0.0,0.0,0.0,-0.0157262260538,0.999876335261,0.452,0.05,0.05,0.0,1.0,1.0,1.0,0,0,,,0
1449616901406296627,327,0,/odom,fullacmd_vector,0,0,0,1.4735541497,-0.65520045045,0.0,0.0,0.0,-0.0104426602016,0.999945473937,0.452,0.05,0.05,0.0,1.0,1.0,1.0,0,0,,,0
1449616901448029766,328,0,/odom,fullacmd_vector,0,0,0,1.48506303227,-0.654713654733,0.0,0.0,0.0,-0.0104426602016,0.999945473937,0.452,0.05,0.05,0.0,1.0,1.0,1.0,0,0,,,0
1449616901488559180,329,0,/odom,fullacmd_vector,0,0,0,1.49657191484,-0.654226859015,0.0,0.0,0.0,-0.0314902747709,0.999504058318,0.452,0.05,0.05,0.0,1.0,1.0,1.0,0,0,,,0
1449616901526470468,330,0,/odom,fullacmd_vector,0,0,0,1.51095078423,-0.653466368138,0.0,0.0,0.0,-0.0262084559572,0.999656499422,0.452,0.05,0.05,0.0,1.0,1.0,1.0,0,0,,,0
1449616901567590322,331,0,/odom,fullacmd_vector,0,0,0,1.51957280205,-0.652918926834,0.0,0.0,0.0,-0.0209259053812,0.999781029268,0.452,0.05,0.05,0.0,1.0,1.0,1.0,0,0,,,0
1449616901606322263,332,0,/odom,fullacmd_vector,0,0,0,1.53106882581,-0.652189005095,0.0,0.0,0.0,-0.0209259053812,0.999781029268,0.452,0.05,0.05,0.0,1.0,1.0,1.0,0,0,,,0
1449616901655464846,333,0,/odom,fullacmd_vector,0,0,0,1.54542841094,-0.651124793525,0.0,0.0,0.0,-0.0156427705362,0.99987764438,0.452,0.05,0.05,0.0,1.0,1.0,1.0,0,0,,,0
1449616901687429406,334,0,/odom,fullacmd_vector,0,0,0,1.55691607904,-0.650273424269,0.0,0.0,0.0,-0.0156427705362,0.99987764438,0.452,0.05,0.05,0.0,1.0,1.0,1.0,0,0,,,0
1449616901728074218,335,0,/odom,fullacmd_vector,0,0,0,1.56840374714,-0.649422055012,0.0,0.0,0.0,-0.0156427705362,0.99987764438,0.452,0.05,0.05,0.0,1.0,1.0,1.0,0,0,,,0
1449616901766439885,336,0,/odom,fullacmd_vector,0,0,0,1.58275128398,-0.648206152899,0.0,0.0,0.0,-0.0103591989318,0.999946342059,0.4056,0.05,0.05,0.0,1.0,1.0,1.0,0,0,,,0
1449616901807259884,337,0,/odom,fullacmd_vector,0,0,0,1.59422931346,-0.647233431208,0.0,0.0,0.0,-0.0103591989318,0.999946342059,0.4056,0.05,0.05,0.0,1.0,1.0,1.0,0,0,,,0
1449616901849660507,338,0,/odom,fullacmd_vector,0,0,0,1.60570734293,-0.646260709518,0.0,0.0,0.0,-0.0103591989318,0.999946342059,0.4056,0.05,0.05,0.0,1.0,1.0,1.0,0,0,,,0
1449616901886429675,339,0,/odom,fullacmd_vector,0,0,0,1.62004122911,-0.644893252656,0.0,0.0,0.0,-0.0050753380897,0.999987120389,0.4056,0.05,0.05,0.0,1.0,1.0,1.0,0,0,,,0
1449616901926662725,340,0,/odom,fullacmd_vector,0,0,0,1.63150833806,-0.643799287167,0.0,0.0,0.0,-0.0261250187519,0.999658683449,0.4056,0.05,0.05,0.0,1.0,1.0,1.0,0,0,,,0
1449616901971954700,341,0,/odom,fullacmd_vector,0,0,0,1.642975447,-0.642705321678,0.0,0.0,0.0,-0.0261250187519,0.999658683449,0.4056,0.05,0.05,0.0,1.0,1.0,1.0,0,0,,,0
1449616902007093415,342,0,/odom,fullacmd_vector,0,0,0,1.66017611042,-0.641064373445,0.0,0.0,0.0,-0.0261250187519,0.999658683449,0.4056,0.05,0.05,0.0,1.0,1.0,1.0,0,0,,,0
1449616902076766147,343,0,/odom,acmd_vector,0,0,0,1.66876729123,-0.640153058112,0.0,0.0,0.0,-0.0208424578004,0.999782772383,0.30561,0.05,0.05,1.0,0.0,0.0,1.0,0,0,,,0
1449616902113997719,344,0,/odom,acmd_vector,0,0,0,1.69740456058,-0.637115340336,0.0,0.0,0.0,-0.0208424578004,0.999782772383,0.30561,0.05,0.05,1.0,0.0,0.0,1.0,0,0,,,0
1449616902173020522,345,0,/odom,acmd_vector,0,0,0,1.69740456058,-0.637115340336,0.0,0.0,0.0,-0.0418843427476,0.999122465883,0.25921,0.05,0.05,1.0,0.0,0.0,1.0,0,0,,,0
1449616902186851447,346,0,/odom,acmd_vector,0,0,0,1.71742705822,-0.634777212537,0.0,0.0,0.0,-0.0366043951626,0.999329834567,0.25921,0.05,0.05,1.0,0.0,0.0,1.0,0,0,,,0
1449616902223405389,347,0,/odom,acmd_vector,0,0,0,1.71742705822,-0.634777212537,0.0,0.0,0.0,-0.0366043951626,0.999329834567,0.25921,0.05,0.05,1.0,0.0,0.0,1.0,0,0,,,0
1449616902256079309,348,0,/odom,acmd_vector,0,0,0,1.7317456929,-0.633258353649,0.0,0.0,0.0,-0.0418843427476,0.999122465883,0.21281,0.05,0.05,1.0,0.0,0.0,1.0,0,0,,,0
1449616902334480931,349,0,/odom,acmd_vector,0,0,0,1.74032676332,-0.632256298878,0.0,0.0,0.0,-0.0366043951626,0.999329834567,0.21281,0.05,0.05,1.0,0.0,0.0,1.0,0,0,,,0
1449616902354015761,350,0,/odom,acmd_vector,0,0,0,1.76605152666,-0.629099088689,0.0,0.0,0.0,-0.0523572310682,0.998628419561,0.21281,0.05,0.05,1.0,0.0,0.0,1.0,0,0,,,0
1449616902376384728,351,0,/odom,acmd_vector,0,0,0,1.76605152666,-0.629099088689,0.0,0.0,0.0,-0.0523572310682,0.998628419561,0.21281,0.05,0.05,1.0,0.0,0.0,1.0,0,0,,,0
1449616902423186698,352,0,/odom,acmd_vector,0,0,0,1.77747819556,-0.62764217896,0.0,0.0,0.0,-0.0523572310682,0.998628419561,0.21281,0.05,0.05,1.0,0.0,0.0,1.0,0,0,,,0
1449616902453456682,353,0,/odom,acmd_vector,0,0,0,1.78319153001,-0.626913724096,0.0,0.0,0.0,-0.0523572310682,0.998628419561,0.21281,0.05,0.05,1.0,0.0,0.0,1.0,0,0,,,0
1449616902507257908,354,0,/odom,acmd_vector,0,0,0,1.79461819891,-0.625456814367,0.0,0.0,0.0,-0.0523572310682,0.998628419561,0.21281,0.05,0.05,1.0,0.0,0.0,1.0,0,0,,,0
1449616902532570195,355,0,/odom,acmd_vector,0,0,0,1.80317617472,-0.624273626578,0.0,0.0,0.0,-0.047079747818,0.998891133881,0.21281,0.05,0.05,1.0,0.0,0.0,1.0,0,0,,,0
1449616902598412360,356,0,/odom,acmd_vector,0,0,0,1.81458680913,-0.62269604286,0.0,0.0,0.0,-0.0680970486717,0.997678701768,0.21281,0.05,0.05,1.0,0.0,0.0,1.0,0,0,,,0
1449616902613092727,357,0,/odom,acmd_vector,0,0,0,1.8288371205,-0.620633689861,0.0,0.0,0.0,-0.0418009500612,0.999125958313,0.16641,0.05,0.05,1.0,0.0,0.0,1.0,0,0,,,0
1449616902714710508,358,0,/odom,acmd_vector,0,0,0,1.8288371205,-0.620633689861,0.0,0.0,0.0,-0.0628243639955,0.998024598539,0.16641,0.05,0.05,1.0,0.0,0.0,1.0,0,0,,,0
1449616902733463892,359,0,/odom,acmd_vector,0,0,0,1.84594009048,-0.618176940932,0.0,0.0,0.0,-0.0628243639955,0.998024598539,0.16641,0.05,0.05,1.0,0.0,0.0,1.0,0,0,,,0
1449616902755968769,360,0,/odom,acmd_vector,0,0,0,1.85449806629,-0.616993753143,0.0,0.0,0.0,-0.110031807744,0.993928066454,0.16641,0.05,0.05,1.0,0.0,0.0,1.0,0,0,,,0
1449616902807666658,361,0,/odom,acmd_vector,0,0,0,1.85449806629,-0.616993753143,0.0,0.0,0.0,-0.110031807744,0.993928066454,0.16641,0.05,0.05,1.0,0.0,0.0,1.0,0,0,,,0
1449616902834756778,362,0,/odom,acmd_vector,0,0,0,1.86304306045,-0.615720192003,0.0,0.0,0.0,-0.104778355997,0.994495598841,0.16641,0.05,0.05,1.0,0.0,0.0,1.0,0,0,,,0
