%time,field.goals0.navgoal_poses0.header.seq,field.goals0.navgoal_poses0.header.stamp,field.goals0.navgoal_poses0.header.frame_id,field.goals0.navgoal_poses0.pose.position.x,field.goals0.navgoal_poses0.pose.position.y,field.goals0.navgoal_poses0.pose.position.z,field.goals0.navgoal_poses0.pose.orientation.x,field.goals0.navgoal_poses0.pose.orientation.y,field.goals0.navgoal_poses0.pose.orientation.z,field.goals0.navgoal_poses0.pose.orientation.w,field.goals0.goal_pose.header.seq,field.goals0.goal_pose.header.stamp,field.goals0.goal_pose.header.frame_id,field.goals0.goal_pose.pose.position.x,field.goals0.goal_pose.pose.position.y,field.goals0.goal_pose.pose.position.z,field.goals0.goal_pose.pose.orientation.x,field.goals0.goal_pose.pose.orientation.y,field.goals0.goal_pose.pose.orientation.z,field.goals0.goal_pose.pose.orientation.w,field.goals0.goal_type,field.goals0.goal_source,field.goals0.score,field.goals0.t_eval
1449616883912015426,0,1449616883870603795,/odom,nan,nan,0.0,nan,nan,nan,nan,0,1449616883870603795,/odom,nan,nan,0.0,nan,nan,nan,nan,0,user,1.0,0
1449616883934872351,0,1449616883931851069,/odom,0.0,0.0,0.0,0.0,0.0,0.0,1.0,0,1449616883931851069,/odom,0.0,0.0,0.0,0.0,0.0,0.0,1.0,0,user,1.0,0
1449616884031470199,0,1449616884026511248,/odom,0.0,0.0,0.0,0.0,0.0,0.0,1.0,0,1449616884026511248,/odom,0.0,0.0,0.0,0.0,0.0,0.0,1.0,0,user,1.0,0
1449616884126836448,0,1449616884125012670,/odom,0.0,0.0,0.0,0.0,0.0,0.0,1.0,0,1449616884125012670,/odom,0.0,0.0,0.0,0.0,0.0,0.0,1.0,0,user,1.0,0
1449616884240123402,0,1449616884226011017,/odom,0.0,0.0,0.0,0.0,0.0,0.0,1.0,0,1449616884226011017,/odom,0.0,0.0,0.0,0.0,0.0,0.0,1.0,0,user,1.0,0
1449616884331316141,0,1449616884324947532,/odom,0.0,0.0,0.0,0.0,0.0,0.0,1.0,0,1449616884324947532,/odom,0.0,0.0,0.0,0.0,0.0,0.0,1.0,0,user,1.0,0
1449616884429775406,0,1449616884426572584,/odom,0.0,0.0,0.0,0.0,0.0,0.0,1.0,0,1449616884426572584,/odom,0.0,0.0,0.0,0.0,0.0,0.0,1.0,0,user,1.0,0
1449616884530048603,0,1449616884526902744,/odom,0.0,0.0,0.0,0.0,0.0,0.0,1.0,0,1449616884526902744,/odom,0.0,0.0,0.0,0.0,0.0,0.0,1.0,0,user,1.0,0
1449616884650195388,0,1449616884629958241,/odom,0.0,0.0,0.0,0.0,0.0,0.0,1.0,0,1449616884629958241,/odom,0.0,0.0,0.0,0.0,0.0,0.0,1.0,0,user,1.0,0
1449616884735901466,0,1449616884734603930,/odom,0.0,0.0,0.0,0.0,0.0,0.0,1.0,0,1449616884734603930,/odom,0.0,0.0,0.0,0.0,0.0,0.0,1.0,0,user,1.0,0
1449616884885382412,0,1449616884858852436,/odom,0.0,0.0,0.0,0.0,0.0,0.0,1.0,0,1449616884858852436,/odom,0.0,0.0,0.0,0.0,0.0,0.0,1.0,0,user,1.0,0
1449616884935580081,0,1449616884932115521,/odom,0.0,0.0,0.0,0.0,0.0,0.0,1.0,0,1449616884932115521,/odom,0.0,0.0,0.0,0.0,0.0,0.0,1.0,0,user,1.0,0
1449616885028739390,0,1449616885026088477,/odom,0.0,0.0,0.0,0.0,0.0,0.0,1.0,0,1449616885026088477,/odom,0.0,0.0,0.0,0.0,0.0,0.0,1.0,0,user,1.0,0
1449616885126938588,0,1449616885124476196,/odom,0.0,0.0,0.0,0.0,0.0,0.0,1.0,0,1449616885124476196,/odom,0.0,0.0,0.0,0.0,0.0,0.0,1.0,0,user,1.0,0
1449616885264512199,0,1449616885242084208,/odom,0.0,0.0,0.0,0.0,0.0,0.0,1.0,0,1449616885242084208,/odom,0.0,0.0,0.0,0.0,0.0,0.0,1.0,0,user,1.0,0
1449616885356128269,0,1449616885348371222,/odom,0.0,0.0,0.0,0.0,0.0,0.0,1.0,0,1449616885348371222,/odom,0.0,0.0,0.0,0.0,0.0,0.0,1.0,0,user,1.0,0
1449616885444996447,0,1449616885428813754,/odom,0.0,0.0,0.0,0.0,0.0,0.0,1.0,0,1449616885428813754,/odom,0.0,0.0,0.0,0.0,0.0,0.0,1.0,0,user,1.0,0
1449616885558063547,0,1449616885555165717,/odom,0.0,0.0,0.0,0.0,0.0,0.0,1.0,0,1449616885555165717,/odom,0.0,0.0,0.0,0.0,0.0,0.0,1.0,0,user,1.0,0
1449616885672855133,0,1449616885649202128,/odom,0.0,0.0,0.0,0.0,0.0,0.0,1.0,0,1449616885649202128,/odom,0.0,0.0,0.0,0.0,0.0,0.0,1.0,0,user,1.0,0
1449616885743699292,0,1449616885740739898,/odom,0.0,0.0,0.0,0.0,0.0,0.0,1.0,0,1449616885740739898,/odom,0.0,0.0,0.0,0.0,0.0,0.0,1.0,0,user,1.0,0
1449616885869849410,0,1449616885828743460,/odom,0.0,0.0,0.0,0.0,0.0,0.0,1.0,0,1449616885828743460,/odom,0.0,0.0,0.0,0.0,0.0,0.0,1.0,0,user,1.0,0
1449616885935638869,0,1449616885928253793,/odom,0.0,0.0,0.0,0.0,0.0,0.0,1.0,0,1449616885928253793,/odom,0.0,0.0,0.0,0.0,0.0,0.0,1.0,0,user,1.0,0
1449616886046033972,0,1449616886027085689,/odom,0.0,0.0,0.0,0.0,0.0,0.0,1.0,0,1449616886027085689,/odom,0.0,0.0,0.0,0.0,0.0,0.0,1.0,0,user,1.0,0
1449616886128213724,0,1449616886125344272,/odom,0.0,0.0,0.0,0.0,0.0,0.0,1.0,0,1449616886125344272,/odom,0.0,0.0,0.0,0.0,0.0,0.0,1.0,0,user,1.0,0
1449616886235157719,0,1449616886027054150,/odom,1.54223055346,-0.981211995422,0.0,0.0,0.0,0.14881679034,0.988864784949,0,1449616886027054150,/odom,3.45364480512,-0.392573261918,0.0,0.0,0.0,0.14881679034,0.988864784949,0,1449616886027054150,/odom,2.49793767929,-0.68689262867,0.637788891792,0.0,0.0,0.14881679034,0.988864784949,1,doorway_assistance,1.0,1449616886027054150,0,0
1449616886432958116,0,1449616886212373388,/odom,1.56224576992,-0.99346773034,0.0,0.0,0.0,0.159353217994,0.987221632621,0,1449616886212373388,/odom,3.46067197758,-0.364199954215,0.0,0.0,0.0,0.159353217994,0.987221632621,0,1449616886212373388,/odom,2.51145887375,-0.678833842278,0.637686610222,0.0,0.0,0.159353217994,0.987221632621,1,doorway_assistance,1.0,1449616886212373388,0,0
1449616886528868531,0,1449616886342729093,/odom,2.09430667588,-0.861230224708,0.0,0.0,0.0,0.185292195088,0.982683470116,0,1449616886342729093,/odom,3.4913070832,-0.314979492944,0.0,0.0,0.0,0.185292195088,0.982683470116,0,1449616886342729093,/odom,2.55997347832,-0.679146647453,0.668671905994,0.0,0.0,0.185292195088,0.982683470116,1,doorway_assistance,1.0,1449616886342729093,0,0
1449616886646436287,0,1449616886431610457,/odom,1.56456689232,-0.991365315265,0.0,0.0,0.0,0.15852386541,0.98735514588,0,1449616886431610457,/odom,3.4640476287,-0.365287898236,0.0,0.0,0.0,0.15852386541,0.98735514588,0,1449616886431610457,/odom,2.51430726051,-0.67832660675,0.658351480961,0.0,0.0,0.15852386541,0.98735514588,1,doorway_assistance,1.0,1449616886431610457,0,0
1449616886726267628,0,1449616886500076236,/odom,1.52890670998,-0.986825945439,0.0,0.0,0.0,0.150919404971,0.988546070349,0,1449616886500076236,/odom,3.43780004279,-0.390062806545,0.0,0.0,0.0,0.150919404971,0.988546070349,0,1449616886500076236,/odom,2.48335337639,-0.688444375992,0.658785462379,0.0,0.0,0.150919404971,0.988546070349,1,doorway_assistance,1.0,1449616886500076236,0,0
1449616886829274468,0,1449616886500076236,/odom,1.52890670998,-0.986825945439,0.0,0.0,0.0,0.150919404971,0.988546070349,0,1449616886500076236,/odom,3.43780004279,-0.390062806545,0.0,0.0,0.0,0.150919404971,0.988546070349,0,1449616886500076236,/odom,2.48335337639,-0.688444375992,0.658785462379,0.0,0.0,0.150919404971,0.988546070349,1,doorway_assistance,1.0,1449616886500076236,0,0
1449616886989877826,0,1449616886500076236,/odom,1.52890670998,-0.986825945439,0.0,0.0,0.0,0.150919404971,0.988546070349,0,1449616886500076236,/odom,3.43780004279,-0.390062806545,0.0,0.0,0.0,0.150919404971,0.988546070349,0,1449616886500076236,/odom,2.48335337639,-0.688444375992,0.658785462379,0.0,0.0,0.150919404971,0.988546070349,1,doorway_assistance,1.0,1449616886500076236,0,0
1449616887027450233,0,1449616886701817225,/odom,1.56042160983,-0.998805640934,0.0,0.0,0.0,0.155691521999,0.987805724815,0,1449616886701817225,/odom,3.46346220975,-0.38363373399,0.0,0.0,0.0,0.155691521999,0.987805724815,0,1449616886701817225,/odom,2.51194190979,-0.691219687462,0.648433566093,0.0,0.0,0.155691521999,0.987805724815,1,doorway_assistance,1.0,1449616886701817225,0,0
1449616887125878691,0,1449616886701817225,/odom,1.56042160983,-0.998805640934,0.0,0.0,0.0,0.155691521999,0.987805724815,0,1449616886701817225,/odom,3.46346220975,-0.38363373399,0.0,0.0,0.0,0.155691521999,0.987805724815,0,1449616886701817225,/odom,2.51194190979,-0.691219687462,0.648433566093,0.0,0.0,0.155691521999,0.987805724815,1,doorway_assistance,1.0,1449616886701817225,0,0
1449616887230408443,0,1449616886974553226,/odom,2.17573126308,-0.895046953642,0.0,0.0,0.0,0.225548594445,0.974231918767,0,1449616886974553226,/odom,3.52311475771,-0.23583703382,0.0,0.0,0.0,0.225548594445,0.974231918767,0,1449616886974553226,/odom,2.62485909462,-0.675310313702,0.658465921879,0.0,0.0,0.225548594445,0.974231918767,1,doorway_assistance,1.0,1449616886974553226,0,0
1449616887338757917,0,1449616887103979346,/odom,2.08182385417,-0.846716423563,0.0,0.0,0.0,0.17417418511,0.984714858851,0,1449616887103979346,/odom,3.4908139139,-0.332180699245,0.0,0.0,0.0,0.17417418511,0.984714858851,0,1449616887103979346,/odom,2.55148720741,-0.675204515457,0.677756786346,0.0,0.0,0.17417418511,0.984714858851,1,doorway_assistance,1.0,1449616887103979346,0,0
1449616887454955892,0,1449616887103979346,/odom,2.08182385417,-0.846716423563,0.0,0.0,0.0,0.17417418511,0.984714858851,0,1449616887103979346,/odom,3.4908139139,-0.332180699245,0.0,0.0,0.0,0.17417418511,0.984714858851,0,1449616887103979346,/odom,2.55148720741,-0.675204515457,0.677756786346,0.0,0.0,0.17417418511,0.984714858851,1,doorway_assistance,1.0,1449616887103979346,0,0
1449616887528176875,0,1449616887232834814,/odom,1.51757280703,-0.971915300381,0.0,0.0,0.0,0.143894212284,0.9895930758,0,1449616887232834814,/odom,2.95545617404,-0.54472515201,0.0,0.0,0.0,0.143894212284,0.9895930758,0,1449616887232834814,/odom,2.47616171837,-0.687121868134,0.64798104763,0.0,0.0,0.143894212284,0.9895930758,1,doorway_assistance,1.0,1449616887232834814,0,0
1449616887645201358,0,1449616887232834814,/odom,1.51757280703,-0.971915300381,0.0,0.0,0.0,0.143894212284,0.9895930758,0,1449616887232834814,/odom,2.95545617404,-0.54472515201,0.0,0.0,0.0,0.143894212284,0.9895930758,0,1449616887232834814,/odom,2.47616171837,-0.687121868134,0.64798104763,0.0,0.0,0.143894212284,0.9895930758,1,doorway_assistance,1.0,1449616887232834814,0,0
1449616887736940987,0,1449616887449613206,/odom,2.132111523,-0.853082068291,0.0,0.0,0.0,0.206694643501,0.97840550098,0,1449616887449613206,/odom,3.50394349605,-0.246388539618,0.0,0.0,0.0,0.206694643501,0.97840550098,0,1449616887449613206,/odom,2.58938884735,-0.650850892067,0.647954702377,0.0,0.0,0.206694643501,0.97840550098,1,doorway_assistance,1.0,1449616887449613206,0,0
1449616887834637677,0,1449616887449613206,/odom,2.132111523,-0.853082068291,0.0,0.0,0.0,0.206694643501,0.97840550098,0,1449616887449613206,/odom,3.50394349605,-0.246388539618,0.0,0.0,0.0,0.206694643501,0.97840550098,0,1449616887449613206,/odom,2.58938884735,-0.650850892067,0.647954702377,0.0,0.0,0.206694643501,0.97840550098,1,doorway_assistance,1.0,1449616887449613206,0,0
1449616887934400689,0,1449616887651282801,/odom,1.55782678556,-1.00234757818,0.0,0.0,0.0,0.163057836243,0.986616512146,0,1449616887651282801,/odom,3.45147535372,-0.358845363488,0.0,0.0,0.0,0.163057836243,0.986616512146,0,1449616887651282801,/odom,2.50465106964,-0.680596470833,0.658081948757,0.0,0.0,0.163057836243,0.986616512146,1,doorway_assistance,1.0,1449616887651282801,0,0
1449616888026352074,0,1449616888024239119,/odom,0.0730010414124,-0.00203404708331,0.0,0.0,0.0,-0.0476903292588,0.998862168918,0,1449616888024239119,/odom,0.0730010414124,-0.00203404708331,0.0,0.0,0.0,-0.0476903292588,0.998862168918,0,user,1.0,0
1449616888152228022,0,1449616887922922125,/odom,1.51321028462,-0.975132445202,0.0,0.0,0.0,0.140887946915,0.990025548364,0,1449616887922922125,/odom,3.43381263027,-0.417201777592,0.0,0.0,0.0,0.140887946915,0.990025548364,0,1449616887922922125,/odom,2.47351145744,-0.696167111397,0.637995123863,0.0,0.0,0.140887946915,0.990025548364,1,doorway_assistance,1.0,1449616887922922125,0,0
1449616888251628643,0,1449616888029982294,/odom,2.02852030783,-0.859818290507,0.0,0.0,0.0,0.163083628537,0.986612249115,0,1449616888029982294,/odom,3.44873149814,-0.377117373874,0.0,0.0,0.0,0.163083628537,0.986612249115,0,1449616888029982294,/odom,2.50192403793,-0.698917984962,0.638658285141,0.0,0.0,0.163083628537,0.986612249115,1,doorway_assistance,1.0,1449616888029982294,0,0
1449616888334967286,0,1449616888029982294,/odom,2.02852030783,-0.859818290507,0.0,0.0,0.0,0.163083628537,0.986612249115,0,1449616888029982294,/odom,3.44873149814,-0.377117373874,0.0,0.0,0.0,0.163083628537,0.986612249115,0,1449616888029982294,/odom,2.50192403793,-0.698917984962,0.638658285141,0.0,0.0,0.163083628537,0.986612249115,1,doorway_assistance,1.0,1449616888029982294,0,0
1449616888450878737,0,1449616888197372671,/odom,2.14333065066,-0.905457599112,0.0,0.0,0.0,0.222181018563,0.975005433313,0,1449616888197372671,/odom,3.49523743563,-0.255574498278,0.0,0.0,0.0,0.222181018563,0.975005433313,0,1449616888197372671,/odom,2.59396624565,-0.688829898834,0.688707172871,0.0,0.0,0.222181018563,0.975005433313,1,doorway_assistance,1.0,1449616888197372671,0,0
1449616888526654161,0,1449616888197372671,/odom,2.14333065066,-0.905457599112,0.0,0.0,0.0,0.222181018563,0.975005433313,0,1449616888197372671,/odom,3.49523743563,-0.255574498278,0.0,0.0,0.0,0.222181018563,0.975005433313,0,1449616888197372671,/odom,2.59396624565,-0.688829898834,0.688707172871,0.0,0.0,0.222181018563,0.975005433313,1,doorway_assistance,1.0,1449616888197372671,0,0
1449616888636537647,0,1449616888318900676,/odom,2.03457839435,-0.868997536018,0.0,0.0,0.0,0.1629252648,0.986638413042,0,1449616888318900676,/odom,3.45494446862,-0.386752561899,0.0,0.0,0.0,0.1629252648,0.986638413042,0,1449616888318900676,/odom,2.50803375244,-0.708249211311,0.637980639935,0.0,0.0,0.1629252648,0.986638413042,1,doorway_assistance,1.0,1449616888318900676,0,0
1449616888728638222,0,1449616888318900676,/odom,2.03457839435,-0.868997536018,0.0,0.0,0.0,0.1629252648,0.986638413042,0,1449616888318900676,/odom,3.45494446862,-0.386752561899,0.0,0.0,0.0,0.1629252648,0.986638413042,0,1449616888318900676,/odom,2.50803375244,-0.708249211311,0.637980639935,0.0,0.0,0.1629252648,0.986638413042,1,doorway_assistance,0.899999976158,1449616888318900676,0,0
1449616888871374874,0,1449616888606526862,/odom,2.17817749756,-0.893534295972,0.0,0.0,0.0,0.234669609931,0.972075189569,0,1449616888606526862,/odom,3.51296802009,-0.209184779294,0.0,0.0,0.0,0.234669609931,0.972075189569,0,1449616888606526862,/odom,2.62310767174,-0.665417790413,0.718577742577,0.0,0.0,0.234669609931,0.972075189569,1,doorway_assistance,1.0,1449616888606526862,0,0
1449616888937167281,0,1449616888708423768,/odom,2.10202718575,-0.915939639737,0.0,0.0,0.0,0.199575685358,0.979882414279,0,1449616888708423768,/odom,3.48253582319,-0.329257526536,0.0,0.0,0.0,0.199575685358,0.979882414279,0,1449616888708423768,/odom,2.56219673157,-0.720378935337,0.649333536625,0.0,0.0,0.199575685358,0.979882414279,1,doorway_assistance,1.0,1449616888708423768,0,0
1449616889041878654,0,1449616888708423768,/odom,2.10202718575,-0.915939639737,0.0,0.0,0.0,0.199575685358,0.979882414279,0,1449616888708423768,/odom,3.48253582319,-0.329257526536,0.0,0.0,0.0,0.199575685358,0.979882414279,0,1449616888708423768,/odom,2.56219673157,-0.720378935337,0.649333536625,0.0,0.0,0.199575685358,0.979882414279,1,doorway_assistance,1.0,1449616888708423768,0,0
1449616889138504614,0,1449616888873433475,/odom,2.10533331605,-0.89647886273,0.0,0.0,0.0,0.206948288241,0.978351882501,0,1449616888873433475,/odom,3.47685053403,-0.289074120586,0.0,0.0,0.0,0.206948288241,0.978351882501,0,1449616888873433475,/odom,2.56250572205,-0.694010615349,0.708400309086,0.0,0.0,0.206948288241,0.978351882501,1,doorway_assistance,1.0,1449616888873433475,0,0
1449616889230661507,0,1449616889035278762,/odom,1.59397321857,-1.05153468773,0.0,0.0,0.0,0.175377359387,0.984501285837,0,1449616889035278762,/odom,3.47094434582,-0.360897744441,0.0,0.0,0.0,0.175377359387,0.984501285837,0,1449616889035278762,/odom,2.5324587822,-0.706216216087,0.658965289593,0.0,0.0,0.175377359387,0.984501285837,1,doorway_assistance,1.0,1449616889035278762,0,0
1449616889327897349,0,1449616889105497195,/odom,2.12482939789,-0.917704353653,0.0,0.0,0.0,0.225430755958,0.97425919255,0,1449616889105497195,/odom,3.4723723207,-0.258820394828,0.0,0.0,0.0,0.225430755958,0.97425919255,0,1449616889105497195,/odom,2.57401037216,-0.698076367378,0.668736994267,0.0,0.0,0.225430755958,0.97425919255,1,doorway_assistance,1.0,1449616889105497195,0,0
1449616889446737058,0,1449616889226724969,/odom,2.10818779996,-0.863442553008,0.0,0.0,0.0,0.189924787711,0.981798642805,0,1449616889226724969,/odom,3.499973525,-0.304038856578,0.0,0.0,0.0,0.189924787711,0.981798642805,0,1449616889226724969,/odom,2.57211637497,-0.676974654198,0.689070940018,0.0,0.0,0.189924787711,0.981798642805,1,doorway_assistance,1.0,1449616889226724969,0,0
1449616889537939976,0,1449616889334475017,/odom,2.13198023221,-0.899545072438,0.0,0.0,0.0,0.218073324665,0.97593238755,0,1449616889334475017,/odom,3.48931230742,-0.261070611235,0.0,0.0,0.0,0.218073324665,0.97593238755,0,1449616889334475017,/odom,2.58442425728,-0.686720252037,0.688027381897,0.0,0.0,0.218073324665,0.97593238755,1,doorway_assistance,1.0,1449616889334475017,0,0
1449616889668159326,0,1449616889334475017,/odom,2.13198023221,-0.899545072438,0.0,0.0,0.0,0.218073324665,0.97593238755,0,1449616889334475017,/odom,3.48931230742,-0.261070611235,0.0,0.0,0.0,0.218073324665,0.97593238755,0,1449616889334475017,/odom,2.58442425728,-0.686720252037,0.688027381897,0.0,0.0,0.218073324665,0.97593238755,1,doorway_assistance,1.0,1449616889334475017,0,0
1449616889731462020,0,1449616889433134363,/odom,2.15311300006,-0.904594857729,0.0,0.0,0.0,0.214185486482,0.976793006415,0,1449616889433134363,/odom,3.5154867322,-0.276950201916,0.0,0.0,0.0,0.214185486482,0.976793006415,0,1449616889433134363,/odom,2.60723757744,-0.695379972458,0.657509863377,0.0,0.0,0.214185486482,0.976793006415,1,doorway_assistance,1.0,1449616889433134363,0,0
1449616889860374024,0,1449616889433134363,/odom,2.15311300006,-0.904594857729,0.0,0.0,0.0,0.214185486482,0.976793006415,0,1449616889433134363,/odom,3.5154867322,-0.276950201916,0.0,0.0,0.0,0.214185486482,0.976793006415,0,1449616889433134363,/odom,2.60723757744,-0.695379972458,0.657509863377,0.0,0.0,0.214185486482,0.976793006415,1,doorway_assistance,1.0,1449616889433134363,0,0
1449616889934706700,0,1449616889683540471,/odom,2.11621086613,-0.937675156781,0.0,0.0,0.0,0.203529952329,0.979068720012,0,1449616889683540471,/odom,3.49193754165,-0.339865727049,0.0,0.0,0.0,0.203529952329,0.979068720012,0,1449616889683540471,/odom,2.57478642464,-0.73840534687,0.667676746845,0.0,0.0,0.203529952329,0.979068720012,1,doorway_assistance,1.0,1449616889683540471,0,0
1449616890042951398,0,1449616889683540471,/odom,2.11621086613,-0.937675156781,0.0,0.0,0.0,0.203529952329,0.979068720012,0,1449616889683540471,/odom,3.49193754165,-0.339865727049,0.0,0.0,0.0,0.203529952329,0.979068720012,0,1449616889683540471,/odom,2.57478642464,-0.73840534687,0.667676746845,0.0,0.0,0.203529952329,0.979068720012,1,doorway_assistance,1.0,1449616889683540471,0,0
1449616890132267772,0,1449616889887709202,/odom,2.12868770994,-0.922937488066,0.0,0.0,0.0,0.20771267239,0.978189882246,0,1449616889887709202,/odom,3.49925404713,-0.313390184429,0.0,0.0,0.0,0.20771267239,0.978189882246,0,1449616889887709202,/odom,2.58554315567,-0.71975505352,0.668381333351,0.0,0.0,0.20771267239,0.978189882246,1,doorway_assistance,1.0,1449616889887709202,0,0
1449616890247951241,0,1449616889887709202,/odom,2.12868770994,-0.922937488066,0.0,0.0,0.0,0.20771267239,0.978189882246,0,1449616889887709202,/odom,3.49925404713,-0.313390184429,0.0,0.0,0.0,0.20771267239,0.978189882246,0,1449616889887709202,/odom,2.58554315567,-0.71975505352,0.668381333351,0.0,0.0,0.20771267239,0.978189882246,1,doorway_assistance,1.0,1449616889887709202,0,0
1449616890350820814,0,1449616890058665678,/odom,2.13799778723,-0.922890227893,0.0,0.0,0.0,0.213549050223,0.976932343179,0,1449616890058665678,/odom,3.50118819668,-0.297021305841,0.0,0.0,0.0,0.213549050223,0.976932343179,0,1449616890058665678,/odom,2.59239459038,-0.714267253876,0.697377562523,0.0,0.0,0.213549050223,0.976932343179,1,doorway_assistance,1.0,1449616890058665678,0,0
1449616890453738539,0,1449616890058665678,/odom,2.13799778723,-0.922890227893,0.0,0.0,0.0,0.213549050223,0.976932343179,0,1449616890058665678,/odom,3.50118819668,-0.297021305841,0.0,0.0,0.0,0.213549050223,0.976932343179,0,1449616890058665678,/odom,2.59239459038,-0.714267253876,0.697377562523,0.0,0.0,0.213549050223,0.976932343179,1,doorway_assistance,1.0,1449616890058665678,0,0
1449616890559924313,0,1449616890272745781,/odom,2.19219311159,-0.991469902349,0.0,0.0,0.0,0.246646484024,0.96910552156,0,1449616890272745781,/odom,3.50968964734,-0.274390493726,0.0,0.0,0.0,0.246646484024,0.96910552156,0,1449616890272745781,/odom,2.6313586235,-0.752443432808,0.719030678272,0.0,0.0,0.246646484024,0.96910552156,1,doorway_assistance,1.0,1449616890272745781,0,0
1449616890691839795,0,1449616890272745781,/odom,2.19219311159,-0.991469902349,0.0,0.0,0.0,0.246646484024,0.96910552156,0,1449616890272745781,/odom,3.50968964734,-0.274390493726,0.0,0.0,0.0,0.246646484024,0.96910552156,0,1449616890272745781,/odom,2.6313586235,-0.752443432808,0.719030678272,0.0,0.0,0.246646484024,0.96910552156,1,doorway_assistance,1.0,1449616890272745781,0,0
1449616890757337815,0,1449616890272745781,/odom,2.19219311159,-0.991469902349,0.0,0.0,0.0,0.246646484024,0.96910552156,0,1449616890272745781,/odom,3.50968964734,-0.274390493726,0.0,0.0,0.0,0.246646484024,0.96910552156,0,1449616890272745781,/odom,2.6313586235,-0.752443432808,0.719030678272,0.0,0.0,0.246646484024,0.96910552156,1,doorway_assistance,0.899999976158,1449616890272745781,0,0
1449616890875044649,0,1449616890272745781,/odom,2.19219311159,-0.991469902349,0.0,0.0,0.0,0.246646484024,0.96910552156,0,1449616890272745781,/odom,3.50968964734,-0.274390493726,0.0,0.0,0.0,0.246646484024,0.96910552156,0,1449616890272745781,/odom,2.6313586235,-0.752443432808,0.719030678272,0.0,0.0,0.246646484024,0.96910552156,1,doorway_assistance,0.899999976158,1449616890272745781,0,0
1449616890952584514,0,1449616890720179316,/odom,2.14230842294,-0.944792473204,0.0,0.0,0.0,0.205742499205,0.978606163899,0,1449616890720179316,/odom,3.515318495,-0.340769839511,0.0,0.0,0.0,0.205742499205,0.978606163899,0,1449616890720179316,/odom,2.59997844696,-0.743451595306,0.678522527218,0.0,0.0,0.205742499205,0.978606163899,1,doorway_assistance,1.0,1449616890720179316,0,0
1449616891048011169,0,1449616890720179316,/odom,2.14230842294,-0.944792473204,0.0,0.0,0.0,0.205742499205,0.978606163899,0,1449616890720179316,/odom,3.515318495,-0.340769839511,0.0,0.0,0.0,0.205742499205,0.978606163899,0,1449616890720179316,/odom,2.59997844696,-0.743451595306,0.678522527218,0.0,0.0,0.205742499205,0.978606163899,1,doorway_assistance,1.0,1449616890720179316,0,0
1449616891153931869,0,1449616890720179316,/odom,2.14230842294,-0.944792473204,0.0,0.0,0.0,0.205742499205,0.978606163899,0,1449616890720179316,/odom,3.515318495,-0.340769839511,0.0,0.0,0.0,0.205742499205,0.978606163899,0,1449616890720179316,/odom,2.59997844696,-0.743451595306,0.678522527218,0.0,0.0,0.205742499205,0.978606163899,1,doorway_assistance,1.0,1449616890720179316,0,0
1449616891246098183,0,1449616890884296295,/odom,2.1161007782,-0.958348253783,0.0,0.0,0.0,0.210230431149,0.977651863303,0,1449616890884296295,/odom,3.48351027565,-0.341751735576,0.0,0.0,0.0,0.210230431149,0.977651863303,0,1449616890884296295,/odom,2.57190394402,-0.752816081047,0.697958290577,0.0,0.0,0.210230431149,0.977651863303,1,doorway_assistance,1.0,1449616890884296295,0,0
1449616891329076247,0,1449616890884296295,/odom,2.1161007782,-0.958348253783,0.0,0.0,0.0,0.210230431149,0.977651863303,0,1449616890884296295,/odom,3.48351027565,-0.341751735576,0.0,0.0,0.0,0.210230431149,0.977651863303,0,1449616890884296295,/odom,2.57190394402,-0.752816081047,0.697958290577,0.0,0.0,0.210230431149,0.977651863303,1,doorway_assistance,1.0,1449616890884296295,0,0
1449616891439532368,0,1449616890884296295,/odom,2.1161007782,-0.958348253783,0.0,0.0,0.0,0.210230431149,0.977651863303,0,1449616890884296295,/odom,3.48351027565,-0.341751735576,0.0,0.0,0.0,0.210230431149,0.977651863303,0,1449616890884296295,/odom,2.57190394402,-0.752816081047,0.697958290577,0.0,0.0,0.210230431149,0.977651863303,1,doorway_assistance,0.899999976158,1449616890884296295,0,0
1449616891532542546,0,1449616890884296295,/odom,2.1161007782,-0.958348253783,0.0,0.0,0.0,0.210230431149,0.977651863303,0,1449616890884296295,/odom,3.48351027565,-0.341751735576,0.0,0.0,0.0,0.210230431149,0.977651863303,0,1449616890884296295,/odom,2.57190394402,-0.752816081047,0.697958290577,0.0,0.0,0.210230431149,0.977651863303,1,doorway_assistance,0.899999976158,1449616890884296295,0,0
1449616891639480609,0,1449616891340275316,/odom,2.20487571653,-0.961539885538,0.0,0.0,0.0,0.255163764243,0.96689785056,0,1449616891340275316,/odom,3.50955007679,-0.221387999977,0.0,0.0,0.0,0.255163764243,0.96689785056,0,1449616891340275316,/odom,2.63976716995,-0.714822590351,0.70769649744,0.0,0.0,0.255163764243,0.96689785056,1,doorway_assistance,1.0,1449616891340275316,0,0
1449616891751442728,0,1449616891340275316,/odom,2.20487571653,-0.961539885538,0.0,0.0,0.0,0.255163764243,0.96689785056,0,1449616891340275316,/odom,3.50955007679,-0.221387999977,0.0,0.0,0.0,0.255163764243,0.96689785056,0,1449616891340275316,/odom,2.63976716995,-0.714822590351,0.70769649744,0.0,0.0,0.255163764243,0.96689785056,1,doorway_assistance,1.0,1449616891340275316,0,0
1449616891841311695,0,1449616891536719347,/odom,2.14908376507,-0.958854131565,0.0,0.0,0.0,0.233217883463,0.972424505467,0,1449616891536719347,/odom,3.48591202157,-0.278493776588,0.0,0.0,0.0,0.233217883463,0.972424505467,0,1449616891536719347,/odom,2.5946931839,-0.732067346573,0.708012521267,0.0,0.0,0.233217883463,0.972424505467,1,doorway_assistance,1.0,1449616891536719347,0,0
1449616891959845246,0,1449616891536719347,/odom,2.14908376507,-0.958854131565,0.0,0.0,0.0,0.233217883463,0.972424505467,0,1449616891536719347,/odom,3.48591202157,-0.278493776588,0.0,0.0,0.0,0.233217883463,0.972424505467,0,1449616891536719347,/odom,2.5946931839,-0.732067346573,0.708012521267,0.0,0.0,0.233217883463,0.972424505467,1,doorway_assistance,1.0,1449616891536719347,0,0
1449616892061855586,0,1449616891776312978,/odom,2.2007621082,-0.957386795871,0.0,0.0,0.0,0.255741150755,0.966745294176,0,1449616891776312978,/odom,3.50455149963,-0.215677133813,0.0,0.0,0.0,0.255741150755,0.966745294176,0,1449616891776312978,/odom,2.63535857201,-0.710150241852,0.738297879696,0.0,0.0,0.255741150755,0.966745294176,1,doorway_assistance,1.0,1449616891776312978,0,0
1449616892144128800,0,1449616891776312978,/odom,2.2007621082,-0.957386795871,0.0,0.0,0.0,0.255741150755,0.966745294176,0,1449616891776312978,/odom,3.50455149963,-0.215677133813,0.0,0.0,0.0,0.255741150755,0.966745294176,0,1449616891776312978,/odom,2.63535857201,-0.710150241852,0.738297879696,0.0,0.0,0.255741150755,0.966745294176,1,doorway_assistance,1.0,1449616891776312978,0,0
1449616892232583567,0,1449616891974193124,/odom,2.1357522226,-0.967011490017,0.0,0.0,0.0,0.218345316951,0.975871570733,0,1449616891974193124,/odom,3.4927281903,-0.327780527771,0.0,0.0,0.0,0.218345316951,0.975871570733,0,1449616891974193124,/odom,2.58807754517,-0.753934502602,0.74927854538,0.0,0.0,0.218345316951,0.975871570733,1,doorway_assistance,1.0,1449616891974193124,0,0
1449616892347203246,0,1449616892143443543,/odom,2.10912181832,-0.964448010657,0.0,0.0,0.0,0.201560867099,0.979475990953,0,1449616892143443543,/odom,3.48724146888,-0.372175920539,0.0,0.0,0.0,0.201560867099,0.979475990953,0,1449616892143443543,/odom,2.56849503517,-0.767023980618,0.719472706318,0.0,0.0,0.201560867099,0.979475990953,1,doorway_assistance,1.0,1449616892143443543,0,0
1449616892431445195,0,1449616892143443543,/odom,2.10912181832,-0.964448010657,0.0,0.0,0.0,0.201560867099,0.979475990953,0,1449616892143443543,/odom,3.48724146888,-0.372175920539,0.0,0.0,0.0,0.201560867099,0.979475990953,0,1449616892143443543,/odom,2.56849503517,-0.767023980618,0.719472706318,0.0,0.0,0.201560867099,0.979475990953,1,doorway_assistance,1.0,1449616892143443543,0,0
1449616892532248578,0,1449616892143443543,/odom,2.10912181832,-0.964448010657,0.0,0.0,0.0,0.201560867099,0.979475990953,0,1449616892143443543,/odom,3.48724146888,-0.372175920539,0.0,0.0,0.0,0.201560867099,0.979475990953,0,1449616892143443543,/odom,2.56849503517,-0.767023980618,0.719472706318,0.0,0.0,0.201560867099,0.979475990953,1,doorway_assistance,1.0,1449616892143443543,0,0
1449616892642589299,0,1449616892403658325,/odom,2.13247059858,-0.977178897919,0.0,0.0,0.0,0.217285135132,0.976108175384,0,1449616892403658325,/odom,3.49083210873,-0.340897507544,0.0,0.0,0.0,0.217285135132,0.976108175384,0,1449616892403658325,/odom,2.58525776863,-0.765085101128,0.759584903717,0.0,0.0,0.217285135132,0.976108175384,1,doorway_assistance,1.0,1449616892403658325,0,0
1449616892760767532,0,1449616892403658325,/odom,2.13247059858,-0.977178897919,0.0,0.0,0.0,0.217285135132,0.976108175384,0,1449616892403658325,/odom,3.49083210873,-0.340897507544,0.0,0.0,0.0,0.217285135132,0.976108175384,0,1449616892403658325,/odom,2.58525776863,-0.765085101128,0.759584903717,0.0,0.0,0.217285135132,0.976108175384,1,doorway_assistance,1.0,1449616892403658325,0,0
1449616892831718810,0,1449616892619553252,/odom,2.1274722668,-0.974250648036,0.0,0.0,0.0,0.215049749508,0.976603095037,0,1449616892619553252,/odom,3.48873308251,-0.344195895166,0.0,0.0,0.0,0.215049749508,0.976603095037,0,1449616892619553252,/odom,2.58122587204,-0.764232397079,0.729643344879,0.0,0.0,0.215049749508,0.976603095037,1,doorway_assistance,1.0,1449616892619553252,0,0
1449616892931502334,0,1449616892619553252,/odom,2.1274722668,-0.974250648036,0.0,0.0,0.0,0.215049749508,0.976603095037,0,1449616892619553252,/odom,3.48873308251,-0.344195895166,0.0,0.0,0.0,0.215049749508,0.976603095037,0,1449616892619553252,/odom,2.58122587204,-0.764232397079,0.729643344879,0.0,0.0,0.215049749508,0.976603095037,1,doorway_assistance,1.0,1449616892619553252,0,0
1449616893069208813,0,1449616892749352909,/odom,2.12484585724,-0.993537517055,0.0,0.0,0.0,0.214513617094,0.976720998075,0,1449616892749352909,/odom,3.48679758148,-0.364977654489,0.0,0.0,0.0,0.214513617094,0.976720998075,0,1449616892749352909,/odom,2.57882976532,-0.784017562866,0.769657969475,0.0,0.0,0.214513617094,0.976720998075,1,doorway_assistance,1.0,1449616892749352909,0,0
1449616893153315779,0,1449616892749352909,/odom,2.12484585724,-0.993537517055,0.0,0.0,0.0,0.214513617094,0.976720998075,0,1449616892749352909,/odom,3.48679758148,-0.364977654489,0.0,0.0,0.0,0.214513617094,0.976720998075,0,1449616892749352909,/odom,2.57882976532,-0.784017562866,0.769657969475,0.0,0.0,0.214513617094,0.976720998075,1,doorway_assistance,1.0,1449616892749352909,0,0
1449616893251843427,0,1449616892944503119,/odom,2.13981196696,-0.994462716417,0.0,0.0,0.0,0.225469064415,0.974250327684,0,1449616892944503119,/odom,3.48730306994,-0.33547278675,0.0,0.0,0.0,0.225469064415,0.974250327684,0,1449616892944503119,/odom,2.58897566795,-0.774799406528,0.719582140446,0.0,0.0,0.225469064415,0.974250327684,1,doorway_assistance,1.0,1449616892944503119,0,0
1449616894037615534,0,1449616894026980709,/odom,0.86067293663,-0.443304421275,0.0,0.0,0.0,-0.312468182444,0.949928226215,0,1449616894026980709,/odom,0.86067293663,-0.443304421275,0.0,0.0,0.0,-0.312468182444,0.949928226215,0,user,1.0,0
1449616894160706949,0,1449616894151348339,/odom,0.879087401836,-0.457148373196,0.0,0.0,0.0,-0.305944579809,0.952049323347,0,1449616894151348339,/odom,0.879087401836,-0.457148373196,0.0,0.0,0.0,-0.305944579809,0.952049323347,0,user,1.0,0
1449616894285140621,0,1449616894261729693,/odom,0.906111609696,-0.478025115121,0.0,0.0,0.0,-0.187715852556,0.982223375154,0,1449616894261729693,/odom,0.906111609696,-0.478025115121,0.0,0.0,0.0,-0.187715852556,0.982223375154,0,user,1.0,0
1449616894335248243,0,1449616894326464095,/odom,0.938283354038,-0.501243050575,0.0,0.0,0.0,-0.0775674328875,0.996987107918,0,1449616894326464095,/odom,0.938283354038,-0.501243050575,0.0,0.0,0.0,-0.0775674328875,0.996987107918,0,user,1.0,0
1449616894440782673,0,1449616894434828734,/odom,0.945248128153,-0.507419007569,0.0,0.0,0.0,-0.0144159574208,0.999896084687,0,1449616894434828734,/odom,0.945248128153,-0.507419007569,0.0,0.0,0.0,-0.0144159574208,0.999896084687,0,user,1.0,0
1449616894816803081,0,1449616894809106159,/odom,0.958763399349,-0.54028321345,0.0,0.0,0.0,0.685977720256,0.727622544533,0,1449616894809106159,/odom,0.958763399349,-0.54028321345,0.0,0.0,0.0,0.685977720256,0.727622544533,0,user,1.0,0
1449616895075486617,0,1449616895068031380,/odom,1.02573432025,-0.586025025213,0.0,0.0,0.0,0.69505346281,0.718958054295,0,1449616895068031380,/odom,1.02573432025,-0.586025025213,0.0,0.0,0.0,0.69505346281,0.718958054295,0,user,1.0,0
1449616895335456239,0,1449616895326877615,/odom,1.05701896321,-0.607104709121,0.0,0.0,0.0,0.702674736607,0.711511218839,0,1449616895326877615,/odom,1.05701896321,-0.607104709121,0.0,0.0,0.0,0.702674736607,0.711511218839,0,user,1.0,0
1449616895765237727,0,1449616895716314500,/odom,1.07137356586,-0.616919569147,0.0,0.0,0.0,0.709109156689,0.705098719258,0,1449616895716314500,/odom,1.07137356586,-0.616919569147,0.0,0.0,0.0,0.709109156689,0.705098719258,0,user,1.0,0
1449616896670407820,0,1449616895992943212,/odom,1.07391213523,-0.618771304927,0.0,0.0,0.0,0.714438333547,0.69969841186,0,1449616895992943212,/odom,1.07391213523,-0.618771304927,0.0,0.0,0.0,0.714438333547,0.69969841186,0,user,1.0,0
1449616896983830525,0,1449616896976317274,/odom,1.07391206428,-0.618771494035,0.0,0.0,0.0,0.714441819275,0.699694852683,0,1449616896976317274,/odom,1.07391206428,-0.618771494035,0.0,0.0,0.0,0.714441819275,0.699694852683,0,user,1.0,0
1449616897288341924,0,1449616897282878533,/odom,1.07414951011,-0.619327375777,0.0,0.0,0.0,0.723766018219,0.690045470147,0,1449616897282878533,/odom,1.07414951011,-0.619327375777,0.0,0.0,0.0,0.723766018219,0.690045470147,0,user,1.0,0
1449616897607959631,0,1449616897597065238,/odom,1.0743967037,-0.61990983289,0.0,0.0,0.0,0.733590916865,0.679591323291,0,1449616897597065238,/odom,1.0743967037,-0.61990983289,0.0,0.0,0.0,0.733590916865,0.679591323291,0,user,1.0,0
1449616897918358952,0,1449616892944503119,/odom,2.13981196696,-0.994462716417,0.0,0.0,0.0,0.225469064415,0.974250327684,0,1449616892944503119,/odom,3.48730306994,-0.33547278675,0.0,0.0,0.0,0.225469064415,0.974250327684,0,1449616892944503119,/odom,2.58897566795,-0.774799406528,0.719582140446,0.0,0.0,0.225469064415,0.974250327684,1,doorway_assistance,1.0,1449616897273223138,0,0
1449616898258230332,0,1449616892944503119,/odom,2.13981196696,-0.994462716417,0.0,0.0,0.0,0.225469064415,0.974250327684,0,1449616892944503119,/odom,3.48730306994,-0.33547278675,0.0,0.0,0.0,0.225469064415,0.974250327684,0,1449616892944503119,/odom,2.58897566795,-0.774799406528,0.719582140446,0.0,0.0,0.225469064415,0.974250327684,1,doorway_assistance,1.0,1449616897571072117,0,0
1449616898520877605,0,1449616892944503119,/odom,2.13981196696,-0.994462716417,0.0,0.0,0.0,0.225469064415,0.974250327684,0,1449616892944503119,/odom,3.48730306994,-0.33547278675,0.0,0.0,0.0,0.225469064415,0.974250327684,0,1449616892944503119,/odom,2.58897566795,-0.774799406528,0.719582140446,0.0,0.0,0.225469064415,0.974250327684,1,doorway_assistance,1.0,1449616897903631396,0,0
1449616898837388585,0,1449616892944503119,/odom,2.13981196696,-0.994462716417,0.0,0.0,0.0,0.225469064415,0.974250327684,0,1449616892944503119,/odom,3.48730306994,-0.33547278675,0.0,0.0,0.0,0.225469064415,0.974250327684,0,1449616892944503119,/odom,2.58897566795,-0.774799406528,0.719582140446,0.0,0.0,0.225469064415,0.974250327684,1,doorway_assistance,1.0,1449616898229689499,0,0
1449616899151677631,0,1449616892944503119,/odom,2.13981196696,-0.994462716417,0.0,0.0,0.0,0.225469064415,0.974250327684,0,1449616892944503119,/odom,3.48730306994,-0.33547278675,0.0,0.0,0.0,0.225469064415,0.974250327684,0,1449616892944503119,/odom,2.58897566795,-0.774799406528,0.719582140446,0.0,0.0,0.225469064415,0.974250327684,1,doorway_assistance,1.0,1449616898508797112,0,0
1449616899601930335,0,1449616892944503119,/odom,2.13981196696,-0.994462716417,0.0,0.0,0.0,0.225469064415,0.974250327684,0,1449616892944503119,/odom,3.48730306994,-0.33547278675,0.0,0.0,0.0,0.225469064415,0.974250327684,0,1449616892944503119,/odom,2.58897566795,-0.774799406528,0.719582140446,0.0,0.0,0.225469064415,0.974250327684,1,doorway_assistance,1.0,1449616898819922559,0,0
1449616899845413437,0,1449616892944503119,/odom,2.13981196696,-0.994462716417,0.0,0.0,0.0,0.225469064415,0.974250327684,0,1449616892944503119,/odom,3.48730306994,-0.33547278675,0.0,0.0,0.0,0.225469064415,0.974250327684,0,1449616892944503119,/odom,2.58897566795,-0.774799406528,0.719582140446,0.0,0.0,0.225469064415,0.974250327684,1,doorway_assistance,1.0,1449616899125652047,0,0
1449616900110456999,0,1449616892944503119,/odom,2.13981196696,-0.994462716417,0.0,0.0,0.0,0.225469064415,0.974250327684,0,1449616892944503119,/odom,3.48730306994,-0.33547278675,0.0,0.0,0.0,0.225469064415,0.974250327684,0,1449616892944503119,/odom,2.58897566795,-0.774799406528,0.719582140446,0.0,0.0,0.225469064415,0.974250327684,1,doorway_assistance,1.0,1449616899565120205,0,0
1449616900271297761,0,1449616892944503119,/odom,2.13981196696,-0.994462716417,0.0,0.0,0.0,0.225469064415,0.974250327684,0,1449616892944503119,/odom,3.48730306994,-0.33547278675,0.0,0.0,0.0,0.225469064415,0.974250327684,0,1449616892944503119,/odom,2.58897566795,-0.774799406528,0.719582140446,0.0,0.0,0.225469064415,0.974250327684,1,doorway_assistance,1.0,1449616899824693856,0,0
1449616900429724989,0,1449616892944503119,/odom,2.13981196696,-0.994462716417,0.0,0.0,0.0,0.225469064415,0.974250327684,0,1449616892944503119,/odom,3.48730306994,-0.33547278675,0.0,0.0,0.0,0.225469064415,0.974250327684,0,1449616892944503119,/odom,2.58897566795,-0.774799406528,0.719582140446,0.0,0.0,0.225469064415,0.974250327684,1,doorway_assistance,1.0,1449616900078947184,0,0
1449616900689948803,0,1449616892944503119,/odom,2.13981196696,-0.994462716417,0.0,0.0,0.0,0.225469064415,0.974250327684,0,1449616892944503119,/odom,3.48730306994,-0.33547278675,0.0,0.0,0.0,0.225469064415,0.974250327684,0,1449616892944503119,/odom,2.58897566795,-0.774799406528,0.719582140446,0.0,0.0,0.225469064415,0.974250327684,1,doorway_assistance,1.0,1449616900231669363,0,0
1449616900865028141,0,1449616892944503119,/odom,2.13981196696,-0.994462716417,0.0,0.0,0.0,0.225469064415,0.974250327684,0,1449616892944503119,/odom,3.48730306994,-0.33547278675,0.0,0.0,0.0,0.225469064415,0.974250327684,0,1449616892944503119,/odom,2.58897566795,-0.774799406528,0.719582140446,0.0,0.0,0.225469064415,0.974250327684,1,doorway_assistance,1.0,1449616900391149747,0,0
1449616900874500434,0,1449616892944503119,/odom,2.13981196696,-0.994462716417,0.0,0.0,0.0,0.225469064415,0.974250327684,0,1449616892944503119,/odom,3.48730306994,-0.33547278675,0.0,0.0,0.0,0.225469064415,0.974250327684,0,1449616892944503119,/odom,2.58897566795,-0.774799406528,0.719582140446,0.0,0.0,0.225469064415,0.974250327684,1,doorway_assistance,1.0,1449616900659543868,0,0
1449616900995027426,0,1449616892944503119,/odom,2.13981196696,-0.994462716417,0.0,0.0,0.0,0.225469064415,0.974250327684,0,1449616892944503119,/odom,3.48730306994,-0.33547278675,0.0,0.0,0.0,0.225469064415,0.974250327684,0,1449616892944503119,/odom,2.58897566795,-0.774799406528,0.719582140446,0.0,0.0,0.225469064415,0.974250327684,1,doorway_assistance,1.0,1449616900659543868,0,0
1449616901012492163,0,1449616892944503119,/odom,2.13981196696,-0.994462716417,0.0,0.0,0.0,0.225469064415,0.974250327684,0,1449616892944503119,/odom,3.48730306994,-0.33547278675,0.0,0.0,0.0,0.225469064415,0.974250327684,0,1449616892944503119,/odom,2.58897566795,-0.774799406528,0.719582140446,0.0,0.0,0.225469064415,0.974250327684,1,doorway_assistance,1.0,1449616900659543868,0,0
1449616901124798131,0,1449616892944503119,/odom,2.13981196696,-0.994462716417,0.0,0.0,0.0,0.225469064415,0.974250327684,0,1449616892944503119,/odom,3.48730306994,-0.33547278675,0.0,0.0,0.0,0.225469064415,0.974250327684,0,1449616892944503119,/odom,2.58897566795,-0.774799406528,0.719582140446,0.0,0.0,0.225469064415,0.974250327684,1,doorway_assistance,1.0,1449616900840789612,0,0
1449616901221280243,0,1449616892944503119,/odom,2.13981196696,-0.994462716417,0.0,0.0,0.0,0.225469064415,0.974250327684,0,1449616892944503119,/odom,3.48730306994,-0.33547278675,0.0,0.0,0.0,0.225469064415,0.974250327684,0,1449616892944503119,/odom,2.58897566795,-0.774799406528,0.719582140446,0.0,0.0,0.225469064415,0.974250327684,1,doorway_assistance,1.0,1449616900840789612,0,0
1449616901301843056,0,1449616892944503119,/odom,2.13981196696,-0.994462716417,0.0,0.0,0.0,0.225469064415,0.974250327684,0,1449616892944503119,/odom,3.48730306994,-0.33547278675,0.0,0.0,0.0,0.225469064415,0.974250327684,0,1449616892944503119,/odom,2.58897566795,-0.774799406528,0.719582140446,0.0,0.0,0.225469064415,0.974250327684,1,doorway_assistance,1.0,1449616900988359745,0,0
1449616901396025238,0,1449616892944503119,/odom,2.13981196696,-0.994462716417,0.0,0.0,0.0,0.225469064415,0.974250327684,0,1449616892944503119,/odom,3.48730306994,-0.33547278675,0.0,0.0,0.0,0.225469064415,0.974250327684,0,1449616892944503119,/odom,2.58897566795,-0.774799406528,0.719582140446,0.0,0.0,0.225469064415,0.974250327684,1,doorway_assistance,1.0,1449616900988359745,0,0
1449616901494078073,0,1449616892944503119,/odom,2.13981196696,-0.994462716417,0.0,0.0,0.0,0.225469064415,0.974250327684,0,1449616892944503119,/odom,3.48730306994,-0.33547278675,0.0,0.0,0.0,0.225469064415,0.974250327684,0,1449616892944503119,/odom,2.58897566795,-0.774799406528,0.719582140446,0.0,0.0,0.225469064415,0.974250327684,1,doorway_assistance,1.0,1449616901186448654,0,0
1449616901596249226,0,1449616901362905886,/odom,2.01285864828,-0.929888276302,0.0,0.0,0.0,0.131737412477,0.9912846484,0,1449616901362905886,/odom,3.46079441074,-0.538120452477,0.0,0.0,0.0,0.131737412477,0.9912846484,0,1449616901362905886,/odom,2.49550390244,-0.799299001694,0.688638091087,0.0,0.0,0.131737412477,0.9912846484,1,doorway_assistance,1.0,1449616901362905886,0,0
1449616901694465652,0,1449616901362905886,/odom,2.01285864828,-0.929888276302,0.0,0.0,0.0,0.131737412477,0.9912846484,0,1449616901362905886,/odom,3.46079441074,-0.538120452477,0.0,0.0,0.0,0.131737412477,0.9912846484,0,1449616901362905886,/odom,2.49550390244,-0.799299001694,0.688638091087,0.0,0.0,0.131737412477,0.9912846484,1,doorway_assistance,1.0,1449616901362905886,0,0
1449616901793637251,0,1449616901530719753,/odom,2.13011384168,-0.970883323677,0.0,0.0,0.0,0.201664298085,0.979454700779,0,1449616901530719753,/odom,3.50810837431,-0.378320189462,0.0,0.0,0.0,0.201664298085,0.979454700779,0,1449616901530719753,/odom,2.58944535255,-0.773362278938,0.69834113121,0.0,0.0,0.201664298085,0.979454700779,1,doorway_assistance,1.0,1449616901530719753,0,0
1449616901900177487,0,1449616901661979513,/odom,1.94785832066,-0.890133617604,0.0,0.0,0.0,0.0896231499224,0.995975748198,0,1449616901661979513,/odom,3.42376139365,-0.622346166205,0.0,0.0,0.0,0.0896231499224,0.995975748198,0,1449616901661979513,/odom,2.43982601166,-0.800871133804,0.699169874191,0.0,0.0,0.0896231499224,0.995975748198,1,doorway_assistance,1.0,1449616901661979513,0,0
1449616901998396162,0,1449616901753251606,/odom,1.98464043726,-0.911620035169,0.0,0.0,0.0,0.111481490202,0.993766510475,0,1449616901753251606,/odom,3.44735606929,-0.579260320668,0.0,0.0,0.0,0.111481490202,0.993766510475,0,1449616901753251606,/odom,2.47221231461,-0.800833463669,0.688852787018,0.0,0.0,0.111481490202,0.993766510475,1,doorway_assistance,1.0,1449616901753251606,0,0
1449616902109577748,0,1449616901860998738,/odom,2.13697203494,-0.973602452714,0.0,0.0,0.0,0.205206754918,0.978718645851,0,1449616901860998738,/odom,3.51064259814,-0.371083420835,0.0,0.0,0.0,0.205206754918,0.978718645851,0,1449616901860998738,/odom,2.59486222267,-0.772762775421,0.718305408955,0.0,0.0,0.205206754918,0.978718645851,1,doorway_assistance,1.0,1449616901860998738,0,0
1449616902207698547,0,1449616901961373487,/odom,1.96863631183,-0.902916086824,0.0,0.0,0.0,0.102679820222,0.994714458787,0,1449616901961373487,/odom,3.43700687539,-0.596504781422,0.0,0.0,0.0,0.102679820222,0.994714458787,0,1449616901961373487,/odom,2.45809316635,-0.800778985023,0.688801586628,0.0,0.0,0.102679820222,0.994714458787,1,doorway_assistance,1.0,1449616901961373487,0,0
1449616902330366918,0,1449616902066159638,/odom,2.09036069521,-0.945197207511,0.0,0.0,0.0,0.179904458712,0.983684088382,0,1449616902066159638,/odom,3.49326385242,-0.414289747118,0.0,0.0,0.0,0.179904458712,0.983684088382,0,1449616902066159638,/odom,2.55799508095,-0.768228054047,0.688826441765,0.0,0.0,0.179904458712,0.983684088382,1,doorway_assistance,1.0,1449616902066159638,0,0
1449616902396426962,0,1449616902194693168,/odom,2.14758567857,-0.984329854524,0.0,0.0,0.0,0.209552428925,0.977797412316,0,1449616902194693168,/odom,3.51584901716,-0.369630386282,0.0,0.0,0.0,0.209552428925,0.977797412316,0,1449616902194693168,/odom,2.6036734581,-0.779430031776,0.73805218935,0.0,0.0,0.209552428925,0.977797412316,1,doorway_assistance,1.0,1449616902194693168,0,0
1449616902514034486,0,1449616902290070459,/odom,2.09527750626,-0.944728983212,0.0,0.0,0.0,0.181285108669,0.983430581879,0,1449616902290070459,/odom,3.49668463439,-0.409885023498,0.0,0.0,0.0,0.181285108669,0.983430581879,0,1449616902290070459,/odom,2.56241321564,-0.766447663307,0.679394304752,0.0,0.0,0.181285108669,0.983430581879,1,doorway_assistance,1.0,1449616902290070459,0,0
1449616902598447467,0,1449616902362027863,/odom,2.07804480254,-0.934195890714,0.0,0.0,0.0,0.172356798939,0.985034585108,0,1449616902362027863,/odom,3.48892420412,-0.424863666914,0.0,0.0,0.0,0.172356798939,0.985034585108,0,1449616902362027863,/odom,2.5483379364,-0.76441848278,0.678521692753,0.0,0.0,0.172356798939,0.985034585108,1,doorway_assistance,1.0,1449616902362027863,0,0
1449616902722357764,0,1449616902463293852,/odom,2.15194211292,-0.980624947154,0.0,0.0,0.0,0.210615356863,0.977569011095,0,1449616902463293852,/odom,3.51886562729,-0.362951808764,0.0,0.0,0.0,0.210615356863,0.977569011095,0,1449616902463293852,/odom,2.60758328438,-0.774733901024,0.738055109978,0.0,0.0,0.210615356863,0.977569011095,1,doorway_assistance,1.0,1449616902463293852,0,0
1449616902821330208,0,1449616902555273537,/odom,2.16122238875,-0.981869486916,0.0,0.0,0.0,0.212778441965,0.977100473152,0,1449616902555273537,/odom,3.52539839266,-0.358151737953,0.0,0.0,0.0,0.212778441965,0.977100473152,0,1449616902555273537,/odom,2.61594772339,-0.773963570595,0.728099167347,0.0,0.0,0.212778441965,0.977100473152,1,doorway_assistance,1.0,1449616902555273537,0,0
1449616902899783369,0,1449616902678718939,/odom,2.16023749393,-0.983430228729,0.0,0.0,0.0,0.211903240006,0.977290651175,0,1449616902678718939,/odom,3.52552854455,-0.362157062493,0.0,0.0,0.0,0.211903240006,0.977290651175,0,1449616902678718939,/odom,2.6153345108,-0.776339173317,0.727896511555,0.0,0.0,0.211903240006,0.977290651175,1,doorway_assistance,1.0,1449616902678718939,0,0
1449616902994817754,0,1449616902678718939,/odom,2.16023749393,-0.983430228729,0.0,0.0,0.0,0.211903240006,0.977290651175,0,1449616902678718939,/odom,3.52552854455,-0.362157062493,0.0,0.0,0.0,0.211903240006,0.977290651175,0,1449616902678718939,/odom,2.6153345108,-0.776339173317,0.727896511555,0.0,0.0,0.211903240006,0.977290651175,1,doorway_assistance,1.0,1449616902678718939,0,0
1449616903132943010,0,1449616902778284116,/odom,2.16452910837,-0.981441461535,0.0,0.0,0.0,0.215572216575,0.976487900304,0,1449616902778284116,/odom,3.5251149667,-0.349930478153,0.0,0.0,0.0,0.215572216575,0.976487900304,0,1449616902778284116,/odom,2.61805772781,-0.770937800407,0.737807154655,0.0,0.0,0.215572216575,0.976487900304,1,doorway_assistance,1.0,1449616902778284116,0,0
1449616903220261489,0,1449616902950939554,/odom,2.16660875012,-0.982771358673,0.0,0.0,0.0,0.216852815054,0.976204310891,0,1449616902950939554,/odom,3.52553331993,-0.347693400018,0.0,0.0,0.0,0.216852815054,0.976204310891,0,1449616902950939554,/odom,2.61958360672,-0.771078705788,0.737872004509,0.0,0.0,0.216852815054,0.976204310891,1,doorway_assistance,1.0,1449616902950939554,0,0
1449616903295174259,0,1449616902950939554,/odom,2.16660875012,-0.982771358673,0.0,0.0,0.0,0.216852815054,0.976204310891,0,1449616902950939554,/odom,3.52553331993,-0.347693400018,0.0,0.0,0.0,0.216852815054,0.976204310891,0,1449616902950939554,/odom,2.61958360672,-0.771078705788,0.737872004509,0.0,0.0,0.216852815054,0.976204310891,1,doorway_assistance,1.0,1449616902950939554,0,0
1449616903399055116,0,1449616903088125363,/odom,2.18139222945,-0.977423953938,0.0,0.0,0.0,0.223655814665,0.974668187932,0,1449616903088125363,/odom,3.53132645915,-0.323453331138,0.0,0.0,0.0,0.223655814665,0.974668187932,0,1449616903088125363,/odom,2.63137030602,-0.759433746338,0.738165020943,0.0,0.0,0.223655814665,0.974668187932,1,doorway_assistance,1.0,1449616903088125363,0,0
1449616903499408224,0,1449616903252197587,/odom,2.18282544422,-0.987783612248,0.0,0.0,0.0,0.220970055575,0.975280592721,0,1449616903252197587,/odom,3.53634214784,-0.341260191924,0.0,0.0,0.0,0.220970055575,0.975280592721,0,1449616903252197587,/odom,2.63399767876,-0.772275805473,0.737867176533,0.0,0.0,0.220970055575,0.975280592721,1,doorway_assistance,1.0,1449616903252197587,0,0
1449616903608457773,0,1449616903359900324,/odom,2.1439778816,-0.950503755891,0.0,0.0,0.0,0.202883065558,0.979202972682,0,1449616903359900324,/odom,3.52049326673,-0.354512653185,0.0,0.0,0.0,0.202883065558,0.979202972682,0,1449616903359900324,/odom,2.60281634331,-0.751840054989,0.677995741367,0.0,0.0,0.202883065558,0.979202972682,1,doorway_assistance,1.0,1449616903359900324,0,0
1449616903694650204,0,1449616903359900324,/odom,2.1439778816,-0.950503755891,0.0,0.0,0.0,0.202883065558,0.979202972682,0,1449616903359900324,/odom,3.52049326673,-0.354512653185,0.0,0.0,0.0,0.202883065558,0.979202972682,0,1449616903359900324,/odom,2.60281634331,-0.751840054989,0.677995741367,0.0,0.0,0.202883065558,0.979202972682,1,doorway_assistance,1.0,1449616903359900324,0,0
1449616903812011374,0,1449616903515861617,/odom,2.18277368733,-0.980483771261,0.0,0.0,0.0,0.21963453361,0.975582221879,0,1449616903515861617,/odom,3.53805570227,-0.33766913236,0.0,0.0,0.0,0.21963453361,0.975582221879,0,1449616903515861617,/odom,2.63453435898,-0.76621222496,0.728156149387,0.0,0.0,0.21963453361,0.975582221879,1,doorway_assistance,1.0,1449616903515861617,0,0
1449616903906369404,0,1449616903651177127,/odom,2.18013827904,-0.981404463472,0.0,0.0,0.0,0.218078511454,0.975931228541,0,1449616903651177127,/odom,3.53746356757,-0.342915574666,0.0,0.0,0.0,0.218078511454,0.975931228541,0,1449616903651177127,/odom,2.63258004189,-0.76857483387,0.72822368145,0.0,0.0,0.218078511454,0.975931228541,1,doorway_assistance,1.0,1449616903651177127,0,0
1449616903991711495,0,1449616903772133961,/odom,2.18023350121,-0.986176794063,0.0,0.0,0.0,0.218647575962,0.975803892965,0,1449616903772133961,/odom,3.53681321379,-0.34610532663,0.0,0.0,0.0,0.218647575962,0.975803892965,0,1449616903772133961,/odom,2.63242673874,-0.772819638252,0.728177011013,0.0,0.0,0.218647575962,0.975803892965,1,doorway_assistance,1.0,1449616903772133961,0,0
1449616904097223681,0,1449616903867001080,/odom,2.17649796024,-0.984085525009,0.0,0.0,0.0,0.212859321525,0.977082856896,0,1449616903867001080,/odom,3.54057068796,-0.360141943032,0.0,0.0,0.0,0.212859321525,0.977082856896,0,1449616903867001080,/odom,2.63118886948,-0.776104331017,0.728923559189,0.0,0.0,0.212859321525,0.977082856896,1,doorway_assistance,1.0,1449616903867001080,0,0
1449616904212457212,0,1449616903948615605,/odom,2.18368086276,-0.986270622846,0.0,0.0,0.0,0.220371978197,0.975415906793,0,1449616903948615605,/odom,3.53798943644,-0.341407624013,0.0,0.0,0.0,0.220371978197,0.975415906793,0,1449616903948615605,/odom,2.63511705399,-0.771316289902,0.728434205055,0.0,0.0,0.220371978197,0.975415906793,1,doorway_assistance,1.0,1449616903948615605,0,0
1449616904294881650,0,1449616904053597770,/odom,2.17807259048,-0.988053295297,0.0,0.0,0.0,0.214665330374,0.976687665498,0,1449616904053597770,/odom,3.53982897828,-0.359070354139,0.0,0.0,0.0,0.214665330374,0.976687665498,0,1449616904053597770,/odom,2.63199138641,-0.778392314911,0.738879203796,0.0,0.0,0.214665330374,0.976687665498,1,doorway_assistance,1.0,1449616904053597770,0,0
1449616904416340217,0,1449616904053597770,/odom,2.17807259048,-0.988053295297,0.0,0.0,0.0,0.214665330374,0.976687665498,0,1449616904053597770,/odom,3.53982897828,-0.359070354139,0.0,0.0,0.0,0.214665330374,0.976687665498,0,1449616904053597770,/odom,2.63199138641,-0.778392314911,0.738879203796,0.0,0.0,0.214665330374,0.976687665498,1,doorway_assistance,1.0,1449616904053597770,0,0
1449616904505238272,0,1449616904204676441,/odom,2.17065184282,-0.974382041063,0.0,0.0,0.0,0.213785070771,0.976880721232,0,1449616904204676441,/odom,3.53353967336,-0.347854498692,0.0,0.0,0.0,0.213785070771,0.976880721232,0,1449616904204676441,/odom,2.62494778633,-0.765539526939,0.718726754189,0.0,0.0,0.213785070771,0.976880721232,1,doorway_assistance,1.0,1449616904204676441,0,0
1449616904634115564,0,1449616904204676441,/odom,2.17065184282,-0.974382041063,0.0,0.0,0.0,0.213785070771,0.976880721232,0,1449616904204676441,/odom,3.53353967336,-0.347854498692,0.0,0.0,0.0,0.213785070771,0.976880721232,0,1449616904204676441,/odom,2.62494778633,-0.765539526939,0.718726754189,0.0,0.0,0.213785070771,0.976880721232,1,doorway_assistance,1.0,1449616904204676441,0,0
1449616904699485531,0,1449616904373181939,/odom,2.17342278085,-0.99802267375,0.0,0.0,0.0,0.21525665191,0.976557511777,0,1449616904373181939,/odom,3.53441650228,-0.367391172601,0.0,0.0,0.0,0.21525665191,0.976557511777,0,1449616904373181939,/odom,2.62708735466,-0.787812173367,0.728437840939,0.0,0.0,0.21525665191,0.976557511777,1,doorway_assistance,1.0,1449616904373181939,0,0
1449616904798731845,0,1449616904598050811,/odom,2.16086678467,-0.994831449271,0.0,0.0,0.0,0.201417168805,0.979505550832,0,1449616904598050811,/odom,3.539160157,-0.40296374464,0.0,0.0,0.0,0.201417168805,0.979505550832,0,1449616904598050811,/odom,2.62029790878,-0.797542214394,0.739560902119,0.0,0.0,0.201417168805,0.979505550832,1,doorway_assistance,1.0,1449616904598050811,0,0
1449616904893920510,0,1449616904598050811,/odom,2.16086678467,-0.994831449271,0.0,0.0,0.0,0.201417168805,0.979505550832,0,1449616904598050811,/odom,3.539160157,-0.40296374464,0.0,0.0,0.0,0.201417168805,0.979505550832,0,1449616904598050811,/odom,2.62029790878,-0.797542214394,0.739560902119,0.0,0.0,0.201417168805,0.979505550832,1,doorway_assistance,1.0,1449616904706628218,0,0
1449616904991385861,0,1449616904598050811,/odom,2.16086678467,-0.994831449271,0.0,0.0,0.0,0.201417168805,0.979505550832,0,1449616904598050811,/odom,3.539160157,-0.40296374464,0.0,0.0,0.0,0.201417168805,0.979505550832,0,1449616904598050811,/odom,2.62029790878,-0.797542214394,0.739560902119,0.0,0.0,0.201417168805,0.979505550832,1,doorway_assistance,1.0,1449616904782101783,0,0
1449616905102191756,0,1449616904598050811,/odom,2.16086678467,-0.994831449271,0.0,0.0,0.0,0.201417168805,0.979505550832,0,1449616904598050811,/odom,3.539160157,-0.40296374464,0.0,0.0,0.0,0.201417168805,0.979505550832,0,1449616904598050811,/odom,2.62029790878,-0.797542214394,0.739560902119,0.0,0.0,0.201417168805,0.979505550832,1,doorway_assistance,1.0,1449616904782101783,0,0
1449616905195955140,0,1449616904598050811,/odom,2.16086678467,-0.994831449271,0.0,0.0,0.0,0.201417168805,0.979505550832,0,1449616904598050811,/odom,3.539160157,-0.40296374464,0.0,0.0,0.0,0.201417168805,0.979505550832,0,1449616904598050811,/odom,2.62029790878,-0.797542214394,0.739560902119,0.0,0.0,0.201417168805,0.979505550832,1,doorway_assistance,1.0,1449616904954527523,0,0
1449616905333196097,0,1449616904598050811,/odom,2.16086678467,-0.994831449271,0.0,0.0,0.0,0.201417168805,0.979505550832,0,1449616904598050811,/odom,3.539160157,-0.40296374464,0.0,0.0,0.0,0.201417168805,0.979505550832,0,1449616904598050811,/odom,2.62029790878,-0.797542214394,0.739560902119,0.0,0.0,0.201417168805,0.979505550832,1,doorway_assistance,1.0,1449616905082914930,0,0
1449616905397073906,0,1449616904598050811,/odom,2.16086678467,-0.994831449271,0.0,0.0,0.0,0.201417168805,0.979505550832,0,1449616904598050811,/odom,3.539160157,-0.40296374464,0.0,0.0,0.0,0.201417168805,0.979505550832,0,1449616904598050811,/odom,2.62029790878,-0.797542214394,0.739560902119,0.0,0.0,0.201417168805,0.979505550832,1,doorway_assistance,1.0,1449616905151491720,0,0
1449616905495583125,0,1449616904598050811,/odom,2.16086678467,-0.994831449271,0.0,0.0,0.0,0.201417168805,0.979505550832,0,1449616904598050811,/odom,3.539160157,-0.40296374464,0.0,0.0,0.0,0.201417168805,0.979505550832,0,1449616904598050811,/odom,2.62029790878,-0.797542214394,0.739560902119,0.0,0.0,0.201417168805,0.979505550832,1,doorway_assistance,1.0,1449616905151491720,0,0
1449616905600182045,0,1449616904598050811,/odom,2.16086678467,-0.994831449271,0.0,0.0,0.0,0.201417168805,0.979505550832,0,1449616904598050811,/odom,3.539160157,-0.40296374464,0.0,0.0,0.0,0.201417168805,0.979505550832,0,1449616904598050811,/odom,2.62029790878,-0.797542214394,0.739560902119,0.0,0.0,0.201417168805,0.979505550832,1,doorway_assistance,1.0,1449616905294337521,0,0
1449616905695309260,0,1449616904598050811,/odom,2.16086678467,-0.994831449271,0.0,0.0,0.0,0.201417168805,0.979505550832,0,1449616904598050811,/odom,3.539160157,-0.40296374464,0.0,0.0,0.0,0.201417168805,0.979505550832,0,1449616904598050811,/odom,2.62029790878,-0.797542214394,0.739560902119,0.0,0.0,0.201417168805,0.979505550832,1,doorway_assistance,1.0,1449616905453404532,0,0
1449616905791434352,0,1449616904598050811,/odom,2.16086678467,-0.994831449271,0.0,0.0,0.0,0.201417168805,0.979505550832,0,1449616904598050811,/odom,3.539160157,-0.40296374464,0.0,0.0,0.0,0.201417168805,0.979505550832,0,1449616904598050811,/odom,2.62029790878,-0.797542214394,0.739560902119,0.0,0.0,0.201417168805,0.979505550832,1,doorway_assistance,1.0,1449616905561306863,0,0
1449616905896429364,0,1449616904598050811,/odom,2.16086678467,-0.994831449271,0.0,0.0,0.0,0.201417168805,0.979505550832,0,1449616904598050811,/odom,3.539160157,-0.40296374464,0.0,0.0,0.0,0.201417168805,0.979505550832,0,1449616904598050811,/odom,2.62029790878,-0.797542214394,0.739560902119,0.0,0.0,0.201417168805,0.979505550832,1,doorway_assistance,1.0,1449616905659453616,0,0
1449616906345387025,0,1449616904598050811,/odom,2.16086678467,-0.994831449271,0.0,0.0,0.0,0.201417168805,0.979505550832,0,1449616904598050811,/odom,3.539160157,-0.40296374464,0.0,0.0,0.0,0.201417168805,0.979505550832,0,1449616904598050811,/odom,2.62029790878,-0.797542214394,0.739560902119,0.0,0.0,0.201417168805,0.979505550832,1,doorway_assistance,1.0,1449616905749316597,0,0
1449616906348973589,0,1449616904598050811,/odom,2.16086678467,-0.994831449271,0.0,0.0,0.0,0.201417168805,0.979505550832,0,1449616904598050811,/odom,3.539160157,-0.40296374464,0.0,0.0,0.0,0.201417168805,0.979505550832,0,1449616904598050811,/odom,2.62029790878,-0.797542214394,0.739560902119,0.0,0.0,0.201417168805,0.979505550832,1,doorway_assistance,1.0,1449616905855369317,0,0
1449616906457728220,0,1449616904598050811,/odom,2.16086678467,-0.994831449271,0.0,0.0,0.0,0.201417168805,0.979505550832,0,1449616904598050811,/odom,3.539160157,-0.40296374464,0.0,0.0,0.0,0.201417168805,0.979505550832,0,1449616904598050811,/odom,2.62029790878,-0.797542214394,0.739560902119,0.0,0.0,0.201417168805,0.979505550832,1,doorway_assistance,1.0,1449616905855369317,0,0
1449616906548382913,0,1449616904598050811,/odom,2.16086678467,-0.994831449271,0.0,0.0,0.0,0.201417168805,0.979505550832,0,1449616904598050811,/odom,3.539160157,-0.40296374464,0.0,0.0,0.0,0.201417168805,0.979505550832,0,1449616904598050811,/odom,2.62029790878,-0.797542214394,0.739560902119,0.0,0.0,0.201417168805,0.979505550832,1,doorway_assistance,1.0,1449616906299206539,0,0
1449616906636864568,0,1449616904598050811,/odom,2.16086678467,-0.994831449271,0.0,0.0,0.0,0.201417168805,0.979505550832,0,1449616904598050811,/odom,3.539160157,-0.40296374464,0.0,0.0,0.0,0.201417168805,0.979505550832,0,1449616904598050811,/odom,2.62029790878,-0.797542214394,0.739560902119,0.0,0.0,0.201417168805,0.979505550832,1,doorway_assistance,1.0,1449616906408179121,0,0
