%time,field.header.seq,field.header.stamp,field.header.frame_id,field.ns,field.id,field.type,field.action,field.pose.position.x,field.pose.position.y,field.pose.position.z,field.pose.orientation.x,field.pose.orientation.y,field.pose.orientation.z,field.pose.orientation.w,field.scale.x,field.scale.y,field.scale.z,field.color.r,field.color.g,field.color.b,field.color.a,field.lifetime,field.frame_locked,field.text,field.mesh_resource,field.mesh_use_embedded_materials
1449616887758630157,0,0,/odom,bcmd_vector,0,0,0,0.0345517301221,-0.000608637387833,0.0,0.0,0.0,-0.0137422194698,0.999905571244,1e-05,0.05,0.05,0.0,1.0,0.0,1.0,0,0,,,0
1449616887788325790,1,0,/odom,bcmd_vector,0,0,0,0.0403092262309,-0.000760786538583,0.0,0.0,0.0,-0.0137422194698,0.999905571244,1e-05,0.05,0.05,0.0,1.0,0.0,1.0,0,0,,,0
1449616887832043367,2,0,/odom,bcmd_vector,0,0,0,0.0403092262309,-0.000760786538583,0.0,0.0,0.0,-0.0137422194698,0.999905571244,0.00559730190992,0.05,0.05,0.0,1.0,0.0,1.0,0,0,,,0
1449616887892649772,3,0,/odom,bcmd_vector,0,0,0,0.0547009565848,-0.00121721699728,0.0,0.0,0.0,-0.0190255284129,0.999818998253,0.00559730190992,0.05,0.05,0.0,1.0,0.0,1.0,0,0,,,0
1449616887912649678,4,0,/odom,bcmd_vector,0,0,0,0.0604576487264,-0.00139978918076,0.0,0.0,0.0,-0.0507508974304,0.998711342886,0.00559730190992,0.05,0.05,0.0,1.0,0.0,1.0,0,0,,,0
1449616887947650629,5,0,/odom,bcmd_vector,0,0,0,0.0662143408679,-0.00158236136424,0.0,0.0,0.0,-0.0507508974304,0.998711342886,0.00559730190992,0.05,0.05,0.0,1.0,0.0,1.0,0,0,,,0
1449616887990614813,6,0,/odom,bcmd_vector,0,0,0,0.0662143408679,-0.00158236136424,0.0,0.0,0.0,-0.0507508974304,0.998711342886,0.00559730190992,0.05,0.05,0.0,1.0,0.0,1.0,0,0,,,0
1449616888027657348,7,0,/odom,bcmd_vector,0,0,0,0.0719710330095,-0.00176493354772,0.0,0.0,0.0,-0.207973662715,0.978134426149,0.0111846038198,0.05,0.05,0.0,1.0,0.0,1.0,0,0,,,0
1449616888068663868,8,0,/odom,bcmd_vector,0,0,0,0.0748482536517,-0.00188663247711,0.0,0.0,0.0,-0.213139221379,0.977021838195,0.0111846038198,0.05,0.05,0.0,1.0,0.0,1.0,0,0,,,0
1449616888108281777,9,0,/odom,bcmd_vector,0,0,0,0.0834755752864,-0.00234292700333,0.0,0.0,0.0,-0.218298829016,0.975881970963,0.00559730190992,0.05,0.05,0.0,1.0,0.0,1.0,0,0,,,0
1449616888161576983,10,0,/odom,bcmd_vector,0,0,0,0.0892271230429,-0.00264712335413,0.0,0.0,0.0,-0.218298829016,0.975881970963,0.00559730190992,0.05,0.05,0.0,1.0,0.0,1.0,0,0,,,0
1449616888190205750,11,0,/odom,bcmd_vector,0,0,0,0.10360068862,-0.003498761009,0.0,0.0,0.0,-0.223452341564,0.974714856278,0.00559730190992,0.05,0.05,0.0,1.0,0.0,1.0,0,0,,,0
1449616888249503244,12,0,/odom,bcmd_vector,0,0,0,0.10360068862,-0.003498761009,0.0,0.0,0.0,-0.226545543072,0.974000573364,0.00559730190992,0.05,0.05,0.0,1.0,0.0,1.0,0,0,,,0
1449616888283864245,13,0,/odom,bcmd_vector,0,0,0,0.112220617526,-0.00407656419245,0.0,0.0,0.0,-0.231688999188,0.97278990931,0.00559730190992,0.05,0.05,0.0,1.0,0.0,1.0,0,0,,,0
1449616888314292379,14,0,/odom,bcmd_vector,0,0,0,0.117964451578,-0.00450224882061,0.0,0.0,0.0,-0.231688999188,0.97278990931,0.00559730190992,0.05,0.05,0.0,1.0,0.0,1.0,0,0,,,0
1449616888353645930,15,0,/odom,bcmd_vector,0,0,0,0.120838457518,-0.00468472925529,0.0,0.0,0.0,-0.226545543072,0.974000573364,0.00559730190992,0.05,0.05,0.0,1.0,0.0,1.0,0,0,,,0
1449616888391720829,16,0,/odom,bcmd_vector,0,0,0,0.123710374544,-0.00489757156937,0.0,0.0,0.0,-0.231688999188,0.97278990931,0.00559730190992,0.05,0.05,0.0,1.0,0.0,1.0,0,0,,,0
1449616888467804027,17,0,/odom,bcmd_vector,0,0,0,0.123710374544,-0.00489757156937,0.0,0.0,0.0,-0.231688999188,0.97278990931,0.00559730190992,0.05,0.05,0.0,1.0,0.0,1.0,0,0,,,0
1449616888476290104,18,0,/odom,bcmd_vector,0,0,0,0.132323715964,-0.00556643662021,0.0,0.0,0.0,-0.236825986351,0.971552084136,0.00559730190992,0.05,0.05,0.0,1.0,0.0,1.0,0,0,,,0
1449616888509363855,19,0,/odom,bcmd_vector,0,0,0,0.132323715964,-0.00556643662021,0.0,0.0,0.0,-0.233740506007,0.972299015659,0.0111846038198,0.05,0.05,0.0,1.0,0.0,1.0,0,0,,,0
1449616888553427481,20,0,/odom,bcmd_vector,0,0,0,0.132323715964,-0.00556643662021,0.0,0.0,0.0,-0.233740506007,0.972299015659,0.0111846038198,0.05,0.05,0.0,1.0,0.0,1.0,0,0,,,0
1449616888619354678,21,0,/odom,bcmd_vector,0,0,0,0.1351904932,-0.00583992799247,0.0,0.0,0.0,-0.238874870648,0.971050357177,0.0111846038198,0.05,0.05,0.0,1.0,0.0,1.0,0,0,,,0
1449616888636601077,22,0,/odom,bcmd_vector,0,0,0,0.138054220136,-0.00614369977008,0.0,0.0,0.0,-0.2440025657,0.969774586145,0.00559730190992,0.05,0.05,0.0,1.0,0.0,1.0,0,0,,,0
1449616888677743443,23,0,/odom,bcmd_vector,0,0,0,0.138054220136,-0.00614369977008,0.0,0.0,0.0,-0.2440025657,0.969774586145,0.00559730190992,0.05,0.05,0.0,1.0,0.0,1.0,0,0,,,0
1449616888707422284,24,0,/odom,bcmd_vector,0,0,0,0.138054220136,-0.00614369977008,0.0,0.0,0.0,-0.2440025657,0.969774586145,0.00559730190992,0.05,0.05,0.0,1.0,0.0,1.0,0,0,,,0
1449616888749138484,25,0,/odom,bcmd_vector,0,0,0,0.138054220136,-0.00614369977008,0.0,0.0,0.0,-0.2440025657,0.969774586145,0.00559730190992,0.05,0.05,0.0,1.0,0.0,1.0,0,0,,,0
1449616888787994332,26,0,/odom,bcmd_vector,0,0,0,0.140914576942,-0.00647771802702,0.0,0.0,0.0,-0.249123447993,0.968471738183,0.00559730190992,0.05,0.05,0.0,1.0,0.0,1.0,0,0,,,0
1449616888871982445,27,0,/odom,bcmd_vector,0,0,0,0.140914576942,-0.00647771802702,0.0,0.0,0.0,-0.252196700755,0.967675991295,0.00559730190992,0.05,0.05,0.0,1.0,0.0,1.0,0,0,,,0
1449616888898524364,28,0,/odom,bcmd_vector,0,0,0,0.140914576942,-0.00647771802702,0.0,0.0,0.0,-0.262408874392,0.964956777602,0.00559730190992,0.05,0.05,0.0,1.0,0.0,1.0,0,0,,,0
1449616888922217384,29,0,/odom,bcmd_vector,0,0,0,0.14376290833,-0.00690223840692,0.0,0.0,0.0,-0.267504042427,0.963556737969,0.00559730190992,0.05,0.05,0.0,1.0,0.0,1.0,0,0,,,0
1449616888961323723,30,0,/odom,bcmd_vector,0,0,0,0.140919222265,-0.00644764098831,0.0,0.0,0.0,-0.272591741521,0.962129795014,0.00559730190992,0.05,0.05,0.0,1.0,0.0,1.0,0,0,,,0
1449616889004748788,31,0,/odom,bcmd_vector,0,0,0,0.140919222265,-0.00644764098831,0.0,0.0,0.0,-0.272591741521,0.962129795014,0.00559730190992,0.05,0.05,0.0,1.0,0.0,1.0,0,0,,,0
1449616889034781257,32,0,/odom,bcmd_vector,0,0,0,0.143757945417,-0.00693226467499,0.0,0.0,0.0,-0.274620670682,0.961552644026,0.00559730190992,0.05,0.05,0.0,1.0,0.0,1.0,0,0,,,0
1449616889071103271,33,0,/odom,bcmd_vector,0,0,0,0.140924502214,-0.00641766884427,0.0,0.0,0.0,-0.279697680794,0.960088124788,0.00559730190992,0.05,0.05,0.0,1.0,0.0,1.0,0,0,,,0
1449616889107155396,34,0,/odom,bcmd_vector,0,0,0,0.143752349021,-0.00696217934762,0.0,0.0,0.0,-0.201656578262,0.979456290216,0.0111846038198,0.05,0.05,0.0,1.0,0.0,1.0,0,0,,,0
1449616889148867834,35,0,/odom,bcmd_vector,0,0,0,0.143752349021,-0.00696217934762,0.0,0.0,0.0,-0.201656578262,0.979456290216,0.0111846038198,0.05,0.05,0.0,1.0,0.0,1.0,0,0,,,0
1449616889212475082,36,0,/odom,bcmd_vector,0,0,0,0.143752349021,-0.00696217934762,0.0,0.0,0.0,-0.211996066581,0.977270519229,0.0111846038198,0.05,0.05,0.0,1.0,0.0,1.0,0,0,,,0
1449616889233207340,37,0,/odom,bcmd_vector,0,0,0,0.143752349021,-0.00696217934762,0.0,0.0,0.0,-0.16000229734,0.987116641966,0.0335338101482,0.05,0.05,0.0,1.0,0.0,1.0,0,0,,,0
1449616889293626670,38,0,/odom,bcmd_vector,0,0,0,0.143752349021,-0.00696217934762,0.0,0.0,0.0,-0.16000229734,0.987116641966,0.0335338101482,0.05,0.05,0.0,1.0,0.0,1.0,0,0,,,0
1449616889309786438,39,0,/odom,bcmd_vector,0,0,0,0.146547490263,-0.00765528445533,0.0,0.0,0.0,-0.151770845853,0.988415707255,0.347819524059,0.05,0.05,0.0,1.0,0.0,1.0,0,0,,,0
1449616889376953572,40,0,/odom,bcmd_vector,0,0,0,0.146547490263,-0.00765528445533,0.0,0.0,0.0,-0.151770845853,0.988415707255,0.347819524059,0.05,0.05,0.0,1.0,0.0,1.0,0,0,,,0
1449616889394214982,41,0,/odom,bcmd_vector,0,0,0,0.146539698214,-0.0076847036879,0.0,0.0,0.0,-0.162207801649,0.986756620998,0.347819524059,0.05,0.05,0.0,1.0,0.0,1.0,0,0,,,0
1449616889462246800,42,0,/odom,bcmd_vector,0,0,0,0.146539698214,-0.0076847036879,0.0,0.0,0.0,-0.165092319869,0.986278117936,0.347819524059,0.05,0.05,0.0,1.0,0.0,1.0,0,0,,,0
1449616889480604811,43,0,/odom,bcmd_vector,0,0,0,0.146539698214,-0.0076847036879,0.0,0.0,0.0,-0.165092319869,0.986278117936,0.347819524059,0.05,0.05,0.0,1.0,0.0,1.0,0,0,,,0
1449616889545239193,44,0,/odom,bcmd_vector,0,0,0,0.146539698214,-0.0076847036879,0.0,0.0,0.0,-0.165092319869,0.986278117936,0.347819524059,0.05,0.05,0.0,1.0,0.0,1.0,0,0,,,0
1449616889556065732,45,0,/odom,bcmd_vector,0,0,0,0.146539698214,-0.0076847036879,0.0,0.0,0.0,-0.15890939459,0.987293170396,0.346422698746,0.05,0.05,0.0,1.0,0.0,1.0,0,0,,,0
1449616889591673416,46,0,/odom,bcmd_vector,0,0,0,0.146539698214,-0.0076847036879,0.0,0.0,0.0,-0.15890939459,0.987293170396,0.346422698746,0.05,0.05,0.0,1.0,0.0,1.0,0,0,,,0
1449616889667866813,47,0,/odom,bcmd_vector,0,0,0,0.149275968112,-0.00858249892909,0.0,0.0,0.0,-0.164124033015,0.986439710163,0.346422698746,0.05,0.05,0.0,1.0,0.0,1.0,0,0,,,0
1449616889684122152,48,0,/odom,bcmd_vector,0,0,0,0.149275968112,-0.00858249892909,0.0,0.0,0.0,-0.164124033015,0.986439710163,0.346422698746,0.05,0.05,0.0,1.0,0.0,1.0,0,0,,,0
1449616889722585821,49,0,/odom,bcmd_vector,0,0,0,0.149275968112,-0.00858249892909,0.0,0.0,0.0,-0.164124033015,0.986439710163,0.346422698746,0.05,0.05,0.0,1.0,0.0,1.0,0,0,,,0
1449616889755360954,50,0,/odom,bcmd_vector,0,0,0,0.149275968112,-0.00858249892909,0.0,0.0,0.0,-0.164124033015,0.986439710163,0.346422698746,0.05,0.05,0.0,1.0,0.0,1.0,0,0,,,0
1449616889799512872,51,0,/odom,bcmd_vector,0,0,0,0.149275968112,-0.00858249892909,0.0,0.0,0.0,-0.164124033015,0.986439710163,0.346422698746,0.05,0.05,0.0,1.0,0.0,1.0,0,0,,,0
1449616889866890031,52,0,/odom,bcmd_vector,0,0,0,0.152002597447,-0.00950916053146,0.0,0.0,0.0,-0.169334088957,0.985558707697,0.340835397491,0.05,0.05,0.0,1.0,0.0,1.0,0,0,,,0
1449616889890025518,53,0,/odom,bcmd_vector,0,0,0,0.152002597447,-0.00950916053146,0.0,0.0,0.0,-0.169334088957,0.985558707697,0.340835397491,0.05,0.05,0.0,1.0,0.0,1.0,0,0,,,0
1449616889910583784,54,0,/odom,bcmd_vector,0,0,0,0.152002597447,-0.00950916053146,0.0,0.0,0.0,-0.172461988035,0.985016173818,0.340835397491,0.05,0.05,0.0,1.0,0.0,1.0,0,0,,,0
1449616889962226516,55,0,/odom,bcmd_vector,0,0,0,0.152002597447,-0.00950916053146,0.0,0.0,0.0,-0.172461988035,0.985016173818,0.340835397491,0.05,0.05,0.0,1.0,0.0,1.0,0,0,,,0
1449616889989924914,56,0,/odom,bcmd_vector,0,0,0,0.152002597447,-0.00950916053146,0.0,0.0,0.0,-0.172461988035,0.985016173818,0.340835397491,0.05,0.05,0.0,1.0,0.0,1.0,0,0,,,0
1449616890036933817,57,0,/odom,bcmd_vector,0,0,0,0.152002597447,-0.00950916053146,0.0,0.0,0.0,-0.169334088957,0.985558707697,0.340835397491,0.05,0.05,0.0,1.0,0.0,1.0,0,0,,,0
1449616890097270250,58,0,/odom,bcmd_vector,0,0,0,0.152002597447,-0.00950916053146,0.0,0.0,0.0,-0.169334088957,0.985558707697,0.340835397491,0.05,0.05,0.0,1.0,0.0,1.0,0,0,,,0
1449616890129799226,59,0,/odom,bcmd_vector,0,0,0,0.154738867346,-0.0104069557726,0.0,0.0,0.0,-0.164124033015,0.986439710163,0.340835397491,0.05,0.05,0.0,1.0,0.0,1.0,0,0,,,0
1449616890162787348,60,0,/odom,bcmd_vector,0,0,0,0.15746549668,-0.011333617375,0.0,0.0,0.0,-0.169334088957,0.985558707697,0.340835397491,0.05,0.05,0.0,1.0,0.0,1.0,0,0,,,0
1449616890204607257,61,0,/odom,bcmd_vector,0,0,0,0.15746549668,-0.011333617375,0.0,0.0,0.0,-0.169334088957,0.985558707697,0.346422698746,0.05,0.05,0.0,1.0,0.0,1.0,0,0,,,0
1449616890241365041,62,0,/odom,bcmd_vector,0,0,0,0.15746549668,-0.011333617375,0.0,0.0,0.0,-0.169334088957,0.985558707697,0.346422698746,0.05,0.05,0.0,1.0,0.0,1.0,0,0,,,0
1449616890299301552,63,0,/odom,bcmd_vector,0,0,0,0.16291875535,-0.0131869405798,0.0,0.0,0.0,-0.169334088957,0.985558707697,0.346422698746,0.05,0.05,0.0,1.0,0.0,1.0,0,0,,,0
1449616890313087470,64,0,/odom,bcmd_vector,0,0,0,0.16291875535,-0.0131869405798,0.0,0.0,0.0,-0.169334088957,0.985558707697,0.346422698746,0.05,0.05,0.0,1.0,0.0,1.0,0,0,,,0
1449616890373909741,65,0,/odom,bcmd_vector,0,0,0,0.168372014019,-0.0150402637845,0.0,0.0,0.0,-0.169334088957,0.985558707697,0.346422698746,0.05,0.05,0.0,1.0,0.0,1.0,0,0,,,0
1449616890425523268,66,0,/odom,bcmd_vector,0,0,0,0.171088698272,-0.0159956882561,0.0,0.0,0.0,-0.174539416948,0.984650187595,0.346422698746,0.05,0.05,0.0,1.0,0.0,1.0,0,0,,,0
1449616890460528376,67,0,/odom,bcmd_vector,0,0,0,0.171088698272,-0.0159956882561,0.0,0.0,0.0,-0.17766440561,0.984091133472,0.340835397491,0.05,0.05,0.0,1.0,0.0,1.0,0,0,,,0
1449616890560607037,68,0,/odom,bcmd_vector,0,0,0,0.176522066779,-0.0179065371992,0.0,0.0,0.0,-0.17766440561,0.984091133472,0.340835397491,0.05,0.05,0.0,1.0,0.0,1.0,0,0,,,0
1449616890560643860,69,0,/odom,bcmd_vector,0,0,0,0.184641374077,-0.0208587791085,0.0,0.0,0.0,-0.179739871651,0.983714175225,0.340835397491,0.05,0.05,0.0,1.0,0.0,1.0,0,0,,,0
1449616890560649830,70,0,/odom,bcmd_vector,0,0,0,0.184641374077,-0.0208587791085,0.0,0.0,0.0,-0.179739871651,0.983714175225,0.340835397491,0.05,0.05,0.0,1.0,0.0,1.0,0,0,,,0
1449616890609139330,71,0,/odom,bcmd_vector,0,0,0,0.190054245608,-0.0228269403814,0.0,0.0,0.0,-0.179739871651,0.983714175225,0.31289889122,0.05,0.05,0.0,1.0,0.0,1.0,0,0,,,0
1449616890682301479,72,0,/odom,bcmd_vector,0,0,0,0.195424311976,-0.0249090605094,0.0,0.0,0.0,-0.190125580526,0.981759778983,0.31289889122,0.05,0.05,0.0,1.0,0.0,1.0,0,0,,,0
1449616890702279320,73,0,/odom,bcmd_vector,0,0,0,0.20616444471,-0.0290733007655,0.0,0.0,0.0,-0.190125580526,0.981759778983,0.31289889122,0.05,0.05,0.0,1.0,0.0,1.0,0,0,,,0
1449616890762680380,74,0,/odom,bcmd_vector,0,0,0,0.20616444471,-0.0290733007655,0.0,0.0,0.0,-0.235343938268,0.971912151751,0.35201,0.05,0.05,0.0,1.0,0.0,1.0,0,0,,,0
1449616890792397789,75,0,/odom,bcmd_vector,0,0,0,0.216904577444,-0.0332375410215,0.0,0.0,0.0,-0.235343938268,0.971912151751,0.35201,0.05,0.05,0.0,1.0,0.0,1.0,0,0,,,0
1449616890804939859,76,0,/odom,bcmd_vector,0,0,0,0.224926221881,-0.0364456719107,0.0,0.0,0.0,-0.195310544721,0.98074144968,0.296136987457,0.05,0.05,0.0,1.0,0.0,1.0,0,0,,,0
1449616890848616685,77,0,/odom,bcmd_vector,0,0,0,0.224926221881,-0.0364456719107,0.0,0.0,0.0,-0.195310544721,0.98074144968,0.296136987457,0.05,0.05,0.0,1.0,0.0,1.0,0,0,,,0
1449616890885017262,78,0,/odom,bcmd_vector,0,0,0,0.232913515327,-0.0397383952047,0.0,0.0,0.0,-0.200490055679,0.979695737244,0.296136987457,0.05,0.05,0.0,1.0,0.0,1.0,0,0,,,0
1449616890951823374,79,0,/odom,bcmd_vector,0,0,0,0.238238377625,-0.0419335440674,0.0,0.0,0.0,-0.200490055679,0.979695737244,0.346422698746,0.05,0.05,0.0,1.0,0.0,1.0,0,0,,,0
1449616891037888774,80,0,/odom,bcmd_vector,0,0,0,0.246190428038,-0.0453104920261,0.0,0.0,0.0,-0.230286292468,0.97312292312,0.35201,0.05,0.05,0.0,1.0,0.0,1.0,0,0,,,0
1449616891071150552,81,0,/odom,bcmd_vector,0,0,0,0.269974316998,-0.0556090309393,0.0,0.0,0.0,-0.235425058858,0.971892505199,0.35201,0.05,0.05,0.0,1.0,0.0,1.0,0,0,,,0
1449616891117676692,82,0,/odom,bcmd_vector,0,0,0,0.269974316998,-0.0556090309393,0.0,0.0,0.0,-0.235425058858,0.971892505199,0.35201,0.05,0.05,0.0,1.0,0.0,1.0,0,0,,,0
1449616891153953324,83,0,/odom,bcmd_vector,0,0,0,0.288307899619,-0.0639897163054,0.0,0.0,0.0,-0.240557251981,0.970634951215,0.35201,0.05,0.05,0.0,1.0,0.0,1.0,0,0,,,0
1449616891249142777,84,0,/odom,bcmd_vector,0,0,0,0.296148908537,-0.0676170379663,0.0,0.0,0.0,-0.245682728541,0.969350296279,0.35201,0.05,0.05,0.0,1.0,0.0,1.0,0,0,,,0
1449616891262298493,85,0,/odom,bcmd_vector,0,0,0,0.314405825162,-0.0761634485755,0.0,0.0,0.0,-0.217013894747,0.976168514902,0.0670576202965,0.05,0.05,0.0,1.0,0.0,1.0,0,0,,,0
1449616891297677101,86,0,/odom,bcmd_vector,0,0,0,0.314405825162,-0.0761634485755,0.0,0.0,0.0,-0.213913858563,0.976852527823,0.0167719050741,0.05,0.05,0.0,1.0,0.0,1.0,0,0,,,0
1449616891350412453,87,0,/odom,bcmd_vector,0,0,0,0.322168421004,-0.0799556760303,0.0,0.0,0.0,-0.219072560749,0.975708569772,0.0167719050741,0.05,0.05,0.0,1.0,0.0,1.0,0,0,,,0
1449616891421197389,88,0,/odom,bcmd_vector,0,0,0,0.335038565456,-0.0864124254562,0.0,0.0,0.0,-0.224225146244,0.97453736911,0.0167719050741,0.05,0.05,0.0,1.0,0.0,1.0,0,0,,,0
1449616891436447592,89,0,/odom,bcmd_vector,0,0,0,0.350482738797,-0.0941605247673,0.0,0.0,0.0,-0.22731778077,0.973820633662,0.00559730190992,0.05,0.05,0.0,1.0,0.0,1.0,0,0,,,0
1449616891506120478,90,0,/odom,bcmd_vector,0,0,0,0.36328393059,-0.100752923421,0.0,0.0,0.0,-0.232460275304,0.972605891616,0.00559730190992,0.05,0.05,0.0,1.0,0.0,1.0,0,0,,,0
1449616891520518452,91,0,/odom,bcmd_vector,0,0,0,0.370922416269,-0.104789310397,0.0,0.0,0.0,-0.23759627935,0.971363993588,0.00559730190992,0.05,0.05,0.0,1.0,0.0,1.0,0,0,,,0
1449616891544281092,92,0,/odom,bcmd_vector,0,0,0,0.381107063841,-0.110171159697,0.0,0.0,0.0,-0.23759627935,0.971363993588,0.00559730190992,0.05,0.05,0.0,1.0,0.0,1.0,0,0,,,0
1449616891573623496,93,0,/odom,bcmd_vector,0,0,0,0.381107063841,-0.110171159697,0.0,0.0,0.0,-0.23759627935,0.971363993588,0.00559730190992,0.05,0.05,0.0,1.0,0.0,1.0,0,0,,,0
1449616893966274104,94,0,/odom,bcmd_vector,0,0,0,0.844558635738,-0.431189729348,0.0,0.0,0.0,-0.318773222953,0.947831014648,1e-05,0.05,0.05,0.0,1.0,0.0,1.0,0,0,,,0
1449616893985955013,95,0,/odom,bcmd_vector,0,0,0,0.86067155965,-0.443303396688,0.0,0.0,0.0,-0.313760433897,0.949502180156,1e-05,0.05,0.05,0.0,1.0,0.0,1.0,0,0,,,0
1449616894022171716,96,0,/odom,bcmd_vector,0,0,0,0.86067155965,-0.443303396688,0.0,0.0,0.0,-0.301678290499,0.953409780232,1e-05,0.05,0.05,0.0,1.0,0.0,1.0,0,0,,,0
1449616894055438945,97,0,/odom,bcmd_vector,0,0,0,0.874482637289,-0.453686540122,0.0,0.0,0.0,-0.301678290499,0.953409780232,1e-05,0.05,0.05,0.0,1.0,0.0,1.0,0,0,,,0
1449616894095544745,98,0,/odom,bcmd_vector,0,0,0,0.879086329836,-0.457147587934,0.0,0.0,0.0,-0.301678290499,0.953409780232,1e-05,0.05,0.05,0.0,1.0,0.0,1.0,0,0,,,0
1449616894177086711,99,0,/odom,bcmd_vector,0,0,0,0.890686358113,-0.465678096435,0.0,0.0,0.0,-0.210688826687,0.977553179274,-0.00557730190992,0.05,0.05,0.0,1.0,0.0,1.0,0,0,,,0
1449616894199364982,100,0,/odom,bcmd_vector,0,0,0,0.911620109848,-0.480959173496,0.0,0.0,0.0,-0.205520494625,0.978652811925,-0.00557730190992,0.05,0.05,0.0,1.0,0.0,1.0,0,0,,,0
1449616894292158993,101,0,/odom,bcmd_vector,0,0,0,0.920971733582,-0.487685129309,0.0,0.0,0.0,-0.211729984479,0.977328201615,1e-05,0.05,0.05,0.0,1.0,0.0,1.0,0,0,,,0
1449616894326195876,102,0,/odom,bcmd_vector,0,0,0,0.942101082858,-0.502694527184,0.0,0.0,0.0,-0.206562826664,0.978433338884,1e-05,0.05,0.05,0.0,1.0,0.0,1.0,0,0,,,0
1449616894359628187,103,0,/odom,bcmd_vector,0,0,0,0.951523263291,-0.509321280835,0.0,0.0,0.0,-0.30169825807,0.953403461855,1e-05,0.05,0.05,0.0,1.0,0.0,1.0,0,0,,,0
1449616894464953908,104,0,/odom,bcmd_vector,0,0,0,0.960945443724,-0.515948034486,0.0,0.0,0.0,-0.30169825807,0.953403461855,1e-05,0.05,0.05,0.0,1.0,0.0,1.0,0,0,,,0
1449616894488371666,105,0,/odom,bcmd_vector,0,0,0,0.97978980459,-0.529201541787,0.0,0.0,0.0,-0.30169825807,0.953403461855,1e-05,0.05,0.05,0.0,1.0,0.0,1.0,0,0,,,0
1449616894570639140,106,0,/odom,bcmd_vector,0,0,0,0.991654410637,-0.537360056032,0.0,0.0,0.0,-0.296656262579,0.954984325459,1e-05,0.05,0.05,0.0,1.0,0.0,1.0,0,0,,,0
1449616894617418687,107,0,/odom,bcmd_vector,0,0,0,1.00589193789,-0.547150273126,0.0,0.0,0.0,-0.296656262579,0.954984325459,1e-05,0.05,0.05,0.0,1.0,0.0,1.0,0,0,,,0
1449616894656913036,108,0,/odom,bcmd_vector,0,0,0,1.01306203478,-0.551969878284,0.0,0.0,0.0,-0.291605984193,0.956538525091,1e-05,0.05,0.05,0.0,1.0,0.0,1.0,0,0,,,0
1449616894726446010,109,0,/odom,bcmd_vector,0,0,0,1.01784209938,-0.555182948389,0.0,0.0,0.0,-0.291605984193,0.956538525091,1e-05,0.05,0.05,0.0,1.0,0.0,1.0,0,0,,,0
1449616894748381647,110,0,/odom,bcmd_vector,0,0,0,1.03696235775,-0.568035228809,0.0,0.0,0.0,-0.291605984193,0.956538525091,1e-05,0.05,0.05,0.0,1.0,0.0,1.0,0,0,,,0
1449616894819679249,111,0,/odom,bcmd_vector,0,0,0,1.03696235775,-0.568035228809,0.0,0.0,0.0,-0.244204250647,0.969723818397,-0.00138682547748,0.05,0.05,0.0,1.0,0.0,1.0,0,0,,,0
1449616894881958062,112,0,/odom,bcmd_vector,0,0,0,1.0465393311,-0.5744360218,0.0,0.0,0.0,-0.244204250647,0.969723818397,-0.00138682547748,0.05,0.05,0.0,1.0,0.0,1.0,0,0,,,0
1449616894923028248,113,0,/odom,bcmd_vector,0,0,0,1.05609946028,-0.58086216201,0.0,0.0,0.0,-0.244204250647,0.969723818397,-0.00138682547748,0.05,0.05,0.0,1.0,0.0,1.0,0,0,,,0
1449616894967065595,114,0,/odom,bcmd_vector,0,0,0,1.06332008966,-0.585605725512,0.0,0.0,0.0,-0.239076821036,0.971000655841,-0.00138682547748,0.05,0.05,0.0,1.0,0.0,1.0,0,0,,,0
1449616895025138369,115,0,/odom,bcmd_vector,0,0,0,1.06813384258,-0.58876810118,0.0,0.0,0.0,-0.239076821036,0.971000655841,-0.00138682547748,0.05,0.05,0.0,1.0,0.0,1.0,0,0,,,0
1449616895074299932,116,0,/odom,bcmd_vector,0,0,0,1.07052387487,-0.590374636233,0.0,0.0,0.0,-0.244204250647,0.969723818397,-0.00138682547748,0.05,0.05,0.0,1.0,0.0,1.0,0,0,,,0
1449616895125289443,117,0,/odom,bcmd_vector,0,0,0,1.07293075133,-0.591955824067,0.0,0.0,0.0,-0.239076821036,0.971000655841,-0.00138682547748,0.05,0.05,0.0,1.0,0.0,1.0,0,0,,,0
1449616895196840139,118,0,/odom,bcmd_vector,0,0,0,1.08013453655,-0.596724734787,0.0,0.0,0.0,-0.244204250647,0.969723818397,-0.00138682547748,0.05,0.05,0.0,1.0,0.0,1.0,0,0,,,0
1449616895239071004,119,0,/odom,bcmd_vector,0,0,0,1.08735516592,-0.601468298289,0.0,0.0,0.0,-0.239076821036,0.971000655841,-0.00138682547748,0.05,0.05,0.0,1.0,0.0,1.0,0,0,,,0
1449616895267215527,120,0,/odom,bcmd_vector,0,0,0,1.08735516592,-0.601468298289,0.0,0.0,0.0,-0.239076821036,0.971000655841,-0.00138682547748,0.05,0.05,0.0,1.0,0.0,1.0,0,0,,,0
1449616895328057022,121,0,/odom,bcmd_vector,0,0,0,1.08735516592,-0.601468298289,0.0,0.0,0.0,-0.239076821036,0.971000655841,-0.00138682547748,0.05,0.05,0.0,1.0,0.0,1.0,0,0,,,0
1449616895438069313,122,0,/odom,bcmd_vector,0,0,0,1.09216891884,-0.604630673957,0.0,0.0,0.0,-0.239076821036,0.971000655841,-0.00138682547748,0.05,0.05,0.0,1.0,0.0,1.0,0,0,,,0
1449616895516814716,123,0,/odom,bcmd_vector,0,0,0,1.09459237065,-0.606186337981,0.0,0.0,0.0,-0.239340468886,0.970935703306,-0.00138682547748,0.05,0.05,0.0,1.0,0.0,1.0,0,0,,,0
1449616895635582416,124,0,/odom,bcmd_vector,0,0,0,1.09459237065,-0.606186337981,0.0,0.0,0.0,-0.233942716198,0.972250382123,-0.00138682547748,0.05,0.05,0.0,1.0,0.0,1.0,0,0,,,0
1449616895688310669,125,0,/odom,bcmd_vector,0,0,0,1.09459237065,-0.606186337981,0.0,0.0,0.0,-0.233942716198,0.972250382123,-0.00138682547748,0.05,0.05,0.0,1.0,0.0,1.0,0,0,,,0
1449616895791288991,126,0,/odom,bcmd_vector,0,0,0,1.09459237065,-0.606186337981,0.0,0.0,0.0,-0.129968603352,0.991518109841,1e-05,0.05,0.05,0.0,1.0,0.0,1.0,0,0,,,0
1449616895856903812,127,0,/odom,bcmd_vector,0,0,0,1.09459237065,-0.606186337981,0.0,0.0,0.0,-0.129968603352,0.991518109841,1e-05,0.05,0.05,0.0,1.0,0.0,1.0,0,0,,,0
1449616895891483827,128,0,/odom,bcmd_vector,0,0,0,1.09459237065,-0.606186337981,0.0,0.0,0.0,-0.129968603352,0.991518109841,1e-05,0.05,0.05,0.0,1.0,0.0,1.0,0,0,,,0
1449616895948324279,129,0,/odom,bcmd_vector,0,0,0,1.09459237065,-0.606186337981,0.0,0.0,0.0,-0.129968603352,0.991518109841,1e-05,0.05,0.05,0.0,1.0,0.0,1.0,0,0,,,0
1449616896035461866,130,0,/odom,bcmd_vector,0,0,0,1.09459237065,-0.606186337981,0.0,0.0,0.0,-0.129968603352,0.991518109841,1e-05,0.05,0.05,0.0,1.0,0.0,1.0,0,0,,,0
1449616896070142720,131,0,/odom,bcmd_vector,0,0,0,1.09459237065,-0.606186337981,0.0,0.0,0.0,-0.129968603352,0.991518109841,1e-05,0.05,0.05,0.0,1.0,0.0,1.0,0,0,,,0
1449616896094115114,132,0,/odom,bcmd_vector,0,0,0,1.09459237065,-0.606186337981,0.0,0.0,0.0,-0.129968603352,0.991518109841,1e-05,0.05,0.05,0.0,1.0,0.0,1.0,0,0,,,0
1449616896130971928,133,0,/odom,bcmd_vector,0,0,0,1.09459237065,-0.606186337981,0.0,0.0,0.0,-0.129968603352,0.991518109841,1e-05,0.05,0.05,0.0,1.0,0.0,1.0,0,0,,,0
1449616896223548915,134,0,/odom,bcmd_vector,0,0,0,1.09459237065,-0.606186337981,0.0,0.0,0.0,-0.129968603352,0.991518109841,1e-05,0.05,0.05,0.0,1.0,0.0,1.0,0,0,,,0
1449616896253803406,135,0,/odom,bcmd_vector,0,0,0,1.09459237065,-0.606186337981,0.0,0.0,0.0,-0.129968603352,0.991518109841,1e-05,0.05,0.05,0.0,1.0,0.0,1.0,0,0,,,0
1449616896284562957,136,0,/odom,bcmd_vector,0,0,0,1.09459237065,-0.606186337981,0.0,0.0,0.0,-0.129968603352,0.991518109841,1e-05,0.05,0.05,0.0,1.0,0.0,1.0,0,0,,,0
1449616896313089079,137,0,/odom,bcmd_vector,0,0,0,1.09459237065,-0.606186337981,0.0,0.0,0.0,-0.129968603352,0.991518109841,1e-05,0.05,0.05,0.0,1.0,0.0,1.0,0,0,,,0
1449616896382707550,138,0,/odom,bcmd_vector,0,0,0,1.09459237065,-0.606186337981,0.0,0.0,0.0,-0.129968603352,0.991518109841,1e-05,0.05,0.05,0.0,1.0,0.0,1.0,0,0,,,0
1449616896415700018,139,0,/odom,bcmd_vector,0,0,0,1.09459237065,-0.606186337981,0.0,0.0,0.0,-0.129968603352,0.991518109841,1e-05,0.05,0.05,0.0,1.0,0.0,1.0,0,0,,,0
1449616896447685140,140,0,/odom,bcmd_vector,0,0,0,1.09459237065,-0.606186337981,0.0,0.0,0.0,-0.129968603352,0.991518109841,1e-05,0.05,0.05,0.0,1.0,0.0,1.0,0,0,,,0
1449616896483330031,141,0,/odom,bcmd_vector,0,0,0,1.09459237065,-0.606186337981,0.0,0.0,0.0,-0.129968603352,0.991518109841,1e-05,0.05,0.05,0.0,1.0,0.0,1.0,0,0,,,0
1449616896516710298,142,0,/odom,bcmd_vector,0,0,0,1.09459237065,-0.606186337981,0.0,0.0,0.0,-0.129968603352,0.991518109841,1e-05,0.05,0.05,0.0,1.0,0.0,1.0,0,0,,,0
1449616896545233574,143,0,/odom,bcmd_vector,0,0,0,1.09459237065,-0.606186337981,0.0,0.0,0.0,-0.129968603352,0.991518109841,1e-05,0.05,0.05,0.0,1.0,0.0,1.0,0,0,,,0
1449616896591864120,144,0,/odom,bcmd_vector,0,0,0,1.09459237065,-0.606186337981,0.0,0.0,0.0,-0.129968603352,0.991518109841,1e-05,0.05,0.05,0.0,1.0,0.0,1.0,0,0,,,0
1449616896653382666,145,0,/odom,bcmd_vector,0,0,0,1.09459237065,-0.606186337981,0.0,0.0,0.0,-0.129968603352,0.991518109841,1e-05,0.05,0.05,0.0,1.0,0.0,1.0,0,0,,,0
1449616896741434547,146,0,/odom,bcmd_vector,0,0,0,1.09459237065,-0.606186337981,0.0,0.0,0.0,-0.129968603352,0.991518109841,1e-05,0.05,0.05,0.0,1.0,0.0,1.0,0,0,,,0
1449616896780426372,147,0,/odom,bcmd_vector,0,0,0,1.09703212717,-0.607716304455,0.0,0.0,0.0,-0.124727607489,0.992191021896,1e-05,0.05,0.05,0.0,1.0,0.0,1.0,0,0,,,0
1449616896947123123,148,0,/odom,bcmd_vector,0,0,0,1.09703212717,-0.607716304455,0.0,0.0,0.0,-0.124727607489,0.992191021896,1e-05,0.05,0.05,0.0,1.0,0.0,1.0,0,0,,,0
1449616896961321775,149,0,/odom,bcmd_vector,0,0,0,1.09703212717,-0.607716304455,0.0,0.0,0.0,-0.124727607489,0.992191021896,1e-05,0.05,0.05,0.0,1.0,0.0,1.0,0,0,,,0
1449616897070123941,150,0,/odom,bcmd_vector,0,0,0,1.09457633843,-0.606212206402,0.0,0.0,0.0,-0.119483129125,0.992836231135,1e-05,0.05,0.05,0.0,1.0,0.0,1.0,0,0,,,0
1449616897132849673,151,0,/odom,bcmd_vector,0,0,0,1.09457633843,-0.606212206402,0.0,0.0,0.0,-0.119483129125,0.992836231135,1e-05,0.05,0.05,0.0,1.0,0.0,1.0,0,0,,,0
1449616897177402315,152,0,/odom,bcmd_vector,0,0,0,1.09704788512,-0.607690268053,0.0,0.0,0.0,-0.114235314691,0.993453719545,1e-05,0.05,0.05,0.0,1.0,0.0,1.0,0,0,,,0
1449616897252660283,153,0,/odom,bcmd_vector,0,0,0,1.09456085651,-0.606238407879,0.0,0.0,0.0,-0.10898431071,0.994043469884,1e-05,0.05,0.05,0.0,1.0,0.0,1.0,0,0,,,0
1449616897274759954,154,0,/odom,bcmd_vector,0,0,0,1.09456085651,-0.606238407879,0.0,0.0,0.0,-0.10898431071,0.994043469884,1e-05,0.05,0.05,0.0,1.0,0.0,1.0,0,0,,,0
1449616897326727976,155,0,/odom,bcmd_vector,0,0,0,1.09456085651,-0.606238407879,0.0,0.0,0.0,-0.10898431071,0.994043469884,1e-05,0.05,0.05,0.0,1.0,0.0,1.0,0,0,,,0
1449616897365628018,156,0,/odom,bcmd_vector,0,0,0,1.09205862374,-0.604812911329,0.0,0.0,0.0,-0.103730263795,0.994605465686,1e-05,0.05,0.05,0.0,1.0,0.0,1.0,0,0,,,0
1449616897424923945,157,0,/odom,bcmd_vector,0,0,0,1.09205862374,-0.604812911329,0.0,0.0,0.0,-0.103730263795,0.994605465686,1e-05,0.05,0.05,0.0,1.0,0.0,1.0,0,0,,,0
1449616897548113789,158,0,/odom,bcmd_vector,0,0,0,1.09205862374,-0.604812911329,0.0,0.0,0.0,-0.103730263795,0.994605465686,1e-05,0.05,0.05,0.0,1.0,0.0,1.0,0,0,,,0
1449616897657264738,159,0,/odom,bcmd_vector,0,0,0,1.09457578122,-0.606211885052,0.0,0.0,0.0,-0.0984733206426,0.99513969126,1e-05,0.05,0.05,0.0,1.0,0.0,1.0,0,0,,,0
1449616897691728962,160,0,/odom,bcmd_vector,0,0,0,1.09204398016,-0.604839590397,0.0,0.0,0.0,-0.197829139709,0.980236518133,-0.00138682547748,0.05,0.05,0.0,1.0,0.0,1.0,0,0,,,0
1449616897768399644,161,0,/odom,bcmd_vector,0,0,0,1.09204398016,-0.604839590397,0.0,0.0,0.0,-0.0903311079761,0.99591178873,1e-05,0.05,0.05,0.0,1.0,0.0,1.0,0,0,,,0
1449616897801305337,162,0,/odom,bcmd_vector,0,0,0,1.09459014205,-0.606185052722,0.0,0.0,0.0,-0.0850674492711,0.996375194931,1e-05,0.05,0.05,0.0,1.0,0.0,1.0,0,0,,,0
1449616897869347765,163,0,/odom,bcmd_vector,0,0,0,1.09459014205,-0.606185052722,0.0,0.0,0.0,-0.0850674492711,0.996375194931,1e-05,0.05,0.05,0.0,1.0,0.0,1.0,0,0,,,0
1449616898015591680,164,0,/odom,bcmd_vector,0,0,0,1.09459014205,-0.606185052722,0.0,0.0,0.0,-0.0850674492711,0.996375194931,1e-05,0.05,0.05,0.0,1.0,0.0,1.0,0,0,,,0
1449616898065663518,165,0,/odom,bcmd_vector,0,0,0,1.09459014205,-0.606185052722,0.0,0.0,0.0,-0.0879513328172,0.996124772835,1e-05,0.05,0.05,0.0,1.0,0.0,1.0,0,0,,,0
1449616898148037749,166,0,/odom,bcmd_vector,0,0,0,1.09459014205,-0.606185052722,0.0,0.0,0.0,-0.0879513328172,0.996124772835,1e-05,0.05,0.05,0.0,1.0,0.0,1.0,0,0,,,0
1449616898189159634,167,0,/odom,bcmd_vector,0,0,0,1.09715038041,-0.607503532453,0.0,0.0,0.0,-0.0826865819268,0.996575601332,1e-05,0.05,0.05,0.0,1.0,0.0,1.0,0,0,,,0
1449616898227719895,168,0,/odom,bcmd_vector,0,0,0,1.09715038041,-0.607503532453,0.0,0.0,0.0,-0.0826865819268,0.996575601332,1e-05,0.05,0.05,0.0,1.0,0.0,1.0,0,0,,,0
1449616898296716240,169,0,/odom,bcmd_vector,0,0,0,1.09715038041,-0.607503532453,0.0,0.0,0.0,-0.0826865819268,0.996575601332,1e-05,0.05,0.05,0.0,1.0,0.0,1.0,0,0,,,0
1449616898348388357,170,0,/odom,bcmd_vector,0,0,0,1.09715038041,-0.607503532453,0.0,0.0,0.0,-0.0826865819268,0.996575601332,1e-05,0.05,0.05,0.0,1.0,0.0,1.0,0,0,,,0
1449616898372730540,171,0,/odom,bcmd_vector,0,0,0,1.09715038041,-0.607503532453,0.0,0.0,0.0,-0.0826865819268,0.996575601332,1e-05,0.05,0.05,0.0,1.0,0.0,1.0,0,0,,,0
1449616898435994816,172,0,/odom,bcmd_vector,0,0,0,1.09715038041,-0.607503532453,0.0,0.0,0.0,-0.0826865819268,0.996575601332,1e-05,0.05,0.05,0.0,1.0,0.0,1.0,0,0,,,0
1449616898484710501,173,0,/odom,bcmd_vector,0,0,0,1.09715038041,-0.607503532453,0.0,0.0,0.0,-0.0826865819268,0.996575601332,1e-05,0.05,0.05,0.0,1.0,0.0,1.0,0,0,,,0
1449616898546211569,174,0,/odom,bcmd_vector,0,0,0,1.0997244093,-0.608794882338,0.0,0.0,0.0,-0.116442838542,0.993197394958,0.35201,0.05,0.05,0.0,1.0,0.0,1.0,0,0,,,0
1449616898621961795,175,0,/odom,bcmd_vector,0,0,0,1.0997244093,-0.608794882338,0.0,0.0,0.0,-0.116442838542,0.993197394958,0.35201,0.05,0.05,0.0,1.0,0.0,1.0,0,0,,,0
1449616898699619437,176,0,/odom,bcmd_vector,0,0,0,1.09713687735,-0.60753080652,0.0,0.0,0.0,-0.111193158162,0.993798813432,0.35201,0.05,0.05,0.0,1.0,0.0,1.0,0,0,,,0
1449616898748325346,177,0,/odom,bcmd_vector,0,0,0,1.09973762337,-0.608767467096,0.0,0.0,0.0,-0.105940373175,0.994372484199,0.35201,0.05,0.05,0.0,1.0,0.0,1.0,0,0,,,0
1449616898831532633,178,0,/odom,bcmd_vector,0,0,0,1.09973762337,-0.608767467096,0.0,0.0,0.0,-0.126849508164,0.991921973886,0.35201,0.05,0.05,0.0,1.0,0.0,1.0,0,0,,,0
1449616898870322939,179,0,/odom,bcmd_vector,0,0,0,1.10235129301,-0.609976574316,0.0,0.0,0.0,-0.121606421828,0.992578399004,0.35201,0.05,0.05,0.0,1.0,0.0,1.0,0,0,,,0
1449616898967926656,180,0,/odom,bcmd_vector,0,0,0,1.10235129301,-0.609976574316,0.0,0.0,0.0,-0.121606421828,0.992578399004,0.35201,0.05,0.05,0.0,1.0,0.0,1.0,0,0,,,0
1449616899012185140,181,0,/odom,bcmd_vector,0,0,0,1.10497759437,-0.611157993145,0.0,0.0,0.0,-0.116359940136,0.993207110492,0.35201,0.05,0.05,0.0,1.0,0.0,1.0,0,0,,,0
1449616899098072553,182,0,/odom,bcmd_vector,0,0,0,1.10497759437,-0.611157993145,0.0,0.0,0.0,-0.116359940136,0.993207110492,0.35201,0.05,0.05,0.0,1.0,0.0,1.0,0,0,,,0
1449616899149301064,183,0,/odom,bcmd_vector,0,0,0,1.10761623412,-0.612311591637,0.0,0.0,0.0,-0.111110209577,0.993808090794,0.35201,0.05,0.05,0.0,1.0,0.0,1.0,0,0,,,0
1449616899244385395,184,0,/odom,bcmd_vector,0,0,0,1.10761623412,-0.612311591637,0.0,0.0,0.0,-0.111110209577,0.993808090794,0.35201,0.05,0.05,0.0,1.0,0.0,1.0,0,0,,,0
1449616899336541425,185,0,/odom,bcmd_vector,0,0,0,1.11556828454,-0.615688539596,0.0,0.0,0.0,-0.105857376726,0.994381323131,0.35201,0.05,0.05,0.0,1.0,0.0,1.0,0,0,,,0
1449616899467984167,186,0,/odom,bcmd_vector,0,0,0,1.12090459717,-0.61785549099,0.0,0.0,0.0,-0.0953429908876,0.995444480666,0.35201,0.05,0.05,0.0,1.0,0.0,1.0,0,0,,,0
1449616899510823517,187,0,/odom,bcmd_vector,0,0,0,1.12628551537,-0.619909177951,0.0,0.0,0.0,-0.0848179568945,0.99639646436,0.35201,0.05,0.05,0.0,1.0,0.0,1.0,0,0,,,0
1449616899606599950,188,0,/odom,bcmd_vector,0,0,0,1.1316772854,-0.621934431744,0.0,0.0,0.0,-0.10577437954,0.994390155137,0.35201,0.05,0.05,0.0,1.0,0.0,1.0,0,0,,,0
1449616899666301590,189,0,/odom,bcmd_vector,0,0,0,1.13982703475,-0.624800598454,0.0,0.0,0.0,-0.0899986047124,0.995941891452,0.35201,0.05,0.05,0.0,1.0,0.0,1.0,0,0,,,0
1449616899693691716,190,0,/odom,bcmd_vector,0,0,0,1.14528029342,-0.626653921659,0.0,0.0,0.0,-0.0899986047124,0.995941891452,0.35201,0.05,0.05,0.0,1.0,0.0,1.0,0,0,,,0
1449616899747183514,191,0,/odom,bcmd_vector,0,0,0,1.15077150316,-0.628391578883,0.0,0.0,0.0,-0.140076120201,0.990140737749,-0.00557730190992,0.05,0.05,0.0,1.0,0.0,1.0,0,0,,,0
1449616899754044306,192,0,/odom,bcmd_vector,0,0,0,1.15352613636,-0.629231343832,0.0,0.0,0.0,-0.134842261266,0.990867077148,-0.00557730190992,0.05,0.05,0.0,1.0,0.0,1.0,0,0,,,0
1449616899795040590,193,0,/odom,bcmd_vector,0,0,0,1.15903540277,-0.630910873732,0.0,0.0,0.0,-0.131695977492,0.991290154048,-0.00557730190992,0.05,0.05,0.0,1.0,0.0,1.0,0,0,,,0
1449616899821738701,194,0,/odom,bcmd_vector,0,0,0,1.15903540277,-0.630910873732,0.0,0.0,0.0,-0.131695977492,0.991290154048,-0.00557730190992,0.05,0.05,0.0,1.0,0.0,1.0,0,0,,,0
1449616899862311601,195,0,/odom,bcmd_vector,0,0,0,1.16457893469,-0.632473592771,0.0,0.0,0.0,-0.121212815809,0.992626542706,-0.00557730190992,0.05,0.05,0.0,1.0,0.0,1.0,0,0,,,0
1449616899895975189,196,0,/odom,bcmd_vector,0,0,0,1.17291854012,-0.634729665597,0.0,0.0,0.0,-0.115966085222,0.993253173707,-0.00557730190992,0.05,0.05,0.0,1.0,0.0,1.0,0,0,,,0
1449616902076658930,197,0,/odom,bcmd_vector,0,0,0,1.66876729123,-0.640153058112,0.0,0.0,0.0,0.0496452243971,0.998766915599,1e-05,0.05,0.05,0.0,1.0,0.0,1.0,0,0,,,0
1449616902113979631,198,0,/odom,bcmd_vector,0,0,0,1.69740456058,-0.637115340336,0.0,0.0,0.0,0.0496452243971,0.998766915599,1e-05,0.05,0.05,0.0,1.0,0.0,1.0,0,0,,,0
1449616902172853120,199,0,/odom,bcmd_vector,0,0,0,1.69740456058,-0.637115340336,0.0,0.0,0.0,-0.143488158975,0.989652033916,1e-05,0.05,0.05,0.0,1.0,0.0,1.0,0,0,,,0
1449616902186838641,200,0,/odom,bcmd_vector,0,0,0,1.71742705822,-0.634777212537,0.0,0.0,0.0,-0.138256834718,0.99039640935,1e-05,0.05,0.05,0.0,1.0,0.0,1.0,0,0,,,0
1449616902223289735,201,0,/odom,bcmd_vector,0,0,0,1.71742705822,-0.634777212537,0.0,0.0,0.0,-0.138256834718,0.99039640935,1e-05,0.05,0.05,0.0,1.0,0.0,1.0,0,0,,,0
1449616902256054989,202,0,/odom,bcmd_vector,0,0,0,1.7317456929,-0.633258353649,0.0,0.0,0.0,-0.143488158975,0.989652033916,1e-05,0.05,0.05,0.0,1.0,0.0,1.0,0,0,,,0
1449616902334437048,203,0,/odom,bcmd_vector,0,0,0,1.74032676332,-0.632256298878,0.0,0.0,0.0,-0.138256834718,0.99039640935,1e-05,0.05,0.05,0.0,1.0,0.0,1.0,0,0,,,0
1449616902353980240,204,0,/odom,bcmd_vector,0,0,0,1.76605152666,-0.629099088689,0.0,0.0,0.0,-0.133021650212,0.991113132077,1e-05,0.05,0.05,0.0,1.0,0.0,1.0,0,0,,,0
1449616902376347234,205,0,/odom,bcmd_vector,0,0,0,1.76605152666,-0.629099088689,0.0,0.0,0.0,-0.133021650212,0.991113132077,1e-05,0.05,0.05,0.0,1.0,0.0,1.0,0,0,,,0
1449616902422959897,206,0,/odom,bcmd_vector,0,0,0,1.77747819556,-0.62764217896,0.0,0.0,0.0,-0.133021650212,0.991113132077,1e-05,0.05,0.05,0.0,1.0,0.0,1.0,0,0,,,0
1449616902453444919,207,0,/odom,bcmd_vector,0,0,0,1.78319153001,-0.626913724096,0.0,0.0,0.0,-0.133021650212,0.991113132077,1e-05,0.05,0.05,0.0,1.0,0.0,1.0,0,0,,,0
1449616902507215375,208,0,/odom,bcmd_vector,0,0,0,1.79461819891,-0.625456814367,0.0,0.0,0.0,-0.133021650212,0.991113132077,1e-05,0.05,0.05,0.0,1.0,0.0,1.0,0,0,,,0
1449616902532557401,209,0,/odom,bcmd_vector,0,0,0,1.80317617472,-0.624273626578,0.0,0.0,0.0,-0.12778275163,0.991802182084,1e-05,0.05,0.05,0.0,1.0,0.0,1.0,0,0,,,0
1449616902597899409,210,0,/odom,bcmd_vector,0,0,0,1.81458680913,-0.62269604286,0.0,0.0,0.0,-0.12778275163,0.991802182084,1e-05,0.05,0.05,0.0,1.0,0.0,1.0,0,0,,,0
1449616902613077014,211,0,/odom,bcmd_vector,0,0,0,1.8288371205,-0.620633689861,0.0,0.0,0.0,-0.122540285244,0.992463540132,1e-05,0.05,0.05,0.0,1.0,0.0,1.0,0,0,,,0
1449616902714160360,212,0,/odom,bcmd_vector,0,0,0,1.8288371205,-0.620633689861,0.0,0.0,0.0,-0.122540285244,0.992463540132,1e-05,0.05,0.05,0.0,1.0,0.0,1.0,0,0,,,0
1449616902733450184,213,0,/odom,bcmd_vector,0,0,0,1.84594009048,-0.618176940932,0.0,0.0,0.0,-0.122540285244,0.992463540132,1e-05,0.05,0.05,0.0,1.0,0.0,1.0,0,0,,,0
1449616902755944122,214,0,/odom,bcmd_vector,0,0,0,1.85449806629,-0.616993753143,0.0,0.0,0.0,-0.12778275163,0.991802182084,1e-05,0.05,0.05,0.0,1.0,0.0,1.0,0,0,,,0
1449616902807641609,215,0,/odom,bcmd_vector,0,0,0,1.85449806629,-0.616993753143,0.0,0.0,0.0,-0.118331364826,0.992974162855,1e-05,0.05,0.05,0.0,1.0,0.0,1.0,0,0,,,0
1449616902834749742,216,0,/odom,bcmd_vector,0,0,0,1.86304306045,-0.615720192003,0.0,0.0,0.0,-0.104778355997,0.994495598841,0.16641,0.05,0.05,0.0,1.0,0.0,1.0,0,0,,,0
1449616902918071618,217,0,/odom,bcmd_vector,0,0,0,1.86304306045,-0.615720192003,0.0,0.0,0.0,-0.104778355997,0.994495598841,0.16641,0.05,0.05,0.0,1.0,0.0,1.0,0,0,,,0
1449616902932190854,218,0,/odom,bcmd_vector,0,0,0,1.87729769904,-0.613687963455,0.0,0.0,0.0,-0.110031807744,0.993928066454,0.16641,0.05,0.05,0.0,1.0,0.0,1.0,0,0,,,0
1449616902977977194,219,0,/odom,bcmd_vector,0,0,0,1.87729769904,-0.613687963455,0.0,0.0,0.0,-0.12778275163,0.991802182084,1e-05,0.05,0.05,0.0,1.0,0.0,1.0,0,0,,,0
1449616903056591040,220,0,/odom,bcmd_vector,0,0,0,1.87729769904,-0.613687963455,0.0,0.0,0.0,-0.110031807744,0.993928066454,0.16641,0.05,0.05,0.0,1.0,0.0,1.0,0,0,,,0
1449616903150132221,221,0,/odom,bcmd_vector,0,0,0,1.88586770071,-0.612595281158,0.0,0.0,0.0,-0.0943459165753,0.995539475875,0.12001,0.05,0.05,0.0,1.0,0.0,1.0,0,0,,,0
1449616903220404787,222,0,/odom,bcmd_vector,0,0,0,1.88872805752,-0.612261262901,0.0,0.0,0.0,-0.135112027918,0.990830328518,1e-05,0.05,0.05,0.0,1.0,0.0,1.0,0,0,,,0
1449616903272426387,223,0,/odom,bcmd_vector,0,0,0,1.89159178445,-0.611957491123,0.0,0.0,0.0,-0.104861361987,0.994486849969,0.12001,0.05,0.05,0.0,1.0,0.0,1.0,0,0,,,0
1449616903303258852,224,0,/odom,bcmd_vector,0,0,0,1.89159178445,-0.611957491123,0.0,0.0,0.0,-0.0839031061344,0.996473917763,0.12001,0.05,0.05,0.0,1.0,0.0,1.0,0,0,,,0
1449616903329683455,225,0,/odom,bcmd_vector,0,0,0,1.89445856169,-0.611683999751,0.0,0.0,0.0,-0.0891673027456,0.996016662572,0.12001,0.05,0.05,0.0,1.0,0.0,1.0,0,0,,,0
1449616903392589333,226,0,/odom,bcmd_vector,0,0,0,1.89445856169,-0.611683999751,0.0,0.0,0.0,-0.0891673027456,0.996016662572,0.12001,0.05,0.05,0.0,1.0,0.0,1.0,0,0,,,0
1449616903402898947,227,0,/odom,bcmd_vector,0,0,0,1.89732806906,-0.611440819328,0.0,0.0,0.0,-0.153938642605,0.98808040883,1e-05,0.05,0.05,0.0,1.0,0.0,1.0,0,0,,,0
1449616903440453677,228,0,/odom,bcmd_vector,0,0,0,1.89732806906,-0.611440819328,0.0,0.0,0.0,-0.153938642605,0.98808040883,1e-05,0.05,0.05,0.0,1.0,0.0,1.0,0,0,,,0
1449616903510776556,229,0,/odom,bcmd_vector,0,0,0,1.90019998608,-0.611227977014,0.0,0.0,0.0,-0.0996880801764,0.995018736844,0.12001,0.05,0.05,0.0,1.0,0.0,1.0,0,0,,,0
1449616903536472168,230,0,/odom,bcmd_vector,0,0,0,1.90019998608,-0.611227977014,0.0,0.0,0.0,-0.0996880801764,0.995018736844,0.12001,0.05,0.05,0.0,1.0,0.0,1.0,0,0,,,0
1449616903598758567,231,0,/odom,bcmd_vector,0,0,0,1.90307399202,-0.61104549658,0.0,0.0,0.0,-0.164371933964,0.986398432341,1e-05,0.05,0.05,0.0,1.0,0.0,1.0,0,0,,,0
1449616903628047159,232,0,/odom,bcmd_vector,0,0,0,1.9059497659,-0.610893398404,0.0,0.0,0.0,-0.131096173324,0.991369655245,0.16641,0.05,0.05,0.0,1.0,0.0,1.0,0,0,,,0
1449616903643488124,233,0,/odom,bcmd_vector,0,0,0,1.9059497659,-0.610893398404,0.0,0.0,0.0,-0.131096173324,0.991369655245,0.16641,0.05,0.05,0.0,1.0,0.0,1.0,0,0,,,0
1449616903723841455,234,0,/odom,bcmd_vector,0,0,0,1.90882698654,-0.610771699475,0.0,0.0,0.0,-0.094512102227,0.995523712692,0.16641,0.05,0.05,0.0,1.0,0.0,1.0,0,0,,,0
1449616903751956170,235,0,/odom,bcmd_vector,0,0,0,1.91170533261,-0.610680413383,0.0,0.0,0.0,-0.0997711298487,0.995010412834,0.16641,0.05,0.05,0.0,1.0,0.0,1.0,0,0,,,0
1449616903761882222,236,0,/odom,bcmd_vector,0,0,0,1.91170533261,-0.610680413383,0.0,0.0,0.0,-0.179987087142,0.98366897301,1e-05,0.05,0.05,0.0,1.0,0.0,1.0,0,0,,,0
1449616903807777062,237,0,/odom,bcmd_vector,0,0,0,1.91170533261,-0.610680413383,0.0,0.0,0.0,-0.179987087142,0.98366897301,1e-05,0.05,0.05,0.0,1.0,0.0,1.0,0,0,,,0
1449616903842161727,238,0,/odom,bcmd_vector,0,0,0,1.91170533261,-0.610680413383,0.0,0.0,0.0,-0.179987087142,0.98366897301,1e-05,0.05,0.05,0.0,1.0,0.0,1.0,0,0,,,0
1449616903921279779,239,0,/odom,bcmd_vector,0,0,0,1.91458448265,-0.610619550324,0.0,0.0,0.0,-0.0840694479195,0.996459897801,0.16641,0.05,0.05,0.0,1.0,0.0,1.0,0,0,,,0
1449616903955554988,240,0,/odom,bcmd_vector,0,0,0,1.91746411511,-0.610589117095,0.0,0.0,0.0,-0.131178918314,0.991358709746,0.16641,0.05,0.05,0.0,1.0,0.0,1.0,0,0,,,0
1449616903973137265,241,0,/odom,bcmd_vector,0,0,0,1.92034390837,-0.610589117095,0.0,0.0,0.0,-0.0945951940655,0.995515820698,0.16641,0.05,0.05,0.0,1.0,0.0,1.0,0,0,,,0
1449616904026462765,242,0,/odom,bcmd_vector,0,0,0,1.92034390837,-0.610589117095,0.0,0.0,0.0,-0.168120092284,0.985766521328,0.0458004764324,0.05,0.05,0.0,1.0,0.0,1.0,0,0,,,0
1449616904053054168,243,0,/odom,bcmd_vector,0,0,0,1.92034390837,-0.610589117095,0.0,0.0,0.0,-0.16292954286,0.986637706589,0.0458004764324,0.05,0.05,0.0,1.0,0.0,1.0,0,0,,,0
1449616904094555184,244,0,/odom,bcmd_vector,0,0,0,1.92322354083,-0.610619550324,0.0,0.0,0.0,-0.170487237538,0.985359884426,0.0458004764324,0.05,0.05,0.0,1.0,0.0,1.0,0,0,,,0
1449616904152181610,245,0,/odom,bcmd_vector,0,0,0,1.92322354083,-0.610619550324,0.0,0.0,0.0,-0.170487237538,0.985359884426,0.0458004764324,0.05,0.05,0.0,1.0,0.0,1.0,0,0,,,0
1449616904188962535,246,0,/odom,bcmd_vector,0,0,0,1.92610269087,-0.610680413383,0.0,0.0,0.0,-0.0841526179338,0.996452877408,0.21281,0.05,0.05,0.0,1.0,0.0,1.0,0,0,,,0
1449616904255775699,247,0,/odom,bcmd_vector,0,0,0,1.92610269087,-0.610680413383,0.0,0.0,0.0,-0.0841526179338,0.996452877408,0.21281,0.05,0.05,0.0,1.0,0.0,1.0,0,0,,,0
1449616904313884942,248,0,/odom,bcmd_vector,0,0,0,1.92898103694,-0.610771699475,0.0,0.0,0.0,-0.110363637549,0.993891275496,0.16641,0.05,0.05,0.0,1.0,0.0,1.0,0,0,,,0
1449616904334060190,249,0,/odom,bcmd_vector,0,0,0,1.93185825758,-0.610893398404,0.0,0.0,0.0,-0.115613818079,0.993294238919,0.16641,0.05,0.05,0.0,1.0,0.0,1.0,0,0,,,0
1449616904342537359,250,0,/odom,bcmd_vector,0,0,0,1.93473403146,-0.61104549658,0.0,0.0,0.0,-0.194102461544,0.980981260995,0.0458004764324,0.05,0.05,0.0,1.0,0.0,1.0,0,0,,,0
1449616904402169824,251,0,/odom,bcmd_vector,0,0,0,1.93473403146,-0.61104549658,0.0,0.0,0.0,-0.191274269506,0.981536628876,0.0458004764324,0.05,0.05,0.0,1.0,0.0,1.0,0,0,,,0
1449616904433956817,252,0,/odom,bcmd_vector,0,0,0,1.9376080374,-0.611227977014,0.0,0.0,0.0,-0.196458038539,0.980512233016,0.0458004764324,0.05,0.05,0.0,1.0,0.0,1.0,0,0,,,0
1449616904511638138,253,0,/odom,bcmd_vector,0,0,0,1.9376080374,-0.611227977014,0.0,0.0,0.0,-0.191294750645,0.981532637448,0.0458004764324,0.05,0.05,0.0,1.0,0.0,1.0,0,0,,,0
1449616904544880643,254,0,/odom,bcmd_vector,0,0,0,1.94047995442,-0.611440819328,0.0,0.0,0.0,-0.089499831019,0.995986837387,0.16641,0.05,0.05,0.0,1.0,0.0,1.0,0,0,,,0
1449616904566484122,255,0,/odom,bcmd_vector,0,0,0,1.94047995442,-0.611440819328,0.0,0.0,0.0,-0.089499831019,0.995986837387,0.16641,0.05,0.05,0.0,1.0,0.0,1.0,0,0,,,0
1449616904585929901,256,0,/odom,bcmd_vector,0,0,0,1.94334946179,-0.611683999751,0.0,0.0,0.0,-0.0947613757649,0.995500015903,0.16641,0.05,0.05,0.0,1.0,0.0,1.0,0,0,,,0
1449616904651643956,257,0,/odom,bcmd_vector,0,0,0,1.94334946179,-0.611683999751,0.0,0.0,0.0,-0.199324152169,0.979933611201,0.0458004764324,0.05,0.05,0.0,1.0,0.0,1.0,0,0,,,0
1449616904672551310,258,0,/odom,bcmd_vector,0,0,0,1.94621623903,-0.611957491123,0.0,0.0,0.0,-0.204499338478,0.978866702142,0.0458004764324,0.05,0.05,0.0,1.0,0.0,1.0,0,0,,,0
1449616904705958636,259,0,/odom,bcmd_vector,0,0,0,1.94621623903,-0.611957491123,0.0,0.0,0.0,-0.100020274693,0.994985399215,0.21281,0.05,0.05,0.0,1.0,0.0,1.0,0,0,,,0
1449616904752172116,260,0,/odom,bcmd_vector,0,0,0,1.94621623903,-0.611957491123,0.0,0.0,0.0,-0.100020274693,0.994985399215,0.21281,0.05,0.05,0.0,1.0,0.0,1.0,0,0,,,0
1449616904784458666,261,0,/odom,bcmd_vector,0,0,0,1.94907996596,-0.612261262901,0.0,0.0,0.0,-0.10527638097,0.99444300169,0.21281,0.05,0.05,0.0,1.0,0.0,1.0,0,0,,,0
1449616904817852395,262,0,/odom,bcmd_vector,0,0,0,1.94907996596,-0.612261262901,0.0,0.0,0.0,-0.10527638097,0.99444300169,0.21281,0.05,0.05,0.0,1.0,0.0,1.0,0,0,,,0
1449616904871969267,263,0,/odom,bcmd_vector,0,0,0,1.94907996596,-0.612261262901,0.0,0.0,0.0,-0.0843189562031,0.996438815796,0.16641,0.05,0.05,0.0,1.0,0.0,1.0,0,0,,,0
1449616904894133258,264,0,/odom,bcmd_vector,0,0,0,1.95194032277,-0.612595281158,0.0,0.0,0.0,-0.08958296153,0.995979363744,0.16641,0.05,0.05,0.0,1.0,0.0,1.0,0,0,,,0
1449616904971067627,265,0,/odom,bcmd_vector,0,0,0,1.95194032277,-0.612595281158,0.0,0.0,0.0,-0.08958296153,0.995979363744,0.21281,0.05,0.05,0.0,1.0,0.0,1.0,0,0,,,0
1449616904987572041,266,0,/odom,bcmd_vector,0,0,0,1.95479698999,-0.61295950859,0.0,0.0,0.0,-0.0948444656247,0.995492103103,0.21281,0.05,0.05,0.0,1.0,0.0,1.0,0,0,,,0
1449616905019587512,267,0,/odom,bcmd_vector,0,0,0,1.95479698999,-0.61295950859,0.0,0.0,0.0,-0.0948444656247,0.995492103103,0.25921,0.05,0.05,0.0,1.0,0.0,1.0,0,0,,,0
1449616905084675625,268,0,/odom,bcmd_vector,0,0,0,1.95479698999,-0.61295950859,0.0,0.0,0.0,-0.0948444656247,0.995492103103,0.25921,0.05,0.05,0.0,1.0,0.0,1.0,0,0,,,0
1449616905107271930,269,0,/odom,bcmd_vector,0,0,0,1.9576496486,-0.61335390452,0.0,0.0,0.0,-0.100103321581,0.994977047478,0.25921,0.05,0.05,0.0,1.0,0.0,1.0,0,0,,,0
1449616905126979410,270,0,/odom,bcmd_vector,0,0,0,1.9576496486,-0.61335390452,0.0,0.0,0.0,-0.100103321581,0.994977047478,0.25921,0.05,0.05,0.0,1.0,0.0,1.0,0,0,,,0
1449616905211920449,271,0,/odom,bcmd_vector,0,0,0,1.9576496486,-0.61335390452,0.0,0.0,0.0,-0.100103321581,0.994977047478,0.25921,0.05,0.05,0.0,1.0,0.0,1.0,0,0,,,0
1449616905253561879,272,0,/odom,bcmd_vector,0,0,0,1.9576496486,-0.61335390452,0.0,0.0,0.0,-0.100103321581,0.994977047478,0.25921,0.05,0.05,0.0,1.0,0.0,1.0,0,0,,,0
1449616905333752904,273,0,/odom,bcmd_vector,0,0,0,1.96049797998,-0.6137784249,0.0,0.0,0.0,-0.105359382569,0.99443421125,0.25921,0.05,0.05,0.0,1.0,0.0,1.0,0,0,,,0
1449616905397292012,274,0,/odom,bcmd_vector,0,0,0,1.96049797998,-0.6137784249,0.0,0.0,0.0,-0.0844021244569,0.996431774577,0.25921,0.05,0.05,0.0,1.0,0.0,1.0,0,0,,,0
1449616905463322038,275,0,/odom,bcmd_vector,0,0,0,1.96334166605,-0.614233022318,0.0,0.0,0.0,-0.152348991643,0.988326760108,0.16641,0.05,0.05,0.0,1.0,0.0,1.0,0,0,,,0
1449616905506190828,276,0,/odom,bcmd_vector,0,0,0,1.96334166605,-0.614233022318,0.0,0.0,0.0,-0.152348991643,0.988326760108,0.16641,0.05,0.05,0.0,1.0,0.0,1.0,0,0,,,0
1449616905540260702,277,0,/odom,bcmd_vector,0,0,0,1.96618999744,-0.614657542698,0.0,0.0,0.0,-0.126269945726,0.991995917737,0.16641,0.05,0.05,0.0,1.0,0.0,1.0,0,0,,,0
1449616905598072540,278,0,/odom,bcmd_vector,0,0,0,1.96903368351,-0.615112140117,0.0,0.0,0.0,-0.131509889127,0.991314858691,0.16641,0.05,0.05,0.0,1.0,0.0,1.0,0,0,,,0
1449616905637275015,279,0,/odom,bcmd_vector,0,0,0,1.97187240666,-0.615596763803,0.0,0.0,0.0,-0.13674616066,0.990606121294,0.16641,0.05,0.05,0.0,1.0,0.0,1.0,0,0,,,0
1449616905663518511,280,0,/odom,bcmd_vector,0,0,0,1.97187240666,-0.615596763803,0.0,0.0,0.0,-0.115862532701,0.993265258386,0.16641,0.05,0.05,0.0,1.0,0.0,1.0,0,0,,,0
1449616905714092930,281,0,/odom,bcmd_vector,0,0,0,1.97187240666,-0.615596763803,0.0,0.0,0.0,-0.0949275548237,0.995484183368,0.21281,0.05,0.05,0.0,1.0,0.0,1.0,0,0,,,0
1449616905764496761,282,0,/odom,bcmd_vector,0,0,0,1.97754985296,-0.616566011177,0.0,0.0,0.0,-0.0949275548237,0.995484183368,0.21281,0.05,0.05,0.0,1.0,0.0,1.0,0,0,,,0
1449616905794790482,283,0,/odom,bcmd_vector,0,0,0,1.98038329617,-0.617080607008,0.0,0.0,0.0,-0.0897076561262,0.99596814027,0.30561,0.05,0.05,0.0,1.0,0.0,1.0,0,0,,,0
1449616905852708254,284,0,/odom,bcmd_vector,0,0,0,1.98038329617,-0.617080607008,0.0,0.0,0.0,-0.0897076561262,0.99596814027,0.30561,0.05,0.05,0.0,1.0,0.0,1.0,0,0,,,0
1449616905899593280,285,0,/odom,bcmd_vector,0,0,0,1.98321114297,-0.617625117511,0.0,0.0,0.0,-0.0949690991753,0.995480220899,0.30561,0.05,0.05,0.0,1.0,0.0,1.0,0,0,,,0
1449616905940395585,286,0,/odom,bcmd_vector,0,0,0,1.98603307756,-0.618199481874,0.0,0.0,0.0,-0.0897492206793,0.995964395642,0.35201,0.05,0.05,0.0,1.0,0.0,1.0,0,0,,,0
1449616906026248361,287,0,/odom,bcmd_vector,0,0,0,1.99167694674,-0.619348210602,0.0,0.0,0.0,-0.0897492206793,0.995964395642,0.35201,0.05,0.05,0.0,1.0,0.0,1.0,0,0,,,0
1449616906057367867,288,0,/odom,bcmd_vector,0,0,0,1.99449265396,-0.619952364679,0.0,0.0,0.0,-0.114368694488,0.993438373389,0.265406825477,0.05,0.05,0.0,1.0,0.0,1.0,0,0,,,0
1449616906095494795,289,0,/odom,bcmd_vector,0,0,0,2.00012406838,-0.621160672834,0.0,0.0,0.0,-0.114368694488,0.993438373389,0.265406825477,0.05,0.05,0.0,1.0,0.0,1.0,0,0,,,0
1449616906137629374,290,0,/odom,bcmd_vector,0,0,0,2.00012406838,-0.621160672834,0.0,0.0,0.0,-0.110425588819,0.993884394351,0.265406825477,0.05,0.05,0.0,1.0,0.0,1.0,0,0,,,0
1449616906164550395,291,0,/odom,bcmd_vector,0,0,0,2.00293323375,-0.621794549152,0.0,0.0,0.0,-0.115675732124,0.993287030519,0.265406825477,0.05,0.05,0.0,1.0,0.0,1.0,0,0,,,0
1449616906221753887,292,0,/odom,bcmd_vector,0,0,0,2.00855156449,-0.623062301787,0.0,0.0,0.0,-0.100269413266,0.994960323211,0.35201,0.05,0.05,0.0,1.0,0.0,1.0,0,0,,,0
1449616906276977568,293,0,/odom,bcmd_vector,0,0,0,2.01135387428,-0.623725829552,0.0,0.0,0.0,-0.105525383563,0.994416609588,0.35201,0.05,0.05,0.0,1.0,0.0,1.0,0,0,,,0
1449616906320293250,294,0,/odom,bcmd_vector,0,0,0,2.01416303964,-0.624359705869,0.0,0.0,0.0,-0.100269413266,0.994960323211,0.35201,0.05,0.05,0.0,1.0,0.0,1.0,0,0,,,0
1449616906362913061,295,0,/odom,bcmd_vector,0,0,0,2.02256996901,-0.626350289164,0.0,0.0,0.0,-0.105525383563,0.994416609588,0.35201,0.05,0.05,0.0,1.0,0.0,1.0,0,0,,,0
1449616906442890623,296,0,/odom,bcmd_vector,0,0,0,2.02536511026,-0.627043394272,0.0,0.0,0.0,-0.110778407502,0.993845131009,0.35201,0.05,0.05,0.0,1.0,0.0,1.0,0,0,,,0
1449616906526389551,297,0,/odom,bcmd_vector,0,0,0,2.03931837432,-0.630597419615,0.0,0.0,0.0,-0.0950937312373,0.995468323092,0.35201,0.05,0.05,0.0,1.0,0.0,1.0,0,0,,,0
1449616906595391592,298,0,/odom,bcmd_vector,0,0,0,2.04767356384,-0.632794653976,0.0,0.0,0.0,-0.100352458061,0.99495195068,0.35201,0.05,0.05,0.0,1.0,0.0,1.0,0,0,,,0
1449616906635157543,299,0,/odom,bcmd_vector,0,0,0,2.0532333008,-0.634298702527,0.0,0.0,0.0,-0.100352458061,0.99495195068,0.35201,0.05,0.05,0.0,1.0,0.0,1.0,0,0,,,0
1449616906683675529,300,0,/odom,bcmd_vector,0,0,0,2.05879303775,-0.635802751077,0.0,0.0,0.0,-0.0793854105034,0.996843998126,0.35201,0.05,0.05,0.0,1.0,0.0,1.0,0,0,,,0
1449616906736706343,301,0,/odom,bcmd_vector,0,0,0,2.07265186756,-0.639709548676,0.0,0.0,0.0,-0.115281466357,0.993332866422,0.265406825477,0.05,0.05,0.0,1.0,0.0,1.0,0,0,,,0
1449616906782910899,302,0,/odom,bcmd_vector,0,0,0,2.08094192924,-0.642141371176,0.0,0.0,0.0,-0.120528627598,0.992709851835,0.265406825477,0.05,0.05,0.0,1.0,0.0,1.0,0,0,,,0
1449616906796200450,303,0,/odom,bcmd_vector,0,0,0,2.08646863702,-0.643762586176,0.0,0.0,0.0,-0.247990271254,0.968762522687,0.00559730190992,0.05,0.05,0.0,1.0,0.0,1.0,0,0,,,0
1449616906828319213,304,0,/odom,bcmd_vector,0,0,0,2.08646863702,-0.643762586176,0.0,0.0,0.0,-0.247990271254,0.968762522687,0.00559730190992,0.05,0.05,0.0,1.0,0.0,1.0,0,0,,,0
1449616906882727890,305,0,/odom,bcmd_vector,0,0,0,2.09752205259,-0.647005016176,0.0,0.0,0.0,-0.247990271254,0.968762522687,0.00559730190992,0.05,0.05,0.0,1.0,0.0,1.0,0,0,,,0
1449616906905227429,306,0,/odom,bcmd_vector,0,0,0,2.11131265999,-0.651145526025,0.0,0.0,0.0,-0.150552663995,0.98860199037,1e-05,0.05,0.05,0.0,1.0,0.0,1.0,0,0,,,0
1449616906942951027,307,0,/odom,bcmd_vector,0,0,0,2.11131265999,-0.651145526025,0.0,0.0,0.0,-0.150552663995,0.98860199037,1e-05,0.05,0.05,0.0,1.0,0.0,1.0,0,0,,,0
1449616907030468778,308,0,/odom,bcmd_vector,0,0,0,2.1223311928,-0.654504585823,0.0,0.0,0.0,-0.150552663995,0.98860199037,1e-05,0.05,0.05,0.0,1.0,0.0,1.0,0,0,,,0
1449616910637002137,309,0,/odom,bcmd_vector,0,0,0,3.01200131879,-0.748251014996,0.0,0.0,0.0,0.172441358415,0.985019785541,0.0167719050741,0.05,0.05,0.0,1.0,0.0,1.0,0,0,,,0
1449616910660874771,310,0,/odom,bcmd_vector,0,0,0,3.01739308882,-0.746225761203,0.0,0.0,0.0,0.172441358415,0.985019785541,0.0167719050741,0.05,0.05,0.0,1.0,0.0,1.0,0,0,,,0
1449616910727164240,311,0,/odom,bcmd_vector,0,0,0,3.02544818838,-0.743102581011,0.0,0.0,0.0,0.121150448663,0.99263415657,0.329660794983,0.05,0.05,0.0,1.0,0.0,1.0,0,0,,,0
1449616910751724309,312,0,/odom,bcmd_vector,0,0,0,3.03609791297,-0.738712283286,0.0,0.0,0.0,0.13163369429,0.991298426574,0.329660794983,0.05,0.05,0.0,1.0,0.0,1.0,0,0,,,0
1449616910787971956,313,0,/odom,bcmd_vector,0,0,0,3.03609791297,-0.738712283286,0.0,0.0,0.0,0.0272515562902,0.999628607374,0.296136987457,0.05,0.05,0.0,1.0,0.0,1.0,0,0,,,0
1449616910824840001,314,0,/odom,bcmd_vector,0,0,0,3.04404996338,-0.735335335327,0.0,0.0,0.0,0.0325332131602,0.999470654918,0.296136987457,0.05,0.05,0.0,1.0,0.0,1.0,0,0,,,0
1449616910863629734,315,0,/odom,bcmd_vector,0,0,0,3.04668860314,-0.734181736834,0.0,0.0,0.0,0.0378139616752,0.999284796393,0.296136987457,0.05,0.05,0.0,1.0,0.0,1.0,0,0,,,0
1449616910906306583,316,0,/odom,bcmd_vector,0,0,0,3.0545675072,-0.730637480349,0.0,0.0,0.0,0.0430936543924,0.999071036989,0.296136987457,0.05,0.05,0.0,1.0,0.0,1.0,0,0,,,0
1449616910945774773,317,0,/odom,bcmd_vector,0,0,0,3.05982010991,-0.728274642693,0.0,0.0,0.0,0.0430936543924,0.999071036989,0.301724288712,0.05,0.05,0.0,1.0,0.0,1.0,0,0,,,0
1449616910993621064,318,0,/odom,bcmd_vector,0,0,0,3.06243377955,-0.727065535472,0.0,0.0,0.0,0.0483721438982,0.998829382675,0.301724288712,0.05,0.05,0.0,1.0,0.0,1.0,0,0,,,0
1449616911024608956,319,0,/odom,bcmd_vector,0,0,0,3.06766111883,-0.724647321032,0.0,0.0,0.0,0.0483721438982,0.998829382675,0.301724288712,0.05,0.05,0.0,1.0,0.0,1.0,0,0,,,0
1449616911074970545,320,0,/odom,bcmd_vector,0,0,0,3.07283618273,-0.722119169395,0.0,0.0,0.0,0.0589249237937,0.998262417081,0.301724288712,0.05,0.05,0.0,1.0,0.0,1.0,0,0,,,0
1449616911110596515,321,0,/odom,bcmd_vector,0,0,0,3.07801124662,-0.719591017759,0.0,0.0,0.0,0.0589249237937,0.998262417081,0.301724288712,0.05,0.05,0.0,1.0,0.0,1.0,0,0,,,0
1449616911151497309,322,0,/odom,bcmd_vector,0,0,0,3.08058527551,-0.718299667874,0.0,0.0,0.0,0.0610305471952,0.998135898718,0.301724288712,0.05,0.05,0.0,1.0,0.0,1.0,0,0,,,0
1449616911185341599,323,0,/odom,bcmd_vector,0,0,0,3.08573333329,-0.715716968103,0.0,0.0,0.0,0.0610305471952,0.998135898718,0.301724288712,0.05,0.05,0.0,1.0,0.0,1.0,0,0,,,0
1449616911229651400,324,0,/odom,bcmd_vector,0,0,0,3.09088139107,-0.713134268333,0.0,0.0,0.0,0.0641989195409,0.997937121631,0.301724288712,0.05,0.05,0.0,1.0,0.0,1.0,0,0,,,0
1449616911265378687,325,0,/odom,bcmd_vector,0,0,0,3.09344162943,-0.711815788602,0.0,0.0,0.0,0.0694711227997,0.997583962931,0.301724288712,0.05,0.05,0.0,1.0,0.0,1.0,0,0,,,0
1449616911315267534,326,0,/odom,bcmd_vector,0,0,0,3.09856210615,-0.709178829141,0.0,0.0,0.0,0.0694711227997,0.997583962931,0.296136987457,0.05,0.05,0.0,1.0,0.0,1.0,0,0,,,0
1449616911344508130,327,0,/odom,bcmd_vector,0,0,0,3.10620059183,-0.705142442165,0.0,0.0,0.0,0.0747413863659,0.99720295084,0.296136987457,0.05,0.05,0.0,1.0,0.0,1.0,0,0,,,0
1449616911384978764,328,0,/odom,bcmd_vector,0,0,0,3.10873239289,-0.70377014751,0.0,0.0,0.0,0.0800095630892,0.996794095997,0.296136987457,0.05,0.05,0.0,1.0,0.0,1.0,0,0,,,0
1449616911422792233,329,0,/odom,bcmd_vector,0,0,0,3.11379599502,-0.701025558201,0.0,0.0,0.0,0.105296444237,0.994440877494,0.245851276169,0.05,0.05,0.0,1.0,0.0,1.0,0,0,,,0
1449616911464470052,330,0,/odom,bcmd_vector,0,0,0,3.11885959715,-0.698280968891,0.0,0.0,0.0,0.105296444237,0.994440877494,0.245851276169,0.05,0.05,0.0,1.0,0.0,1.0,0,0,,,0
1449616911507133561,331,0,/odom,bcmd_vector,0,0,0,3.12392319929,-0.695536379582,0.0,0.0,0.0,0.105296444237,0.994440877494,0.245851276169,0.05,0.05,0.0,1.0,0.0,1.0,0,0,,,0
1449616911545347969,332,0,/odom,bcmd_vector,0,0,0,3.12898680142,-0.692791790272,0.0,0.0,0.0,0.0800095630892,0.996794095997,0.296136987457,0.05,0.05,0.0,1.0,0.0,1.0,0,0,,,0
1449616911581753886,333,0,/odom,bcmd_vector,0,0,0,3.13405040355,-0.690047200963,0.0,0.0,0.0,0.0800095630892,0.996794095997,0.296136987457,0.05,0.05,0.0,1.0,0.0,1.0,0,0,,,0
1449616911631424734,334,0,/odom,bcmd_vector,0,0,0,3.13911400568,-0.687302611653,0.0,0.0,0.0,0.0800095630892,0.996794095997,0.296136987457,0.05,0.05,0.0,1.0,0.0,1.0,0,0,,,0
1449616911662141451,335,0,/odom,bcmd_vector,0,0,0,3.14666547812,-0.683105690485,0.0,0.0,0.0,0.0852755058776,0.996357409817,0.296136987457,0.05,0.05,0.0,1.0,0.0,1.0,0,0,,,0
1449616911701485983,336,0,/odom,bcmd_vector,0,0,0,3.15169979307,-0.680307743039,0.0,0.0,0.0,0.0852755058776,0.996357409817,0.296136987457,0.05,0.05,0.0,1.0,0.0,1.0,0,0,,,0
1449616911757342607,337,0,/odom,bcmd_vector,0,0,0,3.15673410803,-0.677509795593,0.0,0.0,0.0,0.0852755058776,0.996357409817,0.296136987457,0.05,0.05,0.0,1.0,0.0,1.0,0,0,,,0
1449616911801630645,338,0,/odom,bcmd_vector,0,0,0,3.16680273795,-0.671913900701,0.0,0.0,0.0,0.0852755058776,0.996357409817,0.296136987457,0.05,0.05,0.0,1.0,0.0,1.0,0,0,,,0
1449616911826887557,339,0,/odom,bcmd_vector,0,0,0,3.17183705291,-0.669115953256,0.0,0.0,0.0,0.0852755058776,0.996357409817,0.296136987457,0.05,0.05,0.0,1.0,0.0,1.0,0,0,,,0
1449616911863789289,340,0,/odom,bcmd_vector,0,0,0,3.17943245611,-0.664999069291,0.0,0.0,0.0,0.0800095630892,0.996794095997,0.296136987457,0.05,0.05,0.0,1.0,0.0,1.0,0,0,,,0
1449616911905404134,341,0,/odom,bcmd_vector,0,0,0,3.18698392854,-0.660802148123,0.0,0.0,0.0,0.0852755058776,0.996357409817,0.296136987457,0.05,0.05,0.0,1.0,0.0,1.0,0,0,,,0
1449616911950501297,342,0,/odom,bcmd_vector,0,0,0,3.19457933174,-0.656685264158,0.0,0.0,0.0,0.0768447397195,0.997043071275,0.296136987457,0.05,0.05,0.0,1.0,0.0,1.0,0,0,,,0
1449616911991636237,343,0,/odom,bcmd_vector,0,0,0,3.204706536,-0.651196085539,0.0,0.0,0.0,0.0768447397195,0.997043071275,0.296136987457,0.05,0.05,0.0,1.0,0.0,1.0,0,0,,,0
1449616912024843515,344,0,/odom,bcmd_vector,0,0,0,3.20977013813,-0.64845149623,0.0,0.0,0.0,0.0768447397195,0.997043071275,0.301724288712,0.05,0.05,0.0,1.0,0.0,1.0,0,0,,,0
1449616912064357659,345,0,/odom,bcmd_vector,0,0,0,3.21740862381,-0.644415109254,0.0,0.0,0.0,0.0715752915932,0.997435199716,0.301724288712,0.05,0.05,0.0,1.0,0.0,1.0,0,0,,,0
1449616912113839507,346,0,/odom,bcmd_vector,0,0,0,3.22759327138,-0.639033259954,0.0,0.0,0.0,0.0715752915932,0.997435199716,0.301724288712,0.05,0.05,0.0,1.0,0.0,1.0,0,0,,,0
1449616912161757913,347,0,/odom,bcmd_vector,0,0,0,3.23527398646,-0.635077820761,0.0,0.0,0.0,0.066303845024,0.997799478921,0.296136987457,0.05,0.05,0.0,1.0,0.0,1.0,0,0,,,0
1449616912195669622,348,0,/odom,bcmd_vector,0,0,0,3.24551493989,-0.629803901838,0.0,0.0,0.0,0.066303845024,0.997799478921,0.296136987457,0.05,0.05,0.0,1.0,0.0,1.0,0,0,,,0
1449616912227236265,349,0,/odom,bcmd_vector,0,0,0,3.25323702656,-0.625929852183,0.0,0.0,0.0,0.0610305471952,0.998135898718,0.296136987457,0.05,0.05,0.0,1.0,0.0,1.0,0,0,,,0
1449616912276160187,350,0,/odom,bcmd_vector,0,0,0,3.26353314212,-0.620764452642,0.0,0.0,0.0,0.0610305471952,0.998135898718,0.296136987457,0.05,0.05,0.0,1.0,0.0,1.0,0,0,,,0
1449616912307877947,351,0,/odom,bcmd_vector,0,0,0,3.27129573797,-0.616972225187,0.0,0.0,0.0,0.0557555453418,0.998444449713,0.296136987457,0.05,0.05,0.0,1.0,0.0,1.0,0,0,,,0
1449616912344791595,352,0,/odom,bcmd_vector,0,0,0,3.27909797603,-0.613262243459,0.0,0.0,0.0,0.0536492828127,0.998559840197,0.296136987457,0.05,0.05,0.0,1.0,0.0,1.0,0,0,,,0
