%time,field.robot_pose.position.x,field.robot_pose.position.y,field.robot_pose.position.z,field.robot_pose.orientation.x,field.robot_pose.orientation.y,field.robot_pose.orientation.z,field.robot_pose.orientation.w,field.ctime,field.hasac,field.acmd.linear.x,field.acmd.linear.y,field.acmd.linear.z,field.acmd.angular.x,field.acmd.angular.y,field.acmd.angular.z,field.hasuc,field.ucmd.linear.x,field.ucmd.linear.y,field.ucmd.linear.z,field.ucmd.angular.x,field.ucmd.angular.y,field.ucmd.angular.z,field.bcmd.linear.x,field.bcmd.linear.y,field.bcmd.linear.z,field.bcmd.angular.x,field.bcmd.angular.y,field.bcmd.angular.z,field.blending,field.blendingno,field.controlstate,field.alpha,field.source,field.sxb
1449616884065471309,0.0,0.0,0.0,0.0,0.0,0.0,1.0,1449616884062699885,1,0.0,0.0,0.0,0.0,0.0,0.0,1,-0.0,0.0,0.0,0.0,0.0,-0.0,-0.0,0.0,0.0,0.0,0.0,-0.0,,0,Sharing Zero Relinquish,10.0,user,0
1449616884105303578,0.0,0.0,0.0,0.0,0.0,0.0,1.0,1449616884102683143,1,0.0,0.0,0.0,0.0,0.0,0.0,1,-0.0,0.0,0.0,0.0,0.0,-0.0,-0.0,0.0,0.0,0.0,0.0,-0.0,,0,Sharing Zero Relinquish,10.0,user,0
1449616884143027403,0.0,0.0,0.0,0.0,0.0,0.0,1.0,1449616884142665840,1,0.0,0.0,0.0,0.0,0.0,0.0,1,-0.0,0.0,0.0,0.0,0.0,-0.0,-0.0,0.0,0.0,0.0,0.0,-0.0,,0,Sharing Zero Relinquish,10.0,user,0
1449616884183877030,0.0,0.0,0.0,0.0,0.0,0.0,1.0,1449616884182741369,1,0.0,0.0,0.0,0.0,0.0,0.0,1,-0.0,0.0,0.0,0.0,0.0,-0.0,-0.0,0.0,0.0,0.0,0.0,-0.0,,0,Sharing Zero Relinquish,10.0,user,0
1449616884224388174,0.0,0.0,0.0,0.0,0.0,0.0,1.0,1449616884222676754,1,0.0,0.0,0.0,0.0,0.0,0.0,1,-0.0,0.0,0.0,0.0,0.0,-0.0,-0.0,0.0,0.0,0.0,0.0,-0.0,,0,Sharing Zero Relinquish,10.0,user,0
1449616884264295845,0.0,0.0,0.0,0.0,0.0,0.0,1.0,1449616884262685949,1,0.0,0.0,0.0,0.0,0.0,0.0,1,-0.0,0.0,0.0,0.0,0.0,-0.0,-0.0,0.0,0.0,0.0,0.0,-0.0,,0,Sharing Zero Relinquish,10.0,user,0
1449616884303422858,0.0,0.0,0.0,0.0,0.0,0.0,1.0,1449616884302674596,1,0.0,0.0,0.0,0.0,0.0,0.0,1,-0.0,0.0,0.0,0.0,0.0,-0.0,-0.0,0.0,0.0,0.0,0.0,-0.0,,0,Sharing Zero Relinquish,10.0,user,0
1449616884343958195,0.0,0.0,0.0,0.0,0.0,0.0,1.0,1449616884342670603,1,0.0,0.0,0.0,0.0,0.0,0.0,1,-0.0,0.0,0.0,0.0,0.0,-0.0,-0.0,0.0,0.0,0.0,0.0,-0.0,,0,Sharing Zero Relinquish,10.0,user,0
1449616884385312335,0.0,0.0,0.0,0.0,0.0,0.0,1.0,1449616884382683280,1,0.0,0.0,0.0,0.0,0.0,0.0,1,-0.0,0.0,0.0,0.0,0.0,-0.0,-0.0,0.0,0.0,0.0,0.0,-0.0,,0,Sharing Zero Relinquish,10.0,user,0
1449616884423479058,0.0,0.0,0.0,0.0,0.0,0.0,1.0,1449616884422697513,1,0.0,0.0,0.0,0.0,0.0,0.0,1,-0.0,0.0,0.0,0.0,0.0,-0.0,-0.0,0.0,0.0,0.0,0.0,-0.0,,0,Sharing Zero Relinquish,10.0,user,0
1449616884464244742,0.0,0.0,0.0,0.0,0.0,0.0,1.0,1449616884463600423,1,0.0,0.0,0.0,0.0,0.0,0.0,1,-0.0,0.0,0.0,0.0,0.0,-0.0,-0.0,0.0,0.0,0.0,0.0,-0.0,,0,Sharing Zero Relinquish,10.0,user,0
1449616884503313844,0.0,0.0,0.0,0.0,0.0,0.0,1.0,1449616884502677624,1,0.0,0.0,0.0,0.0,0.0,0.0,1,-0.0,0.0,0.0,0.0,0.0,-0.0,-0.0,0.0,0.0,0.0,0.0,-0.0,,0,Sharing Zero Relinquish,10.0,user,0
1449616884546530962,0.0,0.0,0.0,0.0,0.0,0.0,1.0,1449616884544587361,1,0.0,0.0,0.0,0.0,0.0,0.0,1,-0.0,0.0,0.0,0.0,0.0,-0.0,-0.0,0.0,0.0,0.0,0.0,-0.0,,0,Sharing Zero Relinquish,10.0,user,0
1449616884583286935,0.0,0.0,0.0,0.0,0.0,0.0,1.0,1449616884582672505,1,0.0,0.0,0.0,0.0,0.0,0.0,1,-0.0,0.0,0.0,0.0,0.0,-0.0,-0.0,0.0,0.0,0.0,0.0,-0.0,,0,Sharing Zero Relinquish,10.0,user,0
1449616884623205269,0.0,0.0,0.0,0.0,0.0,0.0,1.0,1449616884622675791,1,0.0,0.0,0.0,0.0,0.0,0.0,1,-0.0,0.0,0.0,0.0,0.0,-0.0,-0.0,0.0,0.0,0.0,0.0,-0.0,,0,Sharing Zero Relinquish,10.0,user,0
1449616884663893601,0.0,0.0,0.0,0.0,0.0,0.0,1.0,1449616884662678258,1,0.0,0.0,0.0,0.0,0.0,0.0,1,-0.0,0.0,0.0,0.0,0.0,-0.0,-0.0,0.0,0.0,0.0,0.0,-0.0,,0,Sharing Zero Relinquish,10.0,user,0
1449616884704608150,0.0,0.0,0.0,0.0,0.0,0.0,1.0,1449616884702668467,1,0.0,0.0,0.0,0.0,0.0,0.0,1,-0.0,0.0,0.0,0.0,0.0,-0.0,-0.0,0.0,0.0,0.0,0.0,-0.0,,0,Sharing Zero Relinquish,10.0,user,0
1449616884745659639,0.0,0.0,0.0,0.0,0.0,0.0,1.0,1449616884744983402,1,0.0,0.0,0.0,0.0,0.0,0.0,1,-0.0,0.0,0.0,0.0,0.0,-0.0,-0.0,0.0,0.0,0.0,0.0,-0.0,,0,Sharing Zero Relinquish,10.0,user,0
1449616884784231877,0.0,0.0,0.0,0.0,0.0,0.0,1.0,1449616884782685869,1,0.0,0.0,0.0,0.0,0.0,0.0,1,-0.0,0.0,0.0,0.0,0.0,-0.0,-0.0,0.0,0.0,0.0,0.0,-0.0,,0,Sharing Zero Relinquish,10.0,user,0
1449616884823809532,0.0,0.0,0.0,0.0,0.0,0.0,1.0,1449616884822699748,1,0.0,0.0,0.0,0.0,0.0,0.0,1,-0.0,0.0,0.0,0.0,0.0,-0.0,-0.0,0.0,0.0,0.0,0.0,-0.0,,0,Sharing Zero Relinquish,10.0,user,0
1449616884864257905,0.0,0.0,0.0,0.0,0.0,0.0,1.0,1449616884862729974,1,0.0,0.0,0.0,0.0,0.0,0.0,1,-0.0,0.0,0.0,0.0,0.0,-0.0,-0.0,0.0,0.0,0.0,0.0,-0.0,,0,Sharing Zero Relinquish,10.0,user,0
1449616884903715147,0.0,0.0,0.0,0.0,0.0,0.0,1.0,1449616884902741852,1,0.0,0.0,0.0,0.0,0.0,0.0,1,-0.0,0.0,0.0,0.0,0.0,-0.0,-0.0,0.0,0.0,0.0,0.0,-0.0,,0,Sharing Zero Relinquish,10.0,user,0
1449616884943656808,0.0,0.0,0.0,0.0,0.0,0.0,1.0,1449616884942688200,1,0.0,0.0,0.0,0.0,0.0,0.0,1,-0.0,0.0,0.0,0.0,0.0,-0.0,-0.0,0.0,0.0,0.0,0.0,-0.0,,0,Sharing Zero Relinquish,10.0,user,0
1449616884983937420,0.0,0.0,0.0,0.0,0.0,0.0,1.0,1449616884982678747,1,0.0,0.0,0.0,0.0,0.0,0.0,1,-0.0,0.0,0.0,0.0,0.0,-0.0,-0.0,0.0,0.0,0.0,0.0,-0.0,,0,Sharing Zero Relinquish,10.0,user,0
1449616885023931118,0.0,0.0,0.0,0.0,0.0,0.0,1.0,1449616885022685239,1,0.0,0.0,0.0,0.0,0.0,0.0,1,-0.0,0.0,0.0,0.0,0.0,-0.0,-0.0,0.0,0.0,0.0,0.0,-0.0,,0,Sharing Zero Relinquish,10.0,user,0
1449616885063422113,0.0,0.0,0.0,0.0,0.0,0.0,1.0,1449616885062680733,1,0.0,0.0,0.0,0.0,0.0,0.0,1,-0.0,0.0,0.0,0.0,0.0,-0.0,-0.0,0.0,0.0,0.0,0.0,-0.0,,0,Sharing Zero Relinquish,10.0,user,0
1449616885103125343,0.0,0.0,0.0,0.0,0.0,0.0,1.0,1449616885102663676,1,0.0,0.0,0.0,0.0,0.0,0.0,1,-0.0,0.0,0.0,0.0,0.0,-0.0,-0.0,0.0,0.0,0.0,0.0,-0.0,,0,Sharing Zero Relinquish,10.0,user,0
1449616885149793499,0.0,0.0,0.0,0.0,0.0,0.0,1.0,1449616885142691680,1,0.0,0.0,0.0,0.0,0.0,0.0,1,-0.0,0.0,0.0,0.0,0.0,-0.0,-0.0,0.0,0.0,0.0,0.0,-0.0,,0,Sharing Zero Relinquish,10.0,user,0
1449616885183126153,0.0,0.0,0.0,0.0,0.0,0.0,1.0,1449616885182673400,1,0.0,0.0,0.0,0.0,0.0,0.0,1,-0.0,0.0,0.0,0.0,0.0,-0.0,-0.0,0.0,0.0,0.0,0.0,-0.0,,0,Sharing Zero Relinquish,10.0,user,0
1449616885223642051,0.0,0.0,0.0,0.0,0.0,0.0,1.0,1449616885222695376,1,0.0,0.0,0.0,0.0,0.0,0.0,1,-0.0,0.0,0.0,0.0,0.0,-0.0,-0.0,0.0,0.0,0.0,0.0,-0.0,,0,Sharing Zero Relinquish,10.0,user,0
1449616885263633966,0.0,0.0,0.0,0.0,0.0,0.0,1.0,1449616885262684464,1,0.0,0.0,0.0,0.0,0.0,0.0,1,-0.0,0.0,0.0,0.0,0.0,-0.0,-0.0,0.0,0.0,0.0,0.0,-0.0,,0,Sharing Zero Relinquish,10.0,user,0
1449616885305050591,0.0,0.0,0.0,0.0,0.0,0.0,1.0,1449616885302683508,1,0.0,0.0,0.0,0.0,0.0,0.0,1,-0.0,0.0,0.0,0.0,0.0,-0.0,-0.0,0.0,0.0,0.0,0.0,-0.0,,0,Sharing Zero Relinquish,10.0,user,0
1449616885344194475,0.0,0.0,0.0,0.0,0.0,0.0,1.0,1449616885342703126,1,0.0,0.0,0.0,0.0,0.0,0.0,1,-0.0,0.0,0.0,0.0,0.0,-0.0,-0.0,0.0,0.0,0.0,0.0,-0.0,,0,Sharing Zero Relinquish,10.0,user,0
1449616885383701829,0.0,0.0,0.0,0.0,0.0,0.0,1.0,1449616885382682382,1,0.0,0.0,0.0,0.0,0.0,0.0,1,-0.0,0.0,0.0,0.0,0.0,-0.0,-0.0,0.0,0.0,0.0,0.0,-0.0,,0,Sharing Zero Relinquish,10.0,user,0
1449616885423454709,0.0,0.0,0.0,0.0,0.0,0.0,1.0,1449616885422684504,1,0.0,0.0,0.0,0.0,0.0,0.0,1,-0.0,0.0,0.0,0.0,0.0,-0.0,-0.0,0.0,0.0,0.0,0.0,-0.0,,0,Sharing Zero Relinquish,10.0,user,0
1449616885463410648,0.0,0.0,0.0,0.0,0.0,0.0,1.0,1449616885462681822,1,0.0,0.0,0.0,0.0,0.0,0.0,1,-0.0,0.0,0.0,0.0,0.0,-0.0,-0.0,0.0,0.0,0.0,0.0,-0.0,,0,Sharing Zero Relinquish,10.0,user,0
1449616885503436029,0.0,0.0,0.0,0.0,0.0,0.0,1.0,1449616885502666046,1,0.0,0.0,0.0,0.0,0.0,0.0,1,-0.0,0.0,0.0,0.0,0.0,-0.0,-0.0,0.0,0.0,0.0,0.0,-0.0,,0,Sharing Zero Relinquish,10.0,user,0
1449616885543690451,0.0,0.0,0.0,0.0,0.0,0.0,1.0,1449616885542668412,1,0.0,0.0,0.0,0.0,0.0,0.0,1,-0.0,0.0,0.0,0.0,0.0,-0.0,-0.0,0.0,0.0,0.0,0.0,-0.0,,0,Sharing Zero Relinquish,10.0,user,0
1449616885582931631,0.0,0.0,0.0,0.0,0.0,0.0,1.0,1449616885582672340,1,0.0,0.0,0.0,0.0,0.0,0.0,1,-0.0,0.0,0.0,0.0,0.0,-0.0,-0.0,0.0,0.0,0.0,0.0,-0.0,,0,Sharing Zero Relinquish,10.0,user,0
1449616885624596367,0.0,0.0,0.0,0.0,0.0,0.0,1.0,1449616885622700996,1,0.0,0.0,0.0,0.0,0.0,0.0,1,-0.0,0.0,0.0,0.0,0.0,-0.0,-0.0,0.0,0.0,0.0,0.0,-0.0,,0,Sharing Zero Relinquish,10.0,user,0
1449616885664632492,0.0,0.0,0.0,0.0,0.0,0.0,1.0,1449616885662687461,1,0.0,0.0,0.0,0.0,0.0,0.0,1,-0.0,0.0,0.0,0.0,0.0,-0.0,-0.0,0.0,0.0,0.0,0.0,-0.0,,0,Sharing Zero Relinquish,10.0,user,0
1449616885703879152,0.0,0.0,0.0,0.0,0.0,0.0,1.0,1449616885702684023,1,0.0,0.0,0.0,0.0,0.0,0.0,1,-0.0,0.0,0.0,0.0,0.0,-0.0,-0.0,0.0,0.0,0.0,0.0,-0.0,,0,Sharing Zero Relinquish,10.0,user,0
1449616885743942746,0.0,0.0,0.0,0.0,0.0,0.0,1.0,1449616885742668889,1,0.0,0.0,0.0,0.0,0.0,0.0,1,-0.0,0.0,0.0,0.0,0.0,-0.0,-0.0,0.0,0.0,0.0,0.0,-0.0,,0,Sharing Zero Relinquish,10.0,user,0
1449616885784156768,0.0,0.0,0.0,0.0,0.0,0.0,1.0,1449616885782687778,1,0.0,0.0,0.0,0.0,0.0,0.0,1,-0.0,0.0,0.0,0.0,0.0,-0.0,-0.0,0.0,0.0,0.0,0.0,-0.0,,0,Sharing Zero Relinquish,10.0,user,0
1449616885824429550,0.0,0.0,0.0,0.0,0.0,0.0,1.0,1449616885822680088,1,0.0,0.0,0.0,0.0,0.0,0.0,1,-0.0,0.0,0.0,0.0,0.0,-0.0,-0.0,0.0,0.0,0.0,0.0,-0.0,,0,Sharing Zero Relinquish,10.0,user,0
1449616885869901190,0.0,0.0,0.0,0.0,0.0,0.0,1.0,1449616885862694463,1,0.0,0.0,0.0,0.0,0.0,0.0,1,-0.0,0.0,0.0,0.0,0.0,-0.0,-0.0,0.0,0.0,0.0,0.0,-0.0,,0,Sharing Zero Relinquish,10.0,user,0
1449616885903266969,0.0,0.0,0.0,0.0,0.0,0.0,1.0,1449616885902674821,1,0.0,0.0,0.0,0.0,0.0,0.0,1,-0.0,0.0,0.0,0.0,0.0,-0.0,-0.0,0.0,0.0,0.0,0.0,-0.0,,0,Sharing Zero Relinquish,10.0,user,0
1449616885943804276,0.0,0.0,0.0,0.0,0.0,0.0,1.0,1449616885942686224,1,0.0,0.0,0.0,0.0,0.0,0.0,1,-0.0,0.0,0.0,0.0,0.0,-0.0,-0.0,0.0,0.0,0.0,0.0,-0.0,,0,Sharing Zero Relinquish,10.0,user,0
1449616885984710009,0.0,0.0,0.0,0.0,0.0,0.0,1.0,1449616885982691198,1,0.0,0.0,0.0,0.0,0.0,0.0,1,-0.0,0.0,0.0,0.0,0.0,-0.0,-0.0,0.0,0.0,0.0,0.0,-0.0,,0,Sharing Zero Relinquish,10.0,user,0
1449616886023919412,0.0,0.0,0.0,0.0,0.0,0.0,1.0,1449616886022687545,1,0.0,0.0,0.0,0.0,0.0,0.0,1,-0.0,0.0,0.0,0.0,0.0,-0.0,-0.0,0.0,0.0,0.0,0.0,-0.0,,0,Sharing Zero Relinquish,10.0,user,0
1449616886063510041,0.0,0.0,0.0,0.0,0.0,0.0,1.0,1449616886062681065,1,0.0,0.0,0.0,0.0,0.0,0.0,1,-0.0,0.0,0.0,0.0,0.0,-0.0,-0.0,0.0,0.0,0.0,0.0,-0.0,,0,Sharing Zero Relinquish,10.0,user,0
1449616886103031348,0.0,0.0,0.0,0.0,0.0,0.0,1.0,1449616886102671777,1,0.0,0.0,0.0,0.0,0.0,0.0,1,-0.0,0.0,0.0,0.0,0.0,-0.0,-0.0,0.0,0.0,0.0,0.0,-0.0,,0,Sharing Zero Relinquish,10.0,user,0
1449616886145071372,0.0,0.0,0.0,0.0,0.0,0.0,1.0,1449616886144449529,1,0.0,0.0,0.0,0.0,0.0,0.0,1,-0.0,0.0,0.0,0.0,0.0,-0.0,-0.0,0.0,0.0,0.0,0.0,-0.0,,0,Sharing Zero Relinquish,10.0,user,0
1449616886183136554,0.0,0.0,0.0,0.0,0.0,0.0,1.0,1449616886182681178,1,0.0,0.0,0.0,0.0,0.0,0.0,1,-0.0,0.0,0.0,0.0,0.0,-0.0,-0.0,0.0,0.0,0.0,0.0,-0.0,,0,Sharing Zero Relinquish,10.0,user,0
1449616886223717138,0.0,0.0,0.0,0.0,0.0,0.0,1.0,1449616886222970731,1,0.0,0.0,0.0,0.0,0.0,0.0,1,-0.0,0.0,0.0,0.0,0.0,-0.0,-0.0,0.0,0.0,0.0,0.0,-0.0,,0,Sharing Zero Relinquish,10.0,user,0
1449616886265479994,0.0,0.0,0.0,0.0,0.0,0.0,1.0,1449616886262843512,1,0.0,0.0,0.0,0.0,0.0,0.0,1,-0.0,0.0,0.0,0.0,0.0,-0.0,-0.0,0.0,0.0,0.0,0.0,-0.0,,0,Sharing Zero Relinquish,10.0,user,0
1449616886303541914,0.0,0.0,0.0,0.0,0.0,0.0,1.0,1449616886302682180,1,0.0,0.0,0.0,0.0,0.0,0.0,1,-0.0,0.0,0.0,0.0,0.0,-0.0,-0.0,0.0,0.0,0.0,0.0,-0.0,,0,Sharing Zero Relinquish,10.0,user,0
1449616886343370097,0.0,0.0,0.0,0.0,0.0,0.0,1.0,1449616886342720807,1,0.0,0.0,0.0,0.0,0.0,0.0,1,-0.0,0.0,0.0,0.0,0.0,-0.0,0.0,0.0,0.0,0.0,0.0,0.0,,3,Sharing Zero Relinquish,10.0,doorway_assistance,3
1449616886383468929,0.0,0.0,0.0,0.0,0.0,0.0,1.0,1449616886382688631,1,0.0,0.0,0.0,0.0,0.0,0.0,1,-0.0,0.0,0.0,0.0,0.0,-0.0,0.0,0.0,0.0,0.0,0.0,0.0,,3,Sharing Zero Relinquish,10.0,doorway_assistance,3
1449616886424058381,0.0,0.0,0.0,0.0,0.0,0.0,1.0,1449616886422710220,1,0.0,0.0,0.0,0.0,0.0,0.0,1,-0.0,0.0,0.0,0.0,0.0,-0.0,0.0,0.0,0.0,0.0,0.0,0.0,,3,Sharing Zero Relinquish,10.0,doorway_assistance,3
1449616886474948834,0.0,0.0,0.0,0.0,0.0,0.0,1.0,1449616886462780479,1,0.0,0.0,0.0,0.0,0.0,0.0,1,-0.0,0.0,0.0,0.0,0.0,-0.0,0.0,0.0,0.0,0.0,0.0,0.0,,3,Sharing Zero Relinquish,10.0,doorway_assistance,3
1449616886503842044,0.0,0.0,0.0,0.0,0.0,0.0,1.0,1449616886502731534,1,0.0,0.0,0.0,0.0,0.0,0.0,1,-0.0,0.0,0.0,0.0,0.0,-0.0,0.0,0.0,0.0,0.0,0.0,0.0,,3,Sharing Zero Relinquish,10.0,doorway_assistance,3
1449616886544821553,0.0,0.0,0.0,0.0,0.0,0.0,1.0,1449616886542791646,1,0.352,0.0,0.0,0.0,0.0,-0.273684210526,1,-0.0,0.0,0.0,0.0,0.0,-0.0,0.352,0.0,0.0,0.0,0.0,-0.273684210526,,3,Sharing Zero Relinquish,10.0,doorway_assistance,3
1449616886583531390,0.0,0.0,0.0,0.0,0.0,0.0,1.0,1449616886582682257,1,0.352,0.0,0.0,0.0,0.0,-0.273684210526,1,-0.0,0.0,0.0,0.0,0.0,-0.0,0.352,0.0,0.0,0.0,0.0,-0.273684210526,,3,Sharing Zero Relinquish,10.0,doorway_assistance,3
1449616886623987935,0.0,0.0,0.0,0.0,0.0,0.0,1.0,1449616886622716656,1,0.352,0.0,0.0,0.0,0.0,-0.273684210526,1,-0.0,0.0,0.0,0.0,0.0,-0.0,0.352,0.0,0.0,0.0,0.0,-0.273684210526,,3,Sharing Zero Relinquish,10.0,doorway_assistance,3
1449616886664685954,0.0,0.0,0.0,0.0,0.0,0.0,1.0,1449616886662763949,1,0.352,0.0,0.0,0.0,0.0,-0.273684210526,1,-0.0,0.0,0.0,0.0,0.0,-0.0,0.352,0.0,0.0,0.0,0.0,-0.273684210526,,3,Sharing Zero Relinquish,10.0,doorway_assistance,3
1449616886703280483,0.0,0.0,0.0,0.0,0.0,0.0,1.0,1449616886702688448,1,0.352,0.0,0.0,0.0,0.0,-0.273684210526,1,-0.0,0.0,0.0,0.0,0.0,-0.0,0.352,0.0,0.0,0.0,0.0,-0.273684210526,,3,Sharing Zero Relinquish,10.0,doorway_assistance,3
1449616886743014700,0.0,0.0,0.0,0.0,0.0,0.0,1.0,1449616886742683931,1,0.352,0.0,0.0,0.0,0.0,-0.273684210526,1,-0.0,0.0,0.0,0.0,0.0,-0.0,0.352,0.0,0.0,0.0,0.0,-0.273684210526,,3,Sharing Zero Relinquish,10.0,doorway_assistance,3
1449616886783651087,0.0,0.0,0.0,0.0,0.0,0.0,1.0,1449616886782695625,1,0.352,0.0,0.0,0.0,0.0,-0.273684210526,1,-0.0,0.0,0.0,0.0,0.0,-0.0,0.352,0.0,0.0,0.0,0.0,-0.273684210526,,3,Sharing Zero Relinquish,10.0,doorway_assistance,3
1449616886823680927,0.0,0.0,0.0,0.0,0.0,0.0,1.0,1449616886822706116,1,0.352,0.0,0.0,0.0,0.0,-0.273684210526,1,-0.0,0.0,0.0,0.0,0.0,-0.0,0.352,0.0,0.0,0.0,0.0,-0.273684210526,,3,Sharing Zero Relinquish,10.0,doorway_assistance,3
1449616886864532655,0.0,0.0,0.0,0.0,0.0,0.0,1.0,1449616886862732095,1,0.352,0.0,0.0,0.0,0.0,-0.273684210526,1,-0.0,0.0,0.0,0.0,0.0,-0.0,0.352,0.0,0.0,0.0,0.0,-0.273684210526,,3,Sharing Zero Relinquish,10.0,doorway_assistance,3
1449616886903265227,0.0,0.0,0.0,0.0,0.0,0.0,1.0,1449616886902711414,1,0.352,0.0,0.0,0.0,0.0,-0.273684210526,1,-0.0,0.0,0.0,0.0,0.0,-0.0,0.352,0.0,0.0,0.0,0.0,-0.273684210526,,3,Sharing Zero Relinquish,10.0,doorway_assistance,3
1449616886945191559,0.0,0.0,0.0,0.0,0.0,0.0,1.0,1449616886942797454,1,0.352,0.0,0.0,0.0,0.0,-0.273684210526,1,-0.0,0.0,0.0,0.0,0.0,-0.0,0.352,0.0,0.0,0.0,0.0,-0.273684210526,,3,Sharing Zero Relinquish,10.0,doorway_assistance,3
1449616886983733560,0.0,0.0,0.0,0.0,0.0,0.0,1.0,1449616886982713454,1,0.352,0.0,0.0,0.0,0.0,-0.273684210526,1,-0.0,0.0,0.0,0.0,0.0,-0.0,0.352,0.0,0.0,0.0,0.0,-0.273684210526,,3,Sharing Zero Relinquish,10.0,doorway_assistance,3
1449616887023532815,0.0,0.0,0.0,0.0,0.0,0.0,1.0,1449616887022677058,1,0.352,0.0,0.0,0.0,0.0,-0.273684210526,1,-0.0,0.0,0.0,0.0,0.0,-0.0,0.352,0.0,0.0,0.0,0.0,-0.273684210526,,3,Sharing Zero Relinquish,10.0,doorway_assistance,3
1449616887066274233,0.0,0.0,0.0,0.0,0.0,0.0,1.0,1449616887062752224,1,0.352,0.0,0.0,0.0,0.0,-0.273684210526,1,-0.0,0.0,0.0,0.0,0.0,-0.0,0.352,0.0,0.0,0.0,0.0,-0.273684210526,,3,Sharing Zero Relinquish,10.0,doorway_assistance,3
1449616887104110279,0.0,0.0,0.0,0.0,0.0,0.0,1.0,1449616887102717166,1,0.352,0.0,0.0,0.0,0.0,-0.273684210526,1,-0.0,0.0,0.0,0.0,0.0,-0.0,0.352,0.0,0.0,0.0,0.0,-0.273684210526,,3,Sharing Zero Relinquish,10.0,doorway_assistance,3
1449616887143443589,0.0,0.0,0.0,0.0,0.0,0.0,1.0,1449616887142684022,1,0.352,0.0,0.0,0.0,0.0,-0.273684210526,1,-0.0,0.0,0.0,0.0,0.0,-0.0,0.352,0.0,0.0,0.0,0.0,-0.273684210526,,3,Sharing Zero Relinquish,10.0,doorway_assistance,3
1449616887190160481,0.0,0.0,0.0,0.0,0.0,0.0,1.0,1449616887182684115,1,0.352,0.0,0.0,0.0,0.0,-0.273684210526,1,-0.0,0.0,0.0,0.0,0.0,-0.0,0.352,0.0,0.0,0.0,0.0,-0.273684210526,,3,Sharing Zero Relinquish,10.0,doorway_assistance,3
1449616887224122254,0.0,0.0,0.0,0.0,0.0,0.0,1.0,1449616887222735585,1,0.352,0.0,0.0,0.0,0.0,-0.273684210526,1,-0.0,0.0,0.0,0.0,0.0,-0.0,0.352,0.0,0.0,0.0,0.0,-0.273684210526,,3,Sharing Zero Relinquish,10.0,doorway_assistance,3
1449616887266187269,0.0,0.0,0.0,0.0,0.0,0.0,1.0,1449616887265708303,1,0.352,0.0,0.0,0.0,0.0,-0.273684210526,1,-0.0,0.0,0.0,0.0,0.0,-0.0,0.352,0.0,0.0,0.0,0.0,-0.273684210526,,3,Sharing Zero Relinquish,10.0,doorway_assistance,3
1449616887318785781,0.00287963245437,-3.04332289367e-05,0.0,0.0,0.0,-0.0052839997518,0.999986039576,1449616887302701646,1,0.352,0.0,0.0,0.0,0.0,-0.273684210526,1,-0.0,0.0,0.0,0.0,0.0,-0.0,0.352,0.0,0.0,0.0,0.0,-0.273684210526,,3,Sharing Zero Relinquish,10.0,doorway_assistance,3
1449616887343507440,0.00287963245437,-3.04332289367e-05,0.0,0.0,0.0,-0.0052839997518,0.999986039576,1449616887342673490,1,0.352,0.0,0.0,0.0,0.0,-0.273684210526,1,-0.0,0.0,0.0,0.0,0.0,-0.0,0.352,0.0,0.0,0.0,0.0,-0.273684210526,,3,Sharing Zero Relinquish,10.0,doorway_assistance,3
1449616887383203860,0.00287963245437,-3.04332289367e-05,0.0,0.0,0.0,-0.0052839997518,0.999986039576,1449616887382678331,1,0.352,0.0,0.0,0.0,0.0,-0.273684210526,1,-0.0,0.0,0.0,0.0,0.0,-0.0,0.352,0.0,0.0,0.0,0.0,-0.273684210526,,3,Sharing Zero Relinquish,10.0,doorway_assistance,3
1449616887423832483,0.00863889736311,-9.129968681e-05,0.0,0.0,0.0,-0.0052839997518,0.999986039576,1449616887422743985,1,0.352,0.0,0.0,0.0,0.0,-0.273684210526,1,-0.0,0.0,0.0,0.0,0.0,-0.0,0.352,0.0,0.0,0.0,0.0,-0.273684210526,,3,Sharing Zero Relinquish,10.0,doorway_assistance,3
1449616887463773640,0.00863889736311,-9.129968681e-05,0.0,0.0,0.0,-0.0052839997518,0.999986039576,1449616887462821759,1,0.352,0.0,0.0,0.0,0.0,-0.273684210526,1,-0.0,0.0,0.0,0.0,0.0,-0.0,0.352,0.0,0.0,0.0,0.0,-0.273684210526,,3,Sharing Zero Relinquish,10.0,doorway_assistance,3
1449616887503125302,0.0115180474012,-0.000152162745821,0.0,0.0,0.0,-0.0105678519699,0.999944158693,1449616887502679877,1,0.352,0.0,0.0,0.0,0.0,-0.273684210526,1,-0.0,0.0,0.0,0.0,0.0,-0.0,0.352,0.0,0.0,0.0,0.0,-0.273684210526,,3,Sharing Zero Relinquish,10.0,doorway_assistance,3
1449616887543580431,0.0143976798556,-0.000182595974757,0.0,0.0,0.0,-0.0052839997518,0.999986039576,1449616887542700134,1,0.352,0.0,0.0,0.0,0.0,-0.273684210526,1,-0.0,0.0,0.0,0.0,0.0,-0.0,0.352,0.0,0.0,0.0,0.0,-0.273684210526,,3,Sharing Zero Relinquish,10.0,doorway_assistance,3
1449616887584126083,0.0172768298936,-0.000243459033768,0.0,0.0,0.0,-0.0105678519699,0.999944158693,1449616887582705059,1,0.352,0.0,0.0,0.0,0.0,-0.273684210526,1,-0.0,0.0,0.0,0.0,0.0,-0.0,0.352,0.0,0.0,0.0,0.0,-0.273684210526,,3,Sharing Zero Relinquish,10.0,doorway_assistance,3
1449616887624324195,0.0230351299698,-0.00036518515179,0.0,0.0,0.0,-0.0105678519699,0.999944158693,1449616887622769971,1,0.352,0.0,0.0,0.0,0.0,-0.273684210526,1,-0.0,0.0,0.0,0.0,0.0,-0.0,0.352,0.0,0.0,0.0,0.0,-0.273684210526,,3,Sharing Zero Relinquish,10.0,doorway_assistance,3
1449616887665792383,0.0230351299698,-0.00036518515179,0.0,0.0,0.0,-0.0105678519699,0.999944158693,1449616887662720206,1,0.352,0.0,0.0,0.0,0.0,-0.273684210526,1,-0.0,0.0,0.0,0.0,0.0,-0.0,0.352,0.0,0.0,0.0,0.0,-0.273684210526,,3,Sharing Zero Relinquish,10.0,doorway_assistance,3
1449616887703058796,0.0287934300459,-0.000486911269811,0.0,0.0,0.0,-0.0105678519699,0.999944158693,1449616887702697737,1,0.352,0.0,0.0,0.0,0.0,-0.273684210526,1,-0.0,0.0,0.0,0.0,0.0,-0.0,0.352,0.0,0.0,0.0,0.0,-0.273684210526,,3,Sharing Zero Relinquish,10.0,doorway_assistance,3
1449616887758672449,0.0345517301221,-0.000608637387833,0.0,0.0,0.0,-0.0105678519699,0.999944158693,1449616887756729856,1,0.352,0.0,0.0,0.0,0.0,-0.273684210526,1,-0.0,0.0,0.0,0.0,0.0,-0.00634920671582,0.0,0.0,0.0,0.0,0.0,-0.00634920671582,Linear,1,Sharing Zero Relinquish,1.0,doorway_assistance,1
1449616887788476539,0.0403092262309,-0.000760786538583,0.0,0.0,0.0,-0.0105678519699,0.999944158693,1449616887787942757,1,0.352,0.0,0.0,0.0,0.0,-0.273684210526,1,-0.0,0.0,0.0,0.0,0.0,-0.00634920671582,0.0,0.0,0.0,0.0,0.0,-0.00634920671582,Linear,1,Sharing Zero Relinquish,1.0,doorway_assistance,1
1449616887832093135,0.0403092262309,-0.000760786538583,0.0,0.0,0.0,-0.0105678519699,0.999944158693,1449616887831790379,1,0.352,0.0,0.0,0.0,0.0,-0.273684210526,1,0.00558730190992,0.0,0.0,0.0,0.0,-0.00634920671582,0.00558730190992,0.0,0.0,0.0,0.0,-0.00634920671582,Linear,1,Sharing Zero Relinquish,1.0,doorway_assistance,1
1449616887892731177,0.0547009565848,-0.00121721699728,0.0,0.0,0.0,-0.0158514091245,0.999874358521,1449616887886942451,1,0.352,0.0,0.0,0.0,0.0,-0.273684210526,1,0.00558730190992,0.0,0.0,0.0,0.0,-0.00634920671582,0.00558730190992,0.0,0.0,0.0,0.0,-0.00634920671582,Linear,1,Sharing Zero Relinquish,1.0,doorway_assistance,1
1449616887913059964,0.0604576487264,-0.00139978918076,0.0,0.0,0.0,-0.0158514091245,0.999874358521,1449616887912134497,1,0.352,0.0,0.0,0.0,0.0,-0.273684210526,1,0.00558730190992,0.0,0.0,0.0,0.0,-0.0698412716389,0.00558730190992,0.0,0.0,0.0,0.0,-0.0698412716389,Linear,1,Sharing Zero Relinquish,1.0,doorway_assistance,1
1449616887947922550,0.0662143408679,-0.00158236136424,0.0,0.0,0.0,-0.0158514091245,0.999874358521,1449616887947292442,1,0.352,0.0,0.0,0.0,0.0,-0.273684210526,1,0.00558730190992,0.0,0.0,0.0,0.0,-0.0698412716389,0.00558730190992,0.0,0.0,0.0,0.0,-0.0698412716389,Linear,1,Sharing Zero Relinquish,1.0,doorway_assistance,1
1449616887991002450,0.0662143408679,-0.00158236136424,0.0,0.0,0.0,-0.0158514091245,0.999874358521,1449616887989197523,1,0.352,0.0,0.0,0.0,0.0,-0.273684210526,1,0.00558730190992,0.0,0.0,0.0,0.0,-0.0698412716389,0.00558730190992,0.0,0.0,0.0,0.0,-0.0698412716389,Linear,1,Sharing Zero Relinquish,1.0,doorway_assistance,1
1449616888027740335,0.0719710330095,-0.00176493354772,0.0,0.0,0.0,-0.0158514091245,0.999874358521,1449616888027130447,1,0.352,0.0,0.0,0.0,0.0,-0.273684210526,1,0.0111746038198,0.0,0.0,0.0,0.0,-0.387301588058,0.0111746038198,0.0,0.0,0.0,0.0,-0.387301588058,Linear,1,Sharing Zero Relinquish,1.0,doorway_assistance,1
1449616888068824182,0.0748482536517,-0.00188663247711,0.0,0.0,0.0,-0.0211345236944,0.999776641009,1449616888067277134,1,0.352,0.0,0.0,0.0,0.0,-0.273684210526,1,0.0111746038198,0.0,0.0,0.0,0.0,-0.387301588058,0.0111746038198,0.0,0.0,0.0,0.0,-0.387301588058,Linear,1,Sharing Zero Relinquish,1.0,doorway_assistance,1
1449616888108321505,0.0834755752864,-0.00234292700333,0.0,0.0,0.0,-0.0264170481704,0.999651008886,1449616888107581184,1,0.0,0.0,0.0,0.0,0.0,0.0,1,0.00558730190992,0.0,0.0,0.0,0.0,-0.387301588058,0.00558730190992,0.0,0.0,0.0,0.0,-0.387301588058,Linear,1,Sharing Zero Relinquish,1.0,user,0
1449616888161616847,0.0892271230429,-0.00264712335413,0.0,0.0,0.0,-0.0264170481704,0.999651008886,1449616888160770214,1,0.0,0.0,0.0,0.0,0.0,0.0,1,0.00558730190992,0.0,0.0,0.0,0.0,-0.387301588058,0.00558730190992,0.0,0.0,0.0,0.0,-0.387301588058,Linear,1,Sharing Zero Relinquish,1.0,user,0
1449616888190243320,0.10360068862,-0.003498761009,0.0,0.0,0.0,-0.0316988350601,0.999497465658,1449616888189858337,1,0.0,0.0,0.0,0.0,0.0,0.0,1,0.00558730190992,0.0,0.0,0.0,0.0,-0.387301588058,0.00558730190992,0.0,0.0,0.0,0.0,-0.387301588058,Linear,1,Sharing Zero Relinquish,1.0,user,0
1449616888249543333,0.10360068862,-0.003498761009,0.0,0.0,0.0,-0.0316988350601,0.999497465658,1449616888248814986,1,0.0,0.0,0.0,0.0,0.0,0.0,1,0.00558730190992,0.0,0.0,0.0,0.0,-0.393650794029,0.00558730190992,0.0,0.0,0.0,0.0,-0.393650794029,Linear,1,Sharing Zero Relinquish,1.0,doorway_assistance,1
1449616888283921166,0.112220617526,-0.00407656419245,0.0,0.0,0.0,-0.0369797368913,0.999316015612,1449616888282863846,1,0.0,0.0,0.0,0.0,0.0,0.0,1,0.00558730190992,0.0,0.0,0.0,0.0,-0.393650794029,0.00558730190992,0.0,0.0,0.0,0.0,-0.393650794029,Linear,1,Sharing Zero Relinquish,1.0,doorway_assistance,1
1449616888314483850,0.117964451578,-0.00450224882061,0.0,0.0,0.0,-0.0369797368913,0.999316015612,1449616888314038295,1,0.0,0.0,0.0,0.0,0.0,0.0,1,0.00558730190992,0.0,0.0,0.0,0.0,-0.393650794029,0.00558730190992,0.0,0.0,0.0,0.0,-0.393650794029,Linear,1,Sharing Zero Relinquish,1.0,doorway_assistance,1
1449616888353674696,0.120838457518,-0.00468472925529,0.0,0.0,0.0,-0.0316988350601,0.999497465658,1449616888351761770,1,0.0,0.0,0.0,0.0,0.0,0.0,1,0.00558730190992,0.0,0.0,0.0,0.0,-0.393650794029,0.00558730190992,0.0,0.0,0.0,0.0,-0.393650794029,Linear,1,Sharing Zero Relinquish,1.0,doorway_assistance,1
1449616888392017942,0.123710374544,-0.00489757156937,0.0,0.0,0.0,-0.0369797368913,0.999316015612,1449616888391020648,1,0.0,0.0,0.0,0.0,0.0,0.0,1,0.00558730190992,0.0,0.0,0.0,0.0,-0.393650794029,0.00558730190992,0.0,0.0,0.0,0.0,-0.393650794029,Linear,1,Sharing Zero Relinquish,1.0,doorway_assistance,1
1449616888467847027,0.123710374544,-0.00489757156937,0.0,0.0,0.0,-0.0369797368913,0.999316015612,1449616888466792738,1,0.352,0.0,0.0,0.0,0.0,-0.273684210526,1,0.00558730190992,0.0,0.0,0.0,0.0,-0.393650794029,0.00558730190992,0.0,0.0,0.0,0.0,-0.393650794029,Linear,1,Sharing Zero Relinquish,1.0,doorway_assistance,1
1449616888476471734,0.132323715964,-0.00556643662021,0.0,0.0,0.0,-0.042259606217,0.999106663816,1449616888476092996,1,0.352,0.0,0.0,0.0,0.0,-0.273684210526,1,0.00558730190992,0.0,0.0,0.0,0.0,-0.393650794029,0.00558730190992,0.0,0.0,0.0,0.0,-0.393650794029,Linear,1,Sharing Zero Relinquish,1.0,doorway_assistance,1
1449616888509386855,0.132323715964,-0.00556643662021,0.0,0.0,0.0,-0.042259606217,0.999106663816,1449616888507024021,1,0.352,0.0,0.0,0.0,0.0,-0.273684210526,1,0.0111746038198,0.0,0.0,0.0,0.0,-0.387301588058,0.0111746038198,0.0,0.0,0.0,0.0,-0.387301588058,Linear,1,Sharing Zero Relinquish,1.0,doorway_assistance,1
1449616888553559524,0.132323715964,-0.00556643662021,0.0,0.0,0.0,-0.042259606217,0.999106663816,1449616888548423443,1,0.352,0.0,0.0,0.0,0.0,-0.273684210526,1,0.0111746038198,0.0,0.0,0.0,0.0,-0.387301588058,0.0111746038198,0.0,0.0,0.0,0.0,-0.387301588058,Linear,1,Sharing Zero Relinquish,1.0,doorway_assistance,1
1449616888619611820,0.1351904932,-0.00583992799247,0.0,0.0,0.0,-0.0475382956186,0.998869416115,1449616888618308812,1,0.352,0.0,0.0,0.0,0.0,-0.273684210526,1,0.0111746038198,0.0,0.0,0.0,0.0,-0.387301588058,0.0111746038198,0.0,0.0,0.0,0.0,-0.387301588058,Linear,1,Sharing Zero Relinquish,1.0,doorway_assistance,1
1449616888637769805,0.138054220136,-0.00614369977008,0.0,0.0,0.0,-0.0528156577107,0.998604279132,1449616888633626985,1,0.352,0.0,0.0,0.0,0.0,-0.273684210526,1,0.00558730190992,0.0,0.0,0.0,0.0,-0.387301588058,0.00558730190992,0.0,0.0,0.0,0.0,-0.387301588058,Linear,1,Sharing Zero Relinquish,1.0,doorway_assistance,1
1449616888677763891,0.138054220136,-0.00614369977008,0.0,0.0,0.0,-0.0528156577107,0.998604279132,1449616888676357843,1,0.352,0.0,0.0,0.0,0.0,-0.273684210526,1,0.00558730190992,0.0,0.0,0.0,0.0,-0.387301588058,0.00558730190992,0.0,0.0,0.0,0.0,-0.387301588058,Linear,1,Sharing Zero Relinquish,1.0,doorway_assistance,1
1449616888707510900,0.138054220136,-0.00614369977008,0.0,0.0,0.0,-0.0528156577107,0.998604279132,1449616888706719091,1,0.352,0.0,0.0,0.0,0.0,-0.273684210526,1,0.00558730190992,0.0,0.0,0.0,0.0,-0.387301588058,0.00558730190992,0.0,0.0,0.0,0.0,-0.387301588058,Linear,1,Sharing Zero Relinquish,1.0,doorway_assistance,1
1449616888749274736,0.138054220136,-0.00614369977008,0.0,0.0,0.0,-0.0528156577107,0.998604279132,1449616888748927030,1,0.352,0.0,0.0,0.0,0.0,-0.273684210526,1,0.00558730190992,0.0,0.0,0.0,0.0,-0.387301588058,0.00558730190992,0.0,0.0,0.0,0.0,-0.387301588058,Linear,1,Sharing Zero Relinquish,1.0,doorway_assistance,1
1449616888789945871,0.140914576942,-0.00647771802702,0.0,0.0,0.0,-0.0580915451448,0.99831126027,1449616888787462180,1,0.352,0.0,0.0,0.0,0.0,-0.231578947368,1,0.00558730190992,0.0,0.0,0.0,0.0,-0.387301588058,0.00558730190992,0.0,0.0,0.0,0.0,-0.387301588058,Linear,1,Sharing Zero Relinquish,1.0,doorway_assistance,1
1449616888872026220,0.140914576942,-0.00647771802702,0.0,0.0,0.0,-0.0580915451448,0.99831126027,1449616888870431483,1,0.352,0.0,0.0,0.0,0.0,-0.231578947368,1,0.00558730190992,0.0,0.0,0.0,0.0,-0.393650794029,0.00558730190992,0.0,0.0,0.0,0.0,-0.393650794029,Linear,1,Sharing Zero Relinquish,1.0,doorway_assistance,1
1449616888898624924,0.140914576942,-0.00647771802702,0.0,0.0,0.0,-0.0686383068554,0.997641610415,1449616888893221452,1,0.352,0.0,0.0,0.0,0.0,-0.231578947368,1,0.00558730190992,0.0,0.0,0.0,0.0,-0.393650794029,0.00558730190992,0.0,0.0,0.0,0.0,-0.393650794029,Linear,1,Sharing Zero Relinquish,1.0,doorway_assistance,1
1449616888922322084,0.14376290833,-0.00690223840692,0.0,0.0,0.0,-0.0739088866573,0.997264998119,1449616888921224556,1,0.352,0.0,0.0,0.0,0.0,-0.231578947368,1,0.00558730190992,0.0,0.0,0.0,0.0,-0.393650794029,0.00558730190992,0.0,0.0,0.0,0.0,-0.393650794029,Linear,1,Sharing Zero Relinquish,1.0,doorway_assistance,1
1449616888961421093,0.140919222265,-0.00644764098831,0.0,0.0,0.0,-0.0791774028604,0.996860541338,1449616888960598500,1,0.352,0.0,0.0,0.0,0.0,-0.231578947368,1,0.00558730190992,0.0,0.0,0.0,0.0,-0.393650794029,0.00558730190992,0.0,0.0,0.0,0.0,-0.393650794029,Linear,1,Sharing Zero Relinquish,1.0,doorway_assistance,1
1449616889004770941,0.140919222265,-0.00644764098831,0.0,0.0,0.0,-0.0791774028604,0.996860541338,1449616889004065750,1,0.352,0.0,0.0,0.0,0.0,-0.231578947368,1,0.00558730190992,0.0,0.0,0.0,0.0,-0.393650794029,0.00558730190992,0.0,0.0,0.0,0.0,-0.393650794029,Linear,1,Sharing Zero Relinquish,1.0,doorway_assistance,1
1449616889034845952,0.143757945417,-0.00693226467499,0.0,0.0,0.0,-0.0844437083633,0.996428251365,1449616889031391929,1,0.352,0.0,0.0,0.0,0.0,-0.231578947368,1,0.00558730190992,0.0,0.0,0.0,0.0,-0.387301588058,0.00558730190992,0.0,0.0,0.0,0.0,-0.387301588058,Linear,1,Sharing Zero Relinquish,1.0,doorway_assistance,1
1449616889071223178,0.140924502214,-0.00641766884427,0.0,0.0,0.0,-0.0897076561262,0.99596814027,1449616889070903338,1,0.352,0.0,0.0,0.0,0.0,-0.231578947368,1,0.00558730190992,0.0,0.0,0.0,0.0,-0.387301588058,0.00558730190992,0.0,0.0,0.0,0.0,-0.387301588058,Linear,1,Sharing Zero Relinquish,1.0,doorway_assistance,1
1449616889107298423,0.143752349021,-0.00696217934762,0.0,0.0,0.0,-0.0949690991753,0.995480220899,1449616889106186878,1,0.352,0.0,0.0,0.0,0.0,-0.231578947368,1,0.0111746038198,0.0,0.0,0.0,0.0,-0.215873026848,0.0111746038198,0.0,0.0,0.0,0.0,-0.215873026848,Linear,1,Sharing Zero Relinquish,1.0,doorway_assistance,1
1449616889148927384,0.143752349021,-0.00696217934762,0.0,0.0,0.0,-0.0949690991753,0.995480220899,1449616889147183761,1,0.352,0.0,0.0,0.0,0.0,-0.231578947368,1,0.0111746038198,0.0,0.0,0.0,0.0,-0.215873026848,0.0111746038198,0.0,0.0,0.0,0.0,-0.215873026848,Linear,1,Sharing Zero Relinquish,1.0,doorway_assistance,1
1449616889212530132,0.143752349021,-0.00696217934762,0.0,0.0,0.0,-0.10548388359,0.994421012601,1449616889210030347,1,0.352,0.0,0.0,0.0,0.0,-0.231578947368,1,0.0111746038198,0.0,0.0,0.0,0.0,-0.215873026848,0.0111746038198,0.0,0.0,0.0,0.0,-0.215873026848,Linear,1,Sharing Zero Relinquish,1.0,doorway_assistance,1
1449616889233245350,0.143752349021,-0.00696217934762,0.0,0.0,0.0,-0.115986887289,0.993250744765,1449616889232250250,1,0.352,0.0,0.0,0.0,0.0,-0.189473684211,1,0.0335238101482,0.0,0.0,0.0,0.0,-0.0888888895512,0.0335238101482,0.0,0.0,0.0,0.0,-0.0888888895512,Linear,1,Sharing Zero Relinquish,1.0,doorway_assistance,1
1449616889293711263,0.143752349021,-0.00696217934762,0.0,0.0,0.0,-0.115986887289,0.993250744765,1449616889292951489,1,0.352,0.0,0.0,0.0,0.0,-0.189473684211,1,0.0335238101482,0.0,0.0,0.0,0.0,-0.0888888895512,0.0335238101482,0.0,0.0,0.0,0.0,-0.0888888895512,Linear,1,Sharing Zero Relinquish,1.0,doorway_assistance,1
1449616889309831558,0.146547490263,-0.00765528445533,0.0,0.0,0.0,-0.121233604752,0.99262400388,1449616889309543648,1,0.352,0.0,0.0,0.0,0.0,-0.189473684211,1,0.346412698746,0.0,0.0,0.0,0.0,-0.0190476194024,0.347809524059,0.0,0.0,0.0,0.0,-0.0616541356044,Linear,1,Sharing Zero Relinquish,0.75,doorway_assistance,1
1449616889377016531,0.146547490263,-0.00765528445533,0.0,0.0,0.0,-0.121233604752,0.99262400388,1449616889376364941,1,0.352,0.0,0.0,0.0,0.0,-0.189473684211,1,0.346412698746,0.0,0.0,0.0,0.0,-0.0190476194024,0.347809524059,0.0,0.0,0.0,0.0,-0.0616541356044,Linear,1,Sharing Zero Relinquish,0.75,doorway_assistance,1
1449616889394309548,0.146539698214,-0.0076847036879,0.0,0.0,0.0,-0.131716738444,0.99128739567,1449616889393781960,1,0.352,0.0,0.0,0.0,0.0,-0.189473684211,1,0.346412698746,0.0,0.0,0.0,0.0,-0.0190476194024,0.347809524059,0.0,0.0,0.0,0.0,-0.0616541356044,Linear,1,Sharing Zero Relinquish,0.75,doorway_assistance,1
1449616889462357373,0.146539698214,-0.0076847036879,0.0,0.0,0.0,-0.142185161666,0.989840077892,1449616889462055288,1,0.352,0.0,0.0,0.0,0.0,-0.147368421053,1,0.346412698746,0.0,0.0,0.0,0.0,-0.0126984134316,0.347809524059,0.0,0.0,0.0,0.0,-0.0463659153369,Linear,1,Sharing Zero Relinquish,0.75,doorway_assistance,1
1449616889480695110,0.146539698214,-0.0076847036879,0.0,0.0,0.0,-0.142185161666,0.989840077892,1449616889479624961,1,0.352,0.0,0.0,0.0,0.0,-0.147368421053,1,0.346412698746,0.0,0.0,0.0,0.0,-0.0126984134316,0.347809524059,0.0,0.0,0.0,0.0,-0.0463659153369,Linear,1,Sharing Zero Relinquish,0.75,doorway_assistance,1
1449616889545283944,0.146539698214,-0.0076847036879,0.0,0.0,0.0,-0.142185161666,0.989840077892,1449616889544471454,1,0.352,0.0,0.0,0.0,0.0,-0.147368421053,1,0.346412698746,0.0,0.0,0.0,0.0,-0.0126984134316,0.347809524059,0.0,0.0,0.0,0.0,-0.0463659153369,Linear,1,Sharing Zero Relinquish,0.75,doorway_assistance,1
1449616889556128519,0.146539698214,-0.0076847036879,0.0,0.0,0.0,-0.152637705278,0.988282212188,1449616889553346661,1,0.352,0.0,0.0,0.0,0.0,-0.147368421053,1,0.346412698746,0.0,0.0,0.0,0.0,-0.0126984134316,0.346412698746,0.0,0.0,0.0,0.0,-0.0126984134316,Linear,1,Sharing Zero Relinquish,1.0,doorway_assistance,1
1449616889591771998,0.146539698214,-0.0076847036879,0.0,0.0,0.0,-0.152637705278,0.988282212188,1449616889590883469,1,0.352,0.0,0.0,0.0,0.0,-0.147368421053,1,0.346412698746,0.0,0.0,0.0,0.0,-0.0126984134316,0.346412698746,0.0,0.0,0.0,0.0,-0.0126984134316,Linear,1,Sharing Zero Relinquish,1.0,doorway_assistance,1
1449616889667918733,0.149275968112,-0.00858249892909,0.0,0.0,0.0,-0.157857657354,0.987461877753,1449616889667070096,1,0.352,0.0,0.0,0.0,0.0,-0.147368421053,1,0.346412698746,0.0,0.0,0.0,0.0,-0.0126984134316,0.346412698746,0.0,0.0,0.0,0.0,-0.0126984134316,Linear,1,Sharing Zero Relinquish,1.0,doorway_assistance,1
1449616889684320651,0.149275968112,-0.00858249892909,0.0,0.0,0.0,-0.157857657354,0.987461877753,1449616889683222013,1,0.352,0.0,0.0,0.0,0.0,-0.105263157895,1,0.346412698746,0.0,0.0,0.0,0.0,-0.0126984134316,0.346412698746,0.0,0.0,0.0,0.0,-0.0126984134316,Linear,1,Sharing Zero Relinquish,1.0,doorway_assistance,1
1449616889722712014,0.149275968112,-0.00858249892909,0.0,0.0,0.0,-0.157857657354,0.987461877753,1449616889721297485,1,0.352,0.0,0.0,0.0,0.0,-0.105263157895,1,0.346412698746,0.0,0.0,0.0,0.0,-0.0126984134316,0.346412698746,0.0,0.0,0.0,0.0,-0.0126984134316,Linear,1,Sharing Zero Relinquish,1.0,doorway_assistance,1
1449616889755533337,0.149275968112,-0.00858249892909,0.0,0.0,0.0,-0.157857657354,0.987461877753,1449616889754535391,1,0.352,0.0,0.0,0.0,0.0,-0.105263157895,1,0.346412698746,0.0,0.0,0.0,0.0,-0.0126984134316,0.346412698746,0.0,0.0,0.0,0.0,-0.0126984134316,Linear,1,Sharing Zero Relinquish,1.0,doorway_assistance,1
1449616889799834131,0.149275968112,-0.00858249892909,0.0,0.0,0.0,-0.157857657354,0.987461877753,1449616889797304548,1,0.352,0.0,0.0,0.0,0.0,-0.105263157895,1,0.346412698746,0.0,0.0,0.0,0.0,-0.0126984134316,0.346412698746,0.0,0.0,0.0,0.0,-0.0126984134316,Linear,1,Sharing Zero Relinquish,1.0,doorway_assistance,1
1449616889867083312,0.152002597447,-0.00950916053146,0.0,0.0,0.0,-0.163073201911,0.986613972544,1449616889860564726,1,0.352,0.0,0.0,0.0,0.0,-0.105263157895,1,0.340825397491,0.0,0.0,0.0,0.0,-0.0126984134316,0.340825397491,0.0,0.0,0.0,0.0,-0.0126984134316,Linear,1,Sharing Zero Relinquish,1.0,doorway_assistance,1
1449616889890082572,0.152002597447,-0.00950916053146,0.0,0.0,0.0,-0.163073201911,0.986613972544,1449616889885982061,1,0.352,0.0,0.0,0.0,0.0,-0.105263157895,1,0.340825397491,0.0,0.0,0.0,0.0,-0.0126984134316,0.340825397491,0.0,0.0,0.0,0.0,-0.0126984134316,Linear,1,Sharing Zero Relinquish,1.0,doorway_assistance,1
1449616889910858482,0.152002597447,-0.00950916053146,0.0,0.0,0.0,-0.163073201911,0.986613972544,1449616889909870963,1,0.352,0.0,0.0,0.0,0.0,-0.105263157895,1,0.340825397491,0.0,0.0,0.0,0.0,-0.0190476194024,0.340825397491,0.0,0.0,0.0,0.0,-0.0190476194024,Linear,1,Sharing Zero Relinquish,1.0,doorway_assistance,1
1449616889962257549,0.152002597447,-0.00950916053146,0.0,0.0,0.0,-0.163073201911,0.986613972544,1449616889961237995,1,0.352,0.0,0.0,0.0,0.0,-0.105263157895,1,0.340825397491,0.0,0.0,0.0,0.0,-0.0190476194024,0.340825397491,0.0,0.0,0.0,0.0,-0.0190476194024,Linear,1,Sharing Zero Relinquish,1.0,doorway_assistance,1
1449616889989978158,0.152002597447,-0.00950916053146,0.0,0.0,0.0,-0.163073201911,0.986613972544,1449616889988996711,1,0.352,0.0,0.0,0.0,0.0,-0.105263157895,1,0.340825397491,0.0,0.0,0.0,0.0,-0.0190476194024,0.340825397491,0.0,0.0,0.0,0.0,-0.0190476194024,Linear,1,Sharing Zero Relinquish,1.0,doorway_assistance,1
1449616890037669884,0.152002597447,-0.00950916053146,0.0,0.0,0.0,-0.163073201911,0.986613972544,1449616890035642098,1,0.352,0.0,0.0,0.0,0.0,-0.105263157895,1,0.340825397491,0.0,0.0,0.0,0.0,-0.0126984134316,0.340825397491,0.0,0.0,0.0,0.0,-0.0126984134316,Linear,1,Sharing Zero Relinquish,1.0,doorway_assistance,1
1449616890097499541,0.152002597447,-0.00950916053146,0.0,0.0,0.0,-0.163073201911,0.986613972544,1449616890096892438,1,0.352,0.0,0.0,0.0,0.0,-0.105263157895,1,0.340825397491,0.0,0.0,0.0,0.0,-0.0126984134316,0.340825397491,0.0,0.0,0.0,0.0,-0.0126984134316,Linear,1,Sharing Zero Relinquish,1.0,doorway_assistance,1
1449616890129869853,0.154738867346,-0.0104069557726,0.0,0.0,0.0,-0.157857657354,0.987461877753,1449616890128099708,1,0.352,0.0,0.0,0.0,0.0,-0.105263157895,1,0.340825397491,0.0,0.0,0.0,0.0,-0.0126984134316,0.340825397491,0.0,0.0,0.0,0.0,-0.0126984134316,Linear,1,Sharing Zero Relinquish,1.0,doorway_assistance,1
1449616890162969672,0.15746549668,-0.011333617375,0.0,0.0,0.0,-0.163073201911,0.986613972544,1449616890161782732,1,0.352,0.0,0.0,0.0,0.0,-0.105263157895,1,0.340825397491,0.0,0.0,0.0,0.0,-0.0126984134316,0.340825397491,0.0,0.0,0.0,0.0,-0.0126984134316,Linear,1,Sharing Zero Relinquish,1.0,doorway_assistance,1
1449616890204716464,0.15746549668,-0.011333617375,0.0,0.0,0.0,-0.163073201911,0.986613972544,1449616890202359038,1,0.352,0.0,0.0,0.0,0.0,-0.105263157895,1,0.346412698746,0.0,0.0,0.0,0.0,-0.0126984134316,0.346412698746,0.0,0.0,0.0,0.0,-0.0126984134316,Linear,1,Sharing Zero Relinquish,1.0,doorway_assistance,1
1449616890241510728,0.15746549668,-0.011333617375,0.0,0.0,0.0,-0.163073201911,0.986613972544,1449616890240648396,1,0.352,0.0,0.0,0.0,0.0,-0.105263157895,1,0.346412698746,0.0,0.0,0.0,0.0,-0.0126984134316,0.346412698746,0.0,0.0,0.0,0.0,-0.0126984134316,Linear,1,Sharing Zero Relinquish,1.0,doorway_assistance,1
1449616890299458203,0.16291875535,-0.0131869405798,0.0,0.0,0.0,-0.163073201911,0.986613972544,1449616890298650123,1,0.352,0.0,0.0,0.0,0.0,-0.105263157895,1,0.346412698746,0.0,0.0,0.0,0.0,-0.0126984134316,0.346412698746,0.0,0.0,0.0,0.0,-0.0126984134316,Linear,1,Sharing Zero Relinquish,1.0,doorway_assistance,1
1449616890313258901,0.16291875535,-0.0131869405798,0.0,0.0,0.0,-0.163073201911,0.986613972544,1449616890312779363,1,0.352,0.0,0.0,0.0,0.0,-0.105263157895,1,0.346412698746,0.0,0.0,0.0,0.0,-0.0126984134316,0.346412698746,0.0,0.0,0.0,0.0,-0.0126984134316,Linear,1,Sharing Zero Relinquish,1.0,doorway_assistance,1
1449616890373921624,0.168372014019,-0.0150402637845,0.0,0.0,0.0,-0.163073201911,0.986613972544,1449616890372731368,1,0.352,0.0,0.0,0.0,0.0,-0.105263157895,1,0.346412698746,0.0,0.0,0.0,0.0,-0.0126984134316,0.346412698746,0.0,0.0,0.0,0.0,-0.0126984134316,Linear,1,Sharing Zero Relinquish,1.0,doorway_assistance,1
1449616890425537913,0.171088698272,-0.0159956882561,0.0,0.0,0.0,-0.168284193326,0.985738520236,1449616890424457286,1,0.352,0.0,0.0,0.0,0.0,-0.105263157895,1,0.346412698746,0.0,0.0,0.0,0.0,-0.0126984134316,0.346412698746,0.0,0.0,0.0,0.0,-0.0126984134316,Linear,1,Sharing Zero Relinquish,1.0,doorway_assistance,1
1449616890460628579,0.171088698272,-0.0159956882561,0.0,0.0,0.0,-0.168284193326,0.985738520236,1449616890454597260,1,0.352,0.0,0.0,0.0,0.0,-0.105263157895,1,0.340825397491,0.0,0.0,0.0,0.0,-0.0190476194024,0.340825397491,0.0,0.0,0.0,0.0,-0.0190476194024,Linear,1,Sharing Zero Relinquish,1.0,doorway_assistance,1
1449616890560781686,0.176522066779,-0.0179065371992,0.0,0.0,0.0,-0.168284193326,0.985738520236,1449616890510968245,1,0.352,0.0,0.0,0.0,0.0,-0.105263157895,1,0.340825397491,0.0,0.0,0.0,0.0,-0.0190476194024,0.340825397491,0.0,0.0,0.0,0.0,-0.0190476194024,Linear,1,Sharing Zero Relinquish,1.0,doorway_assistance,1
1449616890560787471,0.184641374077,-0.0208587791085,0.0,0.0,0.0,-0.173490486104,0.984835545272,1449616890534630851,1,0.352,0.0,0.0,0.0,0.0,-0.105263157895,1,0.340825397491,0.0,0.0,0.0,0.0,-0.0126984134316,0.340825397491,0.0,0.0,0.0,0.0,-0.0126984134316,Linear,1,Sharing Zero Relinquish,1.0,doorway_assistance,1
1449616890560828931,0.184641374077,-0.0208587791085,0.0,0.0,0.0,-0.173490486104,0.984835545272,1449616890558452773,1,0.352,0.0,0.0,0.0,0.0,-0.105263157895,1,0.340825397491,0.0,0.0,0.0,0.0,-0.0126984134316,0.340825397491,0.0,0.0,0.0,0.0,-0.0126984134316,Linear,1,Sharing Zero Relinquish,1.0,doorway_assistance,1
1449616890609158214,0.190054245608,-0.0228269403814,0.0,0.0,0.0,-0.173490486104,0.984835545272,1449616890608084263,1,0.352,0.0,0.0,0.0,0.0,-0.105263157895,1,0.31288889122,0.0,0.0,0.0,0.0,-0.0126984134316,0.31288889122,0.0,0.0,0.0,0.0,-0.0126984134316,Linear,1,Sharing Zero Relinquish,1.0,doorway_assistance,1
1449616890682396861,0.195424311976,-0.0249090605094,0.0,0.0,0.0,-0.183888394426,0.982947128993,1449616890680990187,1,0.352,0.0,0.0,0.0,0.0,-0.105263157895,1,0.31288889122,0.0,0.0,0.0,0.0,-0.0126984134316,0.31288889122,0.0,0.0,0.0,0.0,-0.0126984134316,Linear,1,Sharing Zero Relinquish,1.0,doorway_assistance,1
1449616890704216480,0.20616444471,-0.0290733007655,0.0,0.0,0.0,-0.183888394426,0.982947128993,1449616890700855068,1,0.352,0.0,0.0,0.0,0.0,-0.105263157895,1,0.31288889122,0.0,0.0,0.0,0.0,-0.0126984134316,0.31288889122,0.0,0.0,0.0,0.0,-0.0126984134316,Linear,1,Sharing Zero Relinquish,1.0,doorway_assistance,1
1449616890762884572,0.20616444471,-0.0290733007655,0.0,0.0,0.0,-0.183888394426,0.982947128993,1449616890761442526,1,0.352,0.0,0.0,0.0,0.0,-0.105263157895,1,0.346412698746,0.0,0.0,0.0,0.0,-0.0190476194024,0.352,0.0,0.0,0.0,0.0,-0.105263157895,Linear,1,Sharing Zero Relinquish,0.0,doorway_assistance,1
1449616890792738822,0.216904577444,-0.0332375410215,0.0,0.0,0.0,-0.183888394426,0.982947128993,1449616890791454152,1,0.352,0.0,0.0,0.0,0.0,-0.105263157895,1,0.346412698746,0.0,0.0,0.0,0.0,-0.0190476194024,0.352,0.0,0.0,0.0,0.0,-0.105263157895,Linear,1,Sharing Zero Relinquish,0.0,doorway_assistance,1
1449616890805075443,0.224926221881,-0.0364456719107,0.0,0.0,0.0,-0.189079719651,0.981961740404,1449616890803678108,1,0.352,0.0,0.0,0.0,0.0,-0.0631578947368,1,0.296126987457,0.0,0.0,0.0,0.0,-0.0126984134316,0.296126987457,0.0,0.0,0.0,0.0,-0.0126984134316,Linear,1,Sharing Zero Relinquish,1.0,doorway_assistance,1
1449616890849243867,0.224926221881,-0.0364456719107,0.0,0.0,0.0,-0.189079719651,0.981961740404,1449616890847247051,1,0.352,0.0,0.0,0.0,0.0,-0.0631578947368,1,0.296126987457,0.0,0.0,0.0,0.0,-0.0126984134316,0.296126987457,0.0,0.0,0.0,0.0,-0.0126984134316,Linear,1,Sharing Zero Relinquish,1.0,doorway_assistance,1
1449616890885043565,0.232913515327,-0.0397383952047,0.0,0.0,0.0,-0.194265765611,0.98094893461,1449616890883900406,1,0.352,0.0,0.0,0.0,0.0,-0.0631578947368,1,0.296126987457,0.0,0.0,0.0,0.0,-0.0126984134316,0.296126987457,0.0,0.0,0.0,0.0,-0.0126984134316,Linear,1,Sharing Zero Relinquish,1.0,doorway_assistance,1
1449616890951997070,0.238238377625,-0.0419335440674,0.0,0.0,0.0,-0.194265765611,0.98094893461,1449616890918730450,1,0.352,0.0,0.0,0.0,0.0,-0.0631578947368,1,0.346412698746,0.0,0.0,0.0,0.0,-0.0126984134316,0.346412698746,0.0,0.0,0.0,0.0,-0.0126984134316,Linear,1,Sharing Zero Relinquish,1.0,doorway_assistance,1
1449616891037929653,0.246190428038,-0.0453104920261,0.0,0.0,0.0,-0.199446387505,0.979908739889,1449616891036910086,1,0.352,0.0,0.0,0.0,0.0,-0.0631578947368,1,0.346412698746,0.0,0.0,0.0,0.0,-0.0126984134316,0.352,0.0,0.0,0.0,0.0,-0.0631578947368,Linear,1,Sharing Zero Relinquish,0.0,doorway_assistance,1
1449616891071188719,0.269974316998,-0.0556090309393,0.0,0.0,0.0,-0.204621440688,0.978841185285,1449616891069794997,1,0.352,0.0,0.0,0.0,0.0,-0.0631578947368,1,0.346412698746,0.0,0.0,0.0,0.0,-0.0126984134316,0.352,0.0,0.0,0.0,0.0,-0.0631578947368,Linear,1,Sharing Zero Relinquish,0.0,doorway_assistance,1
1449616891118030929,0.269974316998,-0.0556090309393,0.0,0.0,0.0,-0.204621440688,0.978841185285,1449616891116482248,1,0.352,0.0,0.0,0.0,0.0,-0.0631578947368,1,0.340825397491,0.0,0.0,0.0,0.0,-0.0126984134316,0.352,0.0,0.0,0.0,0.0,-0.0631578947368,Linear,1,Sharing Zero Relinquish,0.0,doorway_assistance,1
1449616891153977364,0.288307899619,-0.0639897163054,0.0,0.0,0.0,-0.209790780666,0.977746300606,1449616891152085357,1,0.352,0.0,0.0,0.0,0.0,-0.0631578947368,1,0.340825397491,0.0,0.0,0.0,0.0,-0.0126984134316,0.352,0.0,0.0,0.0,0.0,-0.0631578947368,Linear,1,Sharing Zero Relinquish,0.0,doorway_assistance,1
1449616891249345749,0.296148908537,-0.0676170379663,0.0,0.0,0.0,-0.214954263107,0.976624116419,1449616891247495225,1,0.352,0.0,0.0,0.0,0.0,-0.0631578947368,1,0.340825397491,0.0,0.0,0.0,0.0,-0.0126984134316,0.352,0.0,0.0,0.0,0.0,-0.0631578947368,Linear,1,Sharing Zero Relinquish,0.0,doorway_assistance,1
1449616891262664133,0.314405825162,-0.0761634485755,0.0,0.0,0.0,-0.220111743843,0.97547466406,1449616891259968025,1,0.352,0.0,0.0,0.0,0.0,-0.0631578947368,1,0.0670476202965,0.0,0.0,0.0,0.0,0.00634920671582,0.0670476202965,0.0,0.0,0.0,0.0,0.00634920671582,Linear,1,Sharing Zero Relinquish,1.0,doorway_assistance,1
1449616891297762432,0.314405825162,-0.0761634485755,0.0,0.0,0.0,-0.220111743843,0.97547466406,1449616891297039091,1,0.352,0.0,0.0,0.0,0.0,-0.0210526315789,1,0.0167619050741,0.0,0.0,0.0,0.0,0.0126984134316,0.0167619050741,0.0,0.0,0.0,0.0,0.0126984134316,Linear,1,Sharing Zero Relinquish,1.0,doorway_assistance,1
1449616891350828140,0.322168421004,-0.0799556760303,0.0,0.0,0.0,-0.225263078873,0.97429797562,1449616891349401403,1,0.352,0.0,0.0,0.0,0.0,-0.0210526315789,1,0.0167619050741,0.0,0.0,0.0,0.0,0.0126984134316,0.0167619050741,0.0,0.0,0.0,0.0,0.0126984134316,Linear,1,Sharing Zero Relinquish,1.0,doorway_assistance,1
1449616891421338655,0.335038565456,-0.0864124254562,0.0,0.0,0.0,-0.230408124366,0.973094083954,1449616891420124939,1,0.352,0.0,0.0,0.0,0.0,-0.0210526315789,1,0.0167619050741,0.0,0.0,0.0,0.0,0.0126984134316,0.0167619050741,0.0,0.0,0.0,0.0,0.0126984134316,Linear,1,Sharing Zero Relinquish,1.0,doorway_assistance,1
1449616891436471700,0.350482738797,-0.0941605247673,0.0,0.0,0.0,-0.230408124366,0.973094083954,1449616891435641633,1,0.352,0.0,0.0,0.0,0.0,-0.0210526315789,1,0.00558730190992,0.0,0.0,0.0,0.0,0.00634920671582,0.00558730190992,0.0,0.0,0.0,0.0,0.00634920671582,Linear,1,Sharing Zero Relinquish,1.0,doorway_assistance,1
1449616891506228786,0.36328393059,-0.100752923421,0.0,0.0,0.0,-0.235546736669,0.971863022676,1449616891503120189,1,0.352,0.0,0.0,0.0,0.0,-0.0210526315789,1,0.00558730190992,0.0,0.0,0.0,0.0,0.00634920671582,0.00558730190992,0.0,0.0,0.0,0.0,0.00634920671582,Linear,1,Sharing Zero Relinquish,1.0,doorway_assistance,1
1449616891520687984,0.370922416269,-0.104789310397,0.0,0.0,0.0,-0.240678772307,0.970604826158,1449616891519688749,1,0.352,0.0,0.0,0.0,0.0,-0.0210526315789,1,0.00558730190992,0.0,0.0,0.0,0.0,0.00634920671582,0.00558730190992,0.0,0.0,0.0,0.0,0.00634920671582,Linear,1,Sharing Zero Relinquish,1.0,doorway_assistance,1
1449616891544406178,0.381107063841,-0.110171159697,0.0,0.0,0.0,-0.240678772307,0.970604826158,1449616891542634478,1,0.352,0.0,0.0,0.0,0.0,0.0210526315789,1,0.00558730190992,0.0,0.0,0.0,0.0,0.00634920671582,0.00558730190992,0.0,0.0,0.0,0.0,0.00634920671582,Linear,1,Sharing Zero Relinquish,1.0,doorway_assistance,1
1449616891573687519,0.381107063841,-0.110171159697,0.0,0.0,0.0,-0.240678772307,0.970604826158,1449616891573009658,1,0.352,0.0,0.0,0.0,0.0,0.0210526315789,1,0.00558730190992,0.0,0.0,0.0,0.0,0.00634920671582,0.00558730190992,0.0,0.0,0.0,0.0,0.00634920671582,Linear,1,Sharing Zero Relinquish,1.0,doorway_assistance,1
1449616891608724396,0.388702467037,-0.114288043662,0.0,0.0,0.0,-0.24580408799,0.96931952953,1449616891607712491,1,0.352,0.0,0.0,0.0,0.0,0.0210526315789,1,-0.0,0.0,0.0,0.0,0.0,-0.0,0.352,0.0,0.0,0.0,0.0,0.0210526315789,Linear,3,Sharing Zero Relinquish,1.0,doorway_assistance,3
1449616891648659119,0.396253939475,-0.11848496483,0.0,0.0,0.0,-0.250922540614,0.968007168678,1449616891647712333,1,0.352,0.0,0.0,0.0,0.0,0.0210526315789,1,-0.0,0.0,0.0,0.0,0.0,-0.0,0.352,0.0,0.0,0.0,0.0,0.0210526315789,Linear,3,Sharing Zero Relinquish,1.0,doorway_assistance,3
1449616891690088240,0.406322569393,-0.124080859722,0.0,0.0,0.0,-0.250922540614,0.968007168678,1449616891687705442,1,0.352,0.0,0.0,0.0,0.0,0.0210526315789,1,-0.0,0.0,0.0,0.0,0.0,-0.0,0.352,0.0,0.0,0.0,0.0,0.0210526315789,Linear,3,Sharing Zero Relinquish,1.0,doorway_assistance,3
1449616891729307889,0.416391199311,-0.129676754614,0.0,0.0,0.0,-0.250922540614,0.968007168678,1449616891727732191,1,0.352,0.0,0.0,0.0,0.0,0.0,1,-0.0,0.0,0.0,0.0,0.0,-0.0,0.352,0.0,0.0,0.0,0.0,0.0,Linear,3,Sharing Zero Relinquish,1.0,doorway_assistance,3
1449616891769302795,0.423897897624,-0.133953244264,0.0,0.0,0.0,-0.256033987268,0.966667780245,1449616891767785698,1,0.352,0.0,0.0,0.0,0.0,0.0,1,-0.0,0.0,0.0,0.0,0.0,-0.0,0.352,0.0,0.0,0.0,0.0,0.0,Linear,3,Sharing Zero Relinquish,1.0,doorway_assistance,3
1449616891809078296,0.431358983443,-0.138308824785,0.0,0.0,0.0,-0.261138285236,0.965301401628,1449616891807763010,1,0.352,0.0,0.0,0.0,0.0,0.0210526315789,1,-0.0,0.0,0.0,0.0,0.0,-0.0,0.352,0.0,0.0,0.0,0.0,0.0210526315789,Linear,3,Sharing Zero Relinquish,1.0,doorway_assistance,3
1449616891848401150,0.438773623495,-0.142743009736,0.0,0.0,0.0,-0.266235292001,0.963908070976,1449616891847712154,1,0.352,0.0,0.0,0.0,0.0,0.0210526315789,1,-0.0,0.0,0.0,0.0,0.0,-0.0,0.352,0.0,0.0,0.0,0.0,0.0210526315789,Linear,3,Sharing Zero Relinquish,1.0,doorway_assistance,3
1449616891888572641,0.446234709314,-0.147098590258,0.0,0.0,0.0,-0.261138285236,0.965301401628,1449616891887721092,1,0.352,0.0,0.0,0.0,0.0,0.0210526315789,1,-0.0,0.0,0.0,0.0,0.0,-0.0,0.352,0.0,0.0,0.0,0.0,0.0210526315789,Linear,3,Sharing Zero Relinquish,1.0,doorway_assistance,3
1449616891928631320,0.453649349366,-0.151532775209,0.0,0.0,0.0,-0.266235292001,0.963908070976,1449616891927737654,1,0.352,0.0,0.0,0.0,0.0,0.0631578947368,1,-0.0,0.0,0.0,0.0,0.0,-0.0,0.352,0.0,0.0,0.0,0.0,0.0631578947368,Linear,3,Sharing Zero Relinquish,1.0,doorway_assistance,3
1449616891969928980,0.461016715565,-0.156045069368,0.0,0.0,0.0,-0.271324865251,0.962487827194,1449616891967724310,1,0.352,0.0,0.0,0.0,0.0,0.0631578947368,1,-0.0,0.0,0.0,0.0,0.0,-0.0,0.352,0.0,0.0,0.0,0.0,0.0631578947368,Linear,3,Sharing Zero Relinquish,1.0,doorway_assistance,3
1449616892019985556,0.465928293031,-0.159053265474,0.0,0.0,0.0,-0.271324865251,0.962487827194,1449616892007766560,1,0.352,0.0,0.0,0.0,0.0,0.0631578947368,1,-0.0,0.0,0.0,0.0,0.0,-0.0,0.352,0.0,0.0,0.0,0.0,0.0631578947368,Linear,3,Sharing Zero Relinquish,1.0,doorway_assistance,3
1449616892048111378,0.470839870497,-0.16206146158,0.0,0.0,0.0,-0.271324865251,0.962487827194,1449616892047729854,1,0.352,0.0,0.0,0.0,0.0,0.0631578947368,1,-0.0,0.0,0.0,0.0,0.0,-0.0,0.352,0.0,0.0,0.0,0.0,0.0631578947368,Linear,3,Sharing Zero Relinquish,1.0,doorway_assistance,3
1449616892091107962,0.480663025429,-0.168077853791,0.0,0.0,0.0,-0.271324865251,0.962487827194,1449616892087695096,1,0.352,0.0,0.0,0.0,0.0,0.0631578947368,1,-0.0,0.0,0.0,0.0,0.0,-0.0,0.352,0.0,0.0,0.0,0.0,0.0631578947368,Linear,3,Sharing Zero Relinquish,1.0,doorway_assistance,3
1449616892129207266,0.483102781942,-0.169607820265,0.0,0.0,0.0,-0.276406862881,0.961040709935,1449616892127727367,1,0.352,0.0,0.0,0.0,0.0,0.0631578947368,1,-0.0,0.0,0.0,0.0,0.0,-0.0,0.352,0.0,0.0,0.0,0.0,0.0631578947368,Linear,3,Sharing Zero Relinquish,1.0,doorway_assistance,3
1449616892170761588,0.492861807993,-0.175727686161,0.0,0.0,0.0,-0.276406862881,0.961040709935,1449616892167766120,1,0.352,0.0,0.0,0.0,0.0,0.0631578947368,1,-0.0,0.0,0.0,0.0,0.0,-0.0,0.352,0.0,0.0,0.0,0.0,0.0631578947368,Linear,3,Sharing Zero Relinquish,1.0,doorway_assistance,3
1449616892209631119,0.500132163437,-0.180394678234,0.0,0.0,0.0,-0.281481142997,0.959566759604,1449616892207727721,1,0.352,0.0,0.0,0.0,0.0,0.0631578947368,1,-0.0,0.0,0.0,0.0,0.0,-0.0,0.352,0.0,0.0,0.0,0.0,0.0631578947368,Linear,3,Sharing Zero Relinquish,1.0,doorway_assistance,3
1449616892248563401,0.504979067066,-0.183506006282,0.0,0.0,0.0,-0.281481142997,0.959566759604,1449616892247774590,1,0.352,0.0,0.0,0.0,0.0,0.0631578947368,1,-0.0,0.0,0.0,0.0,0.0,-0.0,0.352,0.0,0.0,0.0,0.0,0.0631578947368,Linear,3,Sharing Zero Relinquish,1.0,doorway_assistance,3
1449616892291305696,0.512199696442,-0.188249569784,0.0,0.0,0.0,-0.28654756392,0.958066017355,1449616892289765946,1,0.352,0.0,0.0,0.0,0.0,0.0631578947368,1,-0.0,0.0,0.0,0.0,0.0,-0.0,0.352,0.0,0.0,0.0,0.0,0.0631578947368,Linear,3,Sharing Zero Relinquish,1.0,doorway_assistance,3
1449616892329221032,0.517013449359,-0.191411945452,0.0,0.0,0.0,-0.28654756392,0.958066017355,1449616892327760877,1,0.352,0.0,0.0,0.0,0.0,0.0631578947368,1,-0.0,0.0,0.0,0.0,0.0,-0.0,0.352,0.0,0.0,0.0,0.0,0.0631578947368,Linear,3,Sharing Zero Relinquish,1.0,doorway_assistance,3
1449616892369183775,0.526640955194,-0.197736696788,0.0,0.0,0.0,-0.28654756392,0.958066017355,1449616892367740564,1,0.352,0.0,0.0,0.0,0.0,0.0631578947368,1,-0.0,0.0,0.0,0.0,0.0,-0.0,0.352,0.0,0.0,0.0,0.0,0.0631578947368,Linear,3,Sharing Zero Relinquish,1.0,doorway_assistance,3
1449616892409259382,0.531454708111,-0.200899072456,0.0,0.0,0.0,-0.28654756392,0.958066017355,1449616892407802646,1,0.352,0.0,0.0,0.0,0.0,0.105263157895,1,-0.0,0.0,0.0,0.0,0.0,-0.0,0.352,0.0,0.0,0.0,0.0,0.105263157895,Linear,3,Sharing Zero Relinquish,1.0,doorway_assistance,3
1449616892452204640,0.538624805001,-0.205718677614,0.0,0.0,0.0,-0.291605984193,0.956538525091,1449616892447746399,1,0.352,0.0,0.0,0.0,0.0,0.105263157895,1,-0.0,0.0,0.0,0.0,0.0,-0.0,0.352,0.0,0.0,0.0,0.0,0.105263157895,Linear,3,Sharing Zero Relinquish,1.0,doorway_assistance,3
1449616892490230240,0.548184934188,-0.212144817824,0.0,0.0,0.0,-0.291605984193,0.956538525091,1449616892487815037,1,0.352,0.0,0.0,0.0,0.0,0.105263157895,1,-0.0,0.0,0.0,0.0,0.0,-0.0,0.352,0.0,0.0,0.0,0.0,0.105263157895,Linear,3,Sharing Zero Relinquish,1.0,doorway_assistance,3
1449616892530318955,0.552964998781,-0.215357887929,0.0,0.0,0.0,-0.291605984193,0.956538525091,1449616892528694272,1,0.352,0.0,0.0,0.0,0.0,0.0210526315789,1,-0.0,0.0,0.0,0.0,0.0,-0.0,0.352,0.0,0.0,0.0,0.0,0.0210526315789,Linear,3,Sharing Zero Relinquish,1.0,doorway_assistance,3
1449616892569879947,0.560083762409,-0.220252996476,0.0,0.0,0.0,-0.296656262579,0.954984325459,1449616892568431595,1,0.352,0.0,0.0,0.0,0.0,0.0210526315789,1,-0.0,0.0,0.0,0.0,0.0,-0.0,0.352,0.0,0.0,0.0,0.0,0.0210526315789,Linear,3,Sharing Zero Relinquish,1.0,doorway_assistance,3
1449616892608717718,0.564829604828,-0.223516402174,0.0,0.0,0.0,-0.296656262579,0.954984325459,1449616892607717178,1,0.3056,0.0,0.0,0.0,0.0,0.0210526315789,1,-0.0,0.0,0.0,0.0,0.0,-0.0,0.3056,0.0,0.0,0.0,0.0,0.0210526315789,Linear,3,Sharing Zero Relinquish,1.0,doorway_assistance,3
1449616892651144016,0.574321289666,-0.23004321357,0.0,0.0,0.0,-0.296656262579,0.954984325459,1449616892647772516,1,0.3056,0.0,0.0,0.0,0.0,0.0210526315789,1,-0.0,0.0,0.0,0.0,0.0,-0.0,0.3056,0.0,0.0,0.0,0.0,0.0210526315789,Linear,3,Sharing Zero Relinquish,1.0,doorway_assistance,3
1449616892689034184,0.583812974503,-0.236570024966,0.0,0.0,0.0,-0.296656262579,0.954984325459,1449616892687728009,1,0.352,0.0,0.0,0.0,0.0,0.0210526315789,1,-0.0,0.0,0.0,0.0,0.0,-0.0,0.352,0.0,0.0,0.0,0.0,0.0210526315789,Linear,3,Sharing Zero Relinquish,1.0,doorway_assistance,3
1449616892732792186,0.590879609828,-0.241540090204,0.0,0.0,0.0,-0.30169825807,0.953403461855,1449616892727735679,1,0.352,0.0,0.0,0.0,0.0,0.0210526315789,1,-0.0,0.0,0.0,0.0,0.0,-0.0,0.352,0.0,0.0,0.0,0.0,0.0210526315789,Linear,3,Sharing Zero Relinquish,1.0,doorway_assistance,3
1449616892769700853,0.600301790261,-0.248166843855,0.0,0.0,0.0,-0.30169825807,0.953403461855,1449616892768469956,1,0.2128,0.0,0.0,0.0,0.0,0.0210526315789,1,-0.0,0.0,0.0,0.0,0.0,-0.0,0.2128,0.0,0.0,0.0,0.0,0.0210526315789,Linear,3,Sharing Zero Relinquish,1.0,doorway_assistance,3
1449616892811408100,0.609723970694,-0.254793597505,0.0,0.0,0.0,-0.30169825807,0.953403461855,1449616892807778823,1,0.2128,0.0,0.0,0.0,0.0,0.0210526315789,1,-0.0,0.0,0.0,0.0,0.0,-0.0,0.2128,0.0,0.0,0.0,0.0,0.0210526315789,Linear,3,Sharing Zero Relinquish,1.0,doorway_assistance,3
1449616892848479301,0.616737688495,-0.259838064364,0.0,0.0,0.0,-0.30673182989,0.951795978418,1449616892847718390,1,0.2128,0.0,0.0,0.0,0.0,0.0210526315789,1,-0.0,0.0,0.0,0.0,0.0,-0.0,0.2128,0.0,0.0,0.0,0.0,0.0210526315789,Linear,3,Sharing Zero Relinquish,1.0,doorway_assistance,3
1449616892889397792,0.62380432382,-0.264808129602,0.0,0.0,0.0,-0.30169825807,0.953403461855,1449616892887747226,1,0.2128,0.0,0.0,0.0,0.0,0.0210526315789,1,-0.0,0.0,0.0,0.0,0.0,-0.0,0.2128,0.0,0.0,0.0,0.0,0.0210526315789,Linear,3,Sharing Zero Relinquish,1.0,doorway_assistance,3
1449616892928298883,0.633226504253,-0.271434883253,0.0,0.0,0.0,-0.30169825807,0.953403461855,1449616892927697255,1,0.2128,0.0,0.0,0.0,0.0,0.0210526315789,1,-0.0,0.0,0.0,0.0,0.0,-0.0,0.2128,0.0,0.0,0.0,0.0,0.0210526315789,Linear,3,Sharing Zero Relinquish,1.0,doorway_assistance,3
1449616892967954012,0.644916033921,-0.279842328018,0.0,0.0,0.0,-0.30673182989,0.951795978418,1449616892967693653,1,0.352,0.0,0.0,0.0,0.0,0.147368421053,1,-0.0,0.0,0.0,0.0,0.0,-0.0,0.352,0.0,0.0,0.0,0.0,0.147368421053,Linear,3,Sharing Zero Relinquish,1.0,doorway_assistance,3
1449616893009747757,0.649591845788,-0.283205305924,0.0,0.0,0.0,-0.30673182989,0.951795978418,1449616893007760393,1,0.352,0.0,0.0,0.0,0.0,0.147368421053,1,-0.0,0.0,0.0,0.0,0.0,-0.0,0.352,0.0,0.0,0.0,0.0,0.147368421053,Linear,3,Sharing Zero Relinquish,1.0,doorway_assistance,3
1449616893049146553,0.658943469523,-0.289931261737,0.0,0.0,0.0,-0.30673182989,0.951795978418,1449616893047724008,1,0.352,0.0,0.0,0.0,0.0,0.147368421053,1,-0.0,0.0,0.0,0.0,0.0,-0.0,0.352,0.0,0.0,0.0,0.0,0.147368421053,Linear,3,Sharing Zero Relinquish,1.0,doorway_assistance,3
1449616893093791309,0.670543497801,-0.298461770238,0.0,0.0,0.0,-0.311756837497,0.950161920029,1449616893092952290,1,0.352,0.0,0.0,0.0,0.0,0.189473684211,1,-0.0,0.0,0.0,0.0,0.0,-0.0,0.352,0.0,0.0,0.0,0.0,0.189473684211,Linear,3,Sharing Zero Relinquish,1.0,doorway_assistance,3
1449616893128721090,0.675183509112,-0.301873973639,0.0,0.0,0.0,-0.311756837497,0.950161920029,1449616893127699283,1,0.352,0.0,0.0,0.0,0.0,0.189473684211,1,-0.0,0.0,0.0,0.0,0.0,-0.0,0.352,0.0,0.0,0.0,0.0,0.189473684211,Linear,3,Sharing Zero Relinquish,1.0,doorway_assistance,3
1449616893169297021,0.684463531734,-0.30869838044,0.0,0.0,0.0,-0.311756837497,0.950161920029,1449616893167741741,1,0.352,0.0,0.0,0.0,0.0,0.189473684211,1,-0.0,0.0,0.0,0.0,0.0,-0.0,0.352,0.0,0.0,0.0,0.0,0.189473684211,Linear,3,Sharing Zero Relinquish,1.0,doorway_assistance,3
