%time,field.linear.x,field.linear.y,field.linear.z,field.angular.x,field.angular.y,field.angular.z
1449616884025299525,-0.0,0.0,0.0,0.0,0.0,-0.0
1449616884067025869,-0.0,0.0,0.0,0.0,0.0,-0.0
1449616884105480772,-0.0,0.0,0.0,0.0,0.0,-0.0
1449616884143519944,-0.0,0.0,0.0,0.0,0.0,-0.0
1449616884184262747,-0.0,0.0,0.0,0.0,0.0,-0.0
1449616884224865923,-0.0,0.0,0.0,0.0,0.0,-0.0
1449616884265649638,-0.0,0.0,0.0,0.0,0.0,-0.0
1449616884303908219,-0.0,0.0,0.0,0.0,0.0,-0.0
1449616884345471970,-0.0,0.0,0.0,0.0,0.0,-0.0
1449616884385115284,-0.0,0.0,0.0,0.0,0.0,-0.0
1449616884424755788,-0.0,0.0,0.0,0.0,0.0,-0.0
1449616884464537881,-0.0,0.0,0.0,0.0,0.0,-0.0
1449616884503640685,-0.0,0.0,0.0,0.0,0.0,-0.0
1449616884549644268,-0.0,0.0,0.0,0.0,0.0,-0.0
1449616884583210214,-0.0,0.0,0.0,0.0,0.0,-0.0
1449616884624995591,-0.0,0.0,0.0,0.0,0.0,-0.0
1449616884663668622,-0.0,0.0,0.0,0.0,0.0,-0.0
1449616884704141458,-0.0,0.0,0.0,0.0,0.0,-0.0
1449616884746937043,-0.0,0.0,0.0,0.0,0.0,-0.0
1449616884784503610,-0.0,0.0,0.0,0.0,0.0,-0.0
1449616884824967928,-0.0,0.0,0.0,0.0,0.0,-0.0
1449616884864963296,-0.0,0.0,0.0,0.0,0.0,-0.0
1449616884903781415,-0.0,0.0,0.0,0.0,0.0,-0.0
1449616884943670183,-0.0,0.0,0.0,0.0,0.0,-0.0
1449616884985968966,-0.0,0.0,0.0,0.0,0.0,-0.0
1449616885024335273,-0.0,0.0,0.0,0.0,0.0,-0.0
1449616885064039877,-0.0,0.0,0.0,0.0,0.0,-0.0
1449616885103298149,-0.0,0.0,0.0,0.0,0.0,-0.0
1449616885143879367,-0.0,0.0,0.0,0.0,0.0,-0.0
1449616885183099476,-0.0,0.0,0.0,0.0,0.0,-0.0
1449616885224510750,-0.0,0.0,0.0,0.0,0.0,-0.0
1449616885263640736,-0.0,0.0,0.0,0.0,0.0,-0.0
1449616885305184737,-0.0,0.0,0.0,0.0,0.0,-0.0
1449616885349641365,-0.0,0.0,0.0,0.0,0.0,-0.0
1449616885385601483,-0.0,0.0,0.0,0.0,0.0,-0.0
1449616885423870999,-0.0,0.0,0.0,0.0,0.0,-0.0
1449616885465645276,-0.0,0.0,0.0,0.0,0.0,-0.0
1449616885503689295,-0.0,0.0,0.0,0.0,0.0,-0.0
1449616885543653676,-0.0,0.0,0.0,0.0,0.0,-0.0
1449616885584157899,-0.0,0.0,0.0,0.0,0.0,-0.0
1449616885625706772,-0.0,0.0,0.0,0.0,0.0,-0.0
1449616885665881453,-0.0,0.0,0.0,0.0,0.0,-0.0
1449616885704653070,-0.0,0.0,0.0,0.0,0.0,-0.0
1449616885744112969,-0.0,0.0,0.0,0.0,0.0,-0.0
1449616885784470387,-0.0,0.0,0.0,0.0,0.0,-0.0
1449616885828376174,-0.0,0.0,0.0,0.0,0.0,-0.0
1449616885869785570,-0.0,0.0,0.0,0.0,0.0,-0.0
1449616885904196810,-0.0,0.0,0.0,0.0,0.0,-0.0
1449616885943747999,-0.0,0.0,0.0,0.0,0.0,-0.0
1449616885988241023,-0.0,0.0,0.0,0.0,0.0,-0.0
1449616886025179258,-0.0,0.0,0.0,0.0,0.0,-0.0
1449616886063954388,-0.0,0.0,0.0,0.0,0.0,-0.0
1449616886103352660,-0.0,0.0,0.0,0.0,0.0,-0.0
1449616886145624994,-0.0,0.0,0.0,0.0,0.0,-0.0
1449616886184808233,-0.0,0.0,0.0,0.0,0.0,-0.0
1449616886224321452,-0.0,0.0,0.0,0.0,0.0,-0.0
1449616886265571689,-0.0,0.0,0.0,0.0,0.0,-0.0
1449616886303508580,-0.0,0.0,0.0,0.0,0.0,-0.0
1449616886343334391,0.0,0.0,0.0,0.0,0.0,0.0
1449616886384075564,0.0,0.0,0.0,0.0,0.0,0.0
1449616886425505240,0.0,0.0,0.0,0.0,0.0,0.0
1449616886474238632,0.0,0.0,0.0,0.0,0.0,0.0
1449616886503917699,0.0,0.0,0.0,0.0,0.0,0.0
1449616886544176085,0.352,0.0,0.0,0.0,0.0,-0.273684210526
1449616886583806657,0.352,0.0,0.0,0.0,0.0,-0.273684210526
1449616886626768386,0.352,0.0,0.0,0.0,0.0,-0.273684210526
1449616886668460240,0.352,0.0,0.0,0.0,0.0,-0.273684210526
1449616886703323801,0.352,0.0,0.0,0.0,0.0,-0.273684210526
1449616886743777041,0.352,0.0,0.0,0.0,0.0,-0.273684210526
1449616886783734408,0.352,0.0,0.0,0.0,0.0,-0.273684210526
1449616886824199239,0.352,0.0,0.0,0.0,0.0,-0.273684210526
1449616886865753995,0.352,0.0,0.0,0.0,0.0,-0.273684210526
1449616886903985278,0.352,0.0,0.0,0.0,0.0,-0.273684210526
1449616886947103946,0.352,0.0,0.0,0.0,0.0,-0.273684210526
1449616886987941065,0.352,0.0,0.0,0.0,0.0,-0.273684210526
1449616887023538253,0.352,0.0,0.0,0.0,0.0,-0.273684210526
1449616887070713988,0.352,0.0,0.0,0.0,0.0,-0.273684210526
1449616887104690886,0.352,0.0,0.0,0.0,0.0,-0.273684210526
1449616887143733181,0.352,0.0,0.0,0.0,0.0,-0.273684210526
1449616887189819489,0.352,0.0,0.0,0.0,0.0,-0.273684210526
1449616887224229492,0.352,0.0,0.0,0.0,0.0,-0.273684210526
1449616887266461638,0.352,0.0,0.0,0.0,0.0,-0.273684210526
1449616887311950195,0.352,0.0,0.0,0.0,0.0,-0.273684210526
1449616887343854822,0.352,0.0,0.0,0.0,0.0,-0.273684210526
1449616887383681693,0.352,0.0,0.0,0.0,0.0,-0.273684210526
1449616887424517755,0.352,0.0,0.0,0.0,0.0,-0.273684210526
1449616887463866366,0.352,0.0,0.0,0.0,0.0,-0.273684210526
1449616887503529551,0.352,0.0,0.0,0.0,0.0,-0.273684210526
1449616887543883054,0.352,0.0,0.0,0.0,0.0,-0.273684210526
1449616887585014577,0.352,0.0,0.0,0.0,0.0,-0.273684210526
1449616887625266582,0.352,0.0,0.0,0.0,0.0,-0.273684210526
1449616887664940199,0.352,0.0,0.0,0.0,0.0,-0.273684210526
1449616887704912925,0.352,0.0,0.0,0.0,0.0,-0.273684210526
1449616887758196912,0.0,0.0,0.0,0.0,0.0,-0.00634920671582
1449616887788954868,0.0,0.0,0.0,0.0,0.0,-0.00634920671582
1449616887832197404,0.00558730190992,0.0,0.0,0.0,0.0,-0.00634920671582
1449616887891565995,0.00558730190992,0.0,0.0,0.0,0.0,-0.00634920671582
1449616887912578337,0.00558730190992,0.0,0.0,0.0,0.0,-0.0698412716389
1449616887948365687,0.00558730190992,0.0,0.0,0.0,0.0,-0.0698412716389
1449616887991051930,0.00558730190992,0.0,0.0,0.0,0.0,-0.0698412716389
1449616888030961846,0.0111746038198,0.0,0.0,0.0,0.0,-0.387301588058
1449616888068855537,0.0111746038198,0.0,0.0,0.0,0.0,-0.387301588058
1449616888108260255,0.00558730190992,0.0,0.0,0.0,0.0,-0.387301588058
1449616888161677513,0.00558730190992,0.0,0.0,0.0,0.0,-0.387301588058
1449616888190171747,0.00558730190992,0.0,0.0,0.0,0.0,-0.387301588058
1449616888249835494,0.00558730190992,0.0,0.0,0.0,0.0,-0.393650794029
1449616888283823954,0.00558730190992,0.0,0.0,0.0,0.0,-0.393650794029
1449616888314547978,0.00558730190992,0.0,0.0,0.0,0.0,-0.393650794029
1449616888354078998,0.00558730190992,0.0,0.0,0.0,0.0,-0.393650794029
1449616888392153559,0.00558730190992,0.0,0.0,0.0,0.0,-0.393650794029
1449616888468157163,0.00558730190992,0.0,0.0,0.0,0.0,-0.393650794029
1449616888476722129,0.00558730190992,0.0,0.0,0.0,0.0,-0.393650794029
1449616888522235385,0.0111746038198,0.0,0.0,0.0,0.0,-0.387301588058
1449616888554015607,0.0111746038198,0.0,0.0,0.0,0.0,-0.387301588058
1449616888620104058,0.0111746038198,0.0,0.0,0.0,0.0,-0.387301588058
1449616888637990605,0.00558730190992,0.0,0.0,0.0,0.0,-0.387301588058
1449616888677113122,0.00558730190992,0.0,0.0,0.0,0.0,-0.387301588058
1449616888707600769,0.00558730190992,0.0,0.0,0.0,0.0,-0.387301588058
1449616888749561851,0.00558730190992,0.0,0.0,0.0,0.0,-0.387301588058
1449616888790039156,0.00558730190992,0.0,0.0,0.0,0.0,-0.387301588058
1449616888871281772,0.00558730190992,0.0,0.0,0.0,0.0,-0.393650794029
1449616888898385297,0.00558730190992,0.0,0.0,0.0,0.0,-0.393650794029
1449616888923219393,0.00558730190992,0.0,0.0,0.0,0.0,-0.393650794029
1449616888961201963,0.00558730190992,0.0,0.0,0.0,0.0,-0.393650794029
1449616889004725691,0.00558730190992,0.0,0.0,0.0,0.0,-0.393650794029
1449616889034664793,0.00558730190992,0.0,0.0,0.0,0.0,-0.387301588058
1449616889072039227,0.00558730190992,0.0,0.0,0.0,0.0,-0.387301588058
1449616889107028652,0.0111746038198,0.0,0.0,0.0,0.0,-0.215873026848
1449616889148824004,0.0111746038198,0.0,0.0,0.0,0.0,-0.215873026848
1449616889214104203,0.0111746038198,0.0,0.0,0.0,0.0,-0.215873026848
1449616889233675591,0.0335238101482,0.0,0.0,0.0,0.0,-0.0888888895512
1449616889295769028,0.0335238101482,0.0,0.0,0.0,0.0,-0.0888888895512
1449616889324119739,0.347809524059,0.0,0.0,0.0,0.0,-0.0616541356044
1449616889379047863,0.347809524059,0.0,0.0,0.0,0.0,-0.0616541356044
1449616889394694952,0.347809524059,0.0,0.0,0.0,0.0,-0.0616541356044
1449616889463026014,0.347809524059,0.0,0.0,0.0,0.0,-0.0463659153369
1449616889480482977,0.347809524059,0.0,0.0,0.0,0.0,-0.0463659153369
1449616889545397983,0.347809524059,0.0,0.0,0.0,0.0,-0.0463659153369
1449616889555417661,0.346412698746,0.0,0.0,0.0,0.0,-0.0126984134316
1449616889592596916,0.346412698746,0.0,0.0,0.0,0.0,-0.0126984134316
1449616889668917654,0.346412698746,0.0,0.0,0.0,0.0,-0.0126984134316
1449616889684053529,0.346412698746,0.0,0.0,0.0,0.0,-0.0126984134316
1449616889723266781,0.346412698746,0.0,0.0,0.0,0.0,-0.0126984134316
1449616889755664622,0.346412698746,0.0,0.0,0.0,0.0,-0.0126984134316
1449616889799765114,0.346412698746,0.0,0.0,0.0,0.0,-0.0126984134316
1449616889864345318,0.340825397491,0.0,0.0,0.0,0.0,-0.0126984134316
1449616889889323763,0.340825397491,0.0,0.0,0.0,0.0,-0.0126984134316
1449616889910969920,0.340825397491,0.0,0.0,0.0,0.0,-0.0190476194024
1449616889962303152,0.340825397491,0.0,0.0,0.0,0.0,-0.0190476194024
1449616889990276620,0.340825397491,0.0,0.0,0.0,0.0,-0.0190476194024
1449616890036855303,0.340825397491,0.0,0.0,0.0,0.0,-0.0126984134316
1449616890098039901,0.340825397491,0.0,0.0,0.0,0.0,-0.0126984134316
1449616890129680529,0.340825397491,0.0,0.0,0.0,0.0,-0.0126984134316
1449616890163804222,0.340825397491,0.0,0.0,0.0,0.0,-0.0126984134316
1449616890204578491,0.346412698746,0.0,0.0,0.0,0.0,-0.0126984134316
1449616890242041921,0.346412698746,0.0,0.0,0.0,0.0,-0.0126984134316
1449616890304551816,0.346412698746,0.0,0.0,0.0,0.0,-0.0126984134316
1449616890313509197,0.346412698746,0.0,0.0,0.0,0.0,-0.0126984134316
1449616890374811728,0.346412698746,0.0,0.0,0.0,0.0,-0.0126984134316
1449616890426780378,0.346412698746,0.0,0.0,0.0,0.0,-0.0126984134316
1449616890460322837,0.340825397491,0.0,0.0,0.0,0.0,-0.0190476194024
1449616890538830769,0.340825397491,0.0,0.0,0.0,0.0,-0.0190476194024
1449616890538834375,0.340825397491,0.0,0.0,0.0,0.0,-0.0126984134316
1449616890561013826,0.340825397491,0.0,0.0,0.0,0.0,-0.0126984134316
1449616890609093237,0.31288889122,0.0,0.0,0.0,0.0,-0.0126984134316
1449616890682532683,0.31288889122,0.0,0.0,0.0,0.0,-0.0126984134316
1449616890701829103,0.31288889122,0.0,0.0,0.0,0.0,-0.0126984134316
1449616890763287652,0.352,0.0,0.0,0.0,0.0,-0.105263157895
1449616890793013241,0.352,0.0,0.0,0.0,0.0,-0.105263157895
1449616890804836615,0.296126987457,0.0,0.0,0.0,0.0,-0.0126984134316
1449616890850073140,0.296126987457,0.0,0.0,0.0,0.0,-0.0126984134316
1449616890885558948,0.296126987457,0.0,0.0,0.0,0.0,-0.0126984134316
1449616890946442693,0.346412698746,0.0,0.0,0.0,0.0,-0.0126984134316
1449616891038121313,0.352,0.0,0.0,0.0,0.0,-0.0631578947368
1449616891071940729,0.352,0.0,0.0,0.0,0.0,-0.0631578947368
1449616891118157185,0.352,0.0,0.0,0.0,0.0,-0.0631578947368
1449616891153877944,0.352,0.0,0.0,0.0,0.0,-0.0631578947368
1449616891248760669,0.352,0.0,0.0,0.0,0.0,-0.0631578947368
1449616891262152669,0.0670476202965,0.0,0.0,0.0,0.0,0.00634920671582
1449616891298490136,0.0167619050741,0.0,0.0,0.0,0.0,0.0126984134316
1449616891352121444,0.0167619050741,0.0,0.0,0.0,0.0,0.0126984134316
1449616891421446323,0.0167619050741,0.0,0.0,0.0,0.0,0.0126984134316
1449616891436529959,0.00558730190992,0.0,0.0,0.0,0.0,0.00634920671582
1449616891505979314,0.00558730190992,0.0,0.0,0.0,0.0,0.00634920671582
1449616891520703275,0.00558730190992,0.0,0.0,0.0,0.0,0.00634920671582
1449616891544539012,0.00558730190992,0.0,0.0,0.0,0.0,0.00634920671582
1449616891573748580,0.00558730190992,0.0,0.0,0.0,0.0,0.00634920671582
1449616891609389578,0.352,0.0,0.0,0.0,0.0,0.0210526315789
1449616891648940108,0.352,0.0,0.0,0.0,0.0,0.0210526315789
1449616891688881834,0.352,0.0,0.0,0.0,0.0,0.0210526315789
1449616891729900121,0.352,0.0,0.0,0.0,0.0,0.0
1449616891769059289,0.352,0.0,0.0,0.0,0.0,0.0
1449616891810242799,0.352,0.0,0.0,0.0,0.0,0.0210526315789
1449616891848526018,0.352,0.0,0.0,0.0,0.0,0.0210526315789
1449616891889242891,0.352,0.0,0.0,0.0,0.0,0.0210526315789
1449616891929423998,0.352,0.0,0.0,0.0,0.0,0.0631578947368
1449616891969864106,0.352,0.0,0.0,0.0,0.0,0.0631578947368
1449616892019308595,0.352,0.0,0.0,0.0,0.0,0.0631578947368
1449616892048443921,0.352,0.0,0.0,0.0,0.0,0.0631578947368
1449616892090453752,0.352,0.0,0.0,0.0,0.0,0.0631578947368
1449616892130387717,0.352,0.0,0.0,0.0,0.0,0.0631578947368
1449616892169629870,0.352,0.0,0.0,0.0,0.0,0.0631578947368
1449616892213784959,0.352,0.0,0.0,0.0,0.0,0.0631578947368
1449616892249607813,0.352,0.0,0.0,0.0,0.0,0.0631578947368
1449616892291313148,0.352,0.0,0.0,0.0,0.0,0.0631578947368
1449616892329125219,0.352,0.0,0.0,0.0,0.0,0.0631578947368
1449616892369535810,0.352,0.0,0.0,0.0,0.0,0.0631578947368
1449616892413515834,0.352,0.0,0.0,0.0,0.0,0.105263157895
1449616892450927199,0.352,0.0,0.0,0.0,0.0,0.105263157895
1449616892490238125,0.352,0.0,0.0,0.0,0.0,0.105263157895
1449616892530179770,0.352,0.0,0.0,0.0,0.0,0.0210526315789
1449616892570340143,0.352,0.0,0.0,0.0,0.0,0.0210526315789
1449616892610748342,0.3056,0.0,0.0,0.0,0.0,0.0210526315789
1449616892655015309,0.3056,0.0,0.0,0.0,0.0,0.0210526315789
1449616892691702223,0.352,0.0,0.0,0.0,0.0,0.0210526315789
1449616892729857598,0.352,0.0,0.0,0.0,0.0,0.0210526315789
1449616892771277598,0.2128,0.0,0.0,0.0,0.0,0.0210526315789
1449616892825120440,0.2128,0.0,0.0,0.0,0.0,0.0210526315789
1449616892848406916,0.2128,0.0,0.0,0.0,0.0,0.0210526315789
1449616892891127375,0.2128,0.0,0.0,0.0,0.0,0.0210526315789
1449616892928778092,0.2128,0.0,0.0,0.0,0.0,0.0210526315789
1449616892968857364,0.352,0.0,0.0,0.0,0.0,0.147368421053
1449616893009871383,0.352,0.0,0.0,0.0,0.0,0.147368421053
1449616893050318740,0.352,0.0,0.0,0.0,0.0,0.147368421053
1449616893094580644,0.352,0.0,0.0,0.0,0.0,0.189473684211
1449616893128652454,0.352,0.0,0.0,0.0,0.0,0.189473684211
1449616893169241005,0.352,0.0,0.0,0.0,0.0,0.189473684211
1449616893210662559,0.352,0.0,0.0,0.0,0.0,0.189473684211
1449616893249623060,0.352,0.0,0.0,0.0,0.0,0.189473684211
1449616893292025127,0.352,0.0,0.0,0.0,0.0,0.189473684211
1449616893328682628,0.352,0.0,0.0,0.0,0.0,0.189473684211
1449616893369827281,0.352,0.0,0.0,0.0,0.0,0.189473684211
1449616893410523061,0.352,0.0,0.0,0.0,0.0,0.189473684211
1449616893449608919,0.352,0.0,0.0,0.0,0.0,0.231578947368
1449616893490105215,0.352,0.0,0.0,0.0,0.0,0.231578947368
1449616893529290035,0.352,0.0,0.0,0.0,0.0,0.231578947368
1449616893570420317,0.352,0.0,0.0,0.0,0.0,0.231578947368
1449616893610968215,0.352,0.0,0.0,0.0,0.0,0.231578947368
1449616893649010591,0.352,0.0,0.0,0.0,0.0,0.231578947368
1449616893691252901,0.352,0.0,0.0,0.0,0.0,0.231578947368
1449616893729054398,0.352,0.0,0.0,0.0,0.0,0.231578947368
1449616893776875189,0.352,0.0,0.0,0.0,0.0,0.231578947368
1449616893810194630,0.352,0.0,0.0,0.0,0.0,0.231578947368
1449616893851837884,0.352,0.0,0.0,0.0,0.0,0.231578947368
1449616893888969257,0.352,0.0,0.0,0.0,0.0,0.273684210526
1449616893966998116,0.0,0.0,0.0,0.0,0.0,0.00634920671582
1449616893985434336,0.0,0.0,0.0,0.0,0.0,0.00634920671582
1449616894022451336,0.0,0.0,0.0,0.0,0.0,0.0317460328341
1449616894055721481,0.0,0.0,0.0,0.0,0.0,0.0317460328341
1449616894095420343,0.0,0.0,0.0,0.0,0.0,0.0317460328341
1449616894178928496,-0.00558730190992,0.0,0.0,0.0,0.0,0.209523820877
1449616894199224654,-0.00558730190992,0.0,0.0,0.0,0.0,0.209523820877
1449616894292354466,0.0,0.0,0.0,0.0,0.0,0.196825397015
1449616894326129975,0.0,0.0,0.0,0.0,0.0,0.196825397015
1449616894359471180,0.0,0.0,0.0,0.0,0.0,0.0
1449616894465719975,0.0,0.0,0.0,0.0,0.0,0.0
1449616894488586810,0.0,0.0,0.0,0.0,0.0,0.0
1449616894571371909,0.0,0.0,0.0,0.0,0.0,0.0
1449616894609843237,0.0,0.0,0.0,0.0,0.0,0.0
1449616894657795380,0.0,0.0,0.0,0.0,0.0,0.0
1449616894727164441,0.0,0.0,0.0,0.0,0.0,0.0
1449616894748363192,0.0,0.0,0.0,0.0,0.0,0.0
1449616894820174453,-0.00139682547748,0.0,0.0,0.0,0.0,0.0984126985073
1449616894881852438,-0.00139682547748,0.0,0.0,0.0,0.0,0.0984126985073
1449616894924928698,-0.00139682547748,0.0,0.0,0.0,0.0,0.0984126985073
1449616894967451853,-0.00139682547748,0.0,0.0,0.0,0.0,0.0984126985073
1449616895026045373,-0.00139682547748,0.0,0.0,0.0,0.0,0.0984126985073
1449616895074186961,-0.00139682547748,0.0,0.0,0.0,0.0,0.0984126985073
1449616895125685646,-0.00139682547748,0.0,0.0,0.0,0.0,0.0984126985073
1449616895197112768,-0.00139682547748,0.0,0.0,0.0,0.0,0.0984126985073
1449616895238476926,-0.00139682547748,0.0,0.0,0.0,0.0,0.0984126985073
1449616895267509507,-0.00139682547748,0.0,0.0,0.0,0.0,0.0984126985073
1449616895328029413,-0.00139682547748,0.0,0.0,0.0,0.0,0.0984126985073
1449616895437445516,-0.00139682547748,0.0,0.0,0.0,0.0,0.0984126985073
1449616895515367278,-0.00139682547748,0.0,0.0,0.0,0.0,0.0873015880585
1449616895636752172,-0.00139682547748,0.0,0.0,0.0,0.0,0.0984126985073
1449616895688901431,-0.00139682547748,0.0,0.0,0.0,0.0,0.0984126985073
1449616895790955528,0.0,0.0,0.0,0.0,0.0,0.31
1449616895857023172,0.0,0.0,0.0,0.0,0.0,0.31
1449616895891396438,0.0,0.0,0.0,0.0,0.0,0.31
1449616895950774185,0.0,0.0,0.0,0.0,0.0,0.31
1449616896035704670,0.0,0.0,0.0,0.0,0.0,0.31
1449616896072109890,0.0,0.0,0.0,0.0,0.0,0.31
1449616896095674354,0.0,0.0,0.0,0.0,0.0,0.31
1449616896131219668,0.0,0.0,0.0,0.0,0.0,0.31
1449616896223303619,0.0,0.0,0.0,0.0,0.0,0.31
1449616896254217678,0.0,0.0,0.0,0.0,0.0,0.31
1449616896284730501,0.0,0.0,0.0,0.0,0.0,0.31
1449616896313685685,0.0,0.0,0.0,0.0,0.0,0.31
1449616896383225143,0.0,0.0,0.0,0.0,0.0,0.31
1449616896415864327,0.0,0.0,0.0,0.0,0.0,0.31
1449616896447449537,0.0,0.0,0.0,0.0,0.0,0.31
1449616896483880950,0.0,0.0,0.0,0.0,0.0,0.31
1449616896517200089,0.0,0.0,0.0,0.0,0.0,0.31
1449616896546633793,0.0,0.0,0.0,0.0,0.0,0.31
1449616896593012323,0.0,0.0,0.0,0.0,0.0,0.31
1449616896653585623,0.0,0.0,0.0,0.0,0.0,0.31
1449616896741499452,0.0,0.0,0.0,0.0,0.0,0.31
1449616896780075550,0.0,0.0,0.0,0.0,0.0,0.31
1449616896942360095,0.0,0.0,0.0,0.0,0.0,0.31
1449616896962232984,0.0,0.0,0.0,0.0,0.0,0.31
1449616897070621262,0.0,0.0,0.0,0.0,0.0,0.31
1449616897132275762,0.0,0.0,0.0,0.0,0.0,0.31
1449616897177221795,0.0,0.0,0.0,0.0,0.0,0.31
1449616897252968459,0.0,0.0,0.0,0.0,0.0,0.31
1449616897275178625,0.0,0.0,0.0,0.0,0.0,0.31
1449616897326430320,0.0,0.0,0.0,0.0,0.0,0.31
1449616897366759228,0.0,0.0,0.0,0.0,0.0,0.31
1449616897425843104,0.0,0.0,0.0,0.0,0.0,0.31
1449616897548261163,0.0,0.0,0.0,0.0,0.0,0.31
1449616897657945599,0.0,0.0,0.0,0.0,0.0,0.31
1449616897691972640,-0.00139682547748,0.0,0.0,0.0,0.0,0.0984126985073
1449616897769146900,0.0,0.0,0.0,0.0,0.0,0.315789473684
1449616897801105306,0.0,0.0,0.0,0.0,0.0,0.315789473684
1449616897872388787,0.0,0.0,0.0,0.0,0.0,0.315789473684
1449616898017316079,0.0,0.0,0.0,0.0,0.0,0.315789473684
1449616898066943176,0.0,0.0,0.0,0.0,0.0,0.31
1449616898153936961,0.0,0.0,0.0,0.0,0.0,0.31
1449616898189122602,0.0,0.0,0.0,0.0,0.0,0.31
1449616898229879826,0.0,0.0,0.0,0.0,0.0,0.31
1449616898297343892,0.0,0.0,0.0,0.0,0.0,0.31
1449616898348480906,0.0,0.0,0.0,0.0,0.0,0.31
1449616898372803149,0.0,0.0,0.0,0.0,0.0,0.31
1449616898437011717,0.0,0.0,0.0,0.0,0.0,0.31
1449616898485313077,0.0,0.0,0.0,0.0,0.0,0.31
1449616898546480502,0.352,0.0,0.0,0.0,0.0,0.231578947368
1449616898622675055,0.352,0.0,0.0,0.0,0.0,0.231578947368
1449616898699718419,0.352,0.0,0.0,0.0,0.0,0.231578947368
1449616898749325072,0.352,0.0,0.0,0.0,0.0,0.231578947368
1449616898831930407,0.352,0.0,0.0,0.0,0.0,0.189473684211
1449616898870493534,0.352,0.0,0.0,0.0,0.0,0.189473684211
1449616898968444834,0.352,0.0,0.0,0.0,0.0,0.189473684211
1449616899012603157,0.352,0.0,0.0,0.0,0.0,0.189473684211
1449616899098108744,0.352,0.0,0.0,0.0,0.0,0.189473684211
1449616899155443136,0.352,0.0,0.0,0.0,0.0,0.189473684211
1449616899245406115,0.352,0.0,0.0,0.0,0.0,0.189473684211
1449616899338348010,0.352,0.0,0.0,0.0,0.0,0.189473684211
1449616899467863866,0.352,0.0,0.0,0.0,0.0,0.189473684211
1449616899512952849,0.352,0.0,0.0,0.0,0.0,0.189473684211
1449616899606527968,0.352,0.0,0.0,0.0,0.0,0.147368421053
1449616899666003423,0.352,0.0,0.0,0.0,0.0,0.147368421053
1449616899692999509,0.352,0.0,0.0,0.0,0.0,0.147368421053
1449616899747789682,-0.00558730190992,0.0,0.0,0.0,0.0,0.0253968268633
1449616899754520573,-0.00558730190992,0.0,0.0,0.0,0.0,0.0253968268633
1449616899798254461,-0.00558730190992,0.0,0.0,0.0,0.0,0.0317460328341
1449616899821713325,-0.00558730190992,0.0,0.0,0.0,0.0,0.0317460328341
1449616899862577295,-0.00558730190992,0.0,0.0,0.0,0.0,0.0317460328341
1449616899896935172,-0.00558730190992,0.0,0.0,0.0,0.0,0.0317460328341
1449616899929493633,0.352,0.0,0.0,0.0,0.0,0.105263157895
1449616899966941032,0.352,0.0,0.0,0.0,0.0,0.105263157895
1449616900007145034,0.352,0.0,0.0,0.0,0.0,0.105263157895
1449616900053680186,0.352,0.0,0.0,0.0,0.0,0.105263157895
1449616900088232788,0.352,0.0,0.0,0.0,0.0,0.105263157895
1449616900126870442,0.352,0.0,0.0,0.0,0.0,0.105263157895
1449616900166708727,0.352,0.0,0.0,0.0,0.0,0.0631578947368
1449616900207480400,0.352,0.0,0.0,0.0,0.0,0.0631578947368
1449616900247728215,0.352,0.0,0.0,0.0,0.0,0.0631578947368
1449616900287097513,0.352,0.0,0.0,0.0,0.0,0.0631578947368
1449616900326811206,0.352,0.0,0.0,0.0,0.0,0.0631578947368
1449616900366804273,0.352,0.0,0.0,0.0,0.0,0.0631578947368
1449616900407836924,0.352,0.0,0.0,0.0,0.0,0.0631578947368
1449616900450472687,0.352,0.0,0.0,0.0,0.0,0.0210526315789
1449616900488871946,0.352,0.0,0.0,0.0,0.0,0.0210526315789
1449616900527240823,0.352,0.0,0.0,0.0,0.0,0.0631578947368
1449616900568330445,0.352,0.0,0.0,0.0,0.0,0.0631578947368
1449616900606967587,0.352,0.0,0.0,0.0,0.0,0.0210526315789
1449616900647603851,0.352,0.0,0.0,0.0,0.0,0.0210526315789
1449616900690180256,0.352,0.0,0.0,0.0,0.0,0.0210526315789
1449616900727995333,0.352,0.0,0.0,0.0,0.0,0.0210526315789
1449616900767348106,0.352,0.0,0.0,0.0,0.0,0.0210526315789
1449616900806962937,0.352,0.0,0.0,0.0,0.0,0.0210526315789
1449616900851299963,0.352,0.0,0.0,0.0,0.0,0.0210526315789
1449616900888888163,0.352,0.0,0.0,0.0,0.0,0.0210526315789
1449616900927976820,0.352,0.0,0.0,0.0,0.0,0.0210526315789
1449616900968623343,0.352,0.0,0.0,0.0,0.0,0.0
1449616901009679704,0.352,0.0,0.0,0.0,0.0,0.0
1449616901053912575,0.352,0.0,0.0,0.0,0.0,0.0
1449616901087203689,0.352,0.0,0.0,0.0,0.0,0.0
1449616901129643389,0.352,0.0,0.0,0.0,0.0,0.0
1449616901167915280,0.352,0.0,0.0,0.0,0.0,0.0
1449616901209356697,0.352,0.0,0.0,0.0,0.0,0.0
1449616901248573561,0.352,0.0,0.0,0.0,0.0,-0.0210526315789
1449616901288234527,0.352,0.0,0.0,0.0,0.0,-0.0210526315789
1449616901338331391,0.352,0.0,0.0,0.0,0.0,-0.0631578947368
1449616901366865875,0.352,0.0,0.0,0.0,0.0,-0.0631578947368
1449616901407198626,0.352,0.0,0.0,0.0,0.0,-0.0631578947368
1449616901451242793,0.352,0.0,0.0,0.0,0.0,-0.0631578947368
1449616901489495471,0.352,0.0,0.0,0.0,0.0,-0.105263157895
1449616901528993051,0.352,0.0,0.0,0.0,0.0,-0.105263157895
1449616901567846644,0.352,0.0,0.0,0.0,0.0,-0.105263157895
1449616901607251750,0.352,0.0,0.0,0.0,0.0,-0.105263157895
1449616901649219337,0.352,0.0,0.0,0.0,0.0,-0.105263157895
1449616901687895954,0.352,0.0,0.0,0.0,0.0,-0.105263157895
1449616901728870518,0.352,0.0,0.0,0.0,0.0,-0.105263157895
1449616901767001931,0.3056,0.0,0.0,0.0,0.0,-0.105263157895
1449616901807998147,0.3056,0.0,0.0,0.0,0.0,-0.105263157895
1449616901850798994,0.3056,0.0,0.0,0.0,0.0,-0.105263157895
1449616901886923643,0.3056,0.0,0.0,0.0,0.0,-0.105263157895
1449616901929211401,0.3056,0.0,0.0,0.0,0.0,-0.147368421053
1449616901971926157,0.3056,0.0,0.0,0.0,0.0,-0.147368421053
1449616902006853104,0.3056,0.0,0.0,0.0,0.0,-0.147368421053
1449616902076926558,0.0,0.0,0.0,0.0,0.0,-0.00634920671582
1449616902109297847,0.0,0.0,0.0,0.0,0.0,-0.00634920671582
1449616902173607695,0.0,0.0,0.0,0.0,0.0,-0.393650794029
1449616902187295762,0.0,0.0,0.0,0.0,0.0,-0.393650794029
1449616902223565365,0.0,0.0,0.0,0.0,0.0,-0.393650794029
1449616902255905505,0.0,0.0,0.0,0.0,0.0,-0.393650794029
1449616902334333519,0.0,0.0,0.0,0.0,0.0,-0.393650794029
1449616902353743405,0.0,0.0,0.0,0.0,0.0,-0.393650794029
1449616902376509808,0.0,0.0,0.0,0.0,0.0,-0.393650794029
1449616902423299631,0.0,0.0,0.0,0.0,0.0,-0.393650794029
1449616902454881803,0.0,0.0,0.0,0.0,0.0,-0.393650794029
1449616902514132046,0.0,0.0,0.0,0.0,0.0,-0.393650794029
1449616902532532358,0.0,0.0,0.0,0.0,0.0,-0.393650794029
1449616902599826315,0.0,0.0,0.0,0.0,0.0,-0.393650794029
1449616902613433104,0.0,0.0,0.0,0.0,0.0,-0.393650794029
1449616902721942863,0.0,0.0,0.0,0.0,0.0,-0.393650794029
1449616902734175686,0.0,0.0,0.0,0.0,0.0,-0.393650794029
1449616902756002431,0.0,0.0,0.0,0.0,0.0,-0.393650794029
1449616902809547958,0.0,0.0,0.0,0.0,0.0,-0.374603176117
1449616902834840509,0.1664,0.0,0.0,0.0,0.0,-0.357894736842
1449616902918866753,0.1664,0.0,0.0,0.0,0.0,-0.357894736842
1449616902931993831,0.1664,0.0,0.0,0.0,0.0,-0.357894736842
1449616902979870183,0.0,0.0,0.0,0.0,0.0,-0.393650794029
1449616903057425576,0.1664,0.0,0.0,0.0,0.0,-0.357894736842
1449616903152279472,0.12,0.0,0.0,0.0,0.0,-0.315789473684
1449616903220510269,0.0,0.0,0.0,0.0,0.0,-0.387301588058
1449616903273618879,0.12,0.0,0.0,0.0,0.0,-0.315789473684
1449616903304158174,0.12,0.0,0.0,0.0,0.0,-0.273684210526
1449616903330607199,0.12,0.0,0.0,0.0,0.0,-0.273684210526
1449616903397193226,0.12,0.0,0.0,0.0,0.0,-0.273684210526
1449616903402877447,0.0,0.0,0.0,0.0,0.0,-0.393650794029
1449616903440828632,0.0,0.0,0.0,0.0,0.0,-0.393650794029
1449616903510980350,0.12,0.0,0.0,0.0,0.0,-0.273684210526
1449616903537054759,0.12,0.0,0.0,0.0,0.0,-0.273684210526
1449616903600106398,0.0,0.0,0.0,0.0,0.0,-0.393650794029
1449616903628087599,0.1664,0.0,0.0,0.0,0.0,-0.315789473684
1449616903644136990,0.1664,0.0,0.0,0.0,0.0,-0.315789473684
1449616903723811162,0.1664,0.0,0.0,0.0,0.0,-0.231578947368
1449616903751844798,0.1664,0.0,0.0,0.0,0.0,-0.231578947368
1449616903762054681,0.0,0.0,0.0,0.0,0.0,-0.393650794029
1449616903808747990,0.0,0.0,0.0,0.0,0.0,-0.393650794029
1449616903843570443,0.0,0.0,0.0,0.0,0.0,-0.393650794029
1449616903922186637,0.1664,0.0,0.0,0.0,0.0,-0.189473684211
1449616903955669451,0.1664,0.0,0.0,0.0,0.0,-0.273684210526
1449616903973395074,0.1664,0.0,0.0,0.0,0.0,-0.189473684211
1449616904028700081,0.0457904764324,0.0,0.0,0.0,0.0,-0.337844612096
1449616904052665694,0.0457904764324,0.0,0.0,0.0,0.0,-0.327318296307
1449616904097123972,0.0457904764324,0.0,0.0,0.0,0.0,-0.332080200785
1449616904152454390,0.0457904764324,0.0,0.0,0.0,0.0,-0.332080200785
1449616904181904889,0.2128,0.0,0.0,0.0,0.0,-0.147368421053
1449616904255753565,0.2128,0.0,0.0,0.0,0.0,-0.147368421053
1449616904313545021,0.1664,0.0,0.0,0.0,0.0,-0.189473684211
1449616904332733209,0.1664,0.0,0.0,0.0,0.0,-0.189473684211
1449616904342916995,0.0457904764324,0.0,0.0,0.0,0.0,-0.337844612096
1449616904404875854,0.0457904764324,0.0,0.0,0.0,0.0,-0.332080200785
1449616904435716681,0.0457904764324,0.0,0.0,0.0,0.0,-0.332080200785
1449616904511615005,0.0457904764324,0.0,0.0,0.0,0.0,-0.321553884996
1449616904545365243,0.1664,0.0,0.0,0.0,0.0,-0.105263157895
1449616904566930407,0.1664,0.0,0.0,0.0,0.0,-0.105263157895
1449616904586102678,0.1664,0.0,0.0,0.0,0.0,-0.105263157895
1449616904644955046,0.0457904764324,0.0,0.0,0.0,0.0,-0.316791980518
1449616904672942583,0.0457904764324,0.0,0.0,0.0,0.0,-0.316791980518
1449616904707166953,0.2128,0.0,0.0,0.0,0.0,-0.105263157895
1449616904752101207,0.2128,0.0,0.0,0.0,0.0,-0.105263157895
1449616904787054599,0.2128,0.0,0.0,0.0,0.0,-0.105263157895
1449616904817704370,0.2128,0.0,0.0,0.0,0.0,-0.105263157895
1449616904872447880,0.1664,0.0,0.0,0.0,0.0,-0.0631578947368
1449616904895503487,0.1664,0.0,0.0,0.0,0.0,-0.0631578947368
1449616904965901317,0.2128,0.0,0.0,0.0,0.0,-0.0631578947368
1449616904987528971,0.2128,0.0,0.0,0.0,0.0,-0.0631578947368
1449616905019806463,0.2592,0.0,0.0,0.0,0.0,-0.0631578947368
1449616905084870584,0.2592,0.0,0.0,0.0,0.0,-0.0631578947368
1449616905107355821,0.2592,0.0,0.0,0.0,0.0,-0.0631578947368
1449616905127219859,0.2592,0.0,0.0,0.0,0.0,-0.0631578947368
1449616905211766344,0.2592,0.0,0.0,0.0,0.0,-0.0631578947368
1449616905253755752,0.2592,0.0,0.0,0.0,0.0,-0.0631578947368
1449616905334409058,0.2592,0.0,0.0,0.0,0.0,-0.0631578947368
1449616905398367370,0.2592,0.0,0.0,0.0,0.0,-0.0210526315789
1449616905466367704,0.1664,0.0,0.0,0.0,0.0,-0.147368421053
1449616905505817383,0.1664,0.0,0.0,0.0,0.0,-0.147368421053
1449616905540462746,0.1664,0.0,0.0,0.0,0.0,-0.105263157895
1449616905597857518,0.1664,0.0,0.0,0.0,0.0,-0.105263157895
1449616905637637939,0.1664,0.0,0.0,0.0,0.0,-0.105263157895
1449616905663482976,0.1664,0.0,0.0,0.0,0.0,-0.0631578947368
1449616905716839640,0.2128,0.0,0.0,0.0,0.0,-0.0210526315789
1449616905764072643,0.2128,0.0,0.0,0.0,0.0,-0.0210526315789
1449616905794717953,0.3056,0.0,0.0,0.0,0.0,0.0
1449616905853684357,0.3056,0.0,0.0,0.0,0.0,0.0
1449616905900235971,0.3056,0.0,0.0,0.0,0.0,0.0
1449616905941166737,0.352,0.0,0.0,0.0,0.0,0.0210526315789
1449616906024658934,0.352,0.0,0.0,0.0,0.0,0.0210526315789
1449616906057470715,0.265396825477,0.0,0.0,0.0,0.0,-0.0178780285936
1449616906095212361,0.265396825477,0.0,0.0,0.0,0.0,-0.0178780285936
1449616906138298925,0.265396825477,0.0,0.0,0.0,0.0,-0.00994152113011
1449616906164824650,0.265396825477,0.0,0.0,0.0,0.0,-0.00994152113011
1449616906222688170,0.352,0.0,0.0,0.0,0.0,0.0210526315789
1449616906276798756,0.352,0.0,0.0,0.0,0.0,0.0210526315789
1449616906320669408,0.352,0.0,0.0,0.0,0.0,0.0210526315789
1449616906363226615,0.352,0.0,0.0,0.0,0.0,0.0210526315789
1449616906445016093,0.352,0.0,0.0,0.0,0.0,0.0210526315789
1449616906524735329,0.352,0.0,0.0,0.0,0.0,0.0631578947368
1449616906596625060,0.352,0.0,0.0,0.0,0.0,0.0631578947368
1449616906635295863,0.352,0.0,0.0,0.0,0.0,0.0631578947368
1449616906683594127,0.352,0.0,0.0,0.0,0.0,0.105263157895
1449616906738455671,0.265396825477,0.0,0.0,0.0,0.0,0.0436925646506
1449616906781639309,0.265396825477,0.0,0.0,0.0,0.0,0.0436925646506
1449616906796779120,0.00558730190992,0.0,0.0,0.0,0.0,-0.215873026848
1449616906828042031,0.00558730190992,0.0,0.0,0.0,0.0,-0.215873026848
1449616906883930241,0.00558730190992,0.0,0.0,0.0,0.0,-0.215873026848
1449616906906661252,0.0,0.0,0.0,0.0,0.0,-0.00634920671582
1449616906944077972,0.0,0.0,0.0,0.0,0.0,-0.00634920671582
1449616907032099652,0.352,0.0,0.0,0.0,0.0,0.273684210526
1449616907057488335,0.352,0.0,0.0,0.0,0.0,0.273684210526
1449616907098128759,0.352,0.0,0.0,0.0,0.0,0.273684210526
1449616907137028416,0.352,0.0,0.0,0.0,0.0,0.273684210526
1449616907176549438,0.352,0.0,0.0,0.0,0.0,0.315789473684
1449616907217255344,0.352,0.0,0.0,0.0,0.0,0.315789473684
1449616907257540961,0.352,0.0,0.0,0.0,0.0,0.315789473684
1449616907298316354,0.352,0.0,0.0,0.0,0.0,0.315789473684
1449616907337630921,0.352,0.0,0.0,0.0,0.0,0.315789473684
1449616907378019276,0.352,0.0,0.0,0.0,0.0,0.315789473684
1449616907417386671,0.352,0.0,0.0,0.0,0.0,0.357894736842
1449616907463178137,0.352,0.0,0.0,0.0,0.0,0.357894736842
1449616907499193061,0.352,0.0,0.0,0.0,0.0,0.357894736842
1449616907536560340,0.352,0.0,0.0,0.0,0.0,0.357894736842
1449616907577434042,0.352,0.0,0.0,0.0,0.0,0.357894736842
1449616907617530356,0.352,0.0,0.0,0.0,0.0,0.357894736842
1449616907658226702,0.352,0.0,0.0,0.0,0.0,0.357894736842
1449616907696547760,0.352,0.0,0.0,0.0,0.0,0.357894736842
1449616907737105647,0.352,0.0,0.0,0.0,0.0,0.273684210526
1449616907780927094,0.352,0.0,0.0,0.0,0.0,0.273684210526
1449616907817940631,0.352,0.0,0.0,0.0,0.0,0.273684210526
1449616907856329283,0.352,0.0,0.0,0.0,0.0,0.273684210526
1449616907897829918,0.12,0.0,0.0,0.0,0.0,0.0
1449616907938021861,0.12,0.0,0.0,0.0,0.0,0.0
1449616907980419667,0.352,0.0,0.0,0.0,0.0,0.357894736842
1449616908016825179,0.352,0.0,0.0,0.0,0.0,0.357894736842
1449616908057510922,0.352,0.0,0.0,0.0,0.0,0.357894736842
1449616908096754512,0.352,0.0,0.0,0.0,0.0,0.357894736842
1449616908137137661,0.352,0.0,0.0,0.0,0.0,0.357894736842
1449616908177225579,0.352,0.0,0.0,0.0,0.0,0.357894736842
1449616908218220786,0.352,0.0,0.0,0.0,0.0,0.357894736842
1449616908261704725,0.352,0.0,0.0,0.0,0.0,0.357894736842
1449616908299064100,0.352,0.0,0.0,0.0,0.0,0.357894736842
1449616908339088407,0.352,0.0,0.0,0.0,0.0,0.357894736842
1449616908378335714,0.352,0.0,0.0,0.0,0.0,0.357894736842
1449616908418042894,0.352,0.0,0.0,0.0,0.0,0.357894736842
1449616908461849612,0.352,0.0,0.0,0.0,0.0,0.357894736842
1449616908496307324,0.352,0.0,0.0,0.0,0.0,0.315789473684
1449616908536125586,0.352,0.0,0.0,0.0,0.0,0.315789473684
1449616908578768469,0.352,0.0,0.0,0.0,0.0,0.315789473684
1449616908616836149,0.352,0.0,0.0,0.0,0.0,0.273684210526
1449616908657479278,0.352,0.0,0.0,0.0,0.0,0.315789473684
1449616908697618840,0.352,0.0,0.0,0.0,0.0,0.315789473684
1449616908738787316,0.352,0.0,0.0,0.0,0.0,0.315789473684
1449616908778572099,0.352,0.0,0.0,0.0,0.0,0.315789473684
1449616908818489115,0.352,0.0,0.0,0.0,0.0,0.315789473684
1449616908857027702,0.352,0.0,0.0,0.0,0.0,0.315789473684
1449616908898102483,0.348095565646,0.0,0.0,0.0,0.0,0.315789473684
1449616908937141657,0.348095565646,0.0,0.0,0.0,0.0,0.315789473684
1449616908979800554,0.341805442873,0.0,0.0,0.0,0.0,0.273684210526
1449616909017408852,0.341805442873,0.0,0.0,0.0,0.0,0.273684210526
1449616909057797373,0.341805442873,0.0,0.0,0.0,0.0,0.273684210526
1449616909096554735,0.33623425085,0.0,0.0,0.0,0.0,0.315789473684
1449616909136583680,0.33623425085,0.0,0.0,0.0,0.0,0.315789473684
1449616909180001296,0.33623425085,0.0,0.0,0.0,0.0,0.315789473684
1449616909217968081,0.324218738364,0.0,0.0,0.0,0.0,0.357894736842
1449616909260217532,0.324218738364,0.0,0.0,0.0,0.0,0.357894736842
1449616909297087951,0.314516681125,0.0,0.0,0.0,0.0,0.357894736842
1449616909339331189,0.314516681125,0.0,0.0,0.0,0.0,0.357894736842
1449616909376270900,0.311274827982,0.0,0.0,0.0,0.0,0.357894736842
1449616909418383103,0.304772317456,0.0,0.0,0.0,0.0,0.357894736842
1449616909457669044,0.304772317456,0.0,0.0,0.0,0.0,0.357894736842
1449616909498304553,0.301485143325,0.0,0.0,0.0,0.0,0.357894736842
1449616909536782701,0.301485143325,0.0,0.0,0.0,0.0,0.357894736842
1449616909577240406,0.291602628925,0.0,0.0,0.0,0.0,0.357894736842
1449616909617418840,0.291602628925,0.0,0.0,0.0,0.0,0.357894736842
1449616909658102469,0.284129869061,0.0,0.0,0.0,0.0,0.357894736842
1449616909696546502,0.284129869061,0.0,0.0,0.0,0.0,0.357894736842
1449616909737140166,0.281631552018,0.0,0.0,0.0,0.0,0.357894736842
1449616909778933594,0.274949388928,0.0,0.0,0.0,0.0,0.357894736842
1449616909817551419,0.268229284253,0.0,0.0,0.0,0.0,0.357894736842
1449616909857449197,0.268229284253,0.0,0.0,0.0,0.0,0.357894736842
1449616909896861529,0.264841977447,0.0,0.0,0.0,0.0,0.315789473684
1449616909938270758,0.264841977447,0.0,0.0,0.0,0.0,0.315789473684
1449616909979474564,0.259741224805,0.0,0.0,0.0,0.0,0.315789473684
1449616910019492211,0.255476198323,0.0,0.0,0.0,0.0,0.316532219962
1449616910056669651,0.255476198323,0.0,0.0,0.0,0.0,0.316532219962
1449616910096504934,0.255476198323,0.0,0.0,0.0,0.0,0.316532219962
1449616910141200938,0.250332123612,0.0,0.0,0.0,0.0,0.315789473684
1449616910177610037,0.250332123612,0.0,0.0,0.0,0.0,0.315789473684
1449616910225736784,0.245169127399,0.0,0.0,0.0,0.0,0.315789473684
1449616910257609671,0.245169127399,0.0,0.0,0.0,0.0,0.315789473684
1449616910296548881,0.239096615025,0.0,0.0,0.0,0.0,0.274796645328
1449616910341208047,0.239096615025,0.0,0.0,0.0,0.0,0.274796645328
1449616910376426288,0.231228299019,0.0,0.0,0.0,0.0,0.273684210526
1449616910418443184,0.226806250317,0.0,0.0,0.0,0.0,0.233153031249
1449616910457171335,0.224143753522,0.0,0.0,0.0,0.0,0.233139980969
1449616910501996146,0.224143753522,0.0,0.0,0.0,0.0,0.233139980969
1449616910536769757,0.222371826391,0.0,0.0,0.0,0.0,0.231578947368
1449616910580488807,0.216123499811,0.0,0.0,0.0,0.0,0.233184596614
1449616910636099015,0.0167619050741,0.0,0.0,0.0,0.0,-0.0126984134316
1449616910661399044,0.0167619050741,0.0,0.0,0.0,0.0,-0.0126984134316
1449616910731588150,0.329650794983,0.0,0.0,0.0,0.0,-0.126984131336
1449616910751386351,0.329650794983,0.0,0.0,0.0,0.0,-0.126984131336
1449616910788204148,0.296126987457,0.0,0.0,0.0,0.0,-0.336507940292
1449616910824998876,0.296126987457,0.0,0.0,0.0,0.0,-0.336507940292
1449616910864317590,0.296126987457,0.0,0.0,0.0,0.0,-0.336507940292
1449616910907403681,0.296126987457,0.0,0.0,0.0,0.0,-0.336507940292
1449616910948980069,0.301714288712,0.0,0.0,0.0,0.0,-0.336507940292
1449616910995428592,0.301714288712,0.0,0.0,0.0,0.0,-0.336507940292
1449616911024794267,0.301714288712,0.0,0.0,0.0,0.0,-0.336507940292
1449616911075109961,0.301714288712,0.0,0.0,0.0,0.0,-0.336507940292
1449616911110490343,0.301714288712,0.0,0.0,0.0,0.0,-0.336507940292
1449616911153329499,0.301714288712,0.0,0.0,0.0,0.0,-0.342857146263
1449616911185552955,0.301714288712,0.0,0.0,0.0,0.0,-0.342857146263
1449616911230141386,0.301714288712,0.0,0.0,0.0,0.0,-0.336507940292
1449616911265795151,0.301714288712,0.0,0.0,0.0,0.0,-0.336507940292
1449616911316238024,0.296126987457,0.0,0.0,0.0,0.0,-0.336507940292
1449616911345671839,0.296126987457,0.0,0.0,0.0,0.0,-0.336507940292
1449616911385161843,0.296126987457,0.0,0.0,0.0,0.0,-0.336507940292
1449616911422924119,0.245841276169,0.0,0.0,0.0,0.0,-0.285714292526
1449616911464423320,0.245841276169,0.0,0.0,0.0,0.0,-0.285714292526
1449616911510253279,0.245841276169,0.0,0.0,0.0,0.0,-0.285714292526
1449616911546559800,0.296126987457,0.0,0.0,0.0,0.0,-0.336507940292
1449616911581907464,0.296126987457,0.0,0.0,0.0,0.0,-0.336507940292
1449616911631280081,0.296126987457,0.0,0.0,0.0,0.0,-0.336507940292
1449616911662888928,0.296126987457,0.0,0.0,0.0,0.0,-0.336507940292
1449616911702701501,0.296126987457,0.0,0.0,0.0,0.0,-0.336507940292
1449616911757528077,0.296126987457,0.0,0.0,0.0,0.0,-0.336507940292
1449616911804283100,0.296126987457,0.0,0.0,0.0,0.0,-0.336507940292
1449616911827032152,0.296126987457,0.0,0.0,0.0,0.0,-0.336507940292
1449616911863733852,0.296126987457,0.0,0.0,0.0,0.0,-0.336507940292
1449616911905369804,0.296126987457,0.0,0.0,0.0,0.0,-0.336507940292
1449616911952288095,0.296126987457,0.0,0.0,0.0,0.0,-0.342857146263
1449616911991863259,0.296126987457,0.0,0.0,0.0,0.0,-0.342857146263
1449616912025956169,0.301714288712,0.0,0.0,0.0,0.0,-0.342857146263
1449616912065078617,0.301714288712,0.0,0.0,0.0,0.0,-0.342857146263
1449616912115712524,0.301714288712,0.0,0.0,0.0,0.0,-0.342857146263
1449616912153644696,0.296126987457,0.0,0.0,0.0,0.0,-0.342857146263
1449616912195394953,0.296126987457,0.0,0.0,0.0,0.0,-0.342857146263
1449616912227386045,0.296126987457,0.0,0.0,0.0,0.0,-0.342857146263
1449616912276971372,0.296126987457,0.0,0.0,0.0,0.0,-0.342857146263
1449616912307766183,0.296126987457,0.0,0.0,0.0,0.0,-0.342857146263
1449616912345202179,0.296126987457,0.0,0.0,0.0,0.0,-0.336507940292
1449616912387461124,0.296126987457,0.0,0.0,0.0,0.0,-0.336507940292
1449616912436753065,0.329650794983,0.0,0.0,0.0,0.0,-0.120634925365
1449616912463916165,0.329650794983,0.0,0.0,0.0,0.0,-0.120634925365
1449616912505885209,0.346412698746,0.0,0.0,0.0,0.0,-0.0317460328341
1449616912546871447,0.346412698746,0.0,0.0,0.0,0.0,-0.0317460328341
1449616912599252163,0.346412698746,0.0,0.0,0.0,0.0,-0.0317460328341
1449616912622573802,0.346412698746,0.0,0.0,0.0,0.0,-0.0126984134316
1449616912663542449,0.346412698746,0.0,0.0,0.0,0.0,-0.0126984134316
1449616912704199564,0.346412698746,0.0,0.0,0.0,0.0,-0.0126984134316
1449616912750548311,0.340825397491,0.0,0.0,0.0,0.0,-0.0190476194024
1449616912801618137,0.340825397491,0.0,0.0,0.0,0.0,-0.0190476194024
1449616912840426552,0.346412698746,0.0,0.0,0.0,0.0,-0.00634920671582
1449616912875557065,0.346412698746,0.0,0.0,0.0,0.0,-0.00634920671582
1449616912910071249,0.346412698746,0.0,0.0,0.0,0.0,-0.00634920671582
1449616912948337282,0.346412698746,0.0,0.0,0.0,0.0,-0.00634920671582
1449616912985047086,0.346412698746,0.0,0.0,0.0,0.0,-0.00634920671582
1449616913029703077,0.346412698746,0.0,0.0,0.0,0.0,-0.00634920671582
1449616913073695546,0.346412698746,0.0,0.0,0.0,0.0,-0.00634920671582
1449616913107305793,0.346412698746,0.0,0.0,0.0,0.0,-0.00634920671582
1449616913145111378,0.346412698746,0.0,0.0,0.0,0.0,-0.00634920671582
1449616913191808613,0.346412698746,0.0,0.0,0.0,0.0,-0.00634920671582
1449616913227340289,0.346412698746,0.0,0.0,0.0,0.0,-0.00634920671582
1449616913276821811,0.346412698746,0.0,0.0,0.0,0.0,-0.00634920671582
1449616913307273474,0.289809524059,0.0,0.0,0.0,0.0,-0.0731829576684
1449616913355371097,0.289809524059,0.0,0.0,0.0,0.0,-0.0731829576684
1449616913386307574,0.289809524059,0.0,0.0,0.0,0.0,-0.0731829576684
1449616913437858242,0.289809524059,0.0,0.0,0.0,0.0,-0.0779448627053
1449616913483334058,0.289809524059,0.0,0.0,0.0,0.0,-0.0779448627053
1449616913534328681,0.289809524059,0.0,0.0,0.0,0.0,-0.0731829576684
1449616913545881670,0.289809524059,0.0,0.0,0.0,0.0,-0.0942355892474
1449616913590541502,0.289809524059,0.0,0.0,0.0,0.0,-0.0942355892474
1449616913631030729,0.289809524059,0.0,0.0,0.0,0.0,-0.0942355892474
1449616913673738124,0.259809524059,0.0,0.0,0.0,0.0,-0.104761905037
1449616913724453653,0.259809524059,0.0,0.0,0.0,0.0,-0.104761905037
1449616913759985870,0.259809524059,0.0,0.0,0.0,0.0,-0.00476190503687
1449616913791336158,0.259809524059,0.0,0.0,0.0,0.0,-0.00476190503687
1449616913831407268,0.259809524059,0.0,0.0,0.0,0.0,-0.00476190503687
1449616913890309498,0.259809524059,0.0,0.0,0.0,0.0,-0.00476190503687
1449616913903051518,0.307301589966,0.0,0.0,0.0,0.0,0.0
1449616913940746149,0.307301589966,0.0,0.0,0.0,0.0,0.0
1449616913984396339,0.307301589966,0.0,0.0,0.0,0.0,0.0
1449616914026680463,0.259809524059,0.0,0.0,0.0,0.0,0.00952381007373
1449616914064272114,0.259809524059,0.0,0.0,0.0,0.0,0.00952381007373
1449616914126975595,0.259809524059,0.0,0.0,0.0,0.0,0.00952381007373
1449616914167622666,0.301714288712,0.0,0.0,0.0,0.0,0.342857146263
1449616914183738748,0.301714288712,0.0,0.0,0.0,0.0,0.342857146263
1449616914223799950,0.301714288712,0.0,0.0,0.0,0.0,0.342857146263
1449616914269535670,0.301714288712,0.0,0.0,0.0,0.0,0.342857146263
1449616914320219107,0.301714288712,0.0,0.0,0.0,0.0,0.342857146263
1449616914356087786,0.301714288712,0.0,0.0,0.0,0.0,0.342857146263
1449616914384603845,0.301714288712,0.0,0.0,0.0,0.0,0.342857146263
1449616914423583624,0.301714288712,0.0,0.0,0.0,0.0,0.342857146263
1449616914471070433,0.301714288712,0.0,0.0,0.0,0.0,0.342857146263
1449616914506177628,0.301714288712,0.0,0.0,0.0,0.0,0.342857146263
1449616914549796754,0.329650794983,0.0,0.0,0.0,0.0,0.120634925365
1449616914596682896,0.329650794983,0.0,0.0,0.0,0.0,0.120634925365
1449616914639412173,0.255619048119,0.0,0.0,0.0,0.0,0.0142857145518
1449616914671376086,0.255619048119,0.0,0.0,0.0,0.0,0.0142857145518
1449616914727903009,0.259809524059,0.0,0.0,0.0,0.0,0.00476190503687
1449616914745646718,0.259809524059,0.0,0.0,0.0,0.0,0.00476190503687
1449616914800614776,0.259809524059,0.0,0.0,0.0,0.0,0.00476190503687
1449616914832827569,0.259809524059,0.0,0.0,0.0,0.0,0.0
1449616914866154924,0.259809524059,0.0,0.0,0.0,0.0,0.0
1449616914905929980,0.259809524059,0.0,0.0,0.0,0.0,0.0
1449616914959248265,0.259809524059,0.0,0.0,0.0,0.0,0.0
1449616915013079714,0.259809524059,0.0,0.0,0.0,0.0,0.0
1449616915029943668,0.259809524059,0.0,0.0,0.0,0.0,0.0
1449616915074180271,0.259809524059,0.0,0.0,0.0,0.0,0.0
1449616915116887857,0.259809524059,0.0,0.0,0.0,0.0,-0.00476190503687
1449616915179970569,0.259809524059,0.0,0.0,0.0,0.0,-0.00476190503687
1449616915196004075,0.259809524059,0.0,0.0,0.0,0.0,-0.00476190503687
1449616915231867578,0.259809524059,0.0,0.0,0.0,0.0,-0.00476190503687
1449616915265573062,0.259809524059,0.0,0.0,0.0,0.0,-0.00476190503687
1449616915317632342,0.259809524059,0.0,0.0,0.0,0.0,-0.00476190503687
1449616915350970702,0.259809524059,0.0,0.0,0.0,0.0,-0.00476190503687
1449616915426162609,0.259809524059,0.0,0.0,0.0,0.0,-0.00476190503687
1449616915434741847,0.259809524059,0.0,0.0,0.0,0.0,-0.00476190503687
1449616915481585301,0.259809524059,0.0,0.0,0.0,0.0,-0.00476190503687
1449616915509342670,0.259809524059,0.0,0.0,0.0,0.0,-0.00476190503687
1449616915552112898,0.259809524059,0.0,0.0,0.0,0.0,-0.00476190503687
1449616915607154824,0.259809524059,0.0,0.0,0.0,0.0,-0.00476190503687
1449616915646368518,0.259809524059,0.0,0.0,0.0,0.0,-0.00476190503687
1449616915666587203,0.259809524059,0.0,0.0,0.0,0.0,-0.00476190503687
1449616915719532593,0.173206349373,0.0,0.0,0.0,0.0,-0.00317460335791
1449616915763784555,0.173206349373,0.0,0.0,0.0,0.0,-0.00317460335791
1449616915806733115,0.173206349373,0.0,0.0,0.0,0.0,-0.00317460335791
1449616915827866462,0.173206349373,0.0,0.0,0.0,0.0,-0.00317460335791
1449616915882850449,0.173206349373,0.0,0.0,0.0,0.0,-0.00317460335791
1449616915926740330,0.173206349373,0.0,0.0,0.0,0.0,-0.00317460335791
1449616915945933717,0.173206349373,0.0,0.0,0.0,0.0,-0.00317460335791
1449616915987656963,0.173206349373,0.0,0.0,0.0,0.0,-0.00317460335791
1449616916048499576,0.173206349373,0.0,0.0,0.0,0.0,0.0
1449616916071084345,0.173206349373,0.0,0.0,0.0,0.0,0.0
1449616916119077348,0.173206349373,0.0,0.0,0.0,0.0,0.0
1449616916158371124,0.173206349373,0.0,0.0,0.0,0.0,0.0
1449616916189624715,0.173206349373,0.0,0.0,0.0,0.0,0.0
1449616916238168470,0.230476192474,0.0,0.0,0.0,0.0,-0.00476190503687
1449616916273987112,0.230476192474,0.0,0.0,0.0,0.0,-0.00476190503687
1449616916304545573,0.173206349373,0.0,0.0,0.0,0.0,-0.00317460335791
1449616916405669751,0.173206349373,0.0,0.0,0.0,0.0,-0.00317460335791
1449616916461681778,0.173206349373,0.0,0.0,0.0,0.0,-0.00317460335791
1449616916494738475,0.226285716534,0.0,0.0,0.0,0.0,-0.00476190503687
1449616916523910078,0.173206349373,0.0,0.0,0.0,0.0,-0.00634920671582
1449616916562768979,0.173206349373,0.0,0.0,0.0,0.0,-0.00634920671582
1449616916614171553,0.173206349373,0.0,0.0,0.0,0.0,-0.00634920671582
1449616916642012556,0.222095240593,0.0,0.0,0.0,0.0,-0.0142857145518
1449616916694272192,0.222095240593,0.0,0.0,0.0,0.0,-0.0142857145518
1449616916729022312,0.173206349373,0.0,0.0,0.0,0.0,-0.00634920671582
1449616916757834845,0.173206349373,0.0,0.0,0.0,0.0,-0.00634920671582
1449616916814332381,0.173206349373,0.0,0.0,0.0,0.0,-0.00634920671582
1449616916863543562,0.173206349373,0.0,0.0,0.0,0.0,-0.00634920671582
1449616916884561489,0.173206349373,0.0,0.0,0.0,0.0,-0.00634920671582
1449616916963247275,0.173206349373,0.0,0.0,0.0,0.0,-0.00317460335791
1449616917004712348,0.173206349373,0.0,0.0,0.0,0.0,-0.00317460335791
1449616917032850039,0.170412698746,0.0,0.0,0.0,0.0,-0.00634920671582
1449616917053796863,0.170412698746,0.0,0.0,0.0,0.0,-0.00634920671582
1449616917072068674,0.173206349373,0.0,0.0,0.0,0.0,-0.00634920671582
1449616917111950804,0.173206349373,0.0,0.0,0.0,0.0,-0.00634920671582
1449616917173857884,0.173206349373,0.0,0.0,0.0,0.0,-0.00634920671582
1449616917201125122,0.173206349373,0.0,0.0,0.0,0.0,-0.00634920671582
1449616917252321036,0.173206349373,0.0,0.0,0.0,0.0,-0.00317460335791
1449616917277482598,0.173206349373,0.0,0.0,0.0,0.0,-0.00317460335791
1449616917358760583,0.173206349373,0.0,0.0,0.0,0.0,-0.00634920671582
1449616917381997753,0.173206349373,0.0,0.0,0.0,0.0,-0.00634920671582
1449616917403748362,0.170412698746,0.0,0.0,0.0,0.0,-0.00634920671582
1449616917447879721,0.170412698746,0.0,0.0,0.0,0.0,-0.00634920671582
1449616917482285223,0.170412698746,0.0,0.0,0.0,0.0,-0.00634920671582
1449616917537883773,0.173206349373,0.0,0.0,0.0,0.0,-0.00634920671582
1449616917570794758,0.173206349373,0.0,0.0,0.0,0.0,-0.00634920671582
1449616917626357560,0.173206349373,0.0,0.0,0.0,0.0,-0.00634920671582
1449616917659774021,0.173206349373,0.0,0.0,0.0,0.0,-0.00634920671582
1449616917694274751,0.173206349373,0.0,0.0,0.0,0.0,-0.00634920671582
1449616917722711956,0.173206349373,0.0,0.0,0.0,0.0,-0.00634920671582
1449616917763417226,0.173206349373,0.0,0.0,0.0,0.0,-0.00634920671582
1449616917806346551,0.173206349373,0.0,0.0,0.0,0.0,-0.00634920671582
1449616917836302899,0.173206349373,0.0,0.0,0.0,0.0,-0.00634920671582
1449616917903286614,0.173206349373,0.0,0.0,0.0,0.0,-0.00634920671582
1449616917916141701,0.173206349373,0.0,0.0,0.0,0.0,-0.00634920671582
1449616917953331556,0.173206349373,0.0,0.0,0.0,0.0,-0.00634920671582
1449616918003303985,0.173206349373,0.0,0.0,0.0,0.0,-0.00634920671582
1449616918045786062,0.173206349373,0.0,0.0,0.0,0.0,-0.00634920671582
1449616918075985193,0.173206349373,0.0,0.0,0.0,0.0,-0.00634920671582
1449616918133758317,0.170412698746,0.0,0.0,0.0,0.0,-0.00634920671582
1449616918151966394,0.170412698746,0.0,0.0,0.0,0.0,-0.00634920671582
1449616918201613487,0.173206349373,0.0,0.0,0.0,0.0,-0.00634920671582
1449616918242802914,0.173206349373,0.0,0.0,0.0,0.0,-0.00634920671582
1449616918271989493,0.173206349373,0.0,0.0,0.0,0.0,-0.00634920671582
1449616918345030311,0.173206349373,0.0,0.0,0.0,0.0,-0.00317460335791
1449616918375912550,0.173206349373,0.0,0.0,0.0,0.0,-0.00317460335791
1449616918402696484,0.170412698746,0.0,0.0,0.0,0.0,-0.00634920671582
1449616918455698134,0.170412698746,0.0,0.0,0.0,0.0,-0.00634920671582
1449616918486078439,0.170412698746,0.0,0.0,0.0,0.0,-0.00634920671582
1449616918515005493,0.173206349373,0.0,0.0,0.0,0.0,-0.00634920671582
1449616918560682907,0.173206349373,0.0,0.0,0.0,0.0,-0.00634920671582
1449616918595124651,0.173206349373,0.0,0.0,0.0,0.0,-0.00634920671582
1449616918630971445,0.173206349373,0.0,0.0,0.0,0.0,-0.00317460335791
1449616918674976890,0.173206349373,0.0,0.0,0.0,0.0,-0.00317460335791
1449616918741726140,0.148063493729,0.0,0.0,0.0,0.0,-0.00634920671582
1449616918757854540,0.148063493729,0.0,0.0,0.0,0.0,-0.00634920671582
1449616918810264091,0.173206349373,0.0,0.0,0.0,0.0,-0.00634920671582
1449616918853355155,0.173206349373,0.0,0.0,0.0,0.0,-0.00634920671582
1449616918898218956,0.173206349373,0.0,0.0,0.0,0.0,-0.00634920671582
1449616918931261746,0.150857144356,0.0,0.0,0.0,0.0,-0.00317460335791
1449616919002728705,0.150857144356,0.0,0.0,0.0,0.0,-0.00317460335791
1449616919027879976,0.173206349373,0.0,0.0,0.0,0.0,-0.00317460335791
1449616919057485108,0.173206349373,0.0,0.0,0.0,0.0,-0.00317460335791
1449616919120516042,0.150857144356,0.0,0.0,0.0,0.0,-0.00634920671582
1449616919150870917,0.150857144356,0.0,0.0,0.0,0.0,-0.00634920671582
1449616919163125621,0.150857144356,0.0,0.0,0.0,0.0,-0.00634920671582
1449616919211749282,0.173206349373,0.0,0.0,0.0,0.0,-0.00634920671582
1449616919240600728,0.173206349373,0.0,0.0,0.0,0.0,-0.00634920671582
1449616919283243249,0.173206349373,0.0,0.0,0.0,0.0,-0.00634920671582
1449616919315158218,0.173206349373,0.0,0.0,0.0,0.0,-0.00317460335791
1449616919404465011,0.173206349373,0.0,0.0,0.0,0.0,-0.00317460335791
1449616919435488683,0.173206349373,0.0,0.0,0.0,0.0,-0.00317460335791
1449616919467107190,0.173206349373,0.0,0.0,0.0,0.0,-0.00317460335791
1449616919477448828,0.173206349373,0.0,0.0,0.0,0.0,-0.00317460335791
1449616919541814628,0.173206349373,0.0,0.0,0.0,0.0,-0.00317460335791
1449616919555329510,0.173206349373,0.0,0.0,0.0,0.0,-0.00317460335791
1449616919654867341,0.173206349373,0.0,0.0,0.0,0.0,-0.00317460335791
1449616919688971692,0.173206349373,0.0,0.0,0.0,0.0,-0.00317460335791
1449616919727915426,0.150857144356,0.0,0.0,0.0,0.0,-0.00317460335791
1449616919757606137,0.150857144356,0.0,0.0,0.0,0.0,-0.00317460335791
1449616919768653896,0.150857144356,0.0,0.0,0.0,0.0,-0.00317460335791
1449616919811032527,0.170412698746,0.0,0.0,0.0,0.0,-0.00634920671582
1449616919842287423,0.170412698746,0.0,0.0,0.0,0.0,-0.00634920671582
1449616919905272518,0.170412698746,0.0,0.0,0.0,0.0,-0.00634920671582
1449616919929390265,0.173206349373,0.0,0.0,0.0,0.0,-0.00317460335791
1449616919989279483,0.173206349373,0.0,0.0,0.0,0.0,-0.00317460335791
1449616920009399246,0.173206349373,0.0,0.0,0.0,0.0,-0.00317460335791
1449616920038099320,0.173206349373,0.0,0.0,0.0,0.0,-0.00317460335791
1449616920082919577,0.173206349373,0.0,0.0,0.0,0.0,-0.00317460335791
1449616920114655621,0.173206349373,0.0,0.0,0.0,0.0,-0.00634920671582
1449616920167351542,0.173206349373,0.0,0.0,0.0,0.0,-0.00634920671582
1449616920200561033,0.173206349373,0.0,0.0,0.0,0.0,-0.00634920671582
1449616920307047483,0.173206349373,0.0,0.0,0.0,0.0,-0.00634920671582
1449616920337046182,0.173206349373,0.0,0.0,0.0,0.0,-0.00634920671582
1449616920403059543,0.170412698746,0.0,0.0,0.0,0.0,-0.00317460335791
1449616920426911474,0.173206349373,0.0,0.0,0.0,0.0,-0.00317460335791
1449616920447321853,0.173206349373,0.0,0.0,0.0,0.0,-0.00317460335791
1449616920513757570,0.173206349373,0.0,0.0,0.0,0.0,-0.00634920671582
1449616920559244685,0.173206349373,0.0,0.0,0.0,0.0,-0.00634920671582
1449616920574462505,0.173206349373,0.0,0.0,0.0,0.0,-0.00634920671582
1449616920601705664,0.173206349373,0.0,0.0,0.0,0.0,-0.00634920671582
1449616920663609482,0.173206349373,0.0,0.0,0.0,0.0,-0.00634920671582
1449616920722411983,0.173206349373,0.0,0.0,0.0,0.0,-0.00634920671582
1449616920764412913,0.173206349373,0.0,0.0,0.0,0.0,-0.00317460335791
1449616920783728976,0.173206349373,0.0,0.0,0.0,0.0,-0.00317460335791
1449616920799119316,0.173206349373,0.0,0.0,0.0,0.0,-0.00317460335791
1449616920847596610,0.173206349373,0.0,0.0,0.0,0.0,-0.00317460335791
1449616920909631250,0.173206349373,0.0,0.0,0.0,0.0,-0.00317460335791
1449616920924235714,0.173206349373,0.0,0.0,0.0,0.0,-0.00634920671582
1449616920973206351,0.173206349373,0.0,0.0,0.0,0.0,-0.00634920671582
1449616921002896664,0.173206349373,0.0,0.0,0.0,0.0,-0.00634920671582
1449616921060269167,0.173206349373,0.0,0.0,0.0,0.0,-0.00634920671582
1449616921085845389,0.173206349373,0.0,0.0,0.0,0.0,-0.00634920671582
1449616921124101292,0.176,0.0,0.0,0.0,0.0,-0.00317460335791
1449616921174701626,0.088,0.0,0.0,0.0,0.0,-0.00158730167896
1449616921207187615,0.088,0.0,0.0,0.0,0.0,-0.00158730167896
1449616921261511631,0.173206349373,0.0,0.0,0.0,0.0,-0.00317460335791
1449616921286175283,0.0866031746864,0.0,0.0,0.0,0.0,-0.00158730167896
1449616921333468538,0.0866031746864,0.0,0.0,0.0,0.0,-0.00317460335791
1449616921361588164,0.173206349373,0.0,0.0,0.0,0.0,-0.00634920671582
1449616921421366765,0.150857144356,0.0,0.0,0.0,0.0,-0.00317460335791
1449616921456594100,0.150857144356,0.0,0.0,0.0,0.0,-0.00317460335791
1449616921485257043,0.150857144356,0.0,0.0,0.0,0.0,-0.00317460335791
1449616921529212005,0.0866031746864,0.0,0.0,0.0,0.0,-0.00158730167896
1449616921578960828,0.0866031746864,0.0,0.0,0.0,0.0,-0.00158730167896
1449616921653583090,0.142476192474,0.0,0.0,0.0,0.0,0.0190476194024
1449616921697755473,0.142476192474,0.0,0.0,0.0,0.0,0.0190476194024
1449616921715946894,0.150857144356,0.0,0.0,0.0,0.0,0.171428573132
1449616921731066634,0.150857144356,0.0,0.0,0.0,0.0,0.171428573132
1449616921768672097,0.150857144356,0.0,0.0,0.0,0.0,0.171428573132
1449616921818938931,0.148063493729,0.0,0.0,0.0,0.0,0.171428573132
1449616921846728662,0.148063493729,0.0,0.0,0.0,0.0,0.171428573132
1449616921941698008,0.148063493729,0.0,0.0,0.0,0.0,0.171428573132
1449616921984883838,0.125714288712,0.0,0.0,0.0,0.0,0.139682543278
1449616922016178884,0.150857144356,0.0,0.0,0.0,0.0,0.171428573132
1449616922032865886,0.150857144356,0.0,0.0,0.0,0.0,0.171428573132
1449616922049096376,0.150857144356,0.0,0.0,0.0,0.0,0.171428573132
1449616922092391412,0.150857144356,0.0,0.0,0.0,0.0,0.171428573132
1449616922132145820,0.150857144356,0.0,0.0,0.0,0.0,0.171428573132
1449616922211883920,0.150857144356,0.0,0.0,0.0,0.0,0.171428573132
1449616922266347610,0.125714288712,0.0,0.0,0.0,0.0,0.142857146263
1449616922286067610,0.125714288712,0.0,0.0,0.0,0.0,0.142857146263
1449616922305007318,0.150857144356,0.0,0.0,0.0,0.0,0.168253970146
1449616922361371972,0.0754285721779,0.0,0.0,0.0,0.0,0.0841269850731
1449616922392146455,0.0754285721779,0.0,0.0,0.0,0.0,0.0841269850731
1449616922418745253,0.0754285721779,0.0,0.0,0.0,0.0,0.0857142865658
1449616922473329801,0.0754285721779,0.0,0.0,0.0,0.0,0.0857142865658
1449616922498153159,0.0754285721779,0.0,0.0,0.0,0.0,0.0857142865658
1449616922551973265,0.0740317468643,0.0,0.0,0.0,0.0,0.0841269850731
1449616922577380904,0.148063493729,0.0,0.0,0.0,0.0,0.168253970146
1449616922694961932,0.150857144356,0.0,0.0,0.0,0.0,0.171428573132
1449616922751514967,0.150857144356,0.0,0.0,0.0,0.0,0.171428573132
1449616922772426466,0.150857144356,0.0,0.0,0.0,0.0,0.168253970146
1449616922804926175,0.150857144356,0.0,0.0,0.0,0.0,0.171428573132
1449616922829879774,0.150857144356,0.0,0.0,0.0,0.0,0.171428573132
1449616922884984825,0.150857144356,0.0,0.0,0.0,0.0,0.171428573132
1449616922957819995,0.150857144356,0.0,0.0,0.0,0.0,0.171428573132
1449616923020476008,0.0754285721779,0.0,0.0,0.0,0.0,0.0857142865658
1449616923038488499,0.148063493729,0.0,0.0,0.0,0.0,0.168253970146
1449616923077245115,0.148063493729,0.0,0.0,0.0,0.0,0.168253970146
1449616923140063539,0.0754285721779,0.0,0.0,0.0,0.0,0.0841269850731
1449616923164483670,0.0754285721779,0.0,0.0,0.0,0.0,0.0841269850731
1449616923233258375,0.0754285721779,0.0,0.0,0.0,0.0,0.0857142865658
1449616923256436952,0.0754285721779,0.0,0.0,0.0,0.0,0.0857142865658
1449616923309744173,0.0754285721779,0.0,0.0,0.0,0.0,0.0857142865658
1449616923333315396,0.0754285721779,0.0,0.0,0.0,0.0,0.0857142865658
1449616923408899415,0.0754285721779,0.0,0.0,0.0,0.0,0.0857142865658
1449616923428037451,0.0754285721779,0.0,0.0,0.0,0.0,0.0857142865658
1449616923469539547,0.0754285721779,0.0,0.0,0.0,0.0,0.0857142865658
1449616923503659994,0.0754285721779,0.0,0.0,0.0,0.0,0.0857142865658
1449616923543898419,0.125714288712,0.0,0.0,0.0,0.0,0.142857146263
1449616923563733185,0.125714288712,0.0,0.0,0.0,0.0,0.142857146263
1449616923601665664,0.0754285721779,0.0,0.0,0.0,0.0,0.0841269850731
1449616923649775807,0.0754285721779,0.0,0.0,0.0,0.0,0.0841269850731
1449616923700603166,0.0754285721779,0.0,0.0,0.0,0.0,0.0841269850731
1449616923735173561,0.0754285721779,0.0,0.0,0.0,0.0,0.0857142865658
1449616923782170830,0.0754285721779,0.0,0.0,0.0,0.0,0.0857142865658
1449616923809336779,0.125714288712,0.0,0.0,0.0,0.0,0.139682543278
1449616923855832511,0.125714288712,0.0,0.0,0.0,0.0,0.139682543278
1449616923904695155,0.125714288712,0.0,0.0,0.0,0.0,0.139682543278
1449616923948724527,0.0740317468643,0.0,0.0,0.0,0.0,0.0857142865658
1449616923989769083,0.0740317468643,0.0,0.0,0.0,0.0,0.0857142865658
1449616924021634121,0.0754285721779,0.0,0.0,0.0,0.0,0.0841269850731
1449616924046790279,0.0754285721779,0.0,0.0,0.0,0.0,0.0841269850731
1449616924094161103,0.0754285721779,0.0,0.0,0.0,0.0,0.0841269850731
1449616924132215769,0.125714288712,0.0,0.0,0.0,0.0,0.142857146263
1449616924165712100,0.125714288712,0.0,0.0,0.0,0.0,0.142857146263
1449616924240807161,0.0754285721779,0.0,0.0,0.0,0.0,0.0841269850731
1449616924269685889,0.0754285721779,0.0,0.0,0.0,0.0,0.0841269850731
1449616924302861970,0.0740317468643,0.0,0.0,0.0,0.0,0.0857142865658
1449616924336839426,0.0740317468643,0.0,0.0,0.0,0.0,0.0857142865658
1449616924365166846,0.0740317468643,0.0,0.0,0.0,0.0,0.0857142865658
1449616924433299763,0.0754285721779,0.0,0.0,0.0,0.0,0.0841269850731
1449616924449091381,0.0754285721779,0.0,0.0,0.0,0.0,0.0841269850731
1449616924503159752,0.0740317468643,0.0,0.0,0.0,0.0,0.0857142865658
1449616924553629598,0.0740317468643,0.0,0.0,0.0,0.0,0.0857142865658
1449616924608085911,0.0740317468643,0.0,0.0,0.0,0.0,0.0857142865658
1449616924651223552,0.0740317468643,0.0,0.0,0.0,0.0,0.0841269850731
1449616924711315532,0.0740317468643,0.0,0.0,0.0,0.0,0.0841269850731
1449616924736214020,0.0740317468643,0.0,0.0,0.0,0.0,0.0857142865658
1449616924777834445,0.0740317468643,0.0,0.0,0.0,0.0,0.0857142865658
1449616924827696135,0.0740317468643,0.0,0.0,0.0,0.0,0.0857142865658
1449616924929175871,0.0740317468643,0.0,0.0,0.0,0.0,0.0857142865658
1449616924989977600,0.0754285721779,0.0,0.0,0.0,0.0,0.0857142865658
1449616925018933728,0.0740317468643,0.0,0.0,0.0,0.0,0.0841269850731
1449616925064343960,0.0740317468643,0.0,0.0,0.0,0.0,0.0841269850731
1449616925088667048,0.0740317468643,0.0,0.0,0.0,0.0,0.0841269850731
1449616925140686634,0.0754285721779,0.0,0.0,0.0,0.0,0.0857142865658
1449616925157939615,0.0754285721779,0.0,0.0,0.0,0.0,0.0857142865658
1449616925220650901,0.0810158734322,0.0,0.0,0.0,0.0,0.0460317462683
1449616925237827449,0.0810158734322,0.0,0.0,0.0,0.0,0.0460317462683
1449616925264081722,0.0810158734322,0.0,0.0,0.0,0.0,0.0460317462683
1449616925311660804,0.00558730190992,0.0,0.0,0.0,0.0,0.00634920671582
1449616925341464892,0.00558730190992,0.0,0.0,0.0,0.0,0.00634920671582
1449616925373513137,0.00558730190992,0.0,0.0,0.0,0.0,0.00634920671582
1449616925415343423,0.00558730190992,0.0,0.0,0.0,0.0,0.0
1449616925460797299,0.00558730190992,0.0,0.0,0.0,0.0,0.0
1449616925504316201,0.00558730190992,0.0,0.0,0.0,0.0,0.0
1449616925544008572,0.14247619772,0.0,0.0,0.0,0.0,-0.00476190503687
1449616925601637216,0.14247619772,0.0,0.0,0.0,0.0,-0.00476190503687
1449616925629240320,0.0866031746864,0.0,0.0,0.0,0.0,-0.00158730167896
1449616925687017122,0.0866031746864,0.0,0.0,0.0,0.0,-0.00158730167896
1449616925751836939,0.0866031746864,0.0,0.0,0.0,0.0,-0.00158730167896
