%time,field.header.seq,field.header.stamp,field.header.frame_id,field.polygon.points0.x,field.polygon.points0.y,field.polygon.points0.z,field.polygon.points1.x,field.polygon.points1.y,field.polygon.points1.z,field.polygon.points2.x,field.polygon.points2.y,field.polygon.points2.z,field.polygon.points3.x,field.polygon.points3.y,field.polygon.points3.z,field.polygon.points4.x,field.polygon.points4.y,field.polygon.points4.z
1449616881643816415,2,1449616881643578449,odom,0.569999992847,0.0,0.0,0.469999998808,-0.305000007153,0.0,-0.730000019073,-0.305000007153,0.0,-0.730000019073,0.305000007153,0.0,0.469999998808,0.305000007153,0.0
1449616881843693027,3,1449616881843527204,odom,0.569999992847,0.0,0.0,0.469999998808,-0.305000007153,0.0,-0.730000019073,-0.305000007153,0.0,-0.730000019073,0.305000007153,0.0,0.469999998808,0.305000007153,0.0
1449616882043751792,4,1449616882043564217,odom,0.569999992847,0.0,0.0,0.469999998808,-0.305000007153,0.0,-0.730000019073,-0.305000007153,0.0,-0.730000019073,0.305000007153,0.0,0.469999998808,0.305000007153,0.0
1449616882247910833,5,1449616882244327280,odom,0.569999992847,0.0,0.0,0.469999998808,-0.305000007153,0.0,-0.730000019073,-0.305000007153,0.0,-0.730000019073,0.305000007153,0.0,0.469999998808,0.305000007153,0.0
1449616882444777200,6,1449616882444146027,odom,0.569999992847,0.0,0.0,0.469999998808,-0.305000007153,0.0,-0.730000019073,-0.305000007153,0.0,-0.730000019073,0.305000007153,0.0,0.469999998808,0.305000007153,0.0
1449616882643809558,7,1449616882643572775,odom,0.569999992847,0.0,0.0,0.469999998808,-0.305000007153,0.0,-0.730000019073,-0.305000007153,0.0,-0.730000019073,0.305000007153,0.0,0.469999998808,0.305000007153,0.0
1449616882843883542,8,1449616882843621205,odom,0.569999992847,0.0,0.0,0.469999998808,-0.305000007153,0.0,-0.730000019073,-0.305000007153,0.0,-0.730000019073,0.305000007153,0.0,0.469999998808,0.305000007153,0.0
1449616883044178732,9,1449616883043759680,odom,0.569999992847,0.0,0.0,0.469999998808,-0.305000007153,0.0,-0.730000019073,-0.305000007153,0.0,-0.730000019073,0.305000007153,0.0,0.469999998808,0.305000007153,0.0
1449616883243698749,10,1449616883243490739,odom,0.569999992847,0.0,0.0,0.469999998808,-0.305000007153,0.0,-0.730000019073,-0.305000007153,0.0,-0.730000019073,0.305000007153,0.0,0.469999998808,0.305000007153,0.0
1449616883589904975,11,1449616883589425480,odom,0.569999992847,0.0,0.0,0.469999998808,-0.305000007153,0.0,-0.730000019073,-0.305000007153,0.0,-0.730000019073,0.305000007153,0.0,0.469999998808,0.305000007153,0.0
1449616883863690324,12,1449616883863210058,odom,0.569999992847,0.0,0.0,0.469999998808,-0.305000007153,0.0,-0.730000019073,-0.305000007153,0.0,-0.730000019073,0.305000007153,0.0,0.469999998808,0.305000007153,0.0
1449616883995757049,13,1449616883995494389,odom,0.569999992847,0.0,0.0,0.469999998808,-0.305000007153,0.0,-0.730000019073,-0.305000007153,0.0,-0.730000019073,0.305000007153,0.0,0.469999998808,0.305000007153,0.0
1449616884150179770,14,1449616884146573474,odom,0.569999992847,0.0,0.0,0.469999998808,-0.305000007153,0.0,-0.730000019073,-0.305000007153,0.0,-0.730000019073,0.305000007153,0.0,0.469999998808,0.305000007153,0.0
1449616884384773436,15,1449616884375275131,odom,0.569999992847,0.0,0.0,0.469999998808,-0.305000007153,0.0,-0.730000019073,-0.305000007153,0.0,-0.730000019073,0.305000007153,0.0,0.469999998808,0.305000007153,0.0
1449616884533165232,16,1449616884532874562,odom,0.569999992847,0.0,0.0,0.469999998808,-0.305000007153,0.0,-0.730000019073,-0.305000007153,0.0,-0.730000019073,0.305000007153,0.0,0.469999998808,0.305000007153,0.0
1449616884780660091,17,1449616884779393131,odom,0.569999992847,0.0,0.0,0.469999998808,-0.305000007153,0.0,-0.730000019073,-0.305000007153,0.0,-0.730000019073,0.305000007153,0.0,0.469999998808,0.305000007153,0.0
1449616884974832921,18,1449616884972099504,odom,0.569999992847,0.0,0.0,0.469999998808,-0.305000007153,0.0,-0.730000019073,-0.305000007153,0.0,-0.730000019073,0.305000007153,0.0,0.469999998808,0.305000007153,0.0
1449616885141295235,19,1449616885141062644,odom,0.569999992847,0.0,0.0,0.469999998808,-0.305000007153,0.0,-0.730000019073,-0.305000007153,0.0,-0.730000019073,0.305000007153,0.0,0.469999998808,0.305000007153,0.0
1449616885342028990,20,1449616885340581320,odom,0.569999992847,0.0,0.0,0.469999998808,-0.305000007153,0.0,-0.730000019073,-0.305000007153,0.0,-0.730000019073,0.305000007153,0.0,0.469999998808,0.305000007153,0.0
1449616885546764097,21,1449616885542824198,odom,0.569999992847,0.0,0.0,0.469999998808,-0.305000007153,0.0,-0.730000019073,-0.305000007153,0.0,-0.730000019073,0.305000007153,0.0,0.469999998808,0.305000007153,0.0
1449616885762204977,22,1449616885761997089,odom,0.569999992847,0.0,0.0,0.469999998808,-0.305000007153,0.0,-0.730000019073,-0.305000007153,0.0,-0.730000019073,0.305000007153,0.0,0.469999998808,0.305000007153,0.0
1449616885957320247,23,1449616885955852683,odom,0.569999992847,0.0,0.0,0.469999998808,-0.305000007153,0.0,-0.730000019073,-0.305000007153,0.0,-0.730000019073,0.305000007153,0.0,0.469999998808,0.305000007153,0.0
1449616886128541582,24,1449616886127542224,odom,0.569999992847,0.0,0.0,0.469999998808,-0.305000007153,0.0,-0.730000019073,-0.305000007153,0.0,-0.730000019073,0.305000007153,0.0,0.469999998808,0.305000007153,0.0
1449616886341615169,25,1449616886340137351,odom,0.569999992847,0.0,0.0,0.469999998808,-0.305000007153,0.0,-0.730000019073,-0.305000007153,0.0,-0.730000019073,0.305000007153,0.0,0.469999998808,0.305000007153,0.0
1449616886526765837,26,1449616886525840447,odom,0.569999992847,0.0,0.0,0.469999998808,-0.305000007153,0.0,-0.730000019073,-0.305000007153,0.0,-0.730000019073,0.305000007153,0.0,0.469999998808,0.305000007153,0.0
1449616886749644109,27,1449616886746835209,odom,0.569999992847,0.0,0.0,0.469999998808,-0.305000007153,0.0,-0.730000019073,-0.305000007153,0.0,-0.730000019073,0.305000007153,0.0,0.469999998808,0.305000007153,0.0
1449616886938560174,28,1449616886933011355,odom,0.569999992847,0.0,0.0,0.469999998808,-0.305000007153,0.0,-0.730000019073,-0.305000007153,0.0,-0.730000019073,0.305000007153,0.0,0.469999998808,0.305000007153,0.0
1449616887142169459,29,1449616887139132219,odom,0.569999992847,0.0,0.0,0.469999998808,-0.305000007153,0.0,-0.730000019073,-0.305000007153,0.0,-0.730000019073,0.305000007153,0.0,0.469999998808,0.305000007153,0.0
1449616887351130589,30,1449616887347738923,odom,0.572847783566,-0.00605410896242,0.0,0.469630181789,-0.309980303049,0.0,-0.730302810669,-0.297298878431,0.0,-0.723856449127,0.312667071819,0.0,0.476076573133,0.299985647202,0.0
1449616887553637884,31,1449616887549847857,odom,0.581390738487,-0.0121988411993,0.0,0.474967032671,-0.315017282963,0.0,-0.724764943123,-0.289655834436,0.0,-0.71187287569,0.320207923651,0.0,0.487859100103,0.294846504927,0.0
1449616887766659011,32,1449616887764852007,odom,0.598666131496,-0.0125335892662,0.0,0.49224242568,-0.315352022648,0.0,-0.707489550114,-0.289990603924,0.0,-0.694597482681,0.319873183966,0.0,0.50513446331,0.294511735439,0.0
1449616887945368275,33,1449616887941548048,odom,0.624414503574,-0.0192855522037,0.0,0.514796614647,-0.320962399244,0.0,-0.684600353241,-0.282923787832,0.0,-0.665264070034,0.326769679785,0.0,0.534132897854,0.288731068373,0.0
1449616888144466527,34,1449616888140589138,odom,0.652679979801,-0.0324478521943,0.0,0.53671079874,-0.33174058795,0.0,-0.661614358425,-0.26836180687,0.0,-0.629396796227,0.34078681469,0.0,0.568928360939,0.277408033609,0.0
1449616888369237404,35,1449616888369040365,odom,0.680661678314,-0.0462046302855,0.0,0.558392941952,-0.342979580164,0.0,-0.638325035572,-0.254288911819,0.0,-0.593240618706,0.354042768478,0.0,0.603477358818,0.265352100134,0.0
1449616888539829020,36,1449616888537991761,odom,0.700287818909,-0.0536993481219,0.0,0.574889659882,-0.349165588617,0.0,-0.620824277401,-0.247833147645,0.0,-0.569313585758,0.359988093376,0.0,0.626400351524,0.258655637503,0.0
1449616888758805014,37,1449616888754662211,odom,0.70487421751,-0.0662695094943,0.0,0.573259532452,-0.359019547701,0.0,-0.620045721531,-0.232438877225,0.0,-0.555700540543,0.374157965183,0.0,0.637604653835,0.247577294707,0.0
1449616889019801351,38,1449616889017141447,odom,0.705543756485,-0.0845408514142,0.0,0.564715385437,-0.372971713543,0.0,-0.623977661133,-0.208628296852,0.0,-0.540436446667,0.395624041557,0.0,0.648256659508,0.231280595064,0.0
1449616889138766432,39,1449616889137524357,odom,0.701750397682,-0.108272068202,0.0,0.548858821392,-0.390493929386,0.0,-0.631827235222,-0.176063612103,0.0,-0.522825181484,0.424118489027,0.0,0.657860934734,0.209688171744,0.0
1449616889340100558,40,1449616889339937040,odom,0.698415994644,-0.138294816017,0.0,0.530832111835,-0.412047713995,0.0,-0.636880815029,-0.135557949543,0.0,-0.496331870556,0.458029448986,0.0,0.671381056309,0.181539699435,0.0
1449616889557978215,41,1449616889557692234,odom,0.693492770195,-0.168128952384,0.0,0.511684298515,-0.432648718357,0.0,-0.639795780182,-0.0948713347316,0.0,-0.468092292547,0.490464419127,0.0,0.683387815952,0.15268702805,0.0
1449616889777118077,42,1449616889775639321,odom,0.690868258476,-0.186283901334,0.0,0.500766217709,-0.444907605648,0.0,-0.639428079128,-0.070799395442,0.0,-0.449256420135,0.508799374104,0.0,0.690937936306,0.134691178799,0.0
1449616890022210635,43,1449616890014791273,odom,0.691686749458,-0.19292409718,0.0,0.498862206936,-0.449524402618,0.0,-0.637314915657,-0.0633876770735,0.0,-0.441028743982,0.514169037342,0.0,0.695148408413,0.128032311797,0.0
1449616890183054516,44,1449616890180859016,odom,0.691686749458,-0.19292409718,0.0,0.498862206936,-0.449524402618,0.0,-0.637314915657,-0.0633876770735,0.0,-0.441028743982,0.514169037342,0.0,0.695148408413,0.128032311797,0.0
1449616890416065368,45,1449616890412110050,odom,0.702602863312,-0.196601882577,0.0,0.509778380394,-0.453202188015,0.0,-0.626398742199,-0.0670654550195,0.0,-0.430112600327,0.510491251945,0.0,0.706064522266,0.124354533851,0.0
1449616890579634329,46,1449616890579230965,odom,0.714237749577,-0.207014530897,0.0,0.518712282181,-0.461562752724,0.0,-0.613320767879,-0.0634406507015,0.0,-0.410942018032,0.512009501457,0.0,0.721091032028,0.113887377083,0.0
1449616890835065299,47,1449616890828286018,odom,0.726875245571,-0.230966985226,0.0,0.523379206657,-0.479189366102,0.0,-0.595464944839,-0.0453831963241,0.0,-0.374946832657,0.523362576962,0.0,0.74389731884,0.0895564183593,0.0
1449616891004176561,48,1449616890994306195,odom,0.759890854359,-0.256982266903,0.0,0.551194131374,-0.500848412514,0.0,-0.558231830597,-0.0434928871691,0.0,-0.32574275136,0.520465314388,0.0,0.783683180809,0.0631098002195,0.0
1449616891241024801,49,1449616891237272106,odom,0.792242586613,-0.28394177556,0.0,0.578438520432,-0.523342728615,0.0,-0.521073639393,-0.0426422059536,0.0,-0.276717543602,0.516276478767,0.0,0.822794616222,0.0355759374797,0.0
1449616891346045197,50,1449616891331837880,odom,0.829173743725,-0.320936769247,0.0,0.607888400555,-0.553440093994,0.0,-0.475833594799,-0.0381278395653,0.0,-0.213883191347,0.512764155865,0.0,0.869838774204,-0.0025480648037,0.0
1449616891569670726,51,1449616891566992400,odom,0.87003415823,-0.361720770597,0.0,0.641489923,-0.587092757225,0.0,-0.425352662802,-0.0376867614686,0.0,-0.146071285009,0.504624903202,0.0,0.920771300793,-0.0447811111808,0.0
1449616891736585183,52,1449616891736189101,odom,0.904545724392,-0.400980949402,0.0,0.668972313404,-0.618995130062,0.0,-0.379918605089,-0.0360475294292,0.0,-0.0835869088769,0.49713870883,0.0,0.965304017067,-0.0858088731766,0.0
1449616891936214929,53,1449616891934383227,odom,0.938494443893,-0.434466540813,0.0,0.698366045952,-0.647453248501,0.0,-0.337970286608,-0.0424680896103,0.0,-0.0304361619055,0.484336227179,0.0,1.00590014458,-0.12064896524,0.0
1449616892190833768,54,1449616892188203745,odom,0.966739416122,-0.465785294771,0.0,0.722163259983,-0.673649430275,0.0,-0.301155507565,-0.0468969233334,0.0,0.0174436960369,0.473290115595,0.0,1.04076242447,-0.153462395072,0.0
1449616892387855531,55,1449616892387499016,odom,0.988594830036,-0.501215457916,0.0,0.737552523613,-0.701222360134,0.0,-0.26538464427,-0.0423468016088,0.0,0.0695437714458,0.467479616404,0.0,1.07248091698,-0.191395953298,0.0
1449616892575330615,56,1449616892571428912,odom,1.02124607563,-0.530127704144,0.0,0.768104195595,-0.727470457554,0.0,-0.227814108133,-0.0580327995121,0.0,0.112483374774,0.448225677013,0.0,1.10840165615,-0.221211999655,0.0
1449616892779049299,57,1449616892778193455,odom,1.05348730087,-0.559534370899,0.0,0.798274040222,-0.754190981388,0.0,-0.190514102578,-0.0742659717798,0.0,0.15511444211,0.428368031979,0.0,1.14390265942,-0.251556992531,0.0
1449616892973777558,58,1449616892973157853,odom,1.09003937244,-0.592717885971,0.0,0.832783281803,-0.784666538239,0.0,-0.148764312267,-0.0943301618099,0.0,0.202156692743,0.40462321043,0.0,1.18370425701,-0.285713195801,0.0
1449616893212205042,59,1449616893210454896,odom,1.12974429131,-0.636151969433,0.0,0.868488848209,-0.822620749474,0.0,-0.0982496067882,-0.111694015563,0.0,0.263138175011,0.379731357098,0.0,1.22987663746,-0.331195384264,0.0
1449616893400548799,60,1449616893397548032,odom,1.16546297073,-0.670160531998,0.0,0.902251541615,-0.853858053684,0.0,-0.0569199621677,-0.132754638791,0.0,0.309640944004,0.354824215174,0.0,1.26881241798,-0.366279184818,0.0
1449616893604417869,61,1449616893600716855,odom,1.20074653625,-0.704641640186,0.0,0.935608565807,-0.885547280312,0.0,-0.0158888548613,-0.154347762465,0.0,0.355804234743,0.329330086708,0.0,1.30730164051,-0.401869416237,0.0
1449616893768474559,62,1449616893761697993,odom,1.24184823036,-0.736227214336,0.0,0.976710259914,-0.917132854462,0.0,0.025212880224,-0.185933306813,0.0,0.396905958652,0.29774454236,0.0,1.34840333462,-0.433454990387,0.0
1449616893949827141,63,1449616893946412801,odom,1.28738617897,-0.771490454674,0.0,1.02224814892,-0.952396094799,0.0,0.0707507804036,-0.221196606755,0.0,0.442443877459,0.262481242418,0.0,1.39394128323,-0.468718260527,0.0
1449616894146808553,64,1449616894142806487,odom,1.3346927166,-0.799671709538,0.0,1.07148134708,-0.983369171619,0.0,0.112309888005,-0.262265771627,0.0,0.478870779276,0.225313067436,0.0,1.43804228306,-0.495790332556,0.0
1449616894377149246,65,1449616894373835969,odom,1.39306712151,-0.827229678631,0.0,1.1337968111,-1.01644897461,0.0,0.159599453211,-0.315778255463,0.0,0.515773713589,0.179438769817,0.0,1.48997116089,-0.521231949329,0.0
1449616894583403248,66,1449616894582644738,odom,1.44602489471,-0.857111334801,0.0,1.18876874447,-1.04905998707,0.0,0.207221165299,-0.358723580837,0.0,0.558142185211,0.140229791403,0.0,1.53968977928,-0.550106585026,0.0
1449616894806990780,67,1449616894806713442,odom,1.49090325832,-0.873165845871,0.0,1.23776137829,-1.07050859928,0.0,0.241843059659,-0.401070922613,0.0,0.582140564919,0.105187542737,0.0,1.57805883884,-0.56425011158,0.0
1449616894969413399,68,1449616894962595086,odom,1.52438056469,-0.895631968975,0.0,1.27123868465,-1.09297478199,0.0,0.275320351124,-0.42353707552,0.0,0.61561781168,0.0827213972807,0.0,1.61153614521,-0.586716294289,0.0
1449616895211282113,69,1449616895210494612,odom,1.54932594299,-0.904921710491,0.0,1.29828357697,-1.10492861271,0.0,0.295346409082,-0.446053057909,0.0,0.630274832249,0.0637733563781,0.0,1.63321197033,-0.595102190971,0.0
1449616895462184639,70,1449616895460326459,odom,1.56375026703,-0.914434194565,0.0,1.31270802021,-1.11444115639,0.0,0.309770822525,-0.455565541983,0.0,0.644699215889,0.0542608834803,0.0,1.64763641357,-0.604614675045,0.0
1449616895693952867,71,1449616895689476773,odom,1.57426834106,-0.914100289345,0.0,1.32535362244,-1.11674904823,0.0,0.315509557724,-0.468509107828,0.0,0.645031511784,0.0448283068836,0.0,1.6548756361,-0.60341155529,0.0
1449616895857466848,72,1449616895855508389,odom,1.57426834106,-0.914100289345,0.0,1.32535362244,-1.11674904823,0.0,0.315509557724,-0.468509107828,0.0,0.645031511784,0.0448283068836,0.0,1.6548756361,-0.60341155529,0.0
1449616895977086264,73,1449616895970757999,odom,1.57426834106,-0.914100289345,0.0,1.32535362244,-1.11674904823,0.0,0.315509557724,-0.468509107828,0.0,0.645031511784,0.0448283068836,0.0,1.6548756361,-0.60341155529,0.0
1449616896145350960,74,1449616896145176918,odom,1.57426834106,-0.914100289345,0.0,1.32535362244,-1.11674904823,0.0,0.315509557724,-0.468509107828,0.0,0.645031511784,0.0448283068836,0.0,1.6548756361,-0.60341155529,0.0
1449616896353201087,75,1449616896345704868,odom,1.57426834106,-0.914100289345,0.0,1.32535362244,-1.11674904823,0.0,0.315509557724,-0.468509107828,0.0,0.645031511784,0.0448283068836,0.0,1.6548756361,-0.60341155529,0.0
1449616896556858380,76,1449616896548087931,odom,1.57426834106,-0.914100289345,0.0,1.32535362244,-1.11674904823,0.0,0.315509557724,-0.468509107828,0.0,0.645031511784,0.0448283068836,0.0,1.6548756361,-0.60341155529,0.0
1449616896803576899,77,1449616896801850396,odom,1.57426834106,-0.914100289345,0.0,1.32535362244,-1.11674904823,0.0,0.315509557724,-0.468509107828,0.0,0.645031511784,0.0448283068836,0.0,1.6548756361,-0.60341155529,0.0
1449616896947028151,78,1449616896931872113,odom,1.57993531227,-0.91054391861,0.0,1.33317613602,-1.1158118248,0.0,0.316537886858,-0.478280007839,0.0,0.64061653614,0.0385110937059,0.0,1.65725469589,-0.599020719528,0.0
1449616897181512120,79,1449616897180491065,odom,1.58065271378,-0.903919637203,0.0,1.33607661724,-1.1117837429,0.0,0.312757819891,-0.485031276941,0.0,0.631357014179,0.0351557731628,0.0,1.65467584133,-0.591596722603,0.0
1449616897384610305,80,1449616897381247057,odom,1.58682060242,-0.893606364727,0.0,1.34669220448,-1.10659313202,0.0,0.310355842113,-0.501607894897,0.0,0.617890000343,0.0251963958144,0.0,1.6542263031,-0.579788804054,0.0
1449616897588399535,81,1449616897587832094,odom,1.59279894829,-0.883111953735,0.0,1.3572255373,-1.10112607479,0.0,0.308334618807,-0.518178582191,0.0,0.604666292667,0.0150076709688,0.0,1.65355718136,-0.56793987751,0.0
1449616897867360545,82,1449616897860549076,odom,1.59316551685,-0.876459062099,0.0,1.35990929604,-1.09695053101,0.0,0.304916411638,-0.525120079517,0.0,0.595596909523,0.0111679853871,0.0,1.65058970451,-0.560662508011,0.0
1449616898031302551,83,1449616898027578317,odom,1.59855413437,-0.872493565083,0.0,1.36764097214,-1.09543776512,0.0,0.306664049625,-0.534788191319,0.0,0.591660916805,0.00454174494371,0.0,1.65263783932,-0.55610781908,0.0
1449616898185985741,84,1449616898180641869,odom,1.59855413437,-0.872493565083,0.0,1.36764097214,-1.09543776512,0.0,0.306664049625,-0.534788191319,0.0,0.591660916805,0.00454174494371,0.0,1.65263783932,-0.55610781908,0.0
1449616898360435095,85,1449616898359371512,odom,1.6039005518,-0.868471384048,0.0,1.37535631657,-1.09384334087,0.0,0.308513790369,-0.544437348843,0.0,0.587795138359,-0.0021257204935,0.0,1.65463769436,-0.551531732082,0.0
1449616898604643772,86,1449616898593289670,odom,1.60920417309,-0.864392876625,0.0,1.38305437565,-1.09216749668,0.0,0.310465365648,-0.554066419601,0.0,0.584000110626,-0.00883366633207,0.0,1.65658915043,-0.546934723854,0.0
1449616898774095449,87,1449616898770891292,odom,1.6145055294,-0.85354077816,0.0,1.39322018623,-1.0860440731,0.0,0.309498220682,-0.570731878281,0.0,0.571448624134,-0.0198398455977,0.0,1.65517055988,-0.535152077675,0.0
1449616898985995763,88,1449616898981774895,odom,1.61967718601,-0.849296212196,0.0,1.40086126328,-1.08412504196,0.0,0.311754047871,-0.580294251442,0.0,0.567868053913,-0.0266647189856,0.0,1.65697526932,-0.530495584011,0.0
1449616899272194371,89,1449616899270131413,odom,1.62988448143,-0.840644359589,0.0,1.41608047485,-1.08004534245,0.0,0.316568255424,-0.599344789982,0.0,0.560924351215,-0.0404260717332,0.0,1.66043651104,-0.521126627922,0.0
1449616899427712430,90,1449616899373111234,odom,1.64520800114,-0.834029972553,0.0,1.43651139736,-1.07789611816,0.0,0.327085375786,-0.620540618896,0.0,0.55957442522,-0.0565824024379,0.0,1.66900038719,-0.51393789053,0.0
1449616899625524623,91,1449616899620966473,odom,1.65988433361,-0.82033932209,0.0,1.4590228796,-1.07069838047,0.0,0.335656762123,-0.648740172386,0.0,0.550152182579,-0.0776957422495,0.0,1.67351830006,-0.49965390563,0.0
1449616899764619668,92,1449616899761551337,odom,1.68496441841,-0.810068845749,0.0,1.49213993549,-1.06666910648,0.0,0.355962783098,-0.680532455444,0.0,0.552248954773,-0.102975718677,0.0,1.68842613697,-0.489112436771,0.0
1449616899980569085,93,1449616899980253662,odom,1.72314035892,-0.783578515053,0.0,1.54696297646,-1.05188155174,0.0,0.388601332903,-0.738515675068,0.0,0.547895669937,-0.149681776762,0.0,1.70625734329,-0.463047713041,0.0
1449616900193330685,94,1449616900192985117,odom,1.75547397137,-0.760192930698,0.0,1.59371316433,-1.03742647171,0.0,0.420417636633,-0.785677492619,0.0,0.548390030861,-0.189252257347,0.0,1.72168564796,-0.441001206636,0.0
1449616900339121041,95,1449616900338903224,odom,1.79218125343,-0.736220896244,0.0,1.64528846741,-1.02161109447,0.0,0.460334211588,-0.832181870937,0.0,0.556627392769,-0.229830086231,0.0,1.74158167839,-0.419259279966,0.0
1449616900558368045,96,1449616900547755738,odom,1.8261282444,-0.722672045231,0.0,1.6883559227,-1.01257503033,0.0,0.497992396355,-0.860802769661,0.0,0.57514333725,-0.255701303482,0.0,1.76550686359,-0.407473623753,0.0
1449616900792579793,97,1449616900788686326,odom,1.86643230915,-0.696051299572,0.0,1.74416363239,-0.992826282978,0.0,0.547445595264,-0.904135584831,0.0,0.592530012131,-0.295803934336,0.0,1.78924798965,-0.38449460268,0.0
1449616900945569987,98,1449616900937849287,odom,1.90485846996,-0.680109977722,0.0,1.79205858707,-0.980611503124,0.0,0.593130588531,-0.929899990559,0.0,0.618908941746,-0.320444911718,0.0,1.81783699989,-0.371156454086,0.0
1449616901162778531,99,1449616901161765134,odom,1.95427799225,-0.663110673428,0.0,1.85106039047,-0.967036902905,0.0,0.651127398014,-0.954355478287,0.0,0.657573759556,-0.344389498234,0.0,1.85750675201,-0.357070922852,0.0
1449616901363428181,100,1449616901359664393,odom,2.00889229774,-0.64440125227,0.0,1.91536068916,-0.951446592808,0.0,0.715628683567,-0.976808011532,0.0,0.702736616135,-0.366944253445,0.0,1.90246856213,-0.341582834721,0.0
1449616901554051294,101,1449616901553103273,odom,2.06606268883,-0.630138874054,0.0,1.97904121876,-0.93909239769,0.0,0.780113220215,-0.989803910255,0.0,0.754334867001,-0.380348831415,0.0,1.95326280594,-0.32963731885,0.0
1449616901776245532,102,1449616901774356784,odom,2.12535715103,-0.608145356178,0.0,2.04817295074,-0.91970205307,0.0,0.851454794407,-1.00839269161,0.0,0.806370377541,-0.400061070919,0.0,2.00308847427,-0.311370402575,0.0
1449616901977296139,103,1449616901974835523,odom,2.18746495247,-0.590760886669,0.0,2.11688256264,-0.903879225254,0.0,0.922306239605,-1.01784217358,0.0,0.864375054836,-0.41059923172,0.0,2.05895137787,-0.2966363132,0.0
1449616902181900633,104,1449616902177783285,odom,2.24704217911,-0.57881218195,0.0,2.17977261543,-0.892658948898,0.0,0.986467421055,-1.01923966408,0.0,0.922122240067,-0.412642806768,0.0,2.11542749405,-0.286062121391,0.0
1449616902334391770,105,1449616902333389095,odom,2.30647969246,-0.566143751144,0.0,2.24253058434,-0.88068395853,0.0,1.05062973499,-1.01986825466,0.0,0.979877710342,-0.41398525238,0.0,2.17177867889,-0.274800986052,0.0
1449616902543104060,106,1449616902542666302,odom,2.36004090309,-0.553364932537,0.0,2.29941940308,-0.868563354015,0.0,1.10905587673,-1.02033567429,0.0,1.03190493584,-0.415234267712,0.0,2.22226834297,-0.263461947441,0.0
1449616902805571948,107,1449616902799988407,odom,2.4020242691,-0.541387379169,0.0,2.34473729134,-0.857208848,0.0,1.15604412556,-1.02155220509,0.0,1.07250285149,-0.417299926281,0.0,2.26119589806,-0.252956479788,0.0
1449616902940982796,108,1449616902938050753,odom,2.43251252174,-0.530845463276,0.0,2.37856602669,-0.847254693508,0.0,1.19167613983,-1.02415084839,0.0,1.10175383091,-0.420815140009,0.0,2.28864383698,-0.243918940425,0.0
1449616903218166656,109,1449616903167787439,odom,2.45129036903,-0.540503442287,0.0,2.39066886902,-0.855701863766,0.0,1.20030534267,-1.00747418404,0.0,1.12315440178,-0.402372717857,0.0,2.31351780891,-0.250600397587,0.0
1449616903385939577,110,1449616903375147873,odom,2.45841169357,-0.551831662655,0.0,2.3911421299,-0.865678489208,0.0,1.19783699512,-0.992259144783,0.0,1.13349187374,-0.385662317276,0.0,2.32679700851,-0.259081661701,0.0
1449616903598029409,111,1449616903593285270,odom,2.46864104271,-0.569099903107,0.0,2.39145684242,-0.880656659603,0.0,1.19473874569,-0.969347298145,0.0,1.14965426922,-0.36101564765,0.0,2.34637236595,-0.272324979305,0.0
1449616903749822536,112,1449616903744009220,odom,2.47831773758,-0.586683750153,0.0,2.39129638672,-0.895637214184,0.0,1.19236826897,-0.946348726749,0.0,1.16658997536,-0.336893677711,0.0,2.36551785469,-0.286182135344,0.0
1449616903953824460,113,1449616903953250615,odom,2.48445725441,-0.598572850227,0.0,2.39092564583,-0.905618190765,0.0,1.19119358063,-0.930979609489,0.0,1.17830145359,-0.321115881205,0.0,2.37803339958,-0.295754432678,0.0
1449616904139985446,114,1449616904125788719,odom,2.49319171906,-0.616643249989,0.0,2.38997411728,-0.920569419861,0.0,1.19004106522,-0.907887995243,0.0,1.19648742676,-0.297922044992,0.0,2.39642047882,-0.31060346961,0.0
1449616904320339879,115,1449616904320036251,odom,2.49869465828,-0.62884002924,0.0,2.38907670975,-0.930516898632,0.0,1.18967974186,-0.89247828722,0.0,1.20901596546,-0.282784819603,0.0,2.40841293335,-0.320823431015,0.0
1449616904565832013,116,1449616904563637070,odom,2.50646257401,-0.647346496582,0.0,2.38733696938,-0.945396959782,0.0,1.18974852562,-0.869358003139,0.0,1.22840166092,-0.260583877563,0.0,2.42599010468,-0.336622834206,0.0
1449616904734410544,117,1449616904727479580,odom,2.51363992691,-0.666089892387,0.0,2.38512635231,-0.960214436054,0.0,1.19055008888,-0.846251547337,0.0,1.24848127365,-0.239008575678,0.0,2.44305753708,-0.352971494198,0.0
1449616904949715659,118,1449616904945556173,odom,2.51809334755,-0.678707778454,0.0,2.38339209557,-0.970050573349,0.0,1.19149124622,-0.830866336823,0.0,1.26224327087,-0.224983364344,0.0,2.45414423943,-0.364167630672,0.0
1449616905183969588,119,1449616905181399878,odom,2.52021956444,-0.685051381588,0.0,2.38244724274,-0.974954366684,0.0,1.19208371639,-0.823182046413,0.0,1.26923465729,-0.218080624938,0.0,2.45959806442,-0.36985296011,0.0
1449616905339449475,120,1449616905334133709,odom,2.52427077293,-0.697804093361,0.0,2.38040208817,-0.984730660915,0.0,1.1935120821,-0.80783444643,0.0,1.28343439102,-0.204498708248,0.0,2.47032427788,-0.381394892931,0.0
1449616905560030308,121,1449616905558902697,odom,2.52619481087,-0.704211890697,0.0,2.37930226326,-0.989602029324,0.0,1.19434785843,-0.800172805786,0.0,1.29064106941,-0.197821050882,0.0,2.47559523582,-0.387250244617,0.0
1449616905740282125,122,1449616905739230917,odom,2.5337433815,-0.711518764496,0.0,2.3838429451,-0.995340585709,0.0,1.20095658302,-0.793399572372,0.0,1.30360996723,-0.192099049687,0.0,2.4864962101,-0.394040077925,0.0
1449616905976200926,123,1449616905972177805,odom,2.54292941093,-0.725400567055,0.0,2.38706374168,-1.00599098206,0.0,1.2087097168,-0.779095232487,0.0,1.32404839993,-0.180098578334,0.0,2.50240254402,-0.406994253397,0.0
1449616906130535139,124,1449616906125594278,odom,2.55743956566,-0.740741431713,0.0,2.3956785202,-1.01797497272,0.0,1.22238302231,-0.766226053238,0.0,1.35035538673,-0.169800773263,0.0,2.52365112305,-0.421549707651,0.0
1449616906347708255,125,1449616906336640688,odom,2.57018351555,-0.749823391438,0.0,2.40550208092,-1.02533197403,0.0,1.23493242264,-0.761197924614,0.0,1.36920058727,-0.166158348322,0.0,2.53977012634,-0.430292457342,0.0
1449616906574250742,126,1449616906570287276,odom,2.59108233452,-0.773623287678,0.0,2.41775035858,-1.04377317429,0.0,1.25614178181,-0.742666125298,0.0,1.40920448303,-0.152181759477,0.0,2.57081317902,-0.453288823366,0.0
1449616906746159888,127,1449616906743828419,odom,2.61572647095,-0.792801976204,0.0,2.43672347069,-1.05922830105,0.0,1.28173816204,-0.733638465405,0.0,1.4472463131,-0.146520882845,0.0,2.60223174095,-0.472110718489,0.0
1449616907019906370,128,1449616906976847988,odom,2.6500017643,-0.809070467949,0.0,2.46819329262,-1.07359027863,0.0,1.31671321392,-0.735812842846,0.0,1.48841679096,-0.150477126241,0.0,2.63989686966,-0.488254487514,0.0
1449616907157430118,129,1449616907157323499,odom,2.69135141373,-0.840981185436,0.0,2.50124955177,-1.09960484505,0.0,1.36105513573,-0.725496649742,0.0,1.55122685432,-0.145897880197,0.0,2.69142127037,-0.520006120205,0.0
1449616907335724177,130,1449616907332813897,odom,2.73040056229,-0.860421419144,0.0,2.53757619858,-1.11702167988,0.0,1.40139901638,-0.730885028839,0.0,1.59768521786,-0.153328299522,0.0,2.73386240005,-0.539465010166,0.0
1449616907528716076,131,1449616907526091155,odom,2.75899362564,-0.883280158043,0.0,2.56078910828,-1.13574790955,0.0,1.4330265522,-0.72568488121,0.0,1.64147531986,-0.152405574918,0.0,2.76923775673,-0.562468647957,0.0
1449616907737131641,132,1449616907734642291,odom,2.80164933205,-0.892283499241,0.0,2.60612392426,-1.14683175087,0.0,1.4740909338,-0.748709619045,0.0,1.67646968365,-0.173259466887,0.0,2.8085026741,-0.571381568909,0.0
1449616907917614611,133,1449616907914752031,odom,2.84502410889,-0.907828211784,0.0,2.6494987011,-1.16237640381,0.0,1.51746571064,-0.764254271984,0.0,1.71984446049,-0.188804164529,0.0,2.85187745094,-0.586926281452,0.0
1449616908121384740,134,1449616908119706069,odom,2.89722561836,-0.906065881252,0.0,2.709867239,-1.1666841507,0.0,1.56578302383,-0.804646193981,0.0,1.7498190403,-0.223070070148,0.0,2.89390325546,-0.585107982159,0.0
1449616908324489219,135,1449616908320233761,odom,2.95585632324,-0.911249577999,0.0,2.77404785156,-1.17576932907,0.0,1.62256765366,-0.837991952896,0.0,1.7942712307,-0.25265622139,0.0,2.94575119019,-0.590433597565,0.0
1449616908518797190,136,1449616908518231374,odom,3.01348257065,-0.908119022846,0.0,2.84015059471,-1.17826902866,0.0,1.67854189873,-0.877161920071,0.0,1.83160459995,-0.286677539349,0.0,2.99321317673,-0.587784588337,0.0
1449616908715309444,137,1449616908714992717,odom,3.07932806015,-0.891761481762,0.0,2.92050600052,-1.17068898678,0.0,1.74461555481,-0.931353330612,0.0,1.86627781391,-0.333608984947,0.0,3.04216837883,-0.572944641113,0.0
1449616908901984348,138,1449616908899933122,odom,3.14220523834,-0.865651130676,0.0,3.00137686729,-1.15408194065,0.0,1.81268382072,-0.989738583565,0.0,1.8962250948,-0.385486215353,0.0,3.08491826057,-0.549829661846,0.0
1449616909107858289,139,1449616909101287276,odom,3.20567297935,-0.842099547386,0.0,3.08027482033,-1.137565732,0.0,1.88456094265,-1.03623330593,0.0,1.93607163429,-0.428412079811,0.0,3.13178563118,-0.529744505882,0.0
1449616909294316247,140,1449616909294117659,odom,3.26780939102,-0.815198302269,0.0,3.15819144249,-1.11687517166,0.0,1.95879459381,-1.07883656025,0.0,1.97813081741,-0.469143092632,0.0,3.17752790451,-0.507181704044,0.0
1449616909523777486,141,1449616909522673992,odom,3.32539772987,-0.778605163097,0.0,3.23511600494,-1.08662176132,0.0,2.03571915627,-1.12466037273,0.0,2.01638293266,-0.514966964722,0.0,3.21577978134,-0.476928323507,0.0
1449616909709385178,142,1449616909709033975,odom,3.37825608253,-0.745195329189,0.0,3.30436849594,-1.05755031109,0.0,2.10865449905,-1.15888273716,0.0,2.05714392662,-0.551061570644,0.0,3.25285792351,-0.449729084969,0.0
1449616909908171369,143,1449616909907225054,odom,3.43120956421,-0.702200591564,0.0,3.37726306915,-1.01860976219,0.0,2.1903731823,-1.19550597668,0.0,2.10045099258,-0.592170238495,0.0,3.28734087944,-0.415274053812,0.0
1449616910094405552,144,1449616910090576114,odom,3.46847176552,-0.664763689041,0.0,3.4313120842,-0.98358052969,0.0,2.25542163849,-1.22291612625,0.0,2.13375926018,-0.625171840191,0.0,3.30964970589,-0.385836154222,0.0
1449616910297032771,145,1449616910294090968,odom,3.500477314,-0.613457024097,0.0,3.486982584,-0.934148311615,0.0,2.33199739456,-1.25973808765,0.0,2.1664891243,-0.672620534897,0.0,3.32147455215,-0.347030699253,0.0
1449616910493599575,146,1449616910492785030,odom,3.53273177147,-0.571695446968,0.0,3.53619337082,-0.892651855946,0.0,2.40001630783,-1.27878856659,0.0,2.20373010635,-0.701231896877,0.0,3.33990716934,-0.315095156431,0.0
1449616910700892952,147,1449616910699430523,odom,3.55689907074,-0.537044644356,0.0,3.57392120361,-0.857568085194,0.0,2.45507717133,-1.29137420654,0.0,2.23455882072,-0.722628474236,0.0,3.35340309143,-0.288822263479,0.0
1449616910906276341,148,1449616910905801536,odom,3.57439351082,-0.496798217297,0.0,3.60832047462,-0.815975248814,0.0,2.51394987106,-1.30826842785,0.0,2.26370072365,-0.75196325779,0.0,3.35807156563,-0.259670078754,0.0
1449616911083004692,149,1449616911082744955,odom,3.59016370773,-0.46939137578,0.0,3.63419103622,-0.78733253479,0.0,2.55597543716,-1.31406867504,0.0,2.28821802139,-0.765975654125,0.0,3.36643362045,-0.239239558578,0.0
1449616911313127988,150,1449616911312759607,odom,3.60531234741,-0.448210984468,0.0,3.65604948997,-0.765150666237,0.0,2.58920693398,-1.31455659866,0.0,2.30992555618,-0.772244989872,0.0,3.37676811218,-0.222838997841,0.0
1449616911505527081,151,1449616911501940301,odom,3.62504482269,-0.423916906118,0.0,3.68246889114,-0.739713430405,0.0,2.62747621536,-1.3115439415,0.0,2.33679556847,-0.775255918503,0.0,3.39178848267,-0.203425422311,0.0
1449616911712669538,152,1449616911711177962,odom,3.64992308617,-0.403407663107,0.0,3.71068120003,-0.71857970953,0.0,2.66179037094,-1.30152726173,0.0,2.36545872688,-0.768341064453,0.0,3.41434955597,-0.185393497348,0.0
1449616911888718194,153,1449616911887847706,odom,3.68520712852,-0.383902072906,0.0,3.7459654808,-0.699074149132,0.0,2.6970744133,-1.28202176094,0.0,2.40074276924,-0.748835504055,0.0,3.44963359833,-0.165887907147,0.0
1449616912099205530,154,1449616912095084168,odom,3.73155736923,-0.372724741697,0.0,3.78564095497,-0.689110517502,0.0,2.72466397285,-1.2497600317,0.0,2.43966722488,-0.710430085659,0.0,3.500644207,-0.149780541658,0.0
1449616912303041050,155,1449616912299841727,odom,3.7834482193,-0.366772592068,0.0,3.82747554779,-0.68471378088,0.0,2.74925994873,-1.21144986153,0.0,2.48150229454,-0.663356840611,0.0,3.55971813202,-0.136620759964,0.0
1449616912508030238,156,1449616912505652957,odom,3.84577965736,-0.371588170528,0.0,3.87295341492,-0.691410958767,0.0,2.76842260361,-1.16046512127,0.0,2.52998685837,-0.598995387554,0.0,3.63451743126,-0.129941135645,0.0
1449616912699059362,157,1449616912696816414,odom,3.90283823013,-0.374684453011,0.0,3.91647219658,-0.695369839668,0.0,2.7931060791,-1.11732804775,0.0,2.57861065865,-0.546283602715,0.0,3.70197677612,-0.124325416982,0.0
1449616912930817848,158,1449616912928687171,odom,3.96532034874,-0.378766357899,0.0,3.96538996696,-0.69974142313,0.0,2.82519555092,-1.07384967804,0.0,2.63502383232,-0.494250863791,0.0,3.77521824837,-0.120142653584,0.0
1449616913121946445,159,1449616913120930313,odom,4.01763105392,-0.38215598464,0.0,4.00752592087,-0.702971935272,0.0,2.85604596138,-1.04074931145,0.0,2.68434238434,-0.455413609743,0.0,3.83582258224,-0.117636226118,0.0
1449616913322902353,160,1449616913321154421,odom,4.07404518127,-0.392200738192,0.0,4.05039167404,-0.712303102016,0.0,2.88566589355,-1.00111758709,0.0,2.73885178566,-0.409048676491,0.0,3.90357756615,-0.120234146714,0.0
1449616913498865435,161,1449616913496232895,odom,4.12731027603,-0.3921880126,0.0,4.09689712524,-0.711718976498,0.0,2.92632746696,-0.975853085518,0.0,2.79205942154,-0.380813509226,0.0,3.9626288414,-0.116679407656,0.0
1449616913732119650,162,1449616913730118523,odom,4.18056440353,-0.393301010132,0.0,4.1434044838,-0.71211785078,0.0,2.96751403809,-0.951453506947,0.0,2.84585165977,-0.353709161282,0.0,4.0217423439,-0.114373482764,0.0
1449616913913977432,163,1449616913912046237,odom,4.23373651505,-0.395300209522,0.0,4.18984699249,-0.713260471821,0.0,3.00916099548,-0.9276907444,0.0,2.90015888214,-0.327508658171,0.0,4.08084487915,-0.113078333437,0.0
1449616914098408616,164,1449616914098213826,odom,4.28687429428,-0.398542791605,0.0,4.23627471924,-0.715504467487,0.0,3.05132055283,-0.90493363142,0.0,2.95502758026,-0.302581876516,0.0,4.13998174667,-0.113152690232,0.0
1449616914321492266,165,1449616914310671110,odom,4.32480812073,-0.398886978626,0.0,4.27086210251,-0.715296208858,0.0,3.08397197723,-0.892192363739,0.0,2.99404978752,-0.288856655359,0.0,4.18093967438,-0.111960463226,0.0
1449616914528035408,166,1449616914527905312,odom,4.36642742157,-0.40554061532,0.0,4.30580615997,-0.720739006996,0.0,3.11544251442,-0.872511386871,0.0,3.03829169273,-0.267409920692,0.0,4.22865533829,-0.115637600422,0.0
1449616914697187121,167,1449616914696149672,odom,4.40430545807,-0.406875610352,0.0,4.34035634995,-0.721415817738,0.0,3.14845561981,-0.860600054264,0.0,3.07770347595,-0.254717081785,0.0,4.26960468292,-0.115532830358,0.0
1449616914919327179,168,1449616914915574060,odom,4.4443321228,-0.402048319578,0.0,4.38038301468,-0.716588497162,0.0,3.18848204613,-0.855772733688,0.0,3.11773014069,-0.249889791012,0.0,4.30963087082,-0.110705524683,0.0
1449616915139786030,169,1449616915137073851,odom,4.49010801315,-0.396794766188,0.0,4.42615890503,-0.711334943771,0.0,3.23425793648,-0.850519180298,0.0,3.16350603104,-0.244636237621,0.0,4.35540676117,-0.105451971292,0.0
1449616915315811444,170,1449616915315636068,odom,4.53147983551,-0.404612958431,0.0,4.46089744568,-0.717731356621,0.0,3.26632142067,-0.831694245338,0.0,3.2083902359,-0.224451303482,0.0,4.40296649933,-0.110488377512,0.0
1449616915526038177,171,1449616915525489734,odom,4.57159662247,-0.400602370501,0.0,4.50101423264,-0.713720738888,0.0,3.30643796921,-0.82768368721,0.0,3.24850678444,-0.220440745354,0.0,4.44308328629,-0.106477819383,0.0
1449616915696547415,172,1449616915693771152,odom,4.60600614548,-0.39741140604,0.0,4.53542375565,-0.71052980423,0.0,3.34084749222,-0.824492752552,0.0,3.28291630745,-0.217249780893,0.0,4.4774928093,-0.103286854923,0.0
1449616915899877770,173,1449616915899664765,odom,4.63810014725,-0.400614649057,0.0,4.56421279907,-0.712969660759,0.0,3.36849880219,-0.81430208683,0.0,3.31698822975,-0.20648086071,0.0,4.51270198822,-0.105148412287,0.0
1449616916139253679,174,1449616916136352681,odom,4.67253446579,-0.397696495056,0.0,4.59864664078,-0.710051476955,0.0,3.40293288231,-0.811383962631,0.0,3.35142230988,-0.203562691808,0.0,4.54713630676,-0.102230243385,0.0
1449616916320302924,175,1449616916318149243,odom,4.70460224152,-0.401360094547,0.0,4.62741804123,-0.712916791439,0.0,3.43070006371,-0.801607489586,0.0,3.38561558723,-0.193275809288,0.0,4.58233356476,-0.104585140944,0.0
1449616916558247520,176,1449616916556418536,odom,4.72758388519,-0.399748414755,0.0,4.65039968491,-0.711305141449,0.0,3.45368170738,-0.799995839596,0.0,3.40859723091,-0.191664144397,0.0,4.60531520844,-0.102973483503,0.0
1449616916723076891,177,1449616916719620180,odom,4.75133705139,-0.410281389952,0.0,4.66758537292,-0.720137238503,0.0,3.46926021576,-0.783516049385,0.0,3.43704271317,-0.174367427826,0.0,4.63536787033,-0.110988639295,0.0
1449616916931469074,178,1449616916922682960,odom,4.77110671997,-0.403020828962,0.0,4.69063425064,-0.713744461536,0.0,3.49304580688,-0.789783418179,0.0,3.45439267159,-0.181009307504,0.0,4.65198135376,-0.10497032851,0.0
1449616917125633186,179,1449616917125084060,odom,4.7915854454,-0.407939344645,0.0,4.70783376694,-0.717795193195,0.0,3.50950860977,-0.781174004078,0.0,3.47729110718,-0.172025382519,0.0,4.67561626434,-0.108646586537,0.0
1449616917323443083,180,1449616917322925065,odom,4.80883836746,-0.406996369362,0.0,4.725086689,-0.716852247715,0.0,3.52676153183,-0.780231058598,0.0,3.49454402924,-0.171082407236,0.0,4.6928691864,-0.107703618705,0.0
1449616917553186611,181,1449616917550389180,odom,4.82609605789,-0.406144559383,0.0,4.74234437943,-0.716000437737,0.0,3.54401898384,-0.779379248619,0.0,3.51180148125,-0.170230612159,0.0,4.71012639999,-0.106851823628,0.0
1449616917733780882,182,1449616917731724368,odom,4.84651851654,-0.411218434572,0.0,4.75949668884,-0.720171928406,0.0,3.56056880951,-0.770883440971,0.0,3.5347905159,-0.161428377032,0.0,4.73371839523,-0.110716849566,0.0
1449616917908827004,183,1449616917906993025,odom,4.86378288269,-0.41051864624,0.0,4.77676153183,-0.719472169876,0.0,3.57783341408,-0.770183682442,0.0,3.55205488205,-0.160728603601,0.0,4.75098276138,-0.110017068684,0.0
1449616918107422322,184,1449616918103644892,odom,4.88104724884,-0.409818857908,0.0,4.79402589798,-0.718772351742,0.0,3.59509778023,-0.769483923912,0.0,3.56931948662,-0.160028815269,0.0,4.76824760437,-0.109317287803,0.0
1449616918306121879,185,1449616918304295506,odom,4.89566087723,-0.41535165906,0.0,4.80537891388,-0.723368287086,0.0,3.6059820652,-0.761406898499,0.0,3.5866458416,-0.15171341598,0.0,4.78604269028,-0.113674812019,0.0
1449616918530522527,186,1449616918530163213,odom,4.91596889496,-0.420764744282,0.0,4.82243728638,-0.72781008482,0.0,3.62270545959,-0.753171503544,0.0,3.60981321335,-0.143307745457,0.0,4.80954551697,-0.117946311831,0.0
1449616918723999544,187,1449616918723759206,odom,4.9332408905,-0.420277863741,0.0,4.83970928192,-0.727323234081,0.0,3.6399769783,-0.752684652805,0.0,3.62708497047,-0.142820864916,0.0,4.82681703568,-0.117459438741,0.0
1449616918917005558,188,1449616918916847952,odom,4.9505147934,-0.419882267714,0.0,4.85698318481,-0.726927578449,0.0,3.65725111961,-0.752289056778,0.0,3.64435911179,-0.142425268888,0.0,4.84409093857,-0.117063842714,0.0
1449616919136831506,189,1449616919136661278,odom,4.96778917313,-0.419517099857,0.0,4.87425756454,-0.726562440395,0.0,3.67452573776,-0.751923859119,0.0,3.66163372993,-0.142060101032,0.0,4.86136579514,-0.116698667407,0.0
1449616919330821632,190,1449616919330433451,odom,4.98228168488,-0.425296634436,0.0,4.88551044464,-0.731336414814,0.0,3.68557739258,-0.744017839432,0.0,3.67913103104,-0.13405187428,0.0,4.8790640831,-0.121370457113,0.0
1449616919515830620,191,1449616919515355099,odom,4.99379968643,-0.42514449358,0.0,4.8970284462,-0.731184244156,0.0,3.69709539413,-0.743865668774,0.0,3.69064903259,-0.133899718523,0.0,4.89058208466,-0.121218293905,0.0
1449616919743821361,192,1449616919739257110,odom,5.01107740402,-0.424961894751,0.0,4.91430616379,-0.731001615524,0.0,3.71437311172,-0.743683040142,0.0,3.70792675018,-0.133717119694,0.0,4.90785980225,-0.121035695076,0.0
1449616919914659139,193,1449616919913032608,odom,5.0255074501,-0.430863827467,0.0,4.92550754547,-0.735863804817,0.0,3.72550749779,-0.735863804817,0.0,3.72550749779,-0.125863820314,0.0,4.92550754547,-0.125863820314,0.0
1449616920128004834,194,1449616920123441938,odom,5.03987407684,-0.424748837948,0.0,4.94310283661,-0.730788588524,0.0,3.74317002296,-0.743470013142,0.0,3.73672366142,-0.133504077792,0.0,4.93665647507,-0.120822660625,0.0
1449616920316877339,195,1449616920310220617,odom,5.05430459976,-0.430711656809,0.0,4.95430469513,-0.735711693764,0.0,3.75430464745,-0.735711693764,0.0,3.75430464745,-0.125711649656,0.0,4.95430469513,-0.125711649656,0.0
1449616920508206208,196,1449616920506629941,odom,5.07158327103,-0.430711656809,0.0,4.97158336639,-0.735711693764,0.0,3.77158331871,-0.735711693764,0.0,3.77158331871,-0.125711649656,0.0,4.97158336639,-0.125711649656,0.0
1449616920720213197,197,1449616920720050197,odom,5.08594989777,-0.436826646328,0.0,4.98273229599,-0.7407528162,0.0,3.78279948235,-0.728071391582,0.0,3.78924584389,-0.118105456233,0.0,4.98917865753,-0.130786880851,0.0
1449616920943239146,198,1449616920941578367,odom,5.10322809219,-0.436948359013,0.0,5.00001049042,-0.74087458849,0.0,3.80007767677,-0.728193163872,0.0,3.80652403831,-0.118227183819,0.0,5.00645685196,-0.130908608437,0.0
1449616921147893702,199,1449616921141723678,odom,5.12050580978,-0.437130957842,0.0,5.01728820801,-0.741057157516,0.0,3.81735539436,-0.728375732899,0.0,3.82380175591,-0.118409782648,0.0,5.02373456955,-0.131091207266,0.0
1449616921308937901,200,1449616921308808827,odom,5.14056682587,-0.443427860737,0.0,5.03414344788,-0.746246278286,0.0,3.83441138268,-0.720884859562,0.0,3.8473033905,-0.111021101475,0.0,5.04703521729,-0.1363825351,0.0
1449616921596470861,201,1449616921587701073,odom,5.15784215927,-0.443762600422,0.0,5.05141878128,-0.746581017971,0.0,3.85168671608,-0.721219599247,0.0,3.86457872391,-0.11135584861,0.0,5.06431055069,-0.136717274785,0.0
1449616921740499934,202,1449616921740354548,odom,5.17511701584,-0.44412779808,0.0,5.06869316101,-0.74694621563,0.0,3.86896133423,-0.721584796906,0.0,3.88185334206,-0.111721016467,0.0,5.08158540726,-0.137082442641,0.0
1449616921961683288,203,1449616921957894814,odom,5.18935108185,-0.450545012951,0.0,5.07973337173,-0.752221882343,0.0,3.88033628464,-0.714183270931,0.0,3.89967250824,-0.104489803314,0.0,5.09906959534,-0.142528414726,0.0
1449616922180555613,204,1449616922175668285,odom,5.20390462875,-0.444888532162,0.0,5.09748077393,-0.747706949711,0.0,3.89774870872,-0.722345530987,0.0,3.91064071655,-0.112481765449,0.0,5.11037302017,-0.137843191624,0.0
1449616922340612288,205,1449616922339323165,odom,5.21541929245,-0.445192813873,0.0,5.10899591446,-0.748011231422,0.0,3.90926384926,-0.722649812698,0.0,3.92215585709,-0.112786062062,0.0,5.12188768387,-0.138147488236,0.0
1449616922550871965,206,1449616922550696036,odom,5.23269271851,-0.445618838072,0.0,5.12626886368,-0.748437285423,0.0,3.9265370369,-0.723075866699,0.0,3.93942904472,-0.11321208626,0.0,5.13916110992,-0.138573512435,0.0
1449616922770008017,207,1449616922768924972,odom,5.24420785904,-0.445923149586,0.0,5.13778400421,-0.748741567135,0.0,3.93805193901,-0.723380148411,0.0,3.95094418526,-0.113516390324,0.0,5.15067625046,-0.138877809048,0.0
1449616922965085791,208,1449616922964396817,odom,5.25572252274,-0.4462274611,0.0,5.14929914474,-0.749045908451,0.0,3.94956707954,-0.723684430122,0.0,3.96245908737,-0.113820686936,0.0,5.16219091415,-0.139182120562,0.0
1449616923129346781,209,1449616923128768253,odom,5.26723766327,-0.446531742811,0.0,5.16081380844,-0.749350190163,0.0,3.96108198166,-0.723988771439,0.0,3.97397398949,-0.114124983549,0.0,5.17370605469,-0.139486417174,0.0
1449616923326029322,210,1449616923322574241,odom,5.2757153511,-0.452766418457,0.0,5.16609716415,-0.754443287849,0.0,3.96670031548,-0.716404676437,0.0,3.98603653908,-0.106711193919,0.0,5.18543338776,-0.144749805331,0.0
1449616923528726827,211,1449616923521461143,odom,5.28451156616,-0.446927338839,0.0,5.17808818817,-0.74974578619,0.0,3.97835612297,-0.724384367466,0.0,3.9912481308,-0.114520587027,0.0,5.19097995758,-0.139882013202,0.0
1449616923745524890,212,1449616923744684254,odom,5.292989254,-0.453162014484,0.0,5.18337154388,-0.754838883877,0.0,3.98397445679,-0.716800272465,0.0,4.00331068039,-0.107106797397,0.0,5.20270776749,-0.145145401359,0.0
1449616923958910360,213,1449616923958742603,odom,5.29602766037,-0.447201222181,0.0,5.18960380554,-0.750019669533,0.0,3.98987197876,-0.724658250809,0.0,4.00276374817,-0.114794462919,0.0,5.20249605179,-0.140155881643,0.0
1449616924145849444,214,1449616924145224552,odom,5.29602766037,-0.447201222181,0.0,5.18960380554,-0.750019669533,0.0,3.98987197876,-0.724658250809,0.0,4.00276374817,-0.114794462919,0.0,5.20249605179,-0.140155881643,0.0
1449616924350353708,215,1449616924350090315,odom,5.29602766037,-0.447201222181,0.0,5.18960380554,-0.750019669533,0.0,3.98987197876,-0.724658250809,0.0,4.00276374817,-0.114794462919,0.0,5.20249605179,-0.140155881643,0.0
1449616924544755959,216,1449616924544420260,odom,5.29602766037,-0.447201222181,0.0,5.18960380554,-0.750019669533,0.0,3.98987197876,-0.724658250809,0.0,4.00276374817,-0.114794462919,0.0,5.20249605179,-0.140155881643,0.0
1449616924740153229,217,1449616924738084426,odom,5.29602766037,-0.447201222181,0.0,5.18960380554,-0.750019669533,0.0,3.98987197876,-0.724658250809,0.0,4.00276374817,-0.114794462919,0.0,5.20249605179,-0.140155881643,0.0
1449616924957894180,218,1449616924954083472,odom,5.29602766037,-0.447201222181,0.0,5.18960380554,-0.750019669533,0.0,3.98987197876,-0.724658250809,0.0,4.00276374817,-0.114794462919,0.0,5.20249605179,-0.140155881643,0.0
1449616925164361564,219,1449616925159973455,odom,5.29602766037,-0.447201222181,0.0,5.18960380554,-0.750019669533,0.0,3.98987197876,-0.724658250809,0.0,4.00276374817,-0.114794462919,0.0,5.20249605179,-0.140155881643,0.0
1449616925333931836,220,1449616925332608934,odom,5.29602766037,-0.447201222181,0.0,5.18960380554,-0.750019669533,0.0,3.98987197876,-0.724658250809,0.0,4.00276374817,-0.114794462919,0.0,5.20249605179,-0.140155881643,0.0
1449616925547204551,221,1449616925546026352,odom,5.29602766037,-0.447201222181,0.0,5.18960380554,-0.750019669533,0.0,3.98987197876,-0.724658250809,0.0,4.00276374817,-0.114794462919,0.0,5.20249605179,-0.140155881643,0.0
1449616925815510665,222,1449616925812775848,odom,5.29602766037,-0.447201222181,0.0,5.18960380554,-0.750019669533,0.0,3.98987197876,-0.724658250809,0.0,4.00276374817,-0.114794462919,0.0,5.20249605179,-0.140155881643,0.0
1449616925950944278,223,1449616925950030069,odom,5.29602766037,-0.447201222181,0.0,5.18960380554,-0.750019669533,0.0,3.98987197876,-0.724658250809,0.0,4.00276374817,-0.114794462919,0.0,5.20249605179,-0.140155881643,0.0
1449616926151003678,224,1449616926147753638,odom,5.29602766037,-0.447201222181,0.0,5.18960380554,-0.750019669533,0.0,3.98987197876,-0.724658250809,0.0,4.00276374817,-0.114794462919,0.0,5.20249605179,-0.140155881643,0.0
1449616926419116819,225,1449616926418852696,odom,5.29602766037,-0.447201222181,0.0,5.18960380554,-0.750019669533,0.0,3.98987197876,-0.724658250809,0.0,4.00276374817,-0.114794462919,0.0,5.20249605179,-0.140155881643,0.0
1449616926558915783,226,1449616926557392434,odom,5.29874658585,-0.45331415534,0.0,5.18912887573,-0.75499099493,0.0,3.98973202705,-0.716952443123,0.0,4.00906801224,-0.107258945704,0.0,5.20846509933,-0.145297557116,0.0
1449616926777675568,227,1449616926777009790,odom,5.30178499222,-0.447353363037,0.0,5.19536161423,-0.750171780586,0.0,3.99562931061,-0.724810361862,0.0,4.00852155685,-0.114946611226,0.0,5.20825338364,-0.1403080374,0.0
1449616926974409629,228,1449616926964235217,odom,5.3075428009,-0.447505533695,0.0,5.20111894608,-0.750323951244,0.0,4.00138711929,-0.72496253252,0.0,4.0142788887,-0.115098759532,0.0,5.21401071548,-0.140460193157,0.0
1449616927149611182,229,1449616927146214558,odom,5.31026172638,-0.453618466854,0.0,5.20064401627,-0.755295336246,0.0,4.00124692917,-0.717256724834,0.0,4.02058315277,-0.107563242316,0.0,5.21998023987,-0.145601853728,0.0
1449616927366209730,230,1449616927364700356,odom,5.31330013275,-0.447657674551,0.0,5.20687627792,-0.750476121902,0.0,4.00714445114,-0.725114643574,0.0,4.02003669739,-0.115250907838,0.0,5.21976852417,-0.140612334013,0.0
1449616927554377966,231,1449616927540369764,odom,5.31601905823,-0.45377060771,0.0,5.20640134811,-0.7554474473,0.0,4.00700426102,-0.717408835888,0.0,4.02634048462,-0.107715398073,0.0,5.22573757172,-0.145753994584,0.0
1449616927809923791,232,1449616927802333638,odom,5.3190574646,-0.447809815407,0.0,5.21263408661,-0.750628232956,0.0,4.01290178299,-0.725266814232,0.0,4.02579402924,-0.115403056145,0.0,5.22552585602,-0.14076448977,0.0
1449616927993356506,233,1449616927992574292,odom,5.32177686691,-0.453922778368,0.0,5.21215867996,-0.755599617958,0.0,4.0127620697,-0.717561006546,0.0,4.0320982933,-0.10786754638,0.0,5.2314953804,-0.145906150341,0.0
1449616928192430077,234,1449616928190137670,odom,5.32481527328,-0.447961956263,0.0,5.21839141846,-0.750780403614,0.0,4.01865959167,-0.72541898489,0.0,4.03155136108,-0.115555204451,0.0,5.2312836647,-0.140916630626,0.0
1449616928437627456,235,1449616928435909650,odom,5.32481527328,-0.447961956263,0.0,5.21839141846,-0.750780403614,0.0,4.01865959167,-0.72541898489,0.0,4.03155136108,-0.115555204451,0.0,5.2312836647,-0.140916630626,0.0
1449616928517882557,236,1449616928516503026,odom,5.32753419876,-0.454074919224,0.0,5.21791648865,-0.755751788616,0.0,4.01851940155,-0.717713177204,0.0,4.03785562515,-0.108019694686,0.0,5.23725271225,-0.146058291197,0.0
1449616928736648726,237,1449616928727023613,odom,5.32753419876,-0.454074919224,0.0,5.21791648865,-0.755751788616,0.0,4.01851940155,-0.717713177204,0.0,4.03785562515,-0.108019694686,0.0,5.23725271225,-0.146058291197,0.0
1449616928937793676,238,1449616928934138272,odom,5.33057260513,-0.448114126921,0.0,5.22414875031,-0.750932574272,0.0,4.02441692352,-0.725571095943,0.0,4.03730916977,-0.115707352757,0.0,5.23704099655,-0.141068786383,0.0
1449616929175048657,239,1449616929173261144,odom,5.33633136749,-0.448205411434,0.0,5.22990751266,-0.751023828983,0.0,4.03017568588,-0.725662410259,0.0,4.04306793213,-0.115798652172,0.0,5.24279975891,-0.141160085797,0.0
1449616929461660715,240,1449616929455626333,odom,5.34506511688,-0.442304134369,0.0,5.24184751511,-0.746230304241,0.0,4.04191446304,-0.733548939228,0.0,4.04836082458,-0.123582959175,0.0,5.24829387665,-0.136264383793,0.0
1449616929586322896,241,1449616929584447476,odom,5.36234283447,-0.442486733198,0.0,5.2591252327,-0.746412932873,0.0,4.05919265747,-0.733731508255,0.0,4.06563901901,-0.123765558004,0.0,5.26557159424,-0.136446982622,0.0
1449616929757135214,242,1449616929754502279,odom,5.38253307343,-0.436493486166,0.0,5.28253316879,-0.741493523121,0.0,4.08253335953,-0.741493523121,0.0,4.08253335953,-0.131493493915,0.0,5.28253316879,-0.131493493915,0.0
1449616930017796434,243,1449616930002530120,odom,5.4084186554,-0.430317670107,0.0,5.31164741516,-0.736357390881,0.0,4.1117143631,-0.749038815498,0.0,4.10526800156,-0.13907289505,0.0,5.30520105362,-0.126391470432,0.0
1449616930244168170,244,1449616930224721283,odom,5.43695545197,-0.417725265026,0.0,5.34667396545,-0.725741863251,0.0,4.14727687836,-0.763780474663,0.0,4.12794065475,-0.154087007046,0.0,5.32733726501,-0.116048403084,0.0
1449616930393570312,245,1449616930391910234,odom,5.46838855743,-0.410549402237,0.0,5.38136720657,-0.719502925873,0.0,4.18243932724,-0.770214438438,0.0,4.15666103363,-0.160759344697,0.0,5.35558891296,-0.110047824681,0.0
1449616930549918176,246,1449616930549573362,odom,5.49398708344,-0.403224378824,0.0,5.41023540497,-0.713080227375,0.0,4.2119102478,-0.776459038258,0.0,4.17969274521,-0.167310416698,0.0,5.37801790237,-0.103931620717,0.0
1449616930770035284,247,1449616930769199959,odom,5.52196550369,-0.389406830072,0.0,5.44478130341,-0.700963556767,0.0,4.24806308746,-0.789654195309,0.0,4.20297861099,-0.181322544813,0.0,5.39969682693,-0.0926318839192,0.0
1449616930968025635,248,1449616930966537591,odom,5.54732847214,-0.381395369768,0.0,5.47344112396,-0.69375038147,0.0,4.27772712708,-0.795082807541,0.0,4.22621631622,-0.187261581421,0.0,5.42193031311,-0.0859291255474,0.0
1449616931136190279,249,1449616931128773802,odom,5.57259988785,-0.37305572629,0.0,5.50201749802,-0.686174094677,0.0,4.30744123459,-0.800137042999,0.0,4.24951028824,-0.192894086242,0.0,5.44408655167,-0.0789311677217,0.0
1449616931359110681,250,1449616931346439453,odom,5.59422874451,-0.358554691076,0.0,5.53027963638,-0.67309486866,0.0,4.33837890625,-0.812279105186,0.0,4.26762676239,-0.206396147609,0.0,5.45952796936,-0.0672118812799,0.0
1449616931578942427,251,1449616931570853133,odom,5.6135134697,-0.350176841021,0.0,5.55289173126,-0.665375232697,0.0,4.36252832413,-0.817147552967,0.0,4.28537750244,-0.212046146393,0.0,5.47574090958,-0.0602738149464,0.0
1449616931789559688,252,1449616931788579550,odom,5.62699127197,-0.342293918133,0.0,5.56970405579,-0.658115386963,0.0,4.38101100922,-0.822458803654,0.0,4.29746961594,-0.218206480145,0.0,5.48616313934,-0.0538630411029,0.0
1449616931966731521,253,1449616931958539942,odom,5.64038085938,-0.334238886833,0.0,5.58643436432,-0.650648117065,0.0,4.39954423904,-0.827544271946,0.0,4.30962228775,-0.224208563566,0.0,5.49651241302,-0.0473123677075,0.0
1449616932154598170,254,1449616932150099872,odom,5.64038085938,-0.334238886833,0.0,5.58643436432,-0.650648117065,0.0,4.39954423904,-0.827544271946,0.0,4.30962228775,-0.224208563566,0.0,5.49651241302,-0.0473123677075,0.0
1449616932329214482,255,1449616932328726026,odom,5.64230489731,-0.327831119299,0.0,5.59170532227,-0.644792735577,0.0,4.40675115585,-0.834221959114,0.0,4.31045818329,-0.231870189309,0.0,5.4954123497,-0.0424409992993,0.0
1449616932557157217,256,1449616932550026375,odom,5.6402721405,-0.315925598145,0.0,5.59638309479,-0.633885860443,0.0,4.41569662094,-0.848316192627,0.0,4.3066945076,-0.248134061694,0.0,5.48738098145,-0.0337037406862,0.0
1449616932766342216,257,1449616932762846438,odom,5.63958358765,-0.297624975443,0.0,5.60579490662,-0.6168166399,0.0,4.43249940872,-0.868565618992,0.0,4.30452728271,-0.272140353918,0.0,5.47782278061,-0.0203914102167,0.0
1449616932925737627,258,1449616932922841799,odom,5.63831472397,-0.279355347157,0.0,5.61466121674,-0.599457681179,0.0,4.44993543625,-0.888272225857,0.0,4.30312156677,-0.296203285456,0.0,5.46784734726,-0.00738874962553,0.0
1449616933131814580,259,1449616933124624493,odom,5.63756608963,-0.254535466433,0.0,5.62746095657,-0.575351417065,0.0,4.4759812355,-0.91312879324,0.0,4.30427742004,-0.327793061733,0.0,5.45575761795,0.00998430233449,0.0
1449616933322684643,260,1449616933318290220,odom,5.63027858734,-0.231506839395,0.0,5.63373994827,-0.552463233471,0.0,4.49756288528,-0.938599944115,0.0,4.30127668381,-0.361043274403,0.0,5.4374537468,0.0250934641808,0.0
1449616933556022823,261,1449616933555508807,odom,5.62205600739,-0.208892285824,0.0,5.63907814026,-0.529415667057,0.0,4.52023410797,-0.963221848011,0.0,4.29971599579,-0.394476085901,0.0,5.41856002808,0.039330098778,0.0
1449616933711548478,262,1449616933709248781,odom,5.61308097839,-0.179985672235,0.0,5.6470079422,-0.49916267395,0.0,4.55263710022,-0.991455852985,0.0,4.30238819122,-0.435150712729,0.0,5.3967590332,0.0571424774826,0.0
1449616933935815383,263,1449616933927423592,odom,5.60273456573,-0.158226922154,0.0,5.65011978149,-0.475685060024,0.0,4.5775308609,-1.01378619671,0.0,4.30399608612,-0.468553394079,0.0,5.37658500671,0.0695477053523,0.0
1449616934159581776,264,1449616934159466823,odom,5.59105491638,-0.130303323269,0.0,5.65514039993,-0.444815725088,0.0,4.61246871948,-1.03881525993,0.0,4.31051921844,-0.508790373802,0.0,5.3531908989,0.085209146142,0.0
1449616934305261950,265,1449616934304235661,odom,5.58431816101,-0.113241560757,0.0,5.65834140778,-0.425564467907,0.0,4.63502216339,-1.05231702328,0.0,4.31642341614,-0.532129943371,0.0,5.33974218369,0.0946225896478,0.0
1449616934505952085,266,1449616934505407717,odom,5.57508611679,-0.0831652060151,0.0,5.66550111771,-0.391142606735,0.0,4.67671298981,-1.07106757164,0.0,4.3310842514,-0.568433642387,0.0,5.31987285614,0.111491374671,0.0
1449616934718167241,267,1449616934717510565,odom,5.5628285408,-0.0470585562289,0.0,5.67257738113,-0.348687797785,0.0,4.72886037827,-1.08990180492,0.0,4.35207653046,-0.610178947449,0.0,5.29579401016,0.131035044789,0.0
1449616934964217692,268,1449616934957739315,odom,5.55278110504,-0.00817206967622,0.0,5.68142223358,-0.302240818739,0.0,4.78656959534,-1.10176467896,0.0,4.3801445961,-0.646881043911,0.0,5.27499771118,0.152642741799,0.0
1449616935144216742,269,1449616935143928317,odom,5.54026842117,0.0300217363983,0.0,5.68728542328,-0.255304604769,0.0,4.84489297867,-1.10992467403,0.0,4.41046142578,-0.681708753109,0.0,5.25285339355,0.172911390662,0.0
1449616935329262398,270,1449616935326261470,odom,5.51476049423,0.102175183594,0.0,5.69387865067,-0.164173409343,0.0,4.95629692078,-1.11073195934,0.0,4.47512960434,-0.735794484615,0.0,5.21271133423,0.210764035583,0.0
1449616935507736092,271,1449616935507436116,odom,5.49883985519,0.15270857513,0.0,5.6971540451,-0.0996731072664,0.0,5.03154850006,-1.0981566906,0.0,4.52398633957,-0.759807169437,0.0,5.18959140778,0.238676354289,0.0
1449616935704003276,272,1449616935703725801,odom,5.48986673355,0.195771753788,0.0,5.70123386383,-0.0457835942507,0.0,5.08929300308,-1.07802796364,0.0,4.56456851959,-0.766957938671,0.0,5.17650938034,0.265286386013,0.0
1449616935909550201,273,1449616935908386143,odom,5.48838806152,0.242900162935,0.0,5.70977449417,0.0104929022491,0.0,5.14200258255,-1.04668962955,0.0,4.60460138321,-0.758072197437,0.0,5.17237329483,0.299110352993,0.0
1449616936099803153,274,1449616936097471267,odom,5.49201774597,0.289647221565,0.0,5.72065973282,0.0643744319677,0.0,5.18668460846,-1.01027452946,0.0,4.64040470123,-0.738837182522,0.0,5.17437982559,0.335811853409,0.0
