%time,field.x,field.y,field.z
1449616880262890585,0.0,0.0,266.0
1449616880265191614,0.0,0.0,272.0
1449616880267565194,0.0,0.0,268.0
1449616880277790656,0.0,0.0,266.0
1449616880294219741,0.0,0.0,269.0
1449616880310586399,0.0,0.0,267.0
1449616880322852398,0.0,0.0,268.0
1449616880339227102,0.0,0.0,269.0
1449616880355696949,0.0,0.0,269.0
1449616880367902442,0.0,0.0,265.0
1449616880384379018,0.0,0.0,270.0
1449616880400764561,0.0,0.0,268.0
1449616880413188919,0.0,0.0,267.0
1449616880429466683,0.0,0.0,263.0
1449616880445823100,0.0,0.0,266.0
1449616880458046937,0.0,0.0,270.0
1449616880474481212,0.0,0.0,270.0
1449616880486805085,0.0,0.0,269.0
1449616880503184751,0.0,0.0,264.0
1449616880519729418,0.0,0.0,267.0
1449616880531805886,0.0,0.0,267.0
1449616880548259333,0.0,0.0,267.0
1449616880564609043,0.0,0.0,267.0
1449616880578178393,0.0,0.0,272.0
1449616880593204984,0.0,0.0,268.0
1449616880609627608,0.0,0.0,269.0
1449616880621935543,0.0,0.0,269.0
1449616880638275509,0.0,0.0,273.0
1449616880654723124,0.0,0.0,265.0
1449616880666960840,0.0,0.0,268.0
1449616880683420008,0.0,0.0,274.0
1449616880699696048,0.0,0.0,268.0
1449616880712147664,0.0,0.0,270.0
1449616880728411877,0.0,0.0,268.0
1449616880744761056,0.0,0.0,273.0
1449616880757114128,0.0,0.0,267.0
1449616880782309184,0.0,0.0,273.0
1449616880791339767,0.0,0.0,267.0
1449616880806221062,0.0,0.0,264.0
1449616880822610168,0.0,0.0,272.0
1449616880834960757,0.0,0.0,263.0
1449616880851427704,0.0,0.0,271.0
1449616880867728154,0.0,0.0,259.0
1449616880880039729,0.0,0.0,274.0
1449616880896388242,0.0,0.0,275.0
1449616880912785654,0.0,0.0,265.0
1449616880925032508,0.0,0.0,267.0
1449616880941451186,0.0,0.0,268.0
1449616880957827812,0.0,0.0,273.0
1449616880970067927,0.0,0.0,264.0
1449616880986674339,0.0,0.0,270.0
1449616880998764721,0.0,0.0,264.0
1449616881015339721,0.0,0.0,272.0
1449616881031540919,0.0,0.0,264.0
1449616881043947888,0.0,0.0,267.0
1449616881060226697,0.0,0.0,265.0
1449616881076774221,0.0,0.0,260.0
1449616881088932141,0.0,0.0,262.0
1449616881105372053,0.0,0.0,252.0
1449616881121687635,0.0,0.0,252.0
1449616881133925396,0.0,0.0,249.0
1449616881150856060,0.0,0.0,252.0
1449616881166795666,0.0,0.0,250.0
1449616881181639232,0.0,0.0,250.0
1449616881195505542,0.0,0.0,249.0
1449616881212475317,0.0,0.0,251.0
1449616881224097517,0.0,0.0,251.0
1449616881240446999,0.0,0.0,260.0
1449616881256858261,0.0,0.0,262.0
1449616881269166116,0.0,0.0,261.0
1449616881285577629,0.0,0.0,265.0
1449616881301992259,0.0,0.0,261.0
1449616881314215684,0.0,0.0,262.0
1449616881330595158,0.0,0.0,257.0
1449616881347184494,0.0,0.0,254.0
1449616881359638072,0.0,0.0,254.0
1449616881375668306,0.0,0.0,258.0
1449616881389166493,0.0,0.0,260.0
1449616881404366469,0.0,0.0,260.0
1449616881420764678,0.0,0.0,262.0
1449616881433028037,0.0,0.0,259.0
1449616881449414780,0.0,0.0,259.0
1449616881465832471,0.0,0.0,254.0
1449616881478225196,0.0,0.0,256.0
1449616881494568519,0.0,0.0,258.0
1449616881511043092,0.0,0.0,257.0
1449616881523728524,0.0,0.0,256.0
1449616881539708472,0.0,0.0,258.0
1449616881556007960,0.0,0.0,261.0
1449616881569367011,0.0,0.0,257.0
1449616881586249884,0.0,0.0,258.0
1449616881600975038,0.0,0.0,260.0
1449616881614888029,0.0,0.0,259.0
1449616881629683621,0.0,0.0,260.0
1449616881646105834,0.0,0.0,250.0
1449616881663089819,0.0,0.0,258.0
1449616881674837542,0.0,0.0,262.0
1449616881691309114,0.0,0.0,260.0
1449616881703561628,0.0,0.0,260.0
1449616881720035237,0.0,0.0,257.0
1449616881736265702,0.0,0.0,257.0
1449616881748538396,0.0,0.0,256.0
1449616881764827186,0.0,0.0,257.0
1449616881777188001,0.0,0.0,257.0
1449616881793671329,0.0,0.0,255.0
1449616881809896726,0.0,0.0,261.0
1449616881823259872,0.0,0.0,258.0
1449616881838644270,0.0,0.0,258.0
1449616881855430300,0.0,0.0,264.0
1449616881867765662,0.0,0.0,257.0
1449616881883741219,0.0,0.0,258.0
1449616881900243252,0.0,0.0,258.0
1449616881914199327,0.0,0.0,254.0
1449616881929535609,0.0,0.0,254.0
1449616881946111012,0.0,0.0,255.0
1449616881958070480,0.0,0.0,255.0
1449616881973978688,0.0,0.0,251.0
1449616881990378947,0.0,0.0,258.0
1449616882002544680,0.0,0.0,254.0
1449616882018988887,0.0,0.0,250.0
1449616882035375002,0.0,0.0,258.0
1449616882047661310,0.0,0.0,251.0
1449616882064482587,0.0,0.0,253.0
1449616882080421148,0.0,0.0,251.0
1449616882092633246,0.0,0.0,251.0
1449616882110685059,0.0,0.0,250.0
1449616882125571404,0.0,0.0,252.0
1449616882137679709,0.0,0.0,253.0
1449616882154347317,0.0,0.0,256.0
1449616882166517783,0.0,0.0,254.0
1449616882182849520,0.0,0.0,255.0
1449616882200516992,0.0,0.0,258.0
1449616882214294071,0.0,0.0,256.0
1449616882228002388,0.0,0.0,256.0
1449616882244790275,0.0,0.0,258.0
1449616882257044416,0.0,0.0,255.0
1449616882273035075,0.0,0.0,254.0
1449616882289883737,0.0,0.0,254.0
1449616882302058408,0.0,0.0,254.0
1449616882318502154,0.0,0.0,252.0
1449616882334755074,0.0,0.0,256.0
1449616882346999248,0.0,0.0,259.0
1449616882363418450,0.0,0.0,255.0
1449616882380193969,0.0,0.0,253.0
1449616882392273152,0.0,0.0,256.0
1449616882408989018,0.0,0.0,253.0
1449616882424967273,0.0,0.0,258.0
1449616882444337951,0.0,0.0,256.0
1449616882457180329,0.0,0.0,258.0
1449616882472262552,0.0,0.0,254.0
1449616882486464246,0.0,0.0,254.0
1449616882502558054,0.0,0.0,255.0
1449616882514716023,0.0,0.0,253.0
1449616882531017240,0.0,0.0,250.0
1449616882543524802,0.0,0.0,254.0
1449616882560004536,0.0,0.0,254.0
1449616882576051634,0.0,0.0,251.0
1449616882588467720,0.0,0.0,256.0
1449616882604661528,0.0,0.0,255.0
1449616882622248514,0.0,0.0,255.0
1449616882634075436,0.0,0.0,256.0
1449616882650908753,0.0,0.0,252.0
1449616882666293516,0.0,0.0,253.0
1449616882679704023,0.0,0.0,254.0
1449616882694989421,0.0,0.0,254.0
1449616882712462729,0.0,0.0,255.0
1449616882727863982,0.0,0.0,253.0
1449616882746679032,0.0,0.0,253.0
1449616882756352303,0.0,0.0,254.0
1449616882769233814,0.0,0.0,255.0
1449616882785059673,0.0,0.0,252.0
1449616882801979963,0.0,0.0,255.0
1449616882813889313,0.0,0.0,254.0
1449616882830571156,0.0,0.0,254.0
1449616882849643123,0.0,0.0,261.0
1449616882859573035,0.0,0.0,253.0
1449616882875296152,0.0,0.0,252.0
1449616882891907482,0.0,0.0,252.0
1449616882905382350,0.0,0.0,255.0
1449616882920181602,0.0,0.0,249.0
1449616882932613632,0.0,0.0,251.0
1449616882949266399,0.0,0.0,249.0
1449616882965299560,0.0,0.0,250.0
1449616882977433798,0.0,0.0,255.0
1449616882993914912,0.0,0.0,251.0
1449616883010518502,0.0,0.0,253.0
1449616883022738707,0.0,0.0,253.0
1449616883039067188,0.0,0.0,251.0
1449616883055201491,0.0,0.0,254.0
1449616883067804189,0.0,0.0,256.0
1449616883084340723,0.0,0.0,250.0
1449616883101258932,0.0,0.0,250.0
1449616883113499034,0.0,0.0,251.0
1449616883129432308,0.0,0.0,256.0
1449616883145682573,0.0,0.0,251.0
1449616883158002076,0.0,0.0,244.0
1449616883177639199,0.0,0.0,250.0
1449616883190685370,0.0,0.0,250.0
1449616883202881124,0.0,0.0,249.0
1449616883219224289,0.0,0.0,253.0
1449616883235604367,0.0,0.0,254.0
1449616883248059665,0.0,0.0,254.0
1449616883264600530,0.0,0.0,246.0
1449616883281931667,0.0,0.0,251.0
1449616883293730067,0.0,0.0,251.0
1449616883309271928,0.0,0.0,248.0
1449616883325955402,0.0,0.0,251.0
1449616883339067926,0.0,0.0,252.0
1449616883354595682,0.0,0.0,253.0
1449616883367821472,0.0,0.0,255.0
1449616883382967889,0.0,0.0,253.0
1449616883399796529,0.0,0.0,251.0
1449616883411974722,0.0,0.0,250.0
1449616883428787029,0.0,0.0,249.0
1449616883444885115,0.0,0.0,255.0
1449616883457100584,0.0,0.0,246.0
1449616883473207714,0.0,0.0,251.0
1449616883489781217,0.0,0.0,251.0
1449616883501950960,0.0,0.0,251.0
1449616883518409323,0.0,0.0,250.0
1449616883534967540,0.0,0.0,248.0
1449616883546959313,0.0,0.0,254.0
1449616883563291934,0.0,0.0,239.0
1449616883579744980,0.0,0.0,252.0
1449616883592082349,0.0,0.0,249.0
1449616883608364909,0.0,0.0,249.0
1449616883624941461,0.0,0.0,251.0
1449616883637363924,0.0,0.0,249.0
1449616883653784768,0.0,0.0,253.0
1449616883670708824,0.0,0.0,251.0
1449616883682390083,0.0,0.0,250.0
1449616883700126749,0.0,0.0,251.0
1449616883711182469,0.0,0.0,249.0
1449616883727440295,0.0,0.0,250.0
1449616883744232392,0.0,0.0,250.0
1449616883755812074,0.0,0.0,256.0
1449616883772312285,0.0,0.0,249.0
1449616883788463890,0.0,0.0,251.0
1449616883800830023,0.0,0.0,252.0
1449616883817427573,0.0,0.0,252.0
1449616883833563277,0.0,0.0,251.0
1449616883845872471,0.0,0.0,252.0
1449616883862425708,0.0,0.0,247.0
1449616883878827016,0.0,0.0,251.0
1449616883891163108,0.0,0.0,252.0
1449616883909436543,0.0,0.0,250.0
1449616883925579350,0.0,0.0,251.0
1449616883936209766,0.0,0.0,251.0
1449616883952416389,0.0,0.0,249.0
1449616883969104243,0.0,0.0,250.0
1449616883982910648,0.0,0.0,248.0
1449616883997712508,0.0,0.0,250.0
1449616884013932771,0.0,0.0,249.0
1449616884027682656,0.0,0.0,251.0
1449616884042650713,0.0,0.0,249.0
1449616884059696249,0.0,0.0,248.0
1449616884071711288,0.0,0.0,255.0
1449616884088021428,0.0,0.0,251.0
1449616884100439385,0.0,0.0,250.0
1449616884116232975,0.0,0.0,247.0
1449616884132648376,0.0,0.0,250.0
1449616884146310826,0.0,0.0,253.0
1449616884161966624,0.0,0.0,247.0
1449616884177986012,0.0,0.0,250.0
1449616884191584993,0.0,0.0,250.0
1449616884206526475,0.0,0.0,250.0
1449616884223085042,0.0,0.0,250.0
1449616884237161478,0.0,0.0,244.0
1449616884251538043,0.0,0.0,251.0
1449616884268279829,0.0,0.0,250.0
1449616884280578331,0.0,0.0,254.0
1449616884296646017,0.0,0.0,248.0
1449616884317922465,0.0,0.0,248.0
1449616884325145103,0.0,0.0,250.0
1449616884341802297,0.0,0.0,250.0
1449616884357989829,0.0,0.0,248.0
1449616884384364921,0.0,0.0,247.0
1449616884387256539,0.0,0.0,249.0
1449616884403888742,0.0,0.0,249.0
1449616884415662858,0.0,0.0,249.0
1449616884431964366,0.0,0.0,246.0
1449616884449614470,0.0,0.0,250.0
1449616884460932795,0.0,0.0,249.0
1449616884477825191,0.0,0.0,250.0
1449616884493748552,0.0,0.0,247.0
1449616884505868502,0.0,0.0,249.0
1449616884525486228,0.0,0.0,249.0
1449616884534639386,0.0,0.0,255.0
1449616884550759989,0.0,0.0,250.0
1449616884570109090,0.0,0.0,245.0
1449616884579406805,0.0,0.0,246.0
1449616884595796733,0.0,0.0,249.0
1449616884611990731,0.0,0.0,247.0
1449616884625057128,0.0,0.0,249.0
1449616884647648590,0.0,0.0,245.0
1449616884657738211,0.0,0.0,248.0
1449616884669851882,0.0,0.0,251.0
1449616884685676802,0.0,0.0,245.0
1449616884702109165,0.0,0.0,244.0
1449616884714517050,0.0,0.0,248.0
1449616884730841377,0.0,0.0,245.0
1449616884749880487,0.0,0.0,248.0
1449616884760517446,0.0,0.0,246.0
1449616884780627544,0.0,0.0,243.0
1449616884792376026,0.0,0.0,246.0
1449616884804821686,0.0,0.0,249.0
1449616884821130997,0.0,0.0,248.0
1449616884837517054,0.0,0.0,251.0
1449616884849663238,0.0,0.0,248.0
1449616884867253760,0.0,0.0,248.0
1449616884878615146,0.0,0.0,248.0
1449616884895117051,0.0,0.0,249.0
1449616884912610905,0.0,0.0,244.0
1449616884928087738,0.0,0.0,249.0
1449616884943985469,0.0,0.0,245.0
1449616884956173837,0.0,0.0,248.0
1449616884973501065,0.0,0.0,246.0
1449616884992052866,0.0,0.0,249.0
1449616885001149722,0.0,0.0,249.0
1449616885018202761,0.0,0.0,249.0
1449616885033862338,0.0,0.0,249.0
1449616885047715358,0.0,0.0,248.0
1449616885062750347,0.0,0.0,248.0
1449616885079183367,0.0,0.0,247.0
1449616885094432476,0.0,0.0,248.0
1449616885107740342,0.0,0.0,248.0
1449616885123922218,0.0,0.0,249.0
1449616885136323214,0.0,0.0,247.0
1449616885153029376,0.0,0.0,248.0
1449616885169024063,0.0,0.0,246.0
1449616885181533679,0.0,0.0,251.0
1449616885197838249,0.0,0.0,244.0
1449616885215146293,0.0,0.0,247.0
1449616885226565158,0.0,0.0,248.0
1449616885243004286,0.0,0.0,245.0
1449616885255969555,0.0,0.0,244.0
1449616885271655949,0.0,0.0,246.0
1449616885288113974,0.0,0.0,245.0
1449616885301712845,0.0,0.0,244.0
1449616885316767736,0.0,0.0,252.0
1449616885333080468,0.0,0.0,243.0
1449616885350096730,0.0,0.0,245.0
1449616885361770582,0.0,0.0,248.0
1449616885378279567,0.0,0.0,244.0
1449616885390580644,0.0,0.0,248.0
1449616885406925879,0.0,0.0,249.0
1449616885423409378,0.0,0.0,246.0
1449616885436279673,0.0,0.0,243.0
1449616885452057914,0.0,0.0,250.0
1449616885469394048,0.0,0.0,250.0
1449616885480332641,0.0,0.0,246.0
1449616885497801386,0.0,0.0,244.0
1449616885513263002,0.0,0.0,248.0
1449616885525625155,0.0,0.0,247.0
1449616885541872713,0.0,0.0,246.0
1449616885560317333,0.0,0.0,247.0
1449616885571057083,0.0,0.0,248.0
1449616885587414203,0.0,0.0,247.0
1449616885603907555,0.0,0.0,247.0
1449616885632444402,0.0,0.0,246.0
1449616885710373571,0.0,0.0,248.0
1449616885722218313,0.0,0.0,244.0
1449616885738521178,0.0,0.0,244.0
1449616885754802516,0.0,0.0,242.0
1449616885767448785,0.0,0.0,247.0
1449616885784102066,0.0,0.0,248.0
1449616885800036602,0.0,0.0,243.0
1449616885812978379,0.0,0.0,249.0
1449616885828588532,0.0,0.0,245.0
1449616885840928262,0.0,0.0,247.0
1449616885860272454,0.0,0.0,248.0
1449616885874452254,0.0,0.0,245.0
1449616885886202892,0.0,0.0,247.0
1449616885902484978,0.0,0.0,248.0
1449616885918706470,0.0,0.0,248.0
1449616885934085973,0.0,0.0,243.0
1449616885947723873,0.0,0.0,247.0
1449616885963966157,0.0,0.0,250.0
1449616885976093917,0.0,0.0,247.0
1449616885992941205,0.0,0.0,247.0
1449616886009691242,0.0,0.0,245.0
1449616886021573100,0.0,0.0,246.0
1449616886037721432,0.0,0.0,247.0
1449616886056824126,0.0,0.0,246.0
1449616886066180660,0.0,0.0,247.0
1449616886082903114,0.0,0.0,246.0
1449616886098965361,0.0,0.0,249.0
1449616886111382608,0.0,0.0,246.0
1449616886127786102,0.0,0.0,247.0
1449616886144384202,0.0,0.0,244.0
1449616886156446547,0.0,0.0,246.0
1449616886173768891,0.0,0.0,245.0
1449616886189110410,0.0,0.0,245.0
1449616886201467007,0.0,0.0,247.0
1449616886218629609,0.0,0.0,245.0
1449616886230756224,0.0,0.0,242.0
1449616886250388723,0.0,0.0,244.0
1449616886265414746,0.0,0.0,247.0
1449616886275204144,0.0,0.0,248.0
1449616886291884324,0.0,0.0,248.0
1449616886308188903,0.0,0.0,249.0
1449616886326722734,0.0,0.0,246.0
1449616886336719714,0.0,0.0,249.0
1449616886352987461,0.0,0.0,248.0
1449616886365328131,0.0,0.0,244.0
1449616886381690522,0.0,0.0,246.0
1449616886400842468,0.0,0.0,245.0
1449616886410319560,0.0,0.0,248.0
1449616886427222580,0.0,0.0,245.0
1449616886447793890,0.0,0.0,246.0
1449616886456371314,0.0,0.0,245.0
1449616886474349554,0.0,0.0,248.0
1449616886493730639,0.0,0.0,249.0
1449616886503553978,0.0,0.0,245.0
1449616886518898077,0.0,0.0,246.0
1449616886535156560,0.0,0.0,247.0
1449616886545746811,0.0,0.0,246.0
1449616886561794649,0.0,0.0,246.0
1449616886578551678,0.0,0.0,247.0
1449616886593681514,0.0,0.0,246.0
1449616886607667683,0.0,0.0,246.0
1449616886619524472,0.0,0.0,248.0
1449616886635846314,0.0,0.0,245.0
1449616886653266032,0.0,0.0,240.0
1449616886668487140,0.0,0.0,243.0
1449616886681523583,0.0,0.0,244.0
1449616886697189676,0.0,0.0,243.0
1449616886709623470,0.0,0.0,244.0
1449616886725842926,0.0,0.0,245.0
1449616886742128269,0.0,0.0,248.0
1449616886757795533,0.0,0.0,245.0
1449616886771186863,0.0,0.0,246.0
1449616886790274833,0.0,0.0,244.0
1449616886800033947,0.0,0.0,245.0
1449616886816262634,0.0,0.0,246.0
1449616886834181456,0.0,0.0,245.0
1449616886844724816,0.0,0.0,272.0
1449616886861610283,0.0,0.0,244.0
1449616886877684537,0.0,0.0,247.0
1449616886889701583,0.0,0.0,246.0
1449616886905991598,0.0,0.0,247.0
1449616886924634226,0.0,0.0,244.0
1449616886937857757,0.0,0.0,246.0
1449616886951790094,0.0,0.0,242.0
1449616886973340016,0.0,0.0,244.0
1449616886981626242,0.0,0.0,241.0
1449616887001239520,0.0,0.0,244.0
1449616887009514688,0.0,0.0,247.0
1449616887024704393,0.0,0.0,237.0
1449616887041192196,0.0,0.0,243.0
1449616887053788344,0.0,0.0,251.0
1449616887070799097,0.0,0.0,243.0
1449616887087862603,0.0,0.0,244.0
1449616887098586718,0.0,0.0,246.0
1449616887114881151,0.0,0.0,249.0
1449616887131276836,0.0,0.0,245.0
1449616887143804627,0.0,0.0,245.0
1449616887159989455,0.0,0.0,243.0
1449616887190114043,0.0,-2.0,244.0
1449616887190117089,0.0,-2.0,272.0
1449616887205693425,0.0,-2.0,250.0
1449616887222161762,0.0,-2.0,251.0
1449616887235685370,0.0,-2.0,252.0
1449616887250551442,0.0,-2.0,249.0
1449616887267267988,0.0,-2.0,249.0
1449616887278912017,0.0,-2.0,250.0
1449616887312268515,-2.0,-4.0,266.0
1449616887312299977,-2.0,-4.0,239.0
1449616887324243255,-2.0,-4.0,261.0
1449616887340388581,-2.0,-4.0,239.0
1449616887356664573,-2.0,-4.0,254.0
1449616887369341798,-2.0,-6.0,231.0
1449616887385616902,-2.0,-6.0,230.0
1449616887399151549,-2.0,-6.0,238.0
1449616887415649505,-4.0,-6.0,269.0
1449616887431286588,-4.0,-6.0,247.0
1449616887442818492,-4.0,-8.0,274.0
1449616887459266822,-4.0,-8.0,251.0
1449616887475657069,-4.0,-8.0,283.0
1449616887488248146,-4.0,-8.0,252.0
1449616887504225125,-6.0,-10.0,291.0
1449616887521396818,-6.0,-10.0,242.0
1449616887532753152,-6.0,-10.0,282.0
1449616887550927802,-6.0,-12.0,234.0
1449616887565843076,-8.0,-12.0,298.0
1449616887581854639,-8.0,-12.0,246.0
1449616887594569100,-8.0,-12.0,303.0
1449616887612083187,-8.0,-14.0,255.0
1449616887623151992,-10.0,-14.0,294.0
1449616887640706480,-10.0,-14.0,242.0
1449616887656716050,-10.0,-16.0,237.0
1449616887668266216,-10.0,-16.0,239.0
1449616887684793591,-12.0,-16.0,246.0
1449616887700901614,-12.0,-16.0,255.0
1449616887720501793,-12.0,-18.0,254.0
1449616887729865456,-14.0,-18.0,246.0
1449616887741635913,-14.0,-20.0,242.0
1449616887758243638,-14.0,-20.0,241.0
1449616887775304768,-16.0,-20.0,253.0
1449616887787065458,-16.0,-22.0,251.0
1449616887803436621,-16.0,-22.0,259.0
1449616887819714062,-18.0,-24.0,249.0
1449616887831885804,-18.0,-24.0,242.0
1449616887848309521,-18.0,-24.0,237.0
1449616887864771240,-20.0,-26.0,248.0
1449616887891730594,-20.0,-26.0,259.0
1449616887893722421,-20.0,-28.0,256.0
1449616887910114041,-22.0,-28.0,247.0
1449616887922591689,-22.0,-30.0,241.0
1449616887938396963,-22.0,-30.0,243.0
1449616887955535602,-24.0,-32.0,253.0
1449616887967794120,-24.0,-32.0,258.0
1449616887985993247,-24.0,-34.0,259.0
1449616887999774673,-26.0,-34.0,247.0
1449616888014569590,-26.0,-36.0,245.0
1449616888031131959,-26.0,-36.0,241.0
1449616888048746492,-28.0,-38.0,253.0
1449616888057109746,-28.0,-38.0,258.0
1449616888074201518,-28.0,-40.0,260.0
1449616888098394974,-30.0,-40.0,247.0
1449616888102186635,-30.0,-42.0,243.0
1449616888121354592,-30.0,-42.0,241.0
1449616888131033207,-32.0,-44.0,255.0
1449616888150349405,-32.0,-44.0,260.0
1449616888163810924,-32.0,-44.0,261.0
1449616888182166080,-32.0,-46.0,255.0
1449616888197729902,-34.0,-46.0,290.0
1449616888209719274,-34.0,-46.0,240.0
1449616888225581828,-34.0,-48.0,239.0
1449616888242304331,-34.0,-48.0,242.0
1449616888254442985,-36.0,-48.0,253.0
1449616888271786723,-36.0,-50.0,251.0
1449616888289250785,-36.0,-50.0,260.0
1449616888302086524,-36.0,-50.0,258.0
1449616888317494521,-36.0,-50.0,260.0
1449616888331851071,-36.0,-52.0,260.0
1449616888344033596,-38.0,-52.0,245.0
1449616888361557201,-38.0,-52.0,251.0
1449616888377438618,-38.0,-52.0,248.0
1449616888389242589,-38.0,-54.0,245.0
1449616888405722267,-38.0,-54.0,243.0
1449616888423212114,-38.0,-54.0,245.0
1449616888434658409,-38.0,-54.0,241.0
1449616888450970238,-38.0,-54.0,242.0
1449616888466823460,-38.0,-56.0,245.0
1449616888480999438,-38.0,-56.0,240.0
1449616888496777110,-38.0,-56.0,237.0
1449616888522395889,-38.0,-56.0,239.0
1449616888524606771,-38.0,-56.0,238.0
1449616888541620615,-38.0,-58.0,236.0
1449616888554045976,-38.0,-58.0,239.0
1449616888578207178,-38.0,-58.0,239.0
1449616888586225854,-38.0,-58.0,240.0
1449616888600017228,-38.0,-58.0,246.0
1449616888619331436,-38.0,-58.0,245.0
1449616888631351495,-38.0,-60.0,246.0
1449616888644528457,-38.0,-60.0,247.0
1449616888659481207,-38.0,-60.0,249.0
1449616888676082187,-38.0,-60.0,245.0
1449616888687954417,-38.0,-60.0,243.0
1449616888705310559,-38.0,-60.0,247.0
1449616888721737879,-36.0,-60.0,262.0
1449616888733011470,-36.0,-62.0,263.0
1449616888750065524,-36.0,-62.0,266.0
1449616888765837573,-36.0,-62.0,257.0
1449616888779957171,-36.0,-62.0,263.0
1449616888794695299,-36.0,-62.0,263.0
1449616888811915431,-36.0,-62.0,254.0
1449616888824691652,-36.0,-64.0,260.0
1449616888841186553,-36.0,-64.0,259.0
1449616888860741195,-36.0,-64.0,257.0
1449616888868965872,-34.0,-64.0,245.0
1449616888898465788,-34.0,-64.0,244.0
1449616888901341155,-34.0,-64.0,244.0
1449616888914000424,-34.0,-66.0,248.0
1449616888934841799,-34.0,-66.0,254.0
1449616888943025997,-34.0,-66.0,248.0
1449616888961191961,-32.0,-66.0,256.0
1449616888976836217,-32.0,-66.0,267.0
1449616888992451160,-32.0,-68.0,265.0
1449616889004453342,-32.0,-68.0,263.0
1449616889019806206,-32.0,-68.0,258.0
1449616889034696161,-32.0,-68.0,260.0
1449616889054198497,-32.0,-68.0,253.0
1449616889066915626,-30.0,-70.0,251.0
1449616889077775594,-30.0,-70.0,240.0
1449616889095536805,-30.0,-70.0,246.0
1449616889110802805,-30.0,-70.0,252.0
1449616889124470478,-30.0,-70.0,278.0
1449616889138720741,-28.0,-72.0,260.0
1449616889155347721,-28.0,-72.0,322.0
1449616889169449552,-28.0,-72.0,264.0
1449616889185643335,-28.0,-72.0,311.0
1449616889202725092,-28.0,-72.0,256.0
1449616889212415804,-28.0,-74.0,259.0
1449616889228931771,-28.0,-74.0,252.0
1449616889245841334,-26.0,-74.0,295.0
1449616889260200580,-26.0,-74.0,246.0
1449616889276840248,-26.0,-76.0,296.0
1449616889286178973,-26.0,-76.0,251.0
1449616889304786042,-26.0,-76.0,301.0
1449616889324178437,-24.0,-76.0,257.0
1449616889331986464,-24.0,-76.0,313.0
1449616889349051366,-24.0,-78.0,269.0
1449616889365760825,-24.0,-78.0,269.0
1449616889376252283,-24.0,-78.0,256.0
1449616889392829344,-24.0,-78.0,304.0
1449616889409606291,-24.0,-78.0,261.0
1449616889421407155,-24.0,-78.0,283.0
1449616889441139738,-24.0,-80.0,261.0
1449616889454281345,-22.0,-80.0,277.0
1449616889476928251,-22.0,-80.0,250.0
1449616889485815574,-22.0,-80.0,270.0
1449616889498987920,-22.0,-80.0,245.0
1449616889511853823,-22.0,-80.0,271.0
1449616889531253689,-22.0,-80.0,244.0
1449616889544328435,-22.0,-82.0,271.0
1449616889556561719,-22.0,-82.0,249.0
1449616889573182645,-22.0,-82.0,275.0
1449616889589643879,-22.0,-82.0,253.0
1449616889602053179,-22.0,-82.0,275.0
1449616889624325450,-22.0,-82.0,252.0
1449616889635661782,-22.0,-82.0,253.0
1449616889647920881,-22.0,-82.0,253.0
1449616889665016890,-22.0,-82.0,280.0
1449616889676430898,-22.0,-82.0,252.0
1449616889691805190,-22.0,-82.0,280.0
1449616889708444623,-22.0,-82.0,248.0
1449616889720284827,-22.0,-82.0,305.0
1449616889737824734,-22.0,-84.0,251.0
1449616889753597661,-22.0,-84.0,298.0
1449616889765500243,-22.0,-84.0,248.0
1449616889782207771,-22.0,-84.0,298.0
1449616889799783122,-22.0,-84.0,248.0
1449616889810386619,-22.0,-84.0,303.0
1449616889827006065,-22.0,-84.0,251.0
1449616889843680262,-22.0,-84.0,304.0
1449616889856456061,-22.0,-84.0,246.0
1449616889872214532,-22.0,-84.0,284.0
1449616889893174836,-22.0,-84.0,245.0
1449616889908567020,-22.0,-84.0,246.0
1449616889918892250,-22.0,-84.0,242.0
1449616889933291893,-22.0,-84.0,266.0
1449616889948866686,-22.0,-84.0,241.0
1449616889962307596,-22.0,-84.0,240.0
1449616889978455985,-22.0,-84.0,243.0
1449616889991338885,-24.0,-84.0,251.0
1449616890007072338,-24.0,-84.0,253.0
1449616890025128806,-24.0,-84.0,255.0
1449616890038242564,-24.0,-86.0,256.0
1449616890052249203,-24.0,-86.0,258.0
1449616890065247795,-24.0,-86.0,261.0
1449616890087519092,-24.0,-86.0,262.0
1449616890097201349,-24.0,-86.0,260.0
1449616890109534121,-24.0,-86.0,260.0
1449616890125751747,-24.0,-86.0,260.0
1449616890142287000,-24.0,-86.0,256.0
1449616890156753829,-26.0,-88.0,246.0
1449616890173646666,-26.0,-88.0,243.0
1449616890189674801,-26.0,-88.0,241.0
1449616890201584497,-26.0,-88.0,240.0
1449616890217653293,-26.0,-88.0,237.0
1449616890233056926,-26.0,-90.0,240.0
1449616890250208369,-26.0,-90.0,239.0
1449616890264112580,-28.0,-90.0,252.0
1449616890278637513,-28.0,-90.0,248.0
1449616890291724240,-28.0,-92.0,253.0
1449616890308510717,-28.0,-92.0,255.0
1449616890322975461,-28.0,-92.0,307.0
1449616890335046298,-28.0,-92.0,262.0
1449616890351428858,-28.0,-94.0,254.0
1449616890369134103,-30.0,-94.0,248.0
1449616890380593526,-30.0,-94.0,246.0
1449616890397022506,-30.0,-96.0,244.0
1449616890412734533,-30.0,-96.0,237.0
1449616890425513420,-30.0,-96.0,238.0
1449616890441764698,-32.0,-98.0,249.0
1449616890460498322,-32.0,-98.0,250.0
1449616890471318102,-32.0,-98.0,259.0
1449616890491294922,-32.0,-100.0,261.0
1449616890500343778,-34.0,-100.0,252.0
1449616890539064187,-34.0,-102.0,249.0
1449616890539396016,-34.0,-102.0,239.0
1449616890561057135,-34.0,-104.0,238.0
1449616890561060558,-36.0,-104.0,250.0
1449616890578275254,-36.0,-104.0,250.0
1449616890589070236,-36.0,-106.0,304.0
1449616890605400496,-36.0,-106.0,254.0
1449616890622396594,-38.0,-108.0,246.0
1449616890645313509,-38.0,-108.0,242.0
1449616890650497866,-38.0,-110.0,243.0
1449616890669142787,-40.0,-110.0,258.0
1449616890683120551,-40.0,-112.0,262.0
1449616890700292642,-42.0,-112.0,250.0
1449616890712202284,-42.0,-114.0,250.0
1449616890728857308,-42.0,-116.0,240.0
1449616890756939924,-44.0,-116.0,254.0
1449616890756969208,-44.0,-118.0,264.0
1449616890773611239,-44.0,-118.0,252.0
1449616890789739772,-46.0,-120.0,246.0
1449616890801798480,-46.0,-120.0,240.0
1449616890820306385,-48.0,-122.0,256.0
1449616890835372816,-48.0,-124.0,269.0
1449616890846771041,-50.0,-124.0,253.0
1449616890864681068,-50.0,-126.0,244.0
1449616890876676986,-52.0,-128.0,256.0
1449616890892286477,-52.0,-128.0,267.0
1449616890908624755,-52.0,-130.0,304.0
1449616890946605576,-54.0,-132.0,249.0
1449616890946628914,-56.0,-132.0,255.0
1449616890954027108,-56.0,-134.0,262.0
1449616890966610830,-56.0,-136.0,262.0
1449616890982911916,-58.0,-136.0,248.0
1449616890999973130,-60.0,-138.0,256.0
1449616891011681680,-60.0,-140.0,265.0
1449616891030283918,-60.0,-142.0,259.0
1449616891045968077,-62.0,-142.0,247.0
1449616891057881580,-64.0,-144.0,260.0
1449616891072999061,-64.0,-146.0,268.0
1449616891090045491,-66.0,-146.0,256.0
1449616891101901319,-66.0,-148.0,247.0
1449616891118392348,-68.0,-150.0,262.0
1449616891134056517,-68.0,-152.0,270.0
1449616891146145498,-70.0,-152.0,258.0
1449616891163049305,-70.0,-154.0,251.0
1449616891180632831,-72.0,-156.0,259.0
1449616891198068120,-72.0,-158.0,266.0
1449616891208136894,-74.0,-158.0,253.0
1449616891219960037,-74.0,-160.0,258.0
1449616891240440532,-76.0,-162.0,271.0
1449616891253252721,-78.0,-164.0,264.0
1449616891265149444,-78.0,-166.0,256.0
1449616891281479786,-80.0,-166.0,266.0
1449616891297666933,-80.0,-168.0,274.0
1449616891309896981,-82.0,-170.0,257.0
1449616891326401449,-82.0,-172.0,254.0
1449616891343084438,-84.0,-172.0,267.0
1449616891357083998,-86.0,-174.0,265.0
1449616891371296944,-86.0,-176.0,254.0
1449616891387625588,-88.0,-178.0,265.0
1449616891401619754,-88.0,-180.0,274.0
1449616891417398288,-90.0,-182.0,266.0
1449616891434252319,-90.0,-182.0,257.0
1449616891445620816,-92.0,-184.0,272.0
1449616891466945214,-94.0,-186.0,264.0
1449616891478280940,-94.0,-188.0,254.0
1449616891490171186,-96.0,-188.0,272.0
1449616891507963665,-96.0,-190.0,274.0
1449616891525588096,-98.0,-192.0,263.0
1449616891535585773,-98.0,-194.0,261.0
1449616891551629960,-100.0,-196.0,272.0
1449616891568090016,-100.0,-196.0,275.0
1449616891580524027,-102.0,-198.0,260.0
1449616891597024656,-104.0,-200.0,269.0
1449616891609577585,-104.0,-200.0,277.0
1449616891628475143,-106.0,-202.0,262.0
1449616891641817661,-106.0,-204.0,256.0
1449616891653996251,-108.0,-206.0,271.0
1449616891670433164,-108.0,-206.0,274.0
1449616891688865688,-110.0,-208.0,261.0
1449616891698892691,-110.0,-210.0,257.0
1449616891715315538,-112.0,-210.0,265.0
1449616891732152209,-112.0,-212.0,274.0
1449616891744487312,-112.0,-214.0,273.0
1449616891763795546,-114.0,-214.0,260.0
1449616891776752030,-114.0,-216.0,258.0
1449616891789034153,-116.0,-216.0,266.0
1449616891805505086,-116.0,-218.0,271.0
1449616891835676971,-118.0,-220.0,259.0
1449616891835680887,-118.0,-220.0,251.0
1449616891853047624,-120.0,-222.0,268.0
1449616891867059937,-120.0,-224.0,276.0
1449616891879176651,-120.0,-224.0,270.0
1449616891896529252,-122.0,-226.0,258.0
1449616891914204304,-122.0,-226.0,256.0
1449616891926011070,-124.0,-228.0,266.0
1449616891941046503,-124.0,-228.0,271.0
1449616891958771774,-126.0,-230.0,254.0
1449616891969891349,-126.0,-232.0,250.0
1449616891988824672,-128.0,-232.0,259.0
1449616892001380176,-128.0,-234.0,264.0
1449616892019587614,-128.0,-234.0,271.0
1449616892031998466,-130.0,-236.0,255.0
1449616892043473512,-130.0,-236.0,251.0
1449616892061825627,-132.0,-238.0,260.0
1449616892077987063,-132.0,-240.0,266.0
1449616892090721388,-132.0,-240.0,268.0
1449616892104676233,-134.0,-242.0,250.0
1449616892120872789,-134.0,-242.0,240.0
1449616892133294813,-136.0,-244.0,261.0
1449616892149424032,-136.0,-244.0,265.0
1449616892168072676,-138.0,-246.0,253.0
1449616892178140558,-138.0,-248.0,266.0
1449616892196160685,-138.0,-248.0,248.0
1449616892215232299,-140.0,-250.0,278.0
1449616892224110060,-140.0,-250.0,262.0
1449616892241814089,-142.0,-252.0,273.0
1449616892256344280,-142.0,-252.0,246.0
1449616892269167780,-144.0,-254.0,282.0
1449616892286425319,-144.0,-256.0,261.0
1449616892302039474,-146.0,-256.0,280.0
1449616892313656058,-146.0,-258.0,239.0
1449616892331302692,-148.0,-258.0,301.0
1449616892346184075,-148.0,-260.0,259.0
1449616892358609672,-150.0,-260.0,296.0
1449616892375293375,-150.0,-262.0,236.0
1449616892387559547,-152.0,-264.0,297.0
1449616892403842834,-152.0,-264.0,258.0
1449616892421343578,-154.0,-266.0,248.0
1449616892435025070,-154.0,-268.0,238.0
1449616892450966813,-156.0,-268.0,300.0
1449616892469638179,-156.0,-270.0,256.0
1449616892477827466,-158.0,-272.0,290.0
1449616892494014265,-158.0,-272.0,235.0
1449616892519833050,-160.0,-274.0,293.0
1449616892523523376,-160.0,-274.0,255.0
1449616892538747087,-162.0,-276.0,286.0
1449616892555649063,-162.0,-278.0,237.0
1449616892567619650,-164.0,-278.0,298.0
1449616892586733919,-166.0,-280.0,239.0
1449616892601665641,-166.0,-282.0,284.0
1449616892612758705,-168.0,-284.0,242.0
1449616892631989018,-168.0,-284.0,299.0
1449616892649622619,-170.0,-286.0,232.0
1449616892660876051,-172.0,-288.0,288.0
1449616892674079684,-172.0,-288.0,247.0
1449616892691716042,-174.0,-290.0,231.0
1449616892703210709,-176.0,-292.0,238.0
1449616892719319754,-176.0,-292.0,293.0
1449616892737079749,-178.0,-294.0,230.0
1449616892749792199,-178.0,-296.0,275.0
1449616892764013912,-180.0,-296.0,239.0
1449616892776946246,-182.0,-298.0,267.0
1449616892793487229,-182.0,-300.0,217.0
1449616892809096290,-184.0,-302.0,277.0
1449616892825392093,-186.0,-302.0,220.0
1449616892838077260,-186.0,-304.0,212.0
1449616892854754839,-188.0,-306.0,227.0
1449616892867123494,-190.0,-308.0,271.0
1449616892885659616,-190.0,-308.0,211.0
1449616892900583135,-192.0,-310.0,272.0
1449616892911902680,-192.0,-312.0,221.0
1449616892928019843,-194.0,-314.0,257.0
1449616892944208613,-196.0,-314.0,221.0
1449616892957618891,-196.0,-316.0,225.0
1449616892978426507,-198.0,-318.0,206.0
1449616892991009646,-200.0,-320.0,265.0
1449616893001673874,-200.0,-320.0,223.0
1449616893021854600,-202.0,-322.0,246.0
1449616893034471501,-204.0,-324.0,208.0
1449616893047826407,-204.0,-326.0,267.0
1449616893064070967,-206.0,-326.0,202.0
1449616893079853204,-208.0,-328.0,259.0
1449616893091737684,-208.0,-330.0,217.0
1449616893108115174,-210.0,-330.0,197.0
1449616893125112311,-210.0,-332.0,190.0
1449616893136818550,-212.0,-334.0,253.0
1449616893153204272,-214.0,-336.0,195.0
1449616893169434846,-214.0,-336.0,210.0
1449616893185972791,-216.0,-338.0,198.0
1449616893199624975,-216.0,-340.0,196.0
1449616893215676268,-218.0,-340.0,228.0
1449616893232965749,-220.0,-342.0,191.0
1449616893246915746,-220.0,-344.0,200.0
1449616893261209335,-222.0,-344.0,183.0
1449616893276191271,-222.0,-346.0,182.0
1449616893293810078,-224.0,-348.0,196.0
1449616893306202323,-226.0,-350.0,181.0
1449616893324990445,-226.0,-350.0,175.0
1449616893333717275,-228.0,-352.0,188.0
1449616893350813522,-228.0,-354.0,189.0
1449616893367272049,-230.0,-354.0,224.0
1449616893379787331,-232.0,-356.0,188.0
1449616893394994197,-232.0,-358.0,195.0
1449616893415093685,-234.0,-358.0,180.0
1449616893424413693,-236.0,-360.0,191.0
1449616893440457722,-236.0,-362.0,193.0
1449616893461215307,-238.0,-362.0,186.0
1449616893470059698,-240.0,-364.0,190.0
1449616893485989592,-240.0,-366.0,200.0
1449616893502896590,-242.0,-366.0,192.0
1449616893514789464,-244.0,-368.0,192.0
1449616893533615873,-244.0,-370.0,205.0
1449616893549505814,-246.0,-370.0,192.0
1449616893558827196,-248.0,-372.0,198.0
1449616893575511371,-248.0,-374.0,209.0
1449616893590389156,-250.0,-374.0,198.0
1449616893604447563,-252.0,-376.0,201.0
1449616893623752360,-252.0,-378.0,219.0
1449616893633679632,-254.0,-380.0,244.0
1449616893649080986,-256.0,-380.0,211.0
1449616893665357713,-256.0,-382.0,262.0
1449616893680277833,-258.0,-384.0,202.0
1449616893694085782,-260.0,-384.0,267.0
1449616893711514625,-262.0,-386.0,212.0
1449616893726195813,-264.0,-388.0,263.0
1449616893739563519,-264.0,-388.0,226.0
1449616893758320886,-266.0,-390.0,263.0
1449616893768504938,-268.0,-392.0,218.0
1449616893784471555,-270.0,-394.0,273.0
1449616893804254519,-270.0,-394.0,212.0
1449616893813193354,-272.0,-396.0,279.0
1449616893829920763,-274.0,-398.0,205.0
1449616893846138872,-276.0,-398.0,273.0
1449616893858618257,-278.0,-400.0,213.0
1449616893878633518,-280.0,-402.0,280.0
1449616893893639879,-280.0,-404.0,230.0
1449616893903538830,-282.0,-404.0,246.0
1449616893919353634,-284.0,-406.0,231.0
1449616893932281567,-286.0,-408.0,255.0
1449616893948629874,-288.0,-410.0,227.0
1449616893965100429,-290.0,-410.0,225.0
1449616893977678172,-290.0,-412.0,217.0
1449616893997904729,-292.0,-414.0,229.0
1449616894010883743,-294.0,-416.0,210.0
1449616894022005643,-296.0,-416.0,228.0
1449616894038768177,-298.0,-418.0,209.0
1449616894054273022,-300.0,-420.0,229.0
1449616894066695653,-302.0,-422.0,216.0
1449616894083223499,-304.0,-422.0,225.0
1449616894100217752,-306.0,-424.0,215.0
1449616894112133708,-308.0,-426.0,217.0
1449616894129424075,-308.0,-428.0,228.0
1449616894146795350,-310.0,-428.0,209.0
1449616894160580747,-312.0,-430.0,228.0
1449616894177067586,-314.0,-432.0,202.0
1449616894191430875,-316.0,-432.0,220.0
1449616894202568234,-318.0,-434.0,212.0
1449616894223916785,-320.0,-436.0,219.0
1449616894237899837,-320.0,-438.0,223.0
1449616894249582986,-322.0,-438.0,204.0
1449616894263943364,-324.0,-440.0,229.0
1449616894285769858,-326.0,-442.0,214.0
1449616894292148375,-328.0,-444.0,219.0
1449616894309617324,-328.0,-444.0,225.0
1449616894320989265,-330.0,-446.0,230.0
1449616894340905580,-332.0,-448.0,231.0
1449616894353708689,-334.0,-448.0,219.0
1449616894366406685,-336.0,-450.0,214.0
1449616894383705191,-336.0,-452.0,233.0
1449616894399194775,-338.0,-452.0,215.0
1449616894410929897,-340.0,-454.0,228.0
1449616894427581486,-342.0,-456.0,229.0
1449616894444391673,-342.0,-456.0,218.0
1449616894457219292,-344.0,-458.0,239.0
1449616894472190974,-346.0,-458.0,230.0
1449616894488591019,-346.0,-460.0,222.0
1449616894501042592,-348.0,-462.0,239.0
1449616894517550005,-350.0,-462.0,229.0
1449616894534788496,-350.0,-464.0,227.0
1449616894546804751,-352.0,-464.0,241.0
1449616894564002788,-354.0,-466.0,233.0
1449616894579022698,-354.0,-466.0,223.0
1449616894593086258,-356.0,-468.0,241.0
1449616894609861662,-356.0,-468.0,249.0
1449616894623779879,-358.0,-470.0,230.0
1449616894637192142,-360.0,-472.0,242.0
1449616894652967073,-360.0,-472.0,242.0
1449616894669995637,-362.0,-474.0,237.0
1449616894681937455,-362.0,-474.0,224.0
1449616894698779881,-364.0,-474.0,242.0
1449616894710175165,-364.0,-476.0,246.0
1449616894726616550,-366.0,-476.0,235.0
1449616894745635388,-366.0,-478.0,229.0
1449616894761613291,-368.0,-478.0,237.0
1449616894773765366,-368.0,-480.0,244.0
1449616894788462143,-368.0,-480.0,237.0
1449616894802396506,-370.0,-480.0,231.0
1449616894823872119,-370.0,-482.0,226.0
1449616894834053644,-372.0,-482.0,237.0
1449616894846018313,-372.0,-484.0,250.0
1449616894862298623,-374.0,-484.0,238.0
1449616894881870147,-374.0,-484.0,228.0
1449616894891550185,-374.0,-486.0,228.0
1449616894907942331,-376.0,-486.0,235.0
1449616894922987939,-376.0,-486.0,240.0
1449616894935613002,-376.0,-488.0,236.0
1449616894962944351,-378.0,-488.0,228.0
1449616894969529785,-378.0,-488.0,223.0
1449616894985904411,-378.0,-488.0,221.0
1449616894996994370,-378.0,-490.0,226.0
1449616895013103405,-380.0,-490.0,234.0
1449616895026072214,-380.0,-490.0,240.0
1449616895042382147,-380.0,-490.0,238.0
1449616895058973754,-380.0,-492.0,232.0
1449616895074253701,-382.0,-492.0,227.0
1449616895086945848,-382.0,-492.0,224.0
1449616895108391216,-382.0,-492.0,220.0
1449616895120074603,-382.0,-492.0,219.0
1449616895132078018,-384.0,-494.0,236.0
1449616895147267707,-384.0,-494.0,232.0
1449616895164402767,-384.0,-494.0,236.0
1449616895188809882,-384.0,-494.0,240.0
1449616895194134144,-384.0,-494.0,240.0
1449616895206754886,-384.0,-494.0,236.0
1449616895227478725,-386.0,-496.0,234.0
1449616895239049083,-386.0,-496.0,230.0
1449616895251536274,-386.0,-496.0,227.0
1449616895270172927,-386.0,-496.0,226.0
1449616895286354536,-386.0,-496.0,217.0
1449616895295852664,-386.0,-496.0,219.0
1449616895312735415,-386.0,-496.0,218.0
1449616895325652061,-386.0,-496.0,220.0
1449616895340961301,-386.0,-496.0,217.0
1449616895360621317,-388.0,-496.0,224.0
1449616895369988221,-388.0,-496.0,232.0
1449616895387216957,-388.0,-496.0,231.0
1449616895403269403,-388.0,-496.0,234.0
1449616895414896698,-388.0,-496.0,231.0
1449616895431856631,-388.0,-496.0,235.0
1449616895447384942,-388.0,-496.0,235.0
1449616895461190670,-388.0,-496.0,232.0
1449616895479822122,-388.0,-496.0,233.0
1449616895488937247,-388.0,-496.0,233.0
1449616895505337932,-388.0,-496.0,233.0
1449616895521202878,-388.0,-496.0,228.0
1449616895533395251,-388.0,-496.0,230.0
1449616895550959127,-388.0,-496.0,230.0
1449616895565972106,-388.0,-496.0,231.0
1449616895578444616,-388.0,-496.0,228.0
1449616895594853412,-388.0,-496.0,231.0
1449616895611973274,-388.0,-496.0,227.0
1449616895625874831,-388.0,-496.0,227.0
1449616895640441590,-388.0,-496.0,227.0
1449616895660676346,-388.0,-496.0,220.0
1449616895672457096,-388.0,-496.0,228.0
1449616895695394370,-388.0,-496.0,225.0
1449616895701704401,-388.0,-496.0,228.0
1449616895718258988,-388.0,-496.0,226.0
1449616895734858915,-388.0,-496.0,231.0
1449616895747050076,-388.0,-496.0,230.0
1449616895762967999,-388.0,-496.0,228.0
1449616895779021624,-388.0,-496.0,227.0
1449616895795730618,-388.0,-496.0,227.0
1449616895807950420,-388.0,-496.0,230.0
1449616895823992615,-388.0,-496.0,228.0
1449616895838465985,-388.0,-496.0,224.0
1449616895853848689,-388.0,-496.0,231.0
1449616895865296086,-388.0,-496.0,228.0
1449616895883426444,-388.0,-496.0,229.0
1449616895900515898,-388.0,-496.0,229.0
1449616895914230480,-388.0,-496.0,229.0
1449616895927512559,-388.0,-496.0,230.0
1449616895942878054,-388.0,-496.0,235.0
1449616895955360497,-388.0,-496.0,229.0
1449616895973849517,-388.0,-496.0,227.0
1449616895987974355,-388.0,-496.0,230.0
1449616896001038011,-388.0,-496.0,227.0
1449616896017628890,-388.0,-496.0,228.0
1449616896033487356,-388.0,-496.0,233.0
1449616896054094133,-388.0,-496.0,231.0
1449616896062636005,-388.0,-496.0,233.0
1449616896078801246,-388.0,-496.0,233.0
1449616896091331879,-388.0,-496.0,228.0
1449616896106958784,-388.0,-496.0,227.0
1449616896126471079,-388.0,-496.0,228.0
1449616896135438334,-388.0,-496.0,222.0
1449616896152487413,-388.0,-496.0,226.0
1449616896169622054,-388.0,-496.0,225.0
1449616896186069707,-388.0,-496.0,229.0
1449616896197044902,-388.0,-496.0,229.0
1449616896214775025,-388.0,-496.0,229.0
1449616896226715208,-388.0,-496.0,230.0
1449616896242772934,-388.0,-496.0,232.0
1449616896254222612,-388.0,-496.0,231.0
1449616896272359190,-388.0,-496.0,227.0
1449616896287007643,-388.0,-496.0,226.0
1449616896299616284,-388.0,-496.0,227.0
1449616896315776870,-388.0,-496.0,227.0
1449616896334028675,-388.0,-496.0,233.0
1449616896344926134,-388.0,-496.0,232.0
1449616896361009246,-388.0,-496.0,231.0
1449616896377116840,-388.0,-496.0,236.0
1449616896389635329,-388.0,-496.0,235.0
1449616896406145982,-388.0,-496.0,238.0
1449616896424161221,-388.0,-496.0,246.0
1449616896434648809,-388.0,-496.0,240.0
1449616896451221543,-388.0,-496.0,289.0
1449616896467558092,-388.0,-496.0,243.0
1449616896479525613,-388.0,-496.0,290.0
1449616896497415474,-388.0,-496.0,241.0
1449616896512499158,-388.0,-496.0,288.0
1449616896527404268,-388.0,-496.0,240.0
1449616896540990998,-388.0,-496.0,288.0
1449616896559913771,-388.0,-496.0,234.0
1449616896570555178,-388.0,-496.0,282.0
1449616896586170697,-388.0,-496.0,234.0
1449616896604123325,-388.0,-496.0,284.0
1449616896616181210,-388.0,-496.0,241.0
1449616896631959138,-388.0,-496.0,283.0
1449616896643658499,-390.0,-496.0,235.0
1449616896669538744,-390.0,-496.0,283.0
1449616896683518431,-390.0,-496.0,231.0
1449616896688608064,-390.0,-496.0,278.0
1449616896705911161,-390.0,-496.0,232.0
1449616896721712618,-390.0,-496.0,279.0
1449616896736243943,-390.0,-496.0,233.0
1449616896751264378,-390.0,-496.0,281.0
1449616896767009555,-390.0,-496.0,234.0
1449616896780175822,-390.0,-496.0,288.0
1449616896798869717,-390.0,-496.0,230.0
1449616896812120506,-390.0,-496.0,277.0
1449616896824785235,-390.0,-496.0,231.0
1449616896841140157,-390.0,-496.0,284.0
1449616896857395372,-390.0,-496.0,226.0
1449616896871801056,-390.0,-496.0,264.0
1449616896885572520,-390.0,-496.0,226.0
1449616896905616242,-390.0,-494.0,271.0
1449616896913932938,-390.0,-494.0,230.0
1449616896931343462,-390.0,-494.0,260.0
1449616896948081818,-390.0,-494.0,227.0
1449616896961273349,-390.0,-494.0,225.0
1449616896977615880,-390.0,-494.0,228.0
1449616896993340666,-390.0,-494.0,228.0
1449616897004225218,-390.0,-494.0,228.0
1449616897024606891,-390.0,-494.0,234.0
1449616897032910156,-392.0,-494.0,237.0
1449616897056321909,-392.0,-494.0,238.0
1449616897066077495,-392.0,-494.0,243.0
1449616897079006837,-392.0,-492.0,241.0
1449616897094360845,-392.0,-492.0,242.0
1449616897110601538,-392.0,-492.0,245.0
1449616897125992585,-392.0,-492.0,236.0
1449616897141679955,-392.0,-492.0,245.0
1449616897155779342,-392.0,-492.0,242.0
1449616897169656436,-392.0,-492.0,244.0
1449616897185974518,-392.0,-492.0,248.0
1449616897202677433,-392.0,-492.0,249.0
1449616897217630622,-392.0,-492.0,243.0
1449616897230246509,-392.0,-492.0,250.0
1449616897252187429,-392.0,-490.0,252.0
1449616897261150917,-392.0,-490.0,252.0
1449616897274629658,-392.0,-490.0,254.0
1449616897292009971,-392.0,-490.0,248.0
1449616897308975043,-392.0,-490.0,257.0
1449616897319734111,-392.0,-490.0,254.0
1449616897336099379,-392.0,-490.0,252.0
1449616897347888765,-392.0,-490.0,251.0
1449616897364462185,-392.0,-490.0,249.0
1449616897384597031,-394.0,-490.0,241.0
1449616897395886112,-394.0,-490.0,240.0
1449616897410075336,-394.0,-490.0,240.0
1449616897422641631,-394.0,-490.0,230.0
1449616897444101864,-394.0,-490.0,239.0
1449616897455081273,-394.0,-490.0,234.0
1449616897474437438,-394.0,-490.0,239.0
1449616897485707226,-394.0,-490.0,237.0
1449616897499722505,-394.0,-490.0,236.0
1449616897514888277,-394.0,-488.0,233.0
1449616897528167044,-394.0,-488.0,232.0
1449616897548077862,-394.0,-488.0,233.0
1449616897557343246,-394.0,-488.0,227.0
1449616897576221901,-394.0,-488.0,230.0
1449616897590679545,-394.0,-488.0,233.0
1449616897602033615,-394.0,-488.0,229.0
1449616897619329225,-394.0,-488.0,234.0
1449616897635070452,-394.0,-488.0,239.0
1449616897647223324,-396.0,-488.0,242.0
1449616897665040684,-396.0,-488.0,249.0
1449616897680140411,-396.0,-488.0,245.0
1449616897692048502,-396.0,-488.0,245.0
1449616897708642820,-396.0,-488.0,245.0
1449616897726001393,-396.0,-488.0,246.0
1449616897737596040,-396.0,-488.0,249.0
1449616897755331176,-396.0,-488.0,252.0
1449616897769877284,-396.0,-488.0,254.0
1449616897788397554,-396.0,-488.0,256.0
1449616897799147585,-396.0,-488.0,254.0
1449616897817632349,-396.0,-488.0,255.0
1449616897827807869,-396.0,-488.0,260.0
1449616897845507107,-396.0,-488.0,255.0
1449616897856562882,-396.0,-488.0,253.0
1449616897872557135,-396.0,-488.0,254.0
1449616897896896030,-396.0,-488.0,252.0
1449616897901365104,-396.0,-488.0,254.0
1449616897917874743,-396.0,-488.0,254.0
1449616897944579129,-396.0,-488.0,259.0
1449616897947397169,-396.0,-488.0,258.0
1449616897962421197,-396.0,-488.0,259.0
1449616897981844452,-396.0,-488.0,247.0
1449616897991522910,-396.0,-488.0,248.0
1449616898008744294,-396.0,-488.0,251.0
1449616898025267556,-398.0,-488.0,248.0
1449616898037003214,-398.0,-488.0,246.0
1449616898053623027,-398.0,-488.0,243.0
1449616898071542136,-398.0,-488.0,246.0
1449616898081614065,-398.0,-488.0,246.0
1449616898099361740,-398.0,-488.0,246.0
1449616898117489130,-398.0,-488.0,244.0
1449616898131019906,-398.0,-488.0,247.0
1449616898143371170,-398.0,-488.0,248.0
1449616898164665787,-398.0,-488.0,246.0
1449616898175624913,-398.0,-488.0,247.0
1449616898189151445,-398.0,-488.0,247.0
1449616898204793148,-398.0,-488.0,248.0
1449616898221360249,-398.0,-488.0,246.0
1449616898232828198,-398.0,-488.0,247.0
1449616898252422202,-398.0,-488.0,243.0
1449616898265770549,-398.0,-488.0,242.0
1449616898279979927,-398.0,-488.0,243.0
1449616898297389805,-398.0,-488.0,244.0
1449616898311889112,-398.0,-488.0,242.0
1449616898326828043,-398.0,-488.0,239.0
1449616898342490492,-398.0,-488.0,241.0
1449616898357634690,-398.0,-488.0,247.0
1449616898368170770,-400.0,-488.0,250.0
1449616898384702483,-400.0,-488.0,258.0
1449616898406029024,-400.0,-488.0,259.0
1449616898415135437,-400.0,-488.0,258.0
1449616898429508308,-400.0,-488.0,253.0
1449616898446639063,-400.0,-488.0,254.0
1449616898458165028,-400.0,-488.0,257.0
1449616898474991380,-400.0,-488.0,263.0
1449616898491349905,-400.0,-488.0,259.0
1449616898505051257,-400.0,-488.0,259.0
1449616898521620690,-400.0,-488.0,260.0
1449616898536459919,-400.0,-486.0,261.0
1449616898554350771,-400.0,-486.0,258.0
1449616898565102411,-400.0,-486.0,267.0
1449616898577148512,-402.0,-486.0,253.0
1449616898593443959,-402.0,-486.0,252.0
1449616898613882276,-402.0,-486.0,247.0
1449616898622768076,-402.0,-486.0,247.0
1449616898638381822,-402.0,-486.0,248.0
1449616898655180162,-402.0,-486.0,246.0
1449616898667441734,-402.0,-486.0,243.0
1449616898684500860,-402.0,-486.0,244.0
1449616898699809526,-402.0,-486.0,250.0
1449616898712163764,-402.0,-486.0,250.0
1449616898728526017,-404.0,-486.0,262.0
1449616898745611034,-404.0,-486.0,261.0
1449616898758405566,-404.0,-486.0,258.0
1449616898774084264,-404.0,-486.0,253.0
1449616898790419343,-404.0,-486.0,259.0
1449616898802439454,-404.0,-486.0,270.0
1449616898818873466,-404.0,-486.0,265.0
1449616898835063381,-404.0,-486.0,265.0
1449616898848272455,-404.0,-486.0,265.0
1449616898867145770,-404.0,-486.0,259.0
1449616898880235150,-406.0,-486.0,250.0
1449616898892897109,-406.0,-486.0,245.0
1449616898909893018,-406.0,-486.0,251.0
1449616898925158086,-406.0,-486.0,249.0
1449616898939040209,-406.0,-486.0,242.0
1449616898955127786,-406.0,-486.0,244.0
1449616898967097265,-406.0,-486.0,245.0
1449616898982734560,-408.0,-486.0,251.0
1449616899003632931,-408.0,-486.0,257.0
1449616899011070850,-408.0,-486.0,258.0
1449616899029392889,-408.0,-486.0,260.0
1449616899044040525,-408.0,-486.0,263.0
1449616899056713263,-408.0,-486.0,259.0
1449616899074145422,-408.0,-486.0,260.0
1449616899089440906,-410.0,-486.0,251.0
1449616899101264864,-410.0,-486.0,252.0
1449616899118668755,-410.0,-486.0,244.0
1449616899134417518,-410.0,-486.0,245.0
1449616899146637831,-410.0,-486.0,260.0
1449616899167152763,-412.0,-486.0,260.0
1449616899179041751,-412.0,-488.0,256.0
1449616899191362177,-412.0,-488.0,262.0
1449616899207754301,-412.0,-488.0,289.0
1449616899224197612,-414.0,-488.0,247.0
1449616899236481488,-414.0,-488.0,274.0
1449616899252969994,-414.0,-488.0,246.0
1449616899269211782,-416.0,-488.0,281.0
1449616899281847461,-416.0,-488.0,260.0
1449616899302457013,-416.0,-488.0,290.0
1449616899316991733,-416.0,-488.0,263.0
1449616899328056836,-418.0,-488.0,274.0
1449616899345605038,-418.0,-488.0,247.0
1449616899355168707,-418.0,-488.0,271.0
1449616899372137165,-420.0,-488.0,258.0
1449616899388632654,-420.0,-488.0,285.0
1449616899400613221,-420.0,-488.0,264.0
1449616899417458294,-422.0,-490.0,273.0
1449616899433586101,-422.0,-490.0,248.0
1449616899453795666,-422.0,-490.0,271.0
1449616899467902212,-424.0,-490.0,256.0
1449616899479407822,-424.0,-490.0,264.0
1449616899490970450,-426.0,-490.0,252.0
1449616899507031160,-426.0,-490.0,272.0
1449616899523534867,-426.0,-490.0,240.0
1449616899537527914,-428.0,-490.0,283.0
1449616899552710444,-428.0,-490.0,262.0
1449616899569639701,-430.0,-490.0,301.0
1449616899582980503,-430.0,-492.0,246.0
1449616899598292893,-432.0,-492.0,305.0
1449616899618549165,-432.0,-492.0,266.0
1449616899625809896,-434.0,-492.0,299.0
1449616899643026647,-434.0,-492.0,246.0
1449616899659006815,-436.0,-492.0,311.0
1449616899671798956,-436.0,-492.0,265.0
1449616899687153285,-438.0,-492.0,305.0
1449616899710583702,-438.0,-494.0,245.0
1449616899715828852,-440.0,-494.0,310.0
1449616899732163177,-440.0,-494.0,271.0
1449616899745801992,-442.0,-494.0,254.0
1449616899764639970,-442.0,-494.0,246.0
1449616899777526744,-444.0,-494.0,316.0
1449616899789915242,-446.0,-496.0,256.0
1449616899806569417,-446.0,-496.0,300.0
1449616899823089793,-448.0,-496.0,262.0
1449616899836318379,-448.0,-496.0,325.0
1449616899851382406,-450.0,-496.0,257.0
1449616899868247308,-452.0,-496.0,314.0
1449616899882302864,-452.0,-498.0,265.0
1449616899899069470,-454.0,-498.0,313.0
1449616899912355930,-456.0,-498.0,264.0
1449616899927391630,-456.0,-498.0,321.0
1449616899945667702,-458.0,-500.0,260.0
1449616899961817678,-458.0,-500.0,311.0
1449616899969971621,-460.0,-500.0,271.0
1449616899986635692,-460.0,-500.0,306.0
1449616900002434279,-462.0,-500.0,260.0
1449616900014856979,-464.0,-502.0,320.0
1449616900031479798,-464.0,-502.0,281.0
1449616900048286421,-466.0,-502.0,277.0
1449616900066639541,-468.0,-502.0,264.0
1449616900077143616,-468.0,-504.0,276.0
1449616900094347513,-470.0,-504.0,264.0
1449616900105611713,-470.0,-504.0,257.0
1449616900121644817,-472.0,-504.0,275.0
1449616900135175357,-472.0,-504.0,281.0
1449616900150514983,-474.0,-506.0,269.0
1449616900166739985,-476.0,-506.0,277.0
1449616900181616570,-476.0,-506.0,281.0
1449616900196569800,-478.0,-508.0,264.0
1449616900212337255,-478.0,-508.0,254.0
1449616900224031668,-480.0,-508.0,271.0
1449616900240913396,-480.0,-508.0,277.0
1449616900257032287,-482.0,-508.0,264.0
1449616900271160672,-482.0,-510.0,261.0
1449616900285317983,-484.0,-510.0,272.0
1449616900303603140,-484.0,-510.0,268.0
1449616900313713472,-486.0,-512.0,260.0
1449616900331139608,-488.0,-512.0,271.0
1449616900346672453,-488.0,-512.0,282.0
1449616900359973625,-490.0,-512.0,266.0
1449616900375279497,-490.0,-514.0,253.0
1449616900392043781,-492.0,-514.0,272.0
1449616900404361903,-492.0,-514.0,267.0
1449616900421482102,-494.0,-514.0,256.0
1449616900438645031,-496.0,-516.0,320.0
1449616900449961693,-496.0,-516.0,276.0
1449616900465924038,-498.0,-516.0,262.0
1449616900485626522,-498.0,-518.0,257.0
1449616900494149291,-500.0,-518.0,274.0
1449616900510912632,-502.0,-518.0,260.0
1449616900526117037,-502.0,-520.0,250.0
1449616900539722893,-504.0,-520.0,266.0
1449616900555764325,-504.0,-520.0,260.0
1449616900569363810,-506.0,-522.0,253.0
1449616900585048067,-508.0,-522.0,311.0
1449616900603485641,-508.0,-522.0,268.0
1449616900614367130,-510.0,-524.0,249.0
1449616900642305740,-512.0,-524.0,264.0
1449616900647312460,-512.0,-526.0,271.0
1449616900660775298,-514.0,-526.0,254.0
1449616900685637806,-516.0,-526.0,320.0
1449616900694616836,-516.0,-528.0,271.0
1449616900708789428,-518.0,-528.0,252.0
1449616900724057700,-520.0,-530.0,265.0
1449616900737595228,-520.0,-530.0,271.0
1449616900752323737,-522.0,-530.0,252.0
1449616900768471979,-524.0,-532.0,263.0
1449616900785422573,-524.0,-532.0,271.0
1449616900798550324,-526.0,-534.0,244.0
1449616900815977035,-528.0,-534.0,264.0
1449616900826788294,-530.0,-536.0,264.0
1449616900844514506,-530.0,-536.0,252.0
1449616900858911239,-532.0,-538.0,269.0
1449616900888908902,-534.0,-540.0,254.0
1449616900965561382,-542.0,-544.0,250.0
1449616900977800562,-544.0,-546.0,269.0
1449616900995859485,-546.0,-546.0,257.0
1449616901011694519,-546.0,-548.0,258.0
1449616901023814338,-548.0,-548.0,265.0
1449616901053968477,-550.0,-550.0,251.0
1449616901064056243,-552.0,-552.0,262.0
1449616901071121638,-554.0,-552.0,303.0
1449616901085611719,-554.0,-554.0,249.0
1449616901096437271,-556.0,-554.0,318.0
1449616901114062969,-558.0,-556.0,244.0
1449616901131852548,-560.0,-558.0,308.0
1449616901141423703,-562.0,-558.0,249.0
1449616901157612766,-564.0,-560.0,301.0
1449616901176196569,-564.0,-560.0,260.0
1449616901186545522,-566.0,-562.0,287.0
1449616901202752265,-568.0,-564.0,260.0
1449616901220013557,-570.0,-564.0,294.0
1449616901234141106,-572.0,-566.0,254.0
1449616901248732794,-572.0,-568.0,295.0
1449616901265475092,-574.0,-568.0,239.0
1449616901277612199,-576.0,-570.0,304.0
1449616901293225207,-578.0,-572.0,235.0
1449616901309619771,-580.0,-572.0,243.0
1449616901325110387,-582.0,-574.0,237.0
1449616901338432250,-584.0,-576.0,291.0
1449616901354330355,-584.0,-576.0,245.0
1449616901366806452,-586.0,-578.0,281.0
1449616901383889063,-588.0,-580.0,246.0
1449616901402973405,-590.0,-580.0,274.0
1449616901412302236,-592.0,-582.0,237.0
1449616901429751961,-594.0,-584.0,275.0
1449616901445647889,-596.0,-584.0,234.0
1449616901459395750,-598.0,-586.0,229.0
1449616901474017545,-598.0,-588.0,216.0
1449616901485665234,-600.0,-588.0,282.0
1449616901502125720,-602.0,-590.0,210.0
1449616901518488878,-604.0,-592.0,277.0
1449616901530692106,-606.0,-594.0,208.0
1449616901546784740,-608.0,-594.0,257.0
1449616901567550561,-610.0,-596.0,201.0
1449616901575861792,-612.0,-598.0,203.0
1449616901593277112,-612.0,-600.0,201.0
1449616901611290134,-614.0,-600.0,233.0
1449616901621440983,-616.0,-602.0,200.0
1449616901637570202,-618.0,-604.0,230.0
1449616901655602927,-620.0,-604.0,197.0
1449616901672553927,-622.0,-606.0,227.0
1449616901683585361,-624.0,-608.0,186.0
1449616901699561720,-626.0,-610.0,225.0
1449616901715478852,-628.0,-612.0,183.0
1449616901728057930,-628.0,-612.0,191.0
1449616901743563506,-630.0,-614.0,171.0
1449616901755814922,-632.0,-616.0,235.0
1449616901772432047,-634.0,-616.0,169.0
1449616901788994511,-636.0,-618.0,237.0
1449616901800966285,-638.0,-620.0,177.0
1449616901818670810,-640.0,-622.0,231.0
1449616901833848709,-642.0,-624.0,179.0
1449616901849642858,-642.0,-624.0,225.0
1449616901865604202,-644.0,-626.0,192.0
1449616901875344612,-646.0,-628.0,218.0
1449616901893377705,-648.0,-630.0,191.0
1449616901908980128,-650.0,-632.0,221.0
1449616901919642141,-652.0,-632.0,187.0
1449616901936063304,-654.0,-634.0,224.0
1449616901953497506,-656.0,-636.0,182.0
1449616901966557912,-656.0,-638.0,237.0
1449616901981840551,-658.0,-638.0,174.0
1449616901997889570,-660.0,-640.0,200.0
1449616902009833200,-662.0,-642.0,178.0
1449616902026927433,-664.0,-644.0,243.0
1449616902046578769,-666.0,-644.0,182.0
1449616902056197126,-668.0,-646.0,232.0
1449616902071745543,-668.0,-648.0,191.0
1449616902089802239,-670.0,-648.0,219.0
1449616902100086201,-672.0,-650.0,186.0
1449616902116963821,-674.0,-652.0,176.0
1449616902138954024,-676.0,-654.0,179.0
1449616902145614960,-676.0,-656.0,180.0
1449616902161682878,-678.0,-656.0,162.0
1449616902179141759,-680.0,-658.0,177.0
1449616902191133115,-682.0,-660.0,163.0
1449616902207625161,-684.0,-660.0,170.0
1449616902223260323,-684.0,-662.0,172.0
1449616902238474339,-686.0,-664.0,157.0
1449616902251862883,-688.0,-664.0,176.0
1449616902264676651,-690.0,-666.0,160.0
1449616902281627103,-690.0,-668.0,164.0
1449616902303485372,-692.0,-668.0,181.0
1449616902309341543,-694.0,-670.0,169.0
1449616902325363846,-696.0,-672.0,182.0
1449616902341911792,-696.0,-672.0,188.0
1449616902354188699,-698.0,-674.0,173.0
1449616902370653239,-700.0,-674.0,176.0
1449616902388652676,-700.0,-676.0,195.0
1449616902409629096,-702.0,-676.0,184.0
1449616902418555856,-704.0,-678.0,220.0
1449616902431923896,-704.0,-680.0,208.0
1449616902444246685,-706.0,-680.0,187.0
1449616902460625645,-708.0,-682.0,205.0
1449616902480938085,-708.0,-682.0,215.0
1449616902492600091,-710.0,-684.0,204.0
1449616902506127057,-710.0,-684.0,199.0
1449616902522623417,-712.0,-686.0,215.0
1449616902535862365,-714.0,-686.0,233.0
1449616902550719795,-714.0,-688.0,204.0
1449616902567257226,-716.0,-688.0,220.0
1449616902579414185,-716.0,-690.0,228.0
1449616902596916329,-718.0,-690.0,215.0
1449616902612045257,-718.0,-692.0,208.0
1449616902624578923,-720.0,-692.0,220.0
1449616902642097957,-720.0,-694.0,229.0
1449616902656755926,-720.0,-694.0,229.0
1449616902670857469,-722.0,-696.0,221.0
1449616902687435388,-722.0,-696.0,238.0
1449616902699225260,-724.0,-696.0,228.0
1449616902714834952,-724.0,-698.0,232.0
1449616902731863789,-724.0,-698.0,229.0
1449616902744614638,-726.0,-698.0,220.0
1449616902759435255,-726.0,-700.0,213.0
1449616902777881536,-726.0,-700.0,214.0
1449616902790009482,-728.0,-700.0,223.0
1449616902805556771,-728.0,-702.0,227.0
1449616902820916054,-728.0,-702.0,233.0
1449616902834537905,-728.0,-702.0,233.0
1449616902850557585,-728.0,-704.0,234.0
1449616902874134822,-730.0,-704.0,220.0
1449616902879461649,-730.0,-704.0,220.0
1449616902896271581,-730.0,-704.0,217.0
1449616902911891769,-730.0,-706.0,214.0
1449616902923746317,-730.0,-706.0,214.0
1449616902940970325,-730.0,-706.0,212.0
1449616902957988221,-730.0,-706.0,262.0
1449616902977786001,-730.0,-708.0,219.0
1449616902985427113,-732.0,-708.0,226.0
1449616903003509153,-732.0,-708.0,229.0
1449616903014336165,-732.0,-708.0,228.0
1449616903031773610,-732.0,-708.0,225.0
1449616903041995465,-732.0,-710.0,228.0
1449616903058901635,-732.0,-710.0,229.0
1449616903075500582,-732.0,-710.0,230.0
1449616903092727675,-732.0,-710.0,226.0
1449616903104118058,-732.0,-710.0,229.0
1449616903120577613,-732.0,-710.0,234.0
1449616903134088434,-732.0,-712.0,227.0
1449616903149100387,-732.0,-712.0,226.0
1449616903168353887,-732.0,-712.0,230.0
1449616903181636472,-732.0,-712.0,228.0
1449616903194220830,-732.0,-712.0,231.0
1449616903217833256,-732.0,-712.0,221.0
1449616903223527289,-732.0,-714.0,229.0
1449616903242155661,-732.0,-714.0,229.0
1449616903255004973,-732.0,-714.0,233.0
1449616903270189160,-732.0,-714.0,231.0
1449616903283832707,-732.0,-714.0,230.0
1449616903303223021,-732.0,-716.0,232.0
1449616903312839906,-732.0,-716.0,233.0
1449616903329389191,-732.0,-716.0,229.0
1449616903345624834,-732.0,-716.0,230.0
1449616903357634403,-732.0,-716.0,235.0
1449616903374159686,-732.0,-718.0,232.0
1449616903390400076,-732.0,-718.0,232.0
1449616903409470234,-732.0,-718.0,258.0
1449616903419070749,-732.0,-718.0,231.0
1449616903435997444,-732.0,-720.0,234.0
1449616903454789377,-732.0,-720.0,233.0
1449616903464173635,-732.0,-720.0,233.0
1449616903480678881,-732.0,-720.0,234.0
1449616903496822806,-732.0,-720.0,232.0
1449616903511748491,-732.0,-722.0,235.0
1449616903525688936,-732.0,-722.0,233.0
1449616903542267671,-732.0,-722.0,231.0
1449616903554052407,-732.0,-722.0,228.0
1449616903570683074,-732.0,-722.0,237.0
1449616903587197726,-732.0,-724.0,231.0
1449616903599960548,-732.0,-724.0,235.0
1449616903615797943,-732.0,-724.0,234.0
1449616903638111289,-732.0,-724.0,237.0
1449616903646604960,-732.0,-724.0,233.0
1449616903663625093,-732.0,-726.0,236.0
1449616903677342109,-732.0,-726.0,237.0
1449616903689430498,-732.0,-726.0,234.0
1449616903705794055,-732.0,-726.0,237.0
1449616903722587182,-732.0,-726.0,235.0
1449616903737461177,-732.0,-726.0,235.0
1449616903750766468,-732.0,-728.0,238.0
1449616903769623694,-732.0,-728.0,236.0
1449616903781389026,-732.0,-728.0,238.0
1449616903797022142,-732.0,-728.0,236.0
1449616903809366745,-732.0,-728.0,235.0
1449616903825907379,-732.0,-730.0,231.0
1449616903841411101,-732.0,-730.0,228.0
1449616903853160197,-732.0,-730.0,229.0
1449616903870274837,-732.0,-730.0,229.0
1449616903888876783,-732.0,-730.0,224.0
1449616903898765434,-732.0,-732.0,282.0
1449616903915818276,-732.0,-732.0,226.0
1449616903932174331,-732.0,-732.0,227.0
1449616903943687271,-732.0,-732.0,223.0
1449616903960746424,-732.0,-732.0,222.0
1449616903977426776,-732.0,-732.0,223.0
1449616903989211466,-732.0,-734.0,212.0
1449616904005137804,-732.0,-734.0,218.0
1449616904025627456,-732.0,-734.0,218.0
1449616904033764144,-732.0,-734.0,214.0
1449616904052860537,-732.0,-734.0,221.0
1449616904066850234,-732.0,-736.0,217.0
1449616904080261434,-732.0,-736.0,223.0
