%time,field.header.seq,field.header.stamp,field.header.frame_id,field.ns,field.id,field.type,field.action,field.pose.position.x,field.pose.position.y,field.pose.position.z,field.pose.orientation.x,field.pose.orientation.y,field.pose.orientation.z,field.pose.orientation.w,field.scale.x,field.scale.y,field.scale.z,field.color.r,field.color.g,field.color.b,field.color.a,field.lifetime,field.frame_locked,field.text,field.mesh_resource,field.mesh_use_embedded_materials
1449616885058704352,0,1449616885057511702,/odom,doorways,20,0,0,0.0,0.0,0.0,0.0,0.0,0.0,1.0,0.25,0.15,0.0,1.0,0.0,0.0,1.0,2000000000,0,,,0
1449616886188030065,1,1449616886186680342,/odom,doorways,20,0,0,0.0,0.0,0.0,0.0,0.0,0.0,1.0,0.25,0.15,0.0,1.0,0.0,0.0,1.0,2000000000,0,,,0
1449616887892548307,2,1449616887885169358,/odom,doorways,20,0,0,0.0547009565848,-0.00121721699728,0.0,0.0,0.0,-0.0158514091245,0.999874358521,0.25,0.15,0.0,1.0,0.0,0.0,1.0,2000000000,0,,,0
1449616888577507311,3,1449616888564949653,/odom,doorways,20,0,0,0.1351904932,-0.00583992799247,0.0,0.0,0.0,-0.0475382956186,0.998869416115,0.25,0.15,0.0,1.0,0.0,0.0,1.0,2000000000,0,,,0
1449616890559907572,4,1449616890512009621,/odom,doorways,20,0,0,0.16291875535,-0.0131869405798,0.0,0.0,0.0,-0.163073201911,0.986613972544,0.25,0.15,0.0,1.0,0.0,0.0,1.0,2000000000,0,,,0
1449616891198128195,5,1449616891188326167,/odom,doorways,20,0,0,0.288307899619,-0.0639897163054,0.0,0.0,0.0,-0.209790780666,0.977746300606,0.25,0.15,0.0,1.0,0.0,0.0,1.0,2000000000,0,,,0
1449616893188158550,6,1449616893186678226,/odom,doorways,20,0,0,0.693743554356,-0.315522787241,0.0,0.0,0.0,-0.311756837497,0.950161920029,0.25,0.15,0.0,1.0,0.0,0.0,1.0,2000000000,0,,,0
1449616893188172417,7,1449616893186794246,/odom,doorways,20,0,0,0.693743554356,-0.315522787241,0.0,0.0,0.0,-0.311756837497,0.950161920029,0.25,0.15,0.0,1.0,0.0,0.0,1.0,2000000000,0,,,0
1449616893363626631,8,1449616893361315400,/odom,doorways,20,0,0,0.723667555908,-0.338019598016,0.0,0.0,0.0,-0.316773140589,0.948501332314,0.25,0.15,0.0,1.0,0.0,0.0,1.0,2000000000,0,,,0
1449616893499517611,9,1449616893498996033,/odom,doorways,20,0,0,0.748785283869,-0.357321879274,0.0,0.0,0.0,-0.321780599107,0.946814261637,0.25,0.15,0.0,1.0,0.0,0.0,1.0,2000000000,0,,,0
1449616893499523084,10,1449616893499111789,/odom,doorways,20,0,0,0.748785283869,-0.357321879274,0.0,0.0,0.0,-0.321780599107,0.946814261637,0.25,0.15,0.0,1.0,0.0,0.0,1.0,2000000000,0,,,0
1449616893649396587,11,1449616893648604564,/odom,doorways,20,0,0,0.780753301274,-0.381888419057,0.0,0.0,0.0,-0.321780599107,0.946814261637,0.25,0.15,0.0,1.0,0.0,0.0,1.0,2000000000,0,,,0
1449616893755467739,12,1449616893754523891,/odom,doorways,20,0,0,0.805740328889,-0.40135893104,0.0,0.0,0.0,-0.326779073236,0.945100755102,0.25,0.15,0.0,1.0,0.0,0.0,1.0,2000000000,0,,,0
1449616893883813114,13,1449616893880548725,/odom,doorways,20,0,0,0.805740328889,-0.40135893104,0.0,0.0,0.0,-0.326779073236,0.945100755102,0.25,0.15,0.0,1.0,0.0,0.0,1.0,2000000000,0,,,0
1449616893883816782,14,1449616893880560964,/odom,doorways,20,0,0,0.805740328889,-0.40135893104,0.0,0.0,0.0,-0.326779073236,0.945100755102,0.25,0.15,0.0,1.0,0.0,0.0,1.0,2000000000,0,,,0
1449616893988734497,15,1449616893987885446,/odom,doorways,20,0,0,0.86067155965,-0.443303396688,0.0,0.0,0.0,-0.316773140589,0.948501332314,0.25,0.15,0.0,1.0,0.0,0.0,1.0,2000000000,0,,,0
1449616894163823926,16,1449616894162405181,/odom,doorways,20,0,0,0.890686358113,-0.465678096435,0.0,0.0,0.0,-0.311756837497,0.950161920029,0.25,0.15,0.0,1.0,0.0,0.0,1.0,2000000000,0,,,0
1449616894359198158,17,1449616894351385653,/odom,doorways,20,0,0,0.951523263291,-0.509321280835,0.0,0.0,0.0,-0.30169825807,0.953403461855,0.25,0.15,0.0,1.0,0.0,0.0,1.0,2000000000,0,,,0
1449616894359255243,18,1449616894351411391,/odom,doorways,20,0,0,0.951523263291,-0.509321280835,0.0,0.0,0.0,-0.30169825807,0.953403461855,0.25,0.15,0.0,1.0,0.0,0.0,1.0,2000000000,0,,,0
1449616894475329546,19,1449616894473177942,/odom,doorways,20,0,0,0.951523263291,-0.509321280835,0.0,0.0,0.0,-0.30169825807,0.953403461855,0.25,0.15,0.0,1.0,0.0,0.0,1.0,2000000000,0,,,0
1449616894852806976,20,1449616894849002733,/odom,doorways,20,0,0,1.0465393311,-0.5744360218,0.0,0.0,0.0,-0.291605984193,0.956538525091,0.25,0.15,0.0,1.0,0.0,0.0,1.0,2000000000,0,,,0
1449616894852809877,21,1449616894849184558,/odom,doorways,20,0,0,1.0465393311,-0.5744360218,0.0,0.0,0.0,-0.291605984193,0.956538525091,0.25,0.15,0.0,1.0,0.0,0.0,1.0,2000000000,0,,,0
1449616895108470226,22,1449616895101262691,/odom,doorways,20,0,0,1.07774450425,-0.595118199735,0.0,0.0,0.0,-0.28654756392,0.958066017355,0.25,0.15,0.0,1.0,0.0,0.0,1.0,2000000000,0,,,0
1449616895360768472,23,1449616895359797789,/odom,doorways,20,0,0,1.09216891884,-0.604630673957,0.0,0.0,0.0,-0.28654756392,0.958066017355,0.25,0.15,0.0,1.0,0.0,0.0,1.0,2000000000,0,,,0
1449616895360788977,24,1449616895359811531,/odom,doorways,20,0,0,1.09216891884,-0.604630673957,0.0,0.0,0.0,-0.28654756392,0.958066017355,0.25,0.15,0.0,1.0,0.0,0.0,1.0,2000000000,0,,,0
1449616895780485918,25,1449616895780054210,/odom,doorways,20,0,0,1.09459237065,-0.606186337981,0.0,0.0,0.0,-0.281481142997,0.959566759604,0.25,0.15,0.0,1.0,0.0,0.0,1.0,2000000000,0,,,0
1449616895780536059,26,1449616895780142735,/odom,doorways,20,0,0,1.09459237065,-0.606186337981,0.0,0.0,0.0,-0.281481142997,0.959566759604,0.25,0.15,0.0,1.0,0.0,0.0,1.0,2000000000,0,,,0
1449616896689315693,27,1449616896689157998,/odom,doorways,20,0,0,1.09459237065,-0.606186337981,0.0,0.0,0.0,-0.281481142997,0.959566759604,0.25,0.15,0.0,1.0,0.0,0.0,1.0,2000000000,0,,,0
1449616896689319570,28,1449616896689261030,/odom,doorways,20,0,0,1.09459237065,-0.606186337981,0.0,0.0,0.0,-0.281481142997,0.959566759604,0.25,0.15,0.0,1.0,0.0,0.0,1.0,2000000000,0,,,0
1449616897005267523,29,1449616897005062767,/odom,doorways,20,0,0,1.09457633843,-0.606212206402,0.0,0.0,0.0,-0.271324865251,0.962487827194,0.25,0.15,0.0,1.0,0.0,0.0,1.0,2000000000,0,,,0
1449616897005278050,30,1449616897005151741,/odom,doorways,20,0,0,1.09457633843,-0.606212206402,0.0,0.0,0.0,-0.271324865251,0.962487827194,0.25,0.15,0.0,1.0,0.0,0.0,1.0,2000000000,0,,,0
1449616897323044461,31,1449616897322910093,/odom,doorways,20,0,0,1.09456085651,-0.606238407879,0.0,0.0,0.0,-0.261138285236,0.965301401628,0.25,0.15,0.0,1.0,0.0,0.0,1.0,2000000000,0,,,0
1449616897323047040,32,1449616897322984974,/odom,doorways,20,0,0,1.09456085651,-0.606238407879,0.0,0.0,0.0,-0.261138285236,0.965301401628,0.25,0.15,0.0,1.0,0.0,0.0,1.0,2000000000,0,,,0
1449616897622162747,33,1449616897621062640,/odom,doorways,20,0,0,1.09456085651,-0.606238407879,0.0,0.0,0.0,-0.261138285236,0.965301401628,0.25,0.15,0.0,1.0,0.0,0.0,1.0,2000000000,0,,,0
1449616897953532815,34,1449616897953222718,/odom,doorways,20,0,0,1.09459014205,-0.606185052722,0.0,0.0,0.0,-0.240678772307,0.970604826158,0.25,0.15,0.0,1.0,0.0,0.0,1.0,2000000000,0,,,0
1449616897953763303,35,1449616897953251238,/odom,doorways,20,0,0,1.09459014205,-0.606185052722,0.0,0.0,0.0,-0.240678772307,0.970604826158,0.25,0.15,0.0,1.0,0.0,0.0,1.0,2000000000,0,,,0
1449616898287779039,36,1449616898279607272,/odom,doorways,20,0,0,1.09459014205,-0.606185052722,0.0,0.0,0.0,-0.240678772307,0.970604826158,0.25,0.15,0.0,1.0,0.0,0.0,1.0,2000000000,0,,,0
1449616898287845918,37,1449616898279619947,/odom,doorways,20,0,0,1.09459014205,-0.606185052722,0.0,0.0,0.0,-0.240678772307,0.970604826158,0.25,0.15,0.0,1.0,0.0,0.0,1.0,2000000000,0,,,0
1449616914333267502,38,1449616914332896828,/odom,doorways,20,0,0,3.76103562345,-0.48291267209,0.0,0.0,0.0,0.0739088866573,0.997264998119,0.25,0.15,0.0,1.0,0.0,0.0,1.0,2000000000,0,,,0
1449616914333290250,40,1449616914332927300,/odom,doorways,20,0,0,3.76103562345,-0.48291267209,0.0,0.0,0.0,0.0739088866573,0.997264998119,0.25,0.15,0.0,1.0,0.0,0.0,1.0,2000000000,0,,,0
1449616914526892579,41,1449616914525551795,/odom,doorways,20,0,0,3.80671824731,-0.47690402219,0.0,0.0,0.0,0.0633658106137,0.997990367712,0.25,0.15,0.0,1.0,0.0,0.0,1.0,2000000000,0,,,0
1449616914526975798,42,1449616914525852859,/odom,doorways,20,0,0,3.80671824731,-0.47690402219,0.0,0.0,0.0,0.0633658106137,0.997990367712,0.25,0.15,0.0,1.0,0.0,0.0,1.0,2000000000,0,,,0
1449616914658874170,43,1449616914658711087,/odom,doorways,20,0,0,3.80671824731,-0.47690402219,0.0,0.0,0.0,0.0633658106137,0.997990367712,0.25,0.15,0.0,1.0,0.0,0.0,1.0,2000000000,0,,,0
1449616914658877511,44,1449616914658817698,/odom,doorways,20,0,0,3.80671824731,-0.47690402219,0.0,0.0,0.0,0.0633658106137,0.997990367712,0.25,0.15,0.0,1.0,0.0,0.0,1.0,2000000000,0,,,0
1449616914658986448,45,1449616914658891031,/odom,doorways,20,0,0,3.80671824731,-0.47690402219,0.0,0.0,0.0,0.0633658106137,0.997990367712,0.25,0.15,0.0,1.0,0.0,0.0,1.0,2000000000,0,,,0
1449616914851954600,46,1449616914851751933,/odom,doorways,20,0,0,3.86101706206,-0.47016495603,0.0,0.0,0.0,0.0580915451448,0.99831126027,0.25,0.15,0.0,1.0,0.0,0.0,1.0,2000000000,0,,,0
1449616914852104974,47,1449616914851952926,/odom,doorways,20,0,0,3.86101706206,-0.47016495603,0.0,0.0,0.0,0.0580915451448,0.99831126027,0.25,0.15,0.0,1.0,0.0,0.0,1.0,2000000000,0,,,0
1449616915060693029,48,1449616915060521132,/odom,doorways,20,0,0,3.91537395177,-0.463909348586,0.0,0.0,0.0,0.0528156577107,0.998604279132,0.25,0.15,0.0,1.0,0.0,0.0,1.0,2000000000,0,,,0
1449616915060774743,49,1449616915060694659,/odom,doorways,20,0,0,3.91537395177,-0.463909348586,0.0,0.0,0.0,0.0528156577107,0.998604279132,0.25,0.15,0.0,1.0,0.0,0.0,1.0,2000000000,0,,,0
1449616915061750444,50,1449616915060808170,/odom,doorways,20,0,0,3.91537395177,-0.463909348586,0.0,0.0,0.0,0.0528156577107,0.998604279132,0.25,0.15,0.0,1.0,0.0,0.0,1.0,2000000000,0,,,0
1449616915251846682,51,1449616915250811194,/odom,doorways,20,0,0,3.91537395177,-0.463909348586,0.0,0.0,0.0,0.0528156577107,0.998604279132,0.25,0.15,0.0,1.0,0.0,0.0,1.0,2000000000,0,,,0
1449616915251853994,52,1449616915250909902,/odom,doorways,20,0,0,3.91537395177,-0.463909348586,0.0,0.0,0.0,0.0528156577107,0.998604279132,0.25,0.15,0.0,1.0,0.0,0.0,1.0,2000000000,0,,,0
1449616915478727403,53,1449616915478584574,/odom,doorways,20,0,0,3.99557259798,-0.455555242618,0.0,0.0,0.0,0.0528156577107,0.998604279132,0.25,0.15,0.0,1.0,0.0,0.0,1.0,2000000000,0,,,0
1449616915478730188,54,1449616915478594458,/odom,doorways,20,0,0,3.99557259798,-0.455555242618,0.0,0.0,0.0,0.0528156577107,0.998604279132,0.25,0.15,0.0,1.0,0.0,0.0,1.0,2000000000,0,,,0
1449616915478732742,55,1449616915478598865,/odom,doorways,20,0,0,3.99557259798,-0.455555242618,0.0,0.0,0.0,0.0528156577107,0.998604279132,0.25,0.15,0.0,1.0,0.0,0.0,1.0,2000000000,0,,,0
1449616915670623754,56,1449616915670345290,/odom,doorways,20,0,0,4.02998211521,-0.452364278999,0.0,0.0,0.0,0.042259606217,0.999106663816,0.25,0.15,0.0,1.0,0.0,0.0,1.0,2000000000,0,,,0
1449616915670695856,57,1449616915670352437,/odom,doorways,20,0,0,4.02998211521,-0.452364278999,0.0,0.0,0.0,0.042259606217,0.999106663816,0.25,0.15,0.0,1.0,0.0,0.0,1.0,2000000000,0,,,0
1449616915847870779,58,1449616915847031255,/odom,doorways,20,0,0,4.02998211521,-0.452364278999,0.0,0.0,0.0,0.042259606217,0.999106663816,0.25,0.15,0.0,1.0,0.0,0.0,1.0,2000000000,0,,,0
1449616915848168836,59,1449616915847065176,/odom,doorways,20,0,0,4.02998211521,-0.452364278999,0.0,0.0,0.0,0.042259606217,0.999106663816,0.25,0.15,0.0,1.0,0.0,0.0,1.0,2000000000,0,,,0
1449616915848175510,60,1449616915847125945,/odom,doorways,20,0,0,4.02998211521,-0.452364278999,0.0,0.0,0.0,0.042259606217,0.999106663816,0.25,0.15,0.0,1.0,0.0,0.0,1.0,2000000000,0,,,0
1449616916042691502,61,1449616916042507090,/odom,doorways,20,0,0,4.09309216639,-0.446802133053,0.0,0.0,0.0,0.042259606217,0.999106663816,0.25,0.15,0.0,1.0,0.0,0.0,1.0,2000000000,0,,,0
1449616916043049855,62,1449616916042514093,/odom,doorways,20,0,0,4.09309216639,-0.446802133053,0.0,0.0,0.0,0.042259606217,0.999106663816,0.25,0.15,0.0,1.0,0.0,0.0,1.0,2000000000,0,,,0
1449616916043057286,64,1449616916042587123,/odom,doorways,20,0,0,4.09309216639,-0.446802133053,0.0,0.0,0.0,0.042259606217,0.999106663816,0.25,0.15,0.0,1.0,0.0,0.0,1.0,2000000000,0,,,0
1449616916137731312,65,1449616916136568476,/odom,doorways,20,0,0,4.10457019586,-0.445829411362,0.0,0.0,0.0,0.042259606217,0.999106663816,0.25,0.15,0.0,1.0,0.0,0.0,1.0,2000000000,0,,,0
1449616916137744232,66,1449616916136647420,/odom,doorways,20,0,0,4.10457019586,-0.445829411362,0.0,0.0,0.0,0.042259606217,0.999106663816,0.25,0.15,0.0,1.0,0.0,0.0,1.0,2000000000,0,,,0
1449616916137747986,67,1449616916136719310,/odom,doorways,20,0,0,4.10457019586,-0.445829411362,0.0,0.0,0.0,0.042259606217,0.999106663816,0.25,0.15,0.0,1.0,0.0,0.0,1.0,2000000000,0,,,0
1449616916234415686,68,1449616916234249857,/odom,doorways,20,0,0,4.12467361504,-0.444339515164,0.0,0.0,0.0,0.0369797368913,0.999316015612,0.25,0.15,0.0,1.0,0.0,0.0,1.0,2000000000,0,,,0
1449616916234748260,69,1449616916234457436,/odom,doorways,20,0,0,4.12467361504,-0.444339515164,0.0,0.0,0.0,0.0369797368913,0.999316015612,0.25,0.15,0.0,1.0,0.0,0.0,1.0,2000000000,0,,,0
1449616916234760392,70,1449616916234571041,/odom,doorways,20,0,0,4.12467361504,-0.444339515164,0.0,0.0,0.0,0.0369797368913,0.999316015612,0.25,0.15,0.0,1.0,0.0,0.0,1.0,2000000000,0,,,0
1449616916234765124,71,1449616916234659950,/odom,doorways,20,0,0,4.12467361504,-0.444339515164,0.0,0.0,0.0,0.0369797368913,0.999316015612,0.25,0.15,0.0,1.0,0.0,0.0,1.0,2000000000,0,,,0
1449616916336759273,72,1449616916336304928,/odom,doorways,20,0,0,4.14190511719,-0.443062461279,0.0,0.0,0.0,0.0369797368913,0.999316015612,0.25,0.15,0.0,1.0,0.0,0.0,1.0,2000000000,0,,,0
1449616916336763698,74,1449616916336317198,/odom,doorways,20,0,0,4.14190511719,-0.443062461279,0.0,0.0,0.0,0.0369797368913,0.999316015612,0.25,0.15,0.0,1.0,0.0,0.0,1.0,2000000000,0,,,0
1449616916558742148,75,1449616916558613893,/odom,doorways,20,0,0,4.16488672014,-0.441450808405,0.0,0.0,0.0,0.0369797368913,0.999316015612,0.25,0.15,0.0,1.0,0.0,0.0,1.0,2000000000,0,,,0
1449616916558983953,76,1449616916558735644,/odom,doorways,20,0,0,4.16488672014,-0.441450808405,0.0,0.0,0.0,0.0369797368913,0.999316015612,0.25,0.15,0.0,1.0,0.0,0.0,1.0,2000000000,0,,,0
1449616916559181447,77,1449616916559111856,/odom,doorways,20,0,0,4.16488672014,-0.441450808405,0.0,0.0,0.0,0.0369797368913,0.999316015612,0.25,0.15,0.0,1.0,0.0,0.0,1.0,2000000000,0,,,0
1449616916559415800,78,1449616916559226480,/odom,doorways,20,0,0,4.16488672014,-0.441450808405,0.0,0.0,0.0,0.0369797368913,0.999316015612,0.25,0.15,0.0,1.0,0.0,0.0,1.0,2000000000,0,,,0
1449616916559539392,79,1449616916559376782,/odom,doorways,20,0,0,4.16488672014,-0.441450808405,0.0,0.0,0.0,0.0369797368913,0.999316015612,0.25,0.15,0.0,1.0,0.0,0.0,1.0,2000000000,0,,,0
1449616916777574428,80,1449616916766978162,/odom,doorways,20,0,0,4.16488672014,-0.441450808405,0.0,0.0,0.0,0.0369797368913,0.999316015612,0.25,0.15,0.0,1.0,0.0,0.0,1.0,2000000000,0,,,0
1449616916777584089,81,1449616916767116797,/odom,doorways,20,0,0,4.16488672014,-0.441450808405,0.0,0.0,0.0,0.0369797368913,0.999316015612,0.25,0.15,0.0,1.0,0.0,0.0,1.0,2000000000,0,,,0
1449616916777587026,82,1449616916767224602,/odom,doorways,20,0,0,4.16488672014,-0.441450808405,0.0,0.0,0.0,0.0369797368913,0.999316015612,0.25,0.15,0.0,1.0,0.0,0.0,1.0,2000000000,0,,,0
1449616916953415544,83,1449616916952845888,/odom,doorways,20,0,0,4.20225233324,-0.439139327273,0.0,0.0,0.0,0.0316988350601,0.999497465658,0.25,0.15,0.0,1.0,0.0,0.0,1.0,2000000000,0,,,0
1449616916955905108,84,1449616916955406258,/odom,doorways,20,0,0,4.20225233324,-0.439139327273,0.0,0.0,0.0,0.0316988350601,0.999497465658,0.25,0.15,0.0,1.0,0.0,0.0,1.0,2000000000,0,,,0
1449616916956614625,85,1449616916955733480,/odom,doorways,20,0,0,4.20225233324,-0.439139327273,0.0,0.0,0.0,0.0316988350601,0.999497465658,0.25,0.15,0.0,1.0,0.0,0.0,1.0,2000000000,0,,,0
1449616916956624220,86,1449616916956234166,/odom,doorways,20,0,0,4.20225233324,-0.439139327273,0.0,0.0,0.0,0.0316988350601,0.999497465658,0.25,0.15,0.0,1.0,0.0,0.0,1.0,2000000000,0,,,0
1449616916957360506,87,1449616916956448603,/odom,doorways,20,0,0,4.20225233324,-0.439139327273,0.0,0.0,0.0,0.0316988350601,0.999497465658,0.25,0.15,0.0,1.0,0.0,0.0,1.0,2000000000,0,,,0
1449616917174049799,88,1449616917168863642,/odom,doorways,20,0,0,4.22525498839,-0.437861777351,0.0,0.0,0.0,0.0316988350601,0.999497465658,0.25,0.15,0.0,1.0,0.0,0.0,1.0,2000000000,0,,,0
1449616917174085384,89,1449616917168967582,/odom,doorways,20,0,0,4.22525498839,-0.437861777351,0.0,0.0,0.0,0.0316988350601,0.999497465658,0.25,0.15,0.0,1.0,0.0,0.0,1.0,2000000000,0,,,0
1449616917174105176,90,1449616917169116910,/odom,doorways,20,0,0,4.22525498839,-0.437861777351,0.0,0.0,0.0,0.0316988350601,0.999497465658,0.25,0.15,0.0,1.0,0.0,0.0,1.0,2000000000,0,,,0
1449616917390916050,91,1449616917390336297,/odom,doorways,20,0,0,4.22525498839,-0.437861777351,0.0,0.0,0.0,0.0316988350601,0.999497465658,0.25,0.15,0.0,1.0,0.0,0.0,1.0,2000000000,0,,,0
1449616917390919362,92,1449616917390347118,/odom,doorways,20,0,0,4.22525498839,-0.437861777351,0.0,0.0,0.0,0.0316988350601,0.999497465658,0.25,0.15,0.0,1.0,0.0,0.0,1.0,2000000000,0,,,0
1449616917390966709,93,1449616917390430208,/odom,doorways,20,0,0,4.22525498839,-0.437861777351,0.0,0.0,0.0,0.0316988350601,0.999497465658,0.25,0.15,0.0,1.0,0.0,0.0,1.0,2000000000,0,,,0
1449616917390969193,94,1449616917390441836,/odom,doorways,20,0,0,4.22525498839,-0.437861777351,0.0,0.0,0.0,0.0316988350601,0.999497465658,0.25,0.15,0.0,1.0,0.0,0.0,1.0,2000000000,0,,,0
1449616917390971723,95,1449616917390451526,/odom,doorways,20,0,0,4.22525498839,-0.437861777351,0.0,0.0,0.0,0.0316988350601,0.999497465658,0.25,0.15,0.0,1.0,0.0,0.0,1.0,2000000000,0,,,0
1449616917563309220,96,1449616917562794165,/odom,doorways,20,0,0,4.26264294234,-0.435945299563,0.0,0.0,0.0,0.0264170481704,0.999651008886,0.25,0.15,0.0,1.0,0.0,0.0,1.0,2000000000,0,,,0
1449616917563313923,97,1449616917562961862,/odom,doorways,20,0,0,4.26264294234,-0.435945299563,0.0,0.0,0.0,0.0264170481704,0.999651008886,0.25,0.15,0.0,1.0,0.0,0.0,1.0,2000000000,0,,,0
1449616917563317832,98,1449616917563122501,/odom,doorways,20,0,0,4.26264294234,-0.435945299563,0.0,0.0,0.0,0.0264170481704,0.999651008886,0.25,0.15,0.0,1.0,0.0,0.0,1.0,2000000000,0,,,0
1449616917764432255,99,1449616917761866391,/odom,doorways,20,0,0,4.27702759878,-0.43530640567,0.0,0.0,0.0,0.0211345236944,0.999776641009,0.25,0.15,0.0,1.0,0.0,0.0,1.0,2000000000,0,,,0
1449616917764435504,101,1449616917761981137,/odom,doorways,20,0,0,4.27702759878,-0.43530640567,0.0,0.0,0.0,0.0211345236944,0.999776641009,0.25,0.15,0.0,1.0,0.0,0.0,1.0,2000000000,0,,,0
1449616917764453997,102,1449616917761985645,/odom,doorways,20,0,0,4.27702759878,-0.43530640567,0.0,0.0,0.0,0.0211345236944,0.999776641009,0.25,0.15,0.0,1.0,0.0,0.0,1.0,2000000000,0,,,0
1449616917764456753,103,1449616917762002123,/odom,doorways,20,0,0,4.27702759878,-0.43530640567,0.0,0.0,0.0,0.0211345236944,0.999776641009,0.25,0.15,0.0,1.0,0.0,0.0,1.0,2000000000,0,,,0
1449616917982858402,104,1449616917982555142,/odom,doorways,20,0,0,4.29429204807,-0.434606624931,0.0,0.0,0.0,0.0211345236944,0.999776641009,0.25,0.15,0.0,1.0,0.0,0.0,1.0,2000000000,0,,,0
1449616917982923411,105,1449616917982808955,/odom,doorways,20,0,0,4.29429204807,-0.434606624931,0.0,0.0,0.0,0.0211345236944,0.999776641009,0.25,0.15,0.0,1.0,0.0,0.0,1.0,2000000000,0,,,0
1449616917983073181,106,1449616917982925528,/odom,doorways,20,0,0,4.29429204807,-0.434606624931,0.0,0.0,0.0,0.0211345236944,0.999776641009,0.25,0.15,0.0,1.0,0.0,0.0,1.0,2000000000,0,,,0
1449616918187884891,107,1449616918185435663,/odom,doorways,20,0,0,4.31443484342,-0.4338155581,0.0,0.0,0.0,0.0158514091245,0.999874358521,0.25,0.15,0.0,1.0,0.0,0.0,1.0,2000000000,0,,,0
1449616918187898669,108,1449616918185537180,/odom,doorways,20,0,0,4.31443484342,-0.4338155581,0.0,0.0,0.0,0.0158514091245,0.999874358521,0.25,0.15,0.0,1.0,0.0,0.0,1.0,2000000000,0,,,0
1449616918358621403,109,1449616918357475595,/odom,doorways,20,0,0,4.32594710227,-0.433420000896,0.0,0.0,0.0,0.0158514091245,0.999874358521,0.25,0.15,0.0,1.0,0.0,0.0,1.0,2000000000,0,,,0
1449616918358625096,110,1449616918357677358,/odom,doorways,20,0,0,4.32594710227,-0.433420000896,0.0,0.0,0.0,0.0158514091245,0.999874358521,0.25,0.15,0.0,1.0,0.0,0.0,1.0,2000000000,0,,,0
1449616918358640086,111,1449616918357821011,/odom,doorways,20,0,0,4.32594710227,-0.433420000896,0.0,0.0,0.0,0.0158514091245,0.999874358521,0.25,0.15,0.0,1.0,0.0,0.0,1.0,2000000000,0,,,0
1449616918358653439,112,1449616918357997849,/odom,doorways,20,0,0,4.32594710227,-0.433420000896,0.0,0.0,0.0,0.0158514091245,0.999874358521,0.25,0.15,0.0,1.0,0.0,0.0,1.0,2000000000,0,,,0
1449616918569395179,113,1449616918567798943,/odom,doorways,20,0,0,4.34897467481,-0.432720135195,0.0,0.0,0.0,0.0158514091245,0.999874358521,0.25,0.15,0.0,1.0,0.0,0.0,1.0,2000000000,0,,,0
1449616918569398641,116,1449616918567892083,/odom,doorways,20,0,0,4.34897467481,-0.432720135195,0.0,0.0,0.0,0.0158514091245,0.999874358521,0.25,0.15,0.0,1.0,0.0,0.0,1.0,2000000000,0,,,0
1449616918781778060,117,1449616918781710028,/odom,doorways,20,0,0,4.34897467481,-0.432720135195,0.0,0.0,0.0,0.0158514091245,0.999874358521,0.25,0.15,0.0,1.0,0.0,0.0,1.0,2000000000,0,,,0
1449616918969785742,118,1449616918969184256,/odom,doorways,20,0,0,4.38064210936,-0.431928949415,0.0,0.0,0.0,0.0105678519699,0.999944158693,0.25,0.15,0.0,1.0,0.0,0.0,1.0,2000000000,0,,,0
1449616918969808745,119,1449616918969191416,/odom,doorways,20,0,0,4.38064210936,-0.431928949415,0.0,0.0,0.0,0.0105678519699,0.999944158693,0.25,0.15,0.0,1.0,0.0,0.0,1.0,2000000000,0,,,0
1449616919261188277,120,1449616919261001939,/odom,doorways,20,0,0,4.40655462056,-0.431411618511,0.0,0.0,0.0,0.00528399975181,0.999986039576,0.25,0.15,0.0,1.0,0.0,0.0,1.0,2000000000,0,,,0
1449616919261562918,121,1449616919261461104,/odom,doorways,20,0,0,4.40655462056,-0.431411618511,0.0,0.0,0.0,0.00528399975181,0.999986039576,0.25,0.15,0.0,1.0,0.0,0.0,1.0,2000000000,0,,,0
1449616919261948000,122,1449616919261822685,/odom,doorways,20,0,0,4.40655462056,-0.431411618511,0.0,0.0,0.0,0.00528399975181,0.999986039576,0.25,0.15,0.0,1.0,0.0,0.0,1.0,2000000000,0,,,0
1449616919262660291,123,1449616919262134753,/odom,doorways,20,0,0,4.40655462056,-0.431411618511,0.0,0.0,0.0,0.00528399975181,0.999986039576,0.25,0.15,0.0,1.0,0.0,0.0,1.0,2000000000,0,,,0
1449616919461084665,124,1449616919460859689,/odom,doorways,20,0,0,4.41807218555,-0.431229025935,0.0,0.0,0.0,0.00528399975181,0.999986039576,0.25,0.15,0.0,1.0,0.0,0.0,1.0,2000000000,0,,,0
1449616919461088563,125,1449616919460869179,/odom,doorways,20,0,0,4.41807218555,-0.431229025935,0.0,0.0,0.0,0.00528399975181,0.999986039576,0.25,0.15,0.0,1.0,0.0,0.0,1.0,2000000000,0,,,0
1449616919461105968,126,1449616919460914727,/odom,doorways,20,0,0,4.41807218555,-0.431229025935,0.0,0.0,0.0,0.00528399975181,0.999986039576,0.25,0.15,0.0,1.0,0.0,0.0,1.0,2000000000,0,,,0
1449616919461109106,127,1449616919460932339,/odom,doorways,20,0,0,4.41807218555,-0.431229025935,0.0,0.0,0.0,0.00528399975181,0.999986039576,0.25,0.15,0.0,1.0,0.0,0.0,1.0,2000000000,0,,,0
1449616919655142131,128,1449616919654914051,/odom,doorways,20,0,0,4.41807218555,-0.431229025935,0.0,0.0,0.0,0.00528399975181,0.999986039576,0.25,0.15,0.0,1.0,0.0,0.0,1.0,2000000000,0,,,0
1449616919655157426,129,1449616919655016497,/odom,doorways,20,0,0,4.41807218555,-0.431229025935,0.0,0.0,0.0,0.00528399975181,0.999986039576,0.25,0.15,0.0,1.0,0.0,0.0,1.0,2000000000,0,,,0
1449616919655165506,130,1449616919655100539,/odom,doorways,20,0,0,4.41807218555,-0.431229025935,0.0,0.0,0.0,0.00528399975181,0.999986039576,0.25,0.15,0.0,1.0,0.0,0.0,1.0,2000000000,0,,,0
1449616919655297078,131,1449616919655176425,/odom,doorways,20,0,0,4.41807218555,-0.431229025935,0.0,0.0,0.0,0.00528399975181,0.999986039576,0.25,0.15,0.0,1.0,0.0,0.0,1.0,2000000000,0,,,0
1449616919855379521,132,1449616919855150376,/odom,doorways,20,0,0,4.44686851009,-0.430924693646,0.0,0.0,0.0,0.00528399975181,0.999986039576,0.25,0.15,0.0,1.0,0.0,0.0,1.0,2000000000,0,,,0
1449616919855385512,133,1449616919855158201,/odom,doorways,20,0,0,4.44686851009,-0.430924693646,0.0,0.0,0.0,0.00528399975181,0.999986039576,0.25,0.15,0.0,1.0,0.0,0.0,1.0,2000000000,0,,,0
1449616919855389296,134,1449616919855210687,/odom,doorways,20,0,0,4.44686851009,-0.430924693646,0.0,0.0,0.0,0.00528399975181,0.999986039576,0.25,0.15,0.0,1.0,0.0,0.0,1.0,2000000000,0,,,0
1449616919855412637,135,1449616919855216029,/odom,doorways,20,0,0,4.44686851009,-0.430924693646,0.0,0.0,0.0,0.00528399975181,0.999986039576,0.25,0.15,0.0,1.0,0.0,0.0,1.0,2000000000,0,,,0
1449616920063436393,136,1449616920062468364,/odom,doorways,20,0,0,4.46414662644,-0.43080296073,0.0,0.0,0.0,0.0052839997518,0.999986039576,0.25,0.15,0.0,1.0,0.0,0.0,1.0,2000000000,0,,,0
1449616920063451022,137,1449616920062645676,/odom,doorways,20,0,0,4.46414662644,-0.43080296073,0.0,0.0,0.0,0.0052839997518,0.999986039576,0.25,0.15,0.0,1.0,0.0,0.0,1.0,2000000000,0,,,0
1449616920063460424,138,1449616920062812592,/odom,doorways,20,0,0,4.46414662644,-0.43080296073,0.0,0.0,0.0,0.0052839997518,0.999986039576,0.25,0.15,0.0,1.0,0.0,0.0,1.0,2000000000,0,,,0
1449616920063492214,139,1449616920062950498,/odom,doorways,20,0,0,4.46414662644,-0.43080296073,0.0,0.0,0.0,0.0052839997518,0.999986039576,0.25,0.15,0.0,1.0,0.0,0.0,1.0,2000000000,0,,,0
1449616920267845151,140,1449616920267547678,/odom,doorways,20,0,0,4.46414662644,-0.43080296073,0.0,0.0,0.0,0.0052839997518,0.999986039576,0.25,0.15,0.0,1.0,0.0,0.0,1.0,2000000000,0,,,0
1449616920267847857,143,1449616920267616217,/odom,doorways,20,0,0,4.46414662644,-0.43080296073,0.0,0.0,0.0,0.0052839997518,0.999986039576,0.25,0.15,0.0,1.0,0.0,0.0,1.0,2000000000,0,,,0
1449616920464323613,144,1449616920464189743,/odom,doorways,20,0,0,4.49582386993,-0.430711661043,0.0,0.0,0.0,6.66133814775e-16,1.0,0.25,0.15,0.0,1.0,0.0,0.0,1.0,2000000000,0,,,0
1449616920465870139,145,1449616920464288747,/odom,doorways,20,0,0,4.49582386993,-0.430711661043,0.0,0.0,0.0,6.66133814775e-16,1.0,0.25,0.15,0.0,1.0,0.0,0.0,1.0,2000000000,0,,,0
1449616920647512389,146,1449616920647301329,/odom,doorways,20,0,0,4.49582386993,-0.430711661043,0.0,0.0,0.0,6.66133814775e-16,1.0,0.25,0.15,0.0,1.0,0.0,0.0,1.0,2000000000,0,,,0
1449616920647521530,147,1449616920647315901,/odom,doorways,20,0,0,4.49582386993,-0.430711661043,0.0,0.0,0.0,6.66133814775e-16,1.0,0.25,0.15,0.0,1.0,0.0,0.0,1.0,2000000000,0,,,0
1449616920649084249,148,1449616920647368007,/odom,doorways,20,0,0,4.49582386993,-0.430711661043,0.0,0.0,0.0,6.66133814775e-16,1.0,0.25,0.15,0.0,1.0,0.0,0.0,1.0,2000000000,0,,,0
1449616920848638344,149,1449616920842973980,/odom,doorways,20,0,0,4.52750063099,-0.430894260417,0.0,0.0,0.0,-0.0052839997518,0.999986039576,0.25,0.15,0.0,1.0,0.0,0.0,1.0,2000000000,0,,,0
1449616920848700652,150,1449616920843152778,/odom,doorways,20,0,0,4.52750063099,-0.430894260417,0.0,0.0,0.0,-0.0052839997518,0.999986039576,0.25,0.15,0.0,1.0,0.0,0.0,1.0,2000000000,0,,,0
1449616921094613896,151,1449616921094527922,/odom,doorways,20,0,0,4.52750063099,-0.430894260417,0.0,0.0,0.0,-0.0052839997518,0.999986039576,0.25,0.15,0.0,1.0,0.0,0.0,1.0,2000000000,0,,,0
1449616921094686811,152,1449616921094620806,/odom,doorways,20,0,0,4.52750063099,-0.430894260417,0.0,0.0,0.0,-0.0052839997518,0.999986039576,0.25,0.15,0.0,1.0,0.0,0.0,1.0,2000000000,0,,,0
1449616921094803328,153,1449616921094730141,/odom,doorways,20,0,0,4.52750063099,-0.430894260417,0.0,0.0,0.0,-0.0052839997518,0.999986039576,0.25,0.15,0.0,1.0,0.0,0.0,1.0,2000000000,0,,,0
1449616921279996513,154,1449616921279941095,/odom,doorways,20,0,0,4.56205589883,-0.431259455765,0.0,0.0,0.0,-0.0052839997518,0.999986039576,0.25,0.15,0.0,1.0,0.0,0.0,1.0,2000000000,0,,,0
1449616921280298028,155,1449616921280009534,/odom,doorways,20,0,0,4.56205589883,-0.431259455765,0.0,0.0,0.0,-0.0052839997518,0.999986039576,0.25,0.15,0.0,1.0,0.0,0.0,1.0,2000000000,0,,,0
1449616921493275388,156,1449616921492752855,/odom,doorways,20,0,0,4.58221139635,-0.431594207688,0.0,0.0,0.0,-0.0105678519699,0.999944158693,0.25,0.15,0.0,1.0,0.0,0.0,1.0,2000000000,0,,,0
1449616921493300395,157,1449616921492758781,/odom,doorways,20,0,0,4.58221139635,-0.431594207688,0.0,0.0,0.0,-0.0105678519699,0.999944158693,0.25,0.15,0.0,1.0,0.0,0.0,1.0,2000000000,0,,,0
1449616921674054733,158,1449616921673688534,/odom,doorways,20,0,0,4.59948677899,-0.431928956212,0.0,0.0,0.0,-0.0105678519699,0.999944158693,0.25,0.15,0.0,1.0,0.0,0.0,1.0,2000000000,0,,,0
1449616921674060051,159,1449616921673815443,/odom,doorways,20,0,0,4.59948677899,-0.431928956212,0.0,0.0,0.0,-0.0105678519699,0.999944158693,0.25,0.15,0.0,1.0,0.0,0.0,1.0,2000000000,0,,,0
1449616921914209640,160,1449616921911406496,/odom,doorways,20,0,0,4.61388011728,-0.432324540605,0.0,0.0,0.0,-0.0158514091245,0.999874358521,0.25,0.15,0.0,1.0,0.0,0.0,1.0,2000000000,0,,,0
1449616921914213332,161,1449616921911508520,/odom,doorways,20,0,0,4.61388011728,-0.432324540605,0.0,0.0,0.0,-0.0158514091245,0.999874358521,0.25,0.15,0.0,1.0,0.0,0.0,1.0,2000000000,0,,,0
1449616922109150050,162,1449616922108769948,/odom,doorways,20,0,0,4.62827425954,-0.432689701966,0.0,0.0,0.0,-0.0105678519699,0.999944158693,0.25,0.15,0.0,1.0,0.0,0.0,1.0,2000000000,0,,,0
1449616922263488631,163,1449616922263309361,/odom,doorways,20,0,0,4.63978925176,-0.432994000267,0.0,0.0,0.0,-0.0105678519699,0.999944158693,0.25,0.15,0.0,1.0,0.0,0.0,1.0,2000000000,0,,,0
1449616922263491992,164,1449616922263316998,/odom,doorways,20,0,0,4.63978925176,-0.432994000267,0.0,0.0,0.0,-0.0105678519699,0.999944158693,0.25,0.15,0.0,1.0,0.0,0.0,1.0,2000000000,0,,,0
1449616922482103912,165,1449616922478826393,/odom,doorways,20,0,0,4.65418259005,-0.43338958466,0.0,0.0,0.0,-0.0158514091245,0.999874358521,0.25,0.15,0.0,1.0,0.0,0.0,1.0,2000000000,0,,,0
1449616922707045862,166,1449616922704056522,/odom,doorways,20,0,0,4.65418259005,-0.43338958466,0.0,0.0,0.0,-0.0158514091245,0.999874358521,0.25,0.15,0.0,1.0,0.0,0.0,1.0,2000000000,0,,,0
1449616922707048798,167,1449616922704079214,/odom,doorways,20,0,0,4.65418259005,-0.43338958466,0.0,0.0,0.0,-0.0158514091245,0.999874358521,0.25,0.15,0.0,1.0,0.0,0.0,1.0,2000000000,0,,,0
1449616922707064031,168,1449616922704114592,/odom,doorways,20,0,0,4.65418259005,-0.43338958466,0.0,0.0,0.0,-0.0158514091245,0.999874358521,0.25,0.15,0.0,1.0,0.0,0.0,1.0,2000000000,0,,,0
1449616922875290608,169,1449616922874450511,/odom,doorways,20,0,0,4.68297087456,-0.434119907381,0.0,0.0,0.0,-0.0158514091245,0.999874358521,0.25,0.15,0.0,1.0,0.0,0.0,1.0,2000000000,0,,,0
1449616923095671114,170,1449616923094838595,/odom,doorways,20,0,0,4.68297087456,-0.434119907381,0.0,0.0,0.0,-0.0158514091245,0.999874358521,0.25,0.15,0.0,1.0,0.0,0.0,1.0,2000000000,0,,,0
1449616923095692432,171,1449616923094848039,/odom,doorways,20,0,0,4.68297087456,-0.434119907381,0.0,0.0,0.0,-0.0158514091245,0.999874358521,0.25,0.15,0.0,1.0,0.0,0.0,1.0,2000000000,0,,,0
1449616923265581639,172,1449616923265459237,/odom,doorways,20,0,0,4.69736501681,-0.434485068742,0.0,0.0,0.0,-0.0105678519699,0.999944158693,0.25,0.15,0.0,1.0,0.0,0.0,1.0,2000000000,0,,,0
1449616923455558555,173,1449616923454483882,/odom,doorways,20,0,0,4.71463911307,-0.434880670129,0.0,0.0,0.0,-0.0105678519699,0.999944158693,0.25,0.15,0.0,1.0,0.0,0.0,1.0,2000000000,0,,,0
1449616923455579183,177,1449616923454557782,/odom,doorways,20,0,0,4.71463911307,-0.434880670129,0.0,0.0,0.0,-0.0105678519699,0.999944158693,0.25,0.15,0.0,1.0,0.0,0.0,1.0,2000000000,0,,,0
1449616923670019184,178,1449616923667259058,/odom,doorways,20,0,0,4.72039741315,-0.435002396247,0.0,0.0,0.0,-0.0105678519699,0.999944158693,0.25,0.15,0.0,1.0,0.0,0.0,1.0,2000000000,0,,,0
1449616923670023349,179,1449616923667401171,/odom,doorways,20,0,0,4.72039741315,-0.435002396247,0.0,0.0,0.0,-0.0105678519699,0.999944158693,0.25,0.15,0.0,1.0,0.0,0.0,1.0,2000000000,0,,,0
1449616923670035339,180,1449616923667522034,/odom,doorways,20,0,0,4.72039741315,-0.435002396247,0.0,0.0,0.0,-0.0105678519699,0.999944158693,0.25,0.15,0.0,1.0,0.0,0.0,1.0,2000000000,0,,,0
1449616923915995269,181,1449616923914507728,/odom,doorways,20,0,0,4.72615490926,-0.435154545398,0.0,0.0,0.0,-0.0105678519699,0.999944158693,0.25,0.15,0.0,1.0,0.0,0.0,1.0,2000000000,0,,,0
1449616923915998610,182,1449616923914513908,/odom,doorways,20,0,0,4.72615490926,-0.435154545398,0.0,0.0,0.0,-0.0105678519699,0.999944158693,0.25,0.15,0.0,1.0,0.0,0.0,1.0,2000000000,0,,,0
1449616923916001372,183,1449616923914550158,/odom,doorways,20,0,0,4.72615490926,-0.435154545398,0.0,0.0,0.0,-0.0105678519699,0.999944158693,0.25,0.15,0.0,1.0,0.0,0.0,1.0,2000000000,0,,,0
1449616923916003760,185,1449616923914559601,/odom,doorways,20,0,0,4.72615490926,-0.435154545398,0.0,0.0,0.0,-0.0105678519699,0.999944158693,0.25,0.15,0.0,1.0,0.0,0.0,1.0,2000000000,0,,,0
1449616924088568940,186,1449616924088232677,/odom,doorways,20,0,0,4.72615490926,-0.435154545398,0.0,0.0,0.0,-0.0105678519699,0.999944158693,0.25,0.15,0.0,1.0,0.0,0.0,1.0,2000000000,0,,,0
1449616924088582386,187,1449616924088240472,/odom,doorways,20,0,0,4.72615490926,-0.435154545398,0.0,0.0,0.0,-0.0105678519699,0.999944158693,0.25,0.15,0.0,1.0,0.0,0.0,1.0,2000000000,0,,,0
1449616924088595659,188,1449616924088256989,/odom,doorways,20,0,0,4.72615490926,-0.435154545398,0.0,0.0,0.0,-0.0105678519699,0.999944158693,0.25,0.15,0.0,1.0,0.0,0.0,1.0,2000000000,0,,,0
1449616924307295679,189,1449616924306335748,/odom,doorways,20,0,0,4.72615490926,-0.435154545398,0.0,0.0,0.0,-0.0105678519699,0.999944158693,0.25,0.15,0.0,1.0,0.0,0.0,1.0,2000000000,0,,,0
1449616924307304830,193,1449616924306480319,/odom,doorways,20,0,0,4.72615490926,-0.435154545398,0.0,0.0,0.0,-0.0105678519699,0.999944158693,0.25,0.15,0.0,1.0,0.0,0.0,1.0,2000000000,0,,,0
1449616924500450814,194,1449616924500370292,/odom,doorways,20,0,0,4.72615490926,-0.435154545398,0.0,0.0,0.0,-0.0105678519699,0.999944158693,0.25,0.15,0.0,1.0,0.0,0.0,1.0,2000000000,0,,,0
1449616924500555896,195,1449616924500466955,/odom,doorways,20,0,0,4.72615490926,-0.435154545398,0.0,0.0,0.0,-0.0105678519699,0.999944158693,0.25,0.15,0.0,1.0,0.0,0.0,1.0,2000000000,0,,,0
1449616924500610720,196,1449616924500543931,/odom,doorways,20,0,0,4.72615490926,-0.435154545398,0.0,0.0,0.0,-0.0105678519699,0.999944158693,0.25,0.15,0.0,1.0,0.0,0.0,1.0,2000000000,0,,,0
1449616924816176719,197,1449616924814761951,/odom,doorways,20,0,0,4.72615490926,-0.435154545398,0.0,0.0,0.0,-0.0105678519699,0.999944158693,0.25,0.15,0.0,1.0,0.0,0.0,1.0,2000000000,0,,,0
1449616924816180007,198,1449616924814951059,/odom,doorways,20,0,0,4.72615490926,-0.435154545398,0.0,0.0,0.0,-0.0105678519699,0.999944158693,0.25,0.15,0.0,1.0,0.0,0.0,1.0,2000000000,0,,,0
1449616924816199831,199,1449616924815340401,/odom,doorways,20,0,0,4.72615490926,-0.435154545398,0.0,0.0,0.0,-0.0105678519699,0.999944158693,0.25,0.15,0.0,1.0,0.0,0.0,1.0,2000000000,0,,,0
1449616924816202715,200,1449616924815501238,/odom,doorways,20,0,0,4.72615490926,-0.435154545398,0.0,0.0,0.0,-0.0105678519699,0.999944158693,0.25,0.15,0.0,1.0,0.0,0.0,1.0,2000000000,0,,,0
1449616924816211537,201,1449616924815613817,/odom,doorways,20,0,0,4.72615490926,-0.435154545398,0.0,0.0,0.0,-0.0105678519699,0.999944158693,0.25,0.15,0.0,1.0,0.0,0.0,1.0,2000000000,0,,,0
1449616925186462801,202,1449616925186277415,/odom,doorways,20,0,0,4.72615490926,-0.435154545398,0.0,0.0,0.0,-0.0105678519699,0.999944158693,0.25,0.15,0.0,1.0,0.0,0.0,1.0,2000000000,0,,,0
1449616925186475979,203,1449616925186363498,/odom,doorways,20,0,0,4.72615490926,-0.435154545398,0.0,0.0,0.0,-0.0105678519699,0.999944158693,0.25,0.15,0.0,1.0,0.0,0.0,1.0,2000000000,0,,,0
1449616925386082517,204,1449616925383083703,/odom,doorways,20,0,0,4.72615490926,-0.435154545398,0.0,0.0,0.0,-0.0105678519699,0.999944158693,0.25,0.15,0.0,1.0,0.0,0.0,1.0,2000000000,0,,,0
1449616925587814143,205,1449616925587117463,/odom,doorways,20,0,0,4.72615490926,-0.435154545398,0.0,0.0,0.0,-0.0105678519699,0.999944158693,0.25,0.15,0.0,1.0,0.0,0.0,1.0,2000000000,0,,,0
1449616925587820133,206,1449616925587126851,/odom,doorways,20,0,0,4.72615490926,-0.435154545398,0.0,0.0,0.0,-0.0105678519699,0.999944158693,0.25,0.15,0.0,1.0,0.0,0.0,1.0,2000000000,0,,,0
1449616925766808567,207,1449616925766238682,/odom,doorways,20,0,0,4.72615490926,-0.435154545398,0.0,0.0,0.0,-0.0105678519699,0.999944158693,0.25,0.15,0.0,1.0,0.0,0.0,1.0,2000000000,0,,,0
1449616925766814847,208,1449616925766377458,/odom,doorways,20,0,0,4.72615490926,-0.435154545398,0.0,0.0,0.0,-0.0105678519699,0.999944158693,0.25,0.15,0.0,1.0,0.0,0.0,1.0,2000000000,0,,,0
1449616926103302482,209,1449616926102728904,/odom,doorways,20,0,0,4.72615490926,-0.435154545398,0.0,0.0,0.0,-0.0105678519699,0.999944158693,0.25,0.15,0.0,1.0,0.0,0.0,1.0,2000000000,0,,,0
1449616926103305911,210,1449616926102827302,/odom,doorways,20,0,0,4.72615490926,-0.435154545398,0.0,0.0,0.0,-0.0105678519699,0.999944158693,0.25,0.15,0.0,1.0,0.0,0.0,1.0,2000000000,0,,,0
1449616926413281982,211,1449616926412819407,/odom,doorways,20,0,0,4.72615490926,-0.435154545398,0.0,0.0,0.0,-0.0105678519699,0.999944158693,0.25,0.15,0.0,1.0,0.0,0.0,1.0,2000000000,0,,,0
1449616926413309139,212,1449616926412975066,/odom,doorways,20,0,0,4.72615490926,-0.435154545398,0.0,0.0,0.0,-0.0105678519699,0.999944158693,0.25,0.15,0.0,1.0,0.0,0.0,1.0,2000000000,0,,,0
1449616926574260964,213,1449616926571495549,/odom,doorways,20,0,0,4.72903325533,-0.435245831489,0.0,0.0,0.0,-0.0158514091245,0.999874358521,0.25,0.15,0.0,1.0,0.0,0.0,1.0,2000000000,0,,,0
1449616926797203651,214,1449616926795990321,/odom,doorways,20,0,0,4.73191240537,-0.435306694548,0.0,0.0,0.0,-0.0105678519699,0.999944158693,0.25,0.15,0.0,1.0,0.0,0.0,1.0,2000000000,0,,,0
1449616926797209190,215,1449616926796342131,/odom,doorways,20,0,0,4.73191240537,-0.435306694548,0.0,0.0,0.0,-0.0105678519699,0.999944158693,0.25,0.15,0.0,1.0,0.0,0.0,1.0,2000000000,0,,,0
1449616926797599534,216,1449616926797365498,/odom,doorways,20,0,0,4.73191240537,-0.435306694548,0.0,0.0,0.0,-0.0105678519699,0.999944158693,0.25,0.15,0.0,1.0,0.0,0.0,1.0,2000000000,0,,,0
1449616926996763993,217,1449616926996343837,/odom,doorways,20,0,0,4.73766990148,-0.435458843699,0.0,0.0,0.0,-0.0105678519699,0.999944158693,0.25,0.15,0.0,1.0,0.0,0.0,1.0,2000000000,0,,,0
1449616927531318403,218,1449616927530327779,/odom,doorways,20,0,0,4.73766990148,-0.435458843699,0.0,0.0,0.0,-0.0105678519699,0.999944158693,0.25,0.15,0.0,1.0,0.0,0.0,1.0,2000000000,0,,,0
1449616927531329706,219,1449616927530422510,/odom,doorways,20,0,0,4.73766990148,-0.435458843699,0.0,0.0,0.0,-0.0105678519699,0.999944158693,0.25,0.15,0.0,1.0,0.0,0.0,1.0,2000000000,0,,,0
1449616927531340268,220,1449616927530648570,/odom,doorways,20,0,0,4.73766990148,-0.435458843699,0.0,0.0,0.0,-0.0105678519699,0.999944158693,0.25,0.15,0.0,1.0,0.0,0.0,1.0,2000000000,0,,,0
1449616927531351240,221,1449616927530718811,/odom,doorways,20,0,0,4.73766990148,-0.435458843699,0.0,0.0,0.0,-0.0105678519699,0.999944158693,0.25,0.15,0.0,1.0,0.0,0.0,1.0,2000000000,0,,,0
1449616927531362586,222,1449616927530787986,/odom,doorways,20,0,0,4.73766990148,-0.435458843699,0.0,0.0,0.0,-0.0105678519699,0.999944158693,0.25,0.15,0.0,1.0,0.0,0.0,1.0,2000000000,0,,,0
1449616927832730186,223,1449616927814335263,/odom,doorways,20,0,0,4.74918489369,-0.435763142001,0.0,0.0,0.0,-0.0105678519699,0.999944158693,0.25,0.15,0.0,1.0,0.0,0.0,1.0,2000000000,0,,,0
1449616928138102356,224,1449616928137690052,/odom,doorways,20,0,0,4.7549423898,-0.435915291151,0.0,0.0,0.0,-0.0105678519699,0.999944158693,0.25,0.15,0.0,1.0,0.0,0.0,1.0,2000000000,0,,,0
1449616928138105615,225,1449616928137800633,/odom,doorways,20,0,0,4.7549423898,-0.435915291151,0.0,0.0,0.0,-0.0105678519699,0.999944158693,0.25,0.15,0.0,1.0,0.0,0.0,1.0,2000000000,0,,,0
1449616928138115621,226,1449616928138051203,/odom,doorways,20,0,0,4.7549423898,-0.435915291151,0.0,0.0,0.0,-0.0105678519699,0.999944158693,0.25,0.15,0.0,1.0,0.0,0.0,1.0,2000000000,0,,,0
1449616928138276184,227,1449616928138116537,/odom,doorways,20,0,0,4.7549423898,-0.435915291151,0.0,0.0,0.0,-0.0105678519699,0.999944158693,0.25,0.15,0.0,1.0,0.0,0.0,1.0,2000000000,0,,,0
1449616928138278968,228,1449616928138176008,/odom,doorways,20,0,0,4.7549423898,-0.435915291151,0.0,0.0,0.0,-0.0105678519699,0.999944158693,0.25,0.15,0.0,1.0,0.0,0.0,1.0,2000000000,0,,,0
1449616928444876649,229,1449616928443959831,/odom,doorways,20,0,0,4.75782073587,-0.436006577243,0.0,0.0,0.0,-0.0158514091245,0.999874358521,0.25,0.15,0.0,1.0,0.0,0.0,1.0,2000000000,0,,,0
1449616928444879362,230,1449616928443973574,/odom,doorways,20,0,0,4.75782073587,-0.436006577243,0.0,0.0,0.0,-0.0158514091245,0.999874358521,0.25,0.15,0.0,1.0,0.0,0.0,1.0,2000000000,0,,,0
1449616928444881872,231,1449616928444245502,/odom,doorways,20,0,0,4.75782073587,-0.436006577243,0.0,0.0,0.0,-0.0158514091245,0.999874358521,0.25,0.15,0.0,1.0,0.0,0.0,1.0,2000000000,0,,,0
1449616928654354589,232,1449616928653639961,/odom,doorways,20,0,0,4.75782073587,-0.436006577243,0.0,0.0,0.0,-0.0158514091245,0.999874358521,0.25,0.15,0.0,1.0,0.0,0.0,1.0,2000000000,0,,,0
1449616928852373717,233,1449616928843620192,/odom,doorways,20,0,0,4.75782073587,-0.436006577243,0.0,0.0,0.0,-0.0158514091245,0.999874358521,0.25,0.15,0.0,1.0,0.0,0.0,1.0,2000000000,0,,,0
1449616928852377883,234,1449616928843713029,/odom,doorways,20,0,0,4.75782073587,-0.436006577243,0.0,0.0,0.0,-0.0158514091245,0.999874358521,0.25,0.15,0.0,1.0,0.0,0.0,1.0,2000000000,0,,,0
1449616928852391204,235,1449616928843970402,/odom,doorways,20,0,0,4.75782073587,-0.436006577243,0.0,0.0,0.0,-0.0158514091245,0.999874358521,0.25,0.15,0.0,1.0,0.0,0.0,1.0,2000000000,0,,,0
1449616929157502121,236,1449616929157348750,/odom,doorways,20,0,0,4.76357951837,-0.436097873531,0.0,0.0,0.0,-0.0052839997518,0.999986039576,0.25,0.15,0.0,1.0,0.0,0.0,1.0,2000000000,0,,,0
1449616929157608341,237,1449616929157438941,/odom,doorways,20,0,0,4.76357951837,-0.436097873531,0.0,0.0,0.0,-0.0052839997518,0.999986039576,0.25,0.15,0.0,1.0,0.0,0.0,1.0,2000000000,0,,,0
1449616929158348894,238,1449616929157685176,/odom,doorways,20,0,0,4.76357951837,-0.436097873531,0.0,0.0,0.0,-0.0052839997518,0.999986039576,0.25,0.15,0.0,1.0,0.0,0.0,1.0,2000000000,0,,,0
1449616929441671443,239,1449616929433491796,/odom,doorways,20,0,0,4.78085634826,-0.436341332565,0.0,0.0,0.0,-0.0052839997518,0.999986039576,0.25,0.15,0.0,1.0,0.0,0.0,1.0,2000000000,0,,,0
1449616929441674004,240,1449616929433501031,/odom,doorways,20,0,0,4.78085634826,-0.436341332565,0.0,0.0,0.0,-0.0052839997518,0.999986039576,0.25,0.15,0.0,1.0,0.0,0.0,1.0,2000000000,0,,,0
1449616929767389480,241,1449616929767182657,/odom,doorways,20,0,0,4.8067736836,-0.436493498709,0.0,0.0,0.0,1.11022302463e-15,1.0,0.25,0.15,0.0,1.0,0.0,0.0,1.0,2000000000,0,,,0
1449616929767593880,242,1449616929767299994,/odom,doorways,20,0,0,4.8067736836,-0.436493498709,0.0,0.0,0.0,1.11022302463e-15,1.0,0.25,0.15,0.0,1.0,0.0,0.0,1.0,2000000000,0,,,0
1449616930158277905,243,1449616930154797749,/odom,doorways,20,0,0,4.8067736836,-0.436493498709,0.0,0.0,0.0,1.11022302463e-15,1.0,0.25,0.15,0.0,1.0,0.0,0.0,1.0,2000000000,0,,,0
1449616930158282842,244,1449616930154972400,/odom,doorways,20,0,0,4.8067736836,-0.436493498709,0.0,0.0,0.0,1.11022302463e-15,1.0,0.25,0.15,0.0,1.0,0.0,0.0,1.0,2000000000,0,,,0
1449616930158288298,245,1449616930155241695,/odom,doorways,20,0,0,4.8067736836,-0.436493498709,0.0,0.0,0.0,1.11022302463e-15,1.0,0.25,0.15,0.0,1.0,0.0,0.0,1.0,2000000000,0,,,0
1449616930512375273,246,1449616930511149621,/odom,doorways,20,0,0,4.90752817927,-0.434241881592,0.0,0.0,0.0,0.0264170481704,0.999651008886,0.25,0.15,0.0,1.0,0.0,0.0,1.0,2000000000,0,,,0
1449616930512378603,247,1449616930511220289,/odom,doorways,20,0,0,4.90752817927,-0.434241881592,0.0,0.0,0.0,0.0264170481704,0.999651008886,0.25,0.15,0.0,1.0,0.0,0.0,1.0,2000000000,0,,,0
1449616930810457298,248,1449616930809722534,/odom,doorways,20,0,0,4.9535243289,-0.431534890832,0.0,0.0,0.0,0.0369797368913,0.999316015612,0.25,0.15,0.0,1.0,0.0,0.0,1.0,2000000000,0,,,0
1449616930810622551,249,1449616930809727645,/odom,doorways,20,0,0,4.9535243289,-0.431534890832,0.0,0.0,0.0,0.0369797368913,0.999316015612,0.25,0.15,0.0,1.0,0.0,0.0,1.0,2000000000,0,,,0
1449616931107327155,250,1449616931107219809,/odom,doorways,20,0,0,4.99370915987,-0.428282082617,0.0,0.0,0.0,0.0475382956186,0.998869416115,0.25,0.15,0.0,1.0,0.0,0.0,1.0,2000000000,0,,,0
1449616931107450159,251,1449616931107315767,/odom,doorways,20,0,0,4.99370915987,-0.428282082617,0.0,0.0,0.0,0.0475382956186,0.998869416115,0.25,0.15,0.0,1.0,0.0,0.0,1.0,2000000000,0,,,0
1449616931462134166,252,1449616931461268682,/odom,doorways,20,0,0,5.03380005765,-0.424029413434,0.0,0.0,0.0,0.0580915451448,0.99831126027,0.25,0.15,0.0,1.0,0.0,0.0,1.0,2000000000,0,,,0
1449616931462147523,253,1449616931461283100,/odom,doorways,20,0,0,5.03380005765,-0.424029413434,0.0,0.0,0.0,0.0580915451448,0.99831126027,0.25,0.15,0.0,1.0,0.0,0.0,1.0,2000000000,0,,,0
1449616931462161068,254,1449616931461312490,/odom,doorways,20,0,0,5.03380005765,-0.424029413434,0.0,0.0,0.0,0.0580915451448,0.99831126027,0.25,0.15,0.0,1.0,0.0,0.0,1.0,2000000000,0,,,0
1449616931462174190,256,1449616931461346057,/odom,doorways,20,0,0,5.03380005765,-0.424029413434,0.0,0.0,0.0,0.0580915451448,0.99831126027,0.25,0.15,0.0,1.0,0.0,0.0,1.0,2000000000,0,,,0
1449616931772989729,257,1449616931772722188,/odom,doorways,20,0,0,5.0623620832,-0.42035705197,0.0,0.0,0.0,0.0686383068554,0.997641610415,0.25,0.15,0.0,1.0,0.0,0.0,1.0,2000000000,0,,,0
1449616931773152326,258,1449616931772955255,/odom,doorways,20,0,0,5.0623620832,-0.42035705197,0.0,0.0,0.0,0.0686383068554,0.997641610415,0.25,0.15,0.0,1.0,0.0,0.0,1.0,2000000000,0,,,0
1449616931773759135,259,1449616931773154379,/odom,doorways,20,0,0,5.0623620832,-0.42035705197,0.0,0.0,0.0,0.0686383068554,0.997641610415,0.25,0.15,0.0,1.0,0.0,0.0,1.0,2000000000,0,,,0
1449616931773786504,260,1449616931773520630,/odom,doorways,20,0,0,5.0623620832,-0.42035705197,0.0,0.0,0.0,0.0686383068554,0.997641610415,0.25,0.15,0.0,1.0,0.0,0.0,1.0,2000000000,0,,,0
1449616931773805328,261,1449616931773705309,/odom,doorways,20,0,0,5.0623620832,-0.42035705197,0.0,0.0,0.0,0.0686383068554,0.997641610415,0.25,0.15,0.0,1.0,0.0,0.0,1.0,2000000000,0,,,0
1449616931987002121,262,1449616931986503658,/odom,doorways,20,0,0,5.07660806735,-0.418264574521,0.0,0.0,0.0,0.0739088866573,0.997264998119,0.25,0.15,0.0,1.0,0.0,0.0,1.0,2000000000,0,,,0
1449616931987007254,263,1449616931986510383,/odom,doorways,20,0,0,5.07660806735,-0.418264574521,0.0,0.0,0.0,0.0739088866573,0.997264998119,0.25,0.15,0.0,1.0,0.0,0.0,1.0,2000000000,0,,,0
1449616932153878071,264,1449616932153211035,/odom,doorways,20,0,0,5.07660806735,-0.418264574521,0.0,0.0,0.0,0.0739088866573,0.997264998119,0.25,0.15,0.0,1.0,0.0,0.0,1.0,2000000000,0,,,0
1449616932153918245,268,1449616932153323082,/odom,doorways,20,0,0,5.07660806735,-0.418264574521,0.0,0.0,0.0,0.0739088866573,0.997264998119,0.25,0.15,0.0,1.0,0.0,0.0,1.0,2000000000,0,,,0
1449616932356259773,269,1449616932355554084,/odom,doorways,20,0,0,5.07945175342,-0.417809977103,0.0,0.0,0.0,0.0791774028604,0.996860541338,0.25,0.15,0.0,1.0,0.0,0.0,1.0,2000000000,0,,,0
1449616932356263883,270,1449616932355746382,/odom,doorways,20,0,0,5.07945175342,-0.417809977103,0.0,0.0,0.0,0.0791774028604,0.996860541338,0.25,0.15,0.0,1.0,0.0,0.0,1.0,2000000000,0,,,0
1449616932356268436,271,1449616932355894572,/odom,doorways,20,0,0,5.07945175342,-0.417809977103,0.0,0.0,0.0,0.0791774028604,0.996860541338,0.25,0.15,0.0,1.0,0.0,0.0,1.0,2000000000,0,,,0
1449616932356272993,272,1449616932356007437,/odom,doorways,20,0,0,5.07945175342,-0.417809977103,0.0,0.0,0.0,0.0791774028604,0.996860541338,0.25,0.15,0.0,1.0,0.0,0.0,1.0,2000000000,0,,,0
1449616932565210165,273,1449616932564364565,/odom,doorways,20,0,0,5.07944647347,-0.417780004959,0.0,0.0,0.0,0.0897076561262,0.99596814027,0.25,0.15,0.0,1.0,0.0,0.0,1.0,2000000000,0,,,0
1449616932565243956,274,1449616932564478067,/odom,doorways,20,0,0,5.07944647347,-0.417780004959,0.0,0.0,0.0,0.0897076561262,0.99596814027,0.25,0.15,0.0,1.0,0.0,0.0,1.0,2000000000,0,,,0
1449616932565250111,275,1449616932564601604,/odom,doorways,20,0,0,5.07944647347,-0.417780004959,0.0,0.0,0.0,0.0897076561262,0.99596814027,0.25,0.15,0.0,1.0,0.0,0.0,1.0,2000000000,0,,,0
1449616932565275422,276,1449616932564903654,/odom,doorways,20,0,0,5.07944647347,-0.417780004959,0.0,0.0,0.0,0.0897076561262,0.99596814027,0.25,0.15,0.0,1.0,0.0,0.0,1.0,2000000000,0,,,0
1449616932565294479,277,1449616932565029996,/odom,doorways,20,0,0,5.07944647347,-0.417780004959,0.0,0.0,0.0,0.0897076561262,0.99596814027,0.25,0.15,0.0,1.0,0.0,0.0,1.0,2000000000,0,,,0
1449616932860664887,278,1449616932860404501,/odom,doorways,20,0,0,5.08507725827,-0.416571828424,0.0,0.0,0.0,0.110736931374,0.993849753247,0.25,0.15,0.0,1.0,0.0,0.0,1.0,2000000000,0,,,0
1449616932860668463,279,1449616932860507424,/odom,doorways,20,0,0,5.08507725827,-0.416571828424,0.0,0.0,0.0,0.110736931374,0.993849753247,0.25,0.15,0.0,1.0,0.0,0.0,1.0,2000000000,0,,,0
1449616933041648318,280,1449616933041467358,/odom,doorways,20,0,0,5.08507788177,-0.416571670314,0.0,0.0,0.0,0.131716738444,0.99128739567,0.25,0.15,0.0,1.0,0.0,0.0,1.0,2000000000,0,,,0
1449616933041675766,281,1449616933041575453,/odom,doorways,20,0,0,5.08507788177,-0.416571670314,0.0,0.0,0.0,0.131716738444,0.99128739567,0.25,0.15,0.0,1.0,0.0,0.0,1.0,2000000000,0,,,0
1449616933042538949,282,1449616933041721981,/odom,doorways,20,0,0,5.08507788177,-0.416571670314,0.0,0.0,0.0,0.131716738444,0.99128739567,0.25,0.15,0.0,1.0,0.0,0.0,1.0,2000000000,0,,,0
1449616933238401621,283,1449616933238089112,/odom,doorways,20,0,0,5.08785836842,-0.415819468243,0.0,0.0,0.0,0.147413491427,0.989074952946,0.25,0.15,0.0,1.0,0.0,0.0,1.0,2000000000,0,,,0
1449616933238406112,284,1449616933238096310,/odom,doorways,20,0,0,5.08785836842,-0.415819468243,0.0,0.0,0.0,0.147413491427,0.989074952946,0.25,0.15,0.0,1.0,0.0,0.0,1.0,2000000000,0,,,0
1449616933408993772,285,1449616933407681574,/odom,doorways,20,0,0,5.09059433273,-0.41492177327,0.0,0.0,0.0,0.173490486104,0.984835545272,0.25,0.15,0.0,1.0,0.0,0.0,1.0,2000000000,0,,,0
1449616933408996481,286,1449616933407808413,/odom,doorways,20,0,0,5.09059433273,-0.41492177327,0.0,0.0,0.0,0.173490486104,0.984835545272,0.25,0.15,0.0,1.0,0.0,0.0,1.0,2000000000,0,,,0
1449616933409001479,287,1449616933407924950,/odom,doorways,20,0,0,5.09059433273,-0.41492177327,0.0,0.0,0.0,0.173490486104,0.984835545272,0.25,0.15,0.0,1.0,0.0,0.0,1.0,2000000000,0,,,0
1449616933523676426,288,1449616933523515225,/odom,doorways,20,0,0,5.09060518456,-0.414950206438,0.0,0.0,0.0,0.183888394426,0.982947128993,0.25,0.15,0.0,1.0,0.0,0.0,1.0,2000000000,0,,,0
1449616933523810441,289,1449616933523657258,/odom,doorways,20,0,0,5.09060518456,-0.414950206438,0.0,0.0,0.0,0.183888394426,0.982947128993,0.25,0.15,0.0,1.0,0.0,0.0,1.0,2000000000,0,,,0
1449616933652467402,290,1449616933652290418,/odom,doorways,20,0,0,5.09060518456,-0.414950206438,0.0,0.0,0.0,0.183888394426,0.982947128993,0.25,0.15,0.0,1.0,0.0,0.0,1.0,2000000000,0,,,0
1449616933652473500,291,1449616933652297051,/odom,doorways,20,0,0,5.09060518456,-0.414950206438,0.0,0.0,0.0,0.183888394426,0.982947128993,0.25,0.15,0.0,1.0,0.0,0.0,1.0,2000000000,0,,,0
1449616933803167850,292,1449616933802714301,/odom,doorways,20,0,0,5.09325497996,-0.41382493425,0.0,0.0,0.0,0.220111743843,0.97547466406,0.25,0.15,0.0,1.0,0.0,0.0,1.0,2000000000,0,,,0
1449616933803904042,293,1449616933802868049,/odom,doorways,20,0,0,5.09325497996,-0.41382493425,0.0,0.0,0.0,0.220111743843,0.97547466406,0.25,0.15,0.0,1.0,0.0,0.0,1.0,2000000000,0,,,0
1449616933804000220,294,1449616933802875680,/odom,doorways,20,0,0,5.09325497996,-0.41382493425,0.0,0.0,0.0,0.220111743843,0.97547466406,0.25,0.15,0.0,1.0,0.0,0.0,1.0,2000000000,0,,,0
1449616933971870623,295,1449616933969458995,/odom,doorways,20,0,0,5.09325497996,-0.41382493425,0.0,0.0,0.0,0.230408124366,0.973094083954,0.25,0.15,0.0,1.0,0.0,0.0,1.0,2000000000,0,,,0
1449616933971873791,296,1449616933969474287,/odom,doorways,20,0,0,5.09325497996,-0.41382493425,0.0,0.0,0.0,0.230408124366,0.973094083954,0.25,0.15,0.0,1.0,0.0,0.0,1.0,2000000000,0,,,0
1449616934113427306,297,1449616934112889794,/odom,doorways,20,0,0,5.09578593278,-0.412453099363,0.0,0.0,0.0,0.256033987268,0.966667780245,0.25,0.15,0.0,1.0,0.0,0.0,1.0,2000000000,0,,,0
1449616934113554245,299,1449616934112905911,/odom,doorways,20,0,0,5.09578593278,-0.412453099363,0.0,0.0,0.0,0.256033987268,0.966667780245,0.25,0.15,0.0,1.0,0.0,0.0,1.0,2000000000,0,,,0
1449616934314852086,300,1449616934313937286,/odom,doorways,20,0,0,5.09824172151,-0.41094900131,0.0,0.0,0.0,0.271324865251,0.962487827194,0.25,0.15,0.0,1.0,0.0,0.0,1.0,2000000000,0,,,0
1449616934314856661,301,1449616934313952970,/odom,doorways,20,0,0,5.09824172151,-0.41094900131,0.0,0.0,0.0,0.271324865251,0.962487827194,0.25,0.15,0.0,1.0,0.0,0.0,1.0,2000000000,0,,,0
1449616934411985593,302,1449616934411619455,/odom,doorways,20,0,0,5.09824172151,-0.41094900131,0.0,0.0,0.0,0.271324865251,0.962487827194,0.25,0.15,0.0,1.0,0.0,0.0,1.0,2000000000,0,,,0
1449616934412013779,303,1449616934411629184,/odom,doorways,20,0,0,5.09824172151,-0.41094900131,0.0,0.0,0.0,0.271324865251,0.962487827194,0.25,0.15,0.0,1.0,0.0,0.0,1.0,2000000000,0,,,0
1449616934534143177,304,1449616934533520316,/odom,doorways,20,0,0,5.10541155148,-0.406129575574,0.0,0.0,0.0,0.296656262579,0.954984325459,0.25,0.15,0.0,1.0,0.0,0.0,1.0,2000000000,0,,,0
1449616934534146755,306,1449616934533548143,/odom,doorways,20,0,0,5.10541155148,-0.406129575574,0.0,0.0,0.0,0.296656262579,0.954984325459,0.25,0.15,0.0,1.0,0.0,0.0,1.0,2000000000,0,,,0
1449616934621695946,307,1449616934620691424,/odom,doorways,20,0,0,5.10773155713,-0.404423473874,0.0,0.0,0.0,0.311756837498,0.950161920029,0.25,0.15,0.0,1.0,0.0,0.0,1.0,2000000000,0,,,0
1449616934621699151,308,1449616934620740070,/odom,doorways,20,0,0,5.10773155713,-0.404423473874,0.0,0.0,0.0,0.311756837498,0.950161920029,0.25,0.15,0.0,1.0,0.0,0.0,1.0,2000000000,0,,,0
1449616934750639990,309,1449616934750214885,/odom,doorways,20,0,0,5.1145631751,-0.399135182389,0.0,0.0,0.0,0.326779073236,0.945100755102,0.25,0.15,0.0,1.0,0.0,0.0,1.0,2000000000,0,,,0
1449616934750747821,310,1449616934750370565,/odom,doorways,20,0,0,5.1145631751,-0.399135182389,0.0,0.0,0.0,0.326779073236,0.945100755102,0.25,0.15,0.0,1.0,0.0,0.0,1.0,2000000000,0,,,0
1449616934810630398,311,1449616934810101992,/odom,doorways,20,0,0,5.1145631751,-0.399135182389,0.0,0.0,0.0,0.326779073236,0.945100755102,0.25,0.15,0.0,1.0,0.0,0.0,1.0,2000000000,0,,,0
1449616934810637613,312,1449616934810112230,/odom,doorways,20,0,0,5.1145631751,-0.399135182389,0.0,0.0,0.0,0.326779073236,0.945100755102,0.25,0.15,0.0,1.0,0.0,0.0,1.0,2000000000,0,,,0
1449616934951840277,313,1449616934950401648,/odom,doorways,20,0,0,5.12772593886,-0.387945862954,0.0,0.0,0.0,0.356573448481,0.934267293572,0.25,0.15,0.0,1.0,0.0,0.0,1.0,2000000000,0,,,0
1449616934951877272,315,1449616934950438284,/odom,doorways,20,0,0,5.12772593886,-0.387945862954,0.0,0.0,0.0,0.356573448481,0.934267293572,0.25,0.15,0.0,1.0,0.0,0.0,1.0,2000000000,0,,,0
1449616935157669517,316,1449616935157478763,/odom,doorways,20,0,0,5.12772593886,-0.387945862954,0.0,0.0,0.0,0.356573448481,0.934267293572,0.25,0.15,0.0,1.0,0.0,0.0,1.0,2000000000,0,,,0
1449616935157890944,317,1449616935157761034,/odom,doorways,20,0,0,5.12772593886,-0.387945862954,0.0,0.0,0.0,0.356573448481,0.934267293572,0.25,0.15,0.0,1.0,0.0,0.0,1.0,2000000000,0,,,0
1449616935315166559,318,1449616935313816229,/odom,doorways,20,0,0,5.16440894114,-0.347440100409,0.0,0.0,0.0,0.438946723455,0.898513090594,0.25,0.15,0.0,1.0,0.0,0.0,1.0,2000000000,0,,,0
1449616935315209619,319,1449616935313945395,/odom,doorways,20,0,0,5.16440894114,-0.347440100409,0.0,0.0,0.0,0.438946723455,0.898513090594,0.25,0.15,0.0,1.0,0.0,0.0,1.0,2000000000,0,,,0
1449616935315244786,320,1449616935314052502,/odom,doorways,20,0,0,5.16440894114,-0.347440100409,0.0,0.0,0.0,0.438946723455,0.898513090594,0.25,0.15,0.0,1.0,0.0,0.0,1.0,2000000000,0,,,0
1449616935431274522,321,1449616935430781458,/odom,doorways,20,0,0,5.16440894114,-0.347440100409,0.0,0.0,0.0,0.438946723455,0.898513090594,0.25,0.15,0.0,1.0,0.0,0.0,1.0,2000000000,0,,,0
1449616935431279782,322,1449616935430789745,/odom,doorways,20,0,0,5.16440894114,-0.347440100409,0.0,0.0,0.0,0.438946723455,0.898513090594,0.25,0.15,0.0,1.0,0.0,0.0,1.0,2000000000,0,,,0
1449616935506597637,323,1449616935506411903,/odom,doorways,20,0,0,5.18267736135,-0.321571083304,0.0,0.0,0.0,0.471873268433,0.881666387325,0.25,0.15,0.0,1.0,0.0,0.0,1.0,2000000000,0,,,0
1449616935506604236,324,1449616935506425738,/odom,doorways,20,0,0,5.18267736135,-0.321571083304,0.0,0.0,0.0,0.471873268433,0.881666387325,0.25,0.15,0.0,1.0,0.0,0.0,1.0,2000000000,0,,,0
1449616935605130665,325,1449616935604681337,/odom,doorways,20,0,0,5.18886271899,-0.311853434473,0.0,0.0,0.0,0.481164238281,0.876630467073,0.25,0.15,0.0,1.0,0.0,0.0,1.0,2000000000,0,,,0
1449616935605141968,326,1449616935604912866,/odom,doorways,20,0,0,5.18886271899,-0.311853434473,0.0,0.0,0.0,0.481164238281,0.876630467073,0.25,0.15,0.0,1.0,0.0,0.0,1.0,2000000000,0,,,0
1449616935711472980,327,1449616935711227409,/odom,doorways,20,0,0,5.19919478203,-0.294544290511,0.0,0.0,0.0,0.494999612279,0.868893194727,0.25,0.15,0.0,1.0,0.0,0.0,1.0,2000000000,0,,,0
1449616935711491926,328,1449616935711309987,/odom,doorways,20,0,0,5.19919478203,-0.294544290511,0.0,0.0,0.0,0.494999612279,0.868893194727,0.25,0.15,0.0,1.0,0.0,0.0,1.0,2000000000,0,,,0
1449616935711548169,329,1449616935711486124,/odom,doorways,20,0,0,5.19919478203,-0.294544290511,0.0,0.0,0.0,0.494999612279,0.868893194727,0.25,0.15,0.0,1.0,0.0,0.0,1.0,2000000000,0,,,0
1449616935814605465,330,1449616935813357401,/odom,doorways,20,0,0,5.20776926851,-0.27954344457,0.0,0.0,0.0,0.504154305513,0.863613591968,0.25,0.15,0.0,1.0,0.0,0.0,1.0,2000000000,0,,,0
1449616935814627838,331,1449616935814091929,/odom,doorways,20,0,0,5.20776926851,-0.27954344457,0.0,0.0,0.0,0.504154305513,0.863613591968,0.25,0.15,0.0,1.0,0.0,0.0,1.0,2000000000,0,,,0
1449616935935148648,332,1449616935934998591,/odom,doorways,20,0,0,5.21869644381,-0.25926153764,0.0,0.0,0.0,0.513252693477,0.858237538586,0.25,0.15,0.0,1.0,0.0,0.0,1.0,2000000000,0,,,0
1449616935935666909,333,1449616935935129788,/odom,doorways,20,0,0,5.21869644381,-0.25926153764,0.0,0.0,0.0,0.513252693477,0.858237538586,0.25,0.15,0.0,1.0,0.0,0.0,1.0,2000000000,0,,,0
1449616935997895782,334,1449616935997723130,/odom,doorways,20,0,0,5.22537478231,-0.246504969677,0.0,0.0,0.0,0.517780455193,0.855513530121,0.25,0.15,0.0,1.0,0.0,0.0,1.0,2000000000,0,,,0
1449616935997916371,335,1449616935997728251,/odom,doorways,20,0,0,5.22537478231,-0.246504969677,0.0,0.0,0.0,0.517780455193,0.855513530121,0.25,0.15,0.0,1.0,0.0,0.0,1.0,2000000000,0,,,0
1449616936222962499,336,1449616936222437395,/odom,doorways,20,0,0,5.25083837717,-0.194848016869,0.0,0.0,0.0,0.535745675246,0.844379400184,0.25,0.15,0.0,1.0,0.0,0.0,1.0,2000000000,0,,,0
1449616936222966960,338,1449616936222453708,/odom,doorways,20,0,0,5.25083837717,-0.194848016869,0.0,0.0,0.0,0.535745675246,0.844379400184,0.25,0.15,0.0,1.0,0.0,0.0,1.0,2000000000,0,,,0
1449616936890763709,339,1449616936890319030,/odom,doorways,20,0,0,5.25083837717,-0.194848016869,0.0,0.0,0.0,0.535745675246,0.844379400184,0.25,0.15,0.0,1.0,0.0,0.0,1.0,2000000000,0,,,0
1449616936890767316,340,1449616936890406985,/odom,doorways,20,0,0,5.25083837717,-0.194848016869,0.0,0.0,0.0,0.535745675246,0.844379400184,0.25,0.15,0.0,1.0,0.0,0.0,1.0,2000000000,0,,,0
1449616936892284701,341,1449616936891013644,/odom,doorways,20,0,0,5.25083837717,-0.194848016869,0.0,0.0,0.0,0.535745675246,0.844379400184,0.25,0.15,0.0,1.0,0.0,0.0,1.0,2000000000,0,,,0
1449616936990029430,342,1449616936989208097,/odom,doorways,20,0,0,5.32412645865,-0.0133401076306,0.0,0.0,0.0,0.579594377205,0.814905122031,0.25,0.15,0.0,1.0,0.0,0.0,1.0,2000000000,0,,,0
1449616936990097767,343,1449616936989213036,/odom,doorways,20,0,0,5.32412645865,-0.0133401076306,0.0,0.0,0.0,0.579594377205,0.814905122031,0.25,0.15,0.0,1.0,0.0,0.0,1.0,2000000000,0,,,0
