%time,field.linear.x,field.linear.y,field.linear.z,field.angular.x,field.angular.y,field.angular.z
1449616884076036133,0.0,0.0,0.0,0.0,0.0,0.0
1449616884176270396,0.0,0.0,0.0,0.0,0.0,0.0
1449616884276959658,0.0,0.0,0.0,0.0,0.0,0.0
1449616884426182178,0.0,0.0,0.0,0.0,0.0,0.0
1449616884526618414,0.0,0.0,0.0,0.0,0.0,0.0
1449616884625984159,0.0,0.0,0.0,0.0,0.0,0.0
1449616884676203807,0.0,0.0,0.0,0.0,0.0,0.0
1449616884741196643,0.0,0.0,0.0,0.0,0.0,0.0
1449616884791438240,0.0,0.0,0.0,0.0,0.0,0.0
1449616884851549396,0.0,0.0,0.0,0.0,0.0,0.0
1449616884901002679,0.0,0.0,0.0,0.0,0.0,0.0
1449616884962194651,0.0,0.0,0.0,0.0,0.0,0.0
1449616885064536610,0.0,0.0,0.0,0.0,0.0,0.0
1449616885111807756,0.0,0.0,0.0,0.0,0.0,0.0
1449616885213666510,0.0,0.0,0.0,0.0,0.0,0.0
1449616885263124063,0.0,0.0,0.0,0.0,0.0,0.0
1449616885419690777,0.0,0.0,0.0,0.0,0.0,0.0
1449616885469351260,0.0,0.0,0.0,0.0,0.0,0.0
1449616885576656310,0.0,0.0,0.0,0.0,0.0,0.0
1449616885676840684,0.0,0.0,0.0,0.0,0.0,0.0
1449616885729743774,0.0,0.0,0.0,0.0,0.0,0.0
1449616885848818840,0.0,0.0,0.0,0.0,0.0,0.0
1449616885950211963,0.0,0.0,0.0,0.0,0.0,0.0
1449616886049069547,0.0,0.0,0.0,0.0,0.0,0.0
1449616886150702659,0.0,0.0,0.0,0.0,0.0,0.0
1449616886249126302,0.0,0.0,0.0,0.0,0.0,0.0
1449616886456324846,0.352,0.0,0.0,0.0,0.0,-0.273684210526
1449616886536406891,0.352,0.0,0.0,0.0,0.0,-0.273684210526
1449616886587426674,0.352,0.0,0.0,0.0,0.0,-0.273684210526
1449616886682046240,0.352,0.0,0.0,0.0,0.0,-0.273684210526
1449616886764473325,0.352,0.0,0.0,0.0,0.0,-0.273684210526
1449616886841195607,0.352,0.0,0.0,0.0,0.0,-0.273684210526
1449616886895941717,0.352,0.0,0.0,0.0,0.0,-0.273684210526
1449616886953270480,0.352,0.0,0.0,0.0,0.0,-0.273684210526
1449616887070781495,0.352,0.0,0.0,0.0,0.0,-0.273684210526
1449616887168520895,0.352,0.0,0.0,0.0,0.0,-0.273684210526
1449616887228964466,0.352,0.0,0.0,0.0,0.0,-0.273684210526
1449616887312067007,0.352,0.0,0.0,0.0,0.0,-0.273684210526
1449616887399113581,0.352,0.0,0.0,0.0,0.0,-0.273684210526
1449616887484482827,0.352,0.0,0.0,0.0,0.0,-0.273684210526
1449616887532999839,0.352,0.0,0.0,0.0,0.0,-0.273684210526
1449616887640523835,0.352,0.0,0.0,0.0,0.0,-0.273684210526
1449616887758210401,0.352,0.0,0.0,0.0,0.0,-0.273684210526
1449616887805055445,0.352,0.0,0.0,0.0,0.0,-0.273684210526
1449616887865653146,0.352,0.0,0.0,0.0,0.0,-0.273684210526
1449616887966128541,0.352,0.0,0.0,0.0,0.0,-0.273684210526
1449616888014411476,0.352,0.0,0.0,0.0,0.0,-0.273684210526
1449616888062373121,0.352,0.0,0.0,0.0,0.0,-0.273684210526
1449616888108446372,0.0,0.0,0.0,0.0,0.0,0.0
1449616888159032812,0.0,0.0,0.0,0.0,0.0,0.0
1449616888344012325,0.352,0.0,0.0,0.0,0.0,-0.273684210526
1449616888443601955,0.352,0.0,0.0,0.0,0.0,-0.273684210526
1449616888522266918,0.352,0.0,0.0,0.0,0.0,-0.273684210526
1449616888593727019,0.352,0.0,0.0,0.0,0.0,-0.273684210526
1449616888677121373,0.352,0.0,0.0,0.0,0.0,-0.231578947368
1449616888727532777,0.352,0.0,0.0,0.0,0.0,-0.231578947368
1449616888779942298,0.352,0.0,0.0,0.0,0.0,-0.231578947368
1449616888853812219,0.352,0.0,0.0,0.0,0.0,-0.231578947368
1449616888925339570,0.352,0.0,0.0,0.0,0.0,-0.231578947368
1449616888988125320,0.352,0.0,0.0,0.0,0.0,-0.231578947368
1449616889057716345,0.352,0.0,0.0,0.0,0.0,-0.231578947368
1449616889129666263,0.352,0.0,0.0,0.0,0.0,-0.189473684211
1449616889181038221,0.352,0.0,0.0,0.0,0.0,-0.189473684211
1449616889260184138,0.352,0.0,0.0,0.0,0.0,-0.189473684211
1449616889307037191,0.352,0.0,0.0,0.0,0.0,-0.189473684211
1449616889365751781,0.352,0.0,0.0,0.0,0.0,-0.147368421053
1449616889441043975,0.352,0.0,0.0,0.0,0.0,-0.147368421053
1449616889525467715,0.352,0.0,0.0,0.0,0.0,-0.147368421053
1449616889585688015,0.352,0.0,0.0,0.0,0.0,-0.105263157895
1449616889690014007,0.352,0.0,0.0,0.0,0.0,-0.105263157895
1449616889795998590,0.352,0.0,0.0,0.0,0.0,-0.105263157895
1449616889889328631,0.352,0.0,0.0,0.0,0.0,-0.105263157895
1449616889967666866,0.352,0.0,0.0,0.0,0.0,-0.105263157895
1449616890013021103,0.352,0.0,0.0,0.0,0.0,-0.105263157895
1449616890087501836,0.352,0.0,0.0,0.0,0.0,-0.105263157895
1449616890149016658,0.352,0.0,0.0,0.0,0.0,-0.105263157895
1449616890211484671,0.352,0.0,0.0,0.0,0.0,-0.105263157895
1449616890344102374,0.352,0.0,0.0,0.0,0.0,-0.105263157895
1449616890538867614,0.352,0.0,0.0,0.0,0.0,-0.105263157895
1449616890632209225,0.352,0.0,0.0,0.0,0.0,-0.105263157895
1449616890747668792,0.352,0.0,0.0,0.0,0.0,-0.0631578947368
1449616890811764818,0.352,0.0,0.0,0.0,0.0,-0.0631578947368
1449616890946480687,0.352,0.0,0.0,0.0,0.0,-0.0631578947368
1449616891021340838,0.352,0.0,0.0,0.0,0.0,-0.0631578947368
1449616891101839802,0.352,0.0,0.0,0.0,0.0,-0.0631578947368
1449616891201945694,0.352,0.0,0.0,0.0,0.0,-0.0210526315789
1449616891281065189,0.352,0.0,0.0,0.0,0.0,-0.0210526315789
1449616891405866815,0.352,0.0,0.0,0.0,0.0,-0.0210526315789
1449616891496997192,0.352,0.0,0.0,0.0,0.0,0.0210526315789
1449616891624759749,0.352,0.0,0.0,0.0,0.0,0.0
1449616891690201159,0.352,0.0,0.0,0.0,0.0,0.0210526315789
1449616891755443502,0.352,0.0,0.0,0.0,0.0,0.0210526315789
1449616891835610086,0.352,0.0,0.0,0.0,0.0,0.0631578947368
1449616891905877120,0.352,0.0,0.0,0.0,0.0,0.0631578947368
1449616891981537603,0.352,0.0,0.0,0.0,0.0,0.0631578947368
1449616892087170167,0.352,0.0,0.0,0.0,0.0,0.0631578947368
1449616892178912189,0.352,0.0,0.0,0.0,0.0,0.0631578947368
1449616892293911389,0.352,0.0,0.0,0.0,0.0,0.105263157895
1449616892446120191,0.352,0.0,0.0,0.0,0.0,0.0210526315789
1449616892519802100,0.3056,0.0,0.0,0.0,0.0,0.0210526315789
1449616892586712067,0.352,0.0,0.0,0.0,0.0,0.0210526315789
1449616892655026770,0.2128,0.0,0.0,0.0,0.0,0.0210526315789
1449616892729883357,0.2128,0.0,0.0,0.0,0.0,0.0210526315789
1449616892803873280,0.2128,0.0,0.0,0.0,0.0,0.0210526315789
1449616892871805426,0.352,0.0,0.0,0.0,0.0,0.147368421053
1449616892997144299,0.352,0.0,0.0,0.0,0.0,0.189473684211
1449616893108423569,0.352,0.0,0.0,0.0,0.0,0.189473684211
1449616893199735394,0.352,0.0,0.0,0.0,0.0,0.189473684211
1449616893336208214,0.352,0.0,0.0,0.0,0.0,0.231578947368
1449616893431247859,0.352,0.0,0.0,0.0,0.0,0.231578947368
1449616893578502286,0.352,0.0,0.0,0.0,0.0,0.231578947368
1449616893670333945,0.352,0.0,0.0,0.0,0.0,0.231578947368
1449616893776883649,0.352,0.0,0.0,0.0,0.0,0.273684210526
1449616893889045332,0.352,0.0,0.0,0.0,0.0,0.273684210526
1449616893977665194,0.352,0.0,0.0,0.0,0.0,0.273684210526
1449616894037819537,0.352,0.0,0.0,0.0,0.0,0.273684210526
1449616894080694365,0.3056,0.0,0.0,0.0,0.0,0.273684210526
1449616894094999758,0.0,0.0,0.0,0.0,0.0,0.0
1449616894140143071,0.0,0.0,0.0,0.0,0.0,0.0
1449616894239494291,0.0,0.0,0.0,0.0,0.0,0.0
1449616894285705182,0.0,0.0,0.0,0.0,0.0,0.0
1449616894369560209,0.0,0.0,0.0,0.0,0.0,0.0
1449616894419786057,0.0,0.0,0.0,0.0,0.0,0.0
1449616894609841102,0.0,0.0,0.0,0.0,0.0,0.0
1449616894685610814,0.0,0.0,0.0,0.0,0.0,0.0
1449616894874239289,0.0,0.0,0.0,0.0,0.0,0.0
1449616894962914039,0.0,0.0,0.0,0.0,0.0,0.0
1449616895074202671,0.0,0.0,0.0,0.0,0.0,0.0
1449616895127263055,0.0,0.0,0.0,0.0,0.0,0.0
1449616895217194580,0.0,0.0,0.0,0.0,0.0,0.0
1449616895279115192,0.0,0.0,0.0,0.0,0.0,0.0
1449616895365724735,0.0,0.0,0.0,0.0,0.0,0.0
1449616895495400592,0.0,0.0,0.0,0.0,0.0,0.0
1449616895601122902,0.0,0.0,0.0,0.0,0.0,0.31
1449616895702031350,0.0,0.0,0.0,0.0,0.0,0.31
1449616895831290985,0.0,0.0,0.0,0.0,0.0,0.31
1449616895888826824,0.0,0.0,0.0,0.0,0.0,0.31
1449616895970060120,0.0,0.0,0.0,0.0,0.0,0.31
1449616896033463873,0.0,0.0,0.0,0.0,0.0,0.31
1449616896130515564,0.0,0.0,0.0,0.0,0.0,0.31
1449616896232379725,0.0,0.0,0.0,0.0,0.0,0.31
1449616896342494659,0.0,0.0,0.0,0.0,0.0,0.31
1449616896474289846,0.0,0.0,0.0,0.0,0.0,0.31
1449616896555036873,0.0,0.0,0.0,0.0,0.0,0.31
1449616896655288855,0.0,0.0,0.0,0.0,0.0,0.31
1449616896866177301,0.0,0.0,0.0,0.0,0.0,0.31
1449616896936354897,0.0,0.0,0.0,0.0,0.0,0.31
1449616896987154699,0.0,0.0,0.0,0.0,0.0,0.31
1449616897058293367,0.0,0.0,0.0,0.0,0.0,0.31
1449616897143566277,0.0,0.0,0.0,0.0,0.0,0.31
1449616897210922797,0.0,0.0,0.0,0.0,0.0,0.31
1449616897292004880,0.0,0.0,0.0,0.0,0.0,0.31
1449616897354025597,0.0,0.0,0.0,0.0,0.0,0.31
1449616897432342582,-0.0,0.0,0.0,0.0,0.0,0.0
1449616897566152997,0.0,0.0,0.0,0.0,0.0,0.315789473684
1449616897725682310,0.0,0.0,0.0,0.0,0.0,0.315789473684
1449616897845719669,0.0,0.0,0.0,0.0,0.0,0.31
1449616897944478826,0.0,0.0,0.0,0.0,0.0,0.31
1449616898105799092,0.0,0.0,0.0,0.0,0.0,0.31
1449616898185436711,0.0,0.0,0.0,0.0,0.0,0.31
1449616898373803007,0.352,0.0,0.0,0.0,0.0,0.231578947368
1449616898480801293,0.352,0.0,0.0,0.0,0.0,0.231578947368
1449616898651950947,0.352,0.0,0.0,0.0,0.0,0.189473684211
1449616898745623293,0.352,0.0,0.0,0.0,0.0,0.189473684211
1449616898834083298,0.352,0.0,0.0,0.0,0.0,0.189473684211
1449616898906237940,0.352,0.0,0.0,0.0,0.0,0.189473684211
1449616899003619064,0.352,0.0,0.0,0.0,0.0,0.189473684211
1449616899092679469,0.352,0.0,0.0,0.0,0.0,0.189473684211
1449616899224220678,0.352,0.0,0.0,0.0,0.0,0.189473684211
1449616899314067050,0.352,0.0,0.0,0.0,0.0,0.189473684211
1449616899408999460,0.352,0.0,0.0,0.0,0.0,0.147368421053
1449616899552653765,0.352,0.0,0.0,0.0,0.0,0.147368421053
1449616899666011877,0.352,0.0,0.0,0.0,0.0,0.147368421053
1449616899772134074,0.352,0.0,0.0,0.0,0.0,0.105263157895
1449616899831268986,0.352,0.0,0.0,0.0,0.0,0.105263157895
1449616899924076594,0.352,0.0,0.0,0.0,0.0,0.105263157895
1449616900054752435,0.352,0.0,0.0,0.0,0.0,0.0631578947368
1449616900141742755,0.352,0.0,0.0,0.0,0.0,0.0631578947368
1449616900216508172,0.352,0.0,0.0,0.0,0.0,0.0631578947368
1449616900268373695,0.352,0.0,0.0,0.0,0.0,0.0631578947368
1449616900334104662,0.352,0.0,0.0,0.0,0.0,0.0210526315789
1449616900440584132,0.352,0.0,0.0,0.0,0.0,0.0631578947368
1449616900497857223,0.352,0.0,0.0,0.0,0.0,0.0210526315789
1449616900614124010,0.352,0.0,0.0,0.0,0.0,0.0210526315789
1449616900708773391,0.352,0.0,0.0,0.0,0.0,0.0210526315789
1449616900786333070,0.352,0.0,0.0,0.0,0.0,0.0210526315789
1449616900871386673,0.352,0.0,0.0,0.0,0.0,0.0
1449616901001576691,0.352,0.0,0.0,0.0,0.0,0.0
1449616901141412672,0.352,0.0,0.0,0.0,0.0,-0.0210526315789
1449616901209368069,0.352,0.0,0.0,0.0,0.0,-0.0631578947368
1449616901325116601,0.352,0.0,0.0,0.0,0.0,-0.0631578947368
1449616901378722201,0.352,0.0,0.0,0.0,0.0,-0.105263157895
1449616901459370900,0.352,0.0,0.0,0.0,0.0,-0.105263157895
1449616901575522691,0.352,0.0,0.0,0.0,0.0,-0.105263157895
1449616901661266456,0.3056,0.0,0.0,0.0,0.0,-0.105263157895
1449616901818649906,0.3056,0.0,0.0,0.0,0.0,-0.147368421053
1449616901945614634,0.3056,0.0,0.0,0.0,0.0,-0.147368421053
1449616902041487294,0.2592,0.0,0.0,0.0,0.0,-0.189473684211
1449616902116874880,0.2592,0.0,0.0,0.0,0.0,-0.189473684211
1449616902181960893,0.2128,0.0,0.0,0.0,0.0,-0.189473684211
1449616902238742151,0.2128,0.0,0.0,0.0,0.0,-0.231578947368
1449616902295554658,0.2128,0.0,0.0,0.0,0.0,-0.231578947368
1449616902385765288,0.2128,0.0,0.0,0.0,0.0,-0.231578947368
1449616902470862869,0.2128,0.0,0.0,0.0,0.0,-0.273684210526
1449616902516878919,0.1664,0.0,0.0,0.0,0.0,-0.231578947368
1449616902561601877,0.1664,0.0,0.0,0.0,0.0,-0.273684210526
1449616902629845209,0.1664,0.0,0.0,0.0,0.0,-0.273684210526
1449616902695578757,0.1664,0.0,0.0,0.0,0.0,-0.357894736842
1449616902755996827,0.1664,0.0,0.0,0.0,0.0,-0.357894736842
1449616902854863725,0.1664,0.0,0.0,0.0,0.0,-0.357894736842
1449616902957976119,0.12,0.0,0.0,0.0,0.0,-0.315789473684
1449616903079624106,0.12,0.0,0.0,0.0,0.0,-0.315789473684
1449616903217752674,0.12,0.0,0.0,0.0,0.0,-0.273684210526
1449616903317985811,0.12,0.0,0.0,0.0,0.0,-0.273684210526
1449616903397199576,0.12,0.0,0.0,0.0,0.0,-0.273684210526
1449616903454764022,0.1664,0.0,0.0,0.0,0.0,-0.315789473684
1449616903508864428,0.1664,0.0,0.0,0.0,0.0,-0.315789473684
1449616903566500342,0.1664,0.0,0.0,0.0,0.0,-0.315789473684
1449616903624599788,0.1664,0.0,0.0,0.0,0.0,-0.231578947368
1449616903744012782,0.1664,0.0,0.0,0.0,0.0,-0.189473684211
1449616903819751313,0.1664,0.0,0.0,0.0,0.0,-0.273684210526
1449616903898843621,0.1664,0.0,0.0,0.0,0.0,-0.189473684211
1449616903970669975,0.1664,0.0,0.0,0.0,0.0,-0.147368421053
1449616904081220529,0.2128,0.0,0.0,0.0,0.0,-0.147368421053
1449616904125666874,0.2128,0.0,0.0,0.0,0.0,-0.147368421053
1449616904181994791,0.1664,0.0,0.0,0.0,0.0,-0.189473684211
1449616904253767134,0.1664,0.0,0.0,0.0,0.0,-0.189473684211
1449616904330003541,0.1664,0.0,0.0,0.0,0.0,-0.147368421053
1449616904381565135,0.1664,0.0,0.0,0.0,0.0,-0.105263157895
1449616904485713454,0.1664,0.0,0.0,0.0,0.0,-0.105263157895
1449616904562604127,0.1664,0.0,0.0,0.0,0.0,-0.105263157895
1449616904637821445,0.2128,0.0,0.0,0.0,0.0,-0.105263157895
1449616904754317790,0.1664,0.0,0.0,0.0,0.0,-0.0631578947368
1449616904835584867,0.2128,0.0,0.0,0.0,0.0,-0.0631578947368
1449616904952385980,0.2592,0.0,0.0,0.0,0.0,-0.0631578947368
1449616905027520811,0.2592,0.0,0.0,0.0,0.0,-0.0631578947368
1449616905101547285,0.2592,0.0,0.0,0.0,0.0,-0.0631578947368
1449616905231380183,0.2592,0.0,0.0,0.0,0.0,-0.0210526315789
1449616905295992378,0.1664,0.0,0.0,0.0,0.0,-0.147368421053
1449616905425240914,0.1664,0.0,0.0,0.0,0.0,-0.105263157895
1449616905554333472,0.1664,0.0,0.0,0.0,0.0,-0.0631578947368
1449616905634880725,0.2128,0.0,0.0,0.0,0.0,-0.0210526315789
1449616905701835500,0.3056,0.0,0.0,0.0,0.0,0.0
1449616905764117490,0.3056,0.0,0.0,0.0,0.0,0.0
1449616905825245279,0.352,0.0,0.0,0.0,0.0,0.0210526315789
1449616905906861621,0.352,0.0,0.0,0.0,0.0,0.105263157895
1449616906027708867,0.352,0.0,0.0,0.0,0.0,0.105263157895
1449616906130762496,0.352,0.0,0.0,0.0,0.0,0.0210526315789
1449616906233441198,0.352,0.0,0.0,0.0,0.0,0.0210526315789
1449616906337791094,0.352,0.0,0.0,0.0,0.0,0.0631578947368
1449616906415320152,0.352,0.0,0.0,0.0,0.0,0.0631578947368
1449616906524744843,0.352,0.0,0.0,0.0,0.0,0.105263157895
1449616906596762295,0.352,0.0,0.0,0.0,0.0,0.189473684211
1449616906678526044,0.352,0.0,0.0,0.0,0.0,0.189473684211
1449616906763517458,0.352,0.0,0.0,0.0,0.0,0.231578947368
1449616906841462655,0.352,0.0,0.0,0.0,0.0,0.273684210526
1449616906908793242,0.352,0.0,0.0,0.0,0.0,0.273684210526
1449616907003812209,0.352,0.0,0.0,0.0,0.0,0.273684210526
1449616907074685075,0.352,0.0,0.0,0.0,0.0,0.315789473684
1449616907160829007,0.352,0.0,0.0,0.0,0.0,0.315789473684
1449616907241752322,0.352,0.0,0.0,0.0,0.0,0.315789473684
1449616907309240223,0.352,0.0,0.0,0.0,0.0,0.357894736842
1449616907402943797,0.352,0.0,0.0,0.0,0.0,0.357894736842
1449616907498361006,0.352,0.0,0.0,0.0,0.0,0.357894736842
1449616907588778906,0.352,0.0,0.0,0.0,0.0,0.357894736842
1449616907655148287,0.352,0.0,0.0,0.0,0.0,0.273684210526
1449616907784512558,0.12,0.0,0.0,0.0,0.0,0.0
1449616907886557762,0.352,0.0,0.0,0.0,0.0,0.357894736842
1449616907994564778,0.352,0.0,0.0,0.0,0.0,0.357894736842
1449616908106992103,0.352,0.0,0.0,0.0,0.0,0.357894736842
1449616908176812125,0.352,0.0,0.0,0.0,0.0,0.357894736842
1449616908261712864,0.352,0.0,0.0,0.0,0.0,0.357894736842
1449616908320702456,0.352,0.0,0.0,0.0,0.0,0.357894736842
1449616908392631129,0.352,0.0,0.0,0.0,0.0,0.315789473684
1449616908461899440,0.352,0.0,0.0,0.0,0.0,0.315789473684
1449616908508997166,0.352,0.0,0.0,0.0,0.0,0.273684210526
1449616908551496272,0.352,0.0,0.0,0.0,0.0,0.315789473684
1449616908620141220,0.352,0.0,0.0,0.0,0.0,0.315789473684
1449616908687553571,0.352,0.0,0.0,0.0,0.0,0.315789473684
1449616908731565533,0.352,0.0,0.0,0.0,0.0,0.315789473684
1449616908818514233,0.348095565646,0.0,0.0,0.0,0.0,0.315789473684
1449616908894152512,0.341805442873,0.0,0.0,0.0,0.0,0.273684210526
1449616909012324223,0.33623425085,0.0,0.0,0.0,0.0,0.315789473684
1449616909108293024,0.324218738364,0.0,0.0,0.0,0.0,0.357894736842
1449616909185952670,0.314516681125,0.0,0.0,0.0,0.0,0.357894736842
1449616909261042770,0.311274827982,0.0,0.0,0.0,0.0,0.357894736842
1449616909314187933,0.304772317456,0.0,0.0,0.0,0.0,0.357894736842
1449616909402627053,0.301485143325,0.0,0.0,0.0,0.0,0.357894736842
1449616909473534602,0.291602628925,0.0,0.0,0.0,0.0,0.357894736842
1449616909544217503,0.284129869061,0.0,0.0,0.0,0.0,0.357894736842
1449616909624556707,0.281631552018,0.0,0.0,0.0,0.0,0.357894736842
1449616909672508364,0.274949388928,0.0,0.0,0.0,0.0,0.357894736842
1449616909729850205,0.268229284253,0.0,0.0,0.0,0.0,0.357894736842
1449616909796863756,0.264841977447,0.0,0.0,0.0,0.0,0.315789473684
1449616909863199730,0.259741224805,0.0,0.0,0.0,0.0,0.315789473684
1449616909937114023,0.255476198323,0.0,0.0,0.0,0.0,0.316532219962
1449616910021194117,0.250332123612,0.0,0.0,0.0,0.0,0.315789473684
1449616910111175385,0.245169127399,0.0,0.0,0.0,0.0,0.315789473684
1449616910225753974,0.239096615025,0.0,0.0,0.0,0.0,0.274796645328
1449616910279819962,0.231228299019,0.0,0.0,0.0,0.0,0.273684210526
1449616910341000301,0.226806250317,0.0,0.0,0.0,0.0,0.233153031249
1449616910371192712,0.224143753522,0.0,0.0,0.0,0.0,0.233139980969
1449616910447512820,0.222371826391,0.0,0.0,0.0,0.0,0.231578947368
1449616910489953272,0.216123499811,0.0,0.0,0.0,0.0,0.233184596614
1449616910564975397,0.214339117276,0.0,0.0,0.0,0.0,0.231578947368
1449616910628217063,0.209840591852,0.0,0.0,0.0,0.0,0.231578947368
1449616910678498193,0.20804203239,0.0,0.0,0.0,0.0,0.231578947368
1449616910731598217,0.205337689629,0.0,0.0,0.0,0.0,0.189473684211
1449616910796979135,0.201711599906,0.0,0.0,0.0,0.0,0.189473684211
1449616910871262397,0.0,0.0,0.0,0.0,0.0,-0.31
1449616910944332922,0.230568728948,0.0,0.0,0.0,0.0,-0.147368421053
1449616911031523707,0.229628530801,0.0,0.0,0.0,0.0,-0.147368421053
1449616911120502754,0.224008214498,0.0,0.0,0.0,0.0,-0.147368421053
1449616911193664686,0.221212393618,0.0,0.0,0.0,0.0,-0.189473684211
1449616911281427666,0.219349774979,0.0,0.0,0.0,0.0,-0.189473684211
1449616911391360165,0.213791405083,0.0,0.0,0.0,0.0,-0.189473684211
1449616911464431335,0.211028912044,0.0,0.0,0.0,0.0,-0.231578947368
1449616911872331420,0.190007638821,0.0,0.0,0.0,0.0,-0.231578947368
1449616911921606003,0.181843016525,0.0,0.0,0.0,0.0,-0.231578947368
1449616912013755308,0.17822406812,0.0,0.0,0.0,0.0,-0.231578947368
1449616912085573342,0.173703226091,0.0,0.0,0.0,0.0,-0.231578947368
1449616912149432813,0.167379656692,0.0,0.0,0.0,0.0,-0.231578947368
1449616912227391119,0.163772259842,0.0,0.0,0.0,0.0,-0.231578947368
1449616912331371343,0.149968347439,0.0,0.0,0.0,0.0,-0.231578947368
1449616912400788302,0.142021559915,0.0,0.0,0.0,0.0,-0.231578947368
1449616912479792762,0.140307062754,0.0,0.0,0.0,0.0,-0.231578947368
1449616912553917940,0.133980825746,0.0,0.0,0.0,0.0,-0.231578947368
1449616912637740448,0.129468494207,0.0,0.0,0.0,0.0,-0.273684210526
1449616912674499148,0.121060814084,0.0,0.0,0.0,0.0,-0.273684210526
1449616912763229158,0.12,0.0,0.0,0.0,0.0,-0.273684210526
1449616912840474597,0.12,0.0,0.0,0.0,0.0,-0.273684210526
1449616912899994653,0.12,0.0,0.0,0.0,0.0,-0.273684210526
1449616912966650121,0.12,0.0,0.0,0.0,0.0,-0.273684210526
1449616913043881902,0.12,0.0,0.0,0.0,0.0,-0.273684210526
1449616913131969141,0.12,0.0,0.0,0.0,0.0,-0.273684210526
1449616913276855018,0.12,0.0,0.0,0.0,0.0,-0.273684210526
1449616913341489019,0.12,0.0,0.0,0.0,0.0,-0.273684210526
1449616913410770217,0.12,0.0,0.0,0.0,0.0,-0.273684210526
1449616913476752693,0.12,0.0,0.0,0.0,0.0,-0.357894736842
1449616913549829356,0.0,0.0,0.0,0.0,0.0,-0.4
1449616913662789261,0.0,0.0,0.0,0.0,0.0,-0.4
1449616913662797238,0.0,0.0,0.0,0.0,0.0,0.0
1449616913711149725,0.0,0.0,0.0,0.0,0.0,0.0
1449616925563082089,0.138298827725,0.0,0.0,0.0,0.0,0.189473684211
1449616925626778642,0.138298827725,0.0,0.0,0.0,0.0,0.189473684211
1449616925684416219,0.138298827725,0.0,0.0,0.0,0.0,0.189473684211
1449616925768611220,0.138298827725,0.0,0.0,0.0,0.0,0.189473684211
1449616925843502646,0.138298827725,0.0,0.0,0.0,0.0,0.189473684211
1449616925963388771,0.12,0.0,0.0,0.0,0.0,0.0
1449616926073155833,0.12,0.0,0.0,0.0,0.0,0.0
1449616926145966560,0.12,0.0,0.0,0.0,0.0,0.0
1449616926216174255,0.12,0.0,0.0,0.0,0.0,0.0
1449616926277696168,0.12,0.0,0.0,0.0,0.0,0.0
1449616926349880357,0.12,0.0,0.0,0.0,0.0,0.0
1449616926448433163,0.12,0.0,0.0,0.0,0.0,0.0
1449616926488279955,0.12,0.0,0.0,0.0,0.0,0.0
1449616926547426220,0.12,0.0,0.0,0.0,0.0,0.0
1449616926630114044,0.12,0.0,0.0,0.0,0.0,0.0
1449616926737234588,0.12,0.0,0.0,0.0,0.0,0.0
1449616926821276096,0.12,0.0,0.0,0.0,0.0,0.0
1449616926913802725,0.12,0.0,0.0,0.0,0.0,0.0
1449616926955180253,0.12,0.0,0.0,0.0,0.0,0.0
1449616927096256109,0.12,0.0,0.0,0.0,0.0,0.0
1449616927169932521,0.12,0.0,0.0,0.0,0.0,0.0
1449616927264929271,0.12,0.0,0.0,0.0,0.0,0.0
1449616927400511086,0.12,0.0,0.0,0.0,0.0,0.0
1449616927515690555,0.12,0.0,0.0,0.0,0.0,0.0
1449616928444775709,0.227958572938,0.0,0.0,0.0,0.0,0.189473684211
1449616928533940823,0.227039772856,0.0,0.0,0.0,0.0,0.189473684211
1449616928617761006,0.227039772856,0.0,0.0,0.0,0.0,0.189473684211
1449616928684745560,0.227039772856,0.0,0.0,0.0,0.0,0.189473684211
1449616928751145686,0.227039772856,0.0,0.0,0.0,0.0,0.189473684211
1449616928814388956,0.227039772856,0.0,0.0,0.0,0.0,0.189473684211
1449616928856644493,0.226118363137,0.0,0.0,0.0,0.0,0.0631578947368
1449616928959259396,0.226118363137,0.0,0.0,0.0,0.0,0.0631578947368
1449616929022462449,0.225194466475,0.0,0.0,0.0,0.0,0.189473684211
1449616929142004766,0.224273695153,0.0,0.0,0.0,0.0,0.189473684211
1449616929222951844,0.223350418982,0.0,0.0,0.0,0.0,0.189473684211
1449616929288954494,0.221507656526,0.0,0.0,0.0,0.0,0.189473684211
1449616929351069370,0.219663337745,0.0,0.0,0.0,0.0,0.189473684211
1449616929416801104,0.217820168607,0.0,0.0,0.0,0.0,0.189473684211
1449616929501754428,0.217820168607,0.0,0.0,0.0,0.0,0.189473684211
1449616929574836597,0.213209976,0.0,0.0,0.0,0.0,0.189473684211
1449616929706250700,0.212290668914,0.0,0.0,0.0,0.0,0.231578947368
1449616929778598804,0.207684908876,0.0,0.0,0.0,0.0,0.231578947368
1449616929883165420,0.20492298374,0.0,0.0,0.0,0.0,0.189473684211
1449616930007328792,0.199397110824,0.0,0.0,0.0,0.0,0.231578947368
1449616930104250147,0.193873266085,0.0,0.0,0.0,0.0,0.189473684211
1449616930231799245,0.190182745644,0.0,0.0,0.0,0.0,0.231578947368
1449616930349616087,0.181887407144,0.0,0.0,0.0,0.0,0.231578947368
1449616930408438130,0.179122719976,0.0,0.0,0.0,0.0,0.231578947368
1449616930478859692,0.175434619523,0.0,0.0,0.0,0.0,0.231578947368
1449616930576344304,0.171753013256,0.0,0.0,0.0,0.0,0.231578947368
1449616930632585267,0.167146383492,0.0,0.0,0.0,0.0,0.231578947368
1449616930740980403,0.164384854953,0.0,0.0,0.0,0.0,0.231578947368
1449616930852305620,0.160701256952,0.0,0.0,0.0,0.0,0.231578947368
1449616930913513601,0.156098681105,0.0,0.0,0.0,0.0,0.231578947368
1449616930968400330,0.152420589541,0.0,0.0,0.0,0.0,0.231578947368
1449616931104458013,0.151499409306,0.0,0.0,0.0,0.0,0.231578947368
1449616931158977611,0.146897995582,0.0,0.0,0.0,0.0,0.231578947368
1449616931241301373,0.145056381836,0.0,0.0,0.0,0.0,0.231578947368
1449616931310224379,0.140452484807,0.0,0.0,0.0,0.0,0.231578947368
1449616931373408972,0.139535177959,0.0,0.0,0.0,0.0,0.231578947368
1449616931441745850,0.133421942985,0.0,0.0,0.0,0.0,0.231578947368
1449616931514886756,0.131212719686,0.0,0.0,0.0,0.0,0.231578947368
1449616931573856412,0.129742265861,0.0,0.0,0.0,0.0,0.231578947368
1449616931732133290,0.0,0.0,0.0,0.0,0.0,0.31
1449616931840563889,0.0,0.0,0.0,0.0,0.0,0.357894736842
1449616931944827497,0.0,0.0,0.0,0.0,0.0,0.0
1449616932004378151,0.0,0.0,0.0,0.0,0.0,0.0
1449616932071931684,0.0,0.0,0.0,0.0,0.0,0.0
1449616932173942687,0.0,0.0,0.0,0.0,0.0,0.0
1449616932235404994,0.0,0.0,0.0,0.0,0.0,0.0
1449616932304798860,0.0,0.0,0.0,0.0,0.0,0.0
1449616932392326213,0.0,0.0,0.0,0.0,0.0,0.0
1449616932457271333,0.0,0.0,0.0,0.0,0.0,0.0
1449616932507330472,0.0,0.0,0.0,0.0,0.0,0.0
1449616932584848859,0.0,0.0,0.0,0.0,0.0,0.0
1449616932714421772,0.0,0.0,0.0,0.0,0.0,0.0
1449616932749518771,0.0,0.0,0.0,0.0,0.0,0.0
1449616932849897890,0.0,0.0,0.0,0.0,0.0,0.0
1449616932935631490,0.0,0.0,0.0,0.0,0.0,0.0
1449616932982958126,0.0,0.0,0.0,0.0,0.0,0.0
1449616933077713845,0.0,0.0,0.0,0.0,0.0,0.0
1449616933148611159,0.0,0.0,0.0,0.0,0.0,0.0
1449616933216041226,0.0,0.0,0.0,0.0,0.0,0.0
1449616933354977249,0.0,0.0,0.0,0.0,0.0,0.0
1449616933362035422,0.0,0.0,0.0,0.0,0.0,0.0
1449616933409396511,0.0,0.0,0.0,0.0,0.0,0.0
1449616945969782753,0.12,0.0,0.0,0.0,0.0,0.0
1449616946090163308,0.12,0.0,0.0,0.0,0.0,-0.0631578947368
1449616946214054741,0.12,0.0,0.0,0.0,0.0,-0.0631578947368
1449616946314716326,0.12,0.0,0.0,0.0,0.0,-0.0631578947368
1449616946394509376,0.12,0.0,0.0,0.0,0.0,-0.0631578947368
1449616946530988021,0.12,0.0,0.0,0.0,0.0,-0.0631578947368
1449616946561320868,0.0,0.0,0.0,0.0,0.0,0.0
1449616946602442660,0.0,0.0,0.0,0.0,0.0,0.0
1449616946853722454,0.0,0.0,0.0,0.0,0.0,0.0
1449616947052790172,0.0,0.0,0.0,0.0,0.0,0.0
1449616947102325771,0.0,0.0,0.0,0.0,0.0,0.0
1449616947172675573,0.0,0.0,0.0,0.0,0.0,0.0
1449616947222564482,0.0,0.0,0.0,0.0,0.0,0.0
1449616947336711161,0.0,0.0,0.0,0.0,0.0,0.0
1449616947513662601,0.352,0.0,0.0,0.0,0.0,0.0631578947368
1449616947668124834,0.352,0.0,0.0,0.0,0.0,0.0631578947368
1449616947740001352,0.352,0.0,0.0,0.0,0.0,0.0631578947368
1449616947855839313,0.352,0.0,0.0,0.0,0.0,0.0631578947368
1449616947968967400,0.352,0.0,0.0,0.0,0.0,0.0631578947368
1449616948064904036,0.352,0.0,0.0,0.0,0.0,0.0631578947368
1449616948140788125,0.352,0.0,0.0,0.0,0.0,0.0631578947368
1449616948215733002,0.352,0.0,0.0,0.0,0.0,0.0631578947368
1449616948295079353,0.352,0.0,0.0,0.0,0.0,0.0631578947368
1449616948336722902,0.352,0.0,0.0,0.0,0.0,0.0631578947368
1449616948408029511,0.352,0.0,0.0,0.0,0.0,0.0631578947368
1449616948481877272,0.352,0.0,0.0,0.0,0.0,0.0631578947368
1449616948599330580,0.352,0.0,0.0,0.0,0.0,0.0631578947368
1449616948635842933,0.352,0.0,0.0,0.0,0.0,0.0631578947368
1449616948693846619,0.352,0.0,0.0,0.0,0.0,0.0631578947368
1449616948762124166,0.352,0.0,0.0,0.0,0.0,0.0631578947368
1449616948854748671,0.352,0.0,0.0,0.0,0.0,0.0631578947368
1449616948915940214,0.352,0.0,0.0,0.0,0.0,0.0631578947368
1449616948965605981,0.352,0.0,0.0,0.0,0.0,0.0631578947368
1449616949131003718,0.352,0.0,0.0,0.0,0.0,0.0631578947368
1449616949204803666,0.352,0.0,0.0,0.0,0.0,0.0631578947368
1449616949297339025,0.352,0.0,0.0,0.0,0.0,0.105263157895
1449616949361783268,0.352,0.0,0.0,0.0,0.0,0.0631578947368
1449616949450996056,0.352,0.0,0.0,0.0,0.0,0.0631578947368
1449616949517128234,0.352,0.0,0.0,0.0,0.0,0.0631578947368
1449616949592760812,0.352,0.0,0.0,0.0,0.0,0.0631578947368
1449616949666418500,0.352,0.0,0.0,0.0,0.0,0.0631578947368
1449616949706825323,0.352,0.0,0.0,0.0,0.0,0.0210526315789
1449616949755613608,0.352,0.0,0.0,0.0,0.0,0.0631578947368
1449616949819786522,0.352,0.0,0.0,0.0,0.0,0.0631578947368
1449616949896598774,0.352,0.0,0.0,0.0,0.0,0.0631578947368
1449616949963456182,0.352,0.0,0.0,0.0,0.0,0.0210526315789
1449616950037823032,0.352,0.0,0.0,0.0,0.0,0.0210526315789
1449616950097728852,0.352,0.0,0.0,0.0,0.0,0.0631578947368
1449616950142506653,0.352,0.0,0.0,0.0,0.0,0.0631578947368
1449616950184166209,0.352,0.0,0.0,0.0,0.0,0.0631578947368
1449616950258418401,0.352,0.0,0.0,0.0,0.0,0.0210526315789
1449616950336098710,0.352,0.0,0.0,0.0,0.0,0.0631578947368
1449616950412344624,0.352,0.0,0.0,0.0,0.0,0.0631578947368
1449616950528721570,0.352,0.0,0.0,0.0,0.0,0.0631578947368
1449616950576156257,0.352,0.0,0.0,0.0,0.0,0.0631578947368
1449616950647222593,0.352,0.0,0.0,0.0,0.0,0.0631578947368
1449616950729938821,0.352,0.0,0.0,0.0,0.0,0.0631578947368
1449616950779382898,0.352,0.0,0.0,0.0,0.0,0.0210526315789
1449616950861847064,0.352,0.0,0.0,0.0,0.0,0.0631578947368
1449616950925404917,0.352,0.0,0.0,0.0,0.0,0.0631578947368
1449616950983342450,0.352,0.0,0.0,0.0,0.0,0.0210526315789
1449616951056692378,0.352,0.0,0.0,0.0,0.0,0.0210526315789
1449616951117838286,0.352,0.0,0.0,0.0,0.0,0.0210526315789
1449616951189719898,0.352,0.0,0.0,0.0,0.0,0.0631578947368
1449616951317027137,0.352,0.0,0.0,0.0,0.0,0.0210526315789
1449616951424393834,0.352,0.0,0.0,0.0,0.0,0.0210526315789
1449616951537346993,0.352,0.0,0.0,0.0,0.0,0.0210526315789
1449616951638272043,0.352,0.0,0.0,0.0,0.0,0.0210526315789
1449616951762418749,0.352,0.0,0.0,0.0,0.0,0.0210526315789
1449616951851083464,0.352,0.0,0.0,0.0,0.0,0.0210526315789
1449616951938364413,0.352,0.0,0.0,0.0,0.0,0.0210526315789
1449616952015281501,0.352,0.0,0.0,0.0,0.0,0.0
1449616952074342653,0.352,0.0,0.0,0.0,0.0,0.0
1449616952120721738,0.352,0.0,0.0,0.0,0.0,0.0
1449616952161547351,0.352,0.0,0.0,0.0,0.0,0.0210526315789
1449616952238667875,0.352,0.0,0.0,0.0,0.0,0.0210526315789
1449616952290081836,0.352,0.0,0.0,0.0,0.0,0.0
1449616952386294516,0.352,0.0,0.0,0.0,0.0,0.0
1449616952486802005,0.352,0.0,0.0,0.0,0.0,0.0210526315789
1449616952536878328,0.352,0.0,0.0,0.0,0.0,-0.0210526315789
1449616952645866397,0.352,0.0,0.0,0.0,0.0,0.0
1449616952703007730,0.352,0.0,0.0,0.0,0.0,-0.0210526315789
1449616952794739851,0.352,0.0,0.0,0.0,0.0,0.0
1449616952866027900,0.352,0.0,0.0,0.0,0.0,0.0
1449616952966265982,0.352,0.0,0.0,0.0,0.0,-0.0210526315789
1449616953043964261,0.352,0.0,0.0,0.0,0.0,0.0
1449616953108241896,0.352,0.0,0.0,0.0,0.0,-0.0210526315789
1449616953179802877,0.352,0.0,0.0,0.0,0.0,0.0
1449616953232357397,0.352,0.0,0.0,0.0,0.0,0.0
1449616953306161530,0.352,0.0,0.0,0.0,0.0,0.0
1449616953440458936,0.352,0.0,0.0,0.0,0.0,0.0
1449616953536650404,0.352,0.0,0.0,0.0,0.0,0.0210526315789
1449616953602537994,0.352,0.0,0.0,0.0,0.0,0.0
1449616953673078229,0.352,0.0,0.0,0.0,0.0,-0.0210526315789
1449616953731836675,0.352,0.0,0.0,0.0,0.0,0.0
1449616953779525521,0.352,0.0,0.0,0.0,0.0,-0.0210526315789
1449616953941824173,0.352,0.0,0.0,0.0,0.0,0.0
1449616954040945326,0.352,0.0,0.0,0.0,0.0,0.0
1449616954136817407,0.352,0.0,0.0,0.0,0.0,0.0
1449616954214136951,0.352,0.0,0.0,0.0,0.0,0.0
1449616954337944927,0.352,0.0,0.0,0.0,0.0,-0.0210526315789
1449616954386923168,0.352,0.0,0.0,0.0,0.0,-0.0631578947368
1449616954521984200,0.352,0.0,0.0,0.0,0.0,-0.0210526315789
1449616954606571589,0.352,0.0,0.0,0.0,0.0,-0.0210526315789
1449616954660105177,0.352,0.0,0.0,0.0,0.0,-0.0210526315789
1449616954765287037,0.352,0.0,0.0,0.0,0.0,-0.0210526315789
1449616954867527957,0.352,0.0,0.0,0.0,0.0,-0.0631578947368
1449616954917805948,0.352,0.0,0.0,0.0,0.0,-0.0210526315789
1449616954969849116,0.352,0.0,0.0,0.0,0.0,-0.0631578947368
1449616955034405543,0.352,0.0,0.0,0.0,0.0,-0.0631578947368
1449616955101363680,0.352,0.0,0.0,0.0,0.0,-0.0631578947368
1449616955160064271,0.352,0.0,0.0,0.0,0.0,-0.0631578947368
1449616955225203311,0.352,0.0,0.0,0.0,0.0,-0.0631578947368
1449616955273819301,0.3056,0.0,0.0,0.0,0.0,-0.0631578947368
1449616955341627513,0.3056,0.0,0.0,0.0,0.0,-0.0631578947368
1449616955403614348,0.3056,0.0,0.0,0.0,0.0,-0.0631578947368
1449616955477899591,0.3056,0.0,0.0,0.0,0.0,-0.0631578947368
1449616955557951298,0.2592,0.0,0.0,0.0,0.0,-0.105263157895
1449616955656710864,0.3056,0.0,0.0,0.0,0.0,-0.0210526315789
1449616955714309144,0.3056,0.0,0.0,0.0,0.0,-0.105263157895
1449616955789614848,0.2592,0.0,0.0,0.0,0.0,-0.0631578947368
1449616955873038674,0.2592,0.0,0.0,0.0,0.0,-0.0631578947368
1449616955922801044,0.2592,0.0,0.0,0.0,0.0,-0.0631578947368
1449616956003019179,0.2128,0.0,0.0,0.0,0.0,-0.0631578947368
1449616956055465692,0.12,0.0,0.0,0.0,0.0,-0.189473684211
1449616956099736278,0.0,0.0,0.0,0.0,0.0,-0.315789473684
1449616956142103795,0.0,0.0,0.0,0.0,0.0,-0.4
1449616956193011278,0.0,0.0,0.0,0.0,0.0,-0.4
1449616956297045628,-0.1,0.0,0.0,0.0,0.0,0.0
1449616956403065539,-0.1,0.0,0.0,0.0,0.0,0.0
1449616956502473764,-0.1,0.0,0.0,0.0,0.0,0.0
1449616956584570825,-0.1,0.0,0.0,0.0,0.0,0.0
1449616956658810034,-0.1,0.0,0.0,0.0,0.0,0.0
1449616956725733978,-0.1,0.0,0.0,0.0,0.0,0.0
1449616956824486115,-0.1,0.0,0.0,0.0,0.0,0.0
1449616956907272738,-0.1,0.0,0.0,0.0,0.0,0.0
1449616956980968236,-0.1,0.0,0.0,0.0,0.0,0.0
1449616957071613483,-0.1,0.0,0.0,0.0,0.0,0.0
1449616957174043179,-0.1,0.0,0.0,0.0,0.0,0.0
1449616957238926549,-0.1,0.0,0.0,0.0,0.0,0.0
1449616957324846476,-0.1,0.0,0.0,0.0,0.0,0.0
1449616957425254058,-0.1,0.0,0.0,0.0,0.0,0.0
1449616957524986382,-0.1,0.0,0.0,0.0,0.0,0.0
1449616957578685016,-0.1,0.0,0.0,0.0,0.0,0.0
1449616957677403419,-0.1,0.0,0.0,0.0,0.0,0.0
1449616957753296441,-0.1,0.0,0.0,0.0,0.0,0.0
1449616957793810977,-0.1,0.0,0.0,0.0,0.0,0.0
1449616957920138485,-0.1,0.0,0.0,0.0,0.0,0.0
1449616958040963118,-0.1,0.0,0.0,0.0,0.0,0.0
1449616958122134225,-0.1,0.0,0.0,0.0,0.0,0.0
1449616958167498497,-0.1,0.0,0.0,0.0,0.0,0.0
1449616958245145849,-0.1,0.0,0.0,0.0,0.0,0.0
1449616958302751271,-0.1,0.0,0.0,0.0,0.0,0.0
1449616958392661708,-0.1,0.0,0.0,0.0,0.0,0.0
1449616958517089997,-0.1,0.0,0.0,0.0,0.0,0.0
1449616958632348327,-0.1,0.0,0.0,0.0,0.0,0.0
1449616958716576827,-0.1,0.0,0.0,0.0,0.0,0.0
1449616958832211081,-0.1,0.0,0.0,0.0,0.0,0.0
1449616958929108615,-0.1,0.0,0.0,0.0,0.0,0.0
1449616958989425821,-0.1,0.0,0.0,0.0,0.0,0.0
1449616959080572940,-0.1,0.0,0.0,0.0,0.0,0.0
1449616959147298951,-0.1,0.0,0.0,0.0,0.0,0.0
1449616959208922558,-0.1,0.0,0.0,0.0,0.0,0.0
1449616959265629215,-0.1,0.0,0.0,0.0,0.0,0.0
1449616959370498684,-0.1,0.0,0.0,0.0,0.0,0.0
1449616959447077646,-0.1,0.0,0.0,0.0,0.0,0.0
1449616959504087067,-0.1,0.0,0.0,0.0,0.0,0.0
1449616959555750957,-0.1,0.0,0.0,0.0,0.0,0.0
1449616959669854588,-0.1,0.0,0.0,0.0,0.0,0.0
1449616959749813015,-0.1,0.0,0.0,0.0,0.0,0.0
1449616959828184604,-0.1,0.0,0.0,0.0,0.0,0.0
1449616959893843315,-0.1,0.0,0.0,0.0,0.0,0.0
1449616959938760922,-0.1,0.0,0.0,0.0,0.0,0.0
1449616959994931125,-0.1,0.0,0.0,0.0,0.0,0.0
1449616960057981252,-0.1,0.0,0.0,0.0,0.0,0.0
1449616960111926483,-0.1,0.0,0.0,0.0,0.0,0.0
1449616960158072908,-0.1,0.0,0.0,0.0,0.0,0.0
1449616960210878795,-0.1,0.0,0.0,0.0,0.0,0.0
1449616960304976418,-0.1,0.0,0.0,0.0,0.0,0.0
1449616960340036291,-0.1,0.0,0.0,0.0,0.0,0.0
1449616960397978030,-0.1,0.0,0.0,0.0,0.0,0.0
1449616960455348489,-0.1,0.0,0.0,0.0,0.0,0.0
1449616960502143031,-0.1,0.0,0.0,0.0,0.0,0.0
1449616960542100391,-0.1,0.0,0.0,0.0,0.0,0.0
1449616960611507068,-0.1,0.0,0.0,0.0,0.0,0.0
1449616960692459087,-0.1,0.0,0.0,0.0,0.0,0.0
1449616960763352143,-0.1,0.0,0.0,0.0,0.0,0.0
1449616960830118477,-0.1,0.0,0.0,0.0,0.0,0.0
1449616960924269561,-0.1,0.0,0.0,0.0,0.0,0.0
1449616961002781905,-0.1,0.0,0.0,0.0,0.0,0.0
1449616961089345111,-0.1,0.0,0.0,0.0,0.0,0.0
1449616961190385600,-0.1,0.0,0.0,0.0,0.0,0.0
1449616961348152500,-0.1,0.0,0.0,0.0,0.0,0.0
1449616961441405831,-0.1,0.0,0.0,0.0,0.0,0.0
1449616961550365817,-0.1,0.0,0.0,0.0,0.0,0.0
1449616961624430954,-0.1,0.0,0.0,0.0,0.0,0.0
1449616961706088141,-0.1,0.0,0.0,0.0,0.0,0.0
1449616961808032207,-0.1,0.0,0.0,0.0,0.0,0.0
1449616961891219000,-0.1,0.0,0.0,0.0,0.0,0.0
1449616961993510565,-0.1,0.0,0.0,0.0,0.0,0.0
1449616962098533586,-0.1,0.0,0.0,0.0,0.0,0.0
1449616962128282644,-0.1,0.0,0.0,0.0,0.0,0.0
1449616962222401514,-0.1,0.0,0.0,0.0,0.0,0.0
1449616962257949364,-0.1,0.0,0.0,0.0,0.0,0.0
1449616962339544449,-0.1,0.0,0.0,0.0,0.0,0.0
1449616962437576743,-0.1,0.0,0.0,0.0,0.0,0.0
1449616962521624437,-0.1,0.0,0.0,0.0,0.0,0.0
1449616962584412033,-0.1,0.0,0.0,0.0,0.0,0.0
1449616962634363118,-0.1,0.0,0.0,0.0,0.0,0.0
1449616962693079496,-0.1,0.0,0.0,0.0,0.0,0.0
1449616962750155880,-0.1,0.0,0.0,0.0,0.0,0.0
1449616962846918087,-0.1,0.0,0.0,0.0,0.0,0.0
1449616962984327704,0.0,0.0,0.0,0.0,0.0,-0.315789473684
1449616963087458263,0.0,0.0,0.0,0.0,0.0,-0.315789473684
1449616963134620950,-0.1,0.0,0.0,0.0,0.0,0.0
1449616963190037888,-0.1,0.0,0.0,0.0,0.0,0.0
1449616963231790093,-0.1,0.0,0.0,0.0,0.0,0.0
1449616963317608825,-0.1,0.0,0.0,0.0,0.0,0.0
1449616963355535658,-0.1,0.0,0.0,0.0,0.0,0.0
1449616963416052067,-0.1,0.0,0.0,0.0,0.0,0.0
1449616963465734383,-0.1,0.0,0.0,0.0,0.0,0.0
1449616963534189457,0.0,0.0,0.0,0.0,0.0,-0.315789473684
1449616963606887592,0.0,0.0,0.0,0.0,0.0,-0.315789473684
1449616963699139139,0.0,0.0,0.0,0.0,0.0,-0.315789473684
1449616963797694173,0.0,0.0,0.0,0.0,0.0,-0.315789473684
1449616963909841217,0.0,0.0,0.0,0.0,0.0,-0.315789473684
1449616963986499675,0.0,0.0,0.0,0.0,0.0,-0.31
1449616964056749333,0.0,0.0,0.0,0.0,0.0,-0.315789473684
1449616964128700781,0.0,0.0,0.0,0.0,0.0,-0.315789473684
1449616964185424059,0.0,0.0,0.0,0.0,0.0,-0.315789473684
1449616964238836398,0.0,0.0,0.0,0.0,0.0,-0.315789473684
1449616964282537152,0.0,0.0,0.0,0.0,0.0,-0.315789473684
1449616964344513926,0.0,0.0,0.0,0.0,0.0,-0.31
1449616964386076406,0.0,0.0,0.0,0.0,0.0,-0.31
1449616964444101598,0.0,0.0,0.0,0.0,0.0,-0.31
1449616964487781766,0.0,0.0,0.0,0.0,0.0,-0.31
1449616964531426922,0.0,0.0,0.0,0.0,0.0,-0.31
1449616964599995376,0.0,0.0,0.0,0.0,0.0,-0.31
1449616964657628823,0.0,0.0,0.0,0.0,0.0,-0.31
1449616964739650685,0.0,0.0,0.0,0.0,0.0,-0.31
1449616964788735225,0.0,0.0,0.0,0.0,0.0,-0.31
1449616964837790771,0.0,0.0,0.0,0.0,0.0,-0.31
1449616964910013850,0.0,0.0,0.0,0.0,0.0,-0.31
1449616964945049465,0.0,0.0,0.0,0.0,0.0,-0.31
1449616964992014571,0.0,0.0,0.0,0.0,0.0,-0.31
1449616965080019334,0.0,0.0,0.0,0.0,0.0,-0.31
1449616965141732061,-0.1,0.0,0.0,0.0,0.0,0.0
1449616965184437607,-0.1,0.0,0.0,0.0,0.0,0.0
1449616965244238165,-0.1,0.0,0.0,0.0,0.0,0.0
1449616965307517831,-0.1,0.0,0.0,0.0,0.0,0.0
1449616965361265521,-0.1,0.0,0.0,0.0,0.0,0.0
1449616965399868302,-0.1,0.0,0.0,0.0,0.0,0.0
1449616965446479536,-0.1,0.0,0.0,0.0,0.0,0.0
1449616965533276610,-0.1,0.0,0.0,0.0,0.0,0.0
1449616965583103072,-0.1,0.0,0.0,0.0,0.0,0.0
1449616965645344380,-0.1,0.0,0.0,0.0,0.0,0.0
1449616965744967941,-0.1,0.0,0.0,0.0,0.0,0.0
1449616965783321382,-0.1,0.0,0.0,0.0,0.0,0.0
1449616965851512211,-0.1,0.0,0.0,0.0,0.0,0.0
1449616965907662009,-0.1,0.0,0.0,0.0,0.0,0.0
1449616965978904826,-0.1,0.0,0.0,0.0,0.0,0.0
1449616966070324098,-0.1,0.0,0.0,0.0,0.0,0.0
1449616966121061520,-0.1,0.0,0.0,0.0,0.0,0.0
1449616966176887533,-0.1,0.0,0.0,0.0,0.0,0.0
1449616966214259332,-0.1,0.0,0.0,0.0,0.0,0.0
1449616966265454560,-0.1,0.0,0.0,0.0,0.0,0.0
1449616966347819613,-0.1,0.0,0.0,0.0,0.0,0.0
1449616966381609378,-0.1,0.0,0.0,0.0,0.0,0.0
1449616966420672911,-0.1,0.0,0.0,0.0,0.0,0.0
1449616966469627875,-0.1,0.0,0.0,0.0,0.0,0.0
1449616966536828329,-0.1,0.0,0.0,0.0,0.0,0.0
1449616966570147692,-0.1,0.0,0.0,0.0,0.0,0.0
1449616966607061755,0.0,0.0,0.0,0.0,0.0,-0.315789473684
1449616966662825847,0.0,0.0,0.0,0.0,0.0,-0.315789473684
1449616966726708624,0.0,0.0,0.0,0.0,0.0,-0.315789473684
1449616966775665507,0.0,0.0,0.0,0.0,0.0,-0.315789473684
1449616966877262427,0.0,0.0,0.0,0.0,0.0,-0.315789473684
1449616966941297370,0.0,0.0,0.0,0.0,0.0,-0.315789473684
1449616966994495318,0.0,0.0,0.0,0.0,0.0,-0.31
1449616967100000738,0.0,0.0,0.0,0.0,0.0,-0.31
1449616967182234338,0.0,0.0,0.0,0.0,0.0,-0.31
1449616967249994444,0.0,0.0,0.0,0.0,0.0,-0.31
1449616967293615669,0.0,0.0,0.0,0.0,0.0,-0.31
1449616967345612554,0.0,0.0,0.0,0.0,0.0,-0.31
1449616967435921779,0.0,0.0,0.0,0.0,0.0,-0.31
1449616967499086810,0.0,0.0,0.0,0.0,0.0,-0.315789473684
1449616967546101256,0.0,0.0,0.0,0.0,0.0,-0.315789473684
1449616967609932158,0.0,0.0,0.0,0.0,0.0,-0.315789473684
1449616967697526398,0.0,0.0,0.0,0.0,0.0,-0.315789473684
1449616967749812169,0.0,0.0,0.0,0.0,0.0,-0.315789473684
1449616967809630143,0.0,0.0,0.0,0.0,0.0,-0.315789473684
1449616967910718284,0.0,0.0,0.0,0.0,0.0,-0.315789473684
1449616967994076652,0.0,0.0,0.0,0.0,0.0,-0.315789473684
1449616968059408483,0.0,0.0,0.0,0.0,0.0,-0.315789473684
1449616968118352543,0.0,0.0,0.0,0.0,0.0,-0.315789473684
1449616968167145929,0.0,0.0,0.0,0.0,0.0,-0.315789473684
1449616968252606401,0.0,0.0,0.0,0.0,0.0,-0.315789473684
1449616968327637915,0.0,0.0,0.0,0.0,0.0,-0.315789473684
1449616968421415296,-0.1,0.0,0.0,0.0,0.0,0.0
1449616968477533934,-0.1,0.0,0.0,0.0,0.0,0.0
1449616968551746699,-0.1,0.0,0.0,0.0,0.0,0.0
1449616968614516205,-0.1,0.0,0.0,0.0,0.0,0.0
1449616968672600304,-0.1,0.0,0.0,0.0,0.0,0.0
1449616968718683259,-0.1,0.0,0.0,0.0,0.0,0.0
1449616968794365121,-0.1,0.0,0.0,0.0,0.0,0.0
1449616968883057424,-0.1,0.0,0.0,0.0,0.0,0.0
1449616968961052379,-0.1,0.0,0.0,0.0,0.0,0.0
1449616969050752568,-0.1,0.0,0.0,0.0,0.0,0.0
1449616969125791165,-0.1,0.0,0.0,0.0,0.0,0.0
1449616969167915004,-0.1,0.0,0.0,0.0,0.0,0.0
1449616969212631551,-0.1,0.0,0.0,0.0,0.0,0.0
1449616969278705949,-0.1,0.0,0.0,0.0,0.0,0.0
1449616969338081537,-0.1,0.0,0.0,0.0,0.0,0.0
1449616969425704482,-0.1,0.0,0.0,0.0,0.0,0.0
1449616969507866164,-0.1,0.0,0.0,0.0,0.0,0.0
1449616969561204488,-0.1,0.0,0.0,0.0,0.0,0.0
1449616969691777235,-0.1,0.0,0.0,0.0,0.0,0.0
1449616969744155172,-0.1,0.0,0.0,0.0,0.0,0.0
1449616969821420969,-0.1,0.0,0.0,0.0,0.0,0.0
1449616969904960169,-0.1,0.0,0.0,0.0,0.0,0.0
1449616970011367759,-0.1,0.0,0.0,0.0,0.0,0.0
1449616970054440510,-0.1,0.0,0.0,0.0,0.0,0.0
1449616970129757813,-0.1,0.0,0.0,0.0,0.0,0.0
1449616970263022306,-0.1,0.0,0.0,0.0,0.0,0.0
1449616970345986381,-0.1,0.0,0.0,0.0,0.0,0.0
1449616970409409620,-0.1,0.0,0.0,0.0,0.0,0.0
1449616970502936364,-0.1,0.0,0.0,0.0,0.0,0.0
1449616970653045878,-0.1,0.0,0.0,0.0,0.0,0.0
1449616970730780035,-0.1,0.0,0.0,0.0,0.0,0.0
1449616970764169163,-0.1,0.0,0.0,0.0,0.0,0.0
1449616970812459552,-0.1,0.0,0.0,0.0,0.0,0.0
1449616970874015811,-0.1,0.0,0.0,0.0,0.0,0.0
1449616970941399662,-0.1,0.0,0.0,0.0,0.0,0.0
1449616970999792085,-0.1,0.0,0.0,0.0,0.0,0.0
1449616971041479083,-0.1,0.0,0.0,0.0,0.0,0.0
1449616971091980620,-0.1,0.0,0.0,0.0,0.0,0.0
1449616971217994956,-0.1,0.0,0.0,0.0,0.0,0.0
1449616971306032985,-0.1,0.0,0.0,0.0,0.0,0.0
1449616971378746882,-0.1,0.0,0.0,0.0,0.0,0.0
1449616971437819534,-0.1,0.0,0.0,0.0,0.0,0.0
1449616971502731168,-0.1,0.0,0.0,0.0,0.0,0.0
1449616971600022191,-0.1,0.0,0.0,0.0,0.0,0.0
1449616971651906280,-0.1,0.0,0.0,0.0,0.0,0.0
1449616971709800070,-0.1,0.0,0.0,0.0,0.0,0.0
1449616971860813926,-0.1,0.0,0.0,0.0,0.0,0.0
1449616971939537485,-0.1,0.0,0.0,0.0,0.0,0.0
1449616972020715159,-0.1,0.0,0.0,0.0,0.0,0.0
1449616972065873301,-0.1,0.0,0.0,0.0,0.0,0.0
1449616972110852146,-0.1,0.0,0.0,0.0,0.0,0.0
1449616972160369391,-0.1,0.0,0.0,0.0,0.0,0.0
1449616972200997491,-0.1,0.0,0.0,0.0,0.0,0.0
1449616972291986587,-0.1,0.0,0.0,0.0,0.0,0.0
1449616972385680553,-0.1,0.0,0.0,0.0,0.0,0.0
1449616972410535747,-0.1,0.0,0.0,0.0,0.0,0.0
1449616972461641658,-0.1,0.0,0.0,0.0,0.0,0.0
1449616972539658546,-0.1,0.0,0.0,0.0,0.0,0.0
1449616972639396424,-0.1,0.0,0.0,0.0,0.0,0.0
1449616972709791478,-0.1,0.0,0.0,0.0,0.0,0.0
1449616972762635081,-0.1,0.0,0.0,0.0,0.0,0.0
1449616972839626831,-0.1,0.0,0.0,0.0,0.0,0.0
1449616972914118959,-0.1,0.0,0.0,0.0,0.0,0.0
1449616973000867870,-0.1,0.0,0.0,0.0,0.0,0.0
1449616973063493085,-0.1,0.0,0.0,0.0,0.0,0.0
1449616973140823004,-0.1,0.0,0.0,0.0,0.0,0.0
1449616973224906293,-0.1,0.0,0.0,0.0,0.0,0.0
1449616973292564695,-0.1,0.0,0.0,0.0,0.0,0.0
1449616973345769582,-0.1,0.0,0.0,0.0,0.0,0.0
1449616973431363882,-0.1,0.0,0.0,0.0,0.0,0.0
1449616973476199986,-0.1,0.0,0.0,0.0,0.0,0.0
1449616973531668524,-0.1,0.0,0.0,0.0,0.0,0.0
1449616973609855281,-0.1,0.0,0.0,0.0,0.0,0.0
1449616973722239395,-0.1,0.0,0.0,0.0,0.0,0.0
1449616973798672437,-0.1,0.0,0.0,0.0,0.0,0.0
1449616973842592622,-0.1,0.0,0.0,0.0,0.0,0.0
1449616973895299534,-0.1,0.0,0.0,0.0,0.0,0.0
1449616973948686772,-0.1,0.0,0.0,0.0,0.0,0.0
1449616973990934652,-0.1,0.0,0.0,0.0,0.0,0.0
1449616974071390719,-0.1,0.0,0.0,0.0,0.0,0.0
1449616974130326138,-0.1,0.0,0.0,0.0,0.0,0.0
1449616974188122295,-0.1,0.0,0.0,0.0,0.0,0.0
1449616974281204953,-0.1,0.0,0.0,0.0,0.0,0.0
1449616974330038415,-0.1,0.0,0.0,0.0,0.0,0.0
1449616974441303995,-0.1,0.0,0.0,0.0,0.0,0.0
1449616974517666693,-0.1,0.0,0.0,0.0,0.0,0.0
1449616974584273253,-0.1,0.0,0.0,0.0,0.0,0.0
1449616974639353293,-0.1,0.0,0.0,0.0,0.0,0.0
1449616974690497211,-0.1,0.0,0.0,0.0,0.0,0.0
1449616974738918036,-0.1,0.0,0.0,0.0,0.0,0.0
1449616974798335952,-0.1,0.0,0.0,0.0,0.0,0.0
1449616974873348196,-0.1,0.0,0.0,0.0,0.0,0.0
1449616975065906966,-0.1,0.0,0.0,0.0,0.0,0.0
1449616975132298271,-0.1,0.0,0.0,0.0,0.0,0.0
1449616975190051482,-0.1,0.0,0.0,0.0,0.0,0.0
1449616975255515249,-0.1,0.0,0.0,0.0,0.0,0.0
1449616975334006708,-0.1,0.0,0.0,0.0,0.0,0.0
1449616975409908332,-0.1,0.0,0.0,0.0,0.0,0.0
1449616975489714424,-0.1,0.0,0.0,0.0,0.0,0.0
1449616975571101667,-0.1,0.0,0.0,0.0,0.0,0.0
1449616975639712614,-0.1,0.0,0.0,0.0,0.0,0.0
1449616975745903780,-0.1,0.0,0.0,0.0,0.0,0.0
1449616975798182314,-0.1,0.0,0.0,0.0,0.0,0.0
1449616975951666528,-0.1,0.0,0.0,0.0,0.0,0.0
1449616976013274765,-0.1,0.0,0.0,0.0,0.0,0.0
1449616976086916854,-0.1,0.0,0.0,0.0,0.0,0.0
1449616976143671711,-0.1,0.0,0.0,0.0,0.0,0.0
1449616976221447603,-0.1,0.0,0.0,0.0,0.0,0.0
1449616976314113317,-0.1,0.0,0.0,0.0,0.0,0.0
1449616976372315712,-0.1,0.0,0.0,0.0,0.0,0.0
1449616976434384114,-0.1,0.0,0.0,0.0,0.0,0.0
1449616976500297155,-0.1,0.0,0.0,0.0,0.0,0.0
1449616976577922786,-0.1,0.0,0.0,0.0,0.0,0.0
1449616976635660906,-0.1,0.0,0.0,0.0,0.0,0.0
1449616976698892793,-0.1,0.0,0.0,0.0,0.0,0.0
1449616976803488319,-0.1,0.0,0.0,0.0,0.0,0.0
1449616976872096939,-0.1,0.0,0.0,0.0,0.0,0.0
1449616976918391337,-0.1,0.0,0.0,0.0,0.0,0.0
1449616976961340816,-0.1,0.0,0.0,0.0,0.0,0.0
1449616977053416802,-0.1,0.0,0.0,0.0,0.0,0.0
1449616977170044179,-0.1,0.0,0.0,0.0,0.0,0.0
1449616977283787227,-0.1,0.0,0.0,0.0,0.0,0.0
1449616977341744657,-0.1,0.0,0.0,0.0,0.0,0.0
1449616977386336971,-0.1,0.0,0.0,0.0,0.0,0.0
1449616977445403153,-0.1,0.0,0.0,0.0,0.0,0.0
1449616977492719167,-0.1,0.0,0.0,0.0,0.0,0.0
1449616977532845979,-0.1,0.0,0.0,0.0,0.0,0.0
1449616977600300480,-0.1,0.0,0.0,0.0,0.0,0.0
1449616977658374616,-0.1,0.0,0.0,0.0,0.0,0.0
1449616977785816433,-0.1,0.0,0.0,0.0,0.0,0.0
1449616977896925705,-0.1,0.0,0.0,0.0,0.0,0.0
1449616977930635546,-0.1,0.0,0.0,0.0,0.0,0.0
1449616978037258442,-0.1,0.0,0.0,0.0,0.0,0.0
1449616978105790688,-0.1,0.0,0.0,0.0,0.0,0.0
1449616978178053085,-0.1,0.0,0.0,0.0,0.0,0.0
1449616978265991336,-0.1,0.0,0.0,0.0,0.0,0.0
1449616978314594980,-0.1,0.0,0.0,0.0,0.0,0.0
1449616978354727296,-0.1,0.0,0.0,0.0,0.0,0.0
1449616978409117173,-0.1,0.0,0.0,0.0,0.0,0.0
1449616978498068436,-0.1,0.0,0.0,0.0,0.0,0.0
1449616978529089234,-0.1,0.0,0.0,0.0,0.0,0.0
1449616978581220581,-0.1,0.0,0.0,0.0,0.0,0.0
1449616978615519071,-0.1,0.0,0.0,0.0,0.0,0.0
1449616978685605529,-0.1,0.0,0.0,0.0,0.0,0.0
1449616978799175025,-0.1,0.0,0.0,0.0,0.0,0.0
1449616978864746005,-0.1,0.0,0.0,0.0,0.0,0.0
1449616978940125733,-0.1,0.0,0.0,0.0,0.0,0.0
1449616979008903554,-0.1,0.0,0.0,0.0,0.0,0.0
1449616979076014177,-0.1,0.0,0.0,0.0,0.0,0.0
1449616979139167362,-0.1,0.0,0.0,0.0,0.0,0.0
1449616979187764013,-0.1,0.0,0.0,0.0,0.0,0.0
1449616979277982747,-0.1,0.0,0.0,0.0,0.0,0.0
1449616979307619022,-0.1,0.0,0.0,0.0,0.0,0.0
1449616979364643751,-0.1,0.0,0.0,0.0,0.0,0.0
1449616979421008609,-0.1,0.0,0.0,0.0,0.0,0.0
1449616979489897643,-0.1,0.0,0.0,0.0,0.0,0.0
1449616979546424417,-0.1,0.0,0.0,0.0,0.0,0.0
1449616979603129134,-0.1,0.0,0.0,0.0,0.0,0.0
1449616979732639295,-0.1,0.0,0.0,0.0,0.0,0.0
1449616979835713006,-0.1,0.0,0.0,0.0,0.0,0.0
1449616979934193292,-0.1,0.0,0.0,0.0,0.0,0.0
1449616979993099653,-0.1,0.0,0.0,0.0,0.0,0.0
1449616980086543313,-0.1,0.0,0.0,0.0,0.0,0.0
1449616980154815387,-0.1,0.0,0.0,0.0,0.0,0.0
1449616980216958675,-0.1,0.0,0.0,0.0,0.0,0.0
1449616980278038921,-0.1,0.0,0.0,0.0,0.0,0.0
1449616980340460149,-0.1,0.0,0.0,0.0,0.0,0.0
1449616980417359497,-0.1,0.0,0.0,0.0,0.0,0.0
1449616980490023130,-0.1,0.0,0.0,0.0,0.0,0.0
1449616980524041358,-0.1,0.0,0.0,0.0,0.0,0.0
1449616980563988918,-0.1,0.0,0.0,0.0,0.0,0.0
1449616980652842008,-0.1,0.0,0.0,0.0,0.0,0.0
1449616980737824652,-0.1,0.0,0.0,0.0,0.0,0.0
1449616980798350233,-0.1,0.0,0.0,0.0,0.0,0.0
1449616980888747891,-0.1,0.0,0.0,0.0,0.0,0.0
1449616980997387091,-0.1,0.0,0.0,0.0,0.0,0.0
1449616981102327679,-0.1,0.0,0.0,0.0,0.0,0.0
1449616981191058379,-0.1,0.0,0.0,0.0,0.0,0.0
1449616981275734472,-0.1,0.0,0.0,0.0,0.0,0.0
1449616981360106124,-0.1,0.0,0.0,0.0,0.0,0.0
1449616981443748811,-0.1,0.0,0.0,0.0,0.0,0.0
1449616981505933527,-0.1,0.0,0.0,0.0,0.0,0.0
1449616981562159571,-0.1,0.0,0.0,0.0,0.0,0.0
1449616981600592128,-0.1,0.0,0.0,0.0,0.0,0.0
1449616981680066158,-0.1,0.0,0.0,0.0,0.0,0.0
1449616981781642494,-0.1,0.0,0.0,0.0,0.0,0.0
1449616981834398426,-0.1,0.0,0.0,0.0,0.0,0.0
1449616981918095948,-0.1,0.0,0.0,0.0,0.0,0.0
1449616982038503244,-0.1,0.0,0.0,0.0,0.0,0.0
1449616982129657175,-0.1,0.0,0.0,0.0,0.0,0.0
1449616982212649083,-0.1,0.0,0.0,0.0,0.0,0.0
1449616982342428357,-0.1,0.0,0.0,0.0,0.0,0.0
1449616982440311330,-0.1,0.0,0.0,0.0,0.0,0.0
1449616982495502800,-0.1,0.0,0.0,0.0,0.0,0.0
1449616982591624213,-0.1,0.0,0.0,0.0,0.0,0.0
1449616982639840036,-0.1,0.0,0.0,0.0,0.0,0.0
1449616982704584966,-0.1,0.0,0.0,0.0,0.0,0.0
1449616982754865280,-0.1,0.0,0.0,0.0,0.0,0.0
1449616982861477649,-0.1,0.0,0.0,0.0,0.0,0.0
1449616982954670998,-0.1,0.0,0.0,0.0,0.0,0.0
1449616982999678134,-0.1,0.0,0.0,0.0,0.0,0.0
1449616983111713393,-0.1,0.0,0.0,0.0,0.0,0.0
1449616983194433730,-0.1,0.0,0.0,0.0,0.0,0.0
1449616983269832375,-0.1,0.0,0.0,0.0,0.0,0.0
1449616983369624993,-0.1,0.0,0.0,0.0,0.0,0.0
1449616983438629369,-0.1,0.0,0.0,0.0,0.0,0.0
1449616983504815394,-0.1,0.0,0.0,0.0,0.0,0.0
1449616983606471369,-0.1,0.0,0.0,0.0,0.0,0.0
1449616983682464083,-0.1,0.0,0.0,0.0,0.0,0.0
1449616983718531621,-0.1,0.0,0.0,0.0,0.0,0.0
1449616983770483577,-0.1,0.0,0.0,0.0,0.0,0.0
1449616983811927446,-0.1,0.0,0.0,0.0,0.0,0.0
1449616983894264471,-0.1,0.0,0.0,0.0,0.0,0.0
1449616983959706927,-0.1,0.0,0.0,0.0,0.0,0.0
1449616984011155753,-0.1,0.0,0.0,0.0,0.0,0.0
1449616984061074565,-0.1,0.0,0.0,0.0,0.0,0.0
1449616984128592501,-0.1,0.0,0.0,0.0,0.0,0.0
1449616984178697534,-0.1,0.0,0.0,0.0,0.0,0.0
1449616984233346746,-0.1,0.0,0.0,0.0,0.0,0.0
1449616984301367218,-0.1,0.0,0.0,0.0,0.0,0.0
1449616984401875612,-0.1,0.0,0.0,0.0,0.0,0.0
1449616984490672744,-0.1,0.0,0.0,0.0,0.0,0.0
1449616984555503067,-0.1,0.0,0.0,0.0,0.0,0.0
1449616984636879484,-0.1,0.0,0.0,0.0,0.0,0.0
1449616984680541531,-0.1,0.0,0.0,0.0,0.0,0.0
1449616984724871721,-0.1,0.0,0.0,0.0,0.0,0.0
1449616984790230823,-0.1,0.0,0.0,0.0,0.0,0.0
1449616984832115122,-0.1,0.0,0.0,0.0,0.0,0.0
1449616984897594892,-0.1,0.0,0.0,0.0,0.0,0.0
1449616984938711502,-0.1,0.0,0.0,0.0,0.0,0.0
1449616985013256969,-0.1,0.0,0.0,0.0,0.0,0.0
1449616985107296559,-0.1,0.0,0.0,0.0,0.0,0.0
1449616985150463182,-0.1,0.0,0.0,0.0,0.0,0.0
1449616985221849797,-0.1,0.0,0.0,0.0,0.0,0.0
1449616985291757726,-0.1,0.0,0.0,0.0,0.0,0.0
1449616985354520524,-0.1,0.0,0.0,0.0,0.0,0.0
1449616985418874567,-0.1,0.0,0.0,0.0,0.0,0.0
1449616985483015401,-0.1,0.0,0.0,0.0,0.0,0.0
1449616985538840999,-0.1,0.0,0.0,0.0,0.0,0.0
1449616985585852573,-0.1,0.0,0.0,0.0,0.0,0.0
1449616985648471127,-0.1,0.0,0.0,0.0,0.0,0.0
1449616985694171374,-0.1,0.0,0.0,0.0,0.0,0.0
1449616985729433815,-0.1,0.0,0.0,0.0,0.0,0.0
1449616985785250339,-0.1,0.0,0.0,0.0,0.0,0.0
1449616985896388437,-0.1,0.0,0.0,0.0,0.0,0.0
1449616985995175390,-0.1,0.0,0.0,0.0,0.0,0.0
1449616986088213037,-0.1,0.0,0.0,0.0,0.0,0.0
1449616986226927765,-0.1,0.0,0.0,0.0,0.0,0.0
1449616986312174338,-0.1,0.0,0.0,0.0,0.0,0.0
1449616986389467033,-0.1,0.0,0.0,0.0,0.0,0.0
1449616986444975215,-0.1,0.0,0.0,0.0,0.0,0.0
1449616986501974871,-0.1,0.0,0.0,0.0,0.0,0.0
1449616986555444744,-0.1,0.0,0.0,0.0,0.0,0.0
1449616986621634381,-0.1,0.0,0.0,0.0,0.0,0.0
1449616986684828923,-0.1,0.0,0.0,0.0,0.0,0.0
1449616986715383558,-0.1,0.0,0.0,0.0,0.0,0.0
1449616986800440719,-0.1,0.0,0.0,0.0,0.0,0.0
1449616986871229068,-0.1,0.0,0.0,0.0,0.0,0.0
1449616986910107488,-0.1,0.0,0.0,0.0,0.0,0.0
1449616986950102427,-0.1,0.0,0.0,0.0,0.0,0.0
1449616987028517848,-0.1,0.0,0.0,0.0,0.0,0.0
1449616987094626297,-0.1,0.0,0.0,0.0,0.0,0.0
1449616987172633614,-0.1,0.0,0.0,0.0,0.0,0.0
1449616987248310783,-0.1,0.0,0.0,0.0,0.0,0.0
1449616987302848134,-0.1,0.0,0.0,0.0,0.0,0.0
1449616987414305235,-0.1,0.0,0.0,0.0,0.0,0.0
1449616987485268129,-0.1,0.0,0.0,0.0,0.0,0.0
1449616987535057994,-0.1,0.0,0.0,0.0,0.0,0.0
1449616987618117103,-0.1,0.0,0.0,0.0,0.0,0.0
1449616987684462781,-0.1,0.0,0.0,0.0,0.0,0.0
1449616987738473896,-0.1,0.0,0.0,0.0,0.0,0.0
1449616987812775171,-0.1,0.0,0.0,0.0,0.0,0.0
1449616987884272441,-0.1,0.0,0.0,0.0,0.0,0.0
1449616987980901737,-0.1,0.0,0.0,0.0,0.0,0.0
1449616988051799295,-0.1,0.0,0.0,0.0,0.0,0.0
1449616988115948116,-0.1,0.0,0.0,0.0,0.0,0.0
1449616988223071139,-0.1,0.0,0.0,0.0,0.0,0.0
1449616988317050917,-0.1,0.0,0.0,0.0,0.0,0.0
1449616988392683978,-0.1,0.0,0.0,0.0,0.0,0.0
1449616988458862013,-0.1,0.0,0.0,0.0,0.0,0.0
1449616988526675206,-0.1,0.0,0.0,0.0,0.0,0.0
1449616988632228955,-0.1,0.0,0.0,0.0,0.0,0.0
1449616988677357346,-0.1,0.0,0.0,0.0,0.0,0.0
1449616988754273689,-0.1,0.0,0.0,0.0,0.0,0.0
1449616988835207718,-0.1,0.0,0.0,0.0,0.0,0.0
1449616988905429928,-0.1,0.0,0.0,0.0,0.0,0.0
1449616988957139041,-0.1,0.0,0.0,0.0,0.0,0.0
1449616989061763968,-0.1,0.0,0.0,0.0,0.0,0.0
1449616989119927932,-0.1,0.0,0.0,0.0,0.0,0.0
1449616989194787970,-0.1,0.0,0.0,0.0,0.0,0.0
1449616989258450297,-0.1,0.0,0.0,0.0,0.0,0.0
1449616989354578015,-0.1,0.0,0.0,0.0,0.0,0.0
1449616989417151478,-0.1,0.0,0.0,0.0,0.0,0.0
1449616989551508567,-0.1,0.0,0.0,0.0,0.0,0.0
1449616989599819392,-0.1,0.0,0.0,0.0,0.0,0.0
1449616989719659538,-0.1,0.0,0.0,0.0,0.0,0.0
1449616989766581667,-0.1,0.0,0.0,0.0,0.0,0.0
1449616989841964222,-0.1,0.0,0.0,0.0,0.0,0.0
1449616989892361055,-0.1,0.0,0.0,0.0,0.0,0.0
1449616989955508518,-0.1,0.0,0.0,0.0,0.0,0.0
1449616990074583013,-0.1,0.0,0.0,0.0,0.0,0.0
1449616990145695384,-0.1,0.0,0.0,0.0,0.0,0.0
1449616990211502328,-0.1,0.0,0.0,0.0,0.0,0.0
1449616990276570248,-0.1,0.0,0.0,0.0,0.0,0.0
1449616990367537415,-0.1,0.0,0.0,0.0,0.0,0.0
1449616990493429910,-0.1,0.0,0.0,0.0,0.0,0.0
1449616990619610500,-0.1,0.0,0.0,0.0,0.0,0.0
1449616990694308730,-0.1,0.0,0.0,0.0,0.0,0.0
1449616990754997079,-0.1,0.0,0.0,0.0,0.0,0.0
1449616990833053531,-0.1,0.0,0.0,0.0,0.0,0.0
1449616990877637609,-0.1,0.0,0.0,0.0,0.0,0.0
1449616990934967445,-0.1,0.0,0.0,0.0,0.0,0.0
1449616990997806774,-0.1,0.0,0.0,0.0,0.0,0.0
1449616991070323583,-0.1,0.0,0.0,0.0,0.0,0.0
1449616991146918174,-0.1,0.0,0.0,0.0,0.0,0.0
1449616991237676523,-0.1,0.0,0.0,0.0,0.0,0.0
1449616991319207956,-0.1,0.0,0.0,0.0,0.0,0.0
1449616991403730521,-0.1,0.0,0.0,0.0,0.0,0.0
1449616991526442076,-0.1,0.0,0.0,0.0,0.0,0.0
1449616991586049062,-0.1,0.0,0.0,0.0,0.0,0.0
1449616991670261611,-0.1,0.0,0.0,0.0,0.0,0.0
1449616991784094996,-0.1,0.0,0.0,0.0,0.0,0.0
1449616991869760675,-0.1,0.0,0.0,0.0,0.0,0.0
1449616991922426029,-0.1,0.0,0.0,0.0,0.0,0.0
1449616992014477885,-0.1,0.0,0.0,0.0,0.0,0.0
1449616992068390144,-0.1,0.0,0.0,0.0,0.0,0.0
1449616992292329729,0.313300663467,0.0,0.0,0.0,0.0,0.105263157895
1449616992417868737,0.3076272917,0.0,0.0,0.0,0.0,0.105263157895
1449616992476169867,0.297250646698,0.0,0.0,0.0,0.0,0.147368421053
1449616992541982410,0.29067048242,0.0,0.0,0.0,0.0,0.147368421053
1449616992637626991,0.286918264588,0.0,0.0,0.0,0.0,0.147368421053
1449616992701168131,0.276636860633,0.0,0.0,0.0,0.0,0.189473684211
1449616992744944392,0.273843943931,0.0,0.0,0.0,0.0,0.147368421053
1449616992795562196,0.270122716213,0.0,0.0,0.0,0.0,0.147368421053
1449616992874303006,0.263626616402,0.0,0.0,0.0,0.0,0.189473684211
1449616992944353412,0.259925908377,0.0,0.0,0.0,0.0,0.189473684211
1449616992995646654,0.25346791022,0.0,0.0,0.0,0.0,0.189473684211
1449616993052564888,0.246117939199,0.0,0.0,0.0,0.0,0.231578947368
1449616993099791128,0.244283702862,0.0,0.0,0.0,0.0,0.231578947368
1449616993163935628,0.240619022209,0.0,0.0,0.0,0.0,0.189473684211
1449616993264079744,0.236061957037,0.0,0.0,0.0,0.0,0.231578947368
1449616993334457400,0.229708493401,0.0,0.0,0.0,0.0,0.273684210526
1449616993419304716,0.224291581769,0.0,0.0,0.0,0.0,0.273684210526
1449616993471860322,0.21980159161,0.0,0.0,0.0,0.0,0.273684210526
1449616993525903888,0.218012271925,0.0,0.0,0.0,0.0,0.273684210526
1449616993598186597,0.213530084916,0.0,0.0,0.0,0.0,0.231578947368
1449616993718629312,0.209073421,0.0,0.0,0.0,0.0,0.315789473684
1449616993808122825,0.204620660473,0.0,0.0,0.0,0.0,0.315789473684
1449616993898493844,0.199298485523,0.0,0.0,0.0,0.0,0.315789473684
1449616993943706925,0.195764266914,0.0,0.0,0.0,0.0,0.315789473684
1449616994020598753,0.1940014425,0.0,0.0,0.0,0.0,0.315789473684
1449616994040777286,0.0,0.0,0.0,0.0,0.0,0.0
1449616994090964720,0.0,0.0,0.0,0.0,0.0,0.0
1449616994179329668,0.0,0.0,0.0,0.0,0.0,0.0
1449616994228682326,0.0,0.0,0.0,0.0,0.0,0.0
1449616994478220857,0.12,0.0,0.0,0.0,0.0,-0.0210526315789
1449616994534188411,0.12,0.0,0.0,0.0,0.0,0.0
1449616994590098644,0.12,0.0,0.0,0.0,0.0,-0.0210526315789
1449616994687169632,0.12,0.0,0.0,0.0,0.0,0.0
1449616994746949215,0.12,0.0,0.0,0.0,0.0,0.0
1449616994808050437,0.12,0.0,0.0,0.0,0.0,0.0
1449616994874710788,0.21402105026,0.0,0.0,0.0,0.0,0.0
1449616994968024680,0.212101570843,0.0,0.0,0.0,0.0,0.0
1449616995048406357,0.210182273529,0.0,0.0,0.0,0.0,0.0
1449616995103155082,0.207303414293,0.0,0.0,0.0,0.0,0.0
1449616995203426871,0.206343592963,0.0,0.0,0.0,0.0,0.0
1449616995288903502,0.201545052579,0.0,0.0,0.0,0.0,0.0
1449616995355975418,0.197706692779,0.0,0.0,0.0,0.0,0.0
1449616995439357673,0.193868547633,0.0,0.0,0.0,0.0,0.0
1449616995544514501,0.190989133928,0.0,0.0,0.0,0.0,0.0
1449616995614837034,0.184272449322,0.0,0.0,0.0,0.0,0.0
1449616995668348873,0.178515483776,0.0,0.0,0.0,0.0,0.0
1449616995727737456,0.176596474478,0.0,0.0,0.0,0.0,0.0
1449616995769978462,0.170839741093,0.0,0.0,0.0,0.0,0.0
1449616995819069871,0.168920814454,0.0,0.0,0.0,0.0,0.0
1449616995898094899,0.165083044895,0.0,0.0,0.0,0.0,0.0
1449616995945613397,0.159326723413,0.0,0.0,0.0,0.0,0.0
1449616996047985046,0.157407943985,0.0,0.0,0.0,0.0,0.0
1449616996089892467,0.143022263023,0.0,0.0,0.0,0.0,0.0
1449616996166955168,0.140720002177,0.0,0.0,0.0,0.0,0.0
1449616996248250942,0.136115782042,0.0,0.0,0.0,0.0,0.0
1449616996300812966,0.128059279697,0.0,0.0,0.0,0.0,0.0
1449616996388671582,0.124605932499,0.0,0.0,0.0,0.0,0.0
1449616996433621678,0.0,0.0,0.0,0.0,0.0,0.0
1449616996534906633,0.0,0.0,0.0,0.0,0.0,0.0
1449616996586207224,0.0,0.0,0.0,0.0,0.0,0.0
1449616996799851689,0.0,0.0,0.0,0.0,0.0,0.0
1449616996950507929,0.0,0.0,0.0,0.0,0.0,0.0
1449616996998792241,0.0,0.0,0.0,0.0,0.0,0.0
1449616997174986063,0.0,0.0,0.0,0.0,0.0,0.0
1449616997225040687,0.0,0.0,0.0,0.0,0.0,0.0
1449616997332514897,0.0,0.0,0.0,0.0,0.0,0.0
1449616997390613034,0.0,0.0,0.0,0.0,0.0,0.0
1449616997472517921,0.0,0.0,0.0,0.0,0.0,0.0
1449616997523386261,0.0,0.0,0.0,0.0,0.0,0.0
1449616997586180593,0.0,0.0,0.0,0.0,0.0,0.0
1449616997685960304,0.0,0.0,0.0,0.0,0.0,0.0
1449616997786211463,0.0,0.0,0.0,0.0,0.0,0.0
1449616997887315331,0.0,0.0,0.0,0.0,0.0,0.0
1449616997987308554,0.0,0.0,0.0,0.0,0.0,0.0
1449616998036064971,0.0,0.0,0.0,0.0,0.0,0.0
1449616998086438045,0.0,0.0,0.0,0.0,0.0,0.0
1449616998187029414,0.0,0.0,0.0,0.0,0.0,0.0
1449616998337075409,0.0,0.0,0.0,0.0,0.0,0.0
1449616998387011900,0.0,0.0,0.0,0.0,0.0,0.0
1449616998547080741,0.0,0.0,0.0,0.0,0.0,0.0
1449616998598373487,0.0,0.0,0.0,0.0,0.0,0.0
1449616998720523855,0.0,0.0,0.0,0.0,0.0,0.0
1449616998873782479,0.0,0.0,0.0,0.0,0.0,0.0
1449616998920493838,0.0,0.0,0.0,0.0,0.0,0.0
1449616998974025436,0.0,0.0,0.0,0.0,0.0,0.0
1449616999024194593,0.0,0.0,0.0,0.0,0.0,0.0
1449616999172501380,0.0,0.0,0.0,0.0,0.0,0.0
1449616999270442649,0.0,0.0,0.0,0.0,0.0,0.0
1449616999320193832,0.0,0.0,0.0,0.0,0.0,0.0
1449616999391764607,0.0,0.0,0.0,0.0,0.0,0.0
1449616999491484013,0.0,0.0,0.0,0.0,0.0,0.0
1449616999592806848,0.0,0.0,0.0,0.0,0.0,0.0
1449616999696489062,0.0,0.0,0.0,0.0,0.0,0.0
1449616999793857541,0.0,0.0,0.0,0.0,0.0,0.0
1449616999941983652,0.0,0.0,0.0,0.0,0.0,0.0
1449616999993378439,0.0,0.0,0.0,0.0,0.0,0.0
1449617000173611231,0.0,0.0,0.0,0.0,0.0,0.0
1449617000224066163,0.0,0.0,0.0,0.0,0.0,0.0
1449617000311655702,0.0,0.0,0.0,0.0,0.0,0.0
1449617000490572229,0.0,0.0,0.0,0.0,0.0,-0.4
1449617000548404469,0.0,0.0,0.0,0.0,0.0,-0.4
1449617000640160362,0.0,0.0,0.0,0.0,0.0,-0.4
1449617000736059859,0.0,0.0,0.0,0.0,0.0,-0.4
1449617000816887308,0.0,0.0,0.0,0.0,0.0,-0.4
1449617000873413744,0.0,0.0,0.0,0.0,0.0,-0.4
1449617000947517992,0.0,0.0,0.0,0.0,0.0,-0.4
1449617001043874991,0.0,0.0,0.0,0.0,0.0,-0.4
1449617001124070811,0.0,0.0,0.0,0.0,0.0,-0.4
1449617001225696230,0.0,0.0,0.0,0.0,0.0,-0.4
1449617001298755961,0.0,0.0,0.0,0.0,0.0,-0.4
1449617001371203004,0.0,0.0,0.0,0.0,0.0,-0.4
1449617001435899955,0.0,0.0,0.0,0.0,0.0,-0.4
1449617001529938001,0.0,0.0,0.0,0.0,0.0,-0.4
1449617001626003352,0.0,0.0,0.0,0.0,0.0,-0.4
1449617001716831563,0.0,0.0,0.0,0.0,0.0,-0.315789473684
1449617001792079170,0.0,0.0,0.0,0.0,0.0,-0.31
1449617001868095197,0.0,0.0,0.0,0.0,0.0,-0.4
1449617001926668013,0.0,0.0,0.0,0.0,0.0,-0.4
1449617001984461305,0.0,0.0,0.0,0.0,0.0,-0.4
1449617002083449652,0.0,0.0,0.0,0.0,0.0,-0.4
