%time,field.header.seq,field.header.stamp,field.header.frame_id,field.polygon.points0.x,field.polygon.points0.y,field.polygon.points0.z,field.polygon.points1.x,field.polygon.points1.y,field.polygon.points1.z,field.polygon.points2.x,field.polygon.points2.y,field.polygon.points2.z,field.polygon.points3.x,field.polygon.points3.y,field.polygon.points3.z,field.polygon.points4.x,field.polygon.points4.y,field.polygon.points4.z
1449616881663080123,1,1449616881659014207,odom,0.479999989271,0.0,0.0,0.329999983311,-0.264999985695,0.0,-0.539999961853,-0.264999985695,0.0,-0.539999961853,0.264999985695,0.0,0.329999983311,0.264999985695,0.0
1449616881965224729,2,1449616881963230108,odom,0.479999989271,0.0,0.0,0.329999983311,-0.264999985695,0.0,-0.539999961853,-0.264999985695,0.0,-0.539999961853,0.264999985695,0.0,0.329999983311,0.264999985695,0.0
1449616882144290459,3,1449616882143965089,odom,0.479999989271,0.0,0.0,0.329999983311,-0.264999985695,0.0,-0.539999961853,-0.264999985695,0.0,-0.539999961853,0.264999985695,0.0,0.329999983311,0.264999985695,0.0
1449616882352354424,4,1449616882352160281,odom,0.479999989271,0.0,0.0,0.329999983311,-0.264999985695,0.0,-0.539999961853,-0.264999985695,0.0,-0.539999961853,0.264999985695,0.0,0.329999983311,0.264999985695,0.0
1449616882588437376,5,1449616882587773526,odom,0.479999989271,0.0,0.0,0.329999983311,-0.264999985695,0.0,-0.539999961853,-0.264999985695,0.0,-0.539999961853,0.264999985695,0.0,0.329999983311,0.264999985695,0.0
1449616882761877989,6,1449616882761092348,odom,0.479999989271,0.0,0.0,0.329999983311,-0.264999985695,0.0,-0.539999961853,-0.264999985695,0.0,-0.539999961853,0.264999985695,0.0,0.329999983311,0.264999985695,0.0
1449616882946460864,7,1449616882946099206,odom,0.479999989271,0.0,0.0,0.329999983311,-0.264999985695,0.0,-0.539999961853,-0.264999985695,0.0,-0.539999961853,0.264999985695,0.0,0.329999983311,0.264999985695,0.0
1449616883137247227,8,1449616883130844490,odom,0.479999989271,0.0,0.0,0.329999983311,-0.264999985695,0.0,-0.539999961853,-0.264999985695,0.0,-0.539999961853,0.264999985695,0.0,0.329999983311,0.264999985695,0.0
1449616883326412061,9,1449616883326236460,odom,0.479999989271,0.0,0.0,0.329999983311,-0.264999985695,0.0,-0.539999961853,-0.264999985695,0.0,-0.539999961853,0.264999985695,0.0,0.329999983311,0.264999985695,0.0
1449616883537386827,10,1449616883537001772,odom,0.479999989271,0.0,0.0,0.329999983311,-0.264999985695,0.0,-0.539999961853,-0.264999985695,0.0,-0.539999961853,0.264999985695,0.0,0.329999983311,0.264999985695,0.0
1449616883741993506,11,1449616883741539158,odom,0.479999989271,0.0,0.0,0.329999983311,-0.264999985695,0.0,-0.539999961853,-0.264999985695,0.0,-0.539999961853,0.264999985695,0.0,0.329999983311,0.264999985695,0.0
1449616883939036358,12,1449616883938762693,odom,0.479999989271,0.0,0.0,0.329999983311,-0.264999985695,0.0,-0.539999961853,-0.264999985695,0.0,-0.539999961853,0.264999985695,0.0,0.329999983311,0.264999985695,0.0
1449616884182545285,13,1449616884182261487,odom,0.479999989271,0.0,0.0,0.329999983311,-0.264999985695,0.0,-0.539999961853,-0.264999985695,0.0,-0.539999961853,0.264999985695,0.0,0.329999983311,0.264999985695,0.0
1449616884357982118,14,1449616884357794859,odom,0.479999989271,0.0,0.0,0.329999983311,-0.264999985695,0.0,-0.539999961853,-0.264999985695,0.0,-0.539999961853,0.264999985695,0.0,0.329999983311,0.264999985695,0.0
1449616884557780953,15,1449616884556867694,odom,0.479999989271,0.0,0.0,0.329999983311,-0.264999985695,0.0,-0.539999961853,-0.264999985695,0.0,-0.539999961853,0.264999985695,0.0,0.329999983311,0.264999985695,0.0
1449616884757536388,16,1449616884757047123,odom,0.479999989271,0.0,0.0,0.329999983311,-0.264999985695,0.0,-0.539999961853,-0.264999985695,0.0,-0.539999961853,0.264999985695,0.0,0.329999983311,0.264999985695,0.0
1449616884958363723,17,1449616884957130088,odom,0.479999989271,0.0,0.0,0.329999983311,-0.264999985695,0.0,-0.539999961853,-0.264999985695,0.0,-0.539999961853,0.264999985695,0.0,0.329999983311,0.264999985695,0.0
1449616885164979919,18,1449616885164106982,odom,0.479999989271,0.0,0.0,0.329999983311,-0.264999985695,0.0,-0.539999961853,-0.264999985695,0.0,-0.539999961853,0.264999985695,0.0,0.329999983311,0.264999985695,0.0
1449616885360788985,19,1449616885357674481,odom,0.479999989271,0.0,0.0,0.329999983311,-0.264999985695,0.0,-0.539999961853,-0.264999985695,0.0,-0.539999961853,0.264999985695,0.0,0.329999983311,0.264999985695,0.0
1449616885554415882,20,1449616885551908905,odom,0.479999989271,0.0,0.0,0.329999983311,-0.264999985695,0.0,-0.539999961853,-0.264999985695,0.0,-0.539999961853,0.264999985695,0.0,0.329999983311,0.264999985695,0.0
1449616885793246370,21,1449616885793115831,odom,0.479999989271,0.0,0.0,0.329999983311,-0.264999985695,0.0,-0.539999961853,-0.264999985695,0.0,-0.539999961853,0.264999985695,0.0,0.329999983311,0.264999985695,0.0
1449616885963950648,22,1449616885962254609,odom,0.479999989271,0.0,0.0,0.329999983311,-0.264999985695,0.0,-0.539999961853,-0.264999985695,0.0,-0.539999961853,0.264999985695,0.0,0.329999983311,0.264999985695,0.0
1449616886139716965,23,1449616886139426343,odom,0.479999989271,0.0,0.0,0.329999983311,-0.264999985695,0.0,-0.539999961853,-0.264999985695,0.0,-0.539999961853,0.264999985695,0.0,0.329999983311,0.264999985695,0.0
1449616886368768913,24,1449616886368558707,odom,0.479999989271,0.0,0.0,0.329999983311,-0.264999985695,0.0,-0.539999961853,-0.264999985695,0.0,-0.539999961853,0.264999985695,0.0,0.329999983311,0.264999985695,0.0
1449616886587434221,25,1449616886585900674,odom,0.479999989271,0.0,0.0,0.329999983311,-0.264999985695,0.0,-0.539999961853,-0.264999985695,0.0,-0.539999961853,0.264999985695,0.0,0.329999983311,0.264999985695,0.0
1449616886764481430,26,1449616886755989196,odom,0.479999989271,0.0,0.0,0.329999983311,-0.264999985695,0.0,-0.539999961853,-0.264999985695,0.0,-0.539999961853,0.264999985695,0.0,0.329999983311,0.264999985695,0.0
1449616886987954531,27,1449616886987438410,odom,0.479999989271,0.0,0.0,0.329999983311,-0.264999985695,0.0,-0.539999961853,-0.264999985695,0.0,-0.539999961853,0.264999985695,0.0,0.329999983311,0.264999985695,0.0
1449616887240305883,28,1449616887225173692,odom,0.479999989271,0.0,0.0,0.329999983311,-0.264999985695,0.0,-0.539999961853,-0.264999985695,0.0,-0.539999961853,0.264999985695,0.0,0.329999983311,0.264999985695,0.0
1449616887399126407,29,1449616887389865789,odom,0.482852816582,-0.00510300230235,0.0,0.330060720444,-0.268503010273,0.0,-0.539890646935,-0.259308993816,0.0,-0.534289717674,0.27066141367,0.0,0.335661679506,0.261467367411,0.0
1449616887545479620,30,1449616887544747743,odom,0.491410821676,-0.0102967340499,0.0,0.335843682289,-0.272067368031,0.0,-0.533961951733,-0.253680318594,0.0,-0.522760689259,0.276201277971,0.0,0.347044974566,0.257814258337,0.0
1449616887782881683,31,1449616887780749098,odom,0.508686244488,-0.0106314830482,0.0,0.353119075298,-0.272402107716,0.0,-0.516686558723,-0.254015088081,0.0,-0.505485296249,0.275866538286,0.0,0.364320367575,0.25747948885,0.0
1449616887999766666,32,1449616887999326346,odom,0.534459710121,-0.0164326578379,0.0,0.376134932041,-0.27654466033,0.0,-0.493427842855,-0.248966664076,0.0,-0.476627469063,0.280766963959,0.0,0.392935305834,0.253188997507,0.0
1449616888179648373,33,1449616888179371209,odom,0.562805652618,-0.0276944432408,0.0,0.3990188241,-0.284402221441,0.0,-0.46976685524,-0.238452598453,0.0,-0.4417745471,0.290807664394,0.0,0.42701113224,0.244858041406,0.0
1449616888447024329,34,1449616888441442004,odom,0.590907812119,-0.0395528301597,0.0,0.421732217073,-0.292741715908,0.0,-0.445888310671,-0.228440985084,0.0,-0.406716585159,0.300109446049,0.0,0.460903912783,0.235808730125,0.0
1449616888605814430,35,1449616888575868486,odom,0.610609292984,-0.0460994169116,0.0,0.438767462969,-0.297486335039,0.0,-0.428125083447,-0.224020317197,0.0,-0.383369922638,0.304086655378,0.0,0.483522623777,0.230620622635,0.0
1449616888764983369,36,1449616888764835303,odom,0.615376293659,-0.0567759647965,0.0,0.438259929419,-0.304474949837,0.0,-0.426886320114,-0.212703973055,0.0,-0.370979875326,0.314339160919,0.0,0.494166374207,0.222568184137,0.0
1449616889107051042,37,1449616889106749841,odom,0.616391777992,-0.0722150951624,0.0,0.431512653828,-0.314175218344,0.0,-0.430289775133,-0.195026233792,0.0,-0.357704758644,0.329979866743,0.0,0.504097700119,0.210830882192,0.0
1449616889217842477,38,1449616889215109140,odom,0.613070547581,-0.107661753893,0.0,0.410814076662,-0.335295885801,0.0,-0.439825177193,-0.152777925134,0.0,-0.328636080027,0.365427613258,0.0,0.522003173828,0.182909622788,0.0
1449616889382475921,39,1449616889382252912,odom,0.610837519169,-0.117558076978,0.0,0.403815239668,-0.340866774321,0.0,-0.442776590586,-0.14041171968,0.0,-0.3206602633,0.375328123569,0.0,0.525931537151,0.174873068929,0.0
1449616889578600633,40,1449616889578338823,odom,0.607131719589,-0.142795652151,0.0,0.388604223728,-0.354858666658,0.0,-0.446218818426,-0.109970077872,0.0,-0.297033816576,0.398600280285,0.0,0.537789225578,0.1537117064,0.0
1449616889822421050,41,1449616889820230871,odom,0.605353713036,-0.158225774765,0.0,0.380213826895,-0.363255143166,0.0,-0.446426987648,-0.0920267179608,0.0,-0.281195878983,0.411559075117,0.0,0.545444965363,0.140330657363,0.0
1449616890006111145,42,1449616890004173352,odom,0.606473445892,-0.163963854313,0.0,0.379179447889,-0.366602540016,0.0,-0.444548934698,-0.086653418839,0.0,-0.274005234241,0.415158122778,0.0,0.549723148346,0.135209023952,0.0
1449616890223989576,43,1449616890220670312,odom,0.606473445892,-0.163963854313,0.0,0.379179447889,-0.366602540016,0.0,-0.444548934698,-0.086653418839,0.0,-0.274005234241,0.415158122778,0.0,0.549723148346,0.135209023952,0.0
1449616890482713699,44,1449616890479747306,odom,0.61738961935,-0.167641624808,0.0,0.390095591545,-0.370280325413,0.0,-0.43363276124,-0.0903312042356,0.0,-0.263089060783,0.411480337381,0.0,0.560639321804,0.131531238556,0.0
1449616890756789033,45,1449616890751404039,odom,0.630333483219,-0.182915836573,0.0,0.398807615042,-0.38070550561,0.0,-0.418820202351,-0.0834098160267,0.0,-0.237709015608,0.414685279131,0.0,0.579918801785,0.117389604449,0.0
1449616890911860293,46,1449616890911566593,odom,0.664442241192,-0.206760004163,0.0,0.428787857294,-0.399612307549,0.0,-0.382374107838,-0.0851028561592,0.0,-0.190776392817,0.409053295851,0.0,0.620385587215,0.0945438444614,0.0
1449616891062718664,47,1449616891060547498,odom,0.688002705574,-0.232932180166,0.0,0.446353554726,-0.418217599392,0.0,-0.354431182146,-0.0781533047557,0.0,-0.147265568376,0.409681081772,0.0,0.653519153595,0.0696168020368,0.0
1449616891209892790,48,1449616891196125445,odom,0.709779202938,-0.247889250517,0.0,0.466185450554,-0.430610597134,0.0,-0.330960839987,-0.0821027308702,0.0,-0.118651427329,0.403515130281,0.0,0.678494870663,0.0550072528422,0.0
1449616891373994689,49,1449616891371724052,odom,0.747894585133,-0.282288342714,0.0,0.498631238937,-0.457196235657,0.0,-0.287067145109,-0.0835948884487,0.0,-0.0594709180295,0.395048975945,0.0,0.726227462292,0.0214476212859,0.0
1449616891633719460,50,1449616891632730339,odom,0.790020942688,-0.320515334606,0.0,0.535338461399,-0.487433969975,0.0,-0.238122358918,-0.0891146361828,0.0,0.00453195674345,0.382074147463,0.0,0.777992784977,-0.0162451732904,0.0
1449616891783069641,51,1449616891782590729,odom,0.825878918171,-0.357259869576,0.0,0.566033303738,-0.516021490097,0.0,-0.194412559271,-0.0933845415711,0.0,0.0630559399724,0.369875609875,0.0,0.823501825333,-0.0527613647282,0.0
1449616891988806829,52,1449616891973713249,odom,0.860769212246,-0.38909265399,0.0,0.597626328468,-0.542327105999,0.0,-0.15371748805,-0.103712879121,0.0,0.113484285772,0.354002326727,0.0,0.864828050137,-0.0846119076014,0.0
1449616892189157532,53,1449616892188707511,odom,0.889990508556,-0.418778866529,0.0,0.623667836189,-0.566417694092,0.0,-0.11823823303,-0.112022124231,0.0,0.15857745707,0.339943647385,0.0,0.900483548641,-0.114451900125,0.0
1449616892457405287,54,1449616892454236860,odom,0.91337454319,-0.45179978013,0.0,0.642505705357,-0.590922296047,0.0,-0.0846236944199,-0.113237537444,0.0,0.206379666924,0.329726368189,0.0,0.933509111404,-0.147958382964,0.0
1449616892691711329,55,1449616892690061652,odom,0.946552217007,-0.479919880629,0.0,0.674228310585,-0.616172134876,0.0,-0.0478124134243,-0.130829840899,0.0,0.247855871916,0.309034049511,0.0,0.969896614552,-0.176308214664,0.0
1449616892801611776,56,1449616892799493207,odom,0.983498632908,-0.51767462492,0.0,0.708355903625,-0.648141026497,0.0,-0.00326606445014,-0.147647157311,0.0,0.301632493734,0.285869687796,0.0,1.01325452328,-0.214624166489,0.0
1449616893021863579,57,1449616893017445385,odom,1.01642334461,-0.540942668915,0.0,0.74128061533,-0.671409070492,0.0,0.0296586491168,-0.170915186405,0.0,0.334557205439,0.262601643801,0.0,1.04617917538,-0.237892210484,0.0
1449616893185820194,58,1449616893185615029,odom,1.05723881721,-0.582832455635,0.0,0.779400229454,-0.707454681396,0.0,0.0785149112344,-0.192032814026,0.0,0.392507553101,0.234943315387,0.0,1.09339284897,-0.280478566885,0.0
1449616893470022058,59,1449616893456448972,odom,1.09352505207,-0.616077780724,0.0,0.814384937286,-0.73775690794,0.0,0.118985682726,-0.214956969023,0.0,0.437472999096,0.208677083254,0.0,1.13287234306,-0.314122855663,0.0
1449616893646330944,60,1449616893641647457,odom,1.13851797581,-0.656820714474,0.0,0.858107566833,-0.775543093681,0.0,0.168271973729,-0.245423465967,0.0,0.491218417883,0.174821197987,0.0,1.18105399609,-0.355298399925,0.0
1449616893810206432,61,1449616893803289040,odom,1.17048597336,-0.681387245655,0.0,0.890075564384,-0.800109624863,0.0,0.200240001082,-0.269989997149,0.0,0.523186445236,0.150254666805,0.0,1.21302199364,-0.379864960909,0.0
1449616894017414738,62,1449616894016699942,odom,1.21602392197,-0.716650545597,0.0,0.935613453388,-0.835372924805,0.0,0.245777890086,-0.305253297091,0.0,0.56872433424,0.114991381764,0.0,1.25855994225,-0.415128231049,0.0
1449616894160530015,63,1449616894151074574,odom,1.26275491714,-0.745588958263,0.0,0.983614802361,-0.867268025875,0.0,0.288215517998,-0.34446811676,0.0,0.60670286417,0.0791659504175,0.0,1.30210208893,-0.443633973598,0.0
1449616894368142070,64,1449616894367768613,odom,1.32000231743,-0.774679362774,0.0,1.04349625111,-0.902230799198,0.0,0.337203115225,-0.394244551659,0.0,0.646665990353,0.0360259674489,0.0,1.35295903683,-0.471960276365,0.0
1449616894579026513,65,1449616894578535853,odom,1.37240886688,-0.805336117744,0.0,1.097266078,-0.935802459717,0.0,0.385644137859,-0.435308605433,0.0,0.690542697906,-0.00179176032543,0.0,1.40216469765,-0.502285599709,0.0
1449616894852913843,66,1449616894851519722,odom,1.4162094593,-0.822957992554,0.0,1.14388549328,-0.959210276604,0.0,0.421844750643,-0.473867952824,0.0,0.717513024807,-0.0340040698647,0.0,1.43955373764,-0.519346356392,0.0
1449616894962921258,67,1449616894959840210,odom,1.44968676567,-0.845424175262,0.0,1.17736279964,-0.981676399708,0.0,0.455322057009,-0.49633410573,0.0,0.750990331173,-0.0564702115953,0.0,1.47303104401,-0.541812479496,0.0
1449616895197504568,68,1449616895196663033,odom,1.47410559654,-0.855506062508,0.0,1.20323681831,-0.994628548622,0.0,0.476107358932,-0.51694381237,0.0,0.767110705376,-0.0739798769355,0.0,1.49424016476,-0.55166465044,0.0
1449616895411559147,69,1449616895410380997,odom,1.48853003979,-0.865018546581,0.0,1.21766126156,-1.00414097309,0.0,0.490531772375,-0.526456296444,0.0,0.781535148621,-0.0834923535585,0.0,1.508664608,-0.561177134514,0.0
1449616895589696283,70,1449616895585868006,odom,1.49853003025,-0.865482270718,0.0,1.22914648056,-1.00745952129,0.0,0.497009575367,-0.537485659122,0.0,0.78331553936,-0.0914711803198,0.0,1.51545250416,-0.561445057392,0.0
1449616895806565466,71,1449616895804502728,odom,1.49853003025,-0.865482270718,0.0,1.22914648056,-1.00745952129,0.0,0.497009575367,-0.537485659122,0.0,0.78331553936,-0.0914711803198,0.0,1.51545250416,-0.561445057392,0.0
1449616895956812863,72,1449616895956526322,odom,1.49853003025,-0.865482270718,0.0,1.22914648056,-1.00745952129,0.0,0.497009575367,-0.537485659122,0.0,0.78331553936,-0.0914711803198,0.0,1.51545250416,-0.561445057392,0.0
1449616896169781655,73,1449616896168887612,odom,1.49853003025,-0.865482270718,0.0,1.22914648056,-1.00745952129,0.0,0.497009575367,-0.537485659122,0.0,0.78331553936,-0.0914711803198,0.0,1.51545250416,-0.561445057392,0.0
1449616896415535460,74,1449616896415115204,odom,1.49853003025,-0.865482270718,0.0,1.22914648056,-1.00745952129,0.0,0.497009575367,-0.537485659122,0.0,0.78331553936,-0.0914711803198,0.0,1.51545250416,-0.561445057392,0.0
1449616896621127632,75,1449616896614783475,odom,1.49853003025,-0.865482270718,0.0,1.22914648056,-1.00745952129,0.0,0.497009575367,-0.537485659122,0.0,0.78331553936,-0.0914711803198,0.0,1.51545250416,-0.561445057392,0.0
1449616896871787105,76,1449616896863138484,odom,1.49853003025,-0.865482270718,0.0,1.22914648056,-1.00745952129,0.0,0.497009575367,-0.537485659122,0.0,0.78331553936,-0.0914711803198,0.0,1.51545250416,-0.561445057392,0.0
1449616896993329077,77,1449616896992057541,odom,1.50368738174,-0.862729012966,0.0,1.23581933975,-1.00754511356,0.0,0.498756706715,-0.545334637165,0.0,0.780333220959,-0.0963194146752,0.0,1.517395854,-0.55852997303,0.0
1449616897217614876,78,1449616897212428653,odom,1.50390386581,-0.856913208961,0.0,1.23758113384,-1.00455200672,0.0,0.495675086975,-0.550156474113,0.0,0.772490739822,-0.098190702498,0.0,1.51439678669,-0.552586257458,0.0
1449616897408671874,79,1449616897403383435,odom,1.50909543037,-0.848232448101,0.0,1.24595248699,-1.00146687031,0.0,0.494608640671,-0.562852680683,0.0,0.761810421944,-0.105137497187,0.0,1.51315426826,-0.543751716614,0.0
1449616897630716129,80,1449616897629979565,odom,1.51413214207,-0.839390933514,0.0,1.25428652763,-0.998152554035,0.0,0.493840634823,-0.575515568256,0.0,0.751309156418,-0.112255424261,0.0,1.51175498962,-0.534892380238,0.0
1449616897798409589,81,1449616897796415769,odom,1.51404106617,-0.833571791649,0.0,1.25588774681,-0.995070576668,0.0,0.491017997265,-0.580493450165,0.0,0.743576467037,-0.114538304508,0.0,1.50844621658,-0.529115378857,0.0
1449616897996693475,82,1449616897991378889,odom,1.51898086071,-0.830444872379,0.0,1.26254868507,-0.994662761688,0.0,0.493340432644,-0.588191866875,0.0,0.740960657597,-0.119593694806,0.0,1.51016891003,-0.526064574718,0.0
1449616898204688905,83,1449616898191807380,odom,1.51898086071,-0.830444872379,0.0,1.26254868507,-0.994662761688,0.0,0.493340432644,-0.588191866875,0.0,0.740960657597,-0.119593694806,0.0,1.51016891003,-0.526064574718,0.0
1449616898432546600,84,1449616898430789880,odom,1.52388739586,-0.827265918255,0.0,1.26920497417,-0.994184553623,0.0,0.495744109154,-0.595865249634,0.0,0.738398432732,-0.124676451087,0.0,1.51185917854,-0.522995769978,0.0
1449616898593372609,85,1449616898591387858,odom,1.52876007557,-0.824035286903,0.0,1.27585577965,-0.993636071682,0.0,0.498228728771,-0.603512823582,0.0,0.735890030861,-0.129785999656,0.0,1.51351702213,-0.519909262657,0.0
1449616898833662671,86,1449616898827474438,odom,1.53322637081,-0.814892351627,0.0,1.28396308422,-0.989800274372,0.0,0.49826464057,-0.616198897362,0.0,0.725860893726,-0.13755504787,0.0,1.51155924797,-0.511156380177,0.0
1449616899022755141,87,1449616899020843319,odom,1.53799414635,-0.811508893967,0.0,1.29059314728,-0.989041209221,0.0,0.500990450382,-0.623763859272,0.0,0.723515748978,-0.142741546035,0.0,1.51311838627,-0.508018910885,0.0
1449616899250522138,88,1449616899249347425,odom,1.54742109776,-0.804591834545,0.0,1.30382740498,-0.98731315136,0.0,0.506681084633,-0.638805270195,0.0,0.718990504742,-0.153187423944,0.0,1.51613676548,-0.501695334911,0.0
1449616899453768551,89,1449616899445364578,odom,1.55738055706,-0.803310215473,0.0,1.31573140621,-0.988595664501,0.0,0.514946699142,-0.648531377316,0.0,0.722112298012,-0.160696953535,0.0,1.52289700508,-0.500761270523,0.0
1449616899621346554,90,1449616899620728568,odom,1.57563197613,-0.788692414761,0.0,1.34202873707,-0.984024345875,0.0,0.527588367462,-0.678104698658,0.0,0.713953256607,-0.181951344013,0.0,1.52839362621,-0.48787099123,0.0
1449616899756274023,91,1449616899755119600,odom,1.59975111485,-0.781108617783,0.0,1.37245714664,-0.983747303486,0.0,0.548728764057,-0.703798174858,0.0,0.719272494316,-0.201986625791,0.0,1.5430008173,-0.481935739517,0.0
1449616899975301677,92,1449616899973644224,odom,1.6362632513,-0.76007604599,0.0,1.4222663641,-0.976710140705,0.0,0.582454144955,-0.749519884586,0.0,0.720857441425,-0.23791013658,0.0,1.56066966057,-0.465100437403,0.0
1449616900188633470,93,1449616900183931048,odom,1.66747689247,-0.741311728954,0.0,1.46522033215,-0.968945860863,0.0,0.614581108093,-0.786427915096,0.0,0.725770235062,-0.268222391605,0.0,1.57640945911,-0.450740367174,0.0
1449616900377890519,94,1449616900377322650,odom,1.70330965519,-0.722013711929,0.0,1.51335811615,-0.960012495518,0.0,0.654266357422,-0.822676301003,0.0,0.737930893898,-0.299321532249,0.0,1.59702265263,-0.436657696962,0.0
1449616900596194717,95,1449616900595609708,odom,1.73685097694,-0.7112891078,0.0,1.55453920364,-0.955189526081,0.0,0.691525757313,-0.845154583454,0.0,0.758558511734,-0.319410711527,0.0,1.62157201767,-0.429445654154,0.0
1449616900786339839,96,1449616900786058188,odom,1.77667844296,-0.689399540424,0.0,1.60750281811,-0.94258838892,0.0,0.739882349968,-0.878287672997,0.0,0.779054045677,-0.349737256765,0.0,1.64667451382,-0.414037972689,0.0
1449616900955518881,97,1449616900955215994,odom,1.81493890285,-0.676306605339,0.0,1.65387403965,-0.934730887413,0.0,0.784651279449,-0.897965073586,0.0,0.807048857212,-0.368438541889,0.0,1.67627167702,-0.405204385519,0.0
1449616901181393058,98,1449616901176074992,odom,1.86428296566,-0.662159562111,0.0,1.71149086952,-0.925559580326,0.0,0.841539502144,-0.916365563869,0.0,0.847140491009,-0.386395186186,0.0,1.71709191799,-0.395589202642,0.0
1449616901383876680,99,1449616901383696739,odom,1.91891241074,-0.646303355694,0.0,1.77454650402,-0.914414346218,0.0,0.904740929604,-0.932801365852,0.0,0.893539607525,-0.402919799089,0.0,1.76334524155,-0.384532749653,0.0
1449616901610241423,100,1449616901607695387,odom,1.97614312172,-0.633942246437,0.0,1.83747589588,-0.905044436455,0.0,0.968253135681,-0.941810309887,0.0,0.945855557919,-0.412283778191,0.0,1.81507825851,-0.375517934561,0.0
1449616901767013567,101,1449616901766609109,odom,2.03560328484,-0.614797174931,0.0,1.9055993557,-0.890158712864,0.0,1.03797888756,-0.954459428787,0.0,0.998807132244,-0.425909012556,0.0,1.86642765999,-0.36160826683,0.0
1449616901977307805,102,1449616901976976385,odom,2.0978717804,-0.599308073521,0.0,1.97371649742,-0.877355694771,0.0,1.10764873028,-0.959978818893,0.0,1.05731511116,-0.432374298573,0.0,1.9233828783,-0.349751204252,0.0
1449616902138946655,103,1449616902136540087,odom,2.15754437447,-0.588305711746,0.0,2.0363342762,-0.86764985323,0.0,1.17118811607,-0.959420800209,0.0,1.11528170109,-0.432377696037,0.0,1.98042786121,-0.340606719255,0.0
1449616902357568869,104,1449616902357286764,odom,2.21708703041,-0.576582610607,0.0,2.09883594513,-0.857192099094,0.0,1.23470795155,-0.958100676537,0.0,1.17323482037,-0.431677758694,0.0,2.03736305237,-0.330769181252,0.0
1449616902550657389,105,1449616902550275728,odom,2.27076363564,-0.564747869968,0.0,2.15548443794,-0.846591353416,0.0,1.29247105122,-0.956626296043,0.0,1.22543823719,-0.430882424116,0.0,2.08845186234,-0.320847511292,0.0
1449616902815197834,106,1449616902814583219,odom,2.31287240982,-0.553713142872,0.0,2.20057821274,-0.836759090424,0.0,1.33877575397,-0.955908119678,0.0,1.26619076729,-0.430902004242,0.0,2.12799310684,-0.311753004789,0.0
1449616902996279911,107,1449616902991641501,odom,2.34349560738,-0.544112682343,0.0,2.23419904709,-0.828329563141,0.0,1.37370383739,-0.956579267979,0.0,1.29557466507,-0.432369560003,0.0,2.15606999397,-0.304119855165,0.0
1449616903217769817,108,1449616903212044366,odom,2.36201310158,-0.551886379719,0.0,2.2467341423,-0.833729803562,0.0,1.38372051716,-0.943764746189,0.0,1.31668782234,-0.418020904064,0.0,2.17970132828,-0.307985961437,0.0
1449616903409479166,109,1449616903409076323,odom,2.36891388893,-0.561325252056,0.0,2.24770402908,-0.840669393539,0.0,1.38255774975,-0.932440340519,0.0,1.32665121555,-0.405397236347,0.0,2.19179749489,-0.313626259565,0.0
1449616903624610036,110,1449616903616981298,odom,2.37888717651,-0.575751721859,0.0,2.24888324738,-0.851113259792,0.0,1.38126277924,-0.915413975716,0.0,1.34209108353,-0.386863559484,0.0,2.20971155167,-0.322562813759,0.0
1449616903749793868,111,1449616903745614311,odom,2.38839817047,-0.590487062931,0.0,2.24973106384,-0.861589312553,0.0,1.38050818443,-0.898355126381,0.0,1.35811066628,-0.368828624487,0.0,2.22733330727,-0.332062780857,0.0
1449616903976435847,112,1449616903975688612,odom,2.3944773674,-0.600474953651,0.0,2.25011134148,-0.868585944176,0.0,1.38030576706,-0.886973023415,0.0,1.36910450459,-0.357091397047,0.0,2.23891019821,-0.33870434761,0.0
1449616904206450916,113,1449616904206046025,odom,2.40319681168,-0.615692138672,0.0,2.25040459633,-0.879092156887,0.0,1.38045322895,-0.869898080826,0.0,1.38605415821,-0.339927703142,0.0,2.25600552559,-0.349121749401,0.0
1449616904334644478,114,1449616904334484721,odom,2.40873980522,-0.625987112522,0.0,2.25041508675,-0.886099159718,0.0,1.38085222244,-0.858521163464,0.0,1.39765262604,-0.328787505627,0.0,2.26721549034,-0.356365501881,0.0
1449616904580238191,115,1449616904579593452,odom,2.41664338112,-0.641643583775,0.0,2.25015282631,-0.896606147289,0.0,1.3819013834,-0.841477870941,0.0,1.41548526287,-0.312543004751,0.0,2.28373670578,-0.367671251297,0.0
1449616904770813297,116,1449616904766172317,odom,2.42404675484,-0.657542645931,0.0,2.24955797195,-0.907099545002,0.0,1.3834900856,-0.824476420879,0.0,1.43382370472,-0.296871930361,0.0,2.29989147186,-0.379495024681,0.0
1449616905004140737,117,1449616905002293697,odom,2.4287006855,-0.668268978596,0.0,2.24897646904,-0.914082407951,0.0,1.38484847546,-0.813173830509,0.0,1.44632148743,-0.286750912666,0.0,2.31044960022,-0.387659519911,0.0
1449616905204126553,118,1449616905202472832,odom,2.43094229698,-0.673668444157,0.0,2.24863052368,-0.917568802834,0.0,1.38561701775,-0.807533919811,0.0,1.45264983177,-0.281790047884,0.0,2.31566333771,-0.391824960709,0.0
1449616905436472556,119,1449616905435649070,odom,2.43525385857,-0.684536874294,0.0,2.24782824516,-0.924529731274,0.0,1.38733291626,-0.796280026436,0.0,1.46546208858,-0.272070288658,0.0,2.32595729828,-0.400320023298,0.0
1449616905583919471,120,1449616905582977261,odom,2.43732333183,-0.690004706383,0.0,2.247371912,-0.928003430367,0.0,1.38828003407,-0.790667295456,0.0,1.47194457054,-0.267312496901,0.0,2.33103632927,-0.404648661613,0.0
1449616905759555263,121,1449616905751281757,odom,2.44502687454,-0.696373164654,0.0,2.25257086754,-0.932351231575,0.0,1.39497828484,-0.785943984985,0.0,1.48416888714,-0.263502597809,0.0,2.34176135063,-0.409909844398,0.0
1449616905937836150,122,1449616905937666984,odom,2.45455288887,-0.708383381367,0.0,2.25715231895,-0.940241277218,0.0,1.40284574032,-0.775741934776,0.0,1.5030579567,-0.255302220583,0.0,2.35736465454,-0.419801563025,0.0
1449616906157072255,123,1449616906156881275,odom,2.46944236755,-0.721860229969,0.0,2.26718568802,-0.949494421482,0.0,1.41654658318,-0.766976416111,0.0,1.52773559093,-0.24877089262,0.0,2.37837481499,-0.431288868189,0.0
1449616906414821994,124,1449616906402983652,odom,2.48239088058,-0.730013370514,0.0,2.27774000168,-0.955497384071,0.0,1.42907714844,-0.764000177383,0.0,1.54573631287,-0.246998593211,0.0,2.39439916611,-0.438495784998,0.0
1449616906565067287,125,1449616906555838727,odom,2.50396180153,-0.751040220261,0.0,2.29226636887,-0.969923734665,0.0,1.45010006428,-0.751621127129,0.0,1.58308899403,-0.238577365875,0.0,2.42525529861,-0.456879973412,0.0
1449616906754438705,126,1449616906753099866,odom,2.52910256386,-0.768382787704,0.0,2.31282830238,-0.982743322849,0.0,1.47546386719,-0.746690690517,0.0,1.61926603317,-0.236572146416,0.0,2.45663046837,-0.472624748945,0.0
1449616906973774656,127,1449616906970617393,odom,2.5636408329,-0.783737182617,0.0,2.34511327744,-0.995800197124,0.0,1.51029026508,-0.750911593437,0.0,1.65947520733,-0.24234123528,0.0,2.49429821968,-0.487229824066,0.0
1449616907141441472,128,1449616907141170292,odom,2.60583686829,-0.812923073769,0.0,2.38069701195,-1.01795244217,0.0,1.55405628681,-0.746724009514,0.0,1.71928739548,-0.243138179183,0.0,2.54592823982,-0.51436662674,0.0
1449616907350576455,129,1449616907349810408,odom,2.64518737793,-0.831461191177,0.0,2.41789340973,-1.03409981728,0.0,1.59416496754,-0.754150748253,0.0,1.7647087574,-0.252339214087,0.0,2.58843708038,-0.532288312912,0.0
1449616907554332440,130,1449616907553899067,odom,2.67441153526,-0.852525472641,0.0,2.44288563728,-1.05031514168,0.0,1.62525773048,-0.753019452095,0.0,1.80636894703,-0.254924327135,0.0,2.62399673462,-0.55222004652,0.0
1449616907752187934,131,1449616907750609737,odom,2.71674704552,-0.862424314022,0.0,2.48732423782,-1.06264972687,0.0,1.66660034657,-0.774011194706,0.0,1.84243750572,-0.274029940367,0.0,2.66316151619,-0.562668442726,0.0
1449616907917551911,132,1449616907915328612,odom,2.76012158394,-0.877969026566,0.0,2.53069901466,-1.07819437981,0.0,1.7099750042,-0.789555847645,0.0,1.88581228256,-0.289574623108,0.0,2.70653629303,-0.57821315527,0.0
1449616908124672965,133,1449616908124469672,odom,2.81141924858,-0.87891304493,0.0,2.58845877647,-1.08631014824,0.0,1.75899767876,-0.82383275032,0.0,1.91889774799,-0.318528920412,0.0,2.7483587265,-0.581006407738,0.0
1449616908351876479,134,1449616908351352054,odom,2.86949515343,-0.885916292667,0.0,2.65096759796,-1.09797930717,0.0,1.81614470482,-0.853090703487,0.0,1.96532964706,-0.344520330429,0.0,2.80015277863,-0.589408934116,0.0
1449616908517818861,135,1449616908517369241,odom,2.92636203766,-0.885536015034,0.0,2.71466636658,-1.10441946983,0.0,1.8725001812,-0.886116921902,0.0,2.00548911095,-0.373073130846,0.0,2.84765529633,-0.59137570858,0.0
1449616908737418195,136,1449616908736665652,odom,2.99113631248,-0.873811304569,0.0,2.7912967205,-1.10357010365,0.0,1.93877613544,-0.930051803589,0.0,2.04448270798,-0.410700172186,0.0,2.89700317383,-0.584218502045,0.0
1449616908913422060,137,1449616908913081261,odom,3.05305337906,-0.853325366974,0.0,2.86817407608,-1.09528553486,0.0,2.00637173653,-0.976136505604,0.0,2.07895684242,-0.451130390167,0.0,2.94075918198,-0.570279359818,0.0
1449616909121836824,138,1449616909119877382,odom,3.11599445343,-0.834499597549,0.0,2.94415259361,-1.08588647842,0.0,2.0772600174,-1.01242053509,0.0,2.12201523781,-0.484313547611,0.0,2.98890781403,-0.557779550552,0.0
1449616909314191730,139,1449616909307431935,odom,3.17785453796,-0.812345385551,0.0,3.01952981949,-1.07245743275,0.0,2.14996695518,-1.04487943649,0.0,2.16676735878,-0.515145778656,0.0,3.03633022308,-0.54272377491,0.0
1449616909522781295,140,1449616909522303749,odom,3.23544287682,-0.781458079815,0.0,3.09391856194,-1.05107975006,0.0,2.22435569763,-1.07865774632,0.0,2.20755529404,-0.548924088478,0.0,3.07711815834,-0.521346092224,0.0
1449616909714185981,141,1449616909713881293,odom,3.28857755661,-0.752795279026,0.0,3.16149067879,-1.02951526642,0.0,2.29459834099,-1.10298132896,0.0,2.24984312057,-0.574874401093,0.0,3.11673569679,-0.501408338547,0.0
1449616909938282120,142,1449616909936550341,odom,3.34219288826,-0.715467810631,0.0,3.23289608955,-0.999684691429,0.0,2.37240099907,-1.12793445587,0.0,2.29427170753,-0.603724658489,0.0,3.15476703644,-0.475474953651,0.0
1449616910121642892,143,1449616910120339809,odom,3.38028001785,-0.682713866234,0.0,3.2861468792,-0.972306609154,0.0,2.43362641335,-1.14582502842,0.0,2.3279197216,-0.626473367214,0.0,3.18044042587,-0.452955007553,0.0
1449616910341001803,144,1449616910335436407,odom,3.41385340691,-0.637876272202,0.0,3.34138131142,-0.933634281158,0.0,2.50401711464,-1.16968691349,0.0,2.36021494865,-0.659568369389,0.0,3.19757914543,-0.423515707254,0.0
1449616910515793313,145,1449616910515391475,odom,3.44751834869,-0.600655674934,0.0,3.39076805115,-0.8998285532,0.0,2.56703972816,-1.17977762222,0.0,2.39649605751,-0.677966117859,0.0,3.22022438049,-0.398017019033,0.0
1449616910741617458,146,1449616910740425443,odom,3.47298574448,-0.56958013773,0.0,3.4289290905,-0.87088394165,0.0,2.61776709557,-1.18539345264,0.0,2.42616939545,-0.691237270832,0.0,3.23733139038,-0.376727819443,0.0
1449616910927916405,147,1449616910925729131,odom,3.4923157692,-0.533720195293,0.0,3.46423411369,-0.836930394173,0.0,2.67081546783,-1.19384288788,0.0,2.45338582993,-0.710495829582,0.0,3.2468047142,-0.353583306074,0.0
1449616911120521836,148,1449616911110648093,odom,3.50929760933,-0.508896589279,0.0,3.4908413887,-0.812844574451,0.0,2.70913505554,-1.19472825527,0.0,2.47649335861,-0.718516290188,0.0,3.25819969177,-0.33663263917,0.0
1449616911325689080,149,1449616911324181371,odom,3.52529907227,-0.48941642046,0.0,3.51327085495,-0.793686568737,0.0,2.73981022835,-1.19200587273,0.0,2.49715590477,-0.720817089081,0.0,3.27061653137,-0.322497785091,0.0
1449616911514194370,150,1449616911513477248,odom,3.54592037201,-0.466804176569,0.0,3.54032540321,-0.771260559559,0.0,2.77545571327,-1.18583762646,0.0,2.5228972435,-0.719882488251,0.0,3.28776693344,-0.305305421352,0.0
1449616911712526332,151,1449616911712137141,odom,3.57125616074,-0.447128713131,0.0,3.5688791275,-0.751627266407,0.0,2.80843305588,-1.17426419258,0.0,2.55096459389,-0.711004078388,0.0,3.31141042709,-0.288367092609,0.0
1449616911932799444,152,1449616911919247146,odom,3.60654020309,-0.427623122931,0.0,3.60416316986,-0.732121646404,0.0,2.84371733665,-1.15475857258,0.0,2.58624887466,-0.691498458385,0.0,3.34669470787,-0.268861502409,0.0
1449616912113711401,153,1449616912111583091,odom,3.65198397636,-0.414773434401,0.0,3.64317202568,-0.719153702259,0.0,2.87396383286,-1.12562465668,0.0,2.62634348869,-0.657026469707,0.0,3.39555191994,-0.250555574894,0.0
1449616912342887781,154,1449616912338383856,odom,3.7025821209,-0.406277805567,0.0,3.68412590027,-0.710225760937,0.0,2.90241956711,-1.09210944176,0.0,2.66977787018,-0.615897476673,0.0,3.45148420334,-0.234013840556,0.0
1449616912520163471,155,1449616912516385492,odom,3.76293992996,-0.406767249107,0.0,3.72845625877,-0.709316253662,0.0,2.92767167091,-1.04938054085,0.0,2.72050595284,-0.56154614687,0.0,3.52129077911,-0.221481829882,0.0
1449616912722523407,156,1449616912722159361,odom,3.81858587265,-0.406331300735,0.0,3.77134752274,-0.707152724266,0.0,2.95690727234,-1.01307237148,0.0,2.77054238319,-0.516919076443,0.0,3.58498263359,-0.210999414325,0.0
1449616912971277482,157,1449616912963506688,odom,3.8798058033,-0.406824469566,0.0,3.81989693642,-0.705380916595,0.0,2.99325609207,-0.976609349251,0.0,2.82802510262,-0.473023533821,0.0,3.65466594696,-0.201795101166,0.0
1449616913131975068,158,1449616913122321962,odom,3.93126988411,-0.407489269972,0.0,3.86192750931,-0.703996658325,0.0,3.02710437775,-0.948885202408,0.0,2.8779194355,-0.440314859152,0.0,3.71274256706,-0.195426270366,0.0
1449616913314152598,159,1449616913313912438,odom,3.98669075966,-0.413861840963,0.0,3.90487980843,-0.70717394352,0.0,3.06045365334,-0.916564464569,0.0,2.93289399147,-0.402143895626,0.0,3.77732014656,-0.192753374577,0.0
1449616913556237012,160,1449616913551250217,odom,4.03951787949,-0.411998063326,0.0,3.95152616501,-0.703515589237,0.0,3.10286331177,-0.895012795925,0.0,2.98620390892,-0.378011256456,0.0,3.83486700058,-0.186514049768,0.0
1449616913722782772,161,1449616913722119921,odom,4.09237241745,-0.411251187325,0.0,3.99823951721,-0.700843989849,0.0,3.14571881294,-0.874362289906,0.0,3.04001235962,-0.355010688305,0.0,3.89253282547,-0.181492343545,0.0
1449616913915239934,162,1449616913914956798,odom,4.14518499374,-0.411382466555,0.0,4.04495286942,-0.698921084404,0.0,3.18895530701,-0.854383051395,0.0,3.09424853325,-0.332913398743,0.0,3.95024585724,-0.17745141685,0.0
1449616914142373929,163,1449616914141990618,odom,4.19800281525,-0.412750005722,0.0,4.09171581268,-0.698106050491,0.0,3.23262405396,-0.835442185402,0.0,3.14895963669,-0.312087416649,0.0,4.00805139542,-0.174751251936,0.0
1449616914313095335,164,1449616914310758135,odom,4.2357916832,-0.412154197693,0.0,4.12649488449,-0.696371078491,0.0,3.26599979401,-0.824620783329,0.0,3.18787050247,-0.300411105156,0.0,4.04836559296,-0.172161370516,0.0
1449616914549810510,165,1449616914549096140,odom,4.27715015411,-0.416923552752,0.0,4.16187143326,-0.698767006397,0.0,3.2988576889,-0.808801949024,0.0,3.2318251133,-0.283058106899,0.0,4.09483861923,-0.173023164272,0.0
1449616914709823218,166,1449616914709317230,odom,4.31491279602,-0.417314440012,0.0,4.19666194916,-0.697923898697,0.0,3.33253383636,-0.798832535744,0.0,3.27106070518,-0.272409617901,0.0,4.1351890564,-0.171501040459,0.0
1449616914918741717,167,1449616914918380011,odom,4.35493946075,-0.412487149239,0.0,4.23668861389,-0.693096637726,0.0,3.37256026268,-0.794005215168,0.0,3.31108736992,-0.267582327127,0.0,4.17521524429,-0.166673734784,0.0
1449616915113781199,168,1449616915113425572,odom,4.4007153511,-0.407233595848,0.0,4.28246450424,-0.687843084335,0.0,3.41833615303,-0.788751661777,0.0,3.35686302185,-0.262328773737,0.0,4.22099113464,-0.161420181394,0.0
1449616915315666634,169,1449616915314782541,odom,4.44188690186,-0.413160175085,0.0,4.3177318573,-0.691207766533,0.0,3.45166397095,-0.773830890656,0.0,3.40133023262,-0.246226385236,0.0,4.26739788055,-0.163603276014,0.0
1449616915528997842,170,1449616915526077966,odom,4.48200321198,-0.409149587154,0.0,4.35784816742,-0.687197208405,0.0,3.49178051949,-0.769820332527,0.0,3.44144678116,-0.242215827107,0.0,4.30751466751,-0.159592717886,0.0
1449616915720191938,171,1449616915719813099,odom,4.51641273499,-0.405958622694,0.0,4.39225769043,-0.684006273746,0.0,3.5261900425,-0.766629397869,0.0,3.47585630417,-0.239024862647,0.0,4.34192419052,-0.156401753426,0.0
1449616915936263451,172,1449616915936064222,odom,4.54842185974,-0.408214598894,0.0,4.42133522034,-0.684934616089,0.0,3.5544424057,-0.758400678635,0.0,3.50968718529,-0.230293691158,0.0,4.37657976151,-0.156827673316,0.0
1449616916127411699,173,1449616916127218980,odom,4.58285570145,-0.405296444893,0.0,4.45576906204,-0.68201649189,0.0,3.58887648582,-0.755482494831,0.0,3.54412150383,-0.227375537157,0.0,4.41101408005,-0.153909504414,0.0
1449616916326551929,174,1449616916325908108,odom,4.61484861374,-0.408011883497,0.0,4.4848446846,-0.683373451233,0.0,3.61722397804,-0.747674167156,0.0,3.57805228233,-0.219123721123,0.0,4.44567298889,-0.154822990298,0.0
1449616916545736013,175,1449616916545196192,odom,4.63783025742,-0.406400233507,0.0,4.50782632828,-0.681761801243,0.0,3.64020562172,-0.746062517166,0.0,3.60103392601,-0.217512071133,0.0,4.46865463257,-0.153211340308,0.0
1449616916721553657,176,1449616916721361815,odom,4.66146278381,-0.415034800768,0.0,4.52566814423,-0.6875872612,0.0,3.65688228607,-0.73353689909,0.0,3.62889003754,-0.204276636243,0.0,4.49767589569,-0.158327013254,0.0
1449616916940358097,177,1449616916938469791,odom,4.6812877655,-0.40872374177,0.0,4.54838085175,-0.682696044445,0.0,3.68012952805,-0.737824320793,0.0,3.64654564857,-0.208889424801,0.0,4.51479721069,-0.153761163354,0.0
1449616917122507198,178,1449616917122207107,odom,4.70171117783,-0.412692755461,0.0,4.56591653824,-0.685245215893,0.0,3.6971309185,-0.731194853783,0.0,3.66913866997,-0.201934576035,0.0,4.5379242897,-0.155984967947,0.0
1449616917340561711,179,1449616917340243129,odom,4.71896409988,-0.411749780178,0.0,4.5831694603,-0.684302270412,0.0,3.71438384056,-0.730251848698,0.0,3.68639135361,-0.200991615653,0.0,4.55517721176,-0.155041992664,0.0
1449616917528409890,180,1449616917528048462,odom,4.73622131348,-0.4108979702,0.0,4.60042715073,-0.683450460434,0.0,3.73164129257,-0.729400098324,0.0,3.70364904404,-0.200139820576,0.0,4.57243442535,-0.154190197587,0.0
1449616917749374820,181,1449616917748172065,odom,4.75659894943,-0.415021806955,0.0,4.61793136597,-0.686123967171,0.0,3.74870872498,-0.722889840603,0.0,3.72631120682,-0.193363323808,0.0,4.59553384781,-0.156597480178,0.0
1449616917998587424,182,1449616917998240955,odom,4.77386331558,-0.414322018623,0.0,4.63519620895,-0.685424208641,0.0,3.76597332954,-0.722190082073,0.0,3.74357557297,-0.192663550377,0.0,4.61279821396,-0.155897691846,0.0
1449616918137935276,183,1449616918137666271,odom,4.79112768173,-0.413622230291,0.0,4.6524605751,-0.684724450111,0.0,3.78323769569,-0.721490263939,0.0,3.76084017754,-0.191963762045,0.0,4.63006305695,-0.155197918415,0.0
1449616918314252405,184,1449616918313778886,odom,4.80570602417,-0.418204545975,0.0,4.66418123245,-0.687826216221,0.0,3.79461860657,-0.715404212475,0.0,3.77781820297,-0.185670554638,0.0,4.64738130569,-0.158092558384,0.0
1449616918537838073,185,1449616918530813330,odom,4.82598924637,-0.422666847706,0.0,4.68162345886,-0.69077783823,0.0,3.81181764603,-0.709164857864,0.0,3.80061626434,-0.179283261299,0.0,4.67042207718,-0.160896226764,0.0
1449616918739182747,186,1449616918738683886,odom,4.84326076508,-0.422179967165,0.0,4.69889497757,-0.690290987492,0.0,3.82908940315,-0.708678007126,0.0,3.81788802147,-0.178796380758,0.0,4.68769359589,-0.160409346223,0.0
1449616918943601281,187,1449616918943086445,odom,4.86053466797,-0.421784371138,0.0,4.71616888046,-0.68989533186,0.0,3.84636330605,-0.708282411098,0.0,3.83516216278,-0.178400784731,0.0,4.70496797562,-0.160013750196,0.0
1449616919158167614,188,1449616919157434760,odom,4.87780952454,-0.421419203281,0.0,4.73344373703,-0.689530193806,0.0,3.86363792419,-0.70791721344,0.0,3.85243678093,-0.178035616875,0.0,4.72224235535,-0.159648582339,0.0
1449616919335816620,189,1449616919335429204,odom,4.8922867775,-0.426247745752,0.0,4.74509525299,-0.692818105221,0.0,3.87514400482,-0.702012181282,0.0,3.86954307556,-0.172041758895,0.0,4.73949432373,-0.162847727537,0.0
1449616919539809575,190,1449616919536846583,odom,4.90380477905,-0.426095604897,0.0,4.75661373138,-0.692665994167,0.0,3.88666200638,-0.701860010624,0.0,3.88106107712,-0.171889603138,0.0,4.75101232529,-0.16269557178,0.0
1449616919746736438,191,1449616919746433613,odom,4.92108249664,-0.425913006067,0.0,4.77389144897,-0.692483365536,0.0,3.90393996239,-0.701677381992,0.0,3.89833903313,-0.171707004309,0.0,4.76829051971,-0.162512972951,0.0
1449616919937396271,192,1449616919936774116,odom,4.93550777435,-0.430863827467,0.0,4.78550767899,-0.695863842964,0.0,3.91550755501,-0.695863842964,0.0,3.91550755501,-0.165863826871,0.0,4.78550767899,-0.165863826871,0.0
1449616920136941668,193,1449616920136500389,odom,4.94987916946,-0.425699949265,0.0,4.8026881218,-0.692270338535,0.0,3.93273663521,-0.701464354992,0.0,3.92713570595,-0.171493977308,0.0,4.79708719254,-0.162299945951,0.0
1449616920337059146,194,1449616920335893781,odom,4.96430492401,-0.430711656809,0.0,4.81430482864,-0.695711672306,0.0,3.94430470467,-0.695711672306,0.0,3.94430470467,-0.165711671114,0.0,4.81430482864,-0.165711671114,0.0
1449616920545632154,195,1449616920542006505,odom,4.98158359528,-0.430711656809,0.0,4.83158349991,-0.695711672306,0.0,3.96158337593,-0.695711672306,0.0,3.96158337593,-0.165711671114,0.0,4.83158349991,-0.165711671114,0.0
1449616920721319330,196,1449616920721003343,odom,4.99595499039,-0.435875535011,0.0,4.84316301346,-0.699275553226,0.0,3.97321152687,-0.69008153677,0.0,3.97881269455,-0.160111129284,0.0,4.84876394272,-0.169305160642,0.0
1449616920960896820,197,1449616920960023561,odom,5.01323318481,-0.435997247696,0.0,4.86044120789,-0.699397265911,0.0,3.9904897213,-0.690203249454,0.0,3.99609065056,-0.16023285687,0.0,4.86604213715,-0.169426888227,0.0
1449616921140998251,198,1449616921140329408,odom,5.0305109024,-0.436179876328,0.0,4.87771892548,-0.699579894543,0.0,4.00776767731,-0.690385878086,0.0,4.01336860657,-0.160415455699,0.0,4.88331985474,-0.169609487057,0.0
1449616921324321257,199,1449616921324009659,odom,5.05058717728,-0.441525757313,0.0,4.89502000809,-0.703296363354,0.0,4.02521419525,-0.684909343719,0.0,4.03641557693,-0.155027732253,0.0,4.90622138977,-0.173414766788,0.0
1449616921558035821,200,1449616921557772967,odom,5.06786251068,-0.441860496998,0.0,4.91229534149,-0.703631103039,0.0,4.04248952866,-0.685244083405,0.0,4.05369091034,-0.155362486839,0.0,4.92349672318,-0.173749521375,0.0
1449616921740237125,201,1449616921740083979,odom,5.08513689041,-0.442225664854,0.0,4.92956972122,-0.703996300697,0.0,4.05976438522,-0.685609281063,0.0,4.07096576691,-0.155727654696,0.0,4.94077110291,-0.174114689231,0.0
1449616921984897146,202,1449616921975615274,odom,5.09939622879,-0.447692126036,0.0,4.94107151031,-0.707804143429,0.0,4.07150888443,-0.680226147175,0.0,4.08830928802,-0.150492489338,0.0,4.95787191391,-0.178070485592,0.0
1449616922173502197,203,1449616922173219907,odom,5.11392450333,-0.442986428738,0.0,4.95835733414,-0.704757034779,0.0,4.0885515213,-0.686370015144,0.0,4.09975290298,-0.156488403678,0.0,4.96955871582,-0.174875438213,0.0
1449616922332732639,204,1449616922332330338,odom,5.12543964386,-0.443290710449,0.0,4.96987247467,-0.705061376095,0.0,4.10006666183,-0.686674296856,0.0,4.11126804352,-0.156792700291,0.0,4.98107385635,-0.175179734826,0.0
1449616922541451772,205,1449616922538782982,odom,5.14271259308,-0.443716734648,0.0,4.98714590073,-0.705487370491,0.0,4.11734008789,-0.687100350857,0.0,4.12854146957,-0.157218724489,0.0,4.99834680557,-0.175605759025,0.0
1449616922754959627,206,1449616922754548401,odom,5.15422773361,-0.444021046162,0.0,4.99866056442,-0.705791652203,0.0,4.12885522842,-0.687404632568,0.0,4.14005613327,-0.157523021102,0.0,5.00986194611,-0.175910055637,0.0
1449616922948014217,207,1449616922947133169,odom,5.16574287415,-0.444325327873,0.0,5.01017570496,-0.706095993519,0.0,4.14036989212,-0.68770891428,0.0,4.1515712738,-0.157827317715,0.0,5.02137708664,-0.17621435225,0.0
1449616923132215375,208,1449616923131064027,odom,5.17725801468,-0.444629639387,0.0,5.02169084549,-0.70640027523,0.0,4.15188503265,-0.688013255596,0.0,4.16308641434,-0.158131614327,0.0,5.03289175034,-0.176518663764,0.0
1449616923374465655,209,1449616923374265188,odom,5.18576049805,-0.449913531542,0.0,5.02743577957,-0.710025548935,0.0,4.15787267685,-0.682447552681,0.0,4.17467308044,-0.152713894844,0.0,5.04423618317,-0.180291876197,0.0
1449616923527020536,210,1449616923526125197,odom,5.19453191757,-0.445025235415,0.0,5.03896474838,-0.706795871258,0.0,4.16915893555,-0.688408851624,0.0,4.18036031723,-0.158527225256,0.0,5.05016613007,-0.176914259791,0.0
1449616923733363335,211,1449616923733118817,odom,5.20303440094,-0.450309127569,0.0,5.04470968246,-0.710421144962,0.0,4.17514705658,-0.682843148708,0.0,4.19194746017,-0.153109490871,0.0,5.06151008606,-0.180687472224,0.0
1449616923955993674,212,1449616923955591780,odom,5.20604753494,-0.445299118757,0.0,5.05048036575,-0.707069754601,0.0,4.18067502975,-0.688682734966,0.0,4.19187641144,-0.158801093698,0.0,5.06168174744,-0.177188128233,0.0
1449616924157938339,213,1449616924157054334,odom,5.20604753494,-0.445299118757,0.0,5.05048036575,-0.707069754601,0.0,4.18067502975,-0.688682734966,0.0,4.19187641144,-0.158801093698,0.0,5.06168174744,-0.177188128233,0.0
1449616924341774062,214,1449616924340747346,odom,5.20604753494,-0.445299118757,0.0,5.05048036575,-0.707069754601,0.0,4.18067502975,-0.688682734966,0.0,4.19187641144,-0.158801093698,0.0,5.06168174744,-0.177188128233,0.0
1449616924578460974,215,1449616924578130815,odom,5.20604753494,-0.445299118757,0.0,5.05048036575,-0.707069754601,0.0,4.18067502975,-0.688682734966,0.0,4.19187641144,-0.158801093698,0.0,5.06168174744,-0.177188128233,0.0
1449616924721581608,216,1449616924721169920,odom,5.20604753494,-0.445299118757,0.0,5.05048036575,-0.707069754601,0.0,4.18067502975,-0.688682734966,0.0,4.19187641144,-0.158801093698,0.0,5.06168174744,-0.177188128233,0.0
1449616924974472106,217,1449616924973874302,odom,5.20604753494,-0.445299118757,0.0,5.05048036575,-0.707069754601,0.0,4.18067502975,-0.688682734966,0.0,4.19187641144,-0.158801093698,0.0,5.06168174744,-0.177188128233,0.0
1449616925139889629,218,1449616925137545836,odom,5.20604753494,-0.445299118757,0.0,5.05048036575,-0.707069754601,0.0,4.18067502975,-0.688682734966,0.0,4.19187641144,-0.158801093698,0.0,5.06168174744,-0.177188128233,0.0
1449616925333927430,219,1449616925333428117,odom,5.20604753494,-0.445299118757,0.0,5.05048036575,-0.707069754601,0.0,4.18067502975,-0.688682734966,0.0,4.19187641144,-0.158801093698,0.0,5.06168174744,-0.177188128233,0.0
1449616925563085537,220,1449616925562683714,odom,5.20604753494,-0.445299118757,0.0,5.05048036575,-0.707069754601,0.0,4.18067502975,-0.688682734966,0.0,4.19187641144,-0.158801093698,0.0,5.06168174744,-0.177188128233,0.0
1449616925843570800,221,1449616925839705960,odom,5.20604753494,-0.445299118757,0.0,5.05048036575,-0.707069754601,0.0,4.18067502975,-0.688682734966,0.0,4.19187641144,-0.158801093698,0.0,5.06168174744,-0.177188128233,0.0
1449616925992728754,222,1449616925991261635,odom,5.20604753494,-0.445299118757,0.0,5.05048036575,-0.707069754601,0.0,4.18067502975,-0.688682734966,0.0,4.19187641144,-0.158801093698,0.0,5.06168174744,-0.177188128233,0.0
1449616926166083588,223,1449616926157784004,odom,5.20604753494,-0.445299118757,0.0,5.05048036575,-0.707069754601,0.0,4.18067502975,-0.688682734966,0.0,4.19187641144,-0.158801093698,0.0,5.06168174744,-0.177188128233,0.0
1449616926349898321,224,1449616926339685427,odom,5.20604753494,-0.445299118757,0.0,5.05048036575,-0.707069754601,0.0,4.18067502975,-0.688682734966,0.0,4.19187641144,-0.158801093698,0.0,5.06168174744,-0.177188128233,0.0
1449616926574135307,225,1449616926571920123,odom,5.20879220963,-0.450461268425,0.0,5.05046701431,-0.710573256016,0.0,4.18090438843,-0.682995259762,0.0,4.19770479202,-0.153261631727,0.0,5.06726741791,-0.180839627981,0.0
1449616926797182024,226,1449616926796741656,odom,5.21180534363,-0.445451259613,0.0,5.05623817444,-0.707221865654,0.0,4.1864323616,-0.68883484602,0.0,4.19763374329,-0.158953249454,0.0,5.06743955612,-0.17734028399,0.0
1449616926989309381,227,1449616926989124241,odom,5.21756267548,-0.445603400469,0.0,5.06199550629,-0.707374036312,0.0,4.19218969345,-0.688987016678,0.0,4.20339107513,-0.15910539031,0.0,5.07319688797,-0.177492424846,0.0
1449616927174470160,228,1449616927161762005,odom,5.22030687332,-0.450765579939,0.0,5.06198215485,-0.710877597332,0.0,4.19241952896,-0.683299601078,0.0,4.20921993256,-0.153565943241,0.0,5.07878255844,-0.181143924594,0.0
1449616927365481434,229,1449616927365173262,odom,5.22332000732,-0.445755571127,0.0,5.06775283813,-0.70752620697,0.0,4.19794750214,-0.689139127731,0.0,4.20914888382,-0.159257546067,0.0,5.07895421982,-0.177644580603,0.0
1449616927556598800,230,1449616927551994074,odom,5.22606468201,-0.450917720795,0.0,5.06773948669,-0.711029708385,0.0,4.19817686081,-0.683451712132,0.0,4.2149772644,-0.153718084097,0.0,5.08453989029,-0.18129606545,0.0
1449616927788734089,231,1449616927787641488,odom,5.22907781601,-0.445907711983,0.0,5.07351064682,-0.707678318024,0.0,4.20370483398,-0.689291298389,0.0,4.21490621567,-0.159409701824,0.0,5.0847120285,-0.17779673636,0.0
1449616928071079420,232,1449616928055293322,odom,5.23182201385,-0.45106986165,0.0,5.07349729538,-0.711181879044,0.0,4.20393466949,-0.68360388279,0.0,4.22073459625,-0.153870239854,0.0,5.09029769897,-0.181448221207,0.0
1449616928261730857,233,1449616928257285155,odom,5.23483514786,-0.446059852839,0.0,5.07926797867,-0.707830488682,0.0,4.20946216583,-0.689443469048,0.0,4.22066354752,-0.15956184268,0.0,5.09046936035,-0.177948877215,0.0
1449616928444779312,234,1449616928442250583,odom,5.23483514786,-0.446059852839,0.0,5.07926797867,-0.707830488682,0.0,4.20946216583,-0.689443469048,0.0,4.22066354752,-0.15956184268,0.0,5.09046936035,-0.177948877215,0.0
1449616928582081759,235,1449616928581800307,odom,5.2375793457,-0.451222032309,0.0,5.07925462723,-0.711333990097,0.0,4.20969200134,-0.683756053448,0.0,4.22649240494,-0.15402238071,0.0,5.09605503082,-0.181600362062,0.0
1449616928764195660,236,1449616928762829677,odom,5.2375793457,-0.451222032309,0.0,5.07925462723,-0.711333990097,0.0,4.20969200134,-0.683756053448,0.0,4.22649240494,-0.15402238071,0.0,5.09605503082,-0.181600362062,0.0
1449616928992069439,237,1449616928990885467,odom,5.24059247971,-0.446212023497,0.0,5.08502531052,-0.70798265934,0.0,4.21521997452,-0.689595580101,0.0,4.2264213562,-0.159713998437,0.0,5.0962266922,-0.178101032972,0.0
1449616929150044423,238,1449616929147810158,odom,5.24635124207,-0.44630330801,0.0,5.09078407288,-0.708073914051,0.0,4.22097873688,-0.689686894417,0.0,4.23218011856,-0.15980528295,0.0,5.10198545456,-0.178192317486,0.0
1449616929367681528,239,1449616929366631370,odom,5.2550702095,-0.441353023052,0.0,5.10227823257,-0.704753041267,0.0,4.23232698441,-0.695559024811,0.0,4.23792791367,-0.165588632226,0.0,5.10787916183,-0.174782663584,0.0
1449616929561785187,240,1449616929561462530,odom,5.27234792709,-0.441535621881,0.0,5.11955595016,-0.704935669899,0.0,4.249604702,-0.695741593838,0.0,4.25520563126,-0.165771231055,0.0,5.12515687943,-0.174965262413,0.0
1449616929812241230,241,1449616929811255010,odom,5.29253339767,-0.436493486166,0.0,5.14253330231,-0.701493501663,0.0,4.27253341675,-0.701493501663,0.0,4.27253341675,-0.171493500471,0.0,5.14253330231,-0.171493500471,0.0
1449616930104256327,242,1449616930091655031,odom,5.31842374802,-0.431268751621,0.0,5.17123270035,-0.697839140892,0.0,4.30128145218,-0.707033157349,0.0,4.29568052292,-0.177062779665,0.0,5.16563177109,-0.167868748307,0.0
1449616930240986204,243,1449616930226976700,odom,5.35275745392,-0.420395582914,0.0,5.2112326622,-0.690017223358,0.0,4.34167003632,-0.717595219612,0.0,4.32486963272,-0.187861561775,0.0,5.19443225861,-0.160283580422,0.0
1449616930378738608,244,1449616930377809545,odom,5.37846899033,-0.41435277462,0.0,5.2398018837,-0.685454964638,0.0,4.37057924271,-0.72222083807,0.0,4.34818172455,-0.192694306374,0.0,5.21740436554,-0.155928447843,0.0
1449616930598386503,245,1449616930597854589,odom,5.40411281586,-0.40797778964,0.0,5.26831817627,-0.680530250072,0.0,4.39953279495,-0.726479887962,0.0,4.37154054642,-0.197219610214,0.0,5.24032592773,-0.151270002127,0.0
1449616930810030602,246,1449616930805374032,odom,5.43221139908,-0.396058619022,0.0,5.30220746994,-0.671420156956,0.0,4.4345870018,-0.735720932484,0.0,4.39541530609,-0.207170471549,0.0,5.26303577423,-0.142869740725,0.0
1449616931029539579,247,1449616931026029835,odom,5.45764970779,-0.388995319605,0.0,5.33056306839,-0.6657153368,0.0,4.46367073059,-0.739181399345,0.0,4.4189157486,-0.211074411869,0.0,5.2858080864,-0.137608394027,0.0
1449616931131979841,248,1449616931131804553,odom,5.48300695419,-0.381602942944,0.0,5.3588514328,-0.659650564194,0.0,4.49278402328,-0.742273688316,0.0,4.44245004654,-0.214669167995,0.0,5.30851793289,-0.132046058774,0.0
1449616931400641955,249,1449616931400421056,odom,5.5048365593,-0.368993490934,0.0,5.3865852356,-0.649602949619,0.0,4.5224571228,-0.750511586666,0.0,4.46098423004,-0.224088683724,0.0,5.32511234283,-0.123180091381,0.0
1449616931558651765,250,1449616931558428403,odom,5.52423620224,-0.361559778452,0.0,5.40895700455,-0.643403232098,0.0,4.54594373703,-0.753438174725,0.0,4.478910923,-0.227694317698,0.0,5.34192419052,-0.117659382522,0.0
1449616931778335111,251,1449616931778140992,odom,5.53783941269,-0.354619681835,0.0,5.42554521561,-0.637665629387,0.0,4.56374263763,-0.756814658642,0.0,4.49115753174,-0.231808543205,0.0,5.35296010971,-0.112659558654,0.0
1449616931985795221,252,1449616931985658483,odom,5.55136394501,-0.3475061059,0.0,5.4420671463,-0.631722986698,0.0,4.58157205582,-0.759972691536,0.0,4.50344324112,-0.235762998462,0.0,5.3639383316,-0.107513263822,0.0
1449616932173999251,253,1449616932165541208,odom,5.55136394501,-0.3475061059,0.0,5.4420671463,-0.631722986698,0.0,4.58157205582,-0.759972691536,0.0,4.50344324112,-0.235762998462,0.0,5.3639383316,-0.107513263822,0.0
1449616932367663581,254,1449616932367358181,odom,5.55343341827,-0.342038303614,0.0,5.44714641571,-0.627394318581,0.0,4.58805465698,-0.764730513096,0.0,4.50439023972,-0.24137571454,0.0,5.36348199844,-0.104039557278,0.0
1449616932618257629,255,1449616932614891359,odom,5.55172109604,-0.332007884979,0.0,5.45148849487,-0.619546532631,0.0,4.59549093246,-0.775008499622,0.0,4.50078439713,-0.253538817167,0.0,5.35678195953,-0.0980768278241,0.0
1449616932782657876,256,1449616932779981052,odom,5.55158615112,-0.316506117582,0.0,5.46051883698,-0.607077538967,0.0,4.60987949371,-0.789595484734,0.0,4.49869060516,-0.271389961243,0.0,5.34932994843,-0.0888719856739,0.0
1449616932970814080,257,1449616932969299349,odom,5.55096054077,-0.301016449928,0.0,5.46914958954,-0.594328522682,0.0,4.62472343445,-0.803719043732,0.0,4.49716377258,-0.289298504591,0.0,5.34158992767,-0.0799079835415,0.0
1449616933258367722,258,1449616933257227777,odom,5.55120515823,-0.279868751764,0.0,5.48186254501,-0.576376140118,0.0,4.64703941345,-0.8212646842,0.0,4.49785470963,-0.312694311142,0.0,5.33267736435,-0.0678057447076,0.0
1449616933385527834,259,1449616933385256229,odom,5.54506540298,-0.260467082262,0.0,5.48831510544,-0.559639930725,0.0,4.66458654404,-0.839589059353,0.0,4.49404287338,-0.337777525187,0.0,5.31777095795,-0.0578284040093,0.0
1449616933520810694,260,1449616933520288329,odom,5.53814268112,-0.241427734494,0.0,5.49408626556,-0.542731583118,0.0,4.68292427063,-0.857241034508,0.0,4.49132633209,-0.363084882498,0.0,5.30248832703,-0.0485754385591,0.0
1449616933710842988,261,1449616933710675189,odom,5.53100347519,-0.216907665133,0.0,5.50292158127,-0.520117878914,0.0,4.70950269699,-0.87703037262,0.0,4.49207353592,-0.393683314323,0.0,5.2854924202,-0.0367707684636,0.0
1449616933947287671,262,1449616933947000882,odom,5.52229070663,-0.198584496975,0.0,5.5070476532,-0.502710521221,0.0,4.72942066193,-0.892833828926,0.0,4.49175930023,-0.419106990099,0.0,5.2693862915,-0.0289837345481,0.0
1449616934149164236,263,1449616934148694634,odom,5.51285457611,-0.174853280187,0.0,5.51369571686,-0.479359924793,0.0,4.7577586174,-0.910009562969,0.0,4.495408535,-0.449496179819,0.0,5.25134563446,-0.0188465379179,0.0
1449616934327427832,264,1449616934326965186,odom,5.50756931305,-0.160247996449,0.0,5.51806211472,-0.464574962854,0.0,4.77615594864,-0.918970525265,0.0,4.49934053421,-0.467004716396,0.0,5.24124670029,-0.0126091754064,0.0
1449616934555303261,265,1449616934554841192,odom,5.50092697144,-0.134159579873,0.0,5.52747821808,-0.437507599592,0.0,4.81060695648,-0.930453181267,0.0,4.51030683517,-0.493738442659,0.0,5.22717809677,-0.000792827748228,0.0
1449616934748189937,266,1449616934747785146,odom,5.4920501709,-0.102649599314,0.0,5.5377702713,-0.403705537319,0.0,4.85357522964,-0.941085636616,0.0,4.52620601654,-0.52427726984,0.0,5.21040058136,0.0131028294563,0.0
1449616934984683614,267,1449616934984225123,odom,5.4856672287,-0.0681363493204,0.0,5.55037212372,-0.365690171719,0.0,4.90160369873,-0.945344865322,0.0,4.54848051071,-0.550118207932,0.0,5.1972489357,0.0295365191996,0.0
1449616935116917726,268,1449616935113443016,odom,5.47708940506,-0.034074768424,0.0,5.56051874161,-0.326930552721,0.0,4.94978475571,-0.946530103683,0.0,4.57232713699,-0.574473619461,0.0,5.18306159973,0.045125965029,0.0
1449616935309786755,269,1449616935309387167,odom,5.45944166183,0.0311833005399,0.0,5.5762758255,-0.250019162893,0.0,5.04152870178,-0.936274051666,0.0,4.62346553802,-0.610508739948,0.0,5.15821218491,0.0757461413741,0.0
1449616935512919485,270,1449616935510773143,odom,5.4489197731,0.0778223201632,0.0,5.58621740341,-0.193975999951,0.0,5.10365343094,-0.917876541615,0.0,4.66265630722,-0.623900771141,0.0,5.14522027969,0.099999755621,0.0
1449616935715931263,271,1449616935713709343,odom,5.44397115707,0.118353433907,0.0,5.59543228149,-0.145814061165,0.0,5.15177536011,-0.894191145897,0.0,4.69586753845,-0.623917281628,0.0,5.13952445984,0.124459840357,0.0
1449616935908402740,272,1449616935907948899,odom,5.44580507278,0.163611486554,0.0,5.60829496384,-0.0939193293452,0.0,5.19666004181,-0.860376656055,0.0,4.72973775864,-0.609610676765,0.0,5.14137268066,0.156846642494,0.0
1449616936109214451,273,1449616936108983552,odom,5.45196962357,0.2090485394,0.0,5.62254095078,-0.0432021133602,0.0,5.23540878296,-0.82232260704,0.0,4.76077222824,-0.586483538151,0.0,5.14790439606,0.192636951804,0.0
