%time,field.header.seq,field.header.stamp,field.header.frame_id,field.status.goal_id.stamp,field.status.goal_id.id,field.status.status,field.status.text,field.feedback.base_position.header.seq,field.feedback.base_position.header.stamp,field.feedback.base_position.header.frame_id,field.feedback.base_position.pose.position.x,field.feedback.base_position.pose.position.y,field.feedback.base_position.pose.position.z,field.feedback.base_position.pose.orientation.x,field.feedback.base_position.pose.orientation.y,field.feedback.base_position.pose.orientation.z,field.feedback.base_position.pose.orientation.w
1449616884025487770,0,1449616884025324811,,1449616884025174997,/move_base-1-1449616884.25174997,1,This goal has been accepted by the simple action server,0,1449616883990463483,odom,0.0,0.0,0.0,0.0,0.0,0.0,1.0
1449616884075804017,1,1449616884075424869,,1449616884025174997,/move_base-1-1449616884.25174997,1,This goal has been accepted by the simple action server,0,1449616884070277357,odom,0.0,0.0,0.0,0.0,0.0,0.0,1.0
1449616884126774088,2,1449616884125491432,,1449616884112465641,/move_base-2-1449616884.112465641,1,This goal has been accepted by the simple action server,0,1449616884110262628,odom,0.0,0.0,0.0,0.0,0.0,0.0,1.0
1449616884176281746,3,1449616884175868039,,1449616884112465641,/move_base-2-1449616884.112465641,1,This goal has been accepted by the simple action server,0,1449616884150270884,odom,0.0,0.0,0.0,0.0,0.0,0.0,1.0
1449616884226083611,4,1449616884225517935,,1449616884207281211,/move_base-3-1449616884.207281211,1,This goal has been accepted by the simple action server,0,1449616884190279779,odom,0.0,0.0,0.0,0.0,0.0,0.0,1.0
1449616884276968015,5,1449616884275407191,,1449616884207281211,/move_base-3-1449616884.207281211,1,This goal has been accepted by the simple action server,0,1449616884270267878,odom,0.0,0.0,0.0,0.0,0.0,0.0,1.0
1449616884326121852,6,1449616884325437831,,1449616884313599224,/move_base-4-1449616884.313599224,1,This goal has been accepted by the simple action server,0,1449616884310269881,odom,0.0,0.0,0.0,0.0,0.0,0.0,1.0
1449616884384306862,7,1449616884376039581,,1449616884349981269,/move_base-5-1449616884.349981269,1,This goal has been accepted by the simple action server,0,1449616884350270879,odom,0.0,0.0,0.0,0.0,0.0,0.0,1.0
1449616884426195174,8,1449616884425494186,,1449616884349981269,/move_base-5-1449616884.349981269,1,This goal has been accepted by the simple action server,0,1449616884390275838,odom,0.0,0.0,0.0,0.0,0.0,0.0,1.0
1449616884477819899,9,1449616884475420147,,1449616884469062332,/move_base-6-1449616884.469062332,1,This goal has been accepted by the simple action server,0,1449616884470264649,odom,0.0,0.0,0.0,0.0,0.0,0.0,1.0
1449616884526626616,10,1449616884525699569,,1449616884469062332,/move_base-6-1449616884.469062332,1,This goal has been accepted by the simple action server,0,1449616884510271761,odom,0.0,0.0,0.0,0.0,0.0,0.0,1.0
1449616884577917717,11,1449616884577421116,,1449616884560588508,/move_base-7-1449616884.560588508,1,This goal has been accepted by the simple action server,0,1449616884550269913,odom,0.0,0.0,0.0,0.0,0.0,0.0,1.0
1449616884626564643,12,1449616884625419362,,1449616884560588508,/move_base-7-1449616884.560588508,1,This goal has been accepted by the simple action server,0,1449616884590270293,odom,0.0,0.0,0.0,0.0,0.0,0.0,1.0
1449616884676218714,13,1449616884675649336,,1449616884560588508,/move_base-7-1449616884.560588508,1,This goal has been accepted by the simple action server,0,1449616884670276925,odom,0.0,0.0,0.0,0.0,0.0,0.0,1.0
1449616884690673348,14,1449616884690033695,,1449616884689800290,/move_base-8-1449616884.689800290,1,This goal has been accepted by the simple action server,0,1449616884670276925,odom,0.0,0.0,0.0,0.0,0.0,0.0,1.0
1449616884741459902,15,1449616884740503779,,1449616884689800290,/move_base-8-1449616884.689800290,1,This goal has been accepted by the simple action server,0,1449616884710264683,odom,0.0,0.0,0.0,0.0,0.0,0.0,1.0
1449616884791557969,16,1449616884790130267,,1449616884689800290,/move_base-8-1449616884.689800290,1,This goal has been accepted by the simple action server,0,1449616884750264004,odom,0.0,0.0,0.0,0.0,0.0,0.0,1.0
1449616884800647946,17,1449616884800488013,,1449616884800098085,/move_base-9-1449616884.800098085,1,This goal has been accepted by the simple action server,0,1449616884790269359,odom,0.0,0.0,0.0,0.0,0.0,0.0,1.0
1449616884851552688,18,1449616884850590688,,1449616884800098085,/move_base-9-1449616884.800098085,1,This goal has been accepted by the simple action server,0,1449616884830295124,odom,0.0,0.0,0.0,0.0,0.0,0.0,1.0
1449616884901016350,19,1449616884900576981,,1449616884800098085,/move_base-9-1449616884.800098085,1,This goal has been accepted by the simple action server,0,1449616884870272476,odom,0.0,0.0,0.0,0.0,0.0,0.0,1.0
1449616884911963443,20,1449616884911263834,,1449616884910821617,/move_base-10-1449616884.910821617,1,This goal has been accepted by the simple action server,0,1449616884910261990,odom,0.0,0.0,0.0,0.0,0.0,0.0,1.0
1449616884962203855,21,1449616884961349366,,1449616884910821617,/move_base-10-1449616884.910821617,1,This goal has been accepted by the simple action server,0,1449616884951139338,odom,0.0,0.0,0.0,0.0,0.0,0.0,1.0
1449616885012049374,22,1449616885011435165,,1449616884981735211,/move_base-11-1449616884.981735211,1,This goal has been accepted by the simple action server,0,1449616884990395566,odom,0.0,0.0,0.0,0.0,0.0,0.0,1.0
1449616885064551419,23,1449616885064080001,,1449616884981735211,/move_base-11-1449616884.981735211,1,This goal has been accepted by the simple action server,0,1449616885030282229,odom,0.0,0.0,0.0,0.0,0.0,0.0,1.0
1449616885111819850,24,1449616885111328771,,1449616884981735211,/move_base-11-1449616884.981735211,1,This goal has been accepted by the simple action server,0,1449616885070273404,odom,0.0,0.0,0.0,0.0,0.0,0.0,1.0
1449616885112970056,25,1449616885112650930,,1449616885112598162,/move_base-12-1449616885.112598162,1,This goal has been accepted by the simple action server,0,1449616885070273404,odom,0.0,0.0,0.0,0.0,0.0,0.0,1.0
1449616885165001182,26,1449616885162815079,,1449616885151485103,/move_base-13-1449616885.151485103,1,This goal has been accepted by the simple action server,0,1449616885150265212,odom,0.0,0.0,0.0,0.0,0.0,0.0,1.0
1449616885213688255,27,1449616885212752795,,1449616885151485103,/move_base-13-1449616885.151485103,1,This goal has been accepted by the simple action server,0,1449616885190268380,odom,0.0,0.0,0.0,0.0,0.0,0.0,1.0
1449616885263136544,28,1449616885262730105,,1449616885151485103,/move_base-13-1449616885.151485103,1,This goal has been accepted by the simple action server,0,1449616885230354392,odom,0.0,0.0,0.0,0.0,0.0,0.0,1.0
1449616885368804397,29,1449616885367925708,,1449616885367333844,/move_base-14-1449616885.367333844,1,This goal has been accepted by the simple action server,0,1449616885350269349,odom,0.0,0.0,0.0,0.0,0.0,0.0,1.0
1449616885419707159,30,1449616885418876884,,1449616885367333844,/move_base-14-1449616885.367333844,1,This goal has been accepted by the simple action server,0,1449616885390282442,odom,0.0,0.0,0.0,0.0,0.0,0.0,1.0
1449616885469371836,31,1449616885468515237,,1449616885367333844,/move_base-14-1449616885.367333844,1,This goal has been accepted by the simple action server,0,1449616885430265254,odom,0.0,0.0,0.0,0.0,0.0,0.0,1.0
1449616885476230905,32,1449616885476107405,,1449616885475977064,/move_base-15-1449616885.475977064,1,This goal has been accepted by the simple action server,0,1449616885470275435,odom,0.0,0.0,0.0,0.0,0.0,0.0,1.0
1449616885527230162,33,1449616885526842679,,1449616885479821946,/move_base-16-1449616885.479821946,1,This goal has been accepted by the simple action server,0,1449616885510272275,odom,0.0,0.0,0.0,0.0,0.0,0.0,1.0
1449616885576665907,34,1449616885576190047,,1449616885479821946,/move_base-16-1449616885.479821946,1,This goal has been accepted by the simple action server,0,1449616885550620256,odom,0.0,0.0,0.0,0.0,0.0,0.0,1.0
1449616885626781158,35,1449616885626329994,,1449616885596016378,/move_base-17-1449616885.596016378,1,This goal has been accepted by the simple action server,0,1449616885590273152,odom,0.0,0.0,0.0,0.0,0.0,0.0,1.0
1449616885677004622,36,1449616885676215215,,1449616885596016378,/move_base-17-1449616885.596016378,1,This goal has been accepted by the simple action server,0,1449616885670466851,odom,0.0,0.0,0.0,0.0,0.0,0.0,1.0
1449616885729850809,37,1449616885729207671,,1449616885596016378,/move_base-17-1449616885.596016378,1,This goal has been accepted by the simple action server,0,1449616885710929879,odom,0.0,0.0,0.0,0.0,0.0,0.0,1.0
1449616885748489242,38,1449616885748239681,,1449616885748131559,/move_base-18-1449616885.748131559,1,This goal has been accepted by the simple action server,0,1449616885710929879,odom,0.0,0.0,0.0,0.0,0.0,0.0,1.0
1449616885798929791,39,1449616885798401771,,1449616885757868129,/move_base-19-1449616885.757868129,1,This goal has been accepted by the simple action server,0,1449616885790264582,odom,0.0,0.0,0.0,0.0,0.0,0.0,1.0
1449616885848835457,40,1449616885848331952,,1449616885757868129,/move_base-19-1449616885.757868129,1,This goal has been accepted by the simple action server,0,1449616885832837912,odom,0.0,0.0,0.0,0.0,0.0,0.0,1.0
1449616885901715828,41,1449616885900071834,,1449616885875369877,/move_base-20-1449616885.875369877,1,This goal has been accepted by the simple action server,0,1449616885870281469,odom,0.0,0.0,0.0,0.0,0.0,0.0,1.0
1449616885950216698,42,1449616885949776464,,1449616885875369877,/move_base-20-1449616885.875369877,1,This goal has been accepted by the simple action server,0,1449616885910268744,odom,0.0,0.0,0.0,0.0,0.0,0.0,1.0
1449616885998729633,43,1449616885998416591,,1449616885950284791,/move_base-21-1449616885.950284791,1,This goal has been accepted by the simple action server,0,1449616885992976084,odom,0.0,0.0,0.0,0.0,0.0,0.0,1.0
1449616886049085990,44,1449616886048381617,,1449616885950284791,/move_base-21-1449616885.950284791,1,This goal has been accepted by the simple action server,0,1449616886030271604,odom,0.0,0.0,0.0,0.0,0.0,0.0,1.0
1449616886098976344,45,1449616886098874849,,1449616886072435920,/move_base-22-1449616886.72435920,1,This goal has been accepted by the simple action server,0,1449616886070270959,odom,0.0,0.0,0.0,0.0,0.0,0.0,1.0
1449616886150709547,46,1449616886149155878,,1449616886072435920,/move_base-22-1449616886.72435920,1,This goal has been accepted by the simple action server,0,1449616886110263355,odom,0.0,0.0,0.0,0.0,0.0,0.0,1.0
1449616886199087969,47,1449616886198480197,,1449616886152083929,/move_base-23-1449616886.152083929,1,This goal has been accepted by the simple action server,0,1449616886190274249,odom,0.0,0.0,0.0,0.0,0.0,0.0,1.0
1449616886249143852,48,1449616886248341597,,1449616886152083929,/move_base-23-1449616886.152083929,1,This goal has been accepted by the simple action server,0,1449616886230473619,odom,0.0,0.0,0.0,0.0,0.0,0.0,1.0
1449616886298751142,49,1449616886298389598,,1449616886272384728,/move_base-24-1449616886.272384728,1,This goal has been accepted by the simple action server,0,1449616886270343394,odom,0.0,0.0,0.0,0.0,0.0,0.0,1.0
1449616886350339883,50,1449616886348327698,,1449616886272384728,/move_base-24-1449616886.272384728,1,This goal has been accepted by the simple action server,0,1449616886310261061,odom,0.0,0.0,0.0,0.0,0.0,0.0,1.0
1449616886456334826,51,1449616886450178953,,1449616886272384728,/move_base-24-1449616886.272384728,1,This goal has been accepted by the simple action server,0,1449616886430268224,odom,0.0,0.0,0.0,0.0,0.0,0.0,1.0
1449616886537241125,52,1449616886537004943,,1449616886272384728,/move_base-24-1449616886.272384728,1,This goal has been accepted by the simple action server,0,1449616886510277068,odom,0.0,0.0,0.0,0.0,0.0,0.0,1.0
1449616886587442030,53,1449616886587039006,,1449616886272384728,/move_base-24-1449616886.272384728,1,This goal has been accepted by the simple action server,0,1449616886550267201,odom,0.0,0.0,0.0,0.0,0.0,0.0,1.0
1449616886692212380,54,1449616886674242681,,1449616886272384728,/move_base-24-1449616886.272384728,1,This goal has been accepted by the simple action server,0,1449616886670278496,odom,0.0,0.0,0.0,0.0,0.0,0.0,1.0
1449616886764485036,55,1449616886764332723,,1449616886272384728,/move_base-24-1449616886.272384728,1,This goal has been accepted by the simple action server,0,1449616886750235094,odom,0.0,0.0,0.0,0.0,0.0,0.0,1.0
1449616886841421470,56,1449616886841290859,,1449616886272384728,/move_base-24-1449616886.272384728,1,This goal has been accepted by the simple action server,0,1449616886830267163,odom,0.0,0.0,0.0,0.0,0.0,0.0,1.0
1449616886896399225,57,1449616886896031101,,1449616886272384728,/move_base-24-1449616886.272384728,1,This goal has been accepted by the simple action server,0,1449616886870270348,odom,0.0,0.0,0.0,0.0,0.0,0.0,1.0
1449616886963096576,58,1449616886957160289,,1449616886272384728,/move_base-24-1449616886.272384728,1,This goal has been accepted by the simple action server,0,1449616886950262973,odom,0.0,0.0,0.0,0.0,0.0,0.0,1.0
1449616887087851979,59,1449616887087190410,,1449616886272384728,/move_base-24-1449616886.272384728,1,This goal has been accepted by the simple action server,0,1449616887070269339,odom,0.0,0.0,0.0,0.0,0.0,0.0,1.0
1449616887168554291,60,1449616887167874565,,1449616886272384728,/move_base-24-1449616886.272384728,1,This goal has been accepted by the simple action server,0,1449616887150285894,odom,0.0,0.0,0.0,0.0,0.0,0.0,1.0
1449616887240357755,61,1449616887228566826,,1449616886272384728,/move_base-24-1449616886.272384728,1,This goal has been accepted by the simple action server,0,1449616887190271352,odom,0.0,0.0,0.0,0.0,0.0,0.0,1.0
1449616887312074362,62,1449616887303795660,,1449616886272384728,/move_base-24-1449616886.272384728,1,This goal has been accepted by the simple action server,0,1449616887270263913,odom,0.00287963245437,-3.04332289367e-05,0.0,0.0,0.0,-0.0052839997518,0.999986039576
1449616887399145632,63,1449616887391096168,,1449616886272384728,/move_base-24-1449616886.272384728,1,This goal has been accepted by the simple action server,0,1449616887390266454,odom,0.00863889736311,-9.129968681e-05,0.0,0.0,0.0,-0.0052839997518,0.999986039576
1449616887484491040,64,1449616887482996964,,1449616886272384728,/move_base-24-1449616886.272384728,1,This goal has been accepted by the simple action server,0,1449616887470276159,odom,0.0143976798556,-0.000182595974757,0.0,0.0,0.0,-0.0052839997518,0.999986039576
1449616887533236413,65,1449616887533105915,,1449616886272384728,/move_base-24-1449616886.272384728,1,This goal has been accepted by the simple action server,0,1449616887510263774,odom,0.0172768298936,-0.000243459033768,0.0,0.0,0.0,-0.0105678519699,0.999944158693
1449616887640543442,66,1449616887632575038,,1449616886272384728,/move_base-24-1449616886.272384728,1,This goal has been accepted by the simple action server,0,1449616887630266525,odom,0.0287934300459,-0.000486911269811,0.0,0.0,0.0,-0.0105678519699,0.999944158693
1449616887758215890,67,1449616887751032983,,1449616886272384728,/move_base-24-1449616886.272384728,1,This goal has been accepted by the simple action server,0,1449616887750289916,odom,0.0403092262309,-0.000760786538583,0.0,0.0,0.0,-0.0105678519699,0.999944158693
1449616887807639991,68,1449616887805164398,,1449616886272384728,/move_base-24-1449616886.272384728,1,This goal has been accepted by the simple action server,0,1449616887790569612,odom,0.0489442644433,-0.0010346448138,0.0,0.0,0.0,-0.0158514091245,0.999874358521
1449616887891608752,69,1449616887865353438,,1449616886272384728,/move_base-24-1449616886.272384728,1,This goal has been accepted by the simple action server,0,1449616887830271644,odom,0.0547009565848,-0.00121721699728,0.0,0.0,0.0,-0.0158514091245,0.999874358521
1449616887966939962,70,1449616887957633994,,1449616886272384728,/move_base-24-1449616886.272384728,1,This goal has been accepted by the simple action server,0,1449616887950267126,odom,0.0719710330095,-0.00176493354772,0.0,0.0,0.0,-0.0158514091245,0.999874358521
1449616888016636917,71,1449616888010443350,,1449616886272384728,/move_base-24-1449616886.272384728,1,This goal has been accepted by the simple action server,0,1449616887990265459,odom,0.0748482536517,-0.00188663247711,0.0,0.0,0.0,-0.0211345236944,0.999776641009
1449616888062421258,72,1449616888061453888,,1449616888048614965,/move_base-25-1449616888.48614965,1,This goal has been accepted by the simple action server,0,1449616888030263054,odom,0.0834755752864,-0.00234292700333,0.0,0.0,0.0,-0.0264170481704,0.999651008886
1449616888108456916,73,1449616888108089873,,1449616888048614965,/move_base-25-1449616888.48614965,1,This goal has been accepted by the simple action server,0,1449616888070298521,odom,0.0892271230429,-0.00264712335413,0.0,0.0,0.0,-0.0264170481704,0.999651008886
1449616888159046223,74,1449616888157668548,,1449616888048614965,/move_base-25-1449616888.48614965,1,This goal has been accepted by the simple action server,0,1449616888153601858,odom,0.10360068862,-0.003498761009,0.0,0.0,0.0,-0.0316988350601,0.999497465658
1449616888172221877,75,1449616888172121803,,1449616888171720757,/move_base-26-1449616888.171720757,1,This goal has been accepted by the simple action server,0,1449616888153601858,odom,0.10360068862,-0.003498761009,0.0,0.0,0.0,-0.0316988350601,0.999497465658
1449616888225274876,76,1449616888222420950,,1449616888171720757,/move_base-26-1449616888.171720757,1,This goal has been accepted by the simple action server,0,1449616888190287955,odom,0.109348700501,-0.00386372187837,0.0,0.0,0.0,-0.0316988350601,0.999497465658
1449616888356149632,77,1449616888342574799,,1449616888171720757,/move_base-26-1449616888.171720757,1,This goal has been accepted by the simple action server,0,1449616888310270618,odom,0.120838457518,-0.00468472925529,0.0,0.0,0.0,-0.0316988350601,0.999497465658
1449616888447032975,78,1449616888443417337,,1449616888171720757,/move_base-26-1449616888.171720757,1,This goal has been accepted by the simple action server,0,1449616888430272442,odom,0.132323715964,-0.00556643662021,0.0,0.0,0.0,-0.042259606217,0.999106663816
1449616888522286483,79,1449616888511266058,,1449616888171720757,/move_base-26-1449616888.171720757,1,This goal has been accepted by the simple action server,0,1449616888470263568,odom,0.132323715964,-0.00556643662021,0.0,0.0,0.0,-0.042259606217,0.999106663816
1449616888600005355,80,1449616888591770653,,1449616888171720757,/move_base-26-1449616888.171720757,1,This goal has been accepted by the simple action server,0,1449616888553627591,odom,0.1351904932,-0.00583992799247,0.0,0.0,0.0,-0.0475382956186,0.998869416115
1449616888677163744,81,1449616888672415155,,1449616888171720757,/move_base-26-1449616888.171720757,1,This goal has been accepted by the simple action server,0,1449616888670263804,odom,0.138054220136,-0.00614369977008,0.0,0.0,0.0,-0.0528156577107,0.998604279132
1449616888727761786,82,1449616888725164145,,1449616888171720757,/move_base-26-1449616888.171720757,1,This goal has been accepted by the simple action server,0,1449616888710266333,odom,0.140914576942,-0.00647771802702,0.0,0.0,0.0,-0.0580915451448,0.99831126027
1449616888779950328,83,1449616888776655345,,1449616888171720757,/move_base-26-1449616888.171720757,1,This goal has been accepted by the simple action server,0,1449616888750261844,odom,0.140914576942,-0.00647771802702,0.0,0.0,0.0,-0.0580915451448,0.99831126027
1449616888853858378,84,1449616888852574710,,1449616888171720757,/move_base-26-1449616888.171720757,1,This goal has been accepted by the simple action server,0,1449616888831103870,odom,0.140914576942,-0.00647771802702,0.0,0.0,0.0,-0.0686383068554,0.997641610415
1449616888928656485,85,1449616888919495242,,1449616888171720757,/move_base-26-1449616888.171720757,1,This goal has been accepted by the simple action server,0,1449616888910271558,odom,0.140919222265,-0.00644764098831,0.0,0.0,0.0,-0.0791774028604,0.996860541338
1449616888988138804,86,1449616888980698516,,1449616888171720757,/move_base-26-1449616888.171720757,1,This goal has been accepted by the simple action server,0,1449616888950273785,odom,0.140919222265,-0.00644764098831,0.0,0.0,0.0,-0.0791774028604,0.996860541338
1449616889057722822,87,1449616889055472864,,1449616888171720757,/move_base-26-1449616888.171720757,1,This goal has been accepted by the simple action server,0,1449616889030267806,odom,0.140924502214,-0.00641766884427,0.0,0.0,0.0,-0.0897076561262,0.99596814027
1449616889129673995,88,1449616889126186863,,1449616888171720757,/move_base-26-1449616888.171720757,1,This goal has been accepted by the simple action server,0,1449616889110262029,odom,0.143752349021,-0.00696217934762,0.0,0.0,0.0,-0.10548388359,0.994421012601
1449616889181063102,89,1449616889178544907,,1449616888171720757,/move_base-26-1449616888.171720757,1,This goal has been accepted by the simple action server,0,1449616889150262598,odom,0.143752349021,-0.00696217934762,0.0,0.0,0.0,-0.10548388359,0.994421012601
1449616889260194195,90,1449616889258836264,,1449616888171720757,/move_base-26-1449616888.171720757,1,This goal has been accepted by the simple action server,0,1449616889230284497,odom,0.143752349021,-0.00696217934762,0.0,0.0,0.0,-0.115986887289,0.993250744765
1449616889309769493,91,1449616889309428147,,1449616888171720757,/move_base-26-1449616888.171720757,1,This goal has been accepted by the simple action server,0,1449616889270279556,odom,0.146547490263,-0.00765528445533,0.0,0.0,0.0,-0.121233604752,0.99262400388
1449616889365756825,92,1449616889364879450,,1449616888171720757,/move_base-26-1449616888.171720757,1,This goal has been accepted by the simple action server,0,1449616889350445542,odom,0.146539698214,-0.0076847036879,0.0,0.0,0.0,-0.131716738444,0.99128739567
1449616889447457970,93,1449616889427192235,,1449616888171720757,/move_base-26-1449616888.171720757,1,This goal has been accepted by the simple action server,0,1449616889390303243,odom,0.146539698214,-0.0076847036879,0.0,0.0,0.0,-0.142185161666,0.989840077892
1449616889525476713,94,1449616889518305757,,1449616888171720757,/move_base-26-1449616888.171720757,1,This goal has been accepted by the simple action server,0,1449616889510266106,odom,0.146539698214,-0.0076847036879,0.0,0.0,0.0,-0.152637705278,0.988282212188
1449616889591627921,95,1449616889583105474,,1449616888171720757,/move_base-26-1449616888.171720757,1,This goal has been accepted by the simple action server,0,1449616889550307821,odom,0.146539698214,-0.0076847036879,0.0,0.0,0.0,-0.152637705278,0.988282212188
1449616889694970055,96,1449616889685539489,,1449616888171720757,/move_base-26-1449616888.171720757,1,This goal has been accepted by the simple action server,0,1449616889670643493,odom,0.149275968112,-0.00858249892909,0.0,0.0,0.0,-0.157857657354,0.987461877753
1449616889796008098,97,1449616889795381486,,1449616888171720757,/move_base-26-1449616888.171720757,1,This goal has been accepted by the simple action server,0,1449616889790274395,odom,0.152002597447,-0.00950916053146,0.0,0.0,0.0,-0.163073201911,0.986613972544
1449616889889336936,98,1449616889881386072,,1449616888171720757,/move_base-26-1449616888.171720757,1,This goal has been accepted by the simple action server,0,1449616889870292069,odom,0.152002597447,-0.00950916053146,0.0,0.0,0.0,-0.163073201911,0.986613972544
1449616889967673267,99,1449616889965365675,,1449616888171720757,/move_base-26-1449616888.171720757,1,This goal has been accepted by the simple action server,0,1449616889950268532,odom,0.152002597447,-0.00950916053146,0.0,0.0,0.0,-0.163073201911,0.986613972544
1449616890022198989,100,1449616890015725881,,1449616888171720757,/move_base-26-1449616888.171720757,1,This goal has been accepted by the simple action server,0,1449616889990263682,odom,0.152002597447,-0.00950916053146,0.0,0.0,0.0,-0.163073201911,0.986613972544
1449616890087514370,101,1449616890082517208,,1449616888171720757,/move_base-26-1449616888.171720757,1,This goal has been accepted by the simple action server,0,1449616890070272899,odom,0.154738867346,-0.0104069557726,0.0,0.0,0.0,-0.157857657354,0.987461877753
1449616890149075470,102,1449616890145419480,,1449616888171720757,/move_base-26-1449616888.171720757,1,This goal has been accepted by the simple action server,0,1449616890110265362,odom,0.15746549668,-0.011333617375,0.0,0.0,0.0,-0.163073201911,0.986613972544
1449616890215908590,103,1449616890215323078,,1449616888171720757,/move_base-26-1449616888.171720757,1,This goal has been accepted by the simple action server,0,1449616890191174890,odom,0.15746549668,-0.011333617375,0.0,0.0,0.0,-0.163073201911,0.986613972544
1449616890359960752,104,1449616890340325250,,1449616888171720757,/move_base-26-1449616888.171720757,1,This goal has been accepted by the simple action server,0,1449616890310273801,odom,0.168372014019,-0.0150402637845,0.0,0.0,0.0,-0.163073201911,0.986613972544
1449616890538900852,105,1449616890516925283,,1449616888171720757,/move_base-26-1449616888.171720757,1,This goal has been accepted by the simple action server,0,1449616890510270483,odom,0.184641374077,-0.0208587791085,0.0,0.0,0.0,-0.173490486104,0.984835545272
1449616890632228439,106,1449616890620737318,,1449616888171720757,/move_base-26-1449616888.171720757,1,This goal has been accepted by the simple action server,0,1449616890590270198,odom,0.195424311976,-0.0249090605094,0.0,0.0,0.0,-0.183888394426,0.982947128993
1449616890747051937,107,1449616890738205949,,1449616888171720757,/move_base-26-1449616888.171720757,1,This goal has been accepted by the simple action server,0,1449616890710286525,odom,0.211534511077,-0.0311554208935,0.0,0.0,0.0,-0.183888394426,0.982947128993
1449616890815098095,108,1449616890814964490,,1449616888171720757,/move_base-26-1449616888.171720757,1,This goal has been accepted by the simple action server,0,1449616890790264621,odom,0.224926221881,-0.0364456719107,0.0,0.0,0.0,-0.189079719651,0.981961740404
1449616890946490297,109,1449616890927358005,,1449616888171720757,/move_base-26-1449616888.171720757,1,This goal has been accepted by the simple action server,0,1449616890910270260,odom,0.246190428038,-0.0453104920261,0.0,0.0,0.0,-0.199446387505,0.979908739889
1449616891030197283,110,1449616891015268393,,1449616888171720757,/move_base-26-1449616888.171720757,1,This goal has been accepted by the simple action server,0,1449616890990270172,odom,0.262058397724,-0.0521482354621,0.0,0.0,0.0,-0.199446387505,0.979908739889
1449616891101858035,111,1449616891099461059,,1449616888171720757,/move_base-26-1449616888.171720757,1,This goal has been accepted by the simple action server,0,1449616891070290184,odom,0.280428995555,-0.0604454598205,0.0,0.0,0.0,-0.214954263107,0.976624116419
1449616891202511431,112,1449616891201941001,,1449616888171720757,/move_base-26-1449616888.171720757,1,This goal has been accepted by the simple action server,0,1449616891190264125,odom,0.306603587094,-0.0724534668475,0.0,0.0,0.0,-0.214954263107,0.976624116419
1449616891293620912,113,1449616891289215370,,1449616888171720757,/move_base-26-1449616888.171720757,1,This goal has been accepted by the simple action server,0,1449616891270229906,odom,0.322168421004,-0.0799556760303,0.0,0.0,0.0,-0.225263078873,0.97429797562
1449616891413446006,114,1449616891403588922,,1449616888171720757,/move_base-26-1449616888.171720757,1,This goal has been accepted by the simple action server,0,1449616891390285274,odom,0.350482738797,-0.0941605247673,0.0,0.0,0.0,-0.230408124366,0.973094083954
1449616891497013071,115,1449616891488787771,,1449616888171720757,/move_base-26-1449616888.171720757,1,This goal has been accepted by the simple action server,0,1449616891470276625,odom,0.370922416269,-0.104789310397,0.0,0.0,0.0,-0.240678772307,0.970604826158
1449616891624909418,116,1449616891622854843,,1449616888171720757,/move_base-26-1449616888.171720757,1,This goal has been accepted by the simple action server,0,1449616891590234332,odom,0.396253939475,-0.11848496483,0.0,0.0,0.0,-0.250922540614,0.968007168678
1449616891690212690,117,1449616891689469090,,1449616888171720757,/move_base-26-1449616888.171720757,1,This goal has been accepted by the simple action server,0,1449616891670270258,odom,0.416391199311,-0.129676754614,0.0,0.0,0.0,-0.250922540614,0.968007168678
1449616891755453859,118,1449616891746280357,,1449616888171720757,/move_base-26-1449616888.171720757,1,This goal has been accepted by the simple action server,0,1449616891710273385,odom,0.423897897624,-0.133953244264,0.0,0.0,0.0,-0.256033987268,0.966667780245
1449616891835624597,119,1449616891824418154,,1449616888171720757,/move_base-26-1449616888.171720757,1,This goal has been accepted by the simple action server,0,1449616891790269429,odom,0.438773623495,-0.142743009736,0.0,0.0,0.0,-0.266235292001,0.963908070976
1449616891910240315,120,1449616891903852026,,1449616888171720757,/move_base-26-1449616888.171720757,1,This goal has been accepted by the simple action server,0,1449616891870272597,odom,0.453649349366,-0.151532775209,0.0,0.0,0.0,-0.266235292001,0.963908070976
1449616891988817064,121,1449616891977959816,,1449616888171720757,/move_base-26-1449616888.171720757,1,This goal has been accepted by the simple action server,0,1449616891950276418,odom,0.465928293031,-0.159053265474,0.0,0.0,0.0,-0.271324865251,0.962487827194
1449616892104815820,122,1449616892088629056,,1449616888171720757,/move_base-26-1449616888.171720757,1,This goal has been accepted by the simple action server,0,1449616892070267038,odom,0.483102781942,-0.169607820265,0.0,0.0,0.0,-0.276406862881,0.961040709935
1449616892179686469,123,1449616892179006989,,1449616888171720757,/move_base-26-1449616888.171720757,1,This goal has been accepted by the simple action server,0,1449616892150265661,odom,0.500132163437,-0.180394678234,0.0,0.0,0.0,-0.281481142997,0.959566759604
1449616892295913052,124,1449616892282557821,,1449616888171720757,/move_base-26-1449616888.171720757,1,This goal has been accepted by the simple action server,0,1449616892270663850,odom,0.517013449359,-0.191411945452,0.0,0.0,0.0,-0.28654756392,0.958066017355
1449616892446134375,125,1449616892441468766,,1449616888171720757,/move_base-26-1449616888.171720757,1,This goal has been accepted by the simple action server,0,1449616892430717647,odom,0.548184934188,-0.212144817824,0.0,0.0,0.0,-0.291605984193,0.956538525091
1449616892519810852,126,1449616892513239001,,1449616888171720757,/move_base-26-1449616888.171720757,1,This goal has been accepted by the simple action server,0,1449616892470270298,odom,0.552964998781,-0.215357887929,0.0,0.0,0.0,-0.291605984193,0.956538525091
1449616892586722891,127,1449616892578691387,,1449616888171720757,/move_base-26-1449616888.171720757,1,This goal has been accepted by the simple action server,0,1449616892550263795,odom,0.564829604828,-0.223516402174,0.0,0.0,0.0,-0.296656262579,0.954984325459
1449616892655153859,128,1449616892654022162,,1449616888171720757,/move_base-26-1449616888.171720757,1,This goal has been accepted by the simple action server,0,1449616892631384522,odom,0.583812974503,-0.236570024966,0.0,0.0,0.0,-0.296656262579,0.954984325459
1449616892732548644,129,1449616892728172921,,1449616888171720757,/move_base-26-1449616888.171720757,1,This goal has been accepted by the simple action server,0,1449616892710279107,odom,0.600301790261,-0.248166843855,0.0,0.0,0.0,-0.30169825807,0.953403461855
1449616892803879889,130,1449616892803571162,,1449616888171720757,/move_base-26-1449616888.171720757,1,This goal has been accepted by the simple action server,0,1449616892790606275,odom,0.616737688495,-0.259838064364,0.0,0.0,0.0,-0.30673182989,0.951795978418
1449616892894774585,131,1449616892885797041,,1449616888171720757,/move_base-26-1449616888.171720757,1,This goal has been accepted by the simple action server,0,1449616892870274683,odom,0.633226504253,-0.271434883253,0.0,0.0,0.0,-0.30169825807,0.953403461855
1449616892997475068,132,1449616892995970024,,1449616888171720757,/move_base-26-1449616888.171720757,1,This goal has been accepted by the simple action server,0,1449616892990270989,odom,0.658943469523,-0.289931261737,0.0,0.0,0.0,-0.30673182989,0.951795978418
1449616893109115934,133,1449616893108445010,,1449616888171720757,/move_base-26-1449616888.171720757,1,This goal has been accepted by the simple action server,0,1449616893070306508,odom,0.675183509112,-0.301873973639,0.0,0.0,0.0,-0.311756837497,0.950161920029
1449616893204251154,134,1449616893203102942,,1449616888171720757,/move_base-26-1449616888.171720757,1,This goal has been accepted by the simple action server,0,1449616893190274288,odom,0.700649093176,-0.320714358959,0.0,0.0,0.0,-0.316773140589,0.948501332314
1449616893336232425,135,1449616893330909530,,1449616888171720757,/move_base-26-1449616888.171720757,1,This goal has been accepted by the simple action server,0,1449616893310280156,odom,0.723667555908,-0.338019598016,0.0,0.0,0.0,-0.316773140589,0.948501332314
1449616893461199853,136,1449616893428852041,,1449616888171720757,/move_base-26-1449616888.171720757,1,This goal has been accepted by the simple action server,0,1449616893390274022,odom,0.73965156461,-0.350302867907,0.0,0.0,0.0,-0.321780599107,0.946814261637
1449616893585910669,137,1449616893576006703,,1449616888171720757,/move_base-26-1449616888.171720757,1,This goal has been accepted by the simple action server,0,1449616893550265227,odom,0.771619582015,-0.374869407691,0.0,0.0,0.0,-0.321780599107,0.946814261637
1449616893670401073,138,1449616893668194650,,1449616888171720757,/move_base-26-1449616888.171720757,1,This goal has been accepted by the simple action server,0,1449616893630272529,odom,0.789887020532,-0.388907430424,0.0,0.0,0.0,-0.321780599107,0.946814261637
1449616893776943633,139,1449616893768929613,,1449616888171720757,/move_base-26-1449616888.171720757,1,This goal has been accepted by the simple action server,0,1449616893750267599,odom,0.812590618333,-0.406623189565,0.0,0.0,0.0,-0.321780599107,0.946814261637
1449616893889654364,140,1449616893889080257,,1449616888171720757,/move_base-26-1449616888.171720757,1,This goal has been accepted by the simple action server,0,1449616893870272017,odom,0.844558635738,-0.431189729348,0.0,0.0,0.0,-0.321780599107,0.946814261637
1449616893977676832,141,1449616893972989563,,1449616888171720757,/move_base-26-1449616888.171720757,1,This goal has been accepted by the simple action server,0,1449616893950287390,odom,0.86067155965,-0.443303396688,0.0,0.0,0.0,-0.316773140589,0.948501332314
1449616894043165755,142,1449616894036727949,,1449616888171720757,/move_base-26-1449616888.171720757,1,This goal has been accepted by the simple action server,0,1449616894030262215,odom,0.879086329836,-0.457147587934,0.0,0.0,0.0,-0.316773140589,0.948501332314
1449616894081200037,143,1449616894081110883,,1449616894062599705,/move_base-27-1449616894.62599705,1,This goal has been accepted by the simple action server,0,1449616894070276564,odom,0.890686358113,-0.465678096435,0.0,0.0,0.0,-0.311756837497,0.950161920029
1449616894094995257,144,1449616894091477528,,1449616894062599705,/move_base-27-1449616894.62599705,1,This goal has been accepted by the simple action server,0,1449616894070276564,odom,0.890686358113,-0.465678096435,0.0,0.0,0.0,-0.311756837497,0.950161920029
1449616894140159717,145,1449616894139128431,,1449616894062599705,/move_base-27-1449616894.62599705,1,This goal has been accepted by the simple action server,0,1449616894110287840,odom,0.904606392047,-0.475914706637,0.0,0.0,0.0,-0.311756837497,0.950161920029
1449616894184653187,146,1449616894184116245,,1449616894183985255,/move_base-28-1449616894.183985255,1,This goal has been accepted by the simple action server,0,1449616894150294704,odom,0.911620109848,-0.480959173496,0.0,0.0,0.0,-0.30673182989,0.951795978418
1449616894239513504,147,1449616894234300374,,1449616894183985255,/move_base-28-1449616894.183985255,1,This goal has been accepted by the simple action server,0,1449616894190269188,odom,0.920971733582,-0.487685129309,0.0,0.0,0.0,-0.30673182989,0.951795978418
1449616894285763713,148,1449616894284213213,,1449616894183985255,/move_base-28-1449616894.183985255,1,This goal has been accepted by the simple action server,0,1449616894270276877,odom,0.942101082858,-0.502694527184,0.0,0.0,0.0,-0.30169825807,0.953403461855
1449616894319178964,149,1449616894318871233,,1449616894318773258,/move_base-29-1449616894.318773258,1,This goal has been accepted by the simple action server,0,1449616894310472850,odom,0.951523263291,-0.509321280835,0.0,0.0,0.0,-0.30169825807,0.953403461855
1449616894369583868,150,1449616894368966044,,1449616894318773258,/move_base-29-1449616894.318773258,1,This goal has been accepted by the simple action server,0,1449616894350271528,odom,0.960945443724,-0.515948034486,0.0,0.0,0.0,-0.30169825807,0.953403461855
1449616894419815708,151,1449616894418977640,,1449616894318773258,/move_base-29-1449616894.318773258,1,This goal has been accepted by the simple action server,0,1449616894390274128,odom,0.970367624157,-0.522574788136,0.0,0.0,0.0,-0.30169825807,0.953403461855
1449616894467764176,152,1449616894467496730,,1449616894467435091,/move_base-30-1449616894.467435091,1,This goal has been accepted by the simple action server,0,1449616894430279841,odom,0.97978980459,-0.529201541787,0.0,0.0,0.0,-0.30169825807,0.953403461855
1449616894529999260,153,1449616894521685196,,1449616894467435091,/move_base-30-1449616894.467435091,1,This goal has been accepted by the simple action server,0,1449616894510285299,odom,0.996400253056,-0.54062346173,0.0,0.0,0.0,-0.296656262579,0.954984325459
1449616894617843554,154,1449616894609003816,,1449616894467435091,/move_base-30-1449616894.467435091,1,This goal has been accepted by the simple action server,0,1449616894590279589,odom,1.01306203478,-0.551969878284,0.0,0.0,0.0,-0.291605984193,0.956538525091
1449616894686638737,155,1449616894685935168,,1449616894467435091,/move_base-30-1449616894.467435091,1,This goal has been accepted by the simple action server,0,1449616894670278546,odom,1.02740222856,-0.561609088599,0.0,0.0,0.0,-0.291605984193,0.956538525091
1449616894881862356,156,1449616894877880183,,1449616894467435091,/move_base-30-1449616894.467435091,1,This goal has been accepted by the simple action server,0,1449616894871003160,odom,1.05609946028,-0.58086216201,0.0,0.0,0.0,-0.291605984193,0.956538525091
1449616894962930114,157,1449616894955024409,,1449616894906829212,/move_base-31-1449616894.906829212,1,This goal has been accepted by the simple action server,0,1449616894950267533,odom,1.06813384258,-0.58876810118,0.0,0.0,0.0,-0.28654756392,0.958066017355
1449616894975074280,158,1449616894973884743,,1449616894906829212,/move_base-31-1449616894.906829212,1,This goal has been accepted by the simple action server,0,1449616894950267533,odom,1.06813384258,-0.58876810118,0.0,0.0,0.0,-0.28654756392,0.958066017355
1449616895074212505,159,1449616895064249908,,1449616894906829212,/move_base-31-1449616894.906829212,1,This goal has been accepted by the simple action server,0,1449616895030272707,odom,1.07293075133,-0.591955824067,0.0,0.0,0.0,-0.28654756392,0.958066017355
1449616895137753097,160,1449616895124735273,,1449616894906829212,/move_base-31-1449616894.906829212,1,This goal has been accepted by the simple action server,0,1449616895110274227,odom,1.08013453655,-0.596724734787,0.0,0.0,0.0,-0.291605984193,0.956538525091
1449616895217235551,161,1449616895216851047,,1449616894906829212,/move_base-31-1449616894.906829212,1,This goal has been accepted by the simple action server,0,1449616895194230134,odom,1.08735516592,-0.601468298289,0.0,0.0,0.0,-0.28654756392,0.958066017355
1449616895279121612,162,1449616895272932467,,1449616894906829212,/move_base-31-1449616894.906829212,1,This goal has been accepted by the simple action server,0,1449616895270270213,odom,1.09216891884,-0.604630673957,0.0,0.0,0.0,-0.28654756392,0.958066017355
1449616895386839409,163,1449616895363468140,,1449616894906829212,/move_base-31-1449616894.906829212,1,This goal has been accepted by the simple action server,0,1449616895350390170,odom,1.09216891884,-0.604630673957,0.0,0.0,0.0,-0.28654756392,0.958066017355
1449616895517081600,164,1449616895500634899,,1449616894906829212,/move_base-31-1449616894.906829212,1,This goal has been accepted by the simple action server,0,1449616895470283864,odom,1.09459237065,-0.606186337981,0.0,0.0,0.0,-0.281481142997,0.959566759604
1449616895601157794,165,1449616895596565973,,1449616894906829212,/move_base-31-1449616894.906829212,1,This goal has been accepted by the simple action server,0,1449616895590268620,odom,1.09459237065,-0.606186337981,0.0,0.0,0.0,-0.281481142997,0.959566759604
1449616895709257344,166,1449616895707759801,,1449616894906829212,/move_base-31-1449616894.906829212,1,This goal has been accepted by the simple action server,0,1449616895670395103,odom,1.09459237065,-0.606186337981,0.0,0.0,0.0,-0.281481142997,0.959566759604
1449616895833735053,167,1449616895827581433,,1449616894906829212,/move_base-31-1449616894.906829212,1,This goal has been accepted by the simple action server,0,1449616895790263892,odom,1.09459237065,-0.606186337981,0.0,0.0,0.0,-0.281481142997,0.959566759604
1449616895888833122,168,1449616895887099599,,1449616894906829212,/move_base-31-1449616894.906829212,1,This goal has been accepted by the simple action server,0,1449616895870270058,odom,1.09459237065,-0.606186337981,0.0,0.0,0.0,-0.281481142997,0.959566759604
1449616895970064893,169,1449616895969496738,,1449616894906829212,/move_base-31-1449616894.906829212,1,This goal has been accepted by the simple action server,0,1449616895950276202,odom,1.09459237065,-0.606186337981,0.0,0.0,0.0,-0.281481142997,0.959566759604
1449616896041159191,170,1449616896030857532,,1449616894906829212,/move_base-31-1449616894.906829212,1,This goal has been accepted by the simple action server,0,1449616895990267748,odom,1.09459237065,-0.606186337981,0.0,0.0,0.0,-0.281481142997,0.959566759604
1449616896130522712,171,1449616896130289397,,1449616894906829212,/move_base-31-1449616894.906829212,1,This goal has been accepted by the simple action server,0,1449616896110266200,odom,1.09459237065,-0.606186337981,0.0,0.0,0.0,-0.281481142997,0.959566759604
1449616896240561996,172,1449616896240390978,,1449616894906829212,/move_base-31-1449616894.906829212,1,This goal has been accepted by the simple action server,0,1449616896230394470,odom,1.09459237065,-0.606186337981,0.0,0.0,0.0,-0.281481142997,0.959566759604
1449616896342521475,173,1449616896341425818,,1449616894906829212,/move_base-31-1449616894.906829212,1,This goal has been accepted by the simple action server,0,1449616896310264183,odom,1.09459237065,-0.606186337981,0.0,0.0,0.0,-0.281481142997,0.959566759604
1449616896474300571,174,1449616896473419786,,1449616894906829212,/move_base-31-1449616894.906829212,1,This goal has been accepted by the simple action server,0,1449616896470305939,odom,1.09459237065,-0.606186337981,0.0,0.0,0.0,-0.281481142997,0.959566759604
1449616896555061228,175,1449616896548111587,,1449616894906829212,/move_base-31-1449616894.906829212,1,This goal has been accepted by the simple action server,0,1449616896510277802,odom,1.09459237065,-0.606186337981,0.0,0.0,0.0,-0.281481142997,0.959566759604
1449616896683513722,176,1449616896676978693,,1449616894906829212,/move_base-31-1449616894.906829212,1,This goal has been accepted by the simple action server,0,1449616896630274467,odom,1.09459237065,-0.606186337981,0.0,0.0,0.0,-0.281481142997,0.959566759604
1449616896875744865,177,1449616896872162752,,1449616894906829212,/move_base-31-1449616894.906829212,1,This goal has been accepted by the simple action server,0,1449616896830269762,odom,1.09703212717,-0.607716304455,0.0,0.0,0.0,-0.276406862881,0.961040709935
1449616896936425803,178,1449616896936145978,,1449616894906829212,/move_base-31-1449616894.906829212,1,This goal has been accepted by the simple action server,0,1449616896910272457,odom,1.09703212717,-0.607716304455,0.0,0.0,0.0,-0.276406862881,0.961040709935
1449616896987160558,179,1449616896986217225,,1449616894906829212,/move_base-31-1449616894.906829212,1,This goal has been accepted by the simple action server,0,1449616896951045752,odom,1.09457633843,-0.606212206402,0.0,0.0,0.0,-0.271324865251,0.962487827194
1449616897059864306,180,1449616897054927706,,1449616894906829212,/move_base-31-1449616894.906829212,1,This goal has been accepted by the simple action server,0,1449616897030678570,odom,1.09457633843,-0.606212206402,0.0,0.0,0.0,-0.271324865251,0.962487827194
1449616897143573167,181,1449616897143358309,,1449616894906829212,/move_base-31-1449616894.906829212,1,This goal has been accepted by the simple action server,0,1449616897110281078,odom,1.09704788512,-0.607690268053,0.0,0.0,0.0,-0.266235292001,0.963908070976
1449616897210940195,182,1449616897210683046,,1449616894906829212,/move_base-31-1449616894.906829212,1,This goal has been accepted by the simple action server,0,1449616897190263421,odom,1.09456085651,-0.606238407879,0.0,0.0,0.0,-0.261138285236,0.965301401628
1449616897294697299,183,1449616897294099364,,1449616894906829212,/move_base-31-1449616894.906829212,1,This goal has been accepted by the simple action server,0,1449616897270263513,odom,1.09456085651,-0.606238407879,0.0,0.0,0.0,-0.261138285236,0.965301401628
1449616897354033674,184,1449616897349466459,,1449616894906829212,/move_base-31-1449616894.906829212,1,This goal has been accepted by the simple action server,0,1449616897310269043,odom,1.09205862374,-0.604812911329,0.0,0.0,0.0,-0.256033987268,0.966667780245
1449616897444094070,185,1449616897438011665,,1449616894906829212,/move_base-31-1449616894.906829212,1,This goal has been accepted by the simple action server,0,1449616897430286241,odom,1.09457578122,-0.606211885052,0.0,0.0,0.0,-0.250922540614,0.968007168678
1449616897576204328,186,1449616897562831831,,1449616894906829212,/move_base-31-1449616894.906829212,1,This goal has been accepted by the simple action server,0,1449616897550580326,odom,1.09457578122,-0.606211885052,0.0,0.0,0.0,-0.250922540614,0.968007168678
1449616897745138888,187,1449616897744665571,,1449616894906829212,/move_base-31-1449616894.906829212,1,This goal has been accepted by the simple action server,0,1449616897710266987,odom,1.09459014205,-0.606185052722,0.0,0.0,0.0,-0.240678772307,0.970604826158
1449616897850151462,188,1449616897846634654,,1449616894906829212,/move_base-31-1449616894.906829212,1,This goal has been accepted by the simple action server,0,1449616897830270248,odom,1.09459014205,-0.606185052722,0.0,0.0,0.0,-0.240678772307,0.970604826158
1449616897966697881,189,1449616897964454346,,1449616894906829212,/move_base-31-1449616894.906829212,1,This goal has been accepted by the simple action server,0,1449616897950265639,odom,1.09459014205,-0.606185052722,0.0,0.0,0.0,-0.240678772307,0.970604826158
1449616898125003326,190,1449616898092647881,,1449616894906829212,/move_base-31-1449616894.906829212,1,This goal has been accepted by the simple action server,0,1449616898071108683,odom,1.09715038041,-0.607503532453,0.0,0.0,0.0,-0.235546736669,0.971863022676
1449616898204782937,191,1449616898195361199,,1449616898169665922,/move_base-32-1449616898.169665922,1,This goal has been accepted by the simple action server,0,1449616898190263328,odom,1.09715038041,-0.607503532453,0.0,0.0,0.0,-0.235546736669,0.971863022676
1449616898204789119,192,1449616898195381365,,1449616898169665922,/move_base-32-1449616898.169665922,1,This goal has been accepted by the simple action server,0,1449616898190263328,odom,1.09715038041,-0.607503532453,0.0,0.0,0.0,-0.235546736669,0.971863022676
1449616898245723308,193,1449616898242524712,,1449616898169665922,/move_base-32-1449616898.169665922,1,This goal has been accepted by the simple action server,0,1449616898230276411,odom,1.09715038041,-0.607503532453,0.0,0.0,0.0,-0.235546736669,0.971863022676
1449616898381925706,194,1449616898368686229,,1449616898169665922,/move_base-32-1449616898.169665922,1,This goal has been accepted by the simple action server,0,1449616898350266804,odom,1.09715038041,-0.607503532453,0.0,0.0,0.0,-0.235546736669,0.971863022676
1449616898488390448,195,1449616898488210543,,1449616898169665922,/move_base-32-1449616898.169665922,1,This goal has been accepted by the simple action server,0,1449616898470276956,odom,1.0997244093,-0.608794882338,0.0,0.0,0.0,-0.230408124366,0.973094083954
1449616898652458401,196,1449616898636083625,,1449616898169665922,/move_base-32-1449616898.169665922,1,This goal has been accepted by the simple action server,0,1449616898630272414,odom,1.09973762337,-0.608767467096,0.0,0.0,0.0,-0.220111743843,0.97547466406
1449616898758396940,197,1449616898756904932,,1449616898169665922,/move_base-32-1449616898.169665922,1,This goal has been accepted by the simple action server,0,1449616898750273272,odom,1.09973762337,-0.608767467096,0.0,0.0,0.0,-0.220111743843,0.97547466406
1449616898834353369,198,1449616898834074290,,1449616898169665922,/move_base-32-1449616898.169665922,1,This goal has been accepted by the simple action server,0,1449616898830648209,odom,1.10235129301,-0.609976574316,0.0,0.0,0.0,-0.214954263107,0.976624116419
1449616898918712829,199,1449616898907481331,,1449616898169665922,/move_base-32-1449616898.169665922,1,This goal has been accepted by the simple action server,0,1449616898870961226,odom,1.10235129301,-0.609976574316,0.0,0.0,0.0,-0.214954263107,0.976624116419
1449616899003626772,200,1449616898993432783,,1449616898169665922,/move_base-32-1449616898.169665922,1,This goal has been accepted by the simple action server,0,1449616898990284199,odom,1.10497759437,-0.611157993145,0.0,0.0,0.0,-0.209790780666,0.977746300606
1449616899098150382,201,1449616899093893988,,1449616898169665922,/move_base-32-1449616898.169665922,1,This goal has been accepted by the simple action server,0,1449616899070275263,odom,1.10761623412,-0.612311591637,0.0,0.0,0.0,-0.204621440688,0.978841185285
1449616899228504529,202,1449616899208784648,,1449616898169665922,/move_base-32-1449616898.169665922,1,This goal has been accepted by the simple action server,0,1449616899190266231,odom,1.1102669176,-0.613437240957,0.0,0.0,0.0,-0.199446387505,0.979908739889
1449616899318554091,203,1449616899313151527,,1449616898169665922,/move_base-32-1449616898.169665922,1,This goal has been accepted by the simple action server,0,1449616899270263591,odom,1.11823071569,-0.616786114027,0.0,0.0,0.0,-0.194265765611,0.98094893461
1449616899425479734,204,1449616899407905304,,1449616898169665922,/move_base-32-1449616898.169665922,1,This goal has been accepted by the simple action server,0,1449616899390269672,odom,1.12358963035,-0.618896551054,0.0,0.0,0.0,-0.183888394426,0.982947128993
1449616899552659970,205,1449616899548629588,,1449616898169665922,/move_base-32-1449616898.169665922,1,This goal has been accepted by the simple action server,0,1449616899510402532,odom,1.13438372116,-0.62291851238,0.0,0.0,0.0,-0.173490486104,0.984835545272
1449616899666019530,206,1449616899661808121,,1449616898169665922,/move_base-32-1449616898.169665922,1,This goal has been accepted by the simple action server,0,1449616899630297915,odom,1.14528029342,-0.626653921659,0.0,0.0,0.0,-0.163073201911,0.986613972544
1449616899772745893,207,1449616899767602663,,1449616898169665922,/move_base-32-1449616898.169665922,1,This goal has been accepted by the simple action server,0,1449616899750272945,odom,1.15903540277,-0.630910873732,0.0,0.0,0.0,-0.147413491427,0.989074952946
1449616899832634657,208,1449616899829224201,,1449616898169665922,/move_base-32-1449616898.169665922,1,This goal has been accepted by the simple action server,0,1449616899790270797,odom,1.16457893469,-0.632473592771,0.0,0.0,0.0,-0.136952861975,0.990577565664
1449616899924095026,209,1449616899922728771,,1449616898169665922,/move_base-32-1449616898.169665922,1,This goal has been accepted by the simple action server,0,1449616899910265371,odom,1.18131082023,-0.636779326169,0.0,0.0,0.0,-0.115986887289,0.993250744765
1449616900054969136,210,1449616900045079523,,1449616898169665922,/move_base-32-1449616898.169665922,1,This goal has been accepted by the simple action server,0,1449616900030927210,odom,1.19815864313,-0.64061216473,0.0,0.0,0.0,-0.10548388359,0.994421012601
1449616900141754036,211,1449616900137217224,,1449616898169665922,/move_base-32-1449616898.169665922,1,This goal has been accepted by the simple action server,0,1449616900110267194,odom,1.2122913333,-0.643364449482,0.0,0.0,0.0,-0.0897076561262,0.99596814027
1449616900216565625,212,1449616900215521017,,1449616898169665922,/move_base-32-1449616898.169665922,1,This goal has been accepted by the simple action server,0,1449616900190267719,odom,1.22079694286,-0.64487826483,0.0,0.0,0.0,-0.0844437083633,0.996428251365
1449616900268473917,213,1449616900266360480,,1449616898169665922,/move_base-32-1449616898.169665922,1,This goal has been accepted by the simple action server,0,1449616900230264253,odom,1.22932800106,-0.646242057086,0.0,0.0,0.0,-0.0791774028604,0.996860541338
1449616900345375111,214,1449616900343445674,,1449616898169665922,/move_base-32-1449616898.169665922,1,This goal has been accepted by the simple action server,0,1449616900310266035,odom,1.243569658,-0.648364658985,0.0,0.0,0.0,-0.0739088866573,0.997264998119
1449616900440589438,215,1449616900434141674,,1449616898169665922,/move_base-32-1449616898.169665922,1,This goal has been accepted by the simple action server,0,1449616900430265000,odom,1.26070565273,-0.650580192076,0.0,0.0,0.0,-0.0633658106137,0.997990367712
1449616900509555504,216,1449616900498261340,,1449616898169665922,/move_base-32-1449616898.169665922,1,This goal has been accepted by the simple action server,0,1449616900470359645,odom,1.2664331066,-0.651187735631,0.0,0.0,0.0,-0.0528156577107,0.998604279132
1449616900614138369,217,1449616900611296326,,1449616898169665922,/move_base-32-1449616898.169665922,1,This goal has been accepted by the simple action server,0,1449616900590287184,odom,1.28937551488,-0.653284733761,0.0,0.0,0.0,-0.042259606217,0.999106663816
1449616900708782373,218,1449616900702219787,,1449616898169665922,/move_base-32-1449616898.169665922,1,This goal has been accepted by the simple action server,0,1449616900670276320,odom,1.30373510001,-0.654348945331,0.0,0.0,0.0,-0.0369797368913,0.999316015612
1449616900788423293,219,1449616900786410946,,1449616898169665922,/move_base-32-1449616898.169665922,1,This goal has been accepted by the simple action server,0,1449616900750280814,odom,1.32098443947,-0.655352681161,0.0,0.0,0.0,-0.0264170481704,0.999651008886
1449616900886439190,220,1449616900870916735,,1449616898169665922,/move_base-32-1449616898.169665922,1,This goal has been accepted by the simple action server,0,1449616900830276998,odom,1.33536764915,-0.6560219743,0.0,0.0,0.0,-0.0211345236944,0.999776641009
1449616901007794704,221,1449616901003804583,,1449616898169665922,/move_base-32-1449616898.169665922,1,This goal has been accepted by the simple action server,0,1449616900990274059,odom,1.36127276379,-0.656843549126,0.0,0.0,0.0,-0.0158514091245,0.999874358521
1449616901145771231,222,1449616901139065923,,1449616898169665922,/move_base-32-1449616898.169665922,1,This goal has been accepted by the simple action server,0,1449616901110274818,odom,1.40446837628,-0.657087014958,0.0,0.0,0.0,-1.33226762955e-15,1.0
1449616901216915761,223,1449616901207628025,,1449616898169665922,/move_base-32-1449616898.169665922,1,This goal has been accepted by the simple action server,0,1449616901191431936,odom,1.42750302384,-0.656691399976,0.0,0.0,0.0,0.0105678519699,0.999944158693
1449616901325358464,224,1449616901316243099,,1449616898169665922,/move_base-32-1449616898.169665922,1,This goal has been accepted by the simple action server,0,1449616901310278779,odom,1.45916804649,-0.655808945097,0.0,0.0,0.0,0.0158514091245,0.999874358521
1449616901382823169,225,1449616901375191569,,1449616898169665922,/move_base-32-1449616898.169665922,1,This goal has been accepted by the simple action server,0,1449616901350264825,odom,1.4735541497,-0.65520045045,0.0,0.0,0.0,0.0211345236944,0.999776641009
1449616901459385538,226,1449616901457236997,,1449616898169665922,/move_base-32-1449616898.169665922,1,This goal has been accepted by the simple action server,0,1449616901430274463,odom,1.49657191484,-0.654226859015,0.0,0.0,0.0,0.0211345236944,0.999776641009
1449616901575540103,227,1449616901564595536,,1449616898169665922,/move_base-32-1449616898.169665922,1,This goal has been accepted by the simple action server,0,1449616901550283150,odom,1.53106882581,-0.652189005095,0.0,0.0,0.0,0.0316988350601,0.999497465658
1449616901675186668,228,1449616901673766143,,1449616898169665922,/move_base-32-1449616898.169665922,1,This goal has been accepted by the simple action server,0,1449616901670278678,odom,1.56840374714,-0.649422055012,0.0,0.0,0.0,0.0369797368913,0.999316015612
1449616901819992727,229,1449616901814025671,,1449616898169665922,/move_base-32-1449616898.169665922,1,This goal has been accepted by the simple action server,0,1449616901790270381,odom,1.60570734293,-0.646260709518,0.0,0.0,0.0,0.042259606217,0.999106663816
1449616901948439991,230,1449616901943479032,,1449616898169665922,/move_base-32-1449616898.169665922,1,This goal has been accepted by the simple action server,0,1449616901910286925,odom,1.642975447,-0.642705321678,0.0,0.0,0.0,0.0475382956186,0.998869416115
1449616902041509469,231,1449616902040068614,,1449616898169665922,/move_base-32-1449616898.169665922,1,This goal has been accepted by the simple action server,0,1449616902030275280,odom,1.68022219897,-0.638937971001,0.0,0.0,0.0,0.0528156577107,0.998604279132
1449616902116882015,232,1449616902116309597,,1449616898169665922,/move_base-32-1449616898.169665922,1,This goal has been accepted by the simple action server,0,1449616902110275607,odom,1.705985631,-0.636113285565,0.0,0.0,0.0,0.0580915451448,0.99831126027
1449616902181918779,233,1449616902180670033,,1449616898169665922,/move_base-32-1449616898.169665922,1,This goal has been accepted by the simple action server,0,1449616902150267325,odom,1.71742705822,-0.634777212537,0.0,0.0,0.0,0.0580915451448,0.99831126027
1449616902243565151,234,1449616902237147638,,1449616898169665922,/move_base-32-1449616898.169665922,1,This goal has been accepted by the simple action server,0,1449616902230272373,odom,1.74032676332,-0.632256298878,0.0,0.0,0.0,0.0580915451448,0.99831126027
1449616902295571108,235,1449616902295208655,,1449616898169665922,/move_base-32-1449616898.169665922,1,This goal has been accepted by the simple action server,0,1449616902270274121,odom,1.75176819054,-0.63092022585,0.0,0.0,0.0,0.0580915451448,0.99831126027
1449616902385789282,236,1449616902381944565,,1449616898169665922,/move_base-32-1449616898.169665922,1,This goal has been accepted by the simple action server,0,1449616902350270091,odom,1.77747819556,-0.62764217896,0.0,0.0,0.0,0.0633658106137,0.997990367712
1449616902470950849,237,1449616902469926079,,1449616898169665922,/move_base-32-1449616898.169665922,1,This goal has been accepted by the simple action server,0,1449616902430267419,odom,1.79461819891,-0.625456814367,0.0,0.0,0.0,0.0633658106137,0.997990367712
1449616902516887959,238,1449616902513992543,,1449616898169665922,/move_base-32-1449616898.169665922,1,This goal has been accepted by the simple action server,0,1449616902470271811,odom,1.80317617472,-0.624273626578,0.0,0.0,0.0,0.0686383068554,0.997641610415
1449616902561624039,239,1449616902556539330,,1449616898169665922,/move_base-32-1449616898.169665922,1,This goal has been accepted by the simple action server,0,1449616902550459749,odom,1.82029212633,-0.621907251,0.0,0.0,0.0,0.0686383068554,0.997641610415
1449616902629853430,240,1449616902627004997,,1449616898169665922,/move_base-32-1449616898.169665922,1,This goal has been accepted by the simple action server,0,1449616902590267688,odom,1.8288371205,-0.620633689861,0.0,0.0,0.0,0.0739088866573,0.997264998119
