%time,field.header.seq,field.header.stamp,field.header.frame_id,field.polygon.points0.x,field.polygon.points0.y,field.polygon.points0.z,field.polygon.points1.x,field.polygon.points1.y,field.polygon.points1.z,field.polygon.points2.x,field.polygon.points2.y,field.polygon.points2.z,field.polygon.points3.x,field.polygon.points3.y,field.polygon.points3.z,field.polygon.points4.x,field.polygon.points4.y,field.polygon.points4.z
1449616881686443550,1,1449616881686022994,odom,0.479999989271,0.0,0.0,0.329999983311,-0.264999985695,0.0,-0.539999961853,-0.264999985695,0.0,-0.539999961853,0.264999985695,0.0,0.329999983311,0.264999985695,0.0
1449616881885899015,2,1449616881885691261,odom,0.479999989271,0.0,0.0,0.329999983311,-0.264999985695,0.0,-0.539999961853,-0.264999985695,0.0,-0.539999961853,0.264999985695,0.0,0.329999983311,0.264999985695,0.0
1449616882195633166,3,1449616882195284273,odom,0.479999989271,0.0,0.0,0.329999983311,-0.264999985695,0.0,-0.539999961853,-0.264999985695,0.0,-0.539999961853,0.264999985695,0.0,0.329999983311,0.264999985695,0.0
1449616882381799252,4,1449616882379761478,odom,0.479999989271,0.0,0.0,0.329999983311,-0.264999985695,0.0,-0.539999961853,-0.264999985695,0.0,-0.539999961853,0.264999985695,0.0,0.329999983311,0.264999985695,0.0
1449616882562023088,5,1449616882561747415,odom,0.479999989271,0.0,0.0,0.329999983311,-0.264999985695,0.0,-0.539999961853,-0.264999985695,0.0,-0.539999961853,0.264999985695,0.0,0.329999983311,0.264999985695,0.0
1449616882777075749,6,1449616882775220215,odom,0.479999989271,0.0,0.0,0.329999983311,-0.264999985695,0.0,-0.539999961853,-0.264999985695,0.0,-0.539999961853,0.264999985695,0.0,0.329999983311,0.264999985695,0.0
1449616882967969513,7,1449616882967871128,odom,0.479999989271,0.0,0.0,0.329999983311,-0.264999985695,0.0,-0.539999961853,-0.264999985695,0.0,-0.539999961853,0.264999985695,0.0,0.329999983311,0.264999985695,0.0
1449616883163319386,8,1449616883160023540,odom,0.479999989271,0.0,0.0,0.329999983311,-0.264999985695,0.0,-0.539999961853,-0.264999985695,0.0,-0.539999961853,0.264999985695,0.0,0.329999983311,0.264999985695,0.0
1449616883361748021,9,1449616883361463896,odom,0.479999989271,0.0,0.0,0.329999983311,-0.264999985695,0.0,-0.539999961853,-0.264999985695,0.0,-0.539999961853,0.264999985695,0.0,0.329999983311,0.264999985695,0.0
1449616883581989535,10,1449616883579208558,odom,0.479999989271,0.0,0.0,0.329999983311,-0.264999985695,0.0,-0.539999961853,-0.264999985695,0.0,-0.539999961853,0.264999985695,0.0,0.329999983311,0.264999985695,0.0
1449616883798792681,11,1449616883798447898,odom,0.479999989271,0.0,0.0,0.329999983311,-0.264999985695,0.0,-0.539999961853,-0.264999985695,0.0,-0.539999961853,0.264999985695,0.0,0.329999983311,0.264999985695,0.0
1449616883978502018,12,1449616883978162765,odom,0.479999989271,0.0,0.0,0.329999983311,-0.264999985695,0.0,-0.539999961853,-0.264999985695,0.0,-0.539999961853,0.264999985695,0.0,0.329999983311,0.264999985695,0.0
1449616884173908217,13,1449616884170694368,odom,0.479999989271,0.0,0.0,0.329999983311,-0.264999985695,0.0,-0.539999961853,-0.264999985695,0.0,-0.539999961853,0.264999985695,0.0,0.329999983311,0.264999985695,0.0
1449616884384762816,14,1449616884372080110,odom,0.479999989271,0.0,0.0,0.329999983311,-0.264999985695,0.0,-0.539999961853,-0.264999985695,0.0,-0.539999961853,0.264999985695,0.0,0.329999983311,0.264999985695,0.0
1449616884610598318,15,1449616884610426685,odom,0.479999989271,0.0,0.0,0.329999983311,-0.264999985695,0.0,-0.539999961853,-0.264999985695,0.0,-0.539999961853,0.264999985695,0.0,0.329999983311,0.264999985695,0.0
1449616884788836258,16,1449616884788476935,odom,0.479999989271,0.0,0.0,0.329999983311,-0.264999985695,0.0,-0.539999961853,-0.264999985695,0.0,-0.539999961853,0.264999985695,0.0,0.329999983311,0.264999985695,0.0
1449616884984103376,17,1449616884983787753,odom,0.479999989271,0.0,0.0,0.329999983311,-0.264999985695,0.0,-0.539999961853,-0.264999985695,0.0,-0.539999961853,0.264999985695,0.0,0.329999983311,0.264999985695,0.0
1449616885175008067,18,1449616885174382198,odom,0.479999989271,0.0,0.0,0.329999983311,-0.264999985695,0.0,-0.539999961853,-0.264999985695,0.0,-0.539999961853,0.264999985695,0.0,0.329999983311,0.264999985695,0.0
1449616885396539481,19,1449616885395475969,odom,0.479999989271,0.0,0.0,0.329999983311,-0.264999985695,0.0,-0.539999961853,-0.264999985695,0.0,-0.539999961853,0.264999985695,0.0,0.329999983311,0.264999985695,0.0
1449616885596381141,20,1449616885596259271,odom,0.479999989271,0.0,0.0,0.329999983311,-0.264999985695,0.0,-0.539999961853,-0.264999985695,0.0,-0.539999961853,0.264999985695,0.0,0.329999983311,0.264999985695,0.0
1449616885828470530,21,1449616885825201206,odom,0.479999989271,0.0,0.0,0.329999983311,-0.264999985695,0.0,-0.539999961853,-0.264999985695,0.0,-0.539999961853,0.264999985695,0.0,0.329999983311,0.264999985695,0.0
1449616885992467757,22,1449616885989922969,odom,0.479999989271,0.0,0.0,0.329999983311,-0.264999985695,0.0,-0.539999961853,-0.264999985695,0.0,-0.539999961853,0.264999985695,0.0,0.329999983311,0.264999985695,0.0
1449616886213824636,23,1449616886211823576,odom,0.479999989271,0.0,0.0,0.329999983311,-0.264999985695,0.0,-0.539999961853,-0.264999985695,0.0,-0.539999961853,0.264999985695,0.0,0.329999983311,0.264999985695,0.0
1449616886390266578,24,1449616886389661745,odom,0.479999989271,0.0,0.0,0.329999983311,-0.264999985695,0.0,-0.539999961853,-0.264999985695,0.0,-0.539999961853,0.264999985695,0.0,0.329999983311,0.264999985695,0.0
1449616886629235735,25,1449616886627025501,odom,0.479999989271,0.0,0.0,0.329999983311,-0.264999985695,0.0,-0.539999961853,-0.264999985695,0.0,-0.539999961853,0.264999985695,0.0,0.329999983311,0.264999985695,0.0
1449616887046598922,26,1449616887046016796,odom,0.479999989271,0.0,0.0,0.329999983311,-0.264999985695,0.0,-0.539999961853,-0.264999985695,0.0,-0.539999961853,0.264999985695,0.0,0.329999983311,0.264999985695,0.0
1449616887194459864,27,1449616887194084049,odom,0.479999989271,0.0,0.0,0.329999983311,-0.264999985695,0.0,-0.539999961853,-0.264999985695,0.0,-0.539999961853,0.264999985695,0.0,0.329999983311,0.264999985695,0.0
1449616887373753597,28,1449616887373277705,odom,0.479999989271,0.0,0.0,0.329999983311,-0.264999985695,0.0,-0.539999961853,-0.264999985695,0.0,-0.539999961853,0.264999985695,0.0,0.329999983311,0.264999985695,0.0
1449616887830902698,29,1449616887829973329,odom,0.497169613838,-0.0103880306706,0.0,0.341602474451,-0.272158652544,0.0,-0.528203189373,-0.25377163291,0.0,-0.517001867294,0.276109993458,0.0,0.352803766727,0.257722944021,0.0
1449616888016670612,30,1449616888009517461,odom,0.534459710121,-0.0164326578379,0.0,0.376134932041,-0.27654466033,0.0,-0.493427842855,-0.248966664076,0.0,-0.476627469063,0.280766963959,0.0,0.392935305834,0.253188997507,0.0
1449616888148326797,31,1449616888148014951,odom,0.562805652618,-0.0276944432408,0.0,0.3990188241,-0.284402221441,0.0,-0.46976685524,-0.238452598453,0.0,-0.4417745471,0.290807664394,0.0,0.42701113224,0.244858041406,0.0
1449616888238283523,32,1449616888237320528,odom,0.574308753014,-0.0283028353006,0.0,0.410521924496,-0.28501060605,0.0,-0.458263754845,-0.239060997963,0.0,-0.430271476507,0.290199249983,0.0,0.438514232635,0.244249641895,0.0
1449616888470148447,33,1449616888469909641,odom,0.599873840809,-0.0351003184915,0.0,0.433383345604,-0.290062874556,0.0,-0.434868246317,-0.234934642911,0.0,-0.401284366846,0.29400023818,0.0,0.466967225075,0.238871991634,0.0
1449616888721613871,34,1449616888718250277,odom,0.615376293659,-0.0567759647965,0.0,0.438259929419,-0.304474949837,0.0,-0.426886320114,-0.212703973055,0.0,-0.370979875326,0.314339160919,0.0,0.494166374207,0.222568184137,0.0
1449616888995144289,35,1449616888993946620,odom,0.617674946785,-0.0621514245868,0.0,0.437950789928,-0.307964831591,0.0,-0.426177322865,-0.207056239247,0.0,-0.364704281092,0.319366633892,0.0,0.499423831701,0.21845805645,0.0
1449616889184765291,36,1449616889179415017,odom,0.613198935986,-0.0921897962689,0.0,0.41825979948,-0.326120853424,0.0,-0.437737584114,-0.170658871531,0.0,-0.343030840158,0.350810796022,0.0,0.512966513634,0.195348829031,0.0
1449616889384675722,37,1449616889384114301,odom,0.610837519169,-0.117558076978,0.0,0.403815239668,-0.340866774321,0.0,-0.442776590586,-0.14041171968,0.0,-0.3206602633,0.375328123569,0.0,0.525931537151,0.174873068929,0.0
1449616890046049484,38,1449616890045463526,odom,0.606473445892,-0.163963854313,0.0,0.379179447889,-0.366602540016,0.0,-0.444548934698,-0.086653418839,0.0,-0.274005234241,0.415158122778,0.0,0.549723148346,0.135209023952,0.0
1449616890215902347,39,1449616890210776201,odom,0.610816597939,-0.160050243139,0.0,0.3856767416,-0.36507961154,0.0,-0.440964102745,-0.0938511788845,0.0,-0.27573299408,0.409734636545,0.0,0.550907850266,0.138506188989,0.0
1449616890854900343,40,1449616890852715578,odom,0.61738961935,-0.167641624808,0.0,0.390095591545,-0.370280325413,0.0,-0.43363276124,-0.0903312042356,0.0,-0.263089060783,0.411480337381,0.0,0.560639321804,0.131531238556,0.0
1449616891142084734,41,1449616891141395785,odom,0.688002705574,-0.232932180166,0.0,0.446353554726,-0.418217599392,0.0,-0.354431182146,-0.0781533047557,0.0,-0.147265568376,0.409681081772,0.0,0.653519153595,0.0696168020368,0.0
1449616891441205429,42,1449616891441005282,odom,0.742246448994,-0.273985803127,0.0,0.494845420122,-0.451518118382,0.0,-0.294757276773,-0.0862407684326,0.0,-0.0722319856286,0.394781559706,0.0,0.717370688915,0.0295042227954,0.0
1449616891650298399,43,1449616891649683180,odom,0.795313179493,-0.329049140215,0.0,0.538880944252,-0.493266999722,0.0,-0.230327293277,-0.0867960974574,0.0,0.0172929205,0.381802052259,0.0,0.786501169205,-0.0246688611805,0.0
1449616891969898518,44,1449616891967588942,odom,0.850727617741,-0.389104306698,0.0,0.585980057716,-0.539549350739,0.0,-0.160686582327,-0.093019515276,0.0,0.111337341368,0.361846387386,0.0,0.858003973961,-0.0846834480762,0.0
1449616892221917995,45,1449616892220284937,odom,0.889758050442,-0.42462053895,0.0,0.62189000845,-0.56943666935,0.0,-0.11517264694,-0.107226125896,0.0,0.166403889656,0.341789066792,0.0,0.903466522694,-0.120421461761,0.0
1449616892469679311,46,1449616892465252267,odom,0.918188333511,-0.454962164164,0.0,0.647319495678,-0.59408468008,0.0,-0.0798099413514,-0.116399914026,0.0,0.211193427444,0.326563984156,0.0,0.938322842121,-0.151120766997,0.0
1449616893050332323,47,1449616893049585112,odom,1.00641667843,-0.540106356144,0.0,0.729910552502,-0.667657732964,0.0,0.023617438972,-0.159671530128,0.0,0.33308032155,0.270598977804,0.0,1.03937339783,-0.237387239933,0.0
1449616893379779519,48,1449616893374884104,odom,1.08431768417,-0.609155714512,0.0,0.805177569389,-0.730834841728,0.0,0.109778292477,-0.208034873009,0.0,0.428265631199,0.215599179268,0.0,1.12366485596,-0.307200759649,0.0
1449616893693769155,49,1449616893692248090,odom,1.12025046349,-0.642782688141,0.0,0.839840114117,-0.761505067348,0.0,0.150004535913,-0.231385439634,0.0,0.472950994968,0.188859224319,0.0,1.16278660297,-0.341260403395,0.0
1449616894189637270,50,1449616894188646453,odom,1.24434018135,-0.731744766235,0.0,0.965200066566,-0.853423833847,0.0,0.269800752401,-0.330623924732,0.0,0.588288068771,0.0930101424456,0.0,1.28368735313,-0.429789811373,0.0
1449616894286035938,51,1449616894284703004,odom,1.31065070629,-0.767953395844,0.0,1.03414452076,-0.895504832268,0.0,0.327851474285,-0.387518584728,0.0,0.637314379215,0.0427519232035,0.0,1.34360742569,-0.465234309435,0.0
1449616894492922140,52,1449616894492722389,odom,1.35356450081,-0.792082607746,0.0,1.07842171192,-0.922548949718,0.0,0.366799771786,-0.422055095434,0.0,0.671698331833,0.0114617468789,0.0,1.38332033157,-0.489032119513,0.0
1449616894710656335,53,1449616894709927381,odom,1.40140724182,-0.819120287895,0.0,1.12765860558,-0.952486991882,0.0,0.410787194967,-0.459541410208,0.0,0.711087405682,-0.0228266641498,0.0,1.42795872688,-0.515772283077,0.0
1449616895074278720,54,1449616895065132135,odom,1.45446681976,-0.848637223244,0.0,1.18214285374,-0.984889447689,0.0,0.460102111101,-0.499547183514,0.0,0.755770385265,-0.0596832819283,0.0,1.4778110981,-0.545025587082,0.0
1449616895286132960,55,1449616895271409470,odom,1.47850179672,-0.864499807358,0.0,1.20617794991,-1.00075209141,0.0,0.484137177467,-0.515409767628,0.0,0.779805481434,-0.0755458548665,0.0,1.50184619427,-0.560888111591,0.0
1449616895638252131,56,1449616895637348742,odom,1.49334383011,-0.86818087101,0.0,1.22247493267,-1.00730335712,0.0,0.495345532894,-0.529618620872,0.0,0.786348879337,-0.0866547301412,0.0,1.51347827911,-0.564339518547,0.0
1449616895849428765,57,1449616895849196252,odom,1.49853003025,-0.865482270718,0.0,1.22914648056,-1.00745952129,0.0,0.497009575367,-0.537485659122,0.0,0.78331553936,-0.0914711803198,0.0,1.51545250416,-0.561445057392,0.0
1449616896062652166,58,1449616896061001830,odom,1.49853003025,-0.865482270718,0.0,1.22914648056,-1.00745952129,0.0,0.497009575367,-0.537485659122,0.0,0.78331553936,-0.0914711803198,0.0,1.51545250416,-0.561445057392,0.0
1449616896387362050,59,1449616896387127739,odom,1.49853003025,-0.865482270718,0.0,1.22914648056,-1.00745952129,0.0,0.497009575367,-0.537485659122,0.0,0.78331553936,-0.0914711803198,0.0,1.51545250416,-0.561445057392,0.0
1449616896925899176,60,1449616896924390576,odom,1.49853003025,-0.865482270718,0.0,1.22914648056,-1.00745952129,0.0,0.497009575367,-0.537485659122,0.0,0.78331553936,-0.0914711803198,0.0,1.51545250416,-0.561445057392,0.0
1449616897077629380,61,1449616897076250512,odom,1.50368738174,-0.862729012966,0.0,1.23581933975,-1.00754511356,0.0,0.498756706715,-0.545334637165,0.0,0.780333220959,-0.0963194146752,0.0,1.517395854,-0.55852997303,0.0
1449616897281540374,62,1449616897281144265,odom,1.50900185108,-0.854051589966,0.0,1.24425435066,-1.0044965744,0.0,0.497587680817,-0.557966768742,0.0,0.769611597061,-0.103100888431,0.0,1.51627826691,-0.549630701542,0.0
1449616897519801130,63,1449616897517541610,odom,1.50912737846,-0.84241271019,0.0,1.24761843681,-0.998419463634,0.0,0.491681426764,-0.567769825459,0.0,0.75403124094,-0.107256442308,0.0,1.50996828079,-0.537906110287,0.0
1449616897878396726,64,1449616897874789019,odom,1.51898086071,-0.830444872379,0.0,1.26254868507,-0.994662761688,0.0,0.493340432644,-0.588191866875,0.0,0.740960657597,-0.119593694806,0.0,1.51016891003,-0.526064574718,0.0
1449616898125009040,65,1449616898088698050,odom,1.51898086071,-0.830444872379,0.0,1.26254868507,-0.994662761688,0.0,0.493340432644,-0.588191866875,0.0,0.740960657597,-0.119593694806,0.0,1.51016891003,-0.526064574718,0.0
1449616898382002804,66,1449616898365873986,odom,1.52388739586,-0.827265918255,0.0,1.26920497417,-0.994184553623,0.0,0.495744109154,-0.595865249634,0.0,0.738398432732,-0.124676451087,0.0,1.51185917854,-0.522995769978,0.0
1449616898652236260,67,1449616898647087668,odom,1.52876007557,-0.824035286903,0.0,1.27585577965,-0.993636071682,0.0,0.498228728771,-0.603512823582,0.0,0.735890030861,-0.129785999656,0.0,1.51351702213,-0.519909262657,0.0
1449616898889722012,68,1449616898889330314,odom,1.53322637081,-0.814892351627,0.0,1.28396308422,-0.989800274372,0.0,0.49826464057,-0.616198897362,0.0,0.725860893726,-0.13755504787,0.0,1.51155924797,-0.511156380177,0.0
1449616899042005588,69,1449616899039680958,odom,1.53799414635,-0.811508893967,0.0,1.29059314728,-0.989041209221,0.0,0.500990450382,-0.623763859272,0.0,0.723515748978,-0.142741546035,0.0,1.51311838627,-0.508018910885,0.0
1449616899227148451,70,1449616899220066545,odom,1.54742109776,-0.804591834545,0.0,1.30382740498,-0.98731315136,0.0,0.506681084633,-0.638805270195,0.0,0.718990504742,-0.153187423944,0.0,1.51613676548,-0.501695334911,0.0
1449616899577102422,71,1449616899575267077,odom,1.56200110912,-0.79972833395,0.0,1.32232356071,-0.987557113171,0.0,0.517989754677,-0.655974388123,0.0,0.719988405704,-0.165977925062,0.0,1.52432215214,-0.49756065011,0.0
1449616899901095572,72,1449616899900135130,odom,1.59975111485,-0.781108617783,0.0,1.37245714664,-0.983747303486,0.0,0.548728764057,-0.703798174858,0.0,0.719272494316,-0.201986625791,0.0,1.5430008173,-0.481935739517,0.0
1449616900257042256,73,1449616900255398180,odom,1.66747689247,-0.741311728954,0.0,1.46522033215,-0.968945860863,0.0,0.614581108093,-0.786427915096,0.0,0.725770235062,-0.268222391605,0.0,1.57640945911,-0.450740367174,0.0
1449616900412719016,74,1449616900408437108,odom,1.71832561493,-0.719123125076,0.0,1.53089976311,-0.959115982056,0.0,0.670404613018,-0.830866217613,0.0,0.748533785343,-0.306656509638,0.0,1.60902893543,-0.434906244278,0.0
1449616900909608740,75,1449616900909298656,odom,1.75286388397,-0.697593390942,0.0,1.57837510109,-0.947150290012,0.0,0.712307333946,-0.86452716589,0.0,0.762640953064,-0.336922645569,0.0,1.62870872021,-0.419545769691,0.0
1449616901235570560,76,1449616901235005926,odom,1.84103155136,-0.672058999538,0.0,1.68270671368,-0.932170987129,0.0,0.813143968582,-0.904592990875,0.0,0.829944372177,-0.374859362841,0.0,1.69950711727,-0.402437329292,0.0
1449616901412310403,77,1449616901410401316,odom,1.93892681599,-0.640593528748,0.0,1.7974023819,-0.910215139389,0.0,0.927839636803,-0.937793135643,0.0,0.911039233208,-0.408059477806,0.0,1.7806019783,-0.380481511354,0.0
1449616901546718814,78,1449616901545238193,odom,1.97614312172,-0.633942246437,0.0,1.83747589588,-0.905044436455,0.0,0.968253135681,-0.941810309887,0.0,0.945855557919,-0.412283778191,0.0,1.81507825851,-0.375517934561,0.0
1449616901787197035,79,1449616901786353690,odom,2.02411556244,-0.615648508072,0.0,1.89411175251,-0.89101010561,0.0,1.02649116516,-0.955310821533,0.0,0.987319469452,-0.4267603755,0.0,1.8549400568,-0.362459629774,0.0
1449616902255741684,80,1449616902251911279,odom,2.15754437447,-0.588305711746,0.0,2.0363342762,-0.86764985323,0.0,1.17118811607,-0.959420800209,0.0,1.11528170109,-0.432377696037,0.0,1.98042786121,-0.340606719255,0.0
1449616902515401779,81,1449616902511025181,odom,2.2285284996,-0.57524651289,0.0,2.11027741432,-0.855856001377,0.0,1.24614930153,-0.956764578819,0.0,1.18467628956,-0.430341690779,0.0,2.04880452156,-0.329433113337,0.0
1449616902874243984,82,1449616902872144713,odom,2.32069611549,-0.547418475151,0.0,2.21139931679,-0.831635355949,0.0,1.3509042263,-0.959885060787,0.0,1.27277505398,-0.435675352812,0.0,2.13327026367,-0.307425618172,0.0
1449616903056576739,83,1449616903055425155,odom,2.35277485847,-0.547950565815,0.0,2.24048089981,-0.830996572971,0.0,1.37867832184,-0.950145542622,0.0,1.30609333515,-0.425139456987,0.0,2.16789579391,-0.305990457535,0.0
1449616903337617621,84,1449616903333170448,odom,2.36891388893,-0.561325252056,0.0,2.24770402908,-0.840669393539,0.0,1.38255774975,-0.932440340519,0.0,1.32665121555,-0.405397236347,0.0,2.19179749489,-0.313626259565,0.0
1449616903545815362,85,1449616903544692036,odom,2.37561368942,-0.570907831192,0.0,2.24852705002,-0.847627878189,0.0,1.3816344738,-0.92109388113,0.0,1.33687925339,-0.392986923456,0.0,2.20377182961,-0.319520920515,0.0
1449616903727126544,86,1449616903726723351,odom,2.38527989388,-0.585541903973,0.0,2.24948525429,-0.858094334602,0.0,1.38069963455,-0.904043972492,0.0,1.35270738602,-0.374783724546,0.0,2.22149300575,-0.328834116459,0.0
1449616903875880729,87,1449616903874658982,odom,2.3914642334,-0.595464944839,0.0,2.2499396801,-0.865086615086,0.0,1.38037693501,-0.89266461134,0.0,1.36357653141,-0.362930953503,0.0,2.2331392765,-0.335352987051,0.0
1449616904044001783,88,1449616904043650184,odom,2.39743733406,-0.605516552925,0.0,2.25024604797,-0.872086942196,0.0,1.3802947998,-0.881280958652,0.0,1.37469387054,-0.351310551167,0.0,2.24464511871,-0.34211653471,0.0
1449616904532116066,89,1449616904530522081,odom,2.40873980522,-0.625987112522,0.0,2.25041508675,-0.886099159718,0.0,1.38085222244,-0.858521163464,0.0,1.39765262604,-0.328787505627,0.0,2.26721549034,-0.356365501881,0.0
1449616904737987055,90,1449616904737124187,odom,2.42163491249,-0.652216970921,0.0,2.24979329109,-0.9036039114,0.0,1.38290059566,-0.830137908459,0.0,1.42765581608,-0.302030920982,0.0,2.29454827309,-0.375496953726,0.0
1449616904947778659,91,1449616904939402179,odom,2.42640209198,-0.662893533707,0.0,2.24928569794,-0.910592496395,0.0,1.3841394186,-0.818821549416,0.0,1.44004583359,-0.291778415442,0.0,2.30519223213,-0.383549392223,0.0
1449616905122217083,92,1449616905117059878,odom,2.43094229698,-0.673668444157,0.0,2.24863052368,-0.917568802834,0.0,1.38561701775,-0.807533919811,0.0,1.45264983177,-0.281790047884,0.0,2.31566333771,-0.391824960709,0.0
1449616905524277739,93,1449616905523627866,odom,2.43525385857,-0.684536874294,0.0,2.24782824516,-0.924529731274,0.0,1.38733291626,-0.796280026436,0.0,1.46546208858,-0.272070288658,0.0,2.32595729828,-0.400320023298,0.0
1449616905643476593,94,1449616905642705733,odom,2.44301533699,-0.690883815289,0.0,2.25306391716,-0.928882539272,0.0,1.39397203922,-0.791546404362,0.0,1.4776365757,-0.268191605806,0.0,2.33672833443,-0.405527770519,0.0
1449616906007325931,95,1449616906007122271,odom,2.45638918877,-0.713933765888,0.0,2.25654959679,-0.943692624569,0.0,1.40402913094,-0.770174264908,0.0,1.50973570347,-0.250822633505,0.0,2.36225628853,-0.424340963364,0.0
1449616906397338179,96,1449616906382797593,odom,2.46944236755,-0.721860229969,0.0,2.26718568802,-0.949494421482,0.0,1.41654658318,-0.766976416111,0.0,1.52773559093,-0.24877089262,0.0,2.37837481499,-0.431288868189,0.0
1449616906565111645,97,1449616906559330481,odom,2.4968457222,-0.743955433369,0.0,2.2874751091,-0.965063869953,0.0,1.44304895401,-0.755673348904,0.0,1.57060873508,-0.241252794862,0.0,2.41503477097,-0.450643330812,0.0
1449616906993076918,98,1449616906992625925,odom,2.57045125961,-0.791116416454,0.0,2.34969472885,-1.00085818768,0.0,1.5175062418,-0.747161030769,0.0,1.67205750942,-0.240195602179,0.0,2.50424599648,-0.493892788887,0.0
1449616907241904966,99,1449616907220968641,odom,2.61130952835,-0.814718663692,0.0,2.38616967201,-1.01974797249,0.0,1.55952882767,-0.748519599438,0.0,1.72475993633,-0.244933769107,0.0,2.55140066147,-0.516162216663,0.0
1449616907526788530,100,1449616907523747885,odom,2.67341327667,-0.846764981747,0.0,2.44399046898,-1.04699039459,0.0,1.62326657772,-0.758351862431,0.0,1.79910385609,-0.258370608091,0.0,2.61982774734,-0.547009110451,0.0
1449616907661348123,101,1449616907655213426,odom,2.69606304169,-0.860398113728,0.0,2.46453714371,-1.05818772316,0.0,1.64690923691,-0.760892093182,0.0,1.82802045345,-0.262796998024,0.0,2.64564824104,-0.560092687607,0.0
1449616907964121163,102,1449616907962335415,odom,2.74925494194,-0.874147355556,0.0,2.51983213425,-1.07437264919,0.0,1.69910824299,-0.785734176636,0.0,1.87494552135,-0.285752922297,0.0,2.69566941261,-0.574391424656,0.0
1449616908188519073,103,1449616908188241326,odom,2.82240176201,-0.882388353348,0.0,2.59944105148,-1.08978557587,0.0,1.76998007298,-0.827308058739,0.0,1.92988014221,-0.32200422883,0.0,2.75934123993,-0.584481716156,0.0
1449616908461554568,104,1449616908453005745,odom,2.90554952621,-0.885381340981,0.0,2.69155263901,-1.1020154953,0.0,1.85174047947,-0.874825179577,0.0,1.99014377594,-0.36321541667,0.0,2.82995605469,-0.590405702591,0.0
1449616908703537435,105,1449616908703414943,odom,2.96081972122,-0.877838075161,0.0,2.75616884232,-1.10332214832,0.0,1.90750598907,-0.91182488203,0.0,2.0241651535,-0.394823312759,0.0,2.87282824516,-0.586320519447,0.0
1449616908964946476,106,1449616908964517560,odom,3.04014706612,-0.861782073975,0.0,2.85019564629,-1.09978079796,0.0,1.99110376835,-0.962444663048,0.0,2.07476830482,-0.439089864492,0.0,2.93386006355,-0.576426029205,0.0
1449616909056111509,107,1449616909055773913,odom,3.10693097115,-0.838822245598,0.0,2.93244194984,-1.08837914467,0.0,2.06637430191,-1.00575602055,0.0,2.11670804024,-0.478151500225,0.0,2.98277568817,-0.560774624348,0.0
1449616909299049771,108,1449616909298914506,odom,3.16903209686,-0.817140698433,0.0,3.00796723366,-1.07556498051,0.0,2.13874435425,-1.03879916668,0.0,2.16114211082,-0.509272634983,0.0,3.03036475182,-0.546038508415,0.0
1449616909445786727,109,1449616909445154720,odom,3.22414398193,-0.791966080666,0.0,3.07695293427,-1.05853652954,0.0,2.20700144768,-1.067730546,0.0,2.20140051842,-0.537760078907,0.0,3.07135176659,-0.52856606245,0.0
1449616909729958812,110,1449616909727442688,odom,3.28037047386,-0.758581519127,0.0,3.15036654472,-1.03394305706,0.0,2.28274607658,-1.09824383259,0.0,2.24357438087,-0.569693386555,0.0,3.11119484901,-0.505392670631,0.0
1449616909917019282,111,1449616909916632147,odom,3.34219288826,-0.715467810631,0.0,3.23289608955,-0.999684691429,0.0,2.37240099907,-1.12793445587,0.0,2.29427170753,-0.603724658489,0.0,3.15476703644,-0.475474953651,0.0
1449616910176213865,112,1449616910174867190,odom,3.37279963493,-0.689412951469,0.0,3.2756114006,-0.977994799614,0.0,2.42130470276,-1.14249408245,0.0,2.32109260559,-0.62205439806,0.0,3.17539930344,-0.457555055618,0.0
1449616910751645956,113,1449616910748917319,odom,3.46134781837,-0.579467773438,0.0,3.41410946846,-0.880289196968,0.0,2.59966897964,-1.18620884418,0.0,2.4133040905,-0.69005548954,0.0,3.22774457932,-0.384135842323,0.0
1449616910889621839,114,1449616910888515970,odom,3.48649334908,-0.541901528835,0.0,3.45520925522,-0.844798028469,0.0,2.65806293488,-1.19330585003,0.0,2.44575357437,-0.707688033581,0.0,3.2428996563,-0.359180152416,0.0
1449616911252010151,115,1449616911251802404,odom,3.50929760933,-0.508896589279,0.0,3.4908413887,-0.812844574451,0.0,2.70913505554,-1.19472825527,0.0,2.47649335861,-0.718516290188,0.0,3.25819969177,-0.33663263917,0.0
1449616911369796073,116,1449616911369042298,odom,3.53059148788,-0.480882614851,0.0,3.52177929878,-0.78526288271,0.0,2.75257110596,-1.19173383713,0.0,2.50495100021,-0.723135650158,0.0,3.27415919304,-0.316664755344,0.0
1449616911843002193,117,1449616911842608603,odom,3.59139347076,-0.435936927795,0.0,3.58901619911,-0.740435421467,0.0,2.82857036591,-1.16307246685,0.0,2.57110190392,-0.699812293053,0.0,3.33154773712,-0.277175307274,0.0
1449616911960895565,118,1449616911960594133,odom,3.62670373917,-0.42246389389,0.0,3.62110877037,-0.726920306683,0.0,2.85623908043,-1.14149737358,0.0,2.60368061066,-0.675542235374,0.0,3.3685503006,-0.260965138674,0.0
1449616912227214525,119,1449616912219757121,odom,3.67225193977,-0.410041511059,0.0,3.66022372246,-0.714311659336,0.0,2.88676285744,-1.11263096333,0.0,2.64410877228,-0.64144217968,0.0,3.41756939888,-0.243122860789,0.0
1449616912407424738,120,1449616912404836682,odom,3.72780919075,-0.405684381723,0.0,3.70293354988,-0.709174394608,0.0,2.91333079338,-1.07445168495,0.0,2.69080543518,-0.593429386616,0.0,3.48040819168,-0.228152066469,0.0
1449616912607007929,121,1449616912606277069,odom,3.78881287575,-0.401456266642,0.0,3.75113391876,-0.703623950481,0.0,2.94680023193,-1.03520667553,0.0,2.7448015213,-0.545210182667,0.0,3.54913520813,-0.21362747252,0.0
1449616912809560610,122,1449616912809146366,odom,3.84373497963,-0.408079057932,0.0,3.7901494503,-0.70783495903,0.0,2.96942543983,-0.996473431587,0.0,2.79358816147,-0.49649220705,0.0,3.61431217194,-0.207853704691,0.0
1449616913076529725,123,1449616913070674339,odom,3.89939427376,-0.411458283663,0.0,3.83318901062,-0.708681881428,0.0,3.00100064278,-0.962379097939,0.0,2.84644937515,-0.45541369915,0.0,3.67863798141,-0.201716482639,0.0
1449616913200339009,124,1449616913197603916,odom,3.95626163483,-0.41123765707,0.0,3.88066792488,-0.70621329546,0.0,3.04085588455,-0.933403551579,0.0,2.90245246887,-0.421793848276,0.0,3.74226474762,-0.194603532553,0.0
1449616913543466793,125,1449616913543277600,odom,4.02828121185,-0.41453358531,0.0,3.94028949738,-0.706051111221,0.0,3.09162664413,-0.897548317909,0.0,2.97496724129,-0.38054677844,0.0,3.82363033295,-0.189049556851,0.0
1449616913616515829,126,1449616913613883525,odom,4.06031799316,-0.412723064423,0.0,3.96925067902,-0.703294456005,0.0,3.11861133575,-0.885812401772,0.0,3.0074224472,-0.367606878281,0.0,3.85806155205,-0.185088902712,0.0
1449616913781325796,127,1449616913780917783,odom,4.11878490448,-0.411207199097,0.0,4.02159690857,-0.699788987637,0.0,3.16728997231,-0.864288330078,0.0,3.06707787514,-0.343848645687,0.0,3.92138433456,-0.179349288344,0.0
1449616913969500751,128,1449616913969218837,odom,4.16591501236,-0.412865936756,0.0,4.06264972687,-0.699329257011,0.0,3.20505714417,-0.845736503601,0.0,3.11586642265,-0.323295086622,0.0,3.97345900536,-0.176887854934,0.0
1449616914174500523,129,1449616914174383427,odom,4.2130188942,-0.415640592575,0.0,4.10372209549,-0.699857473373,0.0,3.243227005,-0.828107178211,0.0,3.16509795189,-0.303897500038,0.0,4.02559328079,-0.175647750497,0.0
1449616914368992879,130,1449616914368781142,odom,4.2543091774,-0.419927865267,0.0,4.13902997971,-0.701771318913,0.0,3.27601647377,-0.811806261539,0.0,3.20898365974,-0.286062419415,0.0,4.07199716568,-0.176027491689,0.0
1449616914574085728,131,1449616914573794473,odom,4.28857707977,-0.415466636419,0.0,4.17329788208,-0.697310090065,0.0,3.31028437614,-0.807345032692,0.0,3.24325156212,-0.281601190567,0.0,4.10626506805,-0.17156624794,0.0
1449616914774966713,132,1449616914774686446,odom,4.32858133316,-0.410458087921,0.0,4.21330213547,-0.692301571369,0.0,3.35028886795,-0.802336454391,0.0,3.28325605392,-0.276592642069,0.0,4.14626932144,-0.166557699442,0.0
1449616914984369664,133,1449616914983840997,odom,4.37782239914,-0.409814983606,0.0,4.25957155228,-0.690424442291,0.0,3.39544320107,-0.791333079338,0.0,3.33397006989,-0.264910161495,0.0,4.19809818268,-0.164001584053,0.0
1449616915182313295,134,1449616915182040957,odom,4.41559553146,-0.41075617075,0.0,4.29438591003,-0.690100312233,0.0,3.42923951149,-0.781871318817,0.0,3.37333321571,-0.254828155041,0.0,4.23847913742,-0.16305719316,0.0
1449616915375001452,135,1449616915374527969,odom,4.45907831192,-0.411428362131,0.0,4.33492326736,-0.689476013184,0.0,3.46885538101,-0.772099077702,0.0,3.41852164268,-0.244494602084,0.0,4.28458929062,-0.161871477962,0.0
1449616915566648758,136,1449616915565448224,odom,4.49347066879,-0.408055633307,0.0,4.3693151474,-0.686103224754,0.0,3.50324749947,-0.768726348877,0.0,3.45291399956,-0.241121858358,0.0,4.31898164749,-0.158498749137,0.0
1449616915793457524,137,1449616915793069983,odom,4.5278801918,-0.404864668846,0.0,4.40372467041,-0.682912290096,0.0,3.53765702248,-0.765535414219,0.0,3.48732352257,-0.237930893898,0.0,4.3533911705,-0.155307784677,0.0
1449616915982157738,138,1449616915980729205,odom,4.56563854218,-0.406755506992,0.0,4.43855190277,-0.683475553989,0.0,3.57165956497,-0.756941556931,0.0,3.52690434456,-0.228834614158,0.0,4.39379692078,-0.155368596315,0.0
1449616916191287177,139,1449616916190013531,odom,4.59761714935,-0.409288942814,0.0,4.46761322021,-0.684650480747,0.0,3.59999251366,-0.748951196671,0.0,3.56082081795,-0.220400780439,0.0,4.42844152451,-0.156100049615,0.0
1449616916389616931,140,1449616916389199430,odom,4.62381458282,-0.412464380264,0.0,4.49090766907,-0.686436712742,0.0,3.62265634537,-0.741564929485,0.0,3.5890724659,-0.212630078197,0.0,4.45732402802,-0.15750181675,0.0
1449616916592268385,141,1449616916591243692,odom,4.6467962265,-0.410852730274,0.0,4.51388931274,-0.684825062752,0.0,3.64563798904,-0.739953279495,0.0,3.61205410957,-0.211018428206,0.0,4.48030567169,-0.155890166759,0.0
1449616916795674180,142,1449616916794198272,odom,4.66978979111,-0.409423291683,0.0,4.53688335419,-0.683395564556,0.0,3.66863179207,-0.738523840904,0.0,3.6350479126,-0.209588959813,0.0,4.5032992363,-0.154460713267,0.0
1449616916997076227,143,1449616916995347603,odom,4.69020986557,-0.413331508636,0.0,4.55441522598,-0.685883998871,0.0,3.68562960625,-0.731833636761,0.0,3.65763711929,-0.202573359013,0.0,4.52642297745,-0.156623736024,0.0
1449616917179914729,144,1449616917179671789,odom,4.70746088028,-0.412358164787,0.0,4.57166624069,-0.684910655022,0.0,3.70288062096,-0.730860233307,0.0,3.67488837242,-0.201600000262,0.0,4.54367399216,-0.155650377274,0.0
1449616917384728110,145,1449616917384343311,odom,4.7247171402,-0.411475986242,0.0,4.58892250061,-0.684028446674,0.0,3.72013664246,-0.729978084564,0.0,3.69214439392,-0.200717806816,0.0,4.56093025208,-0.154768198729,0.0
1449616917595554339,146,1449616917593106103,odom,4.74509143829,-0.415538996458,0.0,4.60642433167,-0.686641216278,0.0,3.73720145226,-0.723407030106,0.0,3.71480369568,-0.193880528212,0.0,4.58402633667,-0.157114669681,0.0
1449616917784677930,147,1449616917784043484,odom,4.76235342026,-0.414778411388,0.0,4.62368583679,-0.685880601406,0.0,3.7544631958,-0.722646474838,0.0,3.73206567764,-0.193119928241,0.0,4.60128831863,-0.15635406971,0.0
1449616917979864363,148,1449616917978961514,odom,4.77386331558,-0.414322018623,0.0,4.63519620895,-0.685424208641,0.0,3.76597332954,-0.722190082073,0.0,3.74357557297,-0.192663550377,0.0,4.61279821396,-0.155897691846,0.0
1449616918178478340,149,1449616918178090223,odom,4.79688310623,-0.413409262896,0.0,4.6582159996,-0.684511423111,0.0,3.78899335861,-0.721277296543,0.0,3.76659560204,-0.191750779748,0.0,4.63581848145,-0.154984921217,0.0
1449616918394154109,150,1449616918394001761,odom,4.81721925735,-0.417839407921,0.0,4.67569494247,-0.687461078167,0.0,3.80613207817,-0.715039074421,0.0,3.78933167458,-0.185305401683,0.0,4.65889453888,-0.15772742033,0.0
1449616918599213902,151,1449616918598807934,odom,4.83174657822,-0.42251470685,0.0,4.68738079071,-0.690625667572,0.0,3.81757521629,-0.709012746811,0.0,3.80637383461,-0.179131105542,0.0,4.67617940903,-0.160744071007,0.0
1449616918796888984,152,1449616918796524129,odom,4.84901809692,-0.422027826309,0.0,4.70465230942,-0.690138816833,0.0,3.834846735,-0.708525836468,0.0,3.82364559174,-0.178644239902,0.0,4.69345092773,-0.160257205367,0.0
1449616919023494235,153,1449616919022881937,odom,4.86629247665,-0.421632230282,0.0,4.72192668915,-0.689743220806,0.0,3.85212087631,-0.70813024044,0.0,3.84091949463,-0.178248643875,0.0,4.71072530746,-0.15986160934,0.0
1449616919196946098,154,1449616919195769405,odom,4.88356781006,-0.421297490597,0.0,4.73920202255,-0.689408481121,0.0,3.86939620972,-0.707795500755,0.0,3.85819506645,-0.177913889289,0.0,4.72800064087,-0.159526854753,0.0
1449616919381983394,155,1449616919381705910,odom,4.89804553986,-0.426156461239,0.0,4.75085401535,-0.69272685051,0.0,3.88090276718,-0.701920866966,0.0,3.87530183792,-0.171950474381,0.0,4.74525308609,-0.162756443024,0.0
1449616919604095174,156,1449616919598293206,odom,4.90956401825,-0.426034718752,0.0,4.76237297058,-0.69260507822,0.0,3.89242148399,-0.701799154282,0.0,3.88682031631,-0.171828731894,0.0,4.75677156448,-0.162634700537,0.0
1449616919797200685,157,1449616919795951544,odom,4.92684173584,-0.425852119923,0.0,4.77965068817,-0.692422509193,0.0,3.90969920158,-0.70161652565,0.0,3.90409827232,-0.171646133065,0.0,4.77404975891,-0.162452101707,0.0
1449616920005621019,158,1449616919996860525,odom,4.94126701355,-0.430833399296,0.0,4.79126691818,-0.695833384991,0.0,3.92126703262,-0.695833384991,0.0,3.92126703262,-0.1658333987,0.0,4.79126691818,-0.1658333987,0.0
1449616920197684718,159,1449616920197314986,odom,4.9556388855,-0.425669521093,0.0,4.80844736099,-0.692239880562,0.0,3.93849611282,-0.701433956623,0.0,3.93289518356,-0.171463534236,0.0,4.80284643173,-0.162269502878,0.0
1449616920400342780,160,1449616920394207190,odom,4.97006416321,-0.430711656809,0.0,4.82006406784,-0.695711672306,0.0,3.9500644207,-0.695711672306,0.0,3.9500644207,-0.165711671114,0.0,4.82006406784,-0.165711671114,0.0
1449616920579514957,161,1449616920579391177,odom,4.98734283447,-0.43074208498,0.0,4.83734273911,-0.695742070675,0.0,3.96734285355,-0.695742070675,0.0,3.96734285355,-0.165742099285,0.0,4.83734273911,-0.165742099285,0.0
1449616920785007135,162,1449616920784123040,odom,5.00171470642,-0.435905963182,0.0,4.84892225266,-0.6993060112,0.0,3.97897100449,-0.690111935139,0.0,3.98457193375,-0.160141557455,0.0,4.85452318192,-0.169335588813,0.0
1449616920996731595,163,1449616920995843410,odom,5.01899242401,-0.436058133841,0.0,4.86620044708,-0.699458122253,0.0,3.99624896049,-0.690264105797,0.0,4.00185012817,-0.160293728113,0.0,4.87180137634,-0.169487759471,0.0
1449616921180528358,164,1449616921180003491,odom,5.03906917572,-0.441373586655,0.0,4.88350200653,-0.703144192696,0.0,4.0136961937,-0.684757173061,0.0,4.02489757538,-0.154875576496,0.0,4.89470338821,-0.173262611032,0.0
1449616921376039485,165,1449616921375756694,odom,5.05634593964,-0.441617041826,0.0,4.90077877045,-0.70338767767,0.0,4.03097295761,-0.685000658035,0.0,4.04217433929,-0.155119031668,0.0,4.91198015213,-0.173506066203,0.0
1449616921616522372,166,1449616921616045668,odom,5.07362127304,-0.441951811314,0.0,4.91805410385,-0.703722417355,0.0,4.04824829102,-0.68533539772,0.0,4.0594496727,-0.155453786254,0.0,4.92925548553,-0.173840820789,0.0
1449616921791360182,167,1449616921789560534,odom,5.0908946991,-0.442377835512,0.0,4.93532752991,-0.704148471355,0.0,4.06552171707,-0.685761392117,0.0,4.07672309875,-0.155879810452,0.0,4.94652891159,-0.174266844988,0.0
1449616922025580121,168,1449616922025412333,odom,5.10515403748,-0.447844266891,0.0,4.94682884216,-0.707956254482,0.0,4.07726621628,-0.680378317833,0.0,4.09406661987,-0.150644645095,0.0,4.96362924576,-0.178222626448,0.0
1449616922188409298,169,1449616922188125168,odom,5.11968183517,-0.443138569593,0.0,4.96411466599,-0.704909205437,0.0,4.09430932999,-0.686522185802,0.0,4.10551071167,-0.156640559435,0.0,4.97531604767,-0.17502759397,0.0
1449616922407027849,170,1449616922406404863,odom,5.13119697571,-0.443442881107,0.0,4.97562980652,-0.705213487148,0.0,4.10582447052,-0.686826467514,0.0,4.11702537537,-0.156944856048,0.0,4.9868311882,-0.175331890583,0.0
1449616922617917697,171,1449616922609106315,odom,5.14545726776,-0.448878914118,0.0,4.98713254929,-0.708990871906,0.0,4.11756944656,-0.681412935257,0.0,4.13436985016,-0.151679262519,0.0,5.00393295288,-0.179257258773,0.0
1449616922804081295,172,1449616922800919648,odom,5.1599855423,-0.444173187017,0.0,5.00441837311,-0.705943822861,0.0,4.13461256027,-0.687556803226,0.0,4.14581394196,-0.157675176859,0.0,5.01561927795,-0.176062211394,0.0
1449616923001514598,173,1449616923001213806,odom,5.16848707199,-0.449487507343,0.0,5.01016235352,-0.709599494934,0.0,4.14059972763,-0.68202149868,0.0,4.15740013123,-0.152287855744,0.0,5.02696275711,-0.179865851998,0.0
1449616923193783149,174,1449616923193523664,odom,5.17725801468,-0.444629639387,0.0,5.02169084549,-0.70640027523,0.0,4.15188503265,-0.688013255596,0.0,4.16308641434,-0.158131614327,0.0,5.03289175034,-0.176518663764,0.0
1449616923416645185,175,1449616923416297829,odom,5.18877363205,-0.44490352273,0.0,5.03320646286,-0.706674158573,0.0,4.16340065002,-0.688287079334,0.0,4.17460203171,-0.15840549767,0.0,5.04440784454,-0.176792532206,0.0
1449616923589621331,176,1449616923589373505,odom,5.20029020309,-0.445146977901,0.0,5.04472303391,-0.706917583942,0.0,4.17491722107,-0.688530564308,0.0,4.18611860275,-0.158648952842,0.0,5.05592441559,-0.177035987377,0.0
1449616923812184710,177,1449616923811257039,odom,5.20604753494,-0.445299118757,0.0,5.05048036575,-0.707069754601,0.0,4.18067502975,-0.688682734966,0.0,4.19187641144,-0.158801093698,0.0,5.06168174744,-0.177188128233,0.0
1449616924008206028,178,1449616924002448096,odom,5.20604753494,-0.445299118757,0.0,5.05048036575,-0.707069754601,0.0,4.18067502975,-0.688682734966,0.0,4.19187641144,-0.158801093698,0.0,5.06168174744,-0.177188128233,0.0
1449616924205109211,179,1449616924204626249,odom,5.20604753494,-0.445299118757,0.0,5.05048036575,-0.707069754601,0.0,4.18067502975,-0.688682734966,0.0,4.19187641144,-0.158801093698,0.0,5.06168174744,-0.177188128233,0.0
1449616924407158118,180,1449616924403515217,odom,5.20604753494,-0.445299118757,0.0,5.05048036575,-0.707069754601,0.0,4.18067502975,-0.688682734966,0.0,4.19187641144,-0.158801093698,0.0,5.06168174744,-0.177188128233,0.0
1449616924597603142,181,1449616924597342330,odom,5.20604753494,-0.445299118757,0.0,5.05048036575,-0.707069754601,0.0,4.18067502975,-0.688682734966,0.0,4.19187641144,-0.158801093698,0.0,5.06168174744,-0.177188128233,0.0
1449616924829678394,182,1449616924827070707,odom,5.20604753494,-0.445299118757,0.0,5.05048036575,-0.707069754601,0.0,4.18067502975,-0.688682734966,0.0,4.19187641144,-0.158801093698,0.0,5.06168174744,-0.177188128233,0.0
1449616925003342107,183,1449616925002860194,odom,5.20604753494,-0.445299118757,0.0,5.05048036575,-0.707069754601,0.0,4.18067502975,-0.688682734966,0.0,4.19187641144,-0.158801093698,0.0,5.06168174744,-0.177188128233,0.0
1449616925199479621,184,1449616925199158905,odom,5.20604753494,-0.445299118757,0.0,5.05048036575,-0.707069754601,0.0,4.18067502975,-0.688682734966,0.0,4.19187641144,-0.158801093698,0.0,5.06168174744,-0.177188128233,0.0
1449616925398373212,185,1449616925397991446,odom,5.20604753494,-0.445299118757,0.0,5.05048036575,-0.707069754601,0.0,4.18067502975,-0.688682734966,0.0,4.19187641144,-0.158801093698,0.0,5.06168174744,-0.177188128233,0.0
1449616925667544839,186,1449616925666615789,odom,5.20604753494,-0.445299118757,0.0,5.05048036575,-0.707069754601,0.0,4.18067502975,-0.688682734966,0.0,4.19187641144,-0.158801093698,0.0,5.06168174744,-0.177188128233,0.0
1449616925906139773,187,1449616925903779022,odom,5.20604753494,-0.445299118757,0.0,5.05048036575,-0.707069754601,0.0,4.18067502975,-0.688682734966,0.0,4.19187641144,-0.158801093698,0.0,5.06168174744,-0.177188128233,0.0
1449616926231575517,188,1449616926229774364,odom,5.20604753494,-0.445299118757,0.0,5.05048036575,-0.707069754601,0.0,4.18067502975,-0.688682734966,0.0,4.19187641144,-0.158801093698,0.0,5.06168174744,-0.177188128233,0.0
1449616926540031782,189,1449616926510296796,odom,5.20604753494,-0.445299118757,0.0,5.05048036575,-0.707069754601,0.0,4.18067502975,-0.688682734966,0.0,4.19187641144,-0.158801093698,0.0,5.06168174744,-0.177188128233,0.0
1449616926740642718,190,1449616926719600408,odom,5.21180534363,-0.445451259613,0.0,5.05623817444,-0.707221865654,0.0,4.1864323616,-0.68883484602,0.0,4.19763374329,-0.158953249454,0.0,5.06743955612,-0.17734028399,0.0
1449616926984481272,191,1449616926972895373,odom,5.21756267548,-0.445603400469,0.0,5.06199550629,-0.707374036312,0.0,4.19218969345,-0.688987016678,0.0,4.20339107513,-0.15910539031,0.0,5.07319688797,-0.177492424846,0.0
1449616927635380725,192,1449616927631463165,odom,5.22332000732,-0.445755571127,0.0,5.06775283813,-0.70752620697,0.0,4.19794750214,-0.689139127731,0.0,4.20914888382,-0.159257546067,0.0,5.07895421982,-0.177644580603,0.0
1449616927725974838,193,1449616927725134336,odom,5.22907781601,-0.445907711983,0.0,5.07351064682,-0.707678318024,0.0,4.20370483398,-0.689291298389,0.0,4.21490621567,-0.159409701824,0.0,5.0847120285,-0.17779673636,0.0
1449616927839778394,194,1449616927834732037,odom,5.22907781601,-0.445907711983,0.0,5.07351064682,-0.707678318024,0.0,4.20370483398,-0.689291298389,0.0,4.21490621567,-0.159409701824,0.0,5.0847120285,-0.17779673636,0.0
1449616927958650369,195,1449616927954159900,odom,5.23182201385,-0.45106986165,0.0,5.07349729538,-0.711181879044,0.0,4.20393466949,-0.68360388279,0.0,4.22073459625,-0.153870239854,0.0,5.09029769897,-0.181448221207,0.0
1449616928197615321,196,1449616928190849301,odom,5.23483514786,-0.446059852839,0.0,5.07926797867,-0.707830488682,0.0,4.20946216583,-0.689443469048,0.0,4.22066354752,-0.15956184268,0.0,5.09046936035,-0.177948877215,0.0
1449616928346242922,197,1449616928344866807,odom,5.23483514786,-0.446059852839,0.0,5.07926797867,-0.707830488682,0.0,4.20946216583,-0.689443469048,0.0,4.22066354752,-0.15956184268,0.0,5.09046936035,-0.177948877215,0.0
1449616928736669007,198,1449616928735178119,odom,5.2375793457,-0.451222032309,0.0,5.07925462723,-0.711333990097,0.0,4.20969200134,-0.683756053448,0.0,4.22649240494,-0.15402238071,0.0,5.09605503082,-0.181600362062,0.0
1449616928928924654,199,1449616928928312418,odom,5.24059247971,-0.446212023497,0.0,5.08502531052,-0.70798265934,0.0,4.21521997452,-0.689595580101,0.0,4.2264213562,-0.159713998437,0.0,5.0962266922,-0.178101032972,0.0
1449616929098754806,200,1449616929097350085,odom,5.24355268478,-0.441170454025,0.0,5.09076070786,-0.70457047224,0.0,4.22080898285,-0.695376455784,0.0,4.22641038895,-0.165406033397,0.0,5.09636163712,-0.174600064754,0.0
1449616929222930769,201,1449616929219073051,odom,5.24931144714,-0.441261738539,0.0,5.09651947021,-0.704661786556,0.0,4.22656822205,-0.695467710495,0.0,4.23216915131,-0.165497332811,0.0,5.10212039948,-0.174691364169,0.0
1449616929441658121,202,1449616929421471783,odom,5.2550702095,-0.441353023052,0.0,5.10227823257,-0.704753041267,0.0,4.23232698441,-0.695559024811,0.0,4.23792791367,-0.165588632226,0.0,5.10787916183,-0.174782663584,0.0
1449616929616372126,203,1449616929616142328,odom,5.27525472641,-0.436463057995,0.0,5.12525463104,-0.70146304369,0.0,4.25525474548,-0.70146304369,0.0,4.25525474548,-0.1714630723,0.0,5.12525463104,-0.1714630723,0.0
1449616929917727151,204,1449616929915503070,odom,5.30405235291,-0.436493486166,0.0,5.15405225754,-0.701493501663,0.0,4.28405237198,-0.701493501663,0.0,4.28405237198,-0.171493500471,0.0,5.15405225754,-0.171493500471,0.0
1449616930252888865,205,1449616930251566963,odom,5.35275745392,-0.420395582914,0.0,5.2112326622,-0.690017223358,0.0,4.34167003632,-0.717595219612,0.0,4.32486963272,-0.187861561775,0.0,5.19443225861,-0.160283580422,0.0
1449616930581898781,206,1449616930573338231,odom,5.39260959625,-0.40858617425,0.0,5.2568154335,-0.681138634682,0.0,4.38802957535,-0.727088272572,0.0,4.36003732681,-0.197828009725,0.0,5.22882318497,-0.151878386736,0.0
1449616930852615030,207,1449616930837896335,odom,5.43221139908,-0.396058619022,0.0,5.30220746994,-0.671420156956,0.0,4.4345870018,-0.735720932484,0.0,4.39541530609,-0.207170471549,0.0,5.26303577423,-0.142869740725,0.0
1449616931105244367,208,1449616931092135983,odom,5.46912813187,-0.388022601604,0.0,5.34204149246,-0.664742648602,0.0,4.47514867783,-0.738208651543,0.0,4.43039369583,-0.210101693869,0.0,5.29728603363,-0.136635676026,0.0
1449616931613303515,209,1449616931606595474,odom,5.52423620224,-0.361559778452,0.0,5.40895700455,-0.643403232098,0.0,4.54594373703,-0.753438174725,0.0,4.478910923,-0.227694317698,0.0,5.34192419052,-0.117659382522,0.0
1449616931846614681,210,1449616931834479989,odom,5.53783941269,-0.354619681835,0.0,5.42554521561,-0.637665629387,0.0,4.56374263763,-0.756814658642,0.0,4.49115753174,-0.231808543205,0.0,5.35296010971,-0.112659558654,0.0
1449616931937022317,211,1449616931936821486,odom,5.54566717148,-0.348355144262,0.0,5.43637084961,-0.632571995258,0.0,4.57587575912,-0.760821759701,0.0,4.49774646759,-0.236612036824,0.0,5.35824155807,-0.108362309635,0.0
1449616932195680670,212,1449616932180155396,odom,5.55136394501,-0.3475061059,0.0,5.4420671463,-0.631722986698,0.0,4.58157205582,-0.759972691536,0.0,4.50344324112,-0.235762998462,0.0,5.3639383316,-0.107513263822,0.0
1449616932414004153,213,1449616932412714583,odom,5.55343341827,-0.342038303614,0.0,5.44714641571,-0.627394318581,0.0,4.58805465698,-0.764730513096,0.0,4.50439023972,-0.24137571454,0.0,5.36348199844,-0.104039557278,0.0
1449616932666408643,214,1449616932665065736,odom,5.55172109604,-0.332007884979,0.0,5.45148849487,-0.619546532631,0.0,4.59549093246,-0.775008499622,0.0,4.50078439713,-0.253538817167,0.0,5.35678195953,-0.0980768278241,0.0
1449616932850046026,215,1449616932837671036,odom,5.55330514908,-0.310918182135,0.0,5.4653134346,-0.602435708046,0.0,4.61665058136,-0.793932974339,0.0,4.49999141693,-0.276931375265,0.0,5.34865427017,-0.0854341760278,0.0
1449616933131806713,216,1449616933123995333,odom,5.54842233658,-0.291225284338,0.0,5.47282886505,-0.586200892925,0.0,4.6330165863,-0.813391208649,0.0,4.49461364746,-0.301781475544,0.0,5.33442592621,-0.0745911747217,0.0
1449616933337684676,217,1449616933336484411,odom,5.5439453125,-0.26620516181,0.0,5.48403692245,-0.564761579037,0.0,4.65739583969,-0.835990011692,0.0,4.49216461182,-0.332404226065,0.0,5.31880569458,-0.0611757785082,0.0
1449616933426720798,218,1449616933426205432,odom,5.54169940948,-0.250896573067,0.0,5.49128437042,-0.551201999187,0.0,4.67365694046,-0.84849768877,0.0,4.49254560471,-0.35040256381,0.0,5.31017351151,-0.0531068891287,0.0
1449616933517815917,219,1449616933516256921,odom,5.53814268112,-0.241427734494,0.0,5.49408626556,-0.542731583118,0.0,4.68292427063,-0.857241034508,0.0,4.49132633209,-0.363084882498,0.0,5.30248832703,-0.0485754385591,0.0
1449616933718508343,220,1449616933718332777,odom,5.53100347519,-0.216907665133,0.0,5.50292158127,-0.520117878914,0.0,4.70950269699,-0.87703037262,0.0,4.49207353592,-0.393683314323,0.0,5.2854924202,-0.0367707684636,0.0
1449616933935759043,221,1449616933931866792,odom,5.52229070663,-0.198584496975,0.0,5.5070476532,-0.502710521221,0.0,4.72942066193,-0.892833828926,0.0,4.49175930023,-0.419106990099,0.0,5.2693862915,-0.0289837345481,0.0
1449616934159696500,222,1449616934159467565,odom,5.51285457611,-0.174853280187,0.0,5.51369571686,-0.479359924793,0.0,4.7577586174,-0.910009562969,0.0,4.495408535,-0.449496179819,0.0,5.25134563446,-0.0188465379179,0.0
1449616934300128542,223,1449616934299871309,odom,5.50756931305,-0.160247996449,0.0,5.51806211472,-0.464574962854,0.0,4.77615594864,-0.918970525265,0.0,4.49934053421,-0.467004716396,0.0,5.24124670029,-0.0126091754064,0.0
1449616934527715908,224,1449616934527505501,odom,5.50092697144,-0.134159579873,0.0,5.52747821808,-0.437507599592,0.0,4.81060695648,-0.930453181267,0.0,4.51030683517,-0.493738442659,0.0,5.22717809677,-0.000792827748228,0.0
1449616934707422290,225,1449616934707250396,odom,5.4920501709,-0.102649599314,0.0,5.5377702713,-0.403705537319,0.0,4.85357522964,-0.941085636616,0.0,4.52620601654,-0.52427726984,0.0,5.21040058136,0.0131028294563,0.0
1449616934957112205,226,1449616934956930994,odom,5.4856672287,-0.0681363493204,0.0,5.55037212372,-0.365690171719,0.0,4.90160369873,-0.945344865322,0.0,4.54848051071,-0.550118207932,0.0,5.1972489357,0.0295365191996,0.0
1449616935110263203,227,1449616935109988528,odom,5.47708940506,-0.034074768424,0.0,5.56051874161,-0.326930552721,0.0,4.94978475571,-0.946530103683,0.0,4.57232713699,-0.574473619461,0.0,5.18306159973,0.045125965029,0.0
1449616935297762708,228,1449616935292564934,odom,5.45944166183,0.0311833005399,0.0,5.5762758255,-0.250019162893,0.0,5.04152870178,-0.936274051666,0.0,4.62346553802,-0.610508739948,0.0,5.15821218491,0.0757461413741,0.0
1449616935499405080,229,1449616935499142583,odom,5.4489197731,0.0778223201632,0.0,5.58621740341,-0.193975999951,0.0,5.10365343094,-0.917876541615,0.0,4.66265630722,-0.623900771141,0.0,5.14522027969,0.099999755621,0.0
1449616935696865855,230,1449616935693742321,odom,5.44397115707,0.118353433907,0.0,5.59543228149,-0.145814061165,0.0,5.15177536011,-0.894191145897,0.0,4.69586753845,-0.623917281628,0.0,5.13952445984,0.124459840357,0.0
1449616935897803858,231,1449616935897402187,odom,5.44580507278,0.163611486554,0.0,5.60829496384,-0.0939193293452,0.0,5.19666004181,-0.860376656055,0.0,4.72973775864,-0.609610676765,0.0,5.14137268066,0.156846642494,0.0
1449616936099496879,232,1449616936099350438,odom,5.45196962357,0.2090485394,0.0,5.62254095078,-0.0432021133602,0.0,5.23540878296,-0.82232260704,0.0,4.76077222824,-0.586483538151,0.0,5.14790439606,0.192636951804,0.0
1449616936288366588,233,1449616936287938005,odom,5.45919895172,0.259842932224,0.0,5.63768053055,0.0131259448826,0.0,5.27544021606,-0.777874648571,0.0,4.79356622696,-0.557199537754,0.0,5.15580654144,0.233801051974,0.0
1449616936512914961,234,1449616936511155441,odom,5.46687793732,0.316223710775,0.0,5.65309047699,0.0752883777022,0.0,5.31610584259,-0.726797282696,0.0,4.82747936249,-0.521507918835,0.0,5.16446352005,0.280577749014,0.0
1449616936685699124,235,1449616936685458614,odom,5.47674512863,0.368178337812,0.0,5.66800832748,0.131232336164,0.0,5.34805059433,-0.677796185017,0.0,4.8551940918,-0.482879579067,0.0,5.17515182495,0.326148957014,0.0
1449616936895075625,236,1449616936894871163,odom,5.48163461685,0.424810498953,0.0,5.68031263351,0.194046393037,0.0,5.38616132736,-0.624717831612,0.0,4.88737392426,-0.445522159338,0.0,5.18152523041,0.373242080212,0.0
1449616937075061128,237,1449616937074679206,odom,5.4890499115,0.461893588305,0.0,5.69015550613,0.233241975307,0.0,5.40467309952,-0.588585078716,0.0,4.90401983261,-0.414670526981,0.0,5.18950223923,0.407156556845,0.0
1449616937298563427,238,1449616937298388626,odom,5.48850679398,0.492451459169,0.0,5.69439983368,0.26810118556,0.0,5.42635011673,-0.559575855732,0.0,4.9221329689,-0.396281182766,0.0,5.19018268585,0.431395828724,0.0
1449616937492385065,239,1449616937491938437,odom,5.48979663849,0.513194382191,0.0,5.69804906845,0.291032493114,0.0,5.43876123428,-0.539431035519,0.0,4.93284654617,-0.381473988295,0.0,5.19213438034,0.448989540339,0.0
1449616937691400370,240,1449616937690785461,odom,5.49083805084,0.533958733082,0.0,5.70142698288,0.314010024071,0.0,5.45092964172,-0.519147276878,0.0,4.94337368011,-0.366545438766,0.0,5.19387102127,0.46661183238,0.0
1449616937894618133,241,1449616937894404232,odom,5.49581336975,0.550505757332,0.0,5.70640182495,0.330557048321,0.0,5.4559044838,-0.502600193024,0.0,4.94834899902,-0.349998414516,0.0,5.19884634018,0.48315885663,0.0
1449616938126140779,242,1449616938107246153,odom,5.50821304321,0.573813378811,0.0,5.71646547318,0.351651489735,0.0,5.45717763901,-0.478812038898,0.0,4.9512629509,-0.320854991674,0.0,5.21055078506,0.509608507156,0.0
1449616938296028616,243,1449616938291544274,odom,5.51670837402,0.601329386234,0.0,5.72496080399,0.379167467356,0.0,5.46567296982,-0.451296061277,0.0,4.95975828171,-0.293339014053,0.0,5.21904659271,0.53712451458,0.0
1449616938484020294,244,1449616938483219951,odom,5.53118658066,0.629965603352,0.0,5.73707962036,0.40561529994,0.0,5.46902990341,-0.422061741352,0.0,4.96481275558,-0.258767068386,0.0,5.23286247253,0.568909943104,0.0
1449616938706053567,245,1449616938705655180,odom,5.55188512802,0.65946996212,0.0,5.75299024582,0.430818319321,0.0,5.4675078392,-0.391008734703,0.0,4.9668545723,-0.217094168067,0.0,5.25233697891,0.60473293066,0.0
1449616938901704005,246,1449616938901520600,odom,5.57909297943,0.689386367798,0.0,5.77284955978,0.454474836588,0.0,5.46145963669,-0.357889771461,0.0,4.96657085419,-0.168192461133,0.0,5.27796077728,0.644172132015,0.0
1449616939096905911,247,1449616939096723350,odom,5.60966444016,0.723654985428,0.0,5.79587697983,0.482719659805,0.0,5.45889234543,-0.319366008043,0.0,4.97026586533,-0.114076644182,0.0,5.30725002289,0.688009023666,0.0
1449616939299473587,248,1449616939299238792,odom,5.65076112747,0.752487778664,0.0,5.82398891449,0.502053797245,0.0,5.44511175156,-0.281114339828,0.0,4.96800947189,-0.0503043420613,0.0,5.34688615799,0.732863783836,0.0
1449616939487883832,249,1449616939482955642,odom,5.68130970001,0.779018521309,0.0,5.84651184082,0.523219287395,0.0,5.44299983978,-0.247545316815,0.0,4.97345352173,-0.00172772060614,0.0,5.37696552277,0.769036889076,0.0
1449616939690960563,250,1449616939690553217,odom,5.71268510818,0.804569303989,0.0,5.86969566345,0.543661892414,0.0,5.44195413589,-0.213924527168,0.0,4.98043584824,0.0466536134481,0.0,5.40817737579,0.804240047932,0.0
1449616939896083800,251,1449616939895698250,odom,5.74771165848,0.834111571312,0.0,5.8963727951,0.568358242512,0.0,5.44483184814,-0.175288572907,0.0,4.99180555344,0.0997881963849,0.0,5.4433465004,0.843434989452,0.0
1449616940097472156,252,1449616940097119401,odom,5.78081083298,0.86778742075,0.0,5.92382240295,0.598951518536,0.0,5.4566655159,-0.134986042976,0.0,5.00955438614,0.149603784084,0.0,5.47671079636,0.883541345596,0.0
1449616940289900343,253,1449616940289731132,odom,5.81768226624,0.905632317066,0.0,5.95498037338,0.633834004402,0.0,5.47241640091,-0.0900665074587,0.0,5.03141927719,0.203909233212,0.0,5.51398324966,0.927809774876,0.0
1449616940504516600,254,1449616940504326899,odom,5.85261631012,0.948068797588,0.0,5.98703384399,0.674834728241,0.0,5.49684667587,-0.0439257323742,0.0,5.05898141861,0.254693984985,0.0,5.54916858673,0.973454415798,0.0
1449616940700323914,255,1449616940700134581,odom,5.88467597961,0.985427200794,0.0,6.01619911194,0.710787832737,0.0,5.51844358444,-0.00275221769698,0.0,5.08375835419,0.300478130579,0.0,5.58151340485,1.01401817799,0.0
1449616940905608514,256,1449616940901816678,odom,5.90825986862,1.02863240242,0.0,6.0426774025,0.755398333073,0.0,5.55249023438,0.0366378724575,0.0,5.11462497711,0.335257589817,0.0,5.6048116684,1.05401802063,0.0
1449616941104435106,257,1449616941103858402,odom,5.92844343185,1.07747471333,0.0,6.06860542297,0.807142555714,0.0,5.59371852875,0.0781827643514,0.0,5.14963960648,0.367481708527,0.0,5.6245265007,1.09644150734,0.0
1449616941295510678,258,1449616941295184407,odom,5.94434213638,1.12197005749,0.0,6.09018659592,0.854660511017,0.0,5.63081169128,0.115827046335,0.0,5.1807179451,0.395675987005,0.0,5.64009237289,1.13450944424,0.0
1449616941502179825,259,1449616941501674056,odom,5.9529800415,1.17710316181,0.0,6.10999059677,0.916195750237,0.0,5.68224906921,0.158609315753,0.0,5.22073078156,0.419187456369,0.0,5.64847230911,1.17677390575,0.0
1449616941718535630,260,1449616941717213468,odom,5.95341348648,1.23228085041,0.0,6.12398481369,0.980030119419,0.0,5.73685264587,0.200909659266,0.0,5.26221609116,0.436748713255,0.0,5.64934825897,1.21586918831,0.0
1449616941924147479,261,1449616941923957461,odom,5.95451688766,1.28268587589,0.0,6.13559627533,1.03786885738,0.0,5.78173542023,0.243084296584,0.0,5.29755592346,0.45865470171,0.0,5.65141677856,1.253439188,0.0
1449616942109557872,262,1449616942109148868,odom,5.94359254837,1.33689320087,0.0,6.13982057571,1.10404229164,0.0,5.83703327179,0.288432359695,0.0,5.34016752243,0.472889184952,0.0,5.64295482635,1.2884991169,0.0
1449616942326479693,263,1449616942326213863,odom,5.93533849716,1.39143633842,0.0,6.14359092712,1.16927444935,0.0,5.88430309296,0.338810890913,0.0,5.37838840485,0.496767938137,0.0,5.63767671585,1.32723152637,0.0
1449616942514783557,264,1449616942514547589,odom,5.91660070419,1.43847811222,0.0,6.13851213455,1.22995877266,0.0,5.9323682785,0.384734153748,0.0,5.41746139526,0.510316073895,0.0,5.62360525131,1.3555406332,0.0
1449616942723848931,265,1449616942723481094,odom,5.89964437485,1.48043978214,0.0,6.13225889206,1.28393185139,0.0,5.97104406357,0.428999334574,0.0,5.45022296906,0.527210831642,0.0,5.61143779755,1.38214337826,0.0
1449616942969785570,266,1449616942968059703,odom,5.87625312805,1.53071296215,0.0,6.1208524704,1.34933972359,0.0,6.01413488388,0.485909789801,0.0,5.48813724518,0.550921678543,0.0,5.5948548317,1.41435158253,0.0
1449616943113634119,267,1449616943113302738,odom,5.84891605377,1.56791079044,0.0,6.10451698303,1.40240120888,0.0,6.05272531509,0.533944249153,0.0,5.52366542816,0.565495193005,0.0,5.57545661926,1.43395221233,0.0
1449616943358088279,268,1449616943353529245,odom,5.81411075592,1.61189246178,0.0,6.08124494553,1.46572673321,0.0,6.09378194809,0.595817148685,0.0,5.56383705139,0.588179588318,0.0,5.55129957199,1.45808923244,0.0
1449616943558838620,269,1449616943556605423,odom,5.78719806671,1.64825487137,0.0,6.06167888641,1.51640200615,0.0,6.12014341354,0.64836871624,0.0,5.59134149551,0.612752437592,0.0,5.53287696838,1.4807857275,0.0
1449616943763956586,270,1449616943763722570,odom,5.75759077072,1.68885493279,0.0,6.03865242004,1.57168316841,0.0,6.14288139343,0.70794916153,0.0,5.61669826508,0.644453585148,0.0,5.51246976852,1.50818753242,0.0
1449616943979412207,271,1449616943978550132,odom,5.7305970192,1.73155164719,0.0,6.01635932922,1.62636208534,0.0,6.15699577332,0.767804384232,0.0,5.63396644592,0.682129204273,0.0,5.49333000183,1.54068696499,0.0
1449616944209027834,272,1449616944208568415,odom,5.70206165314,1.77311646938,0.0,5.99201393127,1.68009698391,0.0,6.16880750656,0.828249514103,0.0,5.64986562729,0.720547914505,0.0,5.47307252884,1.57239532471,0.0
1449616944332585004,273,1449616944332197364,odom,5.68251943588,1.81600725651,0.0,5.97437334061,1.72913658619,0.0,6.16913032532,0.88121587038,0.0,5.65258073807,0.762570679188,0.0,5.45782375336,1.610491395,0.0
1449616944569171673,274,1449616944568224613,odom,5.66644477844,1.86251783371,0.0,5.9591999054,1.77873623371,0.0,6.16290712357,0.932921051979,0.0,5.64764022827,0.80882370472,0.0,5.4439330101,1.65463888645,0.0
