%time,field.header.seq,field.header.stamp,field.header.frame_id,field.ns,field.id,field.type,field.action,field.pose.position.x,field.pose.position.y,field.pose.position.z,field.pose.orientation.x,field.pose.orientation.y,field.pose.orientation.z,field.pose.orientation.w,field.scale.x,field.scale.y,field.scale.z,field.color.r,field.color.g,field.color.b,field.color.a,field.lifetime,field.frame_locked,field.text,field.mesh_resource,field.mesh_use_embedded_materials
1449616884296650005,0,1449616884246195115,/odom,doorways,0,1,0,2.48694086075,-0.674931883812,1.0,0.0,0.0,0.151894751402,0.988396673657,0.2,0.647935152054,1.8,0.0,1.0,0.0,1.0,2000000000,0,,,0
1449616884385217509,1,1449616884328449737,/odom,doorways,0,1,0,2.53780126572,-0.663923382759,1.0,0.0,0.0,0.178714558485,0.98390096381,0.2,0.647738814354,1.8,0.0,1.0,0.0,1.0,2000000000,0,,,0
1449616884558183833,2,1449616884504706967,/odom,doorways,0,1,0,2.59513092041,-0.666200995445,1.0,0.0,0.0,0.214810466149,0.976655754927,0.2,0.698092639446,1.8,0.0,1.0,0.0,1.0,2000000000,0,,,0
1449616884692599386,3,1449616884642278828,/odom,doorways,0,1,0,2.27338409424,-0.556345164776,1.0,0.0,0.0,0.0839338322633,0.996471330145,0.2,0.947964191437,1.8,0.0,1.0,0.0,1.0,2000000000,0,,,0
1449616884712390283,4,1449616884662172867,/odom,doorways,1,1,0,2.54252362251,-0.663274407387,1.0,0.0,0.0,0.170536884598,0.98535129319,0.2,0.647965967655,1.8,0.0,1.0,0.0,1.0,2000000000,0,,,0
1449616884912618223,5,1449616884861374258,/odom,doorways,0,1,0,2.51606702805,-0.682489156723,1.0,0.0,0.0,0.174744120654,0.984613879801,0.2,0.64972704649,1.8,0.0,1.0,0.0,1.0,2000000000,0,,,0
1449616885155647801,6,1449616885105440421,/odom,doorways,0,1,0,2.50918340683,-0.677516102791,1.0,0.0,0.0,0.172972949348,0.984926575331,0.2,0.639493644238,1.8,0.0,1.0,0.0,1.0,2000000000,0,,,0
1449616885297221106,7,1449616885244991219,/odom,doorways,0,1,0,2.50442790985,-0.683765411377,1.0,0.0,0.0,0.153281014796,0.988182640256,0.2,0.63807618618,1.8,0.0,1.0,0.0,1.0,2000000000,0,,,0
1449616885474920405,8,1449616885424647991,/odom,doorways,0,1,0,2.51243758202,-0.682645916939,1.0,0.0,0.0,0.163349222662,0.986568310588,0.2,0.637695610523,1.8,0.0,1.0,0.0,1.0,2000000000,0,,,0
1449616885709282764,9,1449616885658806358,/odom,doorways,0,1,0,2.54282283783,-0.655818641186,1.0,0.0,0.0,0.184878754823,0.982761337261,0.2,0.649470984936,1.8,0.0,1.0,0.0,1.0,2000000000,0,,,0
1449616885923379538,10,1449616885872388851,/odom,doorways,0,1,0,2.55580687523,-0.679948031902,1.0,0.0,0.0,0.190813109166,0.981626383799,0.2,0.678032338619,1.8,0.0,1.0,0.0,1.0,2000000000,0,,,0
1449616886077017293,11,1449616886026878718,/odom,doorways,0,1,0,2.49793767929,-0.68689262867,1.0,0.0,0.0,0.14881679034,0.988864784949,0.2,0.637788891792,1.8,0.0,1.0,0.0,1.0,2000000000,0,,,0
1449616886265418711,12,1449616886212225251,/odom,doorways,0,1,0,2.51145887375,-0.678833842278,1.0,0.0,0.0,0.159353217994,0.987221632621,0.2,0.637686610222,1.8,0.0,1.0,0.0,1.0,2000000000,0,,,0
1449616886394341931,13,1449616886342704392,/odom,doorways,0,1,0,2.55997347832,-0.679146647453,1.0,0.0,0.0,0.185292195088,0.982683470116,0.2,0.668671905994,1.8,0.0,1.0,0.0,1.0,2000000000,0,,,0
1449616886481642406,14,1449616886431470950,/odom,doorways,0,1,0,2.51430726051,-0.67832660675,1.0,0.0,0.0,0.15852386541,0.98735514588,0.2,0.658351480961,1.8,0.0,1.0,0.0,1.0,2000000000,0,,,0
1449616886550788448,15,1449616886499972221,/odom,doorways,0,1,0,2.48335337639,-0.688444375992,1.0,0.0,0.0,0.150919404971,0.988546070349,0.2,0.658785462379,1.8,0.0,1.0,0.0,1.0,2000000000,0,,,0
1449616886751957383,16,1449616886701805361,/odom,doorways,0,1,0,2.51194190979,-0.691219687462,1.0,0.0,0.0,0.155691521999,0.987805724815,0.2,0.648433566093,1.8,0.0,1.0,0.0,1.0,2000000000,0,,,0
1449616887024662092,17,1449616886974435351,/odom,doorways,0,1,0,2.62485909462,-0.675310313702,1.0,0.0,0.0,0.225548594445,0.974231918767,0.2,0.658465921879,1.8,0.0,1.0,0.0,1.0,2000000000,0,,,0
1449616887158446434,18,1449616887103961478,/odom,doorways,0,1,0,2.55148720741,-0.675204515457,1.0,0.0,0.0,0.17417418511,0.984714858851,0.2,0.677756786346,1.8,0.0,1.0,0.0,1.0,2000000000,0,,,0
1449616887284029614,19,1449616887232764650,/odom,doorways,0,1,0,2.47616171837,-0.687121868134,1.0,0.0,0.0,0.143894212284,0.9895930758,0.2,0.64798104763,1.8,0.0,1.0,0.0,1.0,2000000000,0,,,0
1449616887499776008,20,1449616887449417622,/odom,doorways,0,1,0,2.58938884735,-0.650850892067,1.0,0.0,0.0,0.206694643501,0.97840550098,0.2,0.647954702377,1.8,0.0,1.0,0.0,1.0,2000000000,0,,,0
1449616887701415962,21,1449616887651109036,/odom,doorways,0,1,0,2.50465106964,-0.680596470833,1.0,0.0,0.0,0.163057836243,0.986616512146,0.2,0.658081948757,1.8,0.0,1.0,0.0,1.0,2000000000,0,,,0
1449616887974734636,22,1449616887922814239,/odom,doorways,0,1,0,2.47351145744,-0.696167111397,1.0,0.0,0.0,0.140887946915,0.990025548364,0.2,0.637995123863,1.8,0.0,1.0,0.0,1.0,2000000000,0,,,0
1449616888080529927,23,1449616888029823544,/odom,doorways,0,1,0,2.50192403793,-0.698917984962,1.0,0.0,0.0,0.163083628537,0.986612249115,0.2,0.638658285141,1.8,0.0,1.0,0.0,1.0,2000000000,0,,,0
1449616888247656054,24,1449616888197242482,/odom,doorways,0,1,0,2.59396624565,-0.688829898834,1.0,0.0,0.0,0.222181018563,0.975005433313,0.2,0.688707172871,1.8,0.0,1.0,0.0,1.0,2000000000,0,,,0
1449616888368933930,25,1449616888318808585,/odom,doorways,0,1,0,2.50803375244,-0.708249211311,1.0,0.0,0.0,0.1629252648,0.986638413042,0.2,0.637980639935,1.8,0.0,1.0,0.0,1.0,2000000000,0,,,0
1449616888656660347,26,1449616888606270935,/odom,doorways,0,1,0,2.62310767174,-0.665417790413,1.0,0.0,0.0,0.234669609931,0.972075189569,0.2,0.718577742577,1.8,0.0,1.0,0.0,1.0,2000000000,0,,,0
1449616888758818545,27,1449616888708296087,/odom,doorways,0,1,0,2.56219673157,-0.720378935337,1.0,0.0,0.0,0.199575685358,0.979882414279,0.2,0.649333536625,1.8,0.0,1.0,0.0,1.0,2000000000,0,,,0
1449616888925380292,28,1449616888873319774,/odom,doorways,0,1,0,2.56250572205,-0.694010615349,1.0,0.0,0.0,0.206948288241,0.978351882501,0.2,0.708400309086,1.8,0.0,1.0,0.0,1.0,2000000000,0,,,0
1449616889088668771,29,1449616889035190493,/odom,doorways,0,1,0,2.5324587822,-0.706216216087,1.0,0.0,0.0,0.175377359387,0.984501285837,0.2,0.658965289593,1.8,0.0,1.0,0.0,1.0,2000000000,0,,,0
1449616889156219279,30,1449616889105411841,/odom,doorways,0,1,0,2.57401037216,-0.698076367378,1.0,0.0,0.0,0.225430755958,0.97425919255,0.2,0.668736994267,1.8,0.0,1.0,0.0,1.0,2000000000,0,,,0
1449616889277560234,31,1449616889226618076,/odom,doorways,0,1,0,2.57211637497,-0.676974654198,1.0,0.0,0.0,0.189924787711,0.981798642805,0.2,0.689070940018,1.8,0.0,1.0,0.0,1.0,2000000000,0,,,0
1449616889384683571,32,1449616889334464404,/odom,doorways,0,1,0,2.58442425728,-0.686720252037,1.0,0.0,0.0,0.218073324665,0.97593238755,0.2,0.688027381897,1.8,0.0,1.0,0.0,1.0,2000000000,0,,,0
1449616889485844601,33,1449616889433104386,/odom,doorways,0,1,0,2.60723757744,-0.695379972458,1.0,0.0,0.0,0.214185486482,0.976793006415,0.2,0.657509863377,1.8,0.0,1.0,0.0,1.0,2000000000,0,,,0
1449616889734361813,34,1449616889683381679,/odom,doorways,0,1,0,2.57478642464,-0.73840534687,1.0,0.0,0.0,0.203529952329,0.979068720012,0.2,0.667676746845,1.8,0.0,1.0,0.0,1.0,2000000000,0,,,0
1449616889938533795,35,1449616889887578313,/odom,doorways,0,1,0,2.58554315567,-0.71975505352,1.0,0.0,0.0,0.20771267239,0.978189882246,0.2,0.668381333351,1.8,0.0,1.0,0.0,1.0,2000000000,0,,,0
1449616890108739759,36,1449616890058585845,/odom,doorways,0,1,0,2.59239459038,-0.714267253876,1.0,0.0,0.0,0.213549050223,0.976932343179,0.2,0.697377562523,1.8,0.0,1.0,0.0,1.0,2000000000,0,,,0
1449616890322988124,37,1449616890272559925,/odom,doorways,0,1,0,2.6313586235,-0.752443432808,1.0,0.0,0.0,0.246646484024,0.96910552156,0.2,0.719030678272,1.8,0.0,1.0,0.0,1.0,2000000000,0,,,0
1449616890770656659,38,1449616890720074975,/odom,doorways,0,1,0,2.59997844696,-0.743451595306,1.0,0.0,0.0,0.205742499205,0.978606163899,0.2,0.678522527218,1.8,0.0,1.0,0.0,1.0,2000000000,0,,,0
1449616890946864787,39,1449616890884191023,/odom,doorways,0,1,0,2.57190394402,-0.752816081047,1.0,0.0,0.0,0.210230431149,0.977651863303,0.2,0.697958290577,1.8,0.0,1.0,0.0,1.0,2000000000,0,,,0
1449616891390533573,40,1449616891340160523,/odom,doorways,0,1,0,2.63976716995,-0.714822590351,1.0,0.0,0.0,0.255163764243,0.96689785056,0.2,0.70769649744,1.8,0.0,1.0,0.0,1.0,2000000000,0,,,0
1449616891587029735,41,1449616891536473754,/odom,doorways,0,1,0,2.5946931839,-0.732067346573,1.0,0.0,0.0,0.233217883463,0.972424505467,0.2,0.708012521267,1.8,0.0,1.0,0.0,1.0,2000000000,0,,,0
1449616891835742389,42,1449616891776180380,/odom,doorways,0,1,0,2.63535857201,-0.710150241852,1.0,0.0,0.0,0.255741150755,0.966745294176,0.2,0.738297879696,1.8,0.0,1.0,0.0,1.0,2000000000,0,,,0
1449616892024215811,43,1449616891972412642,/odom,doorways,0,1,0,2.58807754517,-0.753934502602,1.0,0.0,0.0,0.218345316951,0.975871570733,0.2,0.74927854538,1.8,0.0,1.0,0.0,1.0,2000000000,0,,,0
1449616892196090945,44,1449616892143423976,/odom,doorways,0,1,0,2.56849503517,-0.767023980618,1.0,0.0,0.0,0.201560867099,0.979475990953,0.2,0.719472706318,1.8,0.0,1.0,0.0,1.0,2000000000,0,,,0
1449616892457443645,45,1449616892403516100,/odom,doorways,0,1,0,2.58525776863,-0.765085101128,1.0,0.0,0.0,0.217285135132,0.976108175384,0.2,0.759584903717,1.8,0.0,1.0,0.0,1.0,2000000000,0,,,0
1449616892669778806,46,1449616892619478542,/odom,doorways,0,1,0,2.58122587204,-0.764232397079,1.0,0.0,0.0,0.215049749508,0.976603095037,0.2,0.729643344879,1.8,0.0,1.0,0.0,1.0,2000000000,0,,,0
1449616892800441121,47,1449616892749138035,/odom,doorways,0,1,0,2.57882976532,-0.784017562866,1.0,0.0,0.0,0.214513617094,0.976720998075,0.2,0.769657969475,1.8,0.0,1.0,0.0,1.0,2000000000,0,,,0
1449616892995900095,48,1449616892944486458,/odom,doorways,0,1,0,2.58897566795,-0.774799406528,1.0,0.0,0.0,0.225469064415,0.974250327684,0.2,0.719582140446,1.8,0.0,1.0,0.0,1.0,2000000000,0,,,0
1449616901413059232,49,1449616901362889704,/odom,doorways,0,1,0,2.49550390244,-0.799299001694,1.0,0.0,0.0,0.131737412477,0.9912846484,0.2,0.688638091087,1.8,0.0,1.0,0.0,1.0,2000000000,0,,,0
1449616901582263876,50,1449616901530709298,/odom,doorways,0,1,0,2.58944535255,-0.773362278938,1.0,0.0,0.0,0.201664298085,0.979454700779,0.2,0.69834113121,1.8,0.0,1.0,0.0,1.0,2000000000,0,,,0
1449616901715510557,51,1449616901661850921,/odom,doorways,0,1,0,2.43982601166,-0.800871133804,1.0,0.0,0.0,0.0896231499224,0.995975748198,0.2,0.699169874191,1.8,0.0,1.0,0.0,1.0,2000000000,0,,,0
1449616901804975063,52,1449616901753221959,/odom,doorways,0,1,0,2.47221231461,-0.800833463669,1.0,0.0,0.0,0.111481490202,0.993766510475,0.2,0.688852787018,1.8,0.0,1.0,0.0,1.0,2000000000,0,,,0
1449616901912440645,53,1449616901860988262,/odom,doorways,0,1,0,2.59486222267,-0.772762775421,1.0,0.0,0.0,0.205206754918,0.978718645851,0.2,0.718305408955,1.8,0.0,1.0,0.0,1.0,2000000000,0,,,0
1449616902011836985,54,1449616901961257791,/odom,doorways,0,1,0,2.45809316635,-0.800778985023,1.0,0.0,0.0,0.102679820222,0.994714458787,0.2,0.688801586628,1.8,0.0,1.0,0.0,1.0,2000000000,0,,,0
1449616902121029424,55,1449616902066150086,/odom,doorways,0,1,0,2.55799508095,-0.768228054047,1.0,0.0,0.0,0.179904458712,0.983684088382,0.2,0.688826441765,1.8,0.0,1.0,0.0,1.0,2000000000,0,,,0
1449616902247123260,56,1449616902194623260,/odom,doorways,0,1,0,2.6036734581,-0.779430031776,1.0,0.0,0.0,0.209552428925,0.977797412316,0.2,0.73805218935,1.8,0.0,1.0,0.0,1.0,2000000000,0,,,0
1449616902340413213,57,1449616902289867424,/odom,doorways,0,1,0,2.56241321564,-0.766447663307,1.0,0.0,0.0,0.181285108669,0.983430581879,0.2,0.679394304752,1.8,0.0,1.0,0.0,1.0,2000000000,0,,,0
1449616902418583573,58,1449616902362015517,/odom,doorways,0,1,0,2.5483379364,-0.76441848278,1.0,0.0,0.0,0.172356798939,0.985034585108,0.2,0.678521692753,1.8,0.0,1.0,0.0,1.0,2000000000,0,,,0
1449616902514200909,59,1449616902463284257,/odom,doorways,0,1,0,2.60758328438,-0.774733901024,1.0,0.0,0.0,0.210615356863,0.977569011095,0.2,0.738055109978,1.8,0.0,1.0,0.0,1.0,2000000000,0,,,0
1449616902608076240,60,1449616902555257338,/odom,doorways,0,1,0,2.61594772339,-0.773963570595,1.0,0.0,0.0,0.212778441965,0.977100473152,0.2,0.728099167347,1.8,0.0,1.0,0.0,1.0,2000000000,0,,,0
1449616902733144039,61,1449616902678687449,/odom,doorways,0,1,0,2.6153345108,-0.776339173317,1.0,0.0,0.0,0.211903240006,0.977290651175,0.2,0.727896511555,1.8,0.0,1.0,0.0,1.0,2000000000,0,,,0
1449616902828741178,62,1449616902778271611,/odom,doorways,0,1,0,2.61805772781,-0.770937800407,1.0,0.0,0.0,0.215572216575,0.976487900304,0.2,0.737807154655,1.8,0.0,1.0,0.0,1.0,2000000000,0,,,0
1449616903002821994,63,1449616902950931997,/odom,doorways,0,1,0,2.61958360672,-0.771078705788,1.0,0.0,0.0,0.216852815054,0.976204310891,0.2,0.737872004509,1.8,0.0,1.0,0.0,1.0,2000000000,0,,,0
1449616903138516229,64,1449616903088116530,/odom,doorways,0,1,0,2.63137030602,-0.759433746338,1.0,0.0,0.0,0.223655814665,0.974668187932,0.2,0.738165020943,1.8,0.0,1.0,0.0,1.0,2000000000,0,,,0
1449616903303241372,65,1449616903252185961,/odom,doorways,0,1,0,2.63399767876,-0.772275805473,1.0,0.0,0.0,0.220970055575,0.975280592721,0.2,0.737867176533,1.8,0.0,1.0,0.0,1.0,2000000000,0,,,0
1449616903414423161,66,1449616903359886335,/odom,doorways,0,1,0,2.60281634331,-0.751840054989,1.0,0.0,0.0,0.202883065558,0.979202972682,0.2,0.677995741367,1.8,0.0,1.0,0.0,1.0,2000000000,0,,,0
1449616903566517313,67,1449616903515849717,/odom,doorways,0,1,0,2.63453435898,-0.76621222496,1.0,0.0,0.0,0.21963453361,0.975582221879,0.2,0.728156149387,1.8,0.0,1.0,0.0,1.0,2000000000,0,,,0
1449616903704238333,68,1449616903651158583,/odom,doorways,0,1,0,2.63258004189,-0.76857483387,1.0,0.0,0.0,0.218078511454,0.975931228541,0.2,0.72822368145,1.8,0.0,1.0,0.0,1.0,2000000000,0,,,0
1449616903824076354,69,1449616903771846299,/odom,doorways,0,1,0,2.63242673874,-0.772819638252,1.0,0.0,0.0,0.218647575962,0.975803892965,0.2,0.728177011013,1.8,0.0,1.0,0.0,1.0,2000000000,0,,,0
1449616903917474479,70,1449616903866889537,/odom,doorways,0,1,0,2.63118886948,-0.776104331017,1.0,0.0,0.0,0.212859321525,0.977082856896,0.2,0.728923559189,1.8,0.0,1.0,0.0,1.0,2000000000,0,,,0
1449616903999231360,71,1449616903948592950,/odom,doorways,0,1,0,2.63511705399,-0.771316289902,1.0,0.0,0.0,0.220371978197,0.975415906793,0.2,0.728434205055,1.8,0.0,1.0,0.0,1.0,2000000000,0,,,0
1449616904110189632,72,1449616904053573882,/odom,doorways,0,1,0,2.63199138641,-0.778392314911,1.0,0.0,0.0,0.214665330374,0.976687665498,0.2,0.738879203796,1.8,0.0,1.0,0.0,1.0,2000000000,0,,,0
1449616904256404978,73,1449616904203443442,/odom,doorways,0,1,0,2.62494778633,-0.765539526939,1.0,0.0,0.0,0.213785070771,0.976880721232,0.2,0.718726754189,1.8,0.0,1.0,0.0,1.0,2000000000,0,,,0
1449616904434013741,74,1449616904373168604,/odom,doorways,0,1,0,2.62708735466,-0.787812173367,1.0,0.0,0.0,0.21525665191,0.976557511777,0.2,0.728437840939,1.8,0.0,1.0,0.0,1.0,2000000000,0,,,0
1449616904651708147,75,1449616904598044647,/odom,doorways,0,1,0,2.62029790878,-0.797542214394,1.0,0.0,0.0,0.201417168805,0.979505550832,0.2,0.739560902119,1.8,0.0,1.0,0.0,1.0,2000000000,0,,,0
1449616913324493581,76,1449616913273894675,/odom,doorways,0,1,0,8.03364181519,-1.60882222652,1.0,0.0,0.0,-0.756458381137,0.654041831695,0.2,0.699880838394,1.8,0.0,1.0,0.0,1.0,2000000000,0,,,0
1449616913930682877,77,1449616913880342671,/odom,doorways,0,1,0,8.03056812286,-1.74366807938,1.0,0.0,0.0,0.464561896816,0.885540650691,0.2,0.638055384159,1.8,0.0,1.0,0.0,1.0,2000000000,0,,,0
1449616914165234483,78,1449616914113230125,/odom,doorways,0,1,0,8.06810283661,-1.7601852417,1.0,0.0,0.0,0.444853276777,0.895603462555,0.2,0.808419644833,1.8,0.0,1.0,0.0,1.0,2000000000,0,,,0
1449616914404892089,79,1449616914354728525,/odom,doorways,0,1,0,8.09841346741,-1.73673546314,1.0,0.0,0.0,0.426046223089,0.904701395927,0.2,0.717563033104,1.8,0.0,1.0,0.0,1.0,2000000000,0,,,0
1449616918145993971,80,1449616918095690573,/odom,doorways,0,1,0,8.18570804596,-1.76596713066,1.0,0.0,0.0,0.448986475079,0.893538552719,0.2,0.879751443863,1.8,0.0,1.0,0.0,1.0,2000000000,0,,,0
1449616918730258188,81,1449616918680047887,/odom,doorways,0,1,0,8.199467659,-1.81043171883,1.0,0.0,0.0,0.449245686684,0.893408256619,0.2,0.889892935753,1.8,0.0,1.0,0.0,1.0,2000000000,0,,,0
1449616918907246482,82,1449616918857120807,/odom,doorways,0,1,0,8.20935153961,-1.77433681488,1.0,0.0,0.0,0.457922733751,0.888991996541,0.2,0.878114879131,1.8,0.0,1.0,0.0,1.0,2000000000,0,,,0
1449616921445199675,83,1449616921394009250,/odom,doorways,0,1,0,8.37210845947,-1.73750138283,1.0,0.0,0.0,0.454902579678,0.890541207919,0.2,0.82924169302,1.8,0.0,1.0,0.0,1.0,2000000000,0,,,0
1449616922459753881,84,1449616922409351004,/odom,doorways,0,1,0,8.39168834686,-1.69885241985,1.0,0.0,0.0,0.457742987,0.889084561699,0.2,0.78001588583,1.8,0.0,1.0,0.0,1.0,2000000000,0,,,0
1449616923209907137,85,1449616923159211410,/odom,doorways,0,1,0,8.34169197083,-1.87792384624,1.0,0.0,0.0,0.434376737431,0.900731286222,0.2,0.96867030859,1.8,0.0,1.0,0.0,1.0,2000000000,0,,,0
1449616925122249848,86,1449616925071881556,/odom,doorways,0,1,0,8.37366008759,-1.7565972805,1.0,0.0,0.0,0.464362506091,0.885645224081,0.2,0.757818520069,1.8,0.0,1.0,0.0,1.0,2000000000,0,,,0
1449616925183356797,87,1449616925132524606,/odom,doorways,1,1,0,6.90127086639,-1.34333050251,1.0,0.0,0.0,-0.521030388259,0.853538127157,0.2,0.677525401115,1.8,0.0,1.0,0.0,1.0,2000000000,0,,,0
1449616925326446098,88,1449616925275263946,/odom,doorways,0,1,0,8.34745502472,-1.83051323891,1.0,0.0,0.0,0.453201774847,0.891407960069,0.2,0.827429771423,1.8,0.0,1.0,0.0,1.0,2000000000,0,,,0
1449616925577639927,89,1449616925527312542,/odom,doorways,0,1,0,8.42448329926,-1.66724145412,1.0,0.0,0.0,-0.741910873266,0.670498513145,0.2,0.839896500111,1.8,0.0,1.0,0.0,1.0,2000000000,0,,,0
1449616926037891223,90,1449616925985503417,/odom,doorways,0,1,0,8.34397697449,-1.86995255947,1.0,0.0,0.0,0.425228587018,0.905085989717,0.2,0.947026193142,1.8,0.0,1.0,0.0,1.0,2000000000,0,,,0
1449616926343218186,91,1449616926291575146,/odom,doorways,0,1,0,8.31974697113,-1.85637116432,1.0,0.0,0.0,0.460063381184,0.887886076754,0.2,0.946942031384,1.8,0.0,1.0,0.0,1.0,2000000000,0,,,0
1449616926539621032,92,1449616926464510536,/odom,doorways,0,1,0,8.33337974548,-1.73013031483,1.0,0.0,0.0,0.473168589356,0.880971898557,0.2,0.839622437954,1.8,0.0,1.0,0.0,1.0,2000000000,0,,,0
1449616926988435778,93,1449616926937548647,/odom,doorways,0,1,0,8.32923698425,-1.84057617188,1.0,0.0,0.0,0.433518504023,0.901144664674,0.2,0.908691763878,1.8,0.0,1.0,0.0,1.0,2000000000,0,,,0
1449616927756244385,94,1449616927706100533,/odom,doorways,0,1,0,8.33592319489,-1.92587471008,1.0,0.0,0.0,0.430908964224,0.902395403663,0.2,0.927172005177,1.8,0.0,1.0,0.0,1.0,2000000000,0,,,0
1449616927800618067,95,1449616927747731159,/odom,doorways,1,1,0,8.3685760498,-1.86855828762,1.0,0.0,0.0,0.466374413397,0.884587421643,0.2,0.92755150795,1.8,0.0,1.0,0.0,1.0,2000000000,0,,,0
1449616928603822566,96,1449616928553335382,/odom,doorways,0,1,0,8.36636352539,-1.74471187592,1.0,0.0,0.0,0.463373457265,0.886163099605,0.2,0.829863250256,1.8,0.0,1.0,0.0,1.0,2000000000,0,,,0
1449616929718609449,97,1449616929665721233,/odom,doorways,0,1,0,8.40885162354,-1.60423457623,1.0,0.0,0.0,0.482782185845,0.875740464425,0.2,0.799946904182,1.8,0.0,1.0,0.0,1.0,2000000000,0,,,0
1449616930424811799,98,1449616930373530285,/odom,doorways,0,1,0,8.3308801651,-1.83223164082,1.0,0.0,0.0,0.445885370089,0.895090071859,0.2,0.839609384537,1.8,0.0,1.0,0.0,1.0,2000000000,0,,,0
1449616930740984804,99,1449616930689920616,/odom,doorways,0,1,0,8.36087417603,-1.86877393723,1.0,0.0,0.0,0.445284941815,0.895388921415,0.2,0.847721636295,1.8,0.0,1.0,0.0,1.0,2000000000,0,,,0
1449616930810087630,100,1449616930755010687,/odom,doorways,1,1,0,8.43032836914,-1.73815405369,1.0,0.0,0.0,0.435837951495,0.900025155224,0.2,0.817966938019,1.8,0.0,1.0,0.0,1.0,2000000000,0,,,0
1449616931064641535,101,1449616931014160856,/odom,doorways,0,1,0,8.32139968872,-1.8713003397,1.0,0.0,0.0,0.451435987151,0.892303507504,0.2,0.979570925236,1.8,0.0,1.0,0.0,1.0,2000000000,0,,,0
1449616931908302187,102,1449616931856519962,/odom,doorways,0,1,0,8.39145088196,-1.60658633709,1.0,0.0,0.0,0.497085394797,0.867701625145,0.2,0.69980853796,1.8,0.0,1.0,0.0,1.0,2000000000,0,,,0
1449616931926120937,103,1449616931875882709,/odom,doorways,1,1,0,8.48515987396,-1.60179293156,1.0,0.0,0.0,-0.782767030994,0.622314852135,0.2,0.747224509716,1.8,0.0,1.0,0.0,1.0,2000000000,0,,,0
1449616932835236179,104,1449616932782419564,/odom,doorways,0,1,0,8.55006408691,-1.54675674438,1.0,0.0,0.0,-0.764511459442,0.644610136735,0.2,0.809998929501,1.8,0.0,1.0,0.0,1.0,2000000000,0,,,0
1449616932850233226,105,1449616932800136960,/odom,doorways,1,1,0,8.42531108856,-1.58466601372,1.0,0.0,0.0,-0.803885705717,0.594783802859,0.2,0.759978413582,1.8,0.0,1.0,0.0,1.0,2000000000,0,,,0
1449616937622629494,106,1449616937572219965,/odom,doorways,0,1,0,4.96850013733,3.70943379402,1.0,0.0,0.0,0.847627191913,0.530592257322,0.2,0.708808779716,1.8,0.0,1.0,0.0,1.0,2000000000,0,,,0
1449616937629211891,107,1449616937578752860,/odom,doorways,1,1,0,5.78566169739,4.10638570786,1.0,0.0,0.0,0.84762727218,0.530592129094,0.2,0.708808898926,1.8,0.0,1.0,0.0,1.0,2000000000,0,,,0
1449616937732587983,108,1449616937682253454,/odom,doorways,0,1,0,4.97937059402,3.69195818901,1.0,0.0,0.0,0.836559029105,0.547876802596,0.2,0.719482839108,1.8,0.0,1.0,0.0,1.0,2000000000,0,,,0
1449616937740871239,109,1449616937690441671,/odom,doorways,1,1,0,5.78545427322,4.04340219498,1.0,0.0,0.0,0.836555188542,0.547882666749,0.2,0.779434978962,1.8,0.0,1.0,0.0,1.0,2000000000,0,,,0
1449616938126022171,110,1449616938059381109,/odom,doorways,0,1,0,4.94561004639,3.76042175293,1.0,0.0,0.0,0.863684669047,0.504032531146,0.2,0.669711530209,1.8,0.0,1.0,0.0,1.0,2000000000,0,,,0
1449616938454033038,111,1449616938402047938,/odom,doorways,0,1,0,4.91737651825,3.88076639175,1.0,0.0,0.0,0.82122704907,0.570601554392,0.2,0.649826943874,1.8,0.0,1.0,0.0,1.0,2000000000,0,,,0
1449616940179066123,112,1449616940128897883,/odom,doorways,0,1,0,5.9819984436,4.03725528717,1.0,0.0,0.0,0.785460895006,0.618911288002,0.2,0.747984468937,1.8,0.0,1.0,0.0,1.0,2000000000,0,,,0
1449616940205425875,113,1449616940144582041,/odom,doorways,1,1,0,6.9274058342,4.26469230652,1.0,0.0,0.0,0.785460799103,0.618911409712,0.2,0.797850012779,1.8,0.0,1.0,0.0,1.0,2000000000,0,,,0
1449616940428563311,114,1449616940377931079,/odom,doorways,0,1,0,6.08226728439,4.01092243195,1.0,0.0,0.0,0.806781236456,0.590850265722,0.2,0.819766283035,1.8,0.0,1.0,0.0,1.0,2000000000,0,,,0
1449616940437351811,115,1449616940386579799,/odom,doorways,1,1,0,6.93052816391,4.27943515778,1.0,0.0,0.0,0.806778123684,0.590854516057,0.2,0.639815449715,1.8,0.0,1.0,0.0,1.0,2000000000,0,,,0
1449616941520660159,116,1449616941467968919,/odom,doorways,0,1,0,6.13900661469,4.08464050293,1.0,0.0,0.0,0.78677556899,0.617239178957,0.2,0.87914699316,1.8,0.0,1.0,0.0,1.0,2000000000,0,,,0
1449616942146356591,117,1449616942095750919,/odom,doorways,0,1,0,5.91778469086,4.21285915375,1.0,0.0,0.0,0.767138247592,0.641481807288,0.2,1.00836610794,1.8,0.0,1.0,0.0,1.0,2000000000,0,,,0
1449616942578330417,118,1449616942528028723,/odom,doorways,0,1,0,6.96957778931,4.37535429001,1.0,0.0,0.0,0.78130948265,0.624143807405,0.2,0.78959441185,1.8,0.0,1.0,0.0,1.0,2000000000,0,,,0
1449616942882654436,119,1449616942832514374,/odom,doorways,0,1,0,6.53266048431,4.541929245,1.0,0.0,0.0,0.794959504248,0.606662498105,0.2,0.699136316776,1.8,0.0,1.0,0.0,1.0,2000000000,0,,,0
1449616943096258875,120,1449616943045768925,/odom,doorways,0,1,0,4.96938419342,3.948595047,1.0,0.0,0.0,0.817813607508,0.575483191218,0.2,0.658529281616,1.8,0.0,1.0,0.0,1.0,2000000000,0,,,0
1449616943497705364,121,1449616943445344823,/odom,doorways,0,1,0,4.95449256897,4.04447460175,1.0,0.0,0.0,0.79610357771,0.605160386639,0.2,0.668411374092,1.8,0.0,1.0,0.0,1.0,2000000000,0,,,0
1449616944027466288,122,1449616943977001084,/odom,doorways,0,1,0,5.02502012253,3.90151643753,1.0,0.0,0.0,0.828981109109,0.559276604857,0.2,0.778835117817,1.8,0.0,1.0,0.0,1.0,2000000000,0,,,0
1449616944113398675,123,1449616944063097275,/odom,doorways,0,1,0,4.97551250458,3.91124582291,1.0,0.0,0.0,0.834673157828,0.550745603343,0.2,0.707941412926,1.8,0.0,1.0,0.0,1.0,2000000000,0,,,0
1449616944136733745,124,1449616944085759476,/odom,doorways,1,1,0,4.1736702919,3.93290710449,1.0,0.0,0.0,0.779521247131,0.626375785988,0.2,0.637760221958,1.8,0.0,1.0,0.0,1.0,2000000000,0,,,0
1449616944146198681,125,1449616944095057726,/odom,doorways,2,1,0,4.92784547806,4.09919643402,1.0,0.0,0.0,0.779528424959,0.626366853114,0.2,0.667658865452,1.8,0.0,1.0,0.0,1.0,2000000000,0,,,0
1449616944155941858,126,1449616944105446902,/odom,doorways,3,1,0,5.85718393326,4.30411720276,1.0,0.0,0.0,0.779528424959,0.626366853114,0.2,0.677623927593,1.8,0.0,1.0,0.0,1.0,2000000000,0,,,0
1449616944395811626,127,1449616944342034777,/odom,doorways,0,1,0,4.97232103348,3.92665815353,1.0,0.0,0.0,0.838236213843,0.545307298504,0.2,0.718309700489,1.8,0.0,1.0,0.0,1.0,2000000000,0,,,0
1449616944416639525,128,1449616944366243672,/odom,doorways,1,1,0,5.77646398544,4.30296278,1.0,0.0,0.0,0.779005232715,0.627017421929,0.2,0.757697343826,1.8,0.0,1.0,0.0,1.0,2000000000,0,,,0
1449616944470019877,129,1449616944417932459,/odom,doorways,0,1,0,4.9833316803,3.93320274353,1.0,0.0,0.0,0.835939510861,0.54882158684,0.2,0.738396465778,1.8,0.0,1.0,0.0,1.0,2000000000,0,,,0
1449616944491113566,130,1449616944437951306,/odom,doorways,1,1,0,4.9589805603,4.0245423317,1.0,0.0,0.0,0.792420558299,0.609975129644,0.2,0.687840342522,1.8,0.0,1.0,0.0,1.0,2000000000,0,,,0
1449616944497803391,131,1449616944447682771,/odom,doorways,2,1,0,5.78293371201,4.24261856079,1.0,0.0,0.0,0.792420660495,0.609974996882,0.2,0.7576212883,1.8,0.0,1.0,0.0,1.0,2000000000,0,,,0
1449616944573953161,132,1449616944520671033,/odom,doorways,0,1,0,4.98565340042,3.91068863869,1.0,0.0,0.0,0.825770922828,0.56400565867,0.2,0.768796622753,1.8,0.0,1.0,0.0,1.0,2000000000,0,,,0
1449616944622143170,133,1449616944571803213,/odom,doorways,0,1,0,4.95986604691,3.93207502365,1.0,0.0,0.0,0.836440128165,0.548058310762,0.2,0.748461484909,1.8,0.0,1.0,0.0,1.0,2000000000,0,,,0
1449616944635946929,134,1449616944585357181,/odom,doorways,1,1,0,4.10582351685,3.94259858131,1.0,0.0,0.0,0.776286295519,0.630380510001,0.2,0.668338358402,1.8,0.0,1.0,0.0,1.0,2000000000,0,,,0
1449616944641773942,135,1449616944590867765,/odom,doorways,2,1,0,4.89661026001,4.10844182968,1.0,0.0,0.0,0.776293625989,0.630371482738,0.2,0.688286602497,1.8,0.0,1.0,0.0,1.0,2000000000,0,,,0
1449616944661574284,136,1449616944609730142,/odom,doorways,3,1,0,5.75573348999,4.28862524033,1.0,0.0,0.0,0.776293625989,0.630371482738,0.2,0.728187263012,1.8,0.0,1.0,0.0,1.0,2000000000,0,,,0
1449616944848252540,137,1449616944797639011,/odom,doorways,0,1,0,4.93716430664,3.92612409592,1.0,0.0,0.0,0.839035281745,0.544077012919,0.2,0.73822259903,1.8,0.0,1.0,0.0,1.0,2000000000,0,,,0
1449616944883456707,138,1449616944833035910,/odom,doorways,1,1,0,5.73756504059,4.28112745285,1.0,0.0,0.0,0.776286240403,0.630380577874,0.2,0.759256899357,1.8,0.0,1.0,0.0,1.0,2000000000,0,,,0
1449616945049964247,139,1449616944999513313,/odom,doorways,0,1,0,4.92915773392,4.07230901718,1.0,0.0,0.0,0.793674867636,0.608342177136,0.2,0.697401106358,1.8,0.0,1.0,0.0,1.0,2000000000,0,,,0
1449616945224343827,140,1449616945167444403,/odom,doorways,0,1,0,4.97154712677,3.92188024521,1.0,0.0,0.0,0.829234259692,0.55890119212,0.2,0.75863468647,1.8,0.0,1.0,0.0,1.0,2000000000,0,,,0
1449616945430378982,141,1449616945379449685,/odom,doorways,0,1,0,4.93570756912,3.92770671844,1.0,0.0,0.0,0.837616066626,0.546259393448,0.2,0.718488991261,1.8,0.0,1.0,0.0,1.0,2000000000,0,,,0
1449616945442295514,142,1449616945392084284,/odom,doorways,1,1,0,4.10023546219,3.9491853714,1.0,0.0,0.0,0.776575369635,0.630024360859,0.2,0.658227801323,1.8,0.0,1.0,0.0,1.0,2000000000,0,,,0
1449616945448233911,143,1449616945397700123,/odom,doorways,2,1,0,4.89071035385,4.11569929123,1.0,0.0,0.0,0.776569028987,0.630032176336,0.2,0.718063354492,1.8,0.0,1.0,0.0,1.0,2000000000,0,,,0
1449616945455884552,144,1449616945405608112,/odom,doorways,3,1,0,5.74461841583,4.29556846619,1.0,0.0,0.0,0.776569028987,0.630032176336,0.2,0.767928898335,1.8,0.0,1.0,0.0,1.0,2000000000,0,,,0
1449616945614817612,145,1449616945561576623,/odom,doorways,0,1,0,4.95049571991,3.93621730804,1.0,0.0,0.0,0.838368872929,0.545103323145,0.2,0.708411991596,1.8,0.0,1.0,0.0,1.0,2000000000,0,,,0
1449616945647384278,146,1449616945596511038,/odom,doorways,1,1,0,5.76006126404,4.28494501114,1.0,0.0,0.0,0.773846767922,0.633372859994,0.2,0.738643288612,1.8,0.0,1.0,0.0,1.0,2000000000,0,,,0
1449616945815488419,147,1449616945765313194,/odom,doorways,0,1,0,4.97393512726,3.93580174446,1.0,0.0,0.0,0.836436243616,0.548064239269,0.2,0.729105472565,1.8,0.0,1.0,0.0,1.0,2000000000,0,,,0
1449616945838559342,148,1449616945785366370,/odom,doorways,1,1,0,5.78517341614,4.28790092468,1.0,0.0,0.0,0.773588595453,0.633688160679,0.2,0.758556127548,1.8,0.0,1.0,0.0,1.0,2000000000,0,,,0
1449616946041718817,149,1449616945989232243,/odom,doorways,0,1,0,4.94801712036,3.9495139122,1.0,0.0,0.0,0.841153235529,0.540796851284,0.2,0.727528512478,1.8,0.0,1.0,0.0,1.0,2000000000,0,,,0
1449616946090521184,150,1449616946032413572,/odom,doorways,1,1,0,5.74600934982,4.30073928833,1.0,0.0,0.0,0.775626830585,0.631191745571,0.2,0.747661590576,1.8,0.0,1.0,0.0,1.0,2000000000,0,,,0
1449616946221668722,151,1449616946171379144,/odom,doorways,0,1,0,4.95366764069,3.93847322464,1.0,0.0,0.0,0.835579904456,0.549368931839,0.2,0.728839755058,1.8,0.0,1.0,0.0,1.0,2000000000,0,,,0
1449616946249264952,152,1449616946194104252,/odom,doorways,1,1,0,5.80871772766,4.30422401428,1.0,0.0,0.0,0.77516517166,0.631758622137,0.2,0.648885071278,1.8,0.0,1.0,0.0,1.0,2000000000,0,,,0
1449616946327731022,153,1449616946277578239,/odom,doorways,0,1,0,4.92744207382,3.92365074158,1.0,0.0,0.0,0.836208652359,0.548411423769,0.2,0.738056898117,1.8,0.0,1.0,0.0,1.0,2000000000,0,,,0
1449616946469272047,154,1449616946418710061,/odom,doorways,0,1,0,4.91608667374,3.94297170639,1.0,0.0,0.0,0.843375350798,0.537324871624,0.2,0.719121813774,1.8,0.0,1.0,0.0,1.0,2000000000,0,,,0
1449616946485798326,155,1449616946435461559,/odom,doorways,1,1,0,5.7138838768,4.30707979202,1.0,0.0,0.0,0.778395727245,0.62777391775,0.2,0.737373709679,1.8,0.0,1.0,0.0,1.0,2000000000,0,,,0
1449616946647458523,156,1449616946596648566,/odom,doorways,0,1,0,4.94345998764,3.9437046051,1.0,0.0,0.0,0.839729423373,0.543005060309,0.2,0.70892059803,1.8,0.0,1.0,0.0,1.0,2000000000,0,,,0
1449616946833595157,157,1449616946783344866,/odom,doorways,0,1,0,4.9237704277,3.94600820541,1.0,0.0,0.0,0.843274309183,0.537483431811,0.2,0.718048989773,1.8,0.0,1.0,0.0,1.0,2000000000,0,,,0
1449616947012952475,158,1449616946962590102,/odom,doorways,0,1,0,4.95015573502,3.95558524132,1.0,0.0,0.0,0.839835504988,0.542840975389,0.2,0.719031870365,1.8,0.0,1.0,0.0,1.0,2000000000,0,,,0
1449616947117568998,159,1449616947064992602,/odom,doorways,0,1,0,4.95768642426,3.95334386826,1.0,0.0,0.0,0.837385230266,0.546613186935,0.2,0.73913615942,1.8,0.0,1.0,0.0,1.0,2000000000,0,,,0
1449616947217424609,160,1449616947167293906,/odom,doorways,0,1,0,4.92231845856,3.94915914536,1.0,0.0,0.0,0.842119648626,0.539290735501,0.2,0.748373091221,1.8,0.0,1.0,0.0,1.0,2000000000,0,,,0
1449616947343587976,161,1449616947287477691,/odom,doorways,0,1,0,4.90902757645,3.93966913223,1.0,0.0,0.0,0.839876135529,0.542778110251,0.2,0.698556780815,1.8,0.0,1.0,0.0,1.0,2000000000,0,,,0
1449616947558314487,162,1449616947508081020,/odom,doorways,0,1,0,4.9780330658,3.96578264236,1.0,0.0,0.0,0.839447299022,0.543441102757,0.2,0.688990175724,1.8,0.0,1.0,0.0,1.0,2000000000,0,,,0
1449616947709945189,163,1449616947658632470,/odom,doorways,0,1,0,4.96007013321,3.95676898956,1.0,0.0,0.0,0.837024460004,0.54716547164,0.2,0.748378515244,1.8,0.0,1.0,0.0,1.0,2000000000,0,,,0
1449616947808084809,164,1449616947753045812,/odom,doorways,0,1,0,4.94364309311,3.96152830124,1.0,0.0,0.0,0.841132342171,0.540829347349,0.2,0.728153288364,1.8,0.0,1.0,0.0,1.0,2000000000,0,,,0
1449616947923493093,165,1449616947873378890,/odom,doorways,0,1,0,4.94720840454,3.96165180206,1.0,0.0,0.0,0.842040500984,0.539414307098,0.2,0.72873955965,1.8,0.0,1.0,0.0,1.0,2000000000,0,,,0
1449616947943739542,166,1449616947891784641,/odom,doorways,1,1,0,5.73598384857,4.31610441208,1.0,0.0,0.0,0.775410650944,0.631457300537,0.2,0.747665047646,1.8,0.0,1.0,0.0,1.0,2000000000,0,,,0
1449616948011421847,167,1449616947961080384,/odom,doorways,0,1,0,4.95520401001,3.95844602585,1.0,0.0,0.0,0.838807828845,0.544427613433,0.2,0.738913059235,1.8,0.0,1.0,0.0,1.0,2000000000,0,,,0
1449616948163227748,168,1449616948101010189,/odom,doorways,0,1,0,4.93986225128,3.94958686829,1.0,0.0,0.0,0.838122282877,0.545482391049,0.2,0.719040334225,1.8,0.0,1.0,0.0,1.0,2000000000,0,,,0
1449616948230109062,169,1449616948167047203,/odom,doorways,0,1,0,4.9499001503,3.95812606812,1.0,0.0,0.0,0.839454815694,0.543429491662,0.2,0.738268733025,1.8,0.0,1.0,0.0,1.0,2000000000,0,,,0
1449616948316130621,170,1449616948264628815,/odom,doorways,0,1,0,4.9438996315,3.9576010704,1.0,0.0,0.0,0.839528225659,0.543316075891,0.2,0.718553185463,1.8,0.0,1.0,0.0,1.0,2000000000,0,,,0
1449616948472971923,171,1449616948422242963,/odom,doorways,0,1,0,4.9787364006,3.96647357941,1.0,0.0,0.0,0.836234824737,0.548371514483,0.2,0.68886244297,1.8,0.0,1.0,0.0,1.0,2000000000,0,,,0
1449616948635926284,172,1449616948569182727,/odom,doorways,0,1,0,4.93016624451,3.95569133759,1.0,0.0,0.0,0.841706971673,0.539934601445,0.2,0.718499839306,1.8,0.0,1.0,0.0,1.0,2000000000,0,,,0
1449616948707588774,173,1449616948657275926,/odom,doorways,0,1,0,4.97103691101,3.96192145348,1.0,0.0,0.0,0.836972797965,0.547244493318,0.2,0.688559055328,1.8,0.0,1.0,0.0,1.0,2000000000,0,,,0
1449616948862004270,174,1449616948811616812,/odom,doorways,0,1,0,4.93783855438,3.95393037796,1.0,0.0,0.0,0.840503427135,0.541806228253,0.2,0.728569030762,1.8,0.0,1.0,0.0,1.0,2000000000,0,,,0
1449616949035123441,175,1449616948984319548,/odom,doorways,0,1,0,4.96868658066,3.96737766266,1.0,0.0,0.0,0.842128440839,0.539277005934,0.2,0.738367021084,1.8,0.0,1.0,0.0,1.0,2000000000,0,,,0
1449616949108654253,176,1449616949057861211,/odom,doorways,0,1,0,4.95154428482,3.95975255966,1.0,0.0,0.0,0.840105947581,0.542422341759,0.2,0.728735089302,1.8,0.0,1.0,0.0,1.0,2000000000,0,,,0
1449616949206791387,177,1449616949155570129,/odom,doorways,0,1,0,4.95968294144,3.96452713013,1.0,0.0,0.0,0.842096837076,0.539326354805,0.2,0.678105831146,1.8,0.0,1.0,0.0,1.0,2000000000,0,,,0
1449616949418302835,178,1449616949330915338,/odom,doorways,0,1,0,4.95452737808,3.96957850456,1.0,0.0,0.0,0.844861906747,0.534984446996,0.2,0.668029725552,1.8,0.0,1.0,0.0,1.0,2000000000,0,,,0
1449616949418322881,179,1449616949356370480,/odom,doorways,1,1,0,5.72444438934,4.31076526642,1.0,0.0,0.0,0.782587831277,0.622540188532,0.2,0.748372972012,1.8,0.0,1.0,0.0,1.0,2000000000,0,,,0
1449616949527106297,180,1449616949469530974,/odom,doorways,0,1,0,4.92997455597,3.95148134232,1.0,0.0,0.0,0.840895916705,0.541196874778,0.2,0.729048907757,1.8,0.0,1.0,0.0,1.0,2000000000,0,,,0
1449616949631762169,181,1449616949581547792,/odom,doorways,0,1,0,4.99677085876,3.96824598312,1.0,0.0,0.0,0.838812897915,0.54441980336,0.2,0.668776571751,1.8,0.0,1.0,0.0,1.0,2000000000,0,,,0
1449616949706570592,182,1449616949655736234,/odom,doorways,0,1,0,4.95669364929,3.95691251755,1.0,0.0,0.0,0.836696451443,0.5476669135,0.2,0.728913724422,1.8,0.0,1.0,0.0,1.0,2000000000,0,,,0
1449616949798203666,183,1449616949745810675,/odom,doorways,0,1,0,4.94571352005,3.94469213486,1.0,0.0,0.0,0.836522382921,0.547932753969,0.2,0.718916594982,1.8,0.0,1.0,0.0,1.0,2000000000,0,,,0
1449616949962384468,184,1449616949903584049,/odom,doorways,0,1,0,4.93713855743,3.95414304733,1.0,0.0,0.0,0.84258372133,0.538565383728,0.2,0.718215167522,1.8,0.0,1.0,0.0,1.0,2000000000,0,,,0
1449616950002884925,185,1449616949949538710,/odom,doorways,0,1,0,4.95354652405,3.95671367645,1.0,0.0,0.0,0.843299101741,0.537444532024,0.2,0.717852592468,1.8,0.0,1.0,0.0,1.0,2000000000,0,,,0
1449616950132085124,186,1449616950080594507,/odom,doorways,0,1,0,4.92632770538,3.95187807083,1.0,0.0,0.0,0.842365265975,0.538907003739,0.2,0.708272874355,1.8,0.0,1.0,0.0,1.0,2000000000,0,,,0
1449616950214609882,187,1449616950163254261,/odom,doorways,0,1,0,4.97274160385,3.97639036179,1.0,0.0,0.0,0.841548945451,0.540180870089,0.2,0.678329885006,1.8,0.0,1.0,0.0,1.0,2000000000,0,,,0
1449616950321403991,188,1449616950267779603,/odom,doorways,0,1,0,4.98442745209,3.98694562912,1.0,0.0,0.0,0.842610035,0.538524213864,0.2,0.66882699728,1.8,0.0,1.0,0.0,1.0,2000000000,0,,,0
1449616950416713986,189,1449616950364780752,/odom,doorways,0,1,0,4.94150257111,3.95894527435,1.0,0.0,0.0,0.840415725118,0.541942256126,0.2,0.727850794792,1.8,0.0,1.0,0.0,1.0,2000000000,0,,,0
1449616950530101591,190,1449616950479754795,/odom,doorways,0,1,0,4.96274757385,3.96826505661,1.0,0.0,0.0,0.838137440217,0.545459101406,0.2,0.747845351696,1.8,0.0,1.0,0.0,1.0,2000000000,0,,,0
1449616950623434523,191,1449616950573170762,/odom,doorways,0,1,0,4.99097442627,3.96925449371,1.0,0.0,0.0,0.838629915382,0.544701629358,0.2,0.737655222416,1.8,0.0,1.0,0.0,1.0,2000000000,0,,,0
1449616950720251035,192,1449616950669728940,/odom,doorways,0,1,0,4.95823955536,3.96027779579,1.0,0.0,0.0,0.837533943415,0.546385297777,0.2,0.747428238392,1.8,0.0,1.0,0.0,1.0,2000000000,0,,,0
1449616950846919070,193,1449616950789683694,/odom,doorways,0,1,0,4.97071933746,3.97425556183,1.0,0.0,0.0,0.837174421254,0.546936000277,0.2,0.737652897835,1.8,0.0,1.0,0.0,1.0,2000000000,0,,,0
1449616950940762114,194,1449616950889906493,/odom,doorways,0,1,0,4.95219135284,3.963326931,1.0,0.0,0.0,0.838470807317,0.544946515978,0.2,0.717419505119,1.8,0.0,1.0,0.0,1.0,2000000000,0,,,0
1449616951062081721,195,1449616951011945523,/odom,doorways,0,1,0,4.9631986618,3.97282600403,1.0,0.0,0.0,0.838907915363,0.544273377579,0.2,0.727789402008,1.8,0.0,1.0,0.0,1.0,2000000000,0,,,0
1449616951271773051,196,1449616951221266116,/odom,doorways,0,1,0,4.99561309814,3.98001289368,1.0,0.0,0.0,0.838336036762,0.54515382184,0.2,0.717261970043,1.8,0.0,1.0,0.0,1.0,2000000000,0,,,0
1449616951454025743,197,1449616951392820909,/odom,doorways,0,1,0,4.96177530289,3.97206830978,1.0,0.0,0.0,0.838426037491,0.545015393964,0.2,0.717404723167,1.8,0.0,1.0,0.0,1.0,2000000000,0,,,0
1449616951546249016,198,1449616951495873056,/odom,doorways,0,1,0,4.96081399918,3.97719621658,1.0,0.0,0.0,0.839049199801,0.544055548923,0.2,0.717346906662,1.8,0.0,1.0,0.0,1.0,2000000000,0,,,0
1449616951649082600,199,1449616951594093594,/odom,doorways,0,1,0,4.98857402802,3.98462867737,1.0,0.0,0.0,0.840814966188,0.541322632665,0.2,0.727458417416,1.8,0.0,1.0,0.0,1.0,2000000000,0,,,0
1449616951802506778,200,1449616951749507090,/odom,doorways,0,1,0,4.95633888245,3.97716832161,1.0,0.0,0.0,0.839931493972,0.542692440922,0.2,0.717414140701,1.8,0.0,1.0,0.0,1.0,2000000000,0,,,0
1449616951913668070,201,1449616951863463189,/odom,doorways,0,1,0,4.94464588165,3.9748339653,1.0,0.0,0.0,0.841992178896,0.539489731763,0.2,0.717450499535,1.8,0.0,1.0,0.0,1.0,2000000000,0,,,0
1449616952015806376,202,1449616951962806241,/odom,doorways,0,1,0,4.95494508743,3.97929430008,1.0,0.0,0.0,0.840819214338,0.541316034124,0.2,0.717385232449,1.8,0.0,1.0,0.0,1.0,2000000000,0,,,0
1449616952097770318,203,1449616952045199660,/odom,doorways,0,1,0,4.94560003281,3.98086619377,1.0,0.0,0.0,0.841989219604,0.53949435036,0.2,0.727373123169,1.8,0.0,1.0,0.0,1.0,2000000000,0,,,0
1449616952221011832,204,1449616952170643602,/odom,doorways,0,1,0,4.98214817047,3.9988090992,1.0,0.0,0.0,0.842984242701,0.537938255339,0.2,0.667637884617,1.8,0.0,1.0,0.0,1.0,2000000000,0,,,0
1449616952326506276,205,1449616952274859368,/odom,doorways,0,1,0,4.96184062958,3.97305488586,1.0,0.0,0.0,0.835161112604,0.550005378151,0.2,0.747265458107,1.8,0.0,1.0,0.0,1.0,2000000000,0,,,0
1449616952403534167,206,1449616952346477341,/odom,doorways,0,1,0,4.94680213928,3.98541784286,1.0,0.0,0.0,0.844164786935,0.536083773769,0.2,0.737347722054,1.8,0.0,1.0,0.0,1.0,2000000000,0,,,0
1449616952505678131,207,1449616952455248830,/odom,doorways,0,1,0,4.94759273529,3.99198770523,1.0,0.0,0.0,0.84540887211,0.534119685986,0.2,0.737876057625,1.8,0.0,1.0,0.0,1.0,2000000000,0,,,0
1449616952606797535,208,1449616952550227329,/odom,doorways,0,1,0,4.95942735672,3.99425554276,1.0,0.0,0.0,0.844064532934,0.536241609951,0.2,0.727678835392,1.8,0.0,1.0,0.0,1.0,2000000000,0,,,0
1449616952701313886,209,1449616952649671165,/odom,doorways,0,1,0,4.95300388336,3.99199128151,1.0,0.0,0.0,0.844761162166,0.53514351243,0.2,0.727377176285,1.8,0.0,1.0,0.0,1.0,2000000000,0,,,0
1449616952843011034,210,1449616952791473882,/odom,doorways,0,1,0,4.93806266785,3.98289585114,1.0,0.0,0.0,0.845258281402,0.534357967772,0.2,0.71766513586,1.8,0.0,1.0,0.0,1.0,2000000000,0,,,0
1449616953013642989,211,1449616952961853555,/odom,doorways,0,1,0,4.94760322571,3.9913816452,1.0,0.0,0.0,0.845688684799,0.533676539117,0.2,0.737423479557,1.8,0.0,1.0,0.0,1.0,2000000000,0,,,0
1449616953097441129,212,1449616953046318647,/odom,doorways,0,1,0,4.95655536652,3.99848651886,1.0,0.0,0.0,0.843918527146,0.536471359478,0.2,0.727416157722,1.8,0.0,1.0,0.0,1.0,2000000000,0,,,0
1449616953192181542,213,1449616953140967269,/odom,doorways,0,1,0,4.95943880081,4.00357246399,1.0,0.0,0.0,0.845169592066,0.534498232595,0.2,0.727248430252,1.8,0.0,1.0,0.0,1.0,2000000000,0,,,0
1449616953310600322,214,1449616953254110372,/odom,doorways,0,1,0,4.96249008179,4.0075674057,1.0,0.0,0.0,0.844702864325,0.535235528531,0.2,0.72726380825,1.8,0.0,1.0,0.0,1.0,2000000000,0,,,0
1449616953465987101,215,1449616953409559977,/odom,doorways,0,1,0,4.96699237823,4.01675796509,1.0,0.0,0.0,0.838961556384,0.544190689841,0.2,0.727853477001,1.8,0.0,1.0,0.0,1.0,2000000000,0,,,0
1449616953594579127,216,1449616953539333645,/odom,doorways,0,1,0,4.95762252808,4.00874996185,1.0,0.0,0.0,0.844870446194,0.534970961032,0.2,0.737405598164,1.8,0.0,1.0,0.0,1.0,2000000000,0,,,0
1449616953731876822,217,1449616953680244178,/odom,doorways,0,1,0,4.95765399933,4.0115647316,1.0,0.0,0.0,0.847639873299,0.530571998124,0.2,0.728482544422,1.8,0.0,1.0,0.0,1.0,2000000000,0,,,0
1449616953873119902,218,1449616953819125585,/odom,doorways,0,1,0,4.95989751816,4.01553440094,1.0,0.0,0.0,0.846357599035,0.532615071656,0.2,0.737213253975,1.8,0.0,1.0,0.0,1.0,2000000000,0,,,0
1449616954045047411,219,1449616953992201263,/odom,doorways,0,1,0,4.9909620285,4.02692508698,1.0,0.0,0.0,0.844654477641,0.535311884233,0.2,0.727278769016,1.8,0.0,1.0,0.0,1.0,2000000000,0,,,0
1449616954150028451,220,1449616954099149353,/odom,doorways,0,1,0,4.96411180496,4.0203704834,1.0,0.0,0.0,0.84723475715,0.531218661454,0.2,0.737288296223,1.8,0.0,1.0,0.0,1.0,2000000000,0,,,0
1449616954246307213,221,1449616954195682131,/odom,doorways,0,1,0,4.96657323837,4.01634693146,1.0,0.0,0.0,0.846831091227,0.531861920926,0.2,0.717407226562,1.8,0.0,1.0,0.0,1.0,2000000000,0,,,0
1449616954346433293,222,1449616954282559377,/odom,doorways,0,1,0,4.98121261597,4.02702903748,1.0,0.0,0.0,0.848305113814,0.529507727873,0.2,0.727320730686,1.8,0.0,1.0,0.0,1.0,2000000000,0,,,0
1449616954515771698,223,1449616954460990220,/odom,doorways,0,1,0,4.98467111588,4.03115701675,1.0,0.0,0.0,0.847094147868,0.531442851723,0.2,0.737609088421,1.8,0.0,1.0,0.0,1.0,2000000000,0,,,0
1449616954643499162,224,1449616954593107255,/odom,doorways,0,1,0,4.95866012573,4.0191617012,1.0,0.0,0.0,0.848966995199,0.528445873351,0.2,0.717473268509,1.8,0.0,1.0,0.0,1.0,2000000000,0,,,0
1449616954697959329,225,1449616954646866368,/odom,doorways,0,1,0,4.96649646759,4.02075576782,1.0,0.0,0.0,0.848384696831,0.529380209474,0.2,0.727427721024,1.8,0.0,1.0,0.0,1.0,2000000000,0,,,0
1449616954809076523,226,1449616954757606769,/odom,doorways,0,1,0,4.96779060364,4.02259063721,1.0,0.0,0.0,0.848339429702,0.529452747668,0.2,0.727444350719,1.8,0.0,1.0,0.0,1.0,2000000000,0,,,0
1449616954894193861,227,1449616954843099734,/odom,doorways,0,1,0,4.96921539307,4.02890825272,1.0,0.0,0.0,0.850920816182,0.525293979203,0.2,0.737321853638,1.8,0.0,1.0,0.0,1.0,2000000000,0,,,0
1449616955018265904,228,1449616954962462083,/odom,doorways,0,1,0,4.96822357178,4.0308098793,1.0,0.0,0.0,0.850892683943,0.525339547733,0.2,0.727435827255,1.8,0.0,1.0,0.0,1.0,2000000000,0,,,0
1449616955103595318,229,1449616955050784674,/odom,doorways,0,1,0,4.96919393539,4.03171110153,1.0,0.0,0.0,0.85177935039,0.523900695027,0.2,0.737470090389,1.8,0.0,1.0,0.0,1.0,2000000000,0,,,0
1449616955573365312,230,1449616955523219634,/odom,doorways,0,1,0,2.82498264313,6.89447975159,1.0,0.0,0.0,-0.986505527329,0.163727958975,0.2,1.04983282089,1.8,0.0,1.0,0.0,1.0,2000000000,0,,,0
1449616955719342008,231,1449616955666233364,/odom,doorways,0,1,0,2.83075761795,6.93379259109,1.0,0.0,0.0,-0.986621345747,0.16302858681,0.2,1.06985211372,1.8,0.0,1.0,0.0,1.0,2000000000,0,,,0
1449616955850536092,232,1449616955800327847,/odom,doorways,0,1,0,2.86482715607,6.90364694595,1.0,0.0,0.0,-0.987042098931,0.160461506091,0.2,1.06926977634,1.8,0.0,1.0,0.0,1.0,2000000000,0,,,0
1449616955984349554,233,1449616955932935966,/odom,doorways,0,1,0,2.84660506248,6.93054580688,1.0,0.0,0.0,-0.986504266041,0.163735558395,0.2,0.999795675278,1.8,0.0,1.0,0.0,1.0,2000000000,0,,,0
1449616957381624724,234,1449616957330064759,/odom,doorways,0,1,0,2.77724456787,6.89754486084,1.0,0.0,0.0,-0.983897232103,0.178735101925,0.2,1.04986107349,1.8,0.0,1.0,0.0,1.0,2000000000,0,,,0
1449616957578833380,235,1449616957527651386,/odom,doorways,0,1,0,2.79954099655,6.94593286514,1.0,0.0,0.0,-0.983415777896,0.181365398536,0.2,0.999751389027,1.8,0.0,1.0,0.0,1.0,2000000000,0,,,0
1449616957803559173,236,1449616957745303945,/odom,doorways,0,1,0,2.83089065552,6.88378238678,1.0,0.0,0.0,-0.983952554006,0.178430298618,0.2,1.00968301296,1.8,0.0,1.0,0.0,1.0,2000000000,0,,,0
1449616958122390523,237,1449616958055131647,/odom,doorways,0,1,0,2.82230639458,6.93002843857,1.0,0.0,0.0,-0.983343688201,0.181755855135,0.2,1.03952610493,1.8,0.0,1.0,0.0,1.0,2000000000,0,,,0
1449616958277873619,238,1449616958226699641,/odom,doorways,0,1,0,2.7929930687,6.90123462677,1.0,0.0,0.0,-0.981835188477,0.189735770662,0.2,1.06985783577,1.8,0.0,1.0,0.0,1.0,2000000000,0,,,0
1449616958843684474,239,1449616958791343083,/odom,doorways,0,1,0,2.81339430809,6.9265961647,1.0,0.0,0.0,-0.984936020486,0.172919159001,0.2,1.0599257946,1.8,0.0,1.0,0.0,1.0,2000000000,0,,,0
1449616959328112302,240,1449616959277754776,/odom,doorways,0,1,0,2.78764653206,6.91677284241,1.0,0.0,0.0,-0.982149696975,0.188100964197,0.2,1.03997373581,1.8,0.0,1.0,0.0,1.0,2000000000,0,,,0
1449616959704059881,241,1449616959653120023,/odom,doorways,0,1,0,2.85003638268,6.89621067047,1.0,0.0,0.0,-0.986604778206,0.163128819099,0.2,0.889938473701,1.8,0.0,1.0,0.0,1.0,2000000000,0,,,0
1449616960081432883,242,1449616960030927009,/odom,doorways,0,1,0,2.83171081543,6.93148183823,1.0,0.0,0.0,-0.98329007742,0.182045663632,0.2,1.0398671627,1.8,0.0,1.0,0.0,1.0,2000000000,0,,,0
1449616960340088068,243,1449616960285769096,/odom,doorways,0,1,0,2.81469869614,6.88268661499,1.0,0.0,0.0,-0.984090197878,0.177669587833,0.2,0.889885604382,1.8,0.0,1.0,0.0,1.0,2000000000,0,,,0
1449616960621036208,244,1449616960569839381,/odom,doorways,0,1,0,2.78868484497,6.96618747711,1.0,0.0,0.0,-0.98314420439,0.182831817184,0.2,1.06953692436,1.8,0.0,1.0,0.0,1.0,2000000000,0,,,0
1449616960928097399,245,1449616960874809271,/odom,doorways,0,1,0,2.80757284164,6.92889308929,1.0,0.0,0.0,-0.984935486703,0.172922199365,0.2,1.04998207092,1.8,0.0,1.0,0.0,1.0,2000000000,0,,,0
1449616961327931910,246,1449616961277295753,/odom,doorways,0,1,0,2.81605315208,6.93198442459,1.0,0.0,0.0,-0.984260024994,0.17672635117,0.2,1.04916977882,1.8,0.0,1.0,0.0,1.0,2000000000,0,,,0
1449616962213740054,247,1449616962163243716,/odom,doorways,0,1,0,2.80674910545,6.90817022324,1.0,0.0,0.0,-0.983978435447,0.178287516601,0.2,1.06998360157,1.8,0.0,1.0,0.0,1.0,2000000000,0,,,0
1449616962458592550,248,1449616962406119400,/odom,doorways,0,1,0,2.799741745,6.90474319458,1.0,0.0,0.0,-0.982152734775,0.188085101944,0.2,1.06930029392,1.8,0.0,1.0,0.0,1.0,2000000000,0,,,0
1449616962671563540,249,1449616962621359519,/odom,doorways,0,1,0,2.8048915863,6.82882022858,1.0,0.0,0.0,-0.983222532822,0.182410117459,0.2,0.950003385544,1.8,0.0,1.0,0.0,1.0,2000000000,0,,,0
1449616962819402562,250,1449616962769112776,/odom,doorways,0,1,0,2.81240653992,6.91687965393,1.0,0.0,0.0,-0.983526104928,0.180766149833,0.2,1.04887652397,1.8,0.0,1.0,0.0,1.0,2000000000,0,,,0
1449616962912737644,251,1449616962859648934,/odom,doorways,0,1,0,2.81010055542,6.81424617767,1.0,0.0,0.0,-0.981781813712,0.190011763488,0.2,0.859947443008,1.8,0.0,1.0,0.0,1.0,2000000000,0,,,0
1449616963093828003,252,1449616963041678130,/odom,doorways,0,1,0,2.8398308754,6.79329490662,1.0,0.0,0.0,-0.982564732236,0.185920808322,0.2,0.809141337872,1.8,0.0,1.0,0.0,1.0,2000000000,0,,,0
1449616963488149321,253,1449616963437375471,/odom,doorways,0,1,0,2.79082894325,6.94790649414,1.0,0.0,0.0,-0.984069367179,0.177784927877,0.2,1.06984710693,1.8,0.0,1.0,0.0,1.0,2000000000,0,,,0
1449616963682313767,254,1449616963632040152,/odom,doorways,0,1,0,2.81274724007,6.90234804153,1.0,0.0,0.0,-0.984436458848,0.175740884517,0.2,1.03972959518,1.8,0.0,1.0,0.0,1.0,2000000000,0,,,0
1449616963874192192,255,1449616963821923461,/odom,doorways,0,1,0,2.77080869675,6.88196611404,1.0,0.0,0.0,-0.980490284555,0.196567550457,0.2,1.03989839554,1.8,0.0,1.0,0.0,1.0,2000000000,0,,,0
1449616964029578686,256,1449616963976617840,/odom,doorways,0,1,0,2.81808614731,6.90432071686,1.0,0.0,0.0,-0.984335790081,0.176303863731,0.2,1.04958343506,1.8,0.0,1.0,0.0,1.0,2000000000,0,,,0
1449616964161193212,257,1449616964109030506,/odom,doorways,0,1,0,2.81676054001,6.90904283524,1.0,0.0,0.0,-0.983942591687,0.178485227019,0.2,1.03971707821,1.8,0.0,1.0,0.0,1.0,2000000000,0,,,0
1449616964494293087,258,1449616964443672261,/odom,doorways,0,1,0,2.79422783852,6.89374017715,1.0,0.0,0.0,-0.982593879186,0.185766704728,0.2,1.05972325802,1.8,0.0,1.0,0.0,1.0,2000000000,0,,,0
1449616964810283153,259,1449616964751195187,/odom,doorways,0,1,0,2.8028447628,6.92568540573,1.0,0.0,0.0,-0.982916991624,0.18404941613,0.2,1.00923883915,1.8,0.0,1.0,0.0,1.0,2000000000,0,,,0
1449616964936407429,260,1449616964884313417,/odom,doorways,0,1,0,2.81158614159,6.89920711517,1.0,0.0,0.0,-0.983189572947,0.182587687562,0.2,0.939557611942,1.8,0.0,1.0,0.0,1.0,2000000000,0,,,0
1449616965127110561,261,1449616965076525573,/odom,doorways,0,1,0,2.83107948303,6.86910772324,1.0,0.0,0.0,-0.984423209362,0.175815087148,0.2,0.929762661457,1.8,0.0,1.0,0.0,1.0,2000000000,0,,,0
1449616965319669405,262,1449616965267437091,/odom,doorways,0,1,0,2.85542178154,6.79601383209,1.0,0.0,0.0,-0.983105064223,0.183042160989,0.2,0.749837398529,1.8,0.0,1.0,0.0,1.0,2000000000,0,,,0
1449616965571035551,263,1449616965520364158,/odom,doorways,0,1,0,2.8261256218,6.89531421661,1.0,0.0,0.0,-0.983449256443,0.181183774113,0.2,1.04991257191,1.8,0.0,1.0,0.0,1.0,2000000000,0,,,0
1449616965668365055,264,1449616965604654705,/odom,doorways,0,1,0,2.7945227623,6.88157272339,1.0,0.0,0.0,-0.982624632658,0.185603963571,0.2,1.05985713005,1.8,0.0,1.0,0.0,1.0,2000000000,0,,,0
1449616965824485372,265,1449616965773817188,/odom,doorways,0,1,0,2.80730462074,6.88725662231,1.0,0.0,0.0,-0.984616286202,0.174730560997,0.2,1.08000183105,1.8,0.0,1.0,0.0,1.0,2000000000,0,,,0
1449616965996356932,266,1449616965946068225,/odom,doorways,0,1,0,2.85131263733,6.82054615021,1.0,0.0,0.0,-0.984590982151,0.174873090744,0.2,0.909913241863,1.8,0.0,1.0,0.0,1.0,2000000000,0,,,0
1449616966177092345,267,1449616966123415729,/odom,doorways,0,1,0,2.86461162567,6.84588766098,1.0,0.0,0.0,-0.985442315232,0.170010127202,0.2,0.889944970608,1.8,0.0,1.0,0.0,1.0,2000000000,0,,,0
1449616966433268903,268,1449616966378688350,/odom,doorways,0,1,0,2.79501581192,6.92833948135,1.0,0.0,0.0,-0.983184570835,0.182614620641,0.2,1.07962477207,1.8,0.0,1.0,0.0,1.0,2000000000,0,,,0
1449616966586797708,269,1449616966536519364,/odom,doorways,0,1,0,2.78948020935,6.87635707855,1.0,0.0,0.0,-0.98072542574,0.195390990855,0.2,1.04949951172,1.8,0.0,1.0,0.0,1.0,2000000000,0,,,0
1449616966856188127,270,1449616966805591676,/odom,doorways,0,1,0,2.79260921478,6.93295955658,1.0,0.0,0.0,-0.983220351987,0.182421872148,0.2,1.05979692936,1.8,0.0,1.0,0.0,1.0,2000000000,0,,,0
1449616966958547116,271,1449616966907764983,/odom,doorways,0,1,0,2.85435700417,6.80437707901,1.0,0.0,0.0,-0.985340977339,0.170596478205,0.2,0.760005950928,1.8,0.0,1.0,0.0,1.0,2000000000,0,,,0
1449616967157249752,272,1449616967107119718,/odom,doorways,0,1,0,2.79107046127,6.929210186,1.0,0.0,0.0,-0.982597840149,0.185745752397,0.2,1.04997730255,1.8,0.0,1.0,0.0,1.0,2000000000,0,,,0
1449616967384085047,273,1449616967333710199,/odom,doorways,0,1,0,2.78158283234,6.90950727463,1.0,0.0,0.0,-0.983739722622,0.17959999481,0.2,1.03986227512,1.8,0.0,1.0,0.0,1.0,2000000000,0,,,0
1449616967682826462,274,1449616967629026331,/odom,doorways,0,1,0,2.80353879929,6.92794895172,1.0,0.0,0.0,-0.985250542577,0.171117995408,0.2,1.03987514973,1.8,0.0,1.0,0.0,1.0,2000000000,0,,,0
1449616968060472728,275,1449616968009961259,/odom,doorways,0,1,0,2.8330051899,6.84577846527,1.0,0.0,0.0,-0.983532016914,0.180733980495,0.2,0.869802057743,1.8,0.0,1.0,0.0,1.0,2000000000,0,,,0
1449616968223034419,276,1449616968170718257,/odom,doorways,0,1,0,2.82634949684,6.91193771362,1.0,0.0,0.0,-0.985492982269,0.169716180429,0.2,0.989979445934,1.8,0.0,1.0,0.0,1.0,2000000000,0,,,0
1449616968451976185,277,1449616968401387660,/odom,doorways,0,1,0,2.7970802784,6.8652472496,1.0,0.0,0.0,-0.984441741885,0.175711288293,0.2,0.919974207878,1.8,0.0,1.0,0.0,1.0,2000000000,0,,,0
1449616968690567296,278,1449616968640133476,/odom,doorways,0,1,0,2.77642869949,6.86867046356,1.0,0.0,0.0,-0.983077295537,0.183191241602,0.2,1.03957724571,1.8,0.0,1.0,0.0,1.0,2000000000,0,,,0
1449616968910263345,279,1449616968859383181,/odom,doorways,0,1,0,2.70200824738,7.03891038895,1.0,0.0,0.0,-0.983311758998,0.181928515127,0.2,0.719731986523,1.8,0.0,1.0,0.0,1.0,2000000000,0,,,0
1449616969192000495,280,1449616969140183247,/odom,doorways,0,1,0,2.83104705811,6.84229850769,1.0,0.0,0.0,-0.985785167833,0.168010722516,0.2,0.989471256733,1.8,0.0,1.0,0.0,1.0,2000000000,0,,,0
1449616969843899869,281,1449616969764806026,/odom,doorways,0,1,0,2.81670665741,6.88855457306,1.0,0.0,0.0,-0.984868309942,0.173304391379,0.2,1.07001161575,1.8,0.0,1.0,0.0,1.0,2000000000,0,,,0
1449616970029954424,282,1449616969978448198,/odom,doorways,0,1,0,2.82110285759,6.88007068634,1.0,0.0,0.0,-0.983298859344,0.181998223104,0.2,1.04929077625,1.8,0.0,1.0,0.0,1.0,2000000000,0,,,0
1449616970523144422,283,1449616970471522722,/odom,doorways,0,1,0,2.83286142349,6.84477710724,1.0,0.0,0.0,-0.984218840763,0.176955569246,0.2,0.929945766926,1.8,0.0,1.0,0.0,1.0,2000000000,0,,,0
1449616970718044363,284,1449616970665441941,/odom,doorways,0,1,0,2.80042409897,6.92135477066,1.0,0.0,0.0,-0.982713986296,0.185130281525,0.2,0.739204585552,1.8,0.0,1.0,0.0,1.0,2000000000,0,,,0
1449616970989767136,285,1449616970929751343,/odom,doorways,0,1,0,2.84310603142,6.80128955841,1.0,0.0,0.0,-0.98374822469,0.179553419406,0.2,0.889804899693,1.8,0.0,1.0,0.0,1.0,2000000000,0,,,0
1449616972387446089,286,1449616972305978104,/odom,doorways,0,1,0,2.81725049019,6.8967499733,1.0,0.0,0.0,-0.984655765492,0.174507946762,0.2,1.02998805046,1.8,0.0,1.0,0.0,1.0,2000000000,0,,,0
1449616972708775893,287,1449616972658331856,/odom,doorways,0,1,0,2.82489800453,6.84978246689,1.0,0.0,0.0,-0.984539659372,0.175161808406,0.2,1.00996732712,1.8,0.0,1.0,0.0,1.0,2000000000,0,,,0
1449616972840997289,288,1449616972784767373,/odom,doorways,0,1,0,2.81909680367,6.87313508987,1.0,0.0,0.0,-0.983040596333,0.18338807475,0.2,1.05973303318,1.8,0.0,1.0,0.0,1.0,2000000000,0,,,0
1449616973507160159,289,1449616973455587301,/odom,doorways,0,1,0,2.78379106522,6.91153240204,1.0,0.0,0.0,-0.982264958546,0.187498136559,0.2,1.07961285114,1.8,0.0,1.0,0.0,1.0,2000000000,0,,,0
1449616973771664198,290,1449616973721295816,/odom,doorways,0,1,0,2.80751633644,6.87533998489,1.0,0.0,0.0,-0.984054963561,0.177864635863,0.2,1.04996705055,1.8,0.0,1.0,0.0,1.0,2000000000,0,,,0
1449616974139378668,291,1449616974089075852,/odom,doorways,0,1,0,2.81812024117,6.80372524261,1.0,0.0,0.0,-0.98380380838,0.179248616778,0.2,0.85982966423,1.8,0.0,1.0,0.0,1.0,2000000000,0,,,0
1449616974368256568,292,1449616974317702763,/odom,doorways,0,1,0,2.80381155014,6.86803436279,1.0,0.0,0.0,-0.984883309703,0.173219127892,0.2,1.06999862194,1.8,0.0,1.0,0.0,1.0,2000000000,0,,,0
1449616974659241426,293,1449616974608996478,/odom,doorways,0,1,0,2.79606771469,6.84227323532,1.0,0.0,0.0,-0.98318785616,0.18259693179,0.2,0.989945888519,1.8,0.0,1.0,0.0,1.0,2000000000,0,,,0
1449616975271870585,294,1449616975213041586,/odom,doorways,0,1,0,2.73285269737,6.99075508118,1.0,0.0,0.0,-0.983277916419,0.182111337053,0.2,0.949927330017,1.8,0.0,1.0,0.0,1.0,2000000000,0,,,0
1449616975527434866,295,1449616975477190838,/odom,doorways,0,1,0,2.78737306595,6.89575386047,1.0,0.0,0.0,-0.983427420258,0.181302258907,0.2,1.0297460556,1.8,0.0,1.0,0.0,1.0,2000000000,0,,,0
1449616976491954949,296,1449616976441500035,/odom,doorways,0,1,0,2.79454302788,6.90434885025,1.0,0.0,0.0,-0.983436561123,0.181252669628,0.2,1.05980610847,1.8,0.0,1.0,0.0,1.0,2000000000,0,,,0
1449616976670974475,297,1449616976611441020,/odom,doorways,0,1,0,2.78934812546,6.90700912476,1.0,0.0,0.0,-0.984250917702,0.176777065826,0.2,1.05995714664,1.8,0.0,1.0,0.0,1.0,2000000000,0,,,0
1449616977290663329,298,1449616977234633710,/odom,doorways,0,1,0,2.7965157032,6.90361499786,1.0,0.0,0.0,-0.98414813771,0.177348366337,0.2,1.05998337269,1.8,0.0,1.0,0.0,1.0,2000000000,0,,,0
1449616977417293061,299,1449616977367130667,/odom,doorways,0,1,0,2.78173971176,6.89594316483,1.0,0.0,0.0,-0.982548490018,0.186006625588,0.2,1.05992639065,1.8,0.0,1.0,0.0,1.0,2000000000,0,,,0
1449616977586703969,300,1449616977536319250,/odom,doorways,0,1,0,2.78090500832,6.9870800972,1.0,0.0,0.0,-0.984372639969,0.176098000217,0.2,0.879738509655,1.8,0.0,1.0,0.0,1.0,2000000000,0,,,0
1449616977797285610,301,1449616977747023700,/odom,doorways,0,1,0,2.76864004135,6.94450998306,1.0,0.0,0.0,-0.983466458299,0.181090379094,0.2,1.0799421072,1.8,0.0,1.0,0.0,1.0,2000000000,0,,,0
1449616977964010098,302,1449616977904640656,/odom,doorways,0,1,0,2.78855371475,6.90788698196,1.0,0.0,0.0,-0.983630806311,0.180195551766,0.2,1.05996692181,1.8,0.0,1.0,0.0,1.0,2000000000,0,,,0
1449616978266388313,303,1449616978200604648,/odom,doorways,0,1,0,2.81636047363,6.85328722,1.0,0.0,0.0,-0.984407380174,0.17590369484,0.2,0.930013537407,1.8,0.0,1.0,0.0,1.0,2000000000,0,,,0
1449616978565007588,304,1449616978514653087,/odom,doorways,0,1,0,2.79133415222,6.90932846069,1.0,0.0,0.0,-0.984345489346,0.176249702422,0.2,1.06996715069,1.8,0.0,1.0,0.0,1.0,2000000000,0,,,0
1449616978729692873,305,1449616978679142083,/odom,doorways,0,1,0,2.80377745628,6.87070512772,1.0,0.0,0.0,-0.984509324194,0.175332229141,0.2,0.989993333817,1.8,0.0,1.0,0.0,1.0,2000000000,0,,,0
1449616979005563218,306,1449616978954843493,/odom,doorways,0,1,0,2.80111217499,6.90856122971,1.0,0.0,0.0,-0.984710278572,0.174200078284,0.2,1.04996109009,1.8,0.0,1.0,0.0,1.0,2000000000,0,,,0
1449616979486416949,307,1449616979436093896,/odom,doorways,0,1,0,2.8283662796,6.91579437256,1.0,0.0,0.0,-0.984617330969,0.174724673576,0.2,1.06988847256,1.8,0.0,1.0,0.0,1.0,2000000000,0,,,0
1449616979655577728,308,1449616979605153678,/odom,doorways,0,1,0,2.86062240601,6.75934553146,1.0,0.0,0.0,-0.984773379496,0.173843006864,0.2,0.790002286434,1.8,0.0,1.0,0.0,1.0,2000000000,0,,,0
1449616979875908076,309,1449616979822588293,/odom,doorways,0,1,0,2.83989715576,6.89909362793,1.0,0.0,0.0,-0.984874157781,0.173271155522,0.2,1.04939973354,1.8,0.0,1.0,0.0,1.0,2000000000,0,,,0
1449616979975370832,310,1449616979924969898,/odom,doorways,0,1,0,2.8002679348,6.86585378647,1.0,0.0,0.0,-0.983915189671,0.178636221227,0.2,1.05999565125,1.8,0.0,1.0,0.0,1.0,2000000000,0,,,0
1449616980132323330,311,1449616980082074355,/odom,doorways,0,1,0,2.76653981209,6.99451160431,1.0,0.0,0.0,-0.9843847957,0.176030037196,0.2,0.900006890297,1.8,0.0,1.0,0.0,1.0,2000000000,0,,,0
