%time,field.header.seq,field.header.stamp,field.header.frame_id,field.ns,field.id,field.type,field.action,field.pose.position.x,field.pose.position.y,field.pose.position.z,field.pose.orientation.x,field.pose.orientation.y,field.pose.orientation.z,field.pose.orientation.w,field.scale.x,field.scale.y,field.scale.z,field.color.r,field.color.g,field.color.b,field.color.a,field.lifetime,field.frame_locked,field.text,field.mesh_resource,field.mesh_use_embedded_materials
1449616887758625456,0,0,/odom,ucmd_vector,0,0,0,0.0345517301221,-0.000608637387833,0.0,0.0,0.0,-0.0137422194698,0.999905571244,1e-05,0.05,0.05,0.0,0.0,1.0,1.0,0,0,,,0
1449616887788322033,1,0,/odom,ucmd_vector,0,0,0,0.0403092262309,-0.000760786538583,0.0,0.0,0.0,-0.0137422194698,0.999905571244,1e-05,0.05,0.05,0.0,0.0,1.0,1.0,0,0,,,0
1449616887831990784,2,0,/odom,ucmd_vector,0,0,0,0.0403092262309,-0.000760786538583,0.0,0.0,0.0,-0.0137422194698,0.999905571244,0.00559730190992,0.05,0.05,0.0,0.0,1.0,1.0,0,0,,,0
1449616887892630033,3,0,/odom,ucmd_vector,0,0,0,0.0547009565848,-0.00121721699728,0.0,0.0,0.0,-0.0190255284129,0.999818998253,0.00559730190992,0.05,0.05,0.0,0.0,1.0,1.0,0,0,,,0
1449616887912614982,4,0,/odom,ucmd_vector,0,0,0,0.0604576487264,-0.00139978918076,0.0,0.0,0.0,-0.0507508974304,0.998711342886,0.00559730190992,0.05,0.05,0.0,0.0,1.0,1.0,0,0,,,0
1449616887947645387,5,0,/odom,ucmd_vector,0,0,0,0.0662143408679,-0.00158236136424,0.0,0.0,0.0,-0.0507508974304,0.998711342886,0.00559730190992,0.05,0.05,0.0,0.0,1.0,1.0,0,0,,,0
1449616887990615495,6,0,/odom,ucmd_vector,0,0,0,0.0662143408679,-0.00158236136424,0.0,0.0,0.0,-0.0507508974304,0.998711342886,0.00559730190992,0.05,0.05,0.0,0.0,1.0,1.0,0,0,,,0
1449616888027665091,7,0,/odom,ucmd_vector,0,0,0,0.0719710330095,-0.00176493354772,0.0,0.0,0.0,-0.207973662715,0.978134426149,0.0111846038198,0.05,0.05,0.0,0.0,1.0,1.0,0,0,,,0
1449616888068609925,8,0,/odom,ucmd_vector,0,0,0,0.0748482536517,-0.00188663247711,0.0,0.0,0.0,-0.213139221379,0.977021838195,0.0111846038198,0.05,0.05,0.0,0.0,1.0,1.0,0,0,,,0
1449616888108277709,9,0,/odom,ucmd_vector,0,0,0,0.0834755752864,-0.00234292700333,0.0,0.0,0.0,-0.218298829016,0.975881970963,0.00559730190992,0.05,0.05,0.0,0.0,1.0,1.0,0,0,,,0
1449616888161572034,10,0,/odom,ucmd_vector,0,0,0,0.0892271230429,-0.00264712335413,0.0,0.0,0.0,-0.218298829016,0.975881970963,0.00559730190992,0.05,0.05,0.0,0.0,1.0,1.0,0,0,,,0
1449616888190199039,11,0,/odom,ucmd_vector,0,0,0,0.10360068862,-0.003498761009,0.0,0.0,0.0,-0.223452341564,0.974714856278,0.00559730190992,0.05,0.05,0.0,0.0,1.0,1.0,0,0,,,0
1449616888249495733,12,0,/odom,ucmd_vector,0,0,0,0.10360068862,-0.003498761009,0.0,0.0,0.0,-0.226545543072,0.974000573364,0.00559730190992,0.05,0.05,0.0,0.0,1.0,1.0,0,0,,,0
1449616888283854015,13,0,/odom,ucmd_vector,0,0,0,0.112220617526,-0.00407656419245,0.0,0.0,0.0,-0.231688999188,0.97278990931,0.00559730190992,0.05,0.05,0.0,0.0,1.0,1.0,0,0,,,0
1449616888314218616,14,0,/odom,ucmd_vector,0,0,0,0.117964451578,-0.00450224882061,0.0,0.0,0.0,-0.231688999188,0.97278990931,0.00559730190992,0.05,0.05,0.0,0.0,1.0,1.0,0,0,,,0
1449616888353639663,15,0,/odom,ucmd_vector,0,0,0,0.120838457518,-0.00468472925529,0.0,0.0,0.0,-0.226545543072,0.974000573364,0.00559730190992,0.05,0.05,0.0,0.0,1.0,1.0,0,0,,,0
1449616888391713336,16,0,/odom,ucmd_vector,0,0,0,0.123710374544,-0.00489757156937,0.0,0.0,0.0,-0.231688999188,0.97278990931,0.00559730190992,0.05,0.05,0.0,0.0,1.0,1.0,0,0,,,0
1449616888467797156,17,0,/odom,ucmd_vector,0,0,0,0.123710374544,-0.00489757156937,0.0,0.0,0.0,-0.231688999188,0.97278990931,0.00559730190992,0.05,0.05,0.0,0.0,1.0,1.0,0,0,,,0
1449616888476285862,18,0,/odom,ucmd_vector,0,0,0,0.132323715964,-0.00556643662021,0.0,0.0,0.0,-0.236825986351,0.971552084136,0.00559730190992,0.05,0.05,0.0,0.0,1.0,1.0,0,0,,,0
1449616888509352189,19,0,/odom,ucmd_vector,0,0,0,0.132323715964,-0.00556643662021,0.0,0.0,0.0,-0.233740506007,0.972299015659,0.0111846038198,0.05,0.05,0.0,0.0,1.0,1.0,0,0,,,0
1449616888553412626,20,0,/odom,ucmd_vector,0,0,0,0.132323715964,-0.00556643662021,0.0,0.0,0.0,-0.233740506007,0.972299015659,0.0111846038198,0.05,0.05,0.0,0.0,1.0,1.0,0,0,,,0
1449616888619345498,21,0,/odom,ucmd_vector,0,0,0,0.1351904932,-0.00583992799247,0.0,0.0,0.0,-0.238874870648,0.971050357177,0.0111846038198,0.05,0.05,0.0,0.0,1.0,1.0,0,0,,,0
1449616888636594095,22,0,/odom,ucmd_vector,0,0,0,0.138054220136,-0.00614369977008,0.0,0.0,0.0,-0.2440025657,0.969774586145,0.00559730190992,0.05,0.05,0.0,0.0,1.0,1.0,0,0,,,0
1449616888677738761,23,0,/odom,ucmd_vector,0,0,0,0.138054220136,-0.00614369977008,0.0,0.0,0.0,-0.2440025657,0.969774586145,0.00559730190992,0.05,0.05,0.0,0.0,1.0,1.0,0,0,,,0
1449616888707404884,24,0,/odom,ucmd_vector,0,0,0,0.138054220136,-0.00614369977008,0.0,0.0,0.0,-0.2440025657,0.969774586145,0.00559730190992,0.05,0.05,0.0,0.0,1.0,1.0,0,0,,,0
1449616888749129754,25,0,/odom,ucmd_vector,0,0,0,0.138054220136,-0.00614369977008,0.0,0.0,0.0,-0.2440025657,0.969774586145,0.00559730190992,0.05,0.05,0.0,0.0,1.0,1.0,0,0,,,0
1449616888787978334,26,0,/odom,ucmd_vector,0,0,0,0.140914576942,-0.00647771802702,0.0,0.0,0.0,-0.249123447993,0.968471738183,0.00559730190992,0.05,0.05,0.0,0.0,1.0,1.0,0,0,,,0
1449616888871403454,27,0,/odom,ucmd_vector,0,0,0,0.140914576942,-0.00647771802702,0.0,0.0,0.0,-0.252196700755,0.967675991295,0.00559730190992,0.05,0.05,0.0,0.0,1.0,1.0,0,0,,,0
1449616888898514417,28,0,/odom,ucmd_vector,0,0,0,0.140914576942,-0.00647771802702,0.0,0.0,0.0,-0.262408874392,0.964956777602,0.00559730190992,0.05,0.05,0.0,0.0,1.0,1.0,0,0,,,0
1449616888922188934,29,0,/odom,ucmd_vector,0,0,0,0.14376290833,-0.00690223840692,0.0,0.0,0.0,-0.267504042427,0.963556737969,0.00559730190992,0.05,0.05,0.0,0.0,1.0,1.0,0,0,,,0
1449616888961304049,30,0,/odom,ucmd_vector,0,0,0,0.140919222265,-0.00644764098831,0.0,0.0,0.0,-0.272591741521,0.962129795014,0.00559730190992,0.05,0.05,0.0,0.0,1.0,1.0,0,0,,,0
1449616889004744840,31,0,/odom,ucmd_vector,0,0,0,0.140919222265,-0.00644764098831,0.0,0.0,0.0,-0.272591741521,0.962129795014,0.00559730190992,0.05,0.05,0.0,0.0,1.0,1.0,0,0,,,0
1449616889034764464,32,0,/odom,ucmd_vector,0,0,0,0.143757945417,-0.00693226467499,0.0,0.0,0.0,-0.274620670682,0.961552644026,0.00559730190992,0.05,0.05,0.0,0.0,1.0,1.0,0,0,,,0
1449616889071098604,33,0,/odom,ucmd_vector,0,0,0,0.140924502214,-0.00641766884427,0.0,0.0,0.0,-0.279697680794,0.960088124788,0.00559730190992,0.05,0.05,0.0,0.0,1.0,1.0,0,0,,,0
1449616889107123295,34,0,/odom,ucmd_vector,0,0,0,0.143752349021,-0.00696217934762,0.0,0.0,0.0,-0.201656578262,0.979456290216,0.0111846038198,0.05,0.05,0.0,0.0,1.0,1.0,0,0,,,0
1449616889148855261,35,0,/odom,ucmd_vector,0,0,0,0.143752349021,-0.00696217934762,0.0,0.0,0.0,-0.201656578262,0.979456290216,0.0111846038198,0.05,0.05,0.0,0.0,1.0,1.0,0,0,,,0
1449616889212466902,36,0,/odom,ucmd_vector,0,0,0,0.143752349021,-0.00696217934762,0.0,0.0,0.0,-0.211996066581,0.977270519229,0.0111846038198,0.05,0.05,0.0,0.0,1.0,1.0,0,0,,,0
1449616889233201627,37,0,/odom,ucmd_vector,0,0,0,0.143752349021,-0.00696217934762,0.0,0.0,0.0,-0.16000229734,0.987116641966,0.0335338101482,0.05,0.05,0.0,0.0,1.0,1.0,0,0,,,0
1449616889293598207,38,0,/odom,ucmd_vector,0,0,0,0.143752349021,-0.00696217934762,0.0,0.0,0.0,-0.16000229734,0.987116641966,0.0335338101482,0.05,0.05,0.0,0.0,1.0,1.0,0,0,,,0
1449616889309782509,39,0,/odom,ucmd_vector,0,0,0,0.146547490263,-0.00765528445533,0.0,0.0,0.0,-0.130681525878,0.99142439893,0.346422698746,0.05,0.05,0.0,0.0,1.0,1.0,0,0,,,0
1449616889376948981,40,0,/odom,ucmd_vector,0,0,0,0.146547490263,-0.00765528445533,0.0,0.0,0.0,-0.130681525878,0.99142439893,0.346422698746,0.05,0.05,0.0,0.0,1.0,1.0,0,0,,,0
1449616889394210283,41,0,/odom,ucmd_vector,0,0,0,0.146539698214,-0.0076847036879,0.0,0.0,0.0,-0.141151454738,0.989988013476,0.346422698746,0.05,0.05,0.0,0.0,1.0,1.0,0,0,,,0
1449616889462238984,42,0,/odom,ucmd_vector,0,0,0,0.146539698214,-0.0076847036879,0.0,0.0,0.0,-0.148466952806,0.988917369614,0.346422698746,0.05,0.05,0.0,0.0,1.0,1.0,0,0,,,0
1449616889480569778,43,0,/odom,ucmd_vector,0,0,0,0.146539698214,-0.0076847036879,0.0,0.0,0.0,-0.148466952806,0.988917369614,0.346422698746,0.05,0.05,0.0,0.0,1.0,1.0,0,0,,,0
1449616889544898213,44,0,/odom,ucmd_vector,0,0,0,0.146539698214,-0.0076847036879,0.0,0.0,0.0,-0.148466952806,0.988917369614,0.346422698746,0.05,0.05,0.0,0.0,1.0,1.0,0,0,,,0
1449616889555530730,45,0,/odom,ucmd_vector,0,0,0,0.146539698214,-0.0076847036879,0.0,0.0,0.0,-0.15890939459,0.987293170396,0.346422698746,0.05,0.05,0.0,0.0,1.0,1.0,0,0,,,0
1449616889591647299,46,0,/odom,ucmd_vector,0,0,0,0.146539698214,-0.0076847036879,0.0,0.0,0.0,-0.15890939459,0.987293170396,0.346422698746,0.05,0.05,0.0,0.0,1.0,1.0,0,0,,,0
1449616889667859270,47,0,/odom,ucmd_vector,0,0,0,0.149275968112,-0.00858249892909,0.0,0.0,0.0,-0.164124033015,0.986439710163,0.346422698746,0.05,0.05,0.0,0.0,1.0,1.0,0,0,,,0
1449616889684122614,48,0,/odom,ucmd_vector,0,0,0,0.149275968112,-0.00858249892909,0.0,0.0,0.0,-0.164124033015,0.986439710163,0.346422698746,0.05,0.05,0.0,0.0,1.0,1.0,0,0,,,0
1449616889722578579,49,0,/odom,ucmd_vector,0,0,0,0.149275968112,-0.00858249892909,0.0,0.0,0.0,-0.164124033015,0.986439710163,0.346422698746,0.05,0.05,0.0,0.0,1.0,1.0,0,0,,,0
1449616889755354827,50,0,/odom,ucmd_vector,0,0,0,0.149275968112,-0.00858249892909,0.0,0.0,0.0,-0.164124033015,0.986439710163,0.346422698746,0.05,0.05,0.0,0.0,1.0,1.0,0,0,,,0
1449616889799495848,51,0,/odom,ucmd_vector,0,0,0,0.149275968112,-0.00858249892909,0.0,0.0,0.0,-0.164124033015,0.986439710163,0.346422698746,0.05,0.05,0.0,0.0,1.0,1.0,0,0,,,0
1449616889866879494,52,0,/odom,ucmd_vector,0,0,0,0.152002597447,-0.00950916053146,0.0,0.0,0.0,-0.169334088957,0.985558707697,0.340835397491,0.05,0.05,0.0,0.0,1.0,1.0,0,0,,,0
1449616889890014380,53,0,/odom,ucmd_vector,0,0,0,0.152002597447,-0.00950916053146,0.0,0.0,0.0,-0.169334088957,0.985558707697,0.340835397491,0.05,0.05,0.0,0.0,1.0,1.0,0,0,,,0
1449616889910524234,54,0,/odom,ucmd_vector,0,0,0,0.152002597447,-0.00950916053146,0.0,0.0,0.0,-0.172461988035,0.985016173818,0.340835397491,0.05,0.05,0.0,0.0,1.0,1.0,0,0,,,0
1449616889962221631,55,0,/odom,ucmd_vector,0,0,0,0.152002597447,-0.00950916053146,0.0,0.0,0.0,-0.172461988035,0.985016173818,0.340835397491,0.05,0.05,0.0,0.0,1.0,1.0,0,0,,,0
1449616889989920525,56,0,/odom,ucmd_vector,0,0,0,0.152002597447,-0.00950916053146,0.0,0.0,0.0,-0.172461988035,0.985016173818,0.340835397491,0.05,0.05,0.0,0.0,1.0,1.0,0,0,,,0
1449616890036895170,57,0,/odom,ucmd_vector,0,0,0,0.152002597447,-0.00950916053146,0.0,0.0,0.0,-0.169334088957,0.985558707697,0.340835397491,0.05,0.05,0.0,0.0,1.0,1.0,0,0,,,0
1449616890097262036,58,0,/odom,ucmd_vector,0,0,0,0.152002597447,-0.00950916053146,0.0,0.0,0.0,-0.169334088957,0.985558707697,0.340835397491,0.05,0.05,0.0,0.0,1.0,1.0,0,0,,,0
1449616890129793341,59,0,/odom,ucmd_vector,0,0,0,0.154738867346,-0.0104069557726,0.0,0.0,0.0,-0.164124033015,0.986439710163,0.340835397491,0.05,0.05,0.0,0.0,1.0,1.0,0,0,,,0
1449616890162780896,60,0,/odom,ucmd_vector,0,0,0,0.15746549668,-0.011333617375,0.0,0.0,0.0,-0.169334088957,0.985558707697,0.340835397491,0.05,0.05,0.0,0.0,1.0,1.0,0,0,,,0
1449616890204604249,61,0,/odom,ucmd_vector,0,0,0,0.15746549668,-0.011333617375,0.0,0.0,0.0,-0.169334088957,0.985558707697,0.346422698746,0.05,0.05,0.0,0.0,1.0,1.0,0,0,,,0
1449616890241222221,62,0,/odom,ucmd_vector,0,0,0,0.15746549668,-0.011333617375,0.0,0.0,0.0,-0.169334088957,0.985558707697,0.346422698746,0.05,0.05,0.0,0.0,1.0,1.0,0,0,,,0
1449616890299276690,63,0,/odom,ucmd_vector,0,0,0,0.16291875535,-0.0131869405798,0.0,0.0,0.0,-0.169334088957,0.985558707697,0.346422698746,0.05,0.05,0.0,0.0,1.0,1.0,0,0,,,0
1449616890313087106,64,0,/odom,ucmd_vector,0,0,0,0.16291875535,-0.0131869405798,0.0,0.0,0.0,-0.169334088957,0.985558707697,0.346422698746,0.05,0.05,0.0,0.0,1.0,1.0,0,0,,,0
1449616890373906584,65,0,/odom,ucmd_vector,0,0,0,0.168372014019,-0.0150402637845,0.0,0.0,0.0,-0.169334088957,0.985558707697,0.346422698746,0.05,0.05,0.0,0.0,1.0,1.0,0,0,,,0
1449616890425520160,66,0,/odom,ucmd_vector,0,0,0,0.171088698272,-0.0159956882561,0.0,0.0,0.0,-0.174539416948,0.984650187595,0.346422698746,0.05,0.05,0.0,0.0,1.0,1.0,0,0,,,0
1449616890460518557,67,0,/odom,ucmd_vector,0,0,0,0.171088698272,-0.0159956882561,0.0,0.0,0.0,-0.17766440561,0.984091133472,0.340835397491,0.05,0.05,0.0,0.0,1.0,1.0,0,0,,,0
1449616890559962872,68,0,/odom,ucmd_vector,0,0,0,0.176522066779,-0.0179065371992,0.0,0.0,0.0,-0.17766440561,0.984091133472,0.340835397491,0.05,0.05,0.0,0.0,1.0,1.0,0,0,,,0
1449616890559988078,69,0,/odom,ucmd_vector,0,0,0,0.184641374077,-0.0208587791085,0.0,0.0,0.0,-0.179739871651,0.983714175225,0.340835397491,0.05,0.05,0.0,0.0,1.0,1.0,0,0,,,0
1449616890559992371,70,0,/odom,ucmd_vector,0,0,0,0.184641374077,-0.0208587791085,0.0,0.0,0.0,-0.179739871651,0.983714175225,0.340835397491,0.05,0.05,0.0,0.0,1.0,1.0,0,0,,,0
1449616890609128372,71,0,/odom,ucmd_vector,0,0,0,0.190054245608,-0.0228269403814,0.0,0.0,0.0,-0.179739871651,0.983714175225,0.31289889122,0.05,0.05,0.0,0.0,1.0,1.0,0,0,,,0
1449616890682204314,72,0,/odom,ucmd_vector,0,0,0,0.195424311976,-0.0249090605094,0.0,0.0,0.0,-0.190125580526,0.981759778983,0.31289889122,0.05,0.05,0.0,0.0,1.0,1.0,0,0,,,0
1449616890702269302,73,0,/odom,ucmd_vector,0,0,0,0.20616444471,-0.0290733007655,0.0,0.0,0.0,-0.190125580526,0.981759778983,0.31289889122,0.05,0.05,0.0,0.0,1.0,1.0,0,0,,,0
1449616890762641877,74,0,/odom,ucmd_vector,0,0,0,0.20616444471,-0.0290733007655,0.0,0.0,0.0,-0.193241314764,0.981151259627,0.346422698746,0.05,0.05,0.0,0.0,1.0,1.0,0,0,,,0
1449616890792401431,75,0,/odom,ucmd_vector,0,0,0,0.216904577444,-0.0332375410215,0.0,0.0,0.0,-0.193241314764,0.981151259627,0.346422698746,0.05,0.05,0.0,0.0,1.0,1.0,0,0,,,0
1449616890804932572,76,0,/odom,ucmd_vector,0,0,0,0.224926221881,-0.0364456719107,0.0,0.0,0.0,-0.195310544721,0.98074144968,0.296136987457,0.05,0.05,0.0,0.0,1.0,1.0,0,0,,,0
1449616890848482114,77,0,/odom,ucmd_vector,0,0,0,0.224926221881,-0.0364456719107,0.0,0.0,0.0,-0.195310544721,0.98074144968,0.296136987457,0.05,0.05,0.0,0.0,1.0,1.0,0,0,,,0
1449616890885013091,78,0,/odom,ucmd_vector,0,0,0,0.232913515327,-0.0397383952047,0.0,0.0,0.0,-0.200490055679,0.979695737244,0.296136987457,0.05,0.05,0.0,0.0,1.0,1.0,0,0,,,0
1449616890951819085,79,0,/odom,ucmd_vector,0,0,0,0.238238377625,-0.0419335440674,0.0,0.0,0.0,-0.200490055679,0.979695737244,0.346422698746,0.05,0.05,0.0,0.0,1.0,1.0,0,0,,,0
1449616891037870128,80,0,/odom,ucmd_vector,0,0,0,0.246190428038,-0.0453104920261,0.0,0.0,0.0,-0.205663968786,0.978622670871,0.346422698746,0.05,0.05,0.0,0.0,1.0,1.0,0,0,,,0
1449616891071139951,81,0,/odom,ucmd_vector,0,0,0,0.269974316998,-0.0556090309393,0.0,0.0,0.0,-0.210832139579,0.977522280524,0.346422698746,0.05,0.05,0.0,0.0,1.0,1.0,0,0,,,0
1449616891117641116,82,0,/odom,ucmd_vector,0,0,0,0.269974316998,-0.0556090309393,0.0,0.0,0.0,-0.210832139579,0.977522280524,0.340835397491,0.05,0.05,0.0,0.0,1.0,1.0,0,0,,,0
1449616891153948888,83,0,/odom,ucmd_vector,0,0,0,0.288307899619,-0.0639897163054,0.0,0.0,0.0,-0.215994423761,0.976394596925,0.340835397491,0.05,0.05,0.0,0.0,1.0,1.0,0,0,,,0
1449616891249076493,84,0,/odom,ucmd_vector,0,0,0,0.296148908537,-0.0676170379663,0.0,0.0,0.0,-0.221150677195,0.975239651561,0.340835397491,0.05,0.05,0.0,0.0,1.0,1.0,0,0,,,0
1449616891262296924,85,0,/odom,ucmd_vector,0,0,0,0.314405825162,-0.0761634485755,0.0,0.0,0.0,-0.217013894747,0.976168514902,0.0670576202965,0.05,0.05,0.0,0.0,1.0,1.0,0,0,,,0
1449616891297678628,86,0,/odom,ucmd_vector,0,0,0,0.314405825162,-0.0761634485755,0.0,0.0,0.0,-0.213913858563,0.976852527823,0.0167719050741,0.05,0.05,0.0,0.0,1.0,1.0,0,0,,,0
1449616891350286581,87,0,/odom,ucmd_vector,0,0,0,0.322168421004,-0.0799556760303,0.0,0.0,0.0,-0.219072560749,0.975708569772,0.0167719050741,0.05,0.05,0.0,0.0,1.0,1.0,0,0,,,0
1449616891421188066,88,0,/odom,ucmd_vector,0,0,0,0.335038565456,-0.0864124254562,0.0,0.0,0.0,-0.224225146244,0.97453736911,0.0167719050741,0.05,0.05,0.0,0.0,1.0,1.0,0,0,,,0
1449616891436404927,89,0,/odom,ucmd_vector,0,0,0,0.350482738797,-0.0941605247673,0.0,0.0,0.0,-0.22731778077,0.973820633662,0.00559730190992,0.05,0.05,0.0,0.0,1.0,1.0,0,0,,,0
1449616891506107904,90,0,/odom,ucmd_vector,0,0,0,0.36328393059,-0.100752923421,0.0,0.0,0.0,-0.232460275304,0.972605891616,0.00559730190992,0.05,0.05,0.0,0.0,1.0,1.0,0,0,,,0
1449616891520510312,91,0,/odom,ucmd_vector,0,0,0,0.370922416269,-0.104789310397,0.0,0.0,0.0,-0.23759627935,0.971363993588,0.00559730190992,0.05,0.05,0.0,0.0,1.0,1.0,0,0,,,0
1449616891544289417,92,0,/odom,ucmd_vector,0,0,0,0.381107063841,-0.110171159697,0.0,0.0,0.0,-0.23759627935,0.971363993588,0.00559730190992,0.05,0.05,0.0,0.0,1.0,1.0,0,0,,,0
1449616891573618266,93,0,/odom,ucmd_vector,0,0,0,0.381107063841,-0.110171159697,0.0,0.0,0.0,-0.23759627935,0.971363993588,0.00559730190992,0.05,0.05,0.0,0.0,1.0,1.0,0,0,,,0
1449616893966266528,94,0,/odom,ucmd_vector,0,0,0,0.844558635738,-0.431189729348,0.0,0.0,0.0,-0.318773222953,0.947831014648,1e-05,0.05,0.05,0.0,0.0,1.0,1.0,0,0,,,0
1449616893985938704,95,0,/odom,ucmd_vector,0,0,0,0.86067155965,-0.443303396688,0.0,0.0,0.0,-0.313760433897,0.949502180156,1e-05,0.05,0.05,0.0,0.0,1.0,1.0,0,0,,,0
1449616894022126817,96,0,/odom,ucmd_vector,0,0,0,0.86067155965,-0.443303396688,0.0,0.0,0.0,-0.301678290499,0.953409780232,1e-05,0.05,0.05,0.0,0.0,1.0,1.0,0,0,,,0
1449616894055411458,97,0,/odom,ucmd_vector,0,0,0,0.874482637289,-0.453686540122,0.0,0.0,0.0,-0.301678290499,0.953409780232,1e-05,0.05,0.05,0.0,0.0,1.0,1.0,0,0,,,0
1449616894095539886,98,0,/odom,ucmd_vector,0,0,0,0.879086329836,-0.457147587934,0.0,0.0,0.0,-0.301678290499,0.953409780232,1e-05,0.05,0.05,0.0,0.0,1.0,1.0,0,0,,,0
1449616894177079895,99,0,/odom,ucmd_vector,0,0,0,0.890686358113,-0.465678096435,0.0,0.0,0.0,-0.210688826687,0.977553179274,-0.00557730190992,0.05,0.05,0.0,0.0,1.0,1.0,0,0,,,0
1449616894199348403,100,0,/odom,ucmd_vector,0,0,0,0.911620109848,-0.480959173496,0.0,0.0,0.0,-0.205520494625,0.978652811925,-0.00557730190992,0.05,0.05,0.0,0.0,1.0,1.0,0,0,,,0
1449616894292160518,101,0,/odom,ucmd_vector,0,0,0,0.920971733582,-0.487685129309,0.0,0.0,0.0,-0.114679176124,0.993402580309,1e-05,0.05,0.05,0.0,0.0,1.0,1.0,0,0,,,0
1449616894326146651,102,0,/odom,ucmd_vector,0,0,0,0.942101082858,-0.502694527184,0.0,0.0,0.0,-0.109428436166,0.993994676725,1e-05,0.05,0.05,0.0,0.0,1.0,1.0,0,0,,,0
1449616894359596719,103,0,/odom,ucmd_vector,0,0,0,0.951523263291,-0.509321280835,0.0,0.0,0.0,-0.109428436166,0.993994676725,-0.00557730190992,0.05,0.05,0.0,0.0,1.0,1.0,0,0,,,0
1449616894464947256,104,0,/odom,ucmd_vector,0,0,0,0.960945443724,-0.515948034486,0.0,0.0,0.0,-0.109428436166,0.993994676725,-0.00557730190992,0.05,0.05,0.0,0.0,1.0,1.0,0,0,,,0
1449616894488395924,105,0,/odom,ucmd_vector,0,0,0,0.97978980459,-0.529201541787,0.0,0.0,0.0,-0.112583417919,0.993642276682,1e-05,0.05,0.05,0.0,0.0,1.0,1.0,0,0,,,0
1449616894570628600,106,0,/odom,ucmd_vector,0,0,0,0.991654410637,-0.537360056032,0.0,0.0,0.0,-0.104174640873,0.994559019968,1e-05,0.05,0.05,0.0,0.0,1.0,1.0,0,0,,,0
1449616894617418099,107,0,/odom,ucmd_vector,0,0,0,1.00589193789,-0.547150273126,0.0,0.0,0.0,-0.104174640873,0.994559019968,1e-05,0.05,0.05,0.0,0.0,1.0,1.0,0,0,,,0
1449616894656906581,108,0,/odom,ucmd_vector,0,0,0,1.01306203478,-0.551969878284,0.0,0.0,0.0,-0.0989179369366,0.995095594278,1e-05,0.05,0.05,0.0,0.0,1.0,1.0,0,0,,,0
1449616894726444682,109,0,/odom,ucmd_vector,0,0,0,1.01784209938,-0.555182948389,0.0,0.0,0.0,-0.0989179369366,0.995095594278,1e-05,0.05,0.05,0.0,0.0,1.0,1.0,0,0,,,0
1449616894748376518,110,0,/odom,ucmd_vector,0,0,0,1.03696235775,-0.568035228809,0.0,0.0,0.0,-0.0989179369366,0.995095594278,-0.00557730190992,0.05,0.05,0.0,0.0,1.0,1.0,0,0,,,0
1449616894819670809,111,0,/odom,ucmd_vector,0,0,0,1.03696235775,-0.568035228809,0.0,0.0,0.0,-0.0989179369366,0.995095594278,-0.00557730190992,0.05,0.05,0.0,0.0,1.0,1.0,0,0,,,0
1449616894881940336,112,0,/odom,ucmd_vector,0,0,0,1.0465393311,-0.5744360218,0.0,0.0,0.0,-0.0989179369366,0.995095594278,-0.00557730190992,0.05,0.05,0.0,0.0,1.0,1.0,0,0,,,0
1449616894922996696,113,0,/odom,ucmd_vector,0,0,0,1.05609946028,-0.58086216201,0.0,0.0,0.0,-0.0989179369366,0.995095594278,-0.00557730190992,0.05,0.05,0.0,0.0,1.0,1.0,0,0,,,0
1449616894967049983,114,0,/odom,ucmd_vector,0,0,0,1.06332008966,-0.585605725512,0.0,0.0,0.0,-0.093658471127,0.995604384676,-0.00557730190992,0.05,0.05,0.0,0.0,1.0,1.0,0,0,,,0
1449616895025123760,115,0,/odom,ucmd_vector,0,0,0,1.06813384258,-0.58876810118,0.0,0.0,0.0,-0.093658471127,0.995604384676,-0.00557730190992,0.05,0.05,0.0,0.0,1.0,1.0,0,0,,,0
1449616895074295042,116,0,/odom,ucmd_vector,0,0,0,1.07052387487,-0.590374636233,0.0,0.0,0.0,-0.0989179369366,0.995095594278,-0.00557730190992,0.05,0.05,0.0,0.0,1.0,1.0,0,0,,,0
1449616895125278745,117,0,/odom,ucmd_vector,0,0,0,1.07293075133,-0.591955824067,0.0,0.0,0.0,-0.093658471127,0.995604384676,-0.00557730190992,0.05,0.05,0.0,0.0,1.0,1.0,0,0,,,0
1449616895196833798,118,0,/odom,ucmd_vector,0,0,0,1.08013453655,-0.596724734787,0.0,0.0,0.0,-0.0989179369366,0.995095594278,-0.00557730190992,0.05,0.05,0.0,0.0,1.0,1.0,0,0,,,0
1449616895239066296,119,0,/odom,ucmd_vector,0,0,0,1.08735516592,-0.601468298289,0.0,0.0,0.0,-0.093658471127,0.995604384676,-0.00557730190992,0.05,0.05,0.0,0.0,1.0,1.0,0,0,,,0
1449616895267260997,120,0,/odom,ucmd_vector,0,0,0,1.08735516592,-0.601468298289,0.0,0.0,0.0,-0.093658471127,0.995604384676,-0.00557730190992,0.05,0.05,0.0,0.0,1.0,1.0,0,0,,,0
1449616895328052958,121,0,/odom,ucmd_vector,0,0,0,1.08735516592,-0.601468298289,0.0,0.0,0.0,-0.093658471127,0.995604384676,-0.00557730190992,0.05,0.05,0.0,0.0,1.0,1.0,0,0,,,0
1449616895437998779,122,0,/odom,ucmd_vector,0,0,0,1.09216891884,-0.604630673957,0.0,0.0,0.0,-0.093658471127,0.995604384676,-0.00557730190992,0.05,0.05,0.0,0.0,1.0,1.0,0,0,,,0
1449616895516808008,123,0,/odom,ucmd_vector,0,0,0,1.09459237065,-0.606186337981,0.0,0.0,0.0,-0.11050797242,0.993875237659,-0.00557730190992,0.05,0.05,0.0,0.0,1.0,1.0,0,0,,,0
1449616895635571038,124,0,/odom,ucmd_vector,0,0,0,1.09459237065,-0.606186337981,0.0,0.0,0.0,-0.0883963902935,0.996085376955,-0.00557730190992,0.05,0.05,0.0,0.0,1.0,1.0,0,0,,,0
1449616895688298281,125,0,/odom,ucmd_vector,0,0,0,1.09459237065,-0.606186337981,0.0,0.0,0.0,-0.0883963902935,0.996085376955,-0.00557730190992,0.05,0.05,0.0,0.0,1.0,1.0,0,0,,,0
1449616895791217088,126,0,/odom,ucmd_vector,0,0,0,1.09459237065,-0.606186337981,0.0,0.0,0.0,-0.0883963902935,0.996085376955,-0.00557730190992,0.05,0.05,0.0,0.0,1.0,1.0,0,0,,,0
1449616895856897419,127,0,/odom,ucmd_vector,0,0,0,1.09459237065,-0.606186337981,0.0,0.0,0.0,-0.0883963902935,0.996085376955,-0.00557730190992,0.05,0.05,0.0,0.0,1.0,1.0,0,0,,,0
1449616895891479023,128,0,/odom,ucmd_vector,0,0,0,1.09459237065,-0.606186337981,0.0,0.0,0.0,-0.10419546881,0.994556838134,-0.00557730190992,0.05,0.05,0.0,0.0,1.0,1.0,0,0,,,0
1449616895948317013,129,0,/odom,ucmd_vector,0,0,0,1.09459237065,-0.606186337981,0.0,0.0,0.0,-0.0883963902935,0.996085376955,1e-05,0.05,0.05,0.0,0.0,1.0,1.0,0,0,,,0
1449616896035453934,130,0,/odom,ucmd_vector,0,0,0,1.09459237065,-0.606186337981,0.0,0.0,0.0,-0.0883963902935,0.996085376955,1e-05,0.05,0.05,0.0,0.0,1.0,1.0,0,0,,,0
1449616896070118051,131,0,/odom,ucmd_vector,0,0,0,1.09459237065,-0.606186337981,0.0,0.0,0.0,-0.0883963902935,0.996085376955,-0.00557730190992,0.05,0.05,0.0,0.0,1.0,1.0,0,0,,,0
1449616896094105798,132,0,/odom,ucmd_vector,0,0,0,1.09459237065,-0.606186337981,0.0,0.0,0.0,-0.0883963902935,0.996085376955,1e-05,0.05,0.05,0.0,0.0,1.0,1.0,0,0,,,0
1449616896130941828,133,0,/odom,ucmd_vector,0,0,0,1.09459237065,-0.606186337981,0.0,0.0,0.0,-0.0883963902935,0.996085376955,1e-05,0.05,0.05,0.0,0.0,1.0,1.0,0,0,,,0
1449616896223536826,134,0,/odom,ucmd_vector,0,0,0,1.09459237065,-0.606186337981,0.0,0.0,0.0,-0.0883963902935,0.996085376955,1e-05,0.05,0.05,0.0,0.0,1.0,1.0,0,0,,,0
1449616896253798458,135,0,/odom,ucmd_vector,0,0,0,1.09459237065,-0.606186337981,0.0,0.0,0.0,-0.0915581151598,0.99579973466,-0.00557730190992,0.05,0.05,0.0,0.0,1.0,1.0,0,0,,,0
1449616896284558133,136,0,/odom,ucmd_vector,0,0,0,1.09459237065,-0.606186337981,0.0,0.0,0.0,-0.0915581151598,0.99579973466,-0.00557730190992,0.05,0.05,0.0,0.0,1.0,1.0,0,0,,,0
1449616896313084605,137,0,/odom,ucmd_vector,0,0,0,1.09459237065,-0.606186337981,0.0,0.0,0.0,-0.0883963902935,0.996085376955,-0.00557730190992,0.05,0.05,0.0,0.0,1.0,1.0,0,0,,,0
1449616896382701404,138,0,/odom,ucmd_vector,0,0,0,1.09459237065,-0.606186337981,0.0,0.0,0.0,-0.0883963902935,0.996085376955,-0.00557730190992,0.05,0.05,0.0,0.0,1.0,1.0,0,0,,,0
1449616896415688706,139,0,/odom,ucmd_vector,0,0,0,1.09459237065,-0.606186337981,0.0,0.0,0.0,-0.0883963902935,0.996085376955,-0.00557730190992,0.05,0.05,0.0,0.0,1.0,1.0,0,0,,,0
1449616896446262547,140,0,/odom,ucmd_vector,0,0,0,1.09459237065,-0.606186337981,0.0,0.0,0.0,-0.0883963902935,0.996085376955,-0.00557730190992,0.05,0.05,0.0,0.0,1.0,1.0,0,0,,,0
1449616896483321502,141,0,/odom,ucmd_vector,0,0,0,1.09459237065,-0.606186337981,0.0,0.0,0.0,-0.0883963902935,0.996085376955,-0.00557730190992,0.05,0.05,0.0,0.0,1.0,1.0,0,0,,,0
1449616896516705807,142,0,/odom,ucmd_vector,0,0,0,1.09459237065,-0.606186337981,0.0,0.0,0.0,-0.0915581151598,0.99579973466,-0.00557730190992,0.05,0.05,0.0,0.0,1.0,1.0,0,0,,,0
1449616896545197287,143,0,/odom,ucmd_vector,0,0,0,1.09459237065,-0.606186337981,0.0,0.0,0.0,-0.0915581151598,0.99579973466,-0.00557730190992,0.05,0.05,0.0,0.0,1.0,1.0,0,0,,,0
1449616896591859017,144,0,/odom,ucmd_vector,0,0,0,1.09459237065,-0.606186337981,0.0,0.0,0.0,-0.0915581151598,0.99579973466,-0.00557730190992,0.05,0.05,0.0,0.0,1.0,1.0,0,0,,,0
1449616896653377446,145,0,/odom,ucmd_vector,0,0,0,1.09459237065,-0.606186337981,0.0,0.0,0.0,-0.0915581151598,0.99579973466,-0.00557730190992,0.05,0.05,0.0,0.0,1.0,1.0,0,0,,,0
1449616896741423607,146,0,/odom,ucmd_vector,0,0,0,1.09459237065,-0.606186337981,0.0,0.0,0.0,-0.0915581151598,0.99579973466,-0.00557730190992,0.05,0.05,0.0,0.0,1.0,1.0,0,0,,,0
1449616896780360341,147,0,/odom,ucmd_vector,0,0,0,1.09703212717,-0.607716304455,0.0,0.0,0.0,-0.0862950314189,0.996269625931,-0.00557730190992,0.05,0.05,0.0,0.0,1.0,1.0,0,0,,,0
1449616896947096245,148,0,/odom,ucmd_vector,0,0,0,1.09703212717,-0.607716304455,0.0,0.0,0.0,-0.0831318413578,0.996538557685,1e-05,0.05,0.05,0.0,0.0,1.0,1.0,0,0,,,0
1449616896961304853,149,0,/odom,ucmd_vector,0,0,0,1.09703212717,-0.607716304455,0.0,0.0,0.0,-0.0831318413578,0.996538557685,1e-05,0.05,0.05,0.0,0.0,1.0,1.0,0,0,,,0
1449616897070113821,150,0,/odom,ucmd_vector,0,0,0,1.09457633843,-0.606212206402,0.0,0.0,0.0,-0.0778649713106,0.996963914213,-0.00557730190992,0.05,0.05,0.0,0.0,1.0,1.0,0,0,,,0
1449616897132842455,151,0,/odom,ucmd_vector,0,0,0,1.09457633843,-0.606212206402,0.0,0.0,0.0,-0.0778649713106,0.996963914213,-0.00557730190992,0.05,0.05,0.0,0.0,1.0,1.0,0,0,,,0
1449616897177391866,152,0,/odom,ucmd_vector,0,0,0,1.09704788512,-0.607690268053,0.0,0.0,0.0,-0.0725959272073,0.997361434663,-0.00557730190992,0.05,0.05,0.0,0.0,1.0,1.0,0,0,,,0
1449616897252650878,153,0,/odom,ucmd_vector,0,0,0,1.09456085651,-0.606238407879,0.0,0.0,0.0,-0.0673248561642,0.997731107936,-0.00557730190992,0.05,0.05,0.0,0.0,1.0,1.0,0,0,,,0
1449616897274711357,154,0,/odom,ucmd_vector,0,0,0,1.09456085651,-0.606238407879,0.0,0.0,0.0,-0.0673248561642,0.997731107936,-0.00557730190992,0.05,0.05,0.0,0.0,1.0,1.0,0,0,,,0
1449616897326686178,155,0,/odom,ucmd_vector,0,0,0,1.09456085651,-0.606238407879,0.0,0.0,0.0,-0.0673248561642,0.997731107936,-0.00557730190992,0.05,0.05,0.0,0.0,1.0,1.0,0,0,,,0
1449616897365583392,156,0,/odom,ucmd_vector,0,0,0,1.09205862374,-0.604812911329,0.0,0.0,0.0,-0.0620519053539,0.998072923709,-0.00557730190992,0.05,0.05,0.0,0.0,1.0,1.0,0,0,,,0
1449616897424875022,157,0,/odom,ucmd_vector,0,0,0,1.09205862374,-0.604812911329,0.0,0.0,0.0,-0.0620519053539,0.998072923709,-0.00557730190992,0.05,0.05,0.0,0.0,1.0,1.0,0,0,,,0
1449616897548187226,158,0,/odom,ucmd_vector,0,0,0,1.09205862374,-0.604812911329,0.0,0.0,0.0,-0.0620519053539,0.998072923709,-0.00557730190992,0.05,0.05,0.0,0.0,1.0,1.0,0,0,,,0
1449616897657250665,159,0,/odom,ucmd_vector,0,0,0,1.09457578122,-0.606211885052,0.0,0.0,0.0,-0.0567772220018,0.998386872441,-0.00557730190992,0.05,0.05,0.0,0.0,1.0,1.0,0,0,,,0
1449616897691720436,160,0,/odom,ucmd_vector,0,0,0,1.09204398016,-0.604839590397,0.0,0.0,0.0,-0.0515009533816,0.998672945363,-0.00557730190992,0.05,0.05,0.0,0.0,1.0,1.0,0,0,,,0
1449616897768394942,161,0,/odom,ucmd_vector,0,0,0,1.09204398016,-0.604839590397,0.0,0.0,0.0,-0.0515009533816,0.998672945363,-0.00557730190992,0.05,0.05,0.0,0.0,1.0,1.0,0,0,,,0
1449616897801298254,162,0,/odom,ucmd_vector,0,0,0,1.09459014205,-0.606185052722,0.0,0.0,0.0,-0.046223246811,0.99893113449,-0.00557730190992,0.05,0.05,0.0,0.0,1.0,1.0,0,0,,,0
1449616897869334585,163,0,/odom,ucmd_vector,0,0,0,1.09459014205,-0.606185052722,0.0,0.0,0.0,-0.046223246811,0.99893113449,-0.00557730190992,0.05,0.05,0.0,0.0,1.0,1.0,0,0,,,0
1449616898015591396,164,0,/odom,ucmd_vector,0,0,0,1.09459014205,-0.606185052722,0.0,0.0,0.0,-0.046223246811,0.99893113449,-0.00557730190992,0.05,0.05,0.0,0.0,1.0,1.0,0,0,,,0
1449616898065648159,165,0,/odom,ucmd_vector,0,0,0,1.09459014205,-0.606185052722,0.0,0.0,0.0,-0.046223246811,0.99893113449,-0.00557730190992,0.05,0.05,0.0,0.0,1.0,1.0,0,0,,,0
1449616898147745003,166,0,/odom,ucmd_vector,0,0,0,1.09459014205,-0.606185052722,0.0,0.0,0.0,-0.046223246811,0.99893113449,1e-05,0.05,0.05,0.0,0.0,1.0,1.0,0,0,,,0
1449616898189145553,167,0,/odom,ucmd_vector,0,0,0,1.09715038041,-0.607503532453,0.0,0.0,0.0,-0.0631358990317,0.998004938993,-0.00557730190992,0.05,0.05,0.0,0.0,1.0,1.0,0,0,,,0
1449616898227646775,168,0,/odom,ucmd_vector,0,0,0,1.09715038041,-0.607503532453,0.0,0.0,0.0,-0.0409442496481,0.999161432613,-0.00557730190992,0.05,0.05,0.0,0.0,1.0,1.0,0,0,,,0
1449616898296704728,169,0,/odom,ucmd_vector,0,0,0,1.09715038041,-0.607503532453,0.0,0.0,0.0,-0.0409442496481,0.999161432613,-0.00557730190992,0.05,0.05,0.0,0.0,1.0,1.0,0,0,,,0
1449616898348382700,170,0,/odom,ucmd_vector,0,0,0,1.09715038041,-0.607503532453,0.0,0.0,0.0,-0.0409442496481,0.999161432613,-0.00557730190992,0.05,0.05,0.0,0.0,1.0,1.0,0,0,,,0
1449616898372722035,171,0,/odom,ucmd_vector,0,0,0,1.09715038041,-0.607503532453,0.0,0.0,0.0,-0.0409442496481,0.999161432613,-0.00557730190992,0.05,0.05,0.0,0.0,1.0,1.0,0,0,,,0
1449616898435985502,172,0,/odom,ucmd_vector,0,0,0,1.09715038041,-0.607503532453,0.0,0.0,0.0,-0.0409442496481,0.999161432613,-0.00557730190992,0.05,0.05,0.0,0.0,1.0,1.0,0,0,,,0
1449616898484704498,173,0,/odom,ucmd_vector,0,0,0,1.09715038041,-0.607503532453,0.0,0.0,0.0,-0.0409442496481,0.999161432613,-0.00557730190992,0.05,0.05,0.0,0.0,1.0,1.0,0,0,,,0
1449616898546211511,174,0,/odom,ucmd_vector,0,0,0,1.0997244093,-0.608794882338,0.0,0.0,0.0,-0.0356641092871,0.9993638333,1e-05,0.05,0.05,0.0,0.0,1.0,1.0,0,0,,,0
1449616898621956513,175,0,/odom,ucmd_vector,0,0,0,1.0997244093,-0.608794882338,0.0,0.0,0.0,-0.0356641092871,0.9993638333,1e-05,0.05,0.05,0.0,0.0,1.0,1.0,0,0,,,0
1449616898699615275,176,0,/odom,ucmd_vector,0,0,0,1.09713687735,-0.60753080652,0.0,0.0,0.0,-0.0303829731539,0.999538330902,-0.00557730190992,0.05,0.05,0.0,0.0,1.0,1.0,0,0,,,0
1449616898748311882,177,0,/odom,ucmd_vector,0,0,0,1.09973762337,-0.608767467096,0.0,0.0,0.0,-0.0251009887023,0.999684920546,-0.00557730190992,0.05,0.05,0.0,0.0,1.0,1.0,0,0,,,0
1449616898831524735,178,0,/odom,ucmd_vector,0,0,0,1.09973762337,-0.608767467096,0.0,0.0,0.0,-0.0251009887023,0.999684920546,-0.00557730190992,0.05,0.05,0.0,0.0,1.0,1.0,0,0,,,0
1449616898870305395,179,0,/odom,ucmd_vector,0,0,0,1.10235129301,-0.609976574316,0.0,0.0,0.0,-0.0229921777006,0.99973564494,-0.00557730190992,0.05,0.05,0.0,0.0,1.0,1.0,0,0,,,0
1449616898967801875,180,0,/odom,ucmd_vector,0,0,0,1.10235129301,-0.609976574316,0.0,0.0,0.0,-0.0198183034098,0.999803598138,-0.00557730190992,0.05,0.05,0.0,0.0,1.0,1.0,0,0,,,0
1449616899012179078,181,0,/odom,ucmd_vector,0,0,0,1.10497759437,-0.611157993145,0.0,0.0,0.0,-0.0145350647735,0.999894360366,-0.00557730190992,0.05,0.05,0.0,0.0,1.0,1.0,0,0,,,0
1449616899098071669,182,0,/odom,ucmd_vector,0,0,0,1.10497759437,-0.611157993145,0.0,0.0,0.0,-0.0145350647735,0.999894360366,-0.00557730190992,0.05,0.05,0.0,0.0,1.0,1.0,0,0,,,0
1449616899149296099,183,0,/odom,ucmd_vector,0,0,0,1.10761623412,-0.612311591637,0.0,0.0,0.0,-0.00925142030578,0.999957204695,-0.00557730190992,0.05,0.05,0.0,0.0,1.0,1.0,0,0,,,0
1449616899244371832,184,0,/odom,ucmd_vector,0,0,0,1.10761623412,-0.612311591637,0.0,0.0,0.0,-0.00925142030578,0.999957204695,-0.00557730190992,0.05,0.05,0.0,0.0,1.0,1.0,0,0,,,0
1449616899336536243,185,0,/odom,ucmd_vector,0,0,0,1.11556828454,-0.615688539596,0.0,0.0,0.0,-0.00396751753061,0.999992129371,1e-05,0.05,0.05,0.0,0.0,1.0,1.0,0,0,,,0
1449616899467955373,186,0,/odom,ucmd_vector,0,0,0,1.12090459717,-0.61785549099,0.0,0.0,0.0,0.00660047281497,0.999978216642,1e-05,0.05,0.05,0.0,0.0,1.0,1.0,0,0,,,0
1449616899510450616,187,0,/odom,ucmd_vector,0,0,0,1.12628551537,-0.619909177951,0.0,0.0,0.0,0.0171677260025,0.999852623732,-0.00557730190992,0.05,0.05,0.0,0.0,1.0,1.0,0,0,,,0
1449616899606580712,188,0,/odom,ucmd_vector,0,0,0,1.1316772854,-0.621934431744,0.0,0.0,0.0,0.0171677260025,0.999852623732,-0.00557730190992,0.05,0.05,0.0,0.0,1.0,1.0,0,0,,,0
1449616899666290921,189,0,/odom,ucmd_vector,0,0,0,1.13982703475,-0.624800598454,0.0,0.0,0.0,0.033014642027,0.999454868122,-0.00557730190992,0.05,0.05,0.0,0.0,1.0,1.0,0,0,,,0
1449616899693678474,190,0,/odom,ucmd_vector,0,0,0,1.14528029342,-0.626653921659,0.0,0.0,0.0,0.0107982116903,0.999941697613,-0.00557730190992,0.05,0.05,0.0,0.0,1.0,1.0,0,0,,,0
1449616899747178100,191,0,/odom,ucmd_vector,0,0,0,1.15077150316,-0.628391578883,0.0,0.0,0.0,-0.140076120201,0.990140737749,-0.00557730190992,0.05,0.05,0.0,0.0,1.0,1.0,0,0,,,0
1449616899754039763,192,0,/odom,ucmd_vector,0,0,0,1.15352613636,-0.629231343832,0.0,0.0,0.0,-0.134842261266,0.990867077148,-0.00557730190992,0.05,0.05,0.0,0.0,1.0,1.0,0,0,,,0
1449616899795035141,193,0,/odom,ucmd_vector,0,0,0,1.15903540277,-0.630910873732,0.0,0.0,0.0,-0.131695977492,0.991290154048,-0.00557730190992,0.05,0.05,0.0,0.0,1.0,1.0,0,0,,,0
1449616899821738808,194,0,/odom,ucmd_vector,0,0,0,1.15903540277,-0.630910873732,0.0,0.0,0.0,-0.131695977492,0.991290154048,-0.00557730190992,0.05,0.05,0.0,0.0,1.0,1.0,0,0,,,0
1449616899862306682,195,0,/odom,ucmd_vector,0,0,0,1.16457893469,-0.632473592771,0.0,0.0,0.0,-0.121212815809,0.992626542706,-0.00557730190992,0.05,0.05,0.0,0.0,1.0,1.0,0,0,,,0
1449616899895970618,196,0,/odom,ucmd_vector,0,0,0,1.17291854012,-0.634729665597,0.0,0.0,0.0,-0.115966085222,0.993253173707,-0.00557730190992,0.05,0.05,0.0,0.0,1.0,1.0,0,0,,,0
1449616902076651118,197,0,/odom,ucmd_vector,0,0,0,1.66876729123,-0.640153058112,0.0,0.0,0.0,0.0496452243971,0.998766915599,1e-05,0.05,0.05,0.0,0.0,1.0,1.0,0,0,,,0
1449616902113635467,198,0,/odom,ucmd_vector,0,0,0,1.69740456058,-0.637115340336,0.0,0.0,0.0,0.0496452243971,0.998766915599,1e-05,0.05,0.05,0.0,0.0,1.0,1.0,0,0,,,0
1449616902172737640,199,0,/odom,ucmd_vector,0,0,0,1.69740456058,-0.637115340336,0.0,0.0,0.0,-0.143488158975,0.989652033916,1e-05,0.05,0.05,0.0,0.0,1.0,1.0,0,0,,,0
1449616902186834959,200,0,/odom,ucmd_vector,0,0,0,1.71742705822,-0.634777212537,0.0,0.0,0.0,-0.138256834718,0.99039640935,1e-05,0.05,0.05,0.0,0.0,1.0,1.0,0,0,,,0
1449616902223283499,201,0,/odom,ucmd_vector,0,0,0,1.71742705822,-0.634777212537,0.0,0.0,0.0,-0.138256834718,0.99039640935,1e-05,0.05,0.05,0.0,0.0,1.0,1.0,0,0,,,0
1449616902255979815,202,0,/odom,ucmd_vector,0,0,0,1.7317456929,-0.633258353649,0.0,0.0,0.0,-0.143488158975,0.989652033916,1e-05,0.05,0.05,0.0,0.0,1.0,1.0,0,0,,,0
1449616902334437127,203,0,/odom,ucmd_vector,0,0,0,1.74032676332,-0.632256298878,0.0,0.0,0.0,-0.138256834718,0.99039640935,1e-05,0.05,0.05,0.0,0.0,1.0,1.0,0,0,,,0
1449616902353946254,204,0,/odom,ucmd_vector,0,0,0,1.76605152666,-0.629099088689,0.0,0.0,0.0,-0.133021650212,0.991113132077,1e-05,0.05,0.05,0.0,0.0,1.0,1.0,0,0,,,0
1449616902376342111,205,0,/odom,ucmd_vector,0,0,0,1.76605152666,-0.629099088689,0.0,0.0,0.0,-0.133021650212,0.991113132077,1e-05,0.05,0.05,0.0,0.0,1.0,1.0,0,0,,,0
1449616902422949581,206,0,/odom,ucmd_vector,0,0,0,1.77747819556,-0.62764217896,0.0,0.0,0.0,-0.133021650212,0.991113132077,1e-05,0.05,0.05,0.0,0.0,1.0,1.0,0,0,,,0
1449616902453528152,207,0,/odom,ucmd_vector,0,0,0,1.78319153001,-0.626913724096,0.0,0.0,0.0,-0.133021650212,0.991113132077,1e-05,0.05,0.05,0.0,0.0,1.0,1.0,0,0,,,0
1449616902507165963,208,0,/odom,ucmd_vector,0,0,0,1.79461819891,-0.625456814367,0.0,0.0,0.0,-0.133021650212,0.991113132077,1e-05,0.05,0.05,0.0,0.0,1.0,1.0,0,0,,,0
1449616902532553333,209,0,/odom,ucmd_vector,0,0,0,1.80317617472,-0.624273626578,0.0,0.0,0.0,-0.12778275163,0.991802182084,1e-05,0.05,0.05,0.0,0.0,1.0,1.0,0,0,,,0
1449616902597893220,210,0,/odom,ucmd_vector,0,0,0,1.81458680913,-0.62269604286,0.0,0.0,0.0,-0.12778275163,0.991802182084,1e-05,0.05,0.05,0.0,0.0,1.0,1.0,0,0,,,0
1449616902613069778,211,0,/odom,ucmd_vector,0,0,0,1.8288371205,-0.620633689861,0.0,0.0,0.0,-0.122540285244,0.992463540132,1e-05,0.05,0.05,0.0,0.0,1.0,1.0,0,0,,,0
1449616902714159753,212,0,/odom,ucmd_vector,0,0,0,1.8288371205,-0.620633689861,0.0,0.0,0.0,-0.122540285244,0.992463540132,1e-05,0.05,0.05,0.0,0.0,1.0,1.0,0,0,,,0
1449616902733444079,213,0,/odom,ucmd_vector,0,0,0,1.84594009048,-0.618176940932,0.0,0.0,0.0,-0.122540285244,0.992463540132,1e-05,0.05,0.05,0.0,0.0,1.0,1.0,0,0,,,0
1449616902755936397,214,0,/odom,ucmd_vector,0,0,0,1.85449806629,-0.616993753143,0.0,0.0,0.0,-0.12778275163,0.991802182084,1e-05,0.05,0.05,0.0,0.0,1.0,1.0,0,0,,,0
1449616902807635302,215,0,/odom,ucmd_vector,0,0,0,1.85449806629,-0.616993753143,0.0,0.0,0.0,-0.118331364826,0.992974162855,1e-05,0.05,0.05,0.0,0.0,1.0,1.0,0,0,,,0
1449616902834746540,216,0,/odom,ucmd_vector,0,0,0,1.86304306045,-0.615720192003,0.0,0.0,0.0,-0.11308283764,0.993585563417,1e-05,0.05,0.05,0.0,0.0,1.0,1.0,0,0,,,0
1449616902918061791,217,0,/odom,ucmd_vector,0,0,0,1.86304306045,-0.615720192003,0.0,0.0,0.0,-0.11308283764,0.993585563417,1e-05,0.05,0.05,0.0,0.0,1.0,1.0,0,0,,,0
1449616902932141208,218,0,/odom,ucmd_vector,0,0,0,1.87729769904,-0.613687963455,0.0,0.0,0.0,-0.12778275163,0.991802182084,1e-05,0.05,0.05,0.0,0.0,1.0,1.0,0,0,,,0
1449616902977965952,219,0,/odom,ucmd_vector,0,0,0,1.87729769904,-0.613687963455,0.0,0.0,0.0,-0.12778275163,0.991802182084,1e-05,0.05,0.05,0.0,0.0,1.0,1.0,0,0,,,0
1449616903056585826,220,0,/odom,ucmd_vector,0,0,0,1.87729769904,-0.613687963455,0.0,0.0,0.0,-0.1088692451,0.994056078635,1e-05,0.05,0.05,0.0,0.0,1.0,1.0,0,0,,,0
1449616903150098803,221,0,/odom,ucmd_vector,0,0,0,1.88586770071,-0.612595281158,0.0,0.0,0.0,-0.114120317312,0.993466936126,1e-05,0.05,0.05,0.0,0.0,1.0,1.0,0,0,,,0
1449616903220377539,222,0,/odom,ucmd_vector,0,0,0,1.88872805752,-0.612261262901,0.0,0.0,0.0,-0.135112027918,0.990830328518,1e-05,0.05,0.05,0.0,0.0,1.0,1.0,0,0,,,0
1449616903272395881,223,0,/odom,ucmd_vector,0,0,0,1.89159178445,-0.611957491123,0.0,0.0,0.0,-0.124612756203,0.992205453014,1e-05,0.05,0.05,0.0,0.0,1.0,1.0,0,0,,,0
1449616903303258883,224,0,/odom,ucmd_vector,0,0,0,1.89159178445,-0.611957491123,0.0,0.0,0.0,-0.124612756203,0.992205453014,1e-05,0.05,0.05,0.0,0.0,1.0,1.0,0,0,,,0
1449616903329624967,225,0,/odom,ucmd_vector,0,0,0,1.89445856169,-0.611683999751,0.0,0.0,0.0,-0.148715476921,0.988880026557,1e-05,0.05,0.05,0.0,0.0,1.0,1.0,0,0,,,0
1449616903392581833,226,0,/odom,ucmd_vector,0,0,0,1.89445856169,-0.611683999751,0.0,0.0,0.0,-0.148715476921,0.988880026557,1e-05,0.05,0.05,0.0,0.0,1.0,1.0,0,0,,,0
1449616903402893693,227,0,/odom,ucmd_vector,0,0,0,1.89732806906,-0.611440819328,0.0,0.0,0.0,-0.153938642605,0.98808040883,1e-05,0.05,0.05,0.0,0.0,1.0,1.0,0,0,,,0
1449616903440450895,228,0,/odom,ucmd_vector,0,0,0,1.89732806906,-0.611440819328,0.0,0.0,0.0,-0.153938642605,0.98808040883,1e-05,0.05,0.05,0.0,0.0,1.0,1.0,0,0,,,0
1449616903510692352,229,0,/odom,ucmd_vector,0,0,0,1.90019998608,-0.611227977014,0.0,0.0,0.0,-0.159157510191,0.987253203059,1e-05,0.05,0.05,0.0,0.0,1.0,1.0,0,0,,,0
1449616903536462712,230,0,/odom,ucmd_vector,0,0,0,1.90019998608,-0.611227977014,0.0,0.0,0.0,-0.159157510191,0.987253203059,1e-05,0.05,0.05,0.0,0.0,1.0,1.0,0,0,,,0
1449616903598751643,231,0,/odom,ucmd_vector,0,0,0,1.90307399202,-0.61104549658,0.0,0.0,0.0,-0.164371933964,0.986398432341,1e-05,0.05,0.05,0.0,0.0,1.0,1.0,0,0,,,0
1449616903628047344,232,0,/odom,ucmd_vector,0,0,0,1.9059497659,-0.610893398404,0.0,0.0,0.0,-0.169581768334,0.985516120542,1e-05,0.05,0.05,0.0,0.0,1.0,1.0,0,0,,,0
1449616903643475273,233,0,/odom,ucmd_vector,0,0,0,1.9059497659,-0.610893398404,0.0,0.0,0.0,-0.169581768334,0.985516120542,1e-05,0.05,0.05,0.0,0.0,1.0,1.0,0,0,,,0
1449616903723837120,234,0,/odom,ucmd_vector,0,0,0,1.90882698654,-0.610771699475,0.0,0.0,0.0,-0.174786867837,0.984606292297,1e-05,0.05,0.05,0.0,0.0,1.0,1.0,0,0,,,0
1449616903751952151,235,0,/odom,ucmd_vector,0,0,0,1.91170533261,-0.610680413383,0.0,0.0,0.0,-0.179987087142,0.98366897301,1e-05,0.05,0.05,0.0,0.0,1.0,1.0,0,0,,,0
1449616903761873354,236,0,/odom,ucmd_vector,0,0,0,1.91170533261,-0.610680413383,0.0,0.0,0.0,-0.179987087142,0.98366897301,1e-05,0.05,0.05,0.0,0.0,1.0,1.0,0,0,,,0
1449616903807775159,237,0,/odom,ucmd_vector,0,0,0,1.91170533261,-0.610680413383,0.0,0.0,0.0,-0.179987087142,0.98366897301,1e-05,0.05,0.05,0.0,0.0,1.0,1.0,0,0,,,0
1449616903842157462,238,0,/odom,ucmd_vector,0,0,0,1.91170533261,-0.610680413383,0.0,0.0,0.0,-0.179987087142,0.98366897301,1e-05,0.05,0.05,0.0,0.0,1.0,1.0,0,0,,,0
1449616903921276708,239,0,/odom,ucmd_vector,0,0,0,1.91458448265,-0.610619550324,0.0,0.0,0.0,-0.185182281056,0.98270418885,1e-05,0.05,0.05,0.0,0.0,1.0,1.0,0,0,,,0
1449616903955546884,240,0,/odom,ucmd_vector,0,0,0,1.91746411511,-0.610589117095,0.0,0.0,0.0,-0.190372304522,0.981711966755,1e-05,0.05,0.05,0.0,0.0,1.0,1.0,0,0,,,0
1449616903973104686,241,0,/odom,ucmd_vector,0,0,0,1.92034390837,-0.610589117095,0.0,0.0,0.0,-0.195557012633,0.98069233443,1e-05,0.05,0.05,0.0,0.0,1.0,1.0,0,0,,,0
1449616904026457134,242,0,/odom,ucmd_vector,0,0,0,1.92034390837,-0.610589117095,0.0,0.0,0.0,-0.192442723629,0.981308207508,0.00559730190992,0.05,0.05,0.0,0.0,1.0,1.0,0,0,,,0
1449616904052867902,243,0,/odom,ucmd_vector,0,0,0,1.92034390837,-0.610589117095,0.0,0.0,0.0,-0.192442723629,0.981308207508,0.00559730190992,0.05,0.05,0.0,0.0,1.0,1.0,0,0,,,0
1449616904094550105,244,0,/odom,ucmd_vector,0,0,0,1.92322354083,-0.610619550324,0.0,0.0,0.0,-0.200736260626,0.979645320343,0.00559730190992,0.05,0.05,0.0,0.0,1.0,1.0,0,0,,,0
1449616904152178291,245,0,/odom,ucmd_vector,0,0,0,1.92322354083,-0.610619550324,0.0,0.0,0.0,-0.200736260626,0.979645320343,0.00559730190992,0.05,0.05,0.0,0.0,1.0,1.0,0,0,,,0
1449616904188956377,246,0,/odom,ucmd_vector,0,0,0,1.92610269087,-0.610680413383,0.0,0.0,0.0,-0.205909903892,0.978570953728,0.00559730190992,0.05,0.05,0.0,0.0,1.0,1.0,0,0,,,0
1449616904255770539,247,0,/odom,ucmd_vector,0,0,0,1.92610269087,-0.610680413383,0.0,0.0,0.0,-0.205909903892,0.978570953728,0.00559730190992,0.05,0.05,0.0,0.0,1.0,1.0,0,0,,,0
1449616904313876766,248,0,/odom,ucmd_vector,0,0,0,1.92898103694,-0.610771699475,0.0,0.0,0.0,-0.211077797979,0.977469264581,0.00559730190992,0.05,0.05,0.0,0.0,1.0,1.0,0,0,,,0
1449616904334055073,249,0,/odom,ucmd_vector,0,0,0,1.93185825758,-0.610893398404,0.0,0.0,0.0,-0.213139221379,0.977021838195,0.00559730190992,0.05,0.05,0.0,0.0,1.0,1.0,0,0,,,0
1449616904342533253,250,0,/odom,ucmd_vector,0,0,0,1.93473403146,-0.61104549658,0.0,0.0,0.0,-0.218298829016,0.975881970963,0.00559730190992,0.05,0.05,0.0,0.0,1.0,1.0,0,0,,,0
1449616904402160926,251,0,/odom,ucmd_vector,0,0,0,1.93473403146,-0.61104549658,0.0,0.0,0.0,-0.221395761612,0.975184042497,0.00559730190992,0.05,0.05,0.0,0.0,1.0,1.0,0,0,,,0
1449616904433950994,252,0,/odom,ucmd_vector,0,0,0,1.9376080374,-0.611227977014,0.0,0.0,0.0,-0.226545543072,0.974000573364,0.00559730190992,0.05,0.05,0.0,0.0,1.0,1.0,0,0,,,0
1449616904511632152,253,0,/odom,ucmd_vector,0,0,0,1.9376080374,-0.611227977014,0.0,0.0,0.0,-0.226545543072,0.974000573364,0.00559730190992,0.05,0.05,0.0,0.0,1.0,1.0,0,0,,,0
1449616904544874763,254,0,/odom,ucmd_vector,0,0,0,1.94047995442,-0.611440819328,0.0,0.0,0.0,-0.231688999188,0.97278990931,0.00559730190992,0.05,0.05,0.0,0.0,1.0,1.0,0,0,,,0
1449616904566479294,255,0,/odom,ucmd_vector,0,0,0,1.94047995442,-0.611440819328,0.0,0.0,0.0,-0.231688999188,0.97278990931,0.00559730190992,0.05,0.05,0.0,0.0,1.0,1.0,0,0,,,0
1449616904585893929,256,0,/odom,ucmd_vector,0,0,0,1.94334946179,-0.611683999751,0.0,0.0,0.0,-0.233740506007,0.972299015659,0.00559730190992,0.05,0.05,0.0,0.0,1.0,1.0,0,0,,,0
1449616904651632655,257,0,/odom,ucmd_vector,0,0,0,1.94334946179,-0.611683999751,0.0,0.0,0.0,-0.233740506007,0.972299015659,0.00559730190992,0.05,0.05,0.0,0.0,1.0,1.0,0,0,,,0
1449616904672543169,258,0,/odom,ucmd_vector,0,0,0,1.94621623903,-0.611957491123,0.0,0.0,0.0,-0.238874870648,0.971050357177,0.00559730190992,0.05,0.05,0.0,0.0,1.0,1.0,0,0,,,0
1449616904705950741,259,0,/odom,ucmd_vector,0,0,0,1.94621623903,-0.611957491123,0.0,0.0,0.0,-0.241956361131,0.970287132404,0.0111846038198,0.05,0.05,0.0,0.0,1.0,1.0,0,0,,,0
1449616904752164784,260,0,/odom,ucmd_vector,0,0,0,1.94621623903,-0.611957491123,0.0,0.0,0.0,-0.241956361131,0.970287132404,0.0111846038198,0.05,0.05,0.0,0.0,1.0,1.0,0,0,,,0
1449616904784446982,261,0,/odom,ucmd_vector,0,0,0,1.94907996596,-0.612261262901,0.0,0.0,0.0,-0.247079980284,0.968995089432,0.0111846038198,0.05,0.05,0.0,0.0,1.0,1.0,0,0,,,0
1449616904817844535,262,0,/odom,ucmd_vector,0,0,0,1.94907996596,-0.612261262901,0.0,0.0,0.0,-0.247079980284,0.968995089432,0.0111846038198,0.05,0.05,0.0,0.0,1.0,1.0,0,0,,,0
1449616904871946940,263,0,/odom,ucmd_vector,0,0,0,1.94907996596,-0.612261262901,0.0,0.0,0.0,-0.247079980284,0.968995089432,0.0111846038198,0.05,0.05,0.0,0.0,1.0,1.0,0,0,,,0
1449616904894109211,264,0,/odom,ucmd_vector,0,0,0,1.95194032277,-0.612595281158,0.0,0.0,0.0,-0.252196700755,0.967675991295,0.0111846038198,0.05,0.05,0.0,0.0,1.0,1.0,0,0,,,0
1449616904965921516,265,0,/odom,ucmd_vector,0,0,0,1.95194032277,-0.612595281158,0.0,0.0,0.0,-0.252196700755,0.967675991295,0.00559730190992,0.05,0.05,0.0,0.0,1.0,1.0,0,0,,,0
1449616904987547946,266,0,/odom,ucmd_vector,0,0,0,1.95479698999,-0.61295950859,0.0,0.0,0.0,-0.25730637968,0.966329874823,0.00559730190992,0.05,0.05,0.0,0.0,1.0,1.0,0,0,,,0
1449616905019575519,267,0,/odom,ucmd_vector,0,0,0,1.95479698999,-0.61295950859,0.0,0.0,0.0,-0.254237374548,0.96714184967,0.00559730190992,0.05,0.05,0.0,0.0,1.0,1.0,0,0,,,0
1449616905084669078,268,0,/odom,ucmd_vector,0,0,0,1.95479698999,-0.61295950859,0.0,0.0,0.0,-0.254237374548,0.96714184967,0.00559730190992,0.05,0.05,0.0,0.0,1.0,1.0,0,0,,,0
1449616905107244229,269,0,/odom,ucmd_vector,0,0,0,1.9576496486,-0.61335390452,0.0,0.0,0.0,-0.25934420258,0.965784957735,0.00559730190992,0.05,0.05,0.0,0.0,1.0,1.0,0,0,,,0
1449616905126975362,270,0,/odom,ucmd_vector,0,0,0,1.9576496486,-0.61335390452,0.0,0.0,0.0,-0.262408874392,0.964956777602,0.00559730190992,0.05,0.05,0.0,0.0,1.0,1.0,0,0,,,0
1449616905211915601,271,0,/odom,ucmd_vector,0,0,0,1.9576496486,-0.61335390452,0.0,0.0,0.0,-0.262408874392,0.964956777602,0.00559730190992,0.05,0.05,0.0,0.0,1.0,1.0,0,0,,,0
1449616905253551893,272,0,/odom,ucmd_vector,0,0,0,1.9576496486,-0.61335390452,0.0,0.0,0.0,-0.25934420258,0.965784957735,0.00559730190992,0.05,0.05,0.0,0.0,1.0,1.0,0,0,,,0
1449616905333743154,273,0,/odom,ucmd_vector,0,0,0,1.96049797998,-0.6137784249,0.0,0.0,0.0,-0.264443789502,0.964401100266,0.00559730190992,0.05,0.05,0.0,0.0,1.0,1.0,0,0,,,0
1449616905397285036,274,0,/odom,ucmd_vector,0,0,0,1.96049797998,-0.6137784249,0.0,0.0,0.0,-0.264443789502,0.964401100266,0.00559730190992,0.05,0.05,0.0,0.0,1.0,1.0,0,0,,,0
1449616905463289303,275,0,/odom,ucmd_vector,0,0,0,1.96334166605,-0.614233022318,0.0,0.0,0.0,-0.272591741521,0.962129795014,0.00559730190992,0.05,0.05,0.0,0.0,1.0,1.0,0,0,,,0
1449616905506177989,276,0,/odom,ucmd_vector,0,0,0,1.96334166605,-0.614233022318,0.0,0.0,0.0,-0.272591741521,0.962129795014,0.00559730190992,0.05,0.05,0.0,0.0,1.0,1.0,0,0,,,0
1449616905540253205,277,0,/odom,ucmd_vector,0,0,0,1.96618999744,-0.614657542698,0.0,0.0,0.0,-0.242949126985,0.970039031017,0.00559730190992,0.05,0.05,0.0,0.0,1.0,1.0,0,0,,,0
1449616905597999547,278,0,/odom,ucmd_vector,0,0,0,1.96903368351,-0.615112140117,0.0,0.0,0.0,-0.248071421312,0.968741745734,0.00559730190992,0.05,0.05,0.0,0.0,1.0,1.0,0,0,,,0
1449616905637237068,279,0,/odom,ucmd_vector,0,0,0,1.97187240666,-0.615596763803,0.0,0.0,0.0,-0.274620670682,0.961552644026,0.00559730190992,0.05,0.05,0.0,0.0,1.0,1.0,0,0,,,0
1449616905663513922,280,0,/odom,ucmd_vector,0,0,0,1.97187240666,-0.615596763803,0.0,0.0,0.0,-0.274620670682,0.961552644026,0.00559730190992,0.05,0.05,0.0,0.0,1.0,1.0,0,0,,,0
1449616905714086659,281,0,/odom,ucmd_vector,0,0,0,1.97187240666,-0.615596763803,0.0,0.0,0.0,-0.2562566745,0.96660877131,0.00559730190992,0.05,0.05,0.0,0.0,1.0,1.0,0,0,,,0
1449616905764407674,282,0,/odom,ucmd_vector,0,0,0,1.97754985296,-0.616566011177,0.0,0.0,0.0,-0.2562566745,0.96660877131,0.00559730190992,0.05,0.05,0.0,0.0,1.0,1.0,0,0,,,0
1449616905794784298,283,0,/odom,ucmd_vector,0,0,0,1.98038329617,-0.617080607008,0.0,0.0,0.0,-0.261360657556,0.965241216838,0.00559730190992,0.05,0.05,0.0,0.0,1.0,1.0,0,0,,,0
1449616905852671498,284,0,/odom,ucmd_vector,0,0,0,1.98038329617,-0.617080607008,0.0,0.0,0.0,-0.282744164891,0.959195359257,1e-05,0.05,0.05,0.0,0.0,1.0,1.0,0,0,,,0
1449616905899591754,285,0,/odom,ucmd_vector,0,0,0,1.98321114297,-0.617625117511,0.0,0.0,0.0,-0.287808605703,0.957687948386,1e-05,0.05,0.05,0.0,0.0,1.0,1.0,0,0,,,0
1449616905940313205,286,0,/odom,ucmd_vector,0,0,0,1.98603307756,-0.618199481874,0.0,0.0,0.0,-0.268489907708,0.963282497224,0.00559730190992,0.05,0.05,0.0,0.0,1.0,1.0,0,0,,,0
1449616906026240934,287,0,/odom,ucmd_vector,0,0,0,1.99167694674,-0.619348210602,0.0,0.0,0.0,-0.268489907708,0.963282497224,0.00559730190992,0.05,0.05,0.0,0.0,1.0,1.0,0,0,,,0
1449616906057361977,288,0,/odom,ucmd_vector,0,0,0,1.99449265396,-0.619952364679,0.0,0.0,0.0,-0.294881288825,0.955533895527,0.00559730190992,0.05,0.05,0.0,0.0,1.0,1.0,0,0,,,0
1449616906095397704,289,0,/odom,ucmd_vector,0,0,0,2.00012406838,-0.621160672834,0.0,0.0,0.0,-0.294881288825,0.955533895527,0.00559730190992,0.05,0.05,0.0,0.0,1.0,1.0,0,0,,,0
1449616906137622575,290,0,/odom,ucmd_vector,0,0,0,2.00012406838,-0.621160672834,0.0,0.0,0.0,-0.279677574659,0.960093981979,0.00559730190992,0.05,0.05,0.0,0.0,1.0,1.0,0,0,,,0
1449616906164543938,291,0,/odom,ucmd_vector,0,0,0,2.00293323375,-0.621794549152,0.0,0.0,0.0,-0.284746806604,0.958602762425,0.00559730190992,0.05,0.05,0.0,0.0,1.0,1.0,0,0,,,0
1449616906221747644,292,0,/odom,ucmd_vector,0,0,0,2.00855156449,-0.623062301787,0.0,0.0,0.0,-0.299926213024,0.953962403211,0.00559730190992,0.05,0.05,0.0,0.0,1.0,1.0,0,0,,,0
1449616906276967634,293,0,/odom,ucmd_vector,0,0,0,2.01135387428,-0.623725829552,0.0,0.0,0.0,-0.304962763029,0.952364275457,0.00559730190992,0.05,0.05,0.0,0.0,1.0,1.0,0,0,,,0
1449616906320288233,294,0,/odom,ucmd_vector,0,0,0,2.01416303964,-0.624359705869,0.0,0.0,0.0,-0.299926213024,0.953962403211,0.00559730190992,0.05,0.05,0.0,0.0,1.0,1.0,0,0,,,0
1449616906362907101,295,0,/odom,ucmd_vector,0,0,0,2.02256996901,-0.626350289164,0.0,0.0,0.0,-0.307984599701,0.951391342376,0.00559730190992,0.05,0.05,0.0,0.0,1.0,1.0,0,0,,,0
1449616906442882206,296,0,/odom,ucmd_vector,0,0,0,2.02536511026,-0.627043394272,0.0,0.0,0.0,-0.313007451722,0.949750670001,0.00559730190992,0.05,0.05,0.0,0.0,1.0,1.0,0,0,,,0
1449616906526382127,297,0,/odom,ucmd_vector,0,0,0,2.03931837432,-0.630597419615,0.0,0.0,0.0,-0.31802156431,0.948083479781,0.00559730190992,0.05,0.05,0.0,0.0,1.0,1.0,0,0,,,0
1449616906595381699,298,0,/odom,ucmd_vector,0,0,0,2.04767356384,-0.632794653976,0.0,0.0,0.0,-0.320020762822,0.947410529476,0.00559730190992,0.05,0.05,0.0,0.0,1.0,1.0,0,0,,,0
1449616906635148583,299,0,/odom,ucmd_vector,0,0,0,2.0532333008,-0.634298702527,0.0,0.0,0.0,-0.320020762822,0.947410529476,0.00559730190992,0.05,0.05,0.0,0.0,1.0,1.0,0,0,,,0
1449616906680327430,300,0,/odom,ucmd_vector,0,0,0,2.05879303775,-0.635802751077,0.0,0.0,0.0,-0.323026797466,0.946389818267,0.00559730190992,0.05,0.05,0.0,0.0,1.0,1.0,0,0,,,0
1449616906736722242,301,0,/odom,ucmd_vector,0,0,0,2.07265186756,-0.639709548676,0.0,0.0,0.0,-0.328023011439,0.944669732746,0.00559730190992,0.05,0.05,0.0,0.0,1.0,1.0,0,0,,,0
1449616906781445060,302,0,/odom,ucmd_vector,0,0,0,2.08094192924,-0.642141371176,0.0,0.0,0.0,-0.333010066732,0.942923271245,0.00559730190992,0.05,0.05,0.0,0.0,1.0,1.0,0,0,,,0
1449616906796195065,303,0,/odom,ucmd_vector,0,0,0,2.08646863702,-0.643762586176,0.0,0.0,0.0,-0.247990271254,0.968762522687,0.00559730190992,0.05,0.05,0.0,0.0,1.0,1.0,0,0,,,0
1449616906828068779,304,0,/odom,ucmd_vector,0,0,0,2.08646863702,-0.643762586176,0.0,0.0,0.0,-0.247990271254,0.968762522687,0.00559730190992,0.05,0.05,0.0,0.0,1.0,1.0,0,0,,,0
1449616906882719448,305,0,/odom,ucmd_vector,0,0,0,2.09752205259,-0.647005016176,0.0,0.0,0.0,-0.247990271254,0.968762522687,0.00559730190992,0.05,0.05,0.0,0.0,1.0,1.0,0,0,,,0
1449616906905217830,306,0,/odom,ucmd_vector,0,0,0,2.11131265999,-0.651145526025,0.0,0.0,0.0,-0.150552663995,0.98860199037,1e-05,0.05,0.05,0.0,0.0,1.0,1.0,0,0,,,0
1449616906942954763,307,0,/odom,ucmd_vector,0,0,0,2.11131265999,-0.651145526025,0.0,0.0,0.0,-0.150552663995,0.98860199037,1e-05,0.05,0.05,0.0,0.0,1.0,1.0,0,0,,,0
1449616907030460927,308,0,/odom,ucmd_vector,0,0,0,2.1223311928,-0.654504585823,0.0,0.0,0.0,-0.150552663995,0.98860199037,1e-05,0.05,0.05,0.0,0.0,1.0,1.0,0,0,,,0
1449616910636995488,309,0,/odom,ucmd_vector,0,0,0,3.01200131879,-0.748251014996,0.0,0.0,0.0,0.172441358415,0.985019785541,0.0167719050741,0.05,0.05,0.0,0.0,1.0,1.0,0,0,,,0
1449616910660874220,310,0,/odom,ucmd_vector,0,0,0,3.01739308882,-0.746225761203,0.0,0.0,0.0,0.172441358415,0.985019785541,0.0167719050741,0.05,0.05,0.0,0.0,1.0,1.0,0,0,,,0
1449616910727149450,311,0,/odom,ucmd_vector,0,0,0,3.02544818838,-0.743102581011,0.0,0.0,0.0,0.121150448663,0.99263415657,0.329660794983,0.05,0.05,0.0,0.0,1.0,1.0,0,0,,,0
1449616910751716243,312,0,/odom,ucmd_vector,0,0,0,3.03609791297,-0.738712283286,0.0,0.0,0.0,0.13163369429,0.991298426574,0.329660794983,0.05,0.05,0.0,0.0,1.0,1.0,0,0,,,0
1449616910787729253,313,0,/odom,ucmd_vector,0,0,0,3.03609791297,-0.738712283286,0.0,0.0,0.0,0.0272515562902,0.999628607374,0.296136987457,0.05,0.05,0.0,0.0,1.0,1.0,0,0,,,0
1449616910824806924,314,0,/odom,ucmd_vector,0,0,0,3.04404996338,-0.735335335327,0.0,0.0,0.0,0.0325332131602,0.999470654918,0.296136987457,0.05,0.05,0.0,0.0,1.0,1.0,0,0,,,0
1449616910863622858,315,0,/odom,ucmd_vector,0,0,0,3.04668860314,-0.734181736834,0.0,0.0,0.0,0.0378139616752,0.999284796393,0.296136987457,0.05,0.05,0.0,0.0,1.0,1.0,0,0,,,0
1449616910906297664,316,0,/odom,ucmd_vector,0,0,0,3.0545675072,-0.730637480349,0.0,0.0,0.0,0.0430936543924,0.999071036989,0.296136987457,0.05,0.05,0.0,0.0,1.0,1.0,0,0,,,0
1449616910945760675,317,0,/odom,ucmd_vector,0,0,0,3.05982010991,-0.728274642693,0.0,0.0,0.0,0.0430936543924,0.999071036989,0.301724288712,0.05,0.05,0.0,0.0,1.0,1.0,0,0,,,0
1449616910993583709,318,0,/odom,ucmd_vector,0,0,0,3.06243377955,-0.727065535472,0.0,0.0,0.0,0.0483721438982,0.998829382675,0.301724288712,0.05,0.05,0.0,0.0,1.0,1.0,0,0,,,0
1449616911024600362,319,0,/odom,ucmd_vector,0,0,0,3.06766111883,-0.724647321032,0.0,0.0,0.0,0.0483721438982,0.998829382675,0.301724288712,0.05,0.05,0.0,0.0,1.0,1.0,0,0,,,0
1449616911074966036,320,0,/odom,ucmd_vector,0,0,0,3.07283618273,-0.722119169395,0.0,0.0,0.0,0.0589249237937,0.998262417081,0.301724288712,0.05,0.05,0.0,0.0,1.0,1.0,0,0,,,0
1449616911110586597,321,0,/odom,ucmd_vector,0,0,0,3.07801124662,-0.719591017759,0.0,0.0,0.0,0.0589249237937,0.998262417081,0.301724288712,0.05,0.05,0.0,0.0,1.0,1.0,0,0,,,0
1449616911151486832,322,0,/odom,ucmd_vector,0,0,0,3.08058527551,-0.718299667874,0.0,0.0,0.0,0.0610305471952,0.998135898718,0.301724288712,0.05,0.05,0.0,0.0,1.0,1.0,0,0,,,0
1449616911185347899,323,0,/odom,ucmd_vector,0,0,0,3.08573333329,-0.715716968103,0.0,0.0,0.0,0.0610305471952,0.998135898718,0.301724288712,0.05,0.05,0.0,0.0,1.0,1.0,0,0,,,0
1449616911229490365,324,0,/odom,ucmd_vector,0,0,0,3.09088139107,-0.713134268333,0.0,0.0,0.0,0.0641989195409,0.997937121631,0.301724288712,0.05,0.05,0.0,0.0,1.0,1.0,0,0,,,0
1449616911265369974,325,0,/odom,ucmd_vector,0,0,0,3.09344162943,-0.711815788602,0.0,0.0,0.0,0.0694711227997,0.997583962931,0.301724288712,0.05,0.05,0.0,0.0,1.0,1.0,0,0,,,0
1449616911315208885,326,0,/odom,ucmd_vector,0,0,0,3.09856210615,-0.709178829141,0.0,0.0,0.0,0.0694711227997,0.997583962931,0.296136987457,0.05,0.05,0.0,0.0,1.0,1.0,0,0,,,0
1449616911344512949,327,0,/odom,ucmd_vector,0,0,0,3.10620059183,-0.705142442165,0.0,0.0,0.0,0.0747413863659,0.99720295084,0.296136987457,0.05,0.05,0.0,0.0,1.0,1.0,0,0,,,0
1449616911384969052,328,0,/odom,ucmd_vector,0,0,0,3.10873239289,-0.70377014751,0.0,0.0,0.0,0.0800095630892,0.996794095997,0.296136987457,0.05,0.05,0.0,0.0,1.0,1.0,0,0,,,0
1449616911422794803,329,0,/odom,ucmd_vector,0,0,0,3.11379599502,-0.701025558201,0.0,0.0,0.0,0.105296444237,0.994440877494,0.245851276169,0.05,0.05,0.0,0.0,1.0,1.0,0,0,,,0
1449616911464465750,330,0,/odom,ucmd_vector,0,0,0,3.11885959715,-0.698280968891,0.0,0.0,0.0,0.105296444237,0.994440877494,0.245851276169,0.05,0.05,0.0,0.0,1.0,1.0,0,0,,,0
1449616911507123556,331,0,/odom,ucmd_vector,0,0,0,3.12392319929,-0.695536379582,0.0,0.0,0.0,0.105296444237,0.994440877494,0.245851276169,0.05,0.05,0.0,0.0,1.0,1.0,0,0,,,0
1449616911545343069,332,0,/odom,ucmd_vector,0,0,0,3.12898680142,-0.692791790272,0.0,0.0,0.0,0.0800095630892,0.996794095997,0.296136987457,0.05,0.05,0.0,0.0,1.0,1.0,0,0,,,0
1449616911581744867,333,0,/odom,ucmd_vector,0,0,0,3.13405040355,-0.690047200963,0.0,0.0,0.0,0.0800095630892,0.996794095997,0.296136987457,0.05,0.05,0.0,0.0,1.0,1.0,0,0,,,0
1449616911631426537,334,0,/odom,ucmd_vector,0,0,0,3.13911400568,-0.687302611653,0.0,0.0,0.0,0.0800095630892,0.996794095997,0.296136987457,0.05,0.05,0.0,0.0,1.0,1.0,0,0,,,0
1449616911662126672,335,0,/odom,ucmd_vector,0,0,0,3.14666547812,-0.683105690485,0.0,0.0,0.0,0.0852755058776,0.996357409817,0.296136987457,0.05,0.05,0.0,0.0,1.0,1.0,0,0,,,0
1449616911701477813,336,0,/odom,ucmd_vector,0,0,0,3.15169979307,-0.680307743039,0.0,0.0,0.0,0.0852755058776,0.996357409817,0.296136987457,0.05,0.05,0.0,0.0,1.0,1.0,0,0,,,0
1449616911757349634,337,0,/odom,ucmd_vector,0,0,0,3.15673410803,-0.677509795593,0.0,0.0,0.0,0.0852755058776,0.996357409817,0.296136987457,0.05,0.05,0.0,0.0,1.0,1.0,0,0,,,0
1449616911801626719,338,0,/odom,ucmd_vector,0,0,0,3.16680273795,-0.671913900701,0.0,0.0,0.0,0.0852755058776,0.996357409817,0.296136987457,0.05,0.05,0.0,0.0,1.0,1.0,0,0,,,0
1449616911826889447,339,0,/odom,ucmd_vector,0,0,0,3.17183705291,-0.669115953256,0.0,0.0,0.0,0.0852755058776,0.996357409817,0.296136987457,0.05,0.05,0.0,0.0,1.0,1.0,0,0,,,0
1449616911863762520,340,0,/odom,ucmd_vector,0,0,0,3.17943245611,-0.664999069291,0.0,0.0,0.0,0.0800095630892,0.996794095997,0.296136987457,0.05,0.05,0.0,0.0,1.0,1.0,0,0,,,0
1449616911905399665,341,0,/odom,ucmd_vector,0,0,0,3.18698392854,-0.660802148123,0.0,0.0,0.0,0.0852755058776,0.996357409817,0.296136987457,0.05,0.05,0.0,0.0,1.0,1.0,0,0,,,0
1449616911950497750,342,0,/odom,ucmd_vector,0,0,0,3.19457933174,-0.656685264158,0.0,0.0,0.0,0.0768447397195,0.997043071275,0.296136987457,0.05,0.05,0.0,0.0,1.0,1.0,0,0,,,0
1449616911991628936,343,0,/odom,ucmd_vector,0,0,0,3.204706536,-0.651196085539,0.0,0.0,0.0,0.0768447397195,0.997043071275,0.296136987457,0.05,0.05,0.0,0.0,1.0,1.0,0,0,,,0
1449616912024838459,344,0,/odom,ucmd_vector,0,0,0,3.20977013813,-0.64845149623,0.0,0.0,0.0,0.0768447397195,0.997043071275,0.301724288712,0.05,0.05,0.0,0.0,1.0,1.0,0,0,,,0
1449616912064278443,345,0,/odom,ucmd_vector,0,0,0,3.21740862381,-0.644415109254,0.0,0.0,0.0,0.0715752915932,0.997435199716,0.301724288712,0.05,0.05,0.0,0.0,1.0,1.0,0,0,,,0
1449616912113834996,346,0,/odom,ucmd_vector,0,0,0,3.22759327138,-0.639033259954,0.0,0.0,0.0,0.0715752915932,0.997435199716,0.301724288712,0.05,0.05,0.0,0.0,1.0,1.0,0,0,,,0
