%time,field.header.seq,field.header.stamp,field.header.frame_id,field.ns,field.id,field.type,field.action,field.pose.position.x,field.pose.position.y,field.pose.position.z,field.pose.orientation.x,field.pose.orientation.y,field.pose.orientation.z,field.pose.orientation.w,field.scale.x,field.scale.y,field.scale.z,field.color.r,field.color.g,field.color.b,field.color.a,field.lifetime,field.frame_locked,field.text,field.mesh_resource,field.mesh_use_embedded_materials
1449616883912020204,2,1449616883910930476,/odom,ga,1,0,0,nan,nan,0.0,nan,nan,nan,nan,0.25,0.15,0.0,1.0,0.0,0.0,1.0,2000000000,0,,,0
1449616883912023210,3,1449616883911173183,/odom,ga,2,2,0,nan,nan,0.0,0.0,0.0,0.0,0.0,0.15,0.15,0.01,0.0,1.0,0.0,1.0,2000000000,0,,,0
1449616883934877986,4,1449616883934478378,/odom,ga,1,0,0,0.0,0.0,0.0,0.0,0.0,0.0,1.0,0.25,0.15,0.0,1.0,0.0,0.0,1.0,2000000000,0,,,0
1449616883934881024,5,1449616883934722890,/odom,ga,2,2,0,0.0,0.0,0.0,0.0,0.0,0.0,0.0,0.15,0.15,0.01,0.0,1.0,0.0,1.0,2000000000,0,,,0
1449616884031366925,6,1449616884031249705,/odom,ga,1,0,0,0.0,0.0,0.0,0.0,0.0,0.0,1.0,0.25,0.15,0.0,1.0,0.0,0.0,1.0,2000000000,0,,,0
1449616884031479303,7,1449616884031347880,/odom,ga,2,2,0,0.0,0.0,0.0,0.0,0.0,0.0,0.0,0.15,0.15,0.01,0.0,1.0,0.0,1.0,2000000000,0,,,0
1449616884126843986,8,1449616884126324683,/odom,ga,1,0,0,0.0,0.0,0.0,0.0,0.0,0.0,1.0,0.25,0.15,0.0,1.0,0.0,0.0,1.0,2000000000,0,,,0
1449616884126849923,9,1449616884126401993,/odom,ga,2,2,0,0.0,0.0,0.0,0.0,0.0,0.0,0.0,0.15,0.15,0.01,0.0,1.0,0.0,1.0,2000000000,0,,,0
1449616884240136929,10,1449616884237846547,/odom,ga,1,0,0,0.0,0.0,0.0,0.0,0.0,0.0,1.0,0.25,0.15,0.0,1.0,0.0,0.0,1.0,2000000000,0,,,0
1449616884240142357,11,1449616884238092025,/odom,ga,2,2,0,0.0,0.0,0.0,0.0,0.0,0.0,0.0,0.15,0.15,0.01,0.0,1.0,0.0,1.0,2000000000,0,,,0
1449616884331322477,12,1449616884330920935,/odom,ga,1,0,0,0.0,0.0,0.0,0.0,0.0,0.0,1.0,0.25,0.15,0.0,1.0,0.0,0.0,1.0,2000000000,0,,,0
1449616884331325899,13,1449616884331094053,/odom,ga,2,2,0,0.0,0.0,0.0,0.0,0.0,0.0,0.0,0.15,0.15,0.01,0.0,1.0,0.0,1.0,2000000000,0,,,0
1449616884428943449,14,1449616884428647524,/odom,ga,1,0,0,0.0,0.0,0.0,0.0,0.0,0.0,1.0,0.25,0.15,0.0,1.0,0.0,0.0,1.0,2000000000,0,,,0
1449616884429782114,15,1449616884429340035,/odom,ga,2,2,0,0.0,0.0,0.0,0.0,0.0,0.0,0.0,0.15,0.15,0.01,0.0,1.0,0.0,1.0,2000000000,0,,,0
1449616884530052425,16,1449616884529565058,/odom,ga,1,0,0,0.0,0.0,0.0,0.0,0.0,0.0,1.0,0.25,0.15,0.0,1.0,0.0,0.0,1.0,2000000000,0,,,0
1449616884530056415,17,1449616884529764529,/odom,ga,2,2,0,0.0,0.0,0.0,0.0,0.0,0.0,0.0,0.15,0.15,0.01,0.0,1.0,0.0,1.0,2000000000,0,,,0
1449616884650246067,18,1449616884634431434,/odom,ga,1,0,0,0.0,0.0,0.0,0.0,0.0,0.0,1.0,0.25,0.15,0.0,1.0,0.0,0.0,1.0,2000000000,0,,,0
1449616884650327158,19,1449616884636948314,/odom,ga,2,2,0,0.0,0.0,0.0,0.0,0.0,0.0,0.0,0.15,0.15,0.01,0.0,1.0,0.0,1.0,2000000000,0,,,0
1449616884735793334,20,1449616884735563534,/odom,ga,1,0,0,0.0,0.0,0.0,0.0,0.0,0.0,1.0,0.25,0.15,0.0,1.0,0.0,0.0,1.0,2000000000,0,,,0
1449616884735902006,21,1449616884735716951,/odom,ga,2,2,0,0.0,0.0,0.0,0.0,0.0,0.0,0.0,0.15,0.15,0.01,0.0,1.0,0.0,1.0,2000000000,0,,,0
1449616884885418001,22,1449616884880216826,/odom,ga,1,0,0,0.0,0.0,0.0,0.0,0.0,0.0,1.0,0.25,0.15,0.0,1.0,0.0,0.0,1.0,2000000000,0,,,0
1449616884885421786,23,1449616884880437047,/odom,ga,2,2,0,0.0,0.0,0.0,0.0,0.0,0.0,0.0,0.15,0.15,0.01,0.0,1.0,0.0,1.0,2000000000,0,,,0
1449616884935691096,24,1449616884934421809,/odom,ga,1,0,0,0.0,0.0,0.0,0.0,0.0,0.0,1.0,0.25,0.15,0.0,1.0,0.0,0.0,1.0,2000000000,0,,,0
1449616884935843139,25,1449616884934662349,/odom,ga,2,2,0,0.0,0.0,0.0,0.0,0.0,0.0,0.0,0.15,0.15,0.01,0.0,1.0,0.0,1.0,2000000000,0,,,0
1449616885028856335,26,1449616885027906497,/odom,ga,1,0,0,0.0,0.0,0.0,0.0,0.0,0.0,1.0,0.25,0.15,0.0,1.0,0.0,0.0,1.0,2000000000,0,,,0
1449616885028861608,27,1449616885028217405,/odom,ga,2,2,0,0.0,0.0,0.0,0.0,0.0,0.0,0.0,0.15,0.15,0.01,0.0,1.0,0.0,1.0,2000000000,0,,,0
1449616885125841761,28,1449616885125675158,/odom,ga,1,0,0,0.0,0.0,0.0,0.0,0.0,0.0,1.0,0.25,0.15,0.0,1.0,0.0,0.0,1.0,2000000000,0,,,0
1449616885126945093,29,1449616885126131459,/odom,ga,2,2,0,0.0,0.0,0.0,0.0,0.0,0.0,0.0,0.15,0.15,0.01,0.0,1.0,0.0,1.0,2000000000,0,,,0
1449616885264561341,30,1449616885263594821,/odom,ga,1,0,0,0.0,0.0,0.0,0.0,0.0,0.0,1.0,0.25,0.15,0.0,1.0,0.0,0.0,1.0,2000000000,0,,,0
1449616885264611710,31,1449616885263917638,/odom,ga,2,2,0,0.0,0.0,0.0,0.0,0.0,0.0,0.0,0.15,0.15,0.01,0.0,1.0,0.0,1.0,2000000000,0,,,0
1449616885355896248,32,1449616885355705593,/odom,ga,1,0,0,0.0,0.0,0.0,0.0,0.0,0.0,1.0,0.25,0.15,0.0,1.0,0.0,0.0,1.0,2000000000,0,,,0
1449616885356131977,33,1449616885355920877,/odom,ga,2,2,0,0.0,0.0,0.0,0.0,0.0,0.0,0.0,0.15,0.15,0.01,0.0,1.0,0.0,1.0,2000000000,0,,,0
1449616885444316193,34,1449616885443985540,/odom,ga,1,0,0,0.0,0.0,0.0,0.0,0.0,0.0,1.0,0.25,0.15,0.0,1.0,0.0,0.0,1.0,2000000000,0,,,0
1449616885445008105,35,1449616885444317258,/odom,ga,2,2,0,0.0,0.0,0.0,0.0,0.0,0.0,0.0,0.15,0.15,0.01,0.0,1.0,0.0,1.0,2000000000,0,,,0
1449616885558068693,36,1449616885557268542,/odom,ga,1,0,0,0.0,0.0,0.0,0.0,0.0,0.0,1.0,0.25,0.15,0.0,1.0,0.0,0.0,1.0,2000000000,0,,,0
1449616885558071646,37,1449616885557834704,/odom,ga,2,2,0,0.0,0.0,0.0,0.0,0.0,0.0,0.0,0.15,0.15,0.01,0.0,1.0,0.0,1.0,2000000000,0,,,0
1449616885672870299,38,1449616885671818232,/odom,ga,1,0,0,0.0,0.0,0.0,0.0,0.0,0.0,1.0,0.25,0.15,0.0,1.0,0.0,0.0,1.0,2000000000,0,,,0
1449616885672873955,39,1449616885672091592,/odom,ga,2,2,0,0.0,0.0,0.0,0.0,0.0,0.0,0.0,0.15,0.15,0.01,0.0,1.0,0.0,1.0,2000000000,0,,,0
1449616885743704067,40,1449616885742599814,/odom,ga,1,0,0,0.0,0.0,0.0,0.0,0.0,0.0,1.0,0.25,0.15,0.0,1.0,0.0,0.0,1.0,2000000000,0,,,0
1449616885743718741,41,1449616885743226266,/odom,ga,2,2,0,0.0,0.0,0.0,0.0,0.0,0.0,0.0,0.15,0.15,0.01,0.0,1.0,0.0,1.0,2000000000,0,,,0
1449616885862175241,42,1449616885861840019,/odom,ga,1,0,0,0.0,0.0,0.0,0.0,0.0,0.0,1.0,0.25,0.15,0.0,1.0,0.0,0.0,1.0,2000000000,0,,,0
1449616885869856854,43,1449616885862235723,/odom,ga,2,2,0,0.0,0.0,0.0,0.0,0.0,0.0,0.0,0.15,0.15,0.01,0.0,1.0,0.0,1.0,2000000000,0,,,0
1449616885935659749,44,1449616885931129551,/odom,ga,1,0,0,0.0,0.0,0.0,0.0,0.0,0.0,1.0,0.25,0.15,0.0,1.0,0.0,0.0,1.0,2000000000,0,,,0
1449616885935673204,45,1449616885931589988,/odom,ga,2,2,0,0.0,0.0,0.0,0.0,0.0,0.0,0.0,0.15,0.15,0.01,0.0,1.0,0.0,1.0,2000000000,0,,,0
1449616886046090008,46,1449616886044407734,/odom,ga,1,0,0,0.0,0.0,0.0,0.0,0.0,0.0,1.0,0.25,0.15,0.0,1.0,0.0,0.0,1.0,2000000000,0,,,0
1449616886046101914,47,1449616886045008009,/odom,ga,2,2,0,0.0,0.0,0.0,0.0,0.0,0.0,0.0,0.15,0.15,0.01,0.0,1.0,0.0,1.0,2000000000,0,,,0
1449616886128213190,48,1449616886127525383,/odom,ga,1,0,0,0.0,0.0,0.0,0.0,0.0,0.0,1.0,0.25,0.15,0.0,1.0,0.0,0.0,1.0,2000000000,0,,,0
1449616886128217364,49,1449616886127715607,/odom,ga,2,2,0,0.0,0.0,0.0,0.0,0.0,0.0,0.0,0.15,0.15,0.01,0.0,1.0,0.0,1.0,2000000000,0,,,0
1449616886235169474,50,1449616886233906666,/odom,ga,1,0,0,0.0,0.0,0.0,0.0,0.0,0.0,1.0,0.25,0.15,0.0,1.0,0.0,0.0,1.0,2000000000,0,,,0
1449616886235198025,51,1449616886234359657,/odom,ga,2,2,0,2.49793767929,-0.68689262867,0.637788891792,0.0,0.0,0.0,0.0,0.15,0.15,0.01,0.0,1.0,0.0,1.0,2000000000,0,,,0
1449616886357788802,52,1449616886357625450,/odom,ga,1,0,0,0.0,0.0,0.0,0.0,0.0,0.0,1.0,0.25,0.15,0.0,1.0,0.0,0.0,1.0,2000000000,0,,,0
1449616886358199756,53,1449616886358027373,/odom,ga,2,2,0,0.0,0.0,0.0,0.0,0.0,0.0,0.0,0.15,0.15,0.01,0.0,1.0,0.0,1.0,2000000000,0,,,0
1449616886432967429,54,1449616886431934728,/odom,ga,1,0,0,0.0,0.0,0.0,0.0,0.0,0.0,1.0,0.25,0.15,0.0,1.0,0.0,0.0,1.0,2000000000,0,,,0
1449616886432970843,55,1449616886432384529,/odom,ga,2,2,0,2.51145887375,-0.678833842278,0.637686610222,0.0,0.0,0.0,0.0,0.15,0.15,0.01,0.0,1.0,0.0,1.0,2000000000,0,,,0
1449616886528867879,56,1449616886528298517,/odom,ga,1,0,0,0.0,0.0,0.0,0.0,0.0,0.0,1.0,0.25,0.15,0.0,1.0,0.0,0.0,1.0,2000000000,0,,,0
1449616886528871908,57,1449616886528495088,/odom,ga,2,2,0,2.55997347832,-0.679146647453,0.668671905994,0.0,0.0,0.0,0.0,0.15,0.15,0.01,0.0,1.0,0.0,1.0,2000000000,0,,,0
1449616886646460816,58,1449616886643725026,/odom,ga,1,0,0,0.0,0.0,0.0,0.0,0.0,0.0,1.0,0.25,0.15,0.0,1.0,0.0,0.0,1.0,2000000000,0,,,0
1449616886646468977,59,1449616886643944111,/odom,ga,2,2,0,2.51430726051,-0.67832660675,0.658351480961,0.0,0.0,0.0,0.0,0.15,0.15,0.01,0.0,1.0,0.0,1.0,2000000000,0,,,0
1449616886726344119,60,1449616886725914081,/odom,ga,1,0,0,0.0,0.0,0.0,0.0,0.0,0.0,1.0,0.25,0.15,0.0,1.0,0.0,0.0,1.0,2000000000,0,,,0
1449616886726347926,61,1449616886726089598,/odom,ga,2,2,0,2.48335337639,-0.688444375992,0.658785462379,0.0,0.0,0.0,0.0,0.15,0.15,0.01,0.0,1.0,0.0,1.0,2000000000,0,,,0
1449616886829281190,62,1449616886828534961,/odom,ga,1,0,0,0.0,0.0,0.0,0.0,0.0,0.0,1.0,0.25,0.15,0.0,1.0,0.0,0.0,1.0,2000000000,0,,,0
1449616886829284512,63,1449616886828818321,/odom,ga,2,2,0,2.48335337639,-0.688444375992,0.658785462379,0.0,0.0,0.0,0.0,0.15,0.15,0.01,0.0,1.0,0.0,1.0,2000000000,0,,,0
1449616886989440023,64,1449616886989156959,/odom,ga,1,0,0,0.0,0.0,0.0,0.0,0.0,0.0,1.0,0.25,0.15,0.0,1.0,0.0,0.0,1.0,2000000000,0,,,0
1449616886989883422,65,1449616886989421780,/odom,ga,2,2,0,2.48335337639,-0.688444375992,0.658785462379,0.0,0.0,0.0,0.0,0.15,0.15,0.01,0.0,1.0,0.0,1.0,2000000000,0,,,0
1449616887027626516,66,1449616887027108728,/odom,ga,1,0,0,0.0,0.0,0.0,0.0,0.0,0.0,1.0,0.25,0.15,0.0,1.0,0.0,0.0,1.0,2000000000,0,,,0
1449616887027634271,67,1449616887027252975,/odom,ga,2,2,0,2.51194190979,-0.691219687462,0.648433566093,0.0,0.0,0.0,0.0,0.15,0.15,0.01,0.0,1.0,0.0,1.0,2000000000,0,,,0
1449616887125602601,68,1449616887125362795,/odom,ga,1,0,0,0.0,0.0,0.0,0.0,0.0,0.0,1.0,0.25,0.15,0.0,1.0,0.0,0.0,1.0,2000000000,0,,,0
1449616887125882799,69,1449616887125629690,/odom,ga,2,2,0,2.51194190979,-0.691219687462,0.648433566093,0.0,0.0,0.0,0.0,0.15,0.15,0.01,0.0,1.0,0.0,1.0,2000000000,0,,,0
1449616887230469928,70,1449616887229859798,/odom,ga,1,0,0,0.0,0.0,0.0,0.0,0.0,0.0,1.0,0.25,0.15,0.0,1.0,0.0,0.0,1.0,2000000000,0,,,0
1449616887230475809,71,1449616887230105002,/odom,ga,2,2,0,2.62485909462,-0.675310313702,0.658465921879,0.0,0.0,0.0,0.0,0.15,0.15,0.01,0.0,1.0,0.0,1.0,2000000000,0,,,0
1449616887338762410,72,1449616887338164002,/odom,ga,1,0,0,0.0,0.0,0.0,0.0,0.0,0.0,1.0,0.25,0.15,0.0,1.0,0.0,0.0,1.0,2000000000,0,,,0
1449616887338765473,73,1449616887338576589,/odom,ga,2,2,0,2.55148720741,-0.675204515457,0.677756786346,0.0,0.0,0.0,0.0,0.15,0.15,0.01,0.0,1.0,0.0,1.0,2000000000,0,,,0
1449616887454517624,74,1449616887453792877,/odom,ga,1,0,0,0.00287963245437,-3.04332289367e-05,0.0,0.0,0.0,-0.0052839997518,0.999986039576,0.25,0.15,0.0,1.0,0.0,0.0,1.0,2000000000,0,,,0
1449616887454557009,75,1449616887454288398,/odom,ga,2,2,0,2.55148720741,-0.675204515457,0.677756786346,0.0,0.0,0.0,0.0,0.15,0.15,0.01,0.0,1.0,0.0,1.0,2000000000,0,,,0
1449616887527775178,76,1449616887527489174,/odom,ga,1,0,0,0.0115180474012,-0.000152162745821,0.0,0.0,0.0,-0.0105678519699,0.999944158693,0.25,0.15,0.0,1.0,0.0,0.0,1.0,2000000000,0,,,0
1449616887528188187,77,1449616887528037415,/odom,ga,2,2,0,2.47616171837,-0.687121868134,0.64798104763,0.0,0.0,0.0,0.0,0.15,0.15,0.01,0.0,1.0,0.0,1.0,2000000000,0,,,0
1449616887645341130,78,1449616887637645324,/odom,ga,1,0,0,0.0172768298936,-0.000243459033768,0.0,0.0,0.0,-0.0105678519699,0.999944158693,0.25,0.15,0.0,1.0,0.0,0.0,1.0,2000000000,0,,,0
1449616887645398189,79,1449616887638310039,/odom,ga,2,2,0,2.47616171837,-0.687121868134,0.64798104763,0.0,0.0,0.0,0.0,0.15,0.15,0.01,0.0,1.0,0.0,1.0,2000000000,0,,,0
1449616887736957345,80,1449616887736088941,/odom,ga,1,0,0,0.0287934300459,-0.000486911269811,0.0,0.0,0.0,-0.0105678519699,0.999944158693,0.25,0.15,0.0,1.0,0.0,0.0,1.0,2000000000,0,,,0
1449616887736960434,81,1449616887736536193,/odom,ga,2,2,0,2.58938884735,-0.650850892067,0.647954702377,0.0,0.0,0.0,0.0,0.15,0.15,0.01,0.0,1.0,0.0,1.0,2000000000,0,,,0
1449616887834355207,82,1449616887834144970,/odom,ga,1,0,0,0.0374300761929,-0.000699923479572,0.0,0.0,0.0,-0.0189951323994,0.999819576196,0.25,0.15,0.0,1.0,0.0,0.0,1.0,2000000000,0,,,0
1449616887834644742,83,1449616887834486898,/odom,ga,2,2,0,2.58938884735,-0.650850892067,0.647954702377,0.0,0.0,0.0,0.0,0.15,0.15,0.01,0.0,1.0,0.0,1.0,2000000000,0,,,0
1449616887934092413,84,1449616887933814605,/odom,ga,1,0,0,0.0581275041766,-0.00134166456664,0.0,0.0,0.0,-0.0200660582424,0.999798656384,0.25,0.15,0.0,1.0,0.0,0.0,1.0,2000000000,0,,,0
1449616887934405090,85,1449616887934215100,/odom,ga,2,2,0,2.50465106964,-0.680596470833,0.658081948757,0.0,0.0,0.0,0.0,0.15,0.15,0.01,0.0,1.0,0.0,1.0,2000000000,0,,,0
1449616888026122163,86,1449616888025467055,/odom,ga,1,0,0,0.0730010414124,-0.00203404708331,0.0,0.0,0.0,-0.0476903292588,0.998862168918,0.25,0.15,0.0,1.0,0.0,0.0,1.0,2000000000,0,,,0
1449616888026356522,87,1449616888026125555,/odom,ga,2,2,0,0.0730010414124,-0.00203404708331,0.0,0.0,0.0,0.0,0.0,0.15,0.15,0.01,0.0,1.0,0.0,1.0,2000000000,0,,,0
1449616888151709632,88,1449616888151411262,/odom,ga,1,0,0,0.0904339602905,-0.00692528595314,0.0,0.0,0.0,-0.265778511616,0.964034119087,0.25,0.15,0.0,1.0,0.0,0.0,1.0,2000000000,0,,,0
1449616888152235011,89,1449616888151587044,/odom,ga,2,2,0,2.47351145744,-0.696167111397,0.637995123863,0.0,0.0,0.0,0.0,0.15,0.15,0.01,0.0,1.0,0.0,1.0,2000000000,0,,,0
1449616888251645216,90,1449616888250042260,/odom,ga,1,0,0,0.108935043311,-0.00855360140354,0.0,0.0,0.0,-0.322053252753,0.946721554836,0.25,0.15,0.0,1.0,0.0,0.0,1.0,2000000000,0,,,0
1449616888251681959,91,1449616888250446676,/odom,ga,2,2,0,2.50192403793,-0.698917984962,0.638658285141,0.0,0.0,0.0,0.0,0.15,0.15,0.01,0.0,1.0,0.0,1.0,2000000000,0,,,0
1449616888334994108,92,1449616888333048346,/odom,ga,1,0,0,0.125013838006,-0.0101481633044,0.0,0.0,0.0,-0.366614853092,0.93037280135,0.25,0.15,0.0,1.0,0.0,0.0,1.0,2000000000,0,,,0
1449616888335012216,93,1449616888333798539,/odom,ga,2,2,0,2.50192403793,-0.698917984962,0.638658285141,0.0,0.0,0.0,0.0,0.15,0.15,0.01,0.0,1.0,0.0,1.0,2000000000,0,,,0
1449616888450885367,94,1449616888445002717,/odom,ga,1,0,0,0.132605185259,-0.0107382079135,0.0,0.0,0.0,-0.397811982869,0.917466961959,0.25,0.15,0.0,1.0,0.0,0.0,1.0,2000000000,0,,,0
1449616888450893994,95,1449616888445302681,/odom,ga,2,2,0,2.59396624565,-0.688829898834,0.688707172871,0.0,0.0,0.0,0.0,0.15,0.15,0.01,0.0,1.0,0.0,1.0,2000000000,0,,,0
1449616888526436073,96,1449616888526216786,/odom,ga,1,0,0,0.143192272805,-0.011885548393,0.0,0.0,0.0,-0.432736855632,0.901520279183,0.25,0.15,0.0,1.0,0.0,0.0,1.0,2000000000,0,,,0
1449616888526660902,97,1449616888526369359,/odom,ga,2,2,0,2.59396624565,-0.688829898834,0.688707172871,0.0,0.0,0.0,0.0,0.15,0.15,0.01,0.0,1.0,0.0,1.0,2000000000,0,,,0
1449616888636556838,98,1449616888633034039,/odom,ga,1,0,0,0.148153360375,-0.0136516323299,0.0,0.0,0.0,-0.441723955785,0.897151016767,0.25,0.15,0.0,1.0,0.0,0.0,1.0,2000000000,0,,,0
1449616888637693120,99,1449616888633525746,/odom,ga,2,2,0,2.50803375244,-0.708249211311,0.637980639935,0.0,0.0,0.0,0.0,0.15,0.15,0.01,0.0,1.0,0.0,1.0,2000000000,0,,,0
1449616888728643934,100,1449616888728060304,/odom,ga,1,0,0,0.149468293154,-0.01333002624,0.0,0.0,0.0,-0.453816194095,0.891095315876,0.25,0.15,0.0,1.0,0.0,0.0,1.0,2000000000,0,,,0
1449616888728647587,101,1449616888728451856,/odom,ga,2,2,0,2.50803375244,-0.708249211311,0.637980639935,0.0,0.0,0.0,0.0,0.15,0.15,0.01,0.0,1.0,0.0,1.0,2000000000,0,,,0
1449616888871382914,102,1449616888869997030,/odom,ga,1,0,0,0.151789836901,-0.0135307001304,0.0,0.0,0.0,-0.460858317331,0.887473724314,0.25,0.15,0.0,1.0,0.0,0.0,1.0,2000000000,0,,,0
1449616888871387949,103,1449616888870262031,/odom,ga,2,2,0,2.62310767174,-0.665417790413,0.718577742577,0.0,0.0,0.0,0.0,0.15,0.15,0.01,0.0,1.0,0.0,1.0,2000000000,0,,,0
1449616888934345297,104,1449616888928425114,/odom,ga,1,0,0,0.151176084738,-0.0135413606772,0.0,0.0,0.0,-0.4753749116,0.879783321859,0.25,0.15,0.0,1.0,0.0,0.0,1.0,2000000000,0,,,0
1449616888934376421,105,1449616888929173000,/odom,ga,2,2,0,2.56219673157,-0.720378935337,0.649333536625,0.0,0.0,0.0,0.0,0.15,0.15,0.01,0.0,1.0,0.0,1.0,2000000000,0,,,0
1449616889040509761,106,1449616889040068421,/odom,ga,1,0,0,0.150924724392,-0.0136736979818,0.0,0.0,0.0,-0.485821345025,0.874058133489,0.25,0.15,0.0,1.0,0.0,0.0,1.0,2000000000,0,,,0
1449616889041887052,107,1449616889041378532,/odom,ga,2,2,0,2.56219673157,-0.720378935337,0.649333536625,0.0,0.0,0.0,0.0,0.15,0.15,0.01,0.0,1.0,0.0,1.0,2000000000,0,,,0
1449616889138519875,108,1449616889130872916,/odom,ga,1,0,0,0.15065925212,-0.013753863786,0.0,0.0,0.0,-0.494389720517,0.869240360457,0.25,0.15,0.0,1.0,0.0,0.0,1.0,2000000000,0,,,0
1449616889138546982,109,1449616889131395029,/odom,ga,2,2,0,2.56250572205,-0.694010615349,0.708400309086,0.0,0.0,0.0,0.0,0.15,0.15,0.01,0.0,1.0,0.0,1.0,2000000000,0,,,0
1449616889230668304,110,1449616889229604177,/odom,ga,1,0,0,0.159205582514,-0.0169028191149,0.0,0.0,0.0,-0.422252059478,0.906478459902,0.25,0.15,0.0,1.0,0.0,0.0,1.0,2000000000,0,,,0
1449616889230672699,111,1449616889230155771,/odom,ga,2,2,0,2.5324587822,-0.706216216087,0.658965289593,0.0,0.0,0.0,0.0,0.15,0.15,0.01,0.0,1.0,0.0,1.0,2000000000,0,,,0
1449616889326942414,112,1449616889326692271,/odom,ga,1,0,0,0.182991426281,-0.0270976179373,0.0,0.0,0.0,-0.331343650068,0.943510140676,0.25,0.15,0.0,1.0,0.0,0.0,1.0,2000000000,0,,,0
1449616889327902130,113,1449616889327202611,/odom,ga,2,2,0,2.57401037216,-0.698076367378,0.668736994267,0.0,0.0,0.0,0.0,0.15,0.15,0.01,0.0,1.0,0.0,1.0,2000000000,0,,,0
1449616889446128688,114,1449616889445680349,/odom,ga,1,0,0,0.334284908405,-0.0975976740041,0.0,0.0,0.0,-0.296918125515,0.954902941005,0.25,0.15,0.0,1.0,0.0,0.0,1.0,2000000000,0,,,0
1449616889446748856,115,1449616889446433257,/odom,ga,2,2,0,2.57211637497,-0.676974654198,0.689070940018,0.0,0.0,0.0,0.0,0.15,0.15,0.01,0.0,1.0,0.0,1.0,2000000000,0,,,0
1449616889537937147,116,1449616889534463933,/odom,ga,1,0,0,0.560796746947,-0.182761559346,0.0,0.0,0.0,-0.245124448614,0.969491621775,0.25,0.15,0.0,1.0,0.0,0.0,1.0,2000000000,0,,,0
1449616889537943705,117,1449616889534977469,/odom,ga,2,2,0,2.58442425728,-0.686720252037,0.688027381897,0.0,0.0,0.0,0.0,0.15,0.15,0.01,0.0,1.0,0.0,1.0,2000000000,0,,,0
1449616889667826454,118,1449616889666886760,/odom,ga,1,0,0,0.687716494225,-0.223098616051,0.0,0.0,0.0,-0.217796365594,0.975994233146,0.25,0.15,0.0,1.0,0.0,0.0,1.0,2000000000,0,,,0
1449616889668165303,119,1449616889667760801,/odom,ga,2,2,0,2.58442425728,-0.686720252037,0.688027381897,0.0,0.0,0.0,0.0,0.15,0.15,0.01,0.0,1.0,0.0,1.0,2000000000,0,,,0
1449616889731475724,120,1449616889730745680,/odom,ga,1,0,0,0.754305664334,-0.24213441671,0.0,0.0,0.0,-0.20414902755,0.978939821721,0.25,0.15,0.0,1.0,0.0,0.0,1.0,2000000000,0,,,0
1449616889731482079,121,1449616889731145544,/odom,ga,2,2,0,2.60723757744,-0.695379972458,0.657509863377,0.0,0.0,0.0,0.0,0.15,0.15,0.01,0.0,1.0,0.0,1.0,2000000000,0,,,0
1449616889860401758,122,1449616889859182070,/odom,ga,1,0,0,0.781688126244,-0.246458662108,0.0,0.0,0.0,-0.196404022583,0.980523054249,0.25,0.15,0.0,1.0,0.0,0.0,1.0,2000000000,0,,,0
1449616889860423717,123,1449616889859635250,/odom,ga,2,2,0,2.60723757744,-0.695379972458,0.657509863377,0.0,0.0,0.0,0.0,0.15,0.15,0.01,0.0,1.0,0.0,1.0,2000000000,0,,,0
1449616889933832035,124,1449616889933646754,/odom,ga,1,0,0,0.82247727948,-0.258567481527,0.0,0.0,0.0,-0.188392888308,0.982093742794,0.25,0.15,0.0,1.0,0.0,0.0,1.0,2000000000,0,,,0
1449616889934715819,125,1449616889934307070,/odom,ga,2,2,0,2.57478642464,-0.73840534687,0.667676746845,0.0,0.0,0.0,0.0,0.15,0.15,0.01,0.0,1.0,0.0,1.0,2000000000,0,,,0
1449616890042526325,126,1449616890042014133,/odom,ga,1,0,0,0.832797935146,-0.261166860922,0.0,0.0,0.0,-0.186957463682,0.982368009848,0.25,0.15,0.0,1.0,0.0,0.0,1.0,2000000000,0,,,0
1449616890042971178,127,1449616890042638262,/odom,ga,2,2,0,2.57478642464,-0.73840534687,0.667676746845,0.0,0.0,0.0,0.0,0.15,0.15,0.01,0.0,1.0,0.0,1.0,2000000000,0,,,0
1449616890130016057,128,1449616890129741720,/odom,ga,1,0,0,0.84184980009,-0.261372399864,0.0,0.0,0.0,-0.183344194488,0.983048781265,0.25,0.15,0.0,1.0,0.0,0.0,1.0,2000000000,0,,,0
1449616890137738399,129,1449616890130334155,/odom,ga,2,2,0,2.58554315567,-0.71975505352,0.668381333351,0.0,0.0,0.0,0.0,0.15,0.15,0.01,0.0,1.0,0.0,1.0,2000000000,0,,,0
1449616890247983510,130,1449616890246602558,/odom,ga,1,0,0,0.852865074513,-0.263288440454,0.0,0.0,0.0,-0.181128547188,0.98345942946,0.25,0.15,0.0,1.0,0.0,0.0,1.0,2000000000,0,,,0
1449616890247992289,131,1449616890247343896,/odom,ga,2,2,0,2.58554315567,-0.71975505352,0.668381333351,0.0,0.0,0.0,0.0,0.15,0.15,0.01,0.0,1.0,0.0,1.0,2000000000,0,,,0
1449616890350833008,132,1449616890350296596,/odom,ga,1,0,0,0.866102142057,-0.266642660862,0.0,0.0,0.0,-0.179632316294,0.983733821185,0.25,0.15,0.0,1.0,0.0,0.0,1.0,2000000000,0,,,0
1449616890350836831,133,1449616890350589837,/odom,ga,2,2,0,2.59239459038,-0.714267253876,0.697377562523,0.0,0.0,0.0,0.0,0.15,0.15,0.01,0.0,1.0,0.0,1.0,2000000000,0,,,0
1449616890453745242,134,1449616890449283941,/odom,ga,1,0,0,0.877091776842,-0.269547388235,0.0,0.0,0.0,-0.178568597987,0.983927464711,0.25,0.15,0.0,1.0,0.0,0.0,1.0,2000000000,0,,,0
1449616890453748431,135,1449616890449762602,/odom,ga,2,2,0,2.59239459038,-0.714267253876,0.697377562523,0.0,0.0,0.0,0.0,0.15,0.15,0.01,0.0,1.0,0.0,1.0,2000000000,0,,,0
1449616890559921593,136,1449616890534496102,/odom,ga,1,0,0,0.880335896672,-0.281262230489,0.0,0.0,0.0,-0.18621626522,0.982508779893,0.25,0.15,0.0,1.0,0.0,0.0,1.0,2000000000,0,,,0
1449616890559924694,137,1449616890534988421,/odom,ga,2,2,0,2.6313586235,-0.752443432808,0.719030678272,0.0,0.0,0.0,0.0,0.15,0.15,0.01,0.0,1.0,0.0,1.0,2000000000,0,,,0
1449616890692184234,138,1449616890690332805,/odom,ga,1,0,0,0.885498263405,-0.289987997431,0.0,0.0,0.0,-0.18961894075,0.981857758185,0.25,0.15,0.0,1.0,0.0,0.0,1.0,2000000000,0,,,0
1449616890692195116,139,1449616890691209920,/odom,ga,2,2,0,2.6313586235,-0.752443432808,0.719030678272,0.0,0.0,0.0,0.0,0.15,0.15,0.01,0.0,1.0,0.0,1.0,2000000000,0,,,0
1449616890756265409,140,1449616890743375025,/odom,ga,1,0,0,0.888517125953,-0.307314884532,0.0,0.0,0.0,-0.199455423913,0.979906900614,0.25,0.15,0.0,1.0,0.0,0.0,1.0,2000000000,0,,,0
1449616890756305715,141,1449616890744256284,/odom,ga,2,2,0,2.6313586235,-0.752443432808,0.719030678272,0.0,0.0,0.0,0.0,0.15,0.15,0.01,0.0,1.0,0.0,1.0,2000000000,0,,,0
1449616890874921054,142,1449616890874382315,/odom,ga,1,0,0,0.904326366811,-0.31581335153,0.0,0.0,0.0,-0.201853043723,0.97941582014,0.25,0.15,0.0,1.0,0.0,0.0,1.0,2000000000,0,,,0
1449616890875056869,143,1449616890874816236,/odom,ga,2,2,0,2.6313586235,-0.752443432808,0.719030678272,0.0,0.0,0.0,0.0,0.15,0.15,0.01,0.0,1.0,0.0,1.0,2000000000,0,,,0
1449616890952632060,144,1449616890943713317,/odom,ga,1,0,0,0.901667067096,-0.330078156561,0.0,0.0,0.0,-0.211074635379,0.977469947517,0.25,0.15,0.0,1.0,0.0,0.0,1.0,2000000000,0,,,0
1449616890952661635,145,1449616890944310481,/odom,ga,2,2,0,2.59997844696,-0.743451595306,0.678522527218,0.0,0.0,0.0,0.0,0.15,0.15,0.01,0.0,1.0,0.0,1.0,2000000000,0,,,0
1449616891048069918,146,1449616891046957332,/odom,ga,1,0,0,0.924792399306,-0.347188626004,0.0,0.0,0.0,-0.21467353972,0.976685861136,0.25,0.15,0.0,1.0,0.0,0.0,1.0,2000000000,0,,,0
1449616891048075526,147,1449616891047634657,/odom,ga,2,2,0,2.59997844696,-0.743451595306,0.678522527218,0.0,0.0,0.0,0.0,0.15,0.15,0.01,0.0,1.0,0.0,1.0,2000000000,0,,,0
1449616891153936817,148,1449616891146428714,/odom,ga,1,0,0,0.958182587883,-0.369490314682,0.0,0.0,0.0,-0.21873035217,0.975785341681,0.25,0.15,0.0,1.0,0.0,0.0,1.0,2000000000,0,,,0
1449616891153940202,149,1449616891146710427,/odom,ga,2,2,0,2.59997844696,-0.743451595306,0.678522527218,0.0,0.0,0.0,0.0,0.15,0.15,0.01,0.0,1.0,0.0,1.0,2000000000,0,,,0
1449616891245871638,150,1449616891244972218,/odom,ga,1,0,0,0.971891955232,-0.384438740521,0.0,0.0,0.0,-0.223784038543,0.97463875569,0.25,0.15,0.0,1.0,0.0,0.0,1.0,2000000000,0,,,0
1449616891246102996,151,1449616891245414602,/odom,ga,2,2,0,2.57190394402,-0.752816081047,0.697958290577,0.0,0.0,0.0,0.0,0.15,0.15,0.01,0.0,1.0,0.0,1.0,2000000000,0,,,0
1449616891329085194,152,1449616891327039644,/odom,ga,1,0,0,0.988221692346,-0.409370030533,0.0,0.0,0.0,-0.233846810716,0.972273453879,0.25,0.15,0.0,1.0,0.0,0.0,1.0,2000000000,0,,,0
1449616891329105449,153,1449616891327390356,/odom,ga,2,2,0,2.57190394402,-0.752816081047,0.697958290577,0.0,0.0,0.0,0.0,0.15,0.15,0.01,0.0,1.0,0.0,1.0,2000000000,0,,,0
1449616891439562341,154,1449616891437955291,/odom,ga,1,0,0,0.88031422187,-0.366443796868,0.0,0.0,0.0,-0.238821639146,0.971063450386,0.25,0.15,0.0,1.0,0.0,0.0,1.0,2000000000,0,,,0
1449616891439583228,155,1449616891438333162,/odom,ga,2,2,0,2.57190394402,-0.752816081047,0.697958290577,0.0,0.0,0.0,0.0,0.15,0.15,0.01,0.0,1.0,0.0,1.0,2000000000,0,,,0
1449616891532627000,156,1449616891530951320,/odom,ga,1,0,0,0.774431967567,-0.315200742423,0.0,0.0,0.0,-0.240178675645,0.970728697302,0.25,0.15,0.0,1.0,0.0,0.0,1.0,2000000000,0,,,0
1449616891532632221,157,1449616891531334770,/odom,ga,2,2,0,2.57190394402,-0.752816081047,0.697958290577,0.0,0.0,0.0,0.0,0.15,0.15,0.01,0.0,1.0,0.0,1.0,2000000000,0,,,0
1449616891638405098,158,1449616891637924682,/odom,ga,1,0,0,0.618595195165,-0.235563016815,0.0,0.0,0.0,-0.240375782171,0.970679907769,0.25,0.15,0.0,1.0,0.0,0.0,1.0,2000000000,0,,,0
1449616891639487071,159,1449616891638131103,/odom,ga,2,2,0,2.63976716995,-0.714822590351,0.70769649744,0.0,0.0,0.0,0.0,0.15,0.15,0.01,0.0,1.0,0.0,1.0,2000000000,0,,,0
1449616891751312418,160,1449616891750532371,/odom,ga,1,0,0,0.539039472774,-0.197808187078,0.0,0.0,0.0,-0.250751716428,0.968051432884,0.25,0.15,0.0,1.0,0.0,0.0,1.0,2000000000,0,,,0
1449616891751315627,161,1449616891750969140,/odom,ga,2,2,0,2.63976716995,-0.714822590351,0.70769649744,0.0,0.0,0.0,0.0,0.15,0.15,0.01,0.0,1.0,0.0,1.0,2000000000,0,,,0
1449616891841324426,162,1449616891840733653,/odom,ga,1,0,0,0.514477466646,-0.186817553276,0.0,0.0,0.0,-0.261030304356,0.965330606687,0.25,0.15,0.0,1.0,0.0,0.0,1.0,2000000000,0,,,0
1449616891841327735,163,1449616891841002877,/odom,ga,2,2,0,2.5946931839,-0.732067346573,0.708012521267,0.0,0.0,0.0,0.0,0.15,0.15,0.01,0.0,1.0,0.0,1.0,2000000000,0,,,0
1449616891959859816,164,1449616891958975802,/odom,ga,1,0,0,0.491966469347,-0.173791440614,0.0,0.0,0.0,-0.261078872695,0.965317472251,0.25,0.15,0.0,1.0,0.0,0.0,1.0,2000000000,0,,,0
1449616891959863225,165,1449616891959246366,/odom,ga,2,2,0,2.5946931839,-0.732067346573,0.708012521267,0.0,0.0,0.0,0.0,0.15,0.15,0.01,0.0,1.0,0.0,1.0,2000000000,0,,,0
1449616892061865518,166,1449616892058385279,/odom,ga,1,0,0,0.497444847671,-0.178354193296,0.0,0.0,0.0,-0.271283520099,0.962499481414,0.25,0.15,0.0,1.0,0.0,0.0,1.0,2000000000,0,,,0
1449616892061869974,167,1449616892058615627,/odom,ga,2,2,0,2.63535857201,-0.710150241852,0.738297879696,0.0,0.0,0.0,0.0,0.15,0.15,0.01,0.0,1.0,0.0,1.0,2000000000,0,,,0
1449616892144147727,168,1449616892142731893,/odom,ga,1,0,0,0.502755913576,-0.18160809717,0.0,0.0,0.0,-0.271295882387,0.962495996979,0.25,0.15,0.0,1.0,0.0,0.0,1.0,2000000000,0,,,0
1449616892144251099,169,1449616892143218994,/odom,ga,2,2,0,2.63535857201,-0.710150241852,0.738297879696,0.0,0.0,0.0,0.0,0.15,0.15,0.01,0.0,1.0,0.0,1.0,2000000000,0,,,0
1449616892232626582,170,1449616892231160840,/odom,ga,1,0,0,0.50487727378,-0.183262259895,0.0,0.0,0.0,-0.276391020389,0.961045266285,0.25,0.15,0.0,1.0,0.0,0.0,1.0,2000000000,0,,,0
1449616892232632062,171,1449616892231473673,/odom,ga,2,2,0,2.58807754517,-0.753934502602,0.74927854538,0.0,0.0,0.0,0.0,0.15,0.15,0.01,0.0,1.0,0.0,1.0,2000000000,0,,,0
1449616892346715317,172,1449616892346448236,/odom,ga,1,0,0,0.518752345982,-0.192554213358,0.0,0.0,0.0,-0.286538833246,0.958068628566,0.25,0.15,0.0,1.0,0.0,0.0,1.0,2000000000,0,,,0
1449616892347213862,173,1449616892346721079,/odom,ga,2,2,0,2.56849503517,-0.767023980618,0.719472706318,0.0,0.0,0.0,0.0,0.15,0.15,0.01,0.0,1.0,0.0,1.0,2000000000,0,,,0
1449616892431829300,174,1449616892430630907,/odom,ga,1,0,0,0.531253535814,-0.200766866914,0.0,0.0,0.0,-0.286541418162,0.958067855466,0.25,0.15,0.0,1.0,0.0,0.0,1.0,2000000000,0,,,0
1449616892431839337,175,1449616892430850170,/odom,ga,2,2,0,2.56849503517,-0.767023980618,0.719472706318,0.0,0.0,0.0,0.0,0.15,0.15,0.01,0.0,1.0,0.0,1.0,2000000000,0,,,0
1449616892530247971,176,1449616892529813994,/odom,ga,1,0,0,0.54111004966,-0.207389198937,0.0,0.0,0.0,-0.291602654851,0.956539540053,0.25,0.15,0.0,1.0,0.0,0.0,1.0,2000000000,0,,,0
1449616892532253979,177,1449616892530311749,/odom,ga,2,2,0,2.56849503517,-0.767023980618,0.719472706318,0.0,0.0,0.0,0.0,0.15,0.15,0.01,0.0,1.0,0.0,1.0,2000000000,0,,,0
1449616892642636897,178,1449616892637932919,/odom,ga,1,0,0,0.561807868811,-0.221438545044,0.0,0.0,0.0,-0.296653940014,0.954985046938,0.25,0.15,0.0,1.0,0.0,0.0,1.0,2000000000,0,,,0
1449616892642669991,179,1449616892638359105,/odom,ga,2,2,0,2.58525776863,-0.765085101128,0.759584903717,0.0,0.0,0.0,0.0,0.15,0.15,0.01,0.0,1.0,0.0,1.0,2000000000,0,,,0
1449616892760740606,180,1449616892759693547,/odom,ga,1,0,0,0.58477026827,-0.237228291255,0.0,0.0,0.0,-0.296654972996,0.954984726054,0.25,0.15,0.0,1.0,0.0,0.0,1.0,2000000000,0,,,0
1449616892760771930,181,1449616892760130444,/odom,ga,2,2,0,2.58525776863,-0.765085101128,0.759584903717,0.0,0.0,0.0,0.0,0.15,0.15,0.01,0.0,1.0,0.0,1.0,2000000000,0,,,0
1449616892831731367,182,1449616892829929928,/odom,ga,1,0,0,0.610385043924,-0.255258538708,0.0,0.0,0.0,-0.301697362445,0.953403745269,0.25,0.15,0.0,1.0,0.0,0.0,1.0,2000000000,0,,,0
1449616892832458243,183,1449616892830677825,/odom,ga,2,2,0,2.58122587204,-0.764232397079,0.729643344879,0.0,0.0,0.0,0.0,0.15,0.15,0.01,0.0,1.0,0.0,1.0,2000000000,0,,,0
1449616892931527509,184,1449616892930082833,/odom,ga,1,0,0,0.617101090206,-0.260099432977,0.0,0.0,0.0,-0.306731334674,0.951796138009,0.25,0.15,0.0,1.0,0.0,0.0,1.0,2000000000,0,,,0
1449616892931531859,185,1449616892931012832,/odom,ga,2,2,0,2.58122587204,-0.764232397079,0.729643344879,0.0,0.0,0.0,0.0,0.15,0.15,0.01,0.0,1.0,0.0,1.0,2000000000,0,,,0
1449616893069219149,186,1449616893067995371,/odom,ga,1,0,0,0.645169804432,-0.280024846891,0.0,0.0,0.0,-0.306731484071,0.951796089864,0.25,0.15,0.0,1.0,0.0,0.0,1.0,2000000000,0,,,0
1449616893069342925,187,1449616893068826701,/odom,ga,2,2,0,2.57882976532,-0.784017562866,0.769657969475,0.0,0.0,0.0,0.0,0.15,0.15,0.01,0.0,1.0,0.0,1.0,2000000000,0,,,0
1449616893153336923,188,1449616893152513425,/odom,ga,1,0,0,0.670719527375,-0.298591220001,0.0,0.0,0.0,-0.311756596182,0.950161999207,0.25,0.15,0.0,1.0,0.0,0.0,1.0,2000000000,0,,,0
1449616893153341570,189,1449616893152968569,/odom,ga,2,2,0,2.57882976532,-0.784017562866,0.769657969475,0.0,0.0,0.0,0.0,0.15,0.15,0.01,0.0,1.0,0.0,1.0,2000000000,0,,,0
1449616893251863141,190,1449616893250208658,/odom,ga,1,0,0,0.693844254202,-0.315596840561,0.0,0.0,0.0,-0.31175669945,0.950161965324,0.25,0.15,0.0,1.0,0.0,0.0,1.0,2000000000,0,,,0
1449616893251867534,191,1449616893251313285,/odom,ga,2,2,0,2.58897566795,-0.774799406528,0.719582140446,0.0,0.0,0.0,0.0,0.15,0.15,0.01,0.0,1.0,0.0,1.0,2000000000,0,,,0
1449616893333017277,192,1449616893330966594,/odom,ga,1,0,0,0.709924726368,-0.327687763369,0.0,0.0,0.0,-0.316773046456,0.948501363752,0.25,0.15,0.0,1.0,0.0,0.0,1.0,2000000000,0,,,0
1449616893333023262,193,1449616893332055457,/odom,ga,2,2,0,0.0,0.0,0.0,0.0,0.0,0.0,0.0,0.15,0.15,0.01,0.0,1.0,0.0,1.0,2000000000,0,,,0
1449616893469698652,194,1449616893461189537,/odom,ga,1,0,0,0.723705928434,-0.338048446408,0.0,0.0,0.0,-0.316773087663,0.94850134999,0.25,0.15,0.0,1.0,0.0,0.0,1.0,2000000000,0,,,0
1449616893469703331,195,1449616893462084842,/odom,ga,2,2,0,0.0,0.0,0.0,0.0,0.0,0.0,0.0,0.15,0.15,0.01,0.0,1.0,0.0,1.0,2000000000,0,,,0
1449616893549401370,196,1449616893538153443,/odom,ga,1,0,0,0.748811606,-0.357342107104,0.0,0.0,0.0,-0.321780562573,0.946814274053,0.25,0.15,0.0,1.0,0.0,0.0,1.0,2000000000,0,,,0
1449616893549405414,197,1449616893539007086,/odom,ga,2,2,0,0.0,0.0,0.0,0.0,0.0,0.0,0.0,0.15,0.15,0.01,0.0,1.0,0.0,1.0,2000000000,0,,,0
1449616893627872876,198,1449616893627538303,/odom,ga,1,0,0,0.767067126575,-0.371370971229,0.0,0.0,0.0,-0.321780579115,0.946814268431,0.25,0.15,0.0,1.0,0.0,0.0,1.0,2000000000,0,,,0
1449616893628084203,199,1449616893627943376,/odom,ga,2,2,0,0.0,0.0,0.0,0.0,0.0,0.0,0.0,0.15,0.15,0.01,0.0,1.0,0.0,1.0,2000000000,0,,,0
1449616893738133206,200,1449616893732853687,/odom,ga,1,0,0,0.780761270244,-0.381894542991,0.0,0.0,0.0,-0.321780588046,0.946814265396,0.25,0.15,0.0,1.0,0.0,0.0,1.0,2000000000,0,,,0
1449616893738136573,201,1449616893733069351,/odom,ga,2,2,0,0.0,0.0,0.0,0.0,0.0,0.0,0.0,0.15,0.15,0.01,0.0,1.0,0.0,1.0,2000000000,0,,,0
1449616893854650567,202,1449616893851802080,/odom,ga,1,0,0,0.805745844011,-0.401363262725,0.0,0.0,0.0,-0.326779065533,0.945100757766,0.25,0.15,0.0,1.0,0.0,0.0,1.0,2000000000,0,,,0
1449616893854678072,203,1449616893852323443,/odom,ga,2,2,0,0.0,0.0,0.0,0.0,0.0,0.0,0.0,0.15,0.15,0.01,0.0,1.0,0.0,1.0,2000000000,0,,,0
1449616893959602498,204,1449616893958053378,/odom,ga,1,0,0,0.835428797828,-0.424173700691,0.0,0.0,0.0,-0.32178059372,0.946814263468,0.25,0.15,0.0,1.0,0.0,0.0,1.0,2000000000,0,,,0
1449616893960317838,205,1449616893960091721,/odom,ga,2,2,0,0.0,0.0,0.0,0.0,0.0,0.0,0.0,0.15,0.15,0.01,0.0,1.0,0.0,1.0,2000000000,0,,,0
1449616894036612743,206,1449616894036319247,/odom,ga,1,0,0,0.86067293663,-0.443304421275,0.0,0.0,0.0,-0.312468182444,0.949928226215,0.25,0.15,0.0,1.0,0.0,0.0,1.0,2000000000,0,,,0
1449616894037624903,207,1449616894036635533,/odom,ga,2,2,0,0.86067293663,-0.443304421275,0.0,0.0,0.0,0.0,0.0,0.15,0.15,0.01,0.0,1.0,0.0,1.0,2000000000,0,,,0
1449616894160728357,208,1449616894158298641,/odom,ga,1,0,0,0.879087401836,-0.457148373196,0.0,0.0,0.0,-0.305944579809,0.952049323347,0.25,0.15,0.0,1.0,0.0,0.0,1.0,2000000000,0,,,0
1449616894160754645,209,1449616894159561307,/odom,ga,2,2,0,0.879087401836,-0.457148373196,0.0,0.0,0.0,0.0,0.0,0.15,0.15,0.01,0.0,1.0,0.0,1.0,2000000000,0,,,0
1449616894285342429,210,1449616894274029033,/odom,ga,1,0,0,0.906111609696,-0.478025115121,0.0,0.0,0.0,-0.187715852556,0.982223375154,0.25,0.15,0.0,1.0,0.0,0.0,1.0,2000000000,0,,,0
1449616894285352375,211,1449616894274814953,/odom,ga,2,2,0,0.906111609696,-0.478025115121,0.0,0.0,0.0,0.0,0.0,0.15,0.15,0.01,0.0,1.0,0.0,1.0,2000000000,0,,,0
1449616894335262535,212,1449616894333607047,/odom,ga,1,0,0,0.938283354038,-0.501243050575,0.0,0.0,0.0,-0.0775674328875,0.996987107918,0.25,0.15,0.0,1.0,0.0,0.0,1.0,2000000000,0,,,0
1449616894335266225,213,1449616894333809265,/odom,ga,2,2,0,0.938283354038,-0.501243050575,0.0,0.0,0.0,0.0,0.0,0.15,0.15,0.01,0.0,1.0,0.0,1.0,2000000000,0,,,0
1449616894439897324,214,1449616894439372358,/odom,ga,1,0,0,0.945248128153,-0.507419007569,0.0,0.0,0.0,-0.0144159574208,0.999896084687,0.25,0.15,0.0,1.0,0.0,0.0,1.0,2000000000,0,,,0
1449616894440793763,215,1449616894440111052,/odom,ga,2,2,0,0.945248128153,-0.507419007569,0.0,0.0,0.0,0.0,0.0,0.15,0.15,0.01,0.0,1.0,0.0,1.0,2000000000,0,,,0
1449616894816913902,216,1449616894815835035,/odom,ga,1,0,0,0.958763399349,-0.54028321345,0.0,0.0,0.0,0.685977720256,0.727622544533,0.25,0.15,0.0,1.0,0.0,0.0,1.0,2000000000,0,,,0
1449616894816917885,217,1449616894816159852,/odom,ga,2,2,0,0.958763399349,-0.54028321345,0.0,0.0,0.0,0.0,0.0,0.15,0.15,0.01,0.0,1.0,0.0,1.0,2000000000,0,,,0
1449616895074285874,218,1449616895071948647,/odom,ga,1,0,0,1.02573432025,-0.586025025213,0.0,0.0,0.0,0.69505346281,0.718958054295,0.25,0.15,0.0,1.0,0.0,0.0,1.0,2000000000,0,,,0
1449616895075490768,219,1449616895074585774,/odom,ga,2,2,0,1.02573432025,-0.586025025213,0.0,0.0,0.0,0.0,0.0,0.15,0.15,0.01,0.0,1.0,0.0,1.0,2000000000,0,,,0
1449616895335465063,220,1449616895331025750,/odom,ga,1,0,0,1.05701896321,-0.607104709121,0.0,0.0,0.0,0.702674736607,0.711511218839,0.25,0.15,0.0,1.0,0.0,0.0,1.0,2000000000,0,,,0
1449616895335468824,221,1449616895331207589,/odom,ga,2,2,0,1.05701896321,-0.607104709121,0.0,0.0,0.0,0.0,0.0,0.15,0.15,0.01,0.0,1.0,0.0,1.0,2000000000,0,,,0
1449616895765243614,222,1449616895762071986,/odom,ga,1,0,0,1.07137356586,-0.616919569147,0.0,0.0,0.0,0.709109156689,0.705098719258,0.25,0.15,0.0,1.0,0.0,0.0,1.0,2000000000,0,,,0
1449616895765247552,223,1449616895762402490,/odom,ga,2,2,0,1.07137356586,-0.616919569147,0.0,0.0,0.0,0.0,0.0,0.15,0.15,0.01,0.0,1.0,0.0,1.0,2000000000,0,,,0
1449616895999304923,224,1449616895999014677,/odom,ga,1,0,0,1.07391213523,-0.618771304927,0.0,0.0,0.0,0.714438333547,0.69969841186,0.25,0.15,0.0,1.0,0.0,0.0,1.0,2000000000,0,,,0
1449616896670422445,225,1449616896665211318,/odom,ga,2,2,0,1.07391213523,-0.618771304927,0.0,0.0,0.0,0.0,0.0,0.15,0.15,0.01,0.0,1.0,0.0,1.0,2000000000,0,,,0
1449616896983860534,226,1449616896979258259,/odom,ga,1,0,0,1.07391206428,-0.618771494035,0.0,0.0,0.0,0.714441819275,0.699694852683,0.25,0.15,0.0,1.0,0.0,0.0,1.0,2000000000,0,,,0
1449616896983865283,227,1449616896979856614,/odom,ga,2,2,0,1.07391206428,-0.618771494035,0.0,0.0,0.0,0.0,0.0,0.15,0.15,0.01,0.0,1.0,0.0,1.0,2000000000,0,,,0
1449616897288363200,228,1449616897285071693,/odom,ga,1,0,0,1.07414951011,-0.619327375777,0.0,0.0,0.0,0.723766018219,0.690045470147,0.25,0.15,0.0,1.0,0.0,0.0,1.0,2000000000,0,,,0
1449616897288373648,229,1449616897285312484,/odom,ga,2,2,0,1.07414951011,-0.619327375777,0.0,0.0,0.0,0.0,0.0,0.15,0.15,0.01,0.0,1.0,0.0,1.0,2000000000,0,,,0
1449616897607969623,230,1449616897606342436,/odom,ga,1,0,0,1.0743967037,-0.61990983289,0.0,0.0,0.0,0.733590916865,0.679591323291,0.25,0.15,0.0,1.0,0.0,0.0,1.0,2000000000,0,,,0
1449616897607974272,231,1449616897606598052,/odom,ga,2,2,0,1.0743967037,-0.61990983289,0.0,0.0,0.0,0.0,0.0,0.15,0.15,0.01,0.0,1.0,0.0,1.0,2000000000,0,,,0
1449616897918396889,232,1449616897917265310,/odom,ga,1,0,0,1.07227480447,-0.619645629783,0.0,0.0,0.0,0.754081216904,0.656781179932,0.25,0.15,0.0,1.0,0.0,0.0,1.0,2000000000,0,,,0
1449616897918405261,233,1449616897917435223,/odom,ga,2,2,0,2.58897566795,-0.774799406528,0.719582140446,0.0,0.0,0.0,0.0,0.15,0.15,0.01,0.0,1.0,0.0,1.0,2000000000,0,,,0
1449616898258237825,234,1449616898254970912,/odom,ga,1,0,0,1.07497490691,-0.621252770798,0.0,0.0,0.0,0.758570209078,0.651591312019,0.25,0.15,0.0,1.0,0.0,0.0,1.0,2000000000,0,,,0
1449616898258255837,235,1449616898255600809,/odom,ga,2,2,0,2.58897566795,-0.774799406528,0.719582140446,0.0,0.0,0.0,0.0,0.15,0.15,0.01,0.0,1.0,0.0,1.0,2000000000,0,,,0
1449616898520901569,236,1449616898519802978,/odom,ga,1,0,0,1.07769289465,-0.62282559918,0.0,0.0,0.0,0.762914602001,0.646499273049,0.25,0.15,0.0,1.0,0.0,0.0,1.0,2000000000,0,,,0
1449616898520920972,237,1449616898519921530,/odom,ga,2,2,0,2.58897566795,-0.774799406528,0.719582140446,0.0,0.0,0.0,0.0,0.15,0.15,0.01,0.0,1.0,0.0,1.0,2000000000,0,,,0
1449616898837687588,238,1449616898835708400,/odom,ga,1,0,0,1.08217419944,-0.623083636615,0.0,0.0,0.0,0.769851174117,0.638223448105,0.25,0.15,0.0,1.0,0.0,0.0,1.0,2000000000,0,,,0
1449616898837698949,239,1449616898836069128,/odom,ga,2,2,0,2.58897566795,-0.774799406528,0.719582140446,0.0,0.0,0.0,0.0,0.15,0.15,0.01,0.0,1.0,0.0,1.0,2000000000,0,,,0
1449616899151785580,240,1449616899148617153,/odom,ga,1,0,0,1.08516473703,-0.624955705526,0.0,0.0,0.0,0.780994144001,0.62453834713,0.25,0.15,0.0,1.0,0.0,0.0,1.0,2000000000,0,,,0
1449616899151841287,241,1449616899149025776,/odom,ga,2,2,0,2.58897566795,-0.774799406528,0.719582140446,0.0,0.0,0.0,0.0,0.15,0.15,0.01,0.0,1.0,0.0,1.0,2000000000,0,,,0
1449616899601937081,242,1449616899595359458,/odom,ga,1,0,0,1.09063409173,-0.627889638853,0.0,0.0,0.0,0.790099452953,0.612978673726,0.25,0.15,0.0,1.0,0.0,0.0,1.0,2000000000,0,,,0
1449616899601964314,243,1449616899595658830,/odom,ga,2,2,0,2.58897566795,-0.774799406528,0.719582140446,0.0,0.0,0.0,0.0,0.15,0.15,0.01,0.0,1.0,0.0,1.0,2000000000,0,,,0
1449616899845418888,244,1449616899842228215,/odom,ga,1,0,0,1.12420782306,-0.641791893235,0.0,0.0,0.0,0.815634981945,0.578566829526,0.25,0.15,0.0,1.0,0.0,0.0,1.0,2000000000,0,,,0
1449616899845444575,245,1449616899843507255,/odom,ga,2,2,0,2.58897566795,-0.774799406528,0.719582140446,0.0,0.0,0.0,0.0,0.15,0.15,0.01,0.0,1.0,0.0,1.0,2000000000,0,,,0
1449616900110463680,246,1449616900106962728,/odom,ga,1,0,0,1.157244937,-0.652426983155,0.0,0.0,0.0,0.808796385155,0.588088775067,0.25,0.15,0.0,1.0,0.0,0.0,1.0,2000000000,0,,,0
1449616900110467453,247,1449616900107141106,/odom,ga,2,2,0,2.58897566795,-0.774799406528,0.719582140446,0.0,0.0,0.0,0.0,0.15,0.15,0.01,0.0,1.0,0.0,1.0,2000000000,0,,,0
1449616900271335026,248,1449616900268935850,/odom,ga,1,0,0,1.19141913381,-0.659135183964,0.0,0.0,0.0,0.784584841338,0.620021472808,0.25,0.15,0.0,1.0,0.0,0.0,1.0,2000000000,0,,,0
1449616900271339266,249,1449616900269185427,/odom,ga,2,2,0,2.58897566795,-0.774799406528,0.719582140446,0.0,0.0,0.0,0.0,0.15,0.15,0.01,0.0,1.0,0.0,1.0,2000000000,0,,,0
1449616900427998586,250,1449616900427555341,/odom,ga,1,0,0,1.21421820309,-0.657914735869,0.0,0.0,0.0,0.652293538397,0.75796645029,0.25,0.15,0.0,1.0,0.0,0.0,1.0,2000000000,0,,,0
1449616900429732261,251,1449616900427844950,/odom,ga,2,2,0,2.58897566795,-0.774799406528,0.719582140446,0.0,0.0,0.0,0.0,0.15,0.15,0.01,0.0,1.0,0.0,1.0,2000000000,0,,,0
1449616900689936096,252,1449616900685346920,/odom,ga,1,0,0,1.24127938535,-0.657786994254,0.0,0.0,0.0,0.537041227964,0.84355599664,0.25,0.15,0.0,1.0,0.0,0.0,1.0,2000000000,0,,,0
1449616900689984556,253,1449616900685964454,/odom,ga,2,2,0,2.58897566795,-0.774799406528,0.719582140446,0.0,0.0,0.0,0.0,0.15,0.15,0.01,0.0,1.0,0.0,1.0,2000000000,0,,,0
1449616900865034804,254,1449616900863224066,/odom,ga,1,0,0,1.29107506244,-0.661567525393,0.0,0.0,0.0,0.510739759148,0.859735365345,0.25,0.15,0.0,1.0,0.0,0.0,1.0,2000000000,0,,,0
1449616900865058003,255,1449616900863970232,/odom,ga,2,2,0,2.58897566795,-0.774799406528,0.719582140446,0.0,0.0,0.0,0.0,0.15,0.15,0.01,0.0,1.0,0.0,1.0,2000000000,0,,,0
1449616900874394836,256,1449616900872498823,/odom,ga,1,0,0,1.33052542437,-0.656792804837,0.0,0.0,0.0,0.16161085822,0.986854564009,0.25,0.15,0.0,1.0,0.0,0.0,1.0,2000000000,0,,,0
1449616900874404796,257,1449616900873248166,/odom,ga,2,2,0,2.58897566795,-0.774799406528,0.719582140446,0.0,0.0,0.0,0.0,0.15,0.15,0.01,0.0,1.0,0.0,1.0,2000000000,0,,,0
1449616900992671063,258,1449616900992263883,/odom,ga,1,0,0,1.33536764915,-0.6560219743,0.0,0.0,0.0,-0.0211345236944,0.999776641009,0.25,0.15,0.0,1.0,0.0,0.0,1.0,2000000000,0,,,0
1449616900995055493,259,1449616900992947944,/odom,ga,2,2,0,2.58897566795,-0.774799406528,0.719582140446,0.0,0.0,0.0,0.0,0.15,0.15,0.01,0.0,1.0,0.0,1.0,2000000000,0,,,0
1449616901011727704,260,1449616901010878612,/odom,ga,1,0,0,1.36127276379,-0.656843549126,0.0,0.0,0.0,-0.0158514091245,0.999874358521,0.25,0.15,0.0,1.0,0.0,0.0,1.0,2000000000,0,,,0
1449616901012498144,261,1449616901011496685,/odom,ga,2,2,0,2.58897566795,-0.774799406528,0.719582140446,0.0,0.0,0.0,0.0,0.15,0.15,0.01,0.0,1.0,0.0,1.0,2000000000,0,,,0
1449616901124844304,262,1449616901123860400,/odom,ga,1,0,0,1.36127276379,-0.656843549126,0.0,0.0,0.0,-0.0158514091245,0.999874358521,0.25,0.15,0.0,1.0,0.0,0.0,1.0,2000000000,0,,,0
1449616901124894760,263,1449616901124400675,/odom,ga,2,2,0,2.58897566795,-0.774799406528,0.719582140446,0.0,0.0,0.0,0.0,0.15,0.15,0.01,0.0,1.0,0.0,1.0,2000000000,0,,,0
1449616901221292334,264,1449616901220450900,/odom,ga,1,0,0,1.40446837628,-0.657087014958,0.0,0.0,0.0,-1.33226762955e-15,1.0,0.25,0.15,0.0,1.0,0.0,0.0,1.0,2000000000,0,,,0
1449616901221324380,265,1449616901220777024,/odom,ga,2,2,0,2.58897566795,-0.774799406528,0.719582140446,0.0,0.0,0.0,0.0,0.15,0.15,0.01,0.0,1.0,0.0,1.0,2000000000,0,,,0
1449616901301848214,266,1449616901300815451,/odom,ga,1,0,0,1.42750302384,-0.656691399976,0.0,0.0,0.0,0.0105678519699,0.999944158693,0.25,0.15,0.0,1.0,0.0,0.0,1.0,2000000000,0,,,0
1449616901301851656,267,1449616901301464016,/odom,ga,2,2,0,2.58897566795,-0.774799406528,0.719582140446,0.0,0.0,0.0,0.0,0.15,0.15,0.01,0.0,1.0,0.0,1.0,2000000000,0,,,0
1449616901396086184,268,1449616901394065349,/odom,ga,1,0,0,1.4476546622,-0.656174089464,0.0,0.0,0.0,0.0158514091245,0.999874358521,0.25,0.15,0.0,1.0,0.0,0.0,1.0,2000000000,0,,,0
1449616901396094601,269,1449616901394815905,/odom,ga,2,2,0,2.58897566795,-0.774799406528,0.719582140446,0.0,0.0,0.0,0.0,0.15,0.15,0.01,0.0,1.0,0.0,1.0,2000000000,0,,,0
1449616901494088539,270,1449616901493379362,/odom,ga,1,0,0,1.48506303227,-0.654713654733,0.0,0.0,0.0,0.0211345236944,0.999776641009,0.25,0.15,0.0,1.0,0.0,0.0,1.0,2000000000,0,,,0
1449616901494100642,271,1449616901493818534,/odom,ga,2,2,0,2.58897566795,-0.774799406528,0.719582140446,0.0,0.0,0.0,0.0,0.15,0.15,0.01,0.0,1.0,0.0,1.0,2000000000,0,,,0
1449616901594458695,272,1449616901593582811,/odom,ga,1,0,0,1.51095078423,-0.653466368138,0.0,0.0,0.0,0.0264170481704,0.999651008886,0.25,0.15,0.0,1.0,0.0,0.0,1.0,2000000000,0,,,0
1449616901596276024,273,1449616901595203608,/odom,ga,2,2,0,2.49550390244,-0.799299001694,0.688638091087,0.0,0.0,0.0,0.0,0.15,0.15,0.01,0.0,1.0,0.0,1.0,2000000000,0,,,0
1449616901694473099,274,1449616901693553460,/odom,ga,1,0,0,1.54542841094,-0.651124793525,0.0,0.0,0.0,0.0369797368913,0.999316015612,0.25,0.15,0.0,1.0,0.0,0.0,1.0,2000000000,0,,,0
1449616901694476942,275,1449616901693758631,/odom,ga,2,2,0,2.49550390244,-0.799299001694,0.688638091087,0.0,0.0,0.0,0.0,0.15,0.15,0.01,0.0,1.0,0.0,1.0,2000000000,0,,,0
1449616901793645996,276,1449616901792100101,/odom,ga,1,0,0,1.56840374714,-0.649422055012,0.0,0.0,0.0,0.0369797368913,0.999316015612,0.25,0.15,0.0,1.0,0.0,0.0,1.0,2000000000,0,,,0
1449616901793652759,277,1449616901792343442,/odom,ga,2,2,0,2.58944535255,-0.773362278938,0.69834113121,0.0,0.0,0.0,0.0,0.15,0.15,0.01,0.0,1.0,0.0,1.0,2000000000,0,,,0
1449616901899752194,278,1449616901899449848,/odom,ga,1,0,0,1.59422931346,-0.647233431208,0.0,0.0,0.0,0.042259606217,0.999106663816,0.25,0.15,0.0,1.0,0.0,0.0,1.0,2000000000,0,,,0
1449616901900240663,279,1449616901899822761,/odom,ga,2,2,0,2.43982601166,-0.800871133804,0.699169874191,0.0,0.0,0.0,0.0,0.15,0.15,0.01,0.0,1.0,0.0,1.0,2000000000,0,,,0
1449616901997914315,280,1449616901997420712,/odom,ga,1,0,0,1.63150833806,-0.643799287167,0.0,0.0,0.0,0.0475382956186,0.998869416115,0.25,0.15,0.0,1.0,0.0,0.0,1.0,2000000000,0,,,0
1449616901998408142,281,1449616901997971907,/odom,ga,2,2,0,2.47221231461,-0.800833463669,0.688852787018,0.0,0.0,0.0,0.0,0.15,0.15,0.01,0.0,1.0,0.0,1.0,2000000000,0,,,0
1449616902113542461,282,1449616902108518626,/odom,ga,1,0,0,1.66876729123,-0.640153058112,0.0,0.0,0.0,0.0528156577107,0.998604279132,0.25,0.15,0.0,1.0,0.0,0.0,1.0,2000000000,0,,,0
1449616902113599552,283,1449616902108931069,/odom,ga,2,2,0,2.59486222267,-0.772762775421,0.718305408955,0.0,0.0,0.0,0.0,0.15,0.15,0.01,0.0,1.0,0.0,1.0,2000000000,0,,,0
1449616902207724721,284,1449616902205139687,/odom,ga,1,0,0,1.69740456058,-0.637115340336,0.0,0.0,0.0,-0.0438688878115,0.999037296943,0.25,0.15,0.0,1.0,0.0,0.0,1.0,2000000000,0,,,0
1449616902207728463,285,1449616902206220853,/odom,ga,2,2,0,2.45809316635,-0.800778985023,0.688801586628,0.0,0.0,0.0,0.0,0.15,0.15,0.01,0.0,1.0,0.0,1.0,2000000000,0,,,0
1449616902329823266,286,1449616902329552538,/odom,ga,1,0,0,1.7317456929,-0.633258353649,0.0,0.0,0.0,-0.169751838407,0.985486840784,0.25,0.15,0.0,1.0,0.0,0.0,1.0,2000000000,0,,,0
1449616902330400443,287,1449616902330139006,/odom,ga,2,2,0,2.55799508095,-0.768228054047,0.688826441765,0.0,0.0,0.0,0.0,0.15,0.15,0.01,0.0,1.0,0.0,1.0,2000000000,0,,,0
1449616902395246109,288,1449616902394948490,/odom,ga,1,0,0,1.76605152666,-0.629099088689,0.0,0.0,0.0,-0.283640918144,0.958930565554,0.25,0.15,0.0,1.0,0.0,0.0,1.0,2000000000,0,,,0
1449616902396456393,289,1449616902395646155,/odom,ga,2,2,0,2.6036734581,-0.779430031776,0.73805218935,0.0,0.0,0.0,0.0,0.15,0.15,0.01,0.0,1.0,0.0,1.0,2000000000,0,,,0
1449616902507379247,290,1449616902506944771,/odom,ga,1,0,0,1.78319153001,-0.626913724096,0.0,0.0,0.0,-0.302951875745,0.953005855692,0.25,0.15,0.0,1.0,0.0,0.0,1.0,2000000000,0,,,0
1449616902514038834,291,1449616902507574443,/odom,ga,2,2,0,2.56241321564,-0.766447663307,0.679394304752,0.0,0.0,0.0,0.0,0.15,0.15,0.01,0.0,1.0,0.0,1.0,2000000000,0,,,0
1449616902598455060,292,1449616902597612321,/odom,ga,1,0,0,1.80317617472,-0.624273626578,0.0,0.0,0.0,-0.327156018726,0.944970337847,0.25,0.15,0.0,1.0,0.0,0.0,1.0,2000000000,0,,,0
1449616902598817685,293,1449616902597801627,/odom,ga,2,2,0,2.5483379364,-0.76441848278,0.678521692753,0.0,0.0,0.0,0.0,0.15,0.15,0.01,0.0,1.0,0.0,1.0,2000000000,0,,,0
1449616902722385415,294,1449616902714356786,/odom,ga,1,0,0,1.8288371205,-0.620633689861,0.0,0.0,0.0,-0.336072030357,0.941836286417,0.25,0.15,0.0,1.0,0.0,0.0,1.0,2000000000,0,,,0
1449616902722390170,295,1449616902715053694,/odom,ga,2,2,0,2.60758328438,-0.774733901024,0.738055109978,0.0,0.0,0.0,0.0,0.15,0.15,0.01,0.0,1.0,0.0,1.0,2000000000,0,,,0
1449616902820984590,296,1449616902820599460,/odom,ga,1,0,0,1.85449806629,-0.616993753143,0.0,0.0,0.0,-0.347260452218,0.93776872326,0.25,0.15,0.0,1.0,0.0,0.0,1.0,2000000000,0,,,0
1449616902821359024,297,1449616902821180641,/odom,ga,2,2,0,2.61594772339,-0.773963570595,0.728099167347,0.0,0.0,0.0,0.0,0.15,0.15,0.01,0.0,1.0,0.0,1.0,2000000000,0,,,0
1449616902899809074,298,1449616902898830037,/odom,ga,1,0,0,1.86304306045,-0.615720192003,0.0,0.0,0.0,-0.340633338863,0.940196218061,0.25,0.15,0.0,1.0,0.0,0.0,1.0,2000000000,0,,,0
1449616902899814457,299,1449616902899405964,/odom,ga,2,2,0,2.6153345108,-0.776339173317,0.727896511555,0.0,0.0,0.0,0.0,0.15,0.15,0.01,0.0,1.0,0.0,1.0,2000000000,0,,,0
1449616902994825616,300,1449616902993280690,/odom,ga,1,0,0,1.87159238183,-0.614476755314,0.0,0.0,0.0,-0.339283486147,0.940684174433,0.25,0.15,0.0,1.0,0.0,0.0,1.0,2000000000,0,,,0
1449616902994829154,301,1449616902993750453,/odom,ga,2,2,0,2.6153345108,-0.776339173317,0.727896511555,0.0,0.0,0.0,0.0,0.15,0.15,0.01,0.0,1.0,0.0,1.0,2000000000,0,,,0
1449616903132949308,302,1449616903132352030,/odom,ga,1,0,0,1.88015436626,-0.613323736022,0.0,0.0,0.0,-0.338398786062,0.941002795741,0.25,0.15,0.0,1.0,0.0,0.0,1.0,2000000000,0,,,0
1449616903132951871,303,1449616903132542540,/odom,ga,2,2,0,2.61805772781,-0.770937800407,0.737807154655,0.0,0.0,0.0,0.0,0.15,0.15,0.01,0.0,1.0,0.0,1.0,2000000000,0,,,0
1449616903219480876,304,1449616903219322411,/odom,ga,1,0,0,1.88872805752,-0.612261262901,0.0,0.0,0.0,-0.331588614049,0.943424078044,0.25,0.15,0.0,1.0,0.0,0.0,1.0,2000000000,0,,,0
1449616903220267140,305,1449616903219850159,/odom,ga,2,2,0,2.61958360672,-0.771078705788,0.737872004509,0.0,0.0,0.0,0.0,0.15,0.15,0.01,0.0,1.0,0.0,1.0,2000000000,0,,,0
1449616903295196887,306,1449616903293961056,/odom,ga,1,0,0,1.89159178445,-0.611957491123,0.0,0.0,0.0,-0.35025474,0.936654481176,0.25,0.15,0.0,1.0,0.0,0.0,1.0,2000000000,0,,,0
1449616903295201968,307,1449616903294638419,/odom,ga,2,2,0,2.61958360672,-0.771078705788,0.737872004509,0.0,0.0,0.0,0.0,0.15,0.15,0.01,0.0,1.0,0.0,1.0,2000000000,0,,,0
1449616903398520669,308,1449616903398355115,/odom,ga,1,0,0,1.89445856169,-0.611683999751,0.0,0.0,0.0,-0.351635340143,0.936137055971,0.25,0.15,0.0,1.0,0.0,0.0,1.0,2000000000,0,,,0
1449616903399062536,309,1449616903398818913,/odom,ga,2,2,0,2.63137030602,-0.759433746338,0.738165020943,0.0,0.0,0.0,0.0,0.15,0.15,0.01,0.0,1.0,0.0,1.0,2000000000,0,,,0
1449616903499415550,310,1449616903498769719,/odom,ga,1,0,0,1.89732806906,-0.611440819328,0.0,0.0,0.0,-0.364756959972,0.931102765624,0.25,0.15,0.0,1.0,0.0,0.0,1.0,2000000000,0,,,0
1449616903499418796,311,1449616903499054964,/odom,ga,2,2,0,2.63399767876,-0.772275805473,0.737867176533,0.0,0.0,0.0,0.0,0.15,0.15,0.01,0.0,1.0,0.0,1.0,2000000000,0,,,0
1449616903608476292,312,1449616903606965626,/odom,ga,1,0,0,1.90019998608,-0.611227977014,0.0,0.0,0.0,-0.375606050953,0.926779420622,0.25,0.15,0.0,1.0,0.0,0.0,1.0,2000000000,0,,,0
1449616903608479650,313,1449616903607875515,/odom,ga,2,2,0,2.60281634331,-0.751840054989,0.677995741367,0.0,0.0,0.0,0.0,0.15,0.15,0.01,0.0,1.0,0.0,1.0,2000000000,0,,,0
1449616903694679370,314,1449616903694048008,/odom,ga,1,0,0,1.9059497659,-0.610893398404,0.0,0.0,0.0,-0.38887666728,0.921289822827,0.25,0.15,0.0,1.0,0.0,0.0,1.0,2000000000,0,,,0
1449616903694684514,315,1449616903694224493,/odom,ga,2,2,0,2.60281634331,-0.751840054989,0.677995741367,0.0,0.0,0.0,0.0,0.15,0.15,0.01,0.0,1.0,0.0,1.0,2000000000,0,,,0
1449616903811228989,316,1449616903811003589,/odom,ga,1,0,0,1.90882698654,-0.610771699475,0.0,0.0,0.0,-0.396234666516,0.918149273839,0.25,0.15,0.0,1.0,0.0,0.0,1.0,2000000000,0,,,0
1449616903816336648,317,1449616903811533571,/odom,ga,2,2,0,2.63453435898,-0.76621222496,0.728156149387,0.0,0.0,0.0,0.0,0.15,0.15,0.01,0.0,1.0,0.0,1.0,2000000000,0,,,0
1449616903906380899,318,1449616903905341418,/odom,ga,1,0,0,1.91170533261,-0.610680413383,0.0,0.0,0.0,-0.402159173329,0.915569767581,0.25,0.15,0.0,1.0,0.0,0.0,1.0,2000000000,0,,,0
1449616903906386737,319,1449616903905885363,/odom,ga,2,2,0,2.63258004189,-0.76857483387,0.72822368145,0.0,0.0,0.0,0.0,0.15,0.15,0.01,0.0,1.0,0.0,1.0,2000000000,0,,,0
1449616903991750204,320,1449616903991088569,/odom,ga,1,0,0,1.91746411511,-0.610589117095,0.0,0.0,0.0,-0.413819667512,0.910358875818,0.25,0.15,0.0,1.0,0.0,0.0,1.0,2000000000,0,,,0
1449616903991757802,321,1449616903991347252,/odom,ga,2,2,0,2.63242673874,-0.772819638252,0.728177011013,0.0,0.0,0.0,0.0,0.15,0.15,0.01,0.0,1.0,0.0,1.0,2000000000,0,,,0
1449616904097256097,322,1449616904095819962,/odom,ga,1,0,0,1.92274632805,-0.611808683985,0.0,0.0,0.0,-0.417413029986,0.908716876919,0.25,0.15,0.0,1.0,0.0,0.0,1.0,2000000000,0,,,0
1449616904097278221,323,1449616904096104207,/odom,ga,2,2,0,2.63118886948,-0.776104331017,0.728923559189,0.0,0.0,0.0,0.0,0.15,0.15,0.01,0.0,1.0,0.0,1.0,2000000000,0,,,0
1449616904211358825,324,1449616904211028219,/odom,ga,1,0,0,1.92865691569,-0.613457159262,0.0,0.0,0.0,-0.423025627887,0.906117717601,0.25,0.15,0.0,1.0,0.0,0.0,1.0,2000000000,0,,,0
1449616904212463715,325,1449616904211615870,/odom,ga,2,2,0,2.63511705399,-0.771316289902,0.728434205055,0.0,0.0,0.0,0.0,0.15,0.15,0.01,0.0,1.0,0.0,1.0,2000000000,0,,,0
1449616904294891933,326,1449616904294026471,/odom,ga,1,0,0,1.93625772549,-0.614775856052,0.0,0.0,0.0,-0.433092403323,0.9013495272,0.25,0.15,0.0,1.0,0.0,0.0,1.0,2000000000,0,,,0
1449616904295443321,327,1449616904294576476,/odom,ga,2,2,0,2.63199138641,-0.778392314911,0.738879203796,0.0,0.0,0.0,0.0,0.15,0.15,0.01,0.0,1.0,0.0,1.0,2000000000,0,,,0
1449616904416349885,328,1449616904411761258,/odom,ga,1,0,0,1.9414942773,-0.616339330282,0.0,0.0,0.0,-0.4385008276,0.89873078516,0.25,0.15,0.0,1.0,0.0,0.0,1.0,2000000000,0,,,0
1449616904416355659,329,1449616904412547269,/odom,ga,2,2,0,2.63199138641,-0.778392314911,0.738879203796,0.0,0.0,0.0,0.0,0.15,0.15,0.01,0.0,1.0,0.0,1.0,2000000000,0,,,0
1449616904505271746,330,1449616904503839420,/odom,ga,1,0,0,1.94725063147,-0.616950359849,0.0,0.0,0.0,-0.448007844755,0.894029625369,0.25,0.15,0.0,1.0,0.0,0.0,1.0,2000000000,0,,,0
1449616904505293259,331,1449616904504290839,/odom,ga,2,2,0,2.62494778633,-0.765539526939,0.718726754189,0.0,0.0,0.0,0.0,0.15,0.15,0.01,0.0,1.0,0.0,1.0,2000000000,0,,,0
1449616904634142440,332,1449616904631047546,/odom,ga,1,0,0,1.95043670005,-0.617494536951,0.0,0.0,0.0,-0.452828592924,0.891597591647,0.25,0.15,0.0,1.0,0.0,0.0,1.0,2000000000,0,,,0
1449616904634161196,333,1449616904632169432,/odom,ga,2,2,0,2.62494778633,-0.765539526939,0.718726754189,0.0,0.0,0.0,0.0,0.15,0.15,0.01,0.0,1.0,0.0,1.0,2000000000,0,,,0
1449616904699513896,334,1449616904696250654,/odom,ga,1,0,0,1.95329299757,-0.617855422593,0.0,0.0,0.0,-0.456402078179,0.889773647077,0.25,0.15,0.0,1.0,0.0,0.0,1.0,2000000000,0,,,0
1449616904699532221,335,1449616904697001919,/odom,ga,2,2,0,2.62708735466,-0.787812173367,0.728437840939,0.0,0.0,0.0,0.0,0.15,0.15,0.01,0.0,1.0,0.0,1.0,2000000000,0,,,0
1449616904798742597,336,1449616904797275950,/odom,ga,1,0,0,1.96105413011,-0.621400020469,0.0,0.0,0.0,-0.461674448706,0.887049436848,0.25,0.15,0.0,1.0,0.0,0.0,1.0,2000000000,0,,,0
1449616904798774372,337,1449616904798047958,/odom,ga,2,2,0,2.62029790878,-0.797542214394,0.739560902119,0.0,0.0,0.0,0.0,0.15,0.15,0.01,0.0,1.0,0.0,1.0,2000000000,0,,,0
1449616904893939013,338,1449616904891023979,/odom,ga,1,0,0,1.96560199419,-0.623028585804,0.0,0.0,0.0,-0.466563807398,0.884487542946,0.25,0.15,0.0,1.0,0.0,0.0,1.0,2000000000,0,,,0
1449616904893958131,339,1449616904892618511,/odom,ga,2,2,0,2.62029790878,-0.797542214394,0.739560902119,0.0,0.0,0.0,0.0,0.15,0.15,0.01,0.0,1.0,0.0,1.0,2000000000,0,,,0
1449616904991289771,340,1449616904990677469,/odom,ga,1,0,0,1.97011157114,-0.624719620084,0.0,0.0,0.0,-0.471438052743,0.881899179286,0.25,0.15,0.0,1.0,0.0,0.0,1.0,2000000000,0,,,0
1449616904991304072,341,1449616904991113490,/odom,ga,2,2,0,2.62029790878,-0.797542214394,0.739560902119,0.0,0.0,0.0,0.0,0.15,0.15,0.01,0.0,1.0,0.0,1.0,2000000000,0,,,0
1449616905102543365,342,1449616905098104954,/odom,ga,1,0,0,1.97101330521,-0.623989422468,0.0,0.0,0.0,-0.474750626865,0.880120356708,0.25,0.15,0.0,1.0,0.0,0.0,1.0,2000000000,0,,,0
1449616905102551476,343,1449616905100149233,/odom,ga,2,2,0,2.62029790878,-0.797542214394,0.739560902119,0.0,0.0,0.0,0.0,0.15,0.15,0.01,0.0,1.0,0.0,1.0,2000000000,0,,,0
1449616905195971744,344,1449616905194006888,/odom,ga,1,0,0,1.97006091059,-0.621927050537,0.0,0.0,0.0,-0.476681984931,0.879075813137,0.25,0.15,0.0,1.0,0.0,0.0,1.0,2000000000,0,,,0
1449616905196000494,345,1449616905194446812,/odom,ga,2,2,0,2.62029790878,-0.797542214394,0.739560902119,0.0,0.0,0.0,0.0,0.15,0.15,0.01,0.0,1.0,0.0,1.0,2000000000,0,,,0
1449616905333205131,346,1449616905332148271,/odom,ga,1,0,0,1.96905891212,-0.621268539753,0.0,0.0,0.0,-0.478286731601,0.878203736256,0.25,0.15,0.0,1.0,0.0,0.0,1.0,2000000000,0,,,0
1449616905333210532,347,1449616905332510182,/odom,ga,2,2,0,2.62029790878,-0.797542214394,0.739560902119,0.0,0.0,0.0,0.0,0.15,0.15,0.01,0.0,1.0,0.0,1.0,2000000000,0,,,0
1449616905397082468,348,1449616905396159486,/odom,ga,1,0,0,1.97121727341,-0.621356417592,0.0,0.0,0.0,-0.481570925261,0.876407122257,0.25,0.15,0.0,1.0,0.0,0.0,1.0,2000000000,0,,,0
1449616905397087351,349,1449616905396635998,/odom,ga,2,2,0,2.62029790878,-0.797542214394,0.739560902119,0.0,0.0,0.0,0.0,0.15,0.15,0.01,0.0,1.0,0.0,1.0,2000000000,0,,,0
1449616905495603891,350,1449616905492747293,/odom,ga,1,0,0,1.97335640208,-0.621446365939,0.0,0.0,0.0,-0.484800973802,0.874624499886,0.25,0.15,0.0,1.0,0.0,0.0,1.0,2000000000,0,,,0
1449616905495608294,351,1449616905493424443,/odom,ga,2,2,0,2.62029790878,-0.797542214394,0.739560902119,0.0,0.0,0.0,0.0,0.15,0.15,0.01,0.0,1.0,0.0,1.0,2000000000,0,,,0
1449616905600192344,352,1449616905598347525,/odom,ga,1,0,0,1.9761857044,-0.62172187413,0.0,0.0,0.0,-0.48145716083,0.87646962428,0.25,0.15,0.0,1.0,0.0,0.0,1.0,2000000000,0,,,0
1449616905600200346,353,1449616905598650459,/odom,ga,2,2,0,2.62029790878,-0.797542214394,0.739560902119,0.0,0.0,0.0,0.0,0.15,0.15,0.01,0.0,1.0,0.0,1.0,2000000000,0,,,0
1449616905695446805,354,1449616905694022614,/odom,ga,1,0,0,1.98166099234,-0.622820643005,0.0,0.0,0.0,-0.490214497039,0.871601828184,0.25,0.15,0.0,1.0,0.0,0.0,1.0,2000000000,0,,,0
1449616905695469918,355,1449616905694306989,/odom,ga,2,2,0,2.62029790878,-0.797542214394,0.739560902119,0.0,0.0,0.0,0.0,0.15,0.15,0.01,0.0,1.0,0.0,1.0,2000000000,0,,,0
1449616905791456660,356,1449616905790829351,/odom,ga,1,0,0,1.9874153875,-0.62357510444,0.0,0.0,0.0,-0.4757210554,0.879596201361,0.25,0.15,0.0,1.0,0.0,0.0,1.0,2000000000,0,,,0
1449616905791466584,357,1449616905791017000,/odom,ga,2,2,0,2.62029790878,-0.797542214394,0.739560902119,0.0,0.0,0.0,0.0,0.15,0.15,0.01,0.0,1.0,0.0,1.0,2000000000,0,,,0
1449616905896053125,358,1449616905895914227,/odom,ga,1,0,0,1.99023120874,-0.624028113995,0.0,0.0,0.0,-0.469158727405,0.883113859307,0.25,0.15,0.0,1.0,0.0,0.0,1.0,2000000000,0,,,0
1449616905896437099,359,1449616905896273316,/odom,ga,2,2,0,2.62029790878,-0.797542214394,0.739560902119,0.0,0.0,0.0,0.0,0.15,0.15,0.01,0.0,1.0,0.0,1.0,2000000000,0,,,0
1449616906345397495,360,1449616906330407720,/odom,ga,1,0,0,1.99134177302,-0.622254187975,0.0,0.0,0.0,-0.491879016743,0.870663558953,0.25,0.15,0.0,1.0,0.0,0.0,1.0,2000000000,0,,,0
1449616906345401228,361,1449616906330694656,/odom,ga,2,2,0,2.62029790878,-0.797542214394,0.739560902119,0.0,0.0,0.0,0.0,0.15,0.15,0.01,0.0,1.0,0.0,1.0,2000000000,0,,,0
