%time,field.header.seq,field.header.stamp,field.header.frame_id,field.command.linear.x,field.command.linear.y,field.command.linear.z,field.command.angular.x,field.command.angular.y,field.command.angular.z,field.goal_source
1449616880156318483,8,1449616880155455292,base_footprint,0.0,0.0,0.0,0.0,0.0,0.0,teleoperation
1449616880189244532,9,1449616880188782688,base_footprint,0.0,0.0,0.0,0.0,0.0,0.0,teleoperation
1449616880222753321,10,1449616880222113505,base_footprint,0.0,0.0,0.0,0.0,0.0,0.0,teleoperation
1449616880256439776,11,1449616880255452824,base_footprint,0.0,0.0,0.0,0.0,0.0,0.0,teleoperation
1449616880289271967,12,1449616880288781392,base_footprint,-0.0,0.0,0.0,0.0,0.0,-0.0,teleoperation
1449616880322692853,13,1449616880322124039,base_footprint,-0.0,0.0,0.0,0.0,0.0,-0.0,teleoperation
1449616880356157767,14,1449616880355450573,base_footprint,-0.0,0.0,0.0,0.0,0.0,-0.0,teleoperation
1449616880389512883,15,1449616880388782685,base_footprint,-0.0,0.0,0.0,0.0,0.0,-0.0,teleoperation
1449616880422658364,16,1449616880422119271,base_footprint,-0.0,0.0,0.0,0.0,0.0,-0.0,teleoperation
1449616880456324640,17,1449616880455453083,base_footprint,-0.0,0.0,0.0,0.0,0.0,-0.0,teleoperation
1449616880489944299,18,1449616880488783654,base_footprint,-0.0,0.0,0.0,0.0,0.0,-0.0,teleoperation
1449616880522941152,19,1449616880522132486,base_footprint,-0.0,0.0,0.0,0.0,0.0,-0.0,teleoperation
1449616880556107220,20,1449616880555449048,base_footprint,-0.0,0.0,0.0,0.0,0.0,-0.0,teleoperation
1449616880589254329,21,1449616880588792613,base_footprint,-0.0,0.0,0.0,0.0,0.0,-0.0,teleoperation
1449616880622811359,22,1449616880622112879,base_footprint,-0.0,0.0,0.0,0.0,0.0,-0.0,teleoperation
1449616880656461172,23,1449616880655446404,base_footprint,-0.0,0.0,0.0,0.0,0.0,-0.0,teleoperation
1449616880689337041,24,1449616880688780999,base_footprint,-0.0,0.0,0.0,0.0,0.0,-0.0,teleoperation
1449616880722787725,25,1449616880722125032,base_footprint,-0.0,0.0,0.0,0.0,0.0,-0.0,teleoperation
1449616880755997801,26,1449616880755458728,base_footprint,-0.0,0.0,0.0,0.0,0.0,-0.0,teleoperation
1449616880789263162,27,1449616880788779690,base_footprint,-0.0,0.0,0.0,0.0,0.0,-0.0,teleoperation
1449616880823023326,28,1449616880822146085,base_footprint,-0.0,0.0,0.0,0.0,0.0,-0.0,teleoperation
1449616880856051821,29,1449616880855446489,base_footprint,-0.0,0.0,0.0,0.0,0.0,-0.0,teleoperation
1449616880889232063,30,1449616880888793984,base_footprint,-0.0,0.0,0.0,0.0,0.0,-0.0,teleoperation
1449616880922803036,31,1449616880922123921,base_footprint,-0.0,0.0,0.0,0.0,0.0,-0.0,teleoperation
1449616880956136354,32,1449616880955450155,base_footprint,-0.0,0.0,0.0,0.0,0.0,-0.0,teleoperation
1449616880989164166,33,1449616880988780464,base_footprint,-0.0,0.0,0.0,0.0,0.0,-0.0,teleoperation
1449616881022791735,34,1449616881022130724,base_footprint,-0.0,0.0,0.0,0.0,0.0,-0.0,teleoperation
1449616881056105266,35,1449616881055456832,base_footprint,-0.0,0.0,0.0,0.0,0.0,-0.0,teleoperation
1449616881089335208,36,1449616881088784108,base_footprint,-0.0,0.0,0.0,0.0,0.0,-0.0,teleoperation
1449616881122981657,37,1449616881122115229,base_footprint,-0.0,0.0,0.0,0.0,0.0,-0.0,teleoperation
1449616881156405918,38,1449616881155452752,base_footprint,-0.0,0.0,0.0,0.0,0.0,-0.0,teleoperation
1449616881189734771,39,1449616881188764002,base_footprint,-0.0,0.0,0.0,0.0,0.0,-0.0,teleoperation
1449616881223371930,40,1449616881222117389,base_footprint,-0.0,0.0,0.0,0.0,0.0,-0.0,teleoperation
1449616881257091873,41,1449616881255448663,base_footprint,-0.0,0.0,0.0,0.0,0.0,-0.0,teleoperation
1449616881289386779,42,1449616881288765603,base_footprint,-0.0,0.0,0.0,0.0,0.0,-0.0,teleoperation
1449616881324898724,43,1449616881322155566,base_footprint,-0.0,0.0,0.0,0.0,0.0,-0.0,teleoperation
1449616881356915875,44,1449616881355458551,base_footprint,-0.0,0.0,0.0,0.0,0.0,-0.0,teleoperation
1449616881391250614,45,1449616881388785992,base_footprint,-0.0,0.0,0.0,0.0,0.0,-0.0,teleoperation
1449616881422750207,46,1449616881422117991,base_footprint,-0.0,0.0,0.0,0.0,0.0,-0.0,teleoperation
1449616881459015176,47,1449616881455462165,base_footprint,-0.0,0.0,0.0,0.0,0.0,-0.0,teleoperation
1449616881490228600,48,1449616881488791013,base_footprint,-0.0,0.0,0.0,0.0,0.0,-0.0,teleoperation
1449616881524860059,49,1449616881522127096,base_footprint,-0.0,0.0,0.0,0.0,0.0,-0.0,teleoperation
1449616881556773677,50,1449616881555461203,base_footprint,-0.0,0.0,0.0,0.0,0.0,-0.0,teleoperation
1449616881590172019,51,1449616881588801561,base_footprint,-0.0,0.0,0.0,0.0,0.0,-0.0,teleoperation
1449616881623892675,52,1449616881622132732,base_footprint,-0.0,0.0,0.0,0.0,0.0,-0.0,teleoperation
1449616881656934276,53,1449616881655458851,base_footprint,-0.0,0.0,0.0,0.0,0.0,-0.0,teleoperation
1449616881691574211,54,1449616881688791154,base_footprint,-0.0,0.0,0.0,0.0,0.0,-0.0,teleoperation
1449616881723950535,55,1449616881722129909,base_footprint,-0.0,0.0,0.0,0.0,0.0,-0.0,teleoperation
1449616881759758246,56,1449616881755467174,base_footprint,-0.0,0.0,0.0,0.0,0.0,-0.0,teleoperation
1449616881792162429,57,1449616881788792897,base_footprint,-0.0,0.0,0.0,0.0,0.0,-0.0,teleoperation
1449616881825115216,58,1449616881822698780,base_footprint,-0.0,0.0,0.0,0.0,0.0,-0.0,teleoperation
1449616881857834268,59,1449616881855458953,base_footprint,-0.0,0.0,0.0,0.0,0.0,-0.0,teleoperation
1449616881893276154,60,1449616881888798134,base_footprint,-0.0,0.0,0.0,0.0,0.0,-0.0,teleoperation
1449616881923691279,61,1449616881922130805,base_footprint,-0.0,0.0,0.0,0.0,0.0,-0.0,teleoperation
1449616881956840389,62,1449616881955475142,base_footprint,-0.0,0.0,0.0,0.0,0.0,-0.0,teleoperation
1449616882000243836,63,1449616881988798578,base_footprint,-0.0,0.0,0.0,0.0,0.0,-0.0,teleoperation
1449616882023810468,64,1449616882022125782,base_footprint,-0.0,0.0,0.0,0.0,0.0,-0.0,teleoperation
1449616882060201405,65,1449616882055469401,base_footprint,-0.0,0.0,0.0,0.0,0.0,-0.0,teleoperation
1449616882092033534,66,1449616882088798899,base_footprint,-0.0,0.0,0.0,0.0,0.0,-0.0,teleoperation
1449616882123921355,67,1449616882122133813,base_footprint,-0.0,0.0,0.0,0.0,0.0,-0.0,teleoperation
1449616882157310839,68,1449616882155463452,base_footprint,-0.0,0.0,0.0,0.0,0.0,-0.0,teleoperation
1449616882192242564,69,1449616882188791277,base_footprint,-0.0,0.0,0.0,0.0,0.0,-0.0,teleoperation
1449616882223791566,70,1449616882222322266,base_footprint,-0.0,0.0,0.0,0.0,0.0,-0.0,teleoperation
1449616882269336425,71,1449616882255529348,base_footprint,-0.0,0.0,0.0,0.0,0.0,-0.0,teleoperation
1449616882292895693,72,1449616882288791539,base_footprint,-0.0,0.0,0.0,0.0,0.0,-0.0,teleoperation
1449616882325639363,73,1449616882322149502,base_footprint,-0.0,0.0,0.0,0.0,0.0,-0.0,teleoperation
1449616882356451268,74,1449616882355456767,base_footprint,-0.0,0.0,0.0,0.0,0.0,-0.0,teleoperation
1449616882396593969,75,1449616882389125516,base_footprint,-0.0,0.0,0.0,0.0,0.0,-0.0,teleoperation
1449616882428533596,76,1449616882422167206,base_footprint,-0.0,0.0,0.0,0.0,0.0,-0.0,teleoperation
1449616882457059424,77,1449616882455462583,base_footprint,-0.0,0.0,0.0,0.0,0.0,-0.0,teleoperation
1449616882502546623,78,1449616882488798142,base_footprint,-0.0,0.0,0.0,0.0,0.0,-0.0,teleoperation
1449616882523268398,79,1449616882522121294,base_footprint,-0.0,0.0,0.0,0.0,0.0,-0.0,teleoperation
1449616882556897711,80,1449616882555459046,base_footprint,-0.0,0.0,0.0,0.0,0.0,-0.0,teleoperation
1449616882591514393,81,1449616882589489925,base_footprint,-0.0,0.0,0.0,0.0,0.0,-0.0,teleoperation
1449616882624024368,82,1449616882622142905,base_footprint,-0.0,0.0,0.0,0.0,0.0,-0.0,teleoperation
1449616882656562456,83,1449616882655459373,base_footprint,-0.0,0.0,0.0,0.0,0.0,-0.0,teleoperation
1449616882691215761,84,1449616882689279648,base_footprint,-0.0,0.0,0.0,0.0,0.0,-0.0,teleoperation
1449616882730773615,85,1449616882723078076,base_footprint,-0.0,0.0,0.0,0.0,0.0,-0.0,teleoperation
1449616882756736606,86,1449616882755452715,base_footprint,-0.0,0.0,0.0,0.0,0.0,-0.0,teleoperation
1449616882789646998,87,1449616882788783359,base_footprint,-0.0,0.0,0.0,0.0,0.0,-0.0,teleoperation
1449616882823779559,88,1449616882822129358,base_footprint,-0.0,0.0,0.0,0.0,0.0,-0.0,teleoperation
1449616882857229607,89,1449616882855473258,base_footprint,-0.0,0.0,0.0,0.0,0.0,-0.0,teleoperation
1449616882889918364,90,1449616882888790913,base_footprint,-0.0,0.0,0.0,0.0,0.0,-0.0,teleoperation
1449616882922884631,91,1449616882922125849,base_footprint,-0.0,0.0,0.0,0.0,0.0,-0.0,teleoperation
1449616882956295907,92,1449616882955462997,base_footprint,-0.0,0.0,0.0,0.0,0.0,-0.0,teleoperation
1449616882994176501,93,1449616882988791992,base_footprint,-0.0,0.0,0.0,0.0,0.0,-0.0,teleoperation
1449616883024904581,94,1449616883022126682,base_footprint,-0.0,0.0,0.0,0.0,0.0,-0.0,teleoperation
1449616883056265206,95,1449616883055458380,base_footprint,-0.0,0.0,0.0,0.0,0.0,-0.0,teleoperation
1449616883089397106,96,1449616883088786981,base_footprint,-0.0,0.0,0.0,0.0,0.0,-0.0,teleoperation
1449616883124007784,97,1449616883122144844,base_footprint,-0.0,0.0,0.0,0.0,0.0,-0.0,teleoperation
1449616883157991626,98,1449616883155458761,base_footprint,-0.0,0.0,0.0,0.0,0.0,-0.0,teleoperation
1449616883190362257,99,1449616883188794661,base_footprint,-0.0,0.0,0.0,0.0,0.0,-0.0,teleoperation
1449616883223755294,100,1449616883222126419,base_footprint,-0.0,0.0,0.0,0.0,0.0,-0.0,teleoperation
1449616883257486479,101,1449616883255464491,base_footprint,-0.0,0.0,0.0,0.0,0.0,-0.0,teleoperation
1449616883294078822,102,1449616883288787036,base_footprint,-0.0,0.0,0.0,0.0,0.0,-0.0,teleoperation
1449616883329666191,103,1449616883322120145,base_footprint,-0.0,0.0,0.0,0.0,0.0,-0.0,teleoperation
1449616883357858834,104,1449616883355449495,base_footprint,-0.0,0.0,0.0,0.0,0.0,-0.0,teleoperation
1449616883392647008,105,1449616883388803974,base_footprint,-0.0,0.0,0.0,0.0,0.0,-0.0,teleoperation
1449616883423638872,106,1449616883422135340,base_footprint,-0.0,0.0,0.0,0.0,0.0,-0.0,teleoperation
1449616883457115101,107,1449616883455466977,base_footprint,-0.0,0.0,0.0,0.0,0.0,-0.0,teleoperation
1449616883494552836,108,1449616883488788716,base_footprint,-0.0,0.0,0.0,0.0,0.0,-0.0,teleoperation
1449616883526598968,109,1449616883522141719,base_footprint,-0.0,0.0,0.0,0.0,0.0,-0.0,teleoperation
1449616883557163918,110,1449616883555476319,base_footprint,-0.0,0.0,0.0,0.0,0.0,-0.0,teleoperation
1449616883591902431,111,1449616883588997331,base_footprint,-0.0,0.0,0.0,0.0,0.0,-0.0,teleoperation
1449616883625137725,112,1449616883622129410,base_footprint,-0.0,0.0,0.0,0.0,0.0,-0.0,teleoperation
1449616883664096780,113,1449616883655459637,base_footprint,-0.0,0.0,0.0,0.0,0.0,-0.0,teleoperation
1449616883702807249,114,1449616883688788751,base_footprint,-0.0,0.0,0.0,0.0,0.0,-0.0,teleoperation
1449616883730596525,115,1449616883723538761,base_footprint,-0.0,0.0,0.0,0.0,0.0,-0.0,teleoperation
1449616883760644135,116,1449616883755452669,base_footprint,-0.0,0.0,0.0,0.0,0.0,-0.0,teleoperation
1449616883807684792,117,1449616883788782627,base_footprint,-0.0,0.0,0.0,0.0,0.0,-0.0,teleoperation
1449616883841873160,118,1449616883823473799,base_footprint,-0.0,0.0,0.0,0.0,0.0,-0.0,teleoperation
1449616883856901205,119,1449616883855450250,base_footprint,-0.0,0.0,0.0,0.0,0.0,-0.0,teleoperation
1449616883898508749,120,1449616883888791559,base_footprint,-0.0,0.0,0.0,0.0,0.0,-0.0,teleoperation
1449616883956598017,121,1449616883922115049,base_footprint,-0.0,0.0,0.0,0.0,0.0,-0.0,teleoperation
1449616883983184189,122,1449616883956179147,base_footprint,-0.0,0.0,0.0,0.0,0.0,-0.0,teleoperation
1449616884023488217,123,1449616883988788940,base_footprint,-0.0,0.0,0.0,0.0,0.0,-0.0,teleoperation
1449616884065315165,124,1449616884022896346,base_footprint,-0.0,0.0,0.0,0.0,0.0,-0.0,teleoperation
1449616884104315533,125,1449616884063624893,base_footprint,-0.0,0.0,0.0,0.0,0.0,-0.0,teleoperation
1449616884143114400,126,1449616884103322509,base_footprint,-0.0,0.0,0.0,0.0,0.0,-0.0,teleoperation
1449616884183749840,127,1449616884142809653,base_footprint,-0.0,0.0,0.0,0.0,0.0,-0.0,teleoperation
1449616884224302835,128,1449616884183174032,base_footprint,-0.0,0.0,0.0,0.0,0.0,-0.0,teleoperation
1449616884264197737,129,1449616884223535220,base_footprint,-0.0,0.0,0.0,0.0,0.0,-0.0,teleoperation
1449616884303383960,130,1449616884263508588,base_footprint,-0.0,0.0,0.0,0.0,0.0,-0.0,teleoperation
1449616884343935890,131,1449616884303044583,base_footprint,-0.0,0.0,0.0,0.0,0.0,-0.0,teleoperation
1449616884385194849,132,1449616884343166987,base_footprint,-0.0,0.0,0.0,0.0,0.0,-0.0,teleoperation
1449616884423282517,133,1449616884383052699,base_footprint,-0.0,0.0,0.0,0.0,0.0,-0.0,teleoperation
1449616884464008849,134,1449616884422950329,base_footprint,-0.0,0.0,0.0,0.0,0.0,-0.0,teleoperation
1449616884503747204,135,1449616884463790095,base_footprint,-0.0,0.0,0.0,0.0,0.0,-0.0,teleoperation
1449616884546437603,136,1449616884503073870,base_footprint,-0.0,0.0,0.0,0.0,0.0,-0.0,teleoperation
1449616884583407081,137,1449616884545966520,base_footprint,-0.0,0.0,0.0,0.0,0.0,-0.0,teleoperation
1449616884625014664,138,1449616884582887616,base_footprint,-0.0,0.0,0.0,0.0,0.0,-0.0,teleoperation
1449616884664036900,139,1449616884623677290,base_footprint,-0.0,0.0,0.0,0.0,0.0,-0.0,teleoperation
1449616884704151284,140,1449616884663348929,base_footprint,-0.0,0.0,0.0,0.0,0.0,-0.0,teleoperation
1449616884745567038,141,1449616884703037347,base_footprint,-0.0,0.0,0.0,0.0,0.0,-0.0,teleoperation
1449616884784182525,142,1449616884745237266,base_footprint,-0.0,0.0,0.0,0.0,0.0,-0.0,teleoperation
1449616884823827317,143,1449616884783584105,base_footprint,-0.0,0.0,0.0,0.0,0.0,-0.0,teleoperation
1449616884863978785,144,1449616884823420790,base_footprint,-0.0,0.0,0.0,0.0,0.0,-0.0,teleoperation
1449616884903528931,145,1449616884863327700,base_footprint,-0.0,0.0,0.0,0.0,0.0,-0.0,teleoperation
1449616884950169293,146,1449616884903077891,base_footprint,-0.0,0.0,0.0,0.0,0.0,-0.0,teleoperation
1449616884983601280,147,1449616884948044613,base_footprint,-0.0,0.0,0.0,0.0,0.0,-0.0,teleoperation
1449616885024457961,148,1449616884983240059,base_footprint,-0.0,0.0,0.0,0.0,0.0,-0.0,teleoperation
1449616885063488158,149,1449616885023405960,base_footprint,-0.0,0.0,0.0,0.0,0.0,-0.0,teleoperation
1449616885103091810,150,1449616885063219829,base_footprint,-0.0,0.0,0.0,0.0,0.0,-0.0,teleoperation
1449616885143890443,151,1449616885102896452,base_footprint,-0.0,0.0,0.0,0.0,0.0,-0.0,teleoperation
1449616885183129884,152,1449616885142936603,base_footprint,-0.0,0.0,0.0,0.0,0.0,-0.0,teleoperation
1449616885223588615,153,1449616885182882662,base_footprint,-0.0,0.0,0.0,0.0,0.0,-0.0,teleoperation
1449616885263647635,154,1449616885223325294,base_footprint,-0.0,0.0,0.0,0.0,0.0,-0.0,teleoperation
1449616885304714254,155,1449616885262986954,base_footprint,-0.0,0.0,0.0,0.0,0.0,-0.0,teleoperation
1449616885343748752,156,1449616885303127436,base_footprint,-0.0,0.0,0.0,0.0,0.0,-0.0,teleoperation
1449616885383708872,157,1449616885343076794,base_footprint,-0.0,0.0,0.0,0.0,0.0,-0.0,teleoperation
1449616885423571776,158,1449616885383336315,base_footprint,-0.0,0.0,0.0,0.0,0.0,-0.0,teleoperation
1449616885463354582,159,1449616885422988500,base_footprint,-0.0,0.0,0.0,0.0,0.0,-0.0,teleoperation
1449616885503198373,160,1449616885463095076,base_footprint,-0.0,0.0,0.0,0.0,0.0,-0.0,teleoperation
1449616885543697165,161,1449616885502949936,base_footprint,-0.0,0.0,0.0,0.0,0.0,-0.0,teleoperation
1449616885583563835,162,1449616885543161430,base_footprint,-0.0,0.0,0.0,0.0,0.0,-0.0,teleoperation
1449616885624451656,163,1449616885582962513,base_footprint,-0.0,0.0,0.0,0.0,0.0,-0.0,teleoperation
1449616885664486659,164,1449616885623524853,base_footprint,-0.0,0.0,0.0,0.0,0.0,-0.0,teleoperation
1449616885703659547,165,1449616885663572247,base_footprint,-0.0,0.0,0.0,0.0,0.0,-0.0,teleoperation
1449616885743669810,166,1449616885703297326,base_footprint,-0.0,0.0,0.0,0.0,0.0,-0.0,teleoperation
1449616885784066291,167,1449616885743084280,base_footprint,-0.0,0.0,0.0,0.0,0.0,-0.0,teleoperation
1449616885823585161,168,1449616885783362859,base_footprint,-0.0,0.0,0.0,0.0,0.0,-0.0,teleoperation
1449616885869813438,169,1449616885823191770,base_footprint,-0.0,0.0,0.0,0.0,0.0,-0.0,teleoperation
1449616885904185061,170,1449616885863485800,base_footprint,-0.0,0.0,0.0,0.0,0.0,-0.0,teleoperation
1449616885943758380,171,1449616885903397390,base_footprint,-0.0,0.0,0.0,0.0,0.0,-0.0,teleoperation
1449616885984540332,172,1449616885943265598,base_footprint,-0.0,0.0,0.0,0.0,0.0,-0.0,teleoperation
1449616886023616008,173,1449616885983921414,base_footprint,-0.0,0.0,0.0,0.0,0.0,-0.0,teleoperation
1449616886063416621,174,1449616886023430759,base_footprint,-0.0,0.0,0.0,0.0,0.0,-0.0,teleoperation
1449616886103078220,175,1449616886063200387,base_footprint,-0.0,0.0,0.0,0.0,0.0,-0.0,teleoperation
1449616886145045192,176,1449616886102828210,base_footprint,-0.0,0.0,0.0,0.0,0.0,-0.0,teleoperation
1449616886184222056,177,1449616886144881533,base_footprint,-0.0,0.0,0.0,0.0,0.0,-0.0,teleoperation
1449616886223838115,178,1449616886183196546,base_footprint,-0.0,0.0,0.0,0.0,0.0,-0.0,teleoperation
1449616886265378052,179,1449616886223494187,base_footprint,-0.0,0.0,0.0,0.0,0.0,-0.0,teleoperation
1449616886303516572,180,1449616886263778013,base_footprint,-0.0,0.0,0.0,0.0,0.0,-0.0,teleoperation
1449616886343341892,181,1449616886303079087,base_footprint,-0.0,0.0,0.0,0.0,0.0,-0.0,teleoperation
1449616886383621916,182,1449616886343007518,base_footprint,-0.0,0.0,0.0,0.0,0.0,-0.0,teleoperation
1449616886423907351,183,1449616886383124659,base_footprint,-0.0,0.0,0.0,0.0,0.0,-0.0,teleoperation
1449616886474323227,184,1449616886423231041,base_footprint,-0.0,0.0,0.0,0.0,0.0,-0.0,teleoperation
1449616886503924247,185,1449616886464006888,base_footprint,-0.0,0.0,0.0,0.0,0.0,-0.0,teleoperation
1449616886544183158,186,1449616886503662975,base_footprint,-0.0,0.0,0.0,0.0,0.0,-0.0,teleoperation
1449616886583483402,187,1449616886543338481,base_footprint,-0.0,0.0,0.0,0.0,0.0,-0.0,teleoperation
1449616886623943782,188,1449616886582958270,base_footprint,-0.0,0.0,0.0,0.0,0.0,-0.0,teleoperation
1449616886664617328,189,1449616886623031055,base_footprint,-0.0,0.0,0.0,0.0,0.0,-0.0,teleoperation
1449616886703288062,190,1449616886663172588,base_footprint,-0.0,0.0,0.0,0.0,0.0,-0.0,teleoperation
1449616886743279380,191,1449616886702932573,base_footprint,-0.0,0.0,0.0,0.0,0.0,-0.0,teleoperation
1449616886783511579,192,1449616886743016273,base_footprint,-0.0,0.0,0.0,0.0,0.0,-0.0,teleoperation
1449616886823612964,193,1449616886783282718,base_footprint,-0.0,0.0,0.0,0.0,0.0,-0.0,teleoperation
1449616886864505830,194,1449616886823323672,base_footprint,-0.0,0.0,0.0,0.0,0.0,-0.0,teleoperation
1449616886903773698,195,1449616886863613628,base_footprint,-0.0,0.0,0.0,0.0,0.0,-0.0,teleoperation
1449616886945144209,196,1449616886903391463,base_footprint,-0.0,0.0,0.0,0.0,0.0,-0.0,teleoperation
1449616886983692176,197,1449616886944765962,base_footprint,-0.0,0.0,0.0,0.0,0.0,-0.0,teleoperation
1449616887023030612,198,1449616886983413061,base_footprint,-0.0,0.0,0.0,0.0,0.0,-0.0,teleoperation
1449616887065948421,199,1449616887022952433,base_footprint,-0.0,0.0,0.0,0.0,0.0,-0.0,teleoperation
1449616887104046914,200,1449616887063757820,base_footprint,-0.0,0.0,0.0,0.0,0.0,-0.0,teleoperation
1449616887143391020,201,1449616887103344731,base_footprint,-0.0,0.0,0.0,0.0,0.0,-0.0,teleoperation
1449616887190094726,202,1449616887143054332,base_footprint,-0.0,0.0,0.0,0.0,0.0,-0.0,teleoperation
1449616887224012219,203,1449616887183000090,base_footprint,-0.0,0.0,0.0,0.0,0.0,-0.0,teleoperation
1449616887267243946,204,1449616887223434796,base_footprint,-0.0,0.0,0.0,0.0,0.0,-0.0,teleoperation
1449616887312170693,205,1449616887266670881,base_footprint,-0.0,0.0,0.0,0.0,0.0,-0.0,teleoperation
1449616887343471898,206,1449616887303938208,base_footprint,-0.0,0.0,0.0,0.0,0.0,-0.0,teleoperation
1449616887383164532,207,1449616887343235170,base_footprint,-0.0,0.0,0.0,0.0,0.0,-0.0,teleoperation
1449616887423799993,208,1449616887383013622,base_footprint,-0.0,0.0,0.0,0.0,0.0,-0.0,teleoperation
1449616887463782438,209,1449616887423516849,base_footprint,-0.0,0.0,0.0,0.0,0.0,-0.0,teleoperation
1449616887503129319,210,1449616887463156912,base_footprint,-0.0,0.0,0.0,0.0,0.0,-0.0,teleoperation
1449616887543561756,211,1449616887502899442,base_footprint,-0.0,0.0,0.0,0.0,0.0,-0.0,teleoperation
1449616887584085876,212,1449616887543213042,base_footprint,-0.0,0.0,0.0,0.0,0.0,-0.0,teleoperation
1449616887624466620,213,1449616887583276772,base_footprint,-0.0,0.0,0.0,0.0,0.0,-0.0,teleoperation
1449616887664949981,214,1449616887624063460,base_footprint,-0.0,0.0,0.0,0.0,0.0,-0.0,teleoperation
1449616887703138551,215,1449616887663084685,base_footprint,-0.0,0.0,0.0,0.0,0.0,-0.00634920671582,teleoperation
1449616887758218618,216,1449616887702859239,base_footprint,-0.0,0.0,0.0,0.0,0.0,-0.00634920671582,teleoperation
1449616887788773424,217,1449616887757369633,base_footprint,0.00558730190992,0.0,0.0,0.0,0.0,-0.00634920671582,teleoperation
1449616887832203945,218,1449616887790758544,base_footprint,0.00558730190992,0.0,0.0,0.0,0.0,-0.00634920671582,teleoperation
1449616887891643652,219,1449616887832030042,base_footprint,0.00558730190992,0.0,0.0,0.0,0.0,-0.0698412716389,teleoperation
1449616887913066724,220,1449616887887338900,base_footprint,0.00558730190992,0.0,0.0,0.0,0.0,-0.0698412716389,teleoperation
1449616887948117510,221,1449616887912527768,base_footprint,0.00558730190992,0.0,0.0,0.0,0.0,-0.0698412716389,teleoperation
1449616887990565080,222,1449616887947481814,base_footprint,0.0111746038198,0.0,0.0,0.0,0.0,-0.387301588058,teleoperation
1449616888028161047,223,1449616887990015846,base_footprint,0.0111746038198,0.0,0.0,0.0,0.0,-0.387301588058,teleoperation
1449616888068861806,224,1449616888027753423,base_footprint,0.00558730190992,0.0,0.0,0.0,0.0,-0.387301588058,teleoperation
1449616888108264906,225,1449616888067589184,base_footprint,0.00558730190992,0.0,0.0,0.0,0.0,-0.387301588058,teleoperation
1449616888161502583,226,1449616888107854818,base_footprint,0.00558730190992,0.0,0.0,0.0,0.0,-0.387301588058,teleoperation
1449616888190184963,227,1449616888161293891,base_footprint,0.00558730190992,0.0,0.0,0.0,0.0,-0.393650794029,teleoperation
1449616888249840306,228,1449616888194691669,base_footprint,0.00558730190992,0.0,0.0,0.0,0.0,-0.393650794029,teleoperation
1449616888283832260,229,1449616888249598457,base_footprint,0.00558730190992,0.0,0.0,0.0,0.0,-0.393650794029,teleoperation
1449616888314863613,230,1449616888283219357,base_footprint,0.00558730190992,0.0,0.0,0.0,0.0,-0.393650794029,teleoperation
1449616888354110392,231,1449616888314427321,base_footprint,0.00558730190992,0.0,0.0,0.0,0.0,-0.393650794029,teleoperation
1449616888392155230,232,1449616888352415513,base_footprint,0.00558730190992,0.0,0.0,0.0,0.0,-0.393650794029,teleoperation
1449616888467776281,233,1449616888391385219,base_footprint,0.00558730190992,0.0,0.0,0.0,0.0,-0.393650794029,teleoperation
1449616888476464774,234,1449616888467468317,base_footprint,0.0111746038198,0.0,0.0,0.0,0.0,-0.387301588058,teleoperation
1449616888522331062,235,1449616888500856475,base_footprint,0.0111746038198,0.0,0.0,0.0,0.0,-0.387301588058,teleoperation
1449616888549797701,236,1449616888534202752,base_footprint,0.0111746038198,0.0,0.0,0.0,0.0,-0.387301588058,teleoperation
1449616888620584035,237,1449616888567644325,base_footprint,0.00558730190992,0.0,0.0,0.0,0.0,-0.387301588058,teleoperation
1449616888636439113,238,1449616888619549557,base_footprint,0.00558730190992,0.0,0.0,0.0,0.0,-0.387301588058,teleoperation
1449616888677127660,239,1449616888634171706,base_footprint,0.00558730190992,0.0,0.0,0.0,0.0,-0.387301588058,teleoperation
1449616888707618749,240,1449616888676543413,base_footprint,0.00558730190992,0.0,0.0,0.0,0.0,-0.387301588058,teleoperation
1449616888750060590,241,1449616888707130266,base_footprint,0.00558730190992,0.0,0.0,0.0,0.0,-0.387301588058,teleoperation
1449616888790175924,242,1449616888749692279,base_footprint,0.00558730190992,0.0,0.0,0.0,0.0,-0.393650794029,teleoperation
1449616888872205699,243,1449616888788179181,base_footprint,0.00558730190992,0.0,0.0,0.0,0.0,-0.393650794029,teleoperation
1449616888898402587,244,1449616888871018419,base_footprint,0.00558730190992,0.0,0.0,0.0,0.0,-0.393650794029,teleoperation
1449616888922106642,245,1449616888904435537,base_footprint,0.00558730190992,0.0,0.0,0.0,0.0,-0.393650794029,teleoperation
1449616888961238286,246,1449616888937761996,base_footprint,0.00558730190992,0.0,0.0,0.0,0.0,-0.393650794029,teleoperation
1449616889004732334,247,1449616888971161141,base_footprint,0.00558730190992,0.0,0.0,0.0,0.0,-0.387301588058,teleoperation
1449616889034682677,248,1449616889004647722,base_footprint,0.00558730190992,0.0,0.0,0.0,0.0,-0.387301588058,teleoperation
1449616889072032777,249,1449616889037741055,base_footprint,0.0111746038198,0.0,0.0,0.0,0.0,-0.215873026848,teleoperation
1449616889107070431,250,1449616889071738774,base_footprint,0.0111746038198,0.0,0.0,0.0,0.0,-0.215873026848,teleoperation
1449616889149443364,251,1449616889106655050,base_footprint,0.0111746038198,0.0,0.0,0.0,0.0,-0.215873026848,teleoperation
1449616889214125734,252,1449616889147692123,base_footprint,0.0335238101482,0.0,0.0,0.0,0.0,-0.0888888895512,teleoperation
1449616889233716073,253,1449616889212443347,base_footprint,0.0335238101482,0.0,0.0,0.0,0.0,-0.0888888895512,teleoperation
1449616889293574057,254,1449616889245797328,base_footprint,0.346412698746,0.0,0.0,0.0,0.0,-0.0190476194024,teleoperation
1449616889321772746,255,1449616889293130589,base_footprint,0.346412698746,0.0,0.0,0.0,0.0,-0.0190476194024,teleoperation
1449616889376932182,256,1449616889312503331,base_footprint,0.346412698746,0.0,0.0,0.0,0.0,-0.0190476194024,teleoperation
1449616889394410751,257,1449616889376697846,base_footprint,0.346412698746,0.0,0.0,0.0,0.0,-0.0126984134316,teleoperation
1449616889462440431,258,1449616889394131066,base_footprint,0.346412698746,0.0,0.0,0.0,0.0,-0.0126984134316,teleoperation
1449616889480513721,259,1449616889462315257,base_footprint,0.346412698746,0.0,0.0,0.0,0.0,-0.0126984134316,teleoperation
1449616889545403335,260,1449616889495716765,base_footprint,0.346412698746,0.0,0.0,0.0,0.0,-0.0126984134316,teleoperation
1449616889555517321,261,1449616889545021723,base_footprint,0.346412698746,0.0,0.0,0.0,0.0,-0.0126984134316,teleoperation
1449616889591868349,262,1449616889562383645,base_footprint,0.346412698746,0.0,0.0,0.0,0.0,-0.0126984134316,teleoperation
1449616889668536044,263,1449616889595714050,base_footprint,0.346412698746,0.0,0.0,0.0,0.0,-0.0126984134316,teleoperation
1449616889684067818,264,1449616889668341872,base_footprint,0.346412698746,0.0,0.0,0.0,0.0,-0.0126984134316,teleoperation
1449616889722109555,265,1449616889705601189,base_footprint,0.346412698746,0.0,0.0,0.0,0.0,-0.0126984134316,teleoperation
1449616889755329496,266,1449616889735370037,base_footprint,0.346412698746,0.0,0.0,0.0,0.0,-0.0126984134316,teleoperation
1449616889797877205,267,1449616889768405543,base_footprint,0.340825397491,0.0,0.0,0.0,0.0,-0.0126984134316,teleoperation
1449616889864367721,268,1449616889801733579,base_footprint,0.340825397491,0.0,0.0,0.0,0.0,-0.0126984134316,teleoperation
1449616889889337877,269,1449616889862920008,base_footprint,0.340825397491,0.0,0.0,0.0,0.0,-0.0190476194024,teleoperation
1449616889910439497,270,1449616889886666234,base_footprint,0.340825397491,0.0,0.0,0.0,0.0,-0.0190476194024,teleoperation
1449616889963985928,271,1449616889910223231,base_footprint,0.340825397491,0.0,0.0,0.0,0.0,-0.0190476194024,teleoperation
1449616889990006296,272,1449616889962696110,base_footprint,0.340825397491,0.0,0.0,0.0,0.0,-0.0126984134316,teleoperation
1449616890036873694,273,1449616889989588436,base_footprint,0.340825397491,0.0,0.0,0.0,0.0,-0.0126984134316,teleoperation
1449616890097536997,274,1449616890036269859,base_footprint,0.340825397491,0.0,0.0,0.0,0.0,-0.0126984134316,teleoperation
1449616890129692373,275,1449616890097267742,base_footprint,0.340825397491,0.0,0.0,0.0,0.0,-0.0126984134316,teleoperation
1449616890162752589,276,1449616890128384902,base_footprint,0.346412698746,0.0,0.0,0.0,0.0,-0.0126984134316,teleoperation
1449616890204592636,277,1449616890162254230,base_footprint,0.346412698746,0.0,0.0,0.0,0.0,-0.0126984134316,teleoperation
1449616890241661920,278,1449616890202585356,base_footprint,0.346412698746,0.0,0.0,0.0,0.0,-0.0126984134316,teleoperation
1449616890299435892,279,1449616890241091144,base_footprint,0.346412698746,0.0,0.0,0.0,0.0,-0.0126984134316,teleoperation
1449616890313486064,280,1449616890299146956,base_footprint,0.346412698746,0.0,0.0,0.0,0.0,-0.0126984134316,teleoperation
1449616890373899697,281,1449616890312932228,base_footprint,0.346412698746,0.0,0.0,0.0,0.0,-0.0126984134316,teleoperation
1449616890425501623,282,1449616890373110677,base_footprint,0.340825397491,0.0,0.0,0.0,0.0,-0.0190476194024,teleoperation
1449616890460358681,283,1449616890424588245,base_footprint,0.340825397491,0.0,0.0,0.0,0.0,-0.0190476194024,teleoperation
1449616890538926031,284,1449616890458000638,base_footprint,0.340825397491,0.0,0.0,0.0,0.0,-0.0126984134316,teleoperation
1449616890538944319,285,1449616890511782346,base_footprint,0.340825397491,0.0,0.0,0.0,0.0,-0.0126984134316,teleoperation
1449616890561010294,286,1449616890535096716,base_footprint,0.31288889122,0.0,0.0,0.0,0.0,-0.0126984134316,teleoperation
1449616890609100978,287,1449616890558770413,base_footprint,0.31288889122,0.0,0.0,0.0,0.0,-0.0126984134316,teleoperation
1449616890681966613,288,1449616890608542908,base_footprint,0.31288889122,0.0,0.0,0.0,0.0,-0.0126984134316,teleoperation
1449616890701951178,289,1449616890681789622,base_footprint,0.346412698746,0.0,0.0,0.0,0.0,-0.0190476194024,teleoperation
1449616890763017968,290,1449616890715186494,base_footprint,0.346412698746,0.0,0.0,0.0,0.0,-0.0190476194024,teleoperation
1449616890792379559,291,1449616890762514576,base_footprint,0.296126987457,0.0,0.0,0.0,0.0,-0.0126984134316,teleoperation
1449616890804880148,292,1449616890792096388,base_footprint,0.296126987457,0.0,0.0,0.0,0.0,-0.0126984134316,teleoperation
1449616890848213237,293,1449616890815190324,base_footprint,0.296126987457,0.0,0.0,0.0,0.0,-0.0126984134316,teleoperation
1449616890885068231,294,1449616890848590514,base_footprint,0.346412698746,0.0,0.0,0.0,0.0,-0.0126984134316,teleoperation
1449616890946513680,295,1449616890884370301,base_footprint,0.346412698746,0.0,0.0,0.0,0.0,-0.0126984134316,teleoperation
1449616891037857167,296,1449616890919058747,base_footprint,0.346412698746,0.0,0.0,0.0,0.0,-0.0126984134316,teleoperation
1449616891071705391,297,1449616891037620134,base_footprint,0.340825397491,0.0,0.0,0.0,0.0,-0.0126984134316,teleoperation
1449616891118230479,298,1449616891071494949,base_footprint,0.340825397491,0.0,0.0,0.0,0.0,-0.0126984134316,teleoperation
1449616891153905721,299,1449616891117532574,base_footprint,0.340825397491,0.0,0.0,0.0,0.0,-0.0126984134316,teleoperation
1449616891248881177,300,1449616891152595464,base_footprint,0.0670476202965,0.0,0.0,0.0,0.0,0.00634920671582,teleoperation
1449616891262275049,301,1449616891248087000,base_footprint,0.0167619050741,0.0,0.0,0.0,0.0,0.0126984134316,teleoperation
1449616891297659566,302,1449616891281479974,base_footprint,0.0167619050741,0.0,0.0,0.0,0.0,0.0126984134316,teleoperation
1449616891352164832,303,1449616891314809946,base_footprint,0.0167619050741,0.0,0.0,0.0,0.0,0.0126984134316,teleoperation
1449616891421042962,304,1449616891350008749,base_footprint,0.00558730190992,0.0,0.0,0.0,0.0,0.00634920671582,teleoperation
1449616891436381557,305,1449616891420712355,base_footprint,0.00558730190992,0.0,0.0,0.0,0.0,0.00634920671582,teleoperation
1449616891505991478,306,1449616891454106483,base_footprint,0.00558730190992,0.0,0.0,0.0,0.0,0.00634920671582,teleoperation
1449616891520712336,307,1449616891504572606,base_footprint,0.00558730190992,0.0,0.0,0.0,0.0,0.00634920671582,teleoperation
1449616891544260929,308,1449616891520779222,base_footprint,0.00558730190992,0.0,0.0,0.0,0.0,0.00634920671582,teleoperation
1449616891573605549,309,1449616891554110983,base_footprint,-0.0,0.0,0.0,0.0,0.0,-0.0,teleoperation
1449616891609405915,310,1449616891587886304,base_footprint,-0.0,0.0,0.0,0.0,0.0,-0.0,teleoperation
1449616891649616830,311,1449616891620777144,base_footprint,-0.0,0.0,0.0,0.0,0.0,-0.0,teleoperation
1449616891688885231,312,1449616891654108453,base_footprint,-0.0,0.0,0.0,0.0,0.0,-0.0,teleoperation
1449616891729049419,313,1449616891688369518,base_footprint,-0.0,0.0,0.0,0.0,0.0,-0.0,teleoperation
1449616891769081419,314,1449616891728669495,base_footprint,-0.0,0.0,0.0,0.0,0.0,-0.0,teleoperation
1449616891808936901,315,1449616891768268526,base_footprint,-0.0,0.0,0.0,0.0,0.0,-0.0,teleoperation
1449616891848586763,316,1449616891808517954,base_footprint,-0.0,0.0,0.0,0.0,0.0,-0.0,teleoperation
1449616891888311817,317,1449616891848189254,base_footprint,-0.0,0.0,0.0,0.0,0.0,-0.0,teleoperation
1449616891929414747,318,1449616891887980059,base_footprint,-0.0,0.0,0.0,0.0,0.0,-0.0,teleoperation
1449616891969874230,319,1449616891928546539,base_footprint,-0.0,0.0,0.0,0.0,0.0,-0.0,teleoperation
1449616892019350753,320,1449616891968583603,base_footprint,-0.0,0.0,0.0,0.0,0.0,-0.0,teleoperation
1449616892048451152,321,1449616892008710761,base_footprint,-0.0,0.0,0.0,0.0,0.0,-0.0,teleoperation
1449616892090573542,322,1449616892048084487,base_footprint,-0.0,0.0,0.0,0.0,0.0,-0.0,teleoperation
1449616892129132152,323,1449616892087994266,base_footprint,-0.0,0.0,0.0,0.0,0.0,-0.0,teleoperation
1449616892169714722,324,1449616892128405288,base_footprint,-0.0,0.0,0.0,0.0,0.0,-0.0,teleoperation
1449616892208872828,325,1449616892168470230,base_footprint,-0.0,0.0,0.0,0.0,0.0,-0.0,teleoperation
1449616892249618296,326,1449616892208418718,base_footprint,-0.0,0.0,0.0,0.0,0.0,-0.0,teleoperation
1449616892292514106,327,1449616892248943364,base_footprint,-0.0,0.0,0.0,0.0,0.0,-0.0,teleoperation
1449616892337851639,328,1449616892290185270,base_footprint,-0.0,0.0,0.0,0.0,0.0,-0.0,teleoperation
1449616892369133260,329,1449616892328119578,base_footprint,-0.0,0.0,0.0,0.0,0.0,-0.0,teleoperation
1449616892409199287,330,1449616892368404023,base_footprint,-0.0,0.0,0.0,0.0,0.0,-0.0,teleoperation
1449616892450945631,331,1449616892408615899,base_footprint,-0.0,0.0,0.0,0.0,0.0,-0.0,teleoperation
1449616892490177381,332,1449616892448511064,base_footprint,-0.0,0.0,0.0,0.0,0.0,-0.0,teleoperation
1449616892530191999,333,1449616892488382093,base_footprint,-0.0,0.0,0.0,0.0,0.0,-0.0,teleoperation
1449616892569918095,334,1449616892529407290,base_footprint,-0.0,0.0,0.0,0.0,0.0,-0.0,teleoperation
1449616892608653866,335,1449616892569404348,base_footprint,-0.0,0.0,0.0,0.0,0.0,-0.0,teleoperation
1449616892649655731,336,1449616892608275479,base_footprint,-0.0,0.0,0.0,0.0,0.0,-0.0,teleoperation
1449616892689001611,337,1449616892648806953,base_footprint,-0.0,0.0,0.0,0.0,0.0,-0.0,teleoperation
1449616892732586365,338,1449616892688364966,base_footprint,-0.0,0.0,0.0,0.0,0.0,-0.0,teleoperation
1449616892769534116,339,1449616892727991532,base_footprint,-0.0,0.0,0.0,0.0,0.0,-0.0,teleoperation
1449616892809086919,340,1449616892769077774,base_footprint,-0.0,0.0,0.0,0.0,0.0,-0.0,teleoperation
1449616892848633647,341,1449616892808735108,base_footprint,-0.0,0.0,0.0,0.0,0.0,-0.0,teleoperation
1449616892889336519,342,1449616892848246040,base_footprint,-0.0,0.0,0.0,0.0,0.0,-0.0,teleoperation
1449616892928785696,343,1449616892888916428,base_footprint,-0.0,0.0,0.0,0.0,0.0,-0.0,teleoperation
1449616892968721547,344,1449616892928316290,base_footprint,-0.0,0.0,0.0,0.0,0.0,-0.0,teleoperation
1449616893009293890,345,1449616892968314126,base_footprint,-0.0,0.0,0.0,0.0,0.0,-0.0,teleoperation
1449616893049033100,346,1449616893008983943,base_footprint,-0.0,0.0,0.0,0.0,0.0,-0.0,teleoperation
1449616893094607289,347,1449616893048418560,base_footprint,-0.0,0.0,0.0,0.0,0.0,-0.0,teleoperation
1449616893128669541,348,1449616893093861619,base_footprint,-0.0,0.0,0.0,0.0,0.0,-0.0,teleoperation
1449616893169247010,349,1449616893127925631,base_footprint,-0.0,0.0,0.0,0.0,0.0,-0.0,teleoperation
1449616893209160702,350,1449616893168021684,base_footprint,-0.0,0.0,0.0,0.0,0.0,-0.0,teleoperation
1449616893248696600,351,1449616893208773537,base_footprint,-0.0,0.0,0.0,0.0,0.0,-0.0,teleoperation
1449616893292031318,352,1449616893248363824,base_footprint,-0.0,0.0,0.0,0.0,0.0,-0.0,teleoperation
1449616893328246382,353,1449616893291384554,base_footprint,-0.0,0.0,0.0,0.0,0.0,-0.0,teleoperation
1449616893369850717,354,1449616893328130026,base_footprint,-0.0,0.0,0.0,0.0,0.0,-0.0,teleoperation
1449616893409428456,355,1449616893369069184,base_footprint,-0.0,0.0,0.0,0.0,0.0,-0.0,teleoperation
1449616893448461125,356,1449616893408986437,base_footprint,-0.0,0.0,0.0,0.0,0.0,-0.0,teleoperation
1449616893488705151,357,1449616893448205326,base_footprint,-0.0,0.0,0.0,0.0,0.0,-0.0,teleoperation
1449616893528557858,358,1449616893488222749,base_footprint,-0.0,0.0,0.0,0.0,0.0,-0.0,teleoperation
1449616893570444900,359,1449616893527986919,base_footprint,-0.0,0.0,0.0,0.0,0.0,-0.0,teleoperation
1449616893611066229,360,1449616893568796209,base_footprint,-0.0,0.0,0.0,0.0,0.0,-0.0,teleoperation
1449616893649035871,361,1449616893610727983,base_footprint,-0.0,0.0,0.0,0.0,0.0,-0.0,teleoperation
1449616893689299413,362,1449616893647987117,base_footprint,-0.0,0.0,0.0,0.0,0.0,-0.0,teleoperation
1449616893728800219,363,1449616893688456264,base_footprint,-0.0,0.0,0.0,0.0,0.0,-0.0,teleoperation
1449616893768500428,364,1449616893728149107,base_footprint,-0.0,0.0,0.0,0.0,0.0,-0.0,teleoperation
1449616893810220997,365,1449616893768254058,base_footprint,-0.0,0.0,0.0,0.0,0.0,-0.0,teleoperation
1449616893851845744,366,1449616893808192396,base_footprint,-0.0,0.0,0.0,0.0,0.0,-0.0,teleoperation
1449616893888975545,367,1449616893851367871,base_footprint,-0.0,0.0,0.0,0.0,0.0,0.00634920671582,teleoperation
1449616893967007598,368,1449616893888293967,base_footprint,-0.0,0.0,0.0,0.0,0.0,0.00634920671582,teleoperation
1449616893985435470,369,1449616893966380422,base_footprint,-0.0,0.0,0.0,0.0,0.0,0.0317460328341,teleoperation
1449616894021991864,370,1449616894000196473,base_footprint,-0.0,0.0,0.0,0.0,0.0,0.0317460328341,teleoperation
1449616894055734703,371,1449616894033691294,base_footprint,-0.0,0.0,0.0,0.0,0.0,0.0317460328341,teleoperation
1449616894095440684,372,1449616894067714802,base_footprint,-0.00558730190992,0.0,0.0,0.0,0.0,0.209523820877,teleoperation
1449616894175768936,373,1449616894099772402,base_footprint,-0.00558730190992,0.0,0.0,0.0,0.0,0.209523820877,teleoperation
1449616894199227901,374,1449616894175146698,base_footprint,-0.0,0.0,0.0,0.0,0.0,0.393650794029,teleoperation
1449616894292841484,375,1449616894208543888,base_footprint,-0.0,0.0,0.0,0.0,0.0,0.393650794029,teleoperation
1449616894326141007,376,1449616894292374431,base_footprint,-0.00558730190992,0.0,0.0,0.0,0.0,0.393650794029,teleoperation
1449616894359481968,377,1449616894325936498,base_footprint,-0.00558730190992,0.0,0.0,0.0,0.0,0.393650794029,teleoperation
1449616894465205496,378,1449616894359260093,base_footprint,-0.0,0.0,0.0,0.0,0.0,0.387301588058,teleoperation
1449616894488355289,379,1449616894464919138,base_footprint,-0.0,0.0,0.0,0.0,0.0,0.393650794029,teleoperation
1449616894571534546,380,1449616894498337893,base_footprint,-0.0,0.0,0.0,0.0,0.0,0.393650794029,teleoperation
1449616894609848527,381,1449616894569958940,base_footprint,-0.0,0.0,0.0,0.0,0.0,0.393650794029,teleoperation
1449616894657812070,382,1449616894608751431,base_footprint,-0.0,0.0,0.0,0.0,0.0,0.393650794029,teleoperation
1449616894727154182,383,1449616894657131690,base_footprint,-0.00558730190992,0.0,0.0,0.0,0.0,0.393650794029,teleoperation
1449616894751483712,384,1449616894726495793,base_footprint,-0.00558730190992,0.0,0.0,0.0,0.0,0.393650794029,teleoperation
1449616894819654009,385,1449616894759887084,base_footprint,-0.00558730190992,0.0,0.0,0.0,0.0,0.393650794029,teleoperation
1449616894881875665,386,1449616894819269431,base_footprint,-0.00558730190992,0.0,0.0,0.0,0.0,0.393650794029,teleoperation
1449616894922983974,387,1449616894880905979,base_footprint,-0.00558730190992,0.0,0.0,0.0,0.0,0.393650794029,teleoperation
1449616894967466466,388,1449616894922763073,base_footprint,-0.00558730190992,0.0,0.0,0.0,0.0,0.393650794029,teleoperation
1449616895026055481,389,1449616894962670767,base_footprint,-0.00558730190992,0.0,0.0,0.0,0.0,0.393650794029,teleoperation
1449616895074241150,390,1449616895025398057,base_footprint,-0.00558730190992,0.0,0.0,0.0,0.0,0.393650794029,teleoperation
1449616895125691776,391,1449616895069954972,base_footprint,-0.00558730190992,0.0,0.0,0.0,0.0,0.393650794029,teleoperation
1449616895196805044,392,1449616895125386126,base_footprint,-0.00558730190992,0.0,0.0,0.0,0.0,0.393650794029,teleoperation
1449616895238666760,393,1449616895196376243,base_footprint,-0.00558730190992,0.0,0.0,0.0,0.0,0.393650794029,teleoperation
1449616895267514841,394,1449616895233618167,base_footprint,-0.00558730190992,0.0,0.0,0.0,0.0,0.393650794029,teleoperation
1449616895328039252,395,1449616895266592414,base_footprint,-0.00558730190992,0.0,0.0,0.0,0.0,0.393650794029,teleoperation
1449616895437687798,396,1449616895327845094,base_footprint,-0.00558730190992,0.0,0.0,0.0,0.0,0.349206352234,teleoperation
1449616895515470459,397,1449616895437071795,base_footprint,-0.00558730190992,0.0,0.0,0.0,0.0,0.393650794029,teleoperation
1449616895636389735,398,1449616895512611887,base_footprint,-0.00558730190992,0.0,0.0,0.0,0.0,0.393650794029,teleoperation
1449616895686724989,399,1449616895635625551,base_footprint,-0.00558730190992,0.0,0.0,0.0,0.0,0.393650794029,teleoperation
1449616895790979741,400,1449616895685357178,base_footprint,-0.00558730190992,0.0,0.0,0.0,0.0,0.393650794029,teleoperation
1449616895856871440,401,1449616895790315346,base_footprint,-0.00558730190992,0.0,0.0,0.0,0.0,0.361904764175,teleoperation
1449616895891401643,402,1449616895856434862,base_footprint,-0.0,0.0,0.0,0.0,0.0,0.393650794029,teleoperation
1449616895950761586,403,1449616895890435044,base_footprint,-0.0,0.0,0.0,0.0,0.0,0.393650794029,teleoperation
1449616896035778315,404,1449616895948241307,base_footprint,-0.00558730190992,0.0,0.0,0.0,0.0,0.393650794029,teleoperation
1449616896070067995,405,1449616896033674593,base_footprint,-0.0,0.0,0.0,0.0,0.0,0.393650794029,teleoperation
1449616896095685024,406,1449616896069246777,base_footprint,-0.0,0.0,0.0,0.0,0.0,0.393650794029,teleoperation
1449616896131273725,407,1449616896100414175,base_footprint,-0.0,0.0,0.0,0.0,0.0,0.393650794029,teleoperation
1449616896229652803,408,1449616896133854737,base_footprint,-0.00558730190992,0.0,0.0,0.0,0.0,0.387301588058,teleoperation
1449616896254630761,409,1449616896226478415,base_footprint,-0.00558730190992,0.0,0.0,0.0,0.0,0.387301588058,teleoperation
1449616896284515545,410,1449616896261244055,base_footprint,-0.00558730190992,0.0,0.0,0.0,0.0,0.393650794029,teleoperation
1449616896313399413,411,1449616896294172253,base_footprint,-0.00558730190992,0.0,0.0,0.0,0.0,0.393650794029,teleoperation
1449616896383163051,412,1449616896326549154,base_footprint,-0.00558730190992,0.0,0.0,0.0,0.0,0.393650794029,teleoperation
1449616896414277154,413,1449616896382870767,base_footprint,-0.00558730190992,0.0,0.0,0.0,0.0,0.393650794029,teleoperation
1449616896447533972,414,1449616896413433320,base_footprint,-0.00558730190992,0.0,0.0,0.0,0.0,0.393650794029,teleoperation
1449616896483822221,415,1449616896446826113,base_footprint,-0.00558730190992,0.0,0.0,0.0,0.0,0.387301588058,teleoperation
1449616896516682553,416,1449616896483469341,base_footprint,-0.00558730190992,0.0,0.0,0.0,0.0,0.387301588058,teleoperation
1449616896546640880,417,1449616896516255316,base_footprint,-0.00558730190992,0.0,0.0,0.0,0.0,0.387301588058,teleoperation
1449616896593055238,418,1449616896545877712,base_footprint,-0.00558730190992,0.0,0.0,0.0,0.0,0.387301588058,teleoperation
1449616896654920444,419,1449616896592190667,base_footprint,-0.00558730190992,0.0,0.0,0.0,0.0,0.387301588058,teleoperation
1449616896741366903,420,1449616896653835636,base_footprint,-0.00558730190992,0.0,0.0,0.0,0.0,0.387301588058,teleoperation
1449616896780084072,421,1449616896740453037,base_footprint,-0.0,0.0,0.0,0.0,0.0,0.393650794029,teleoperation
1449616896942588997,422,1449616896778715058,base_footprint,-0.0,0.0,0.0,0.0,0.0,0.393650794029,teleoperation
1449616896961510818,423,1449616896937367858,base_footprint,-0.00558730190992,0.0,0.0,0.0,0.0,0.393650794029,teleoperation
1449616897070101298,424,1449616896970760212,base_footprint,-0.00558730190992,0.0,0.0,0.0,0.0,0.393650794029,teleoperation
1449616897132814306,425,1449616897069618253,base_footprint,-0.00558730190992,0.0,0.0,0.0,0.0,0.393650794029,teleoperation
1449616897177232547,426,1449616897130202082,base_footprint,-0.00558730190992,0.0,0.0,0.0,0.0,0.393650794029,teleoperation
1449616897252194900,427,1449616897176091870,base_footprint,-0.00558730190992,0.0,0.0,0.0,0.0,0.393650794029,teleoperation
1449616897274571819,428,1449616897251140703,base_footprint,-0.00558730190992,0.0,0.0,0.0,0.0,0.393650794029,teleoperation
1449616897326463321,429,1449616897284535822,base_footprint,-0.00558730190992,0.0,0.0,0.0,0.0,0.393650794029,teleoperation
1449616897365560755,430,1449616897324827097,base_footprint,-0.00558730190992,0.0,0.0,0.0,0.0,0.393650794029,teleoperation
1449616897425959397,431,1449616897364946084,base_footprint,-0.00558730190992,0.0,0.0,0.0,0.0,0.393650794029,teleoperation
1449616897548068630,432,1449616897423870738,base_footprint,-0.00558730190992,0.0,0.0,0.0,0.0,0.393650794029,teleoperation
1449616897657162741,433,1449616897546979163,base_footprint,-0.00558730190992,0.0,0.0,0.0,0.0,0.393650794029,teleoperation
1449616897691980584,434,1449616897656085583,base_footprint,-0.00558730190992,0.0,0.0,0.0,0.0,0.393650794029,teleoperation
1449616897768372079,435,1449616897691744740,base_footprint,-0.00558730190992,0.0,0.0,0.0,0.0,0.393650794029,teleoperation
1449616897801273414,436,1449616897767484285,base_footprint,-0.00558730190992,0.0,0.0,0.0,0.0,0.393650794029,teleoperation
1449616897871908615,437,1449616897800954658,base_footprint,-0.00558730190992,0.0,0.0,0.0,0.0,0.393650794029,teleoperation
1449616898015581864,438,1449616897870808009,base_footprint,-0.00558730190992,0.0,0.0,0.0,0.0,0.393650794029,teleoperation
1449616898065635838,439,1449616898015207610,base_footprint,-0.0,0.0,0.0,0.0,0.0,0.393650794029,teleoperation
1449616898147718087,440,1449616898065184527,base_footprint,-0.00558730190992,0.0,0.0,0.0,0.0,0.349206352234,teleoperation
1449616898189128676,441,1449616898147217133,base_footprint,-0.00558730190992,0.0,0.0,0.0,0.0,0.393650794029,teleoperation
1449616898227465436,442,1449616898186996907,base_footprint,-0.00558730190992,0.0,0.0,0.0,0.0,0.393650794029,teleoperation
1449616898297353361,443,1449616898226330310,base_footprint,-0.00558730190992,0.0,0.0,0.0,0.0,0.393650794029,teleoperation
1449616898348110256,444,1449616898296327336,base_footprint,-0.00558730190992,0.0,0.0,0.0,0.0,0.393650794029,teleoperation
1449616898372793459,445,1449616898347772490,base_footprint,-0.00558730190992,0.0,0.0,0.0,0.0,0.393650794029,teleoperation
1449616898435958522,446,1449616898371062488,base_footprint,-0.00558730190992,0.0,0.0,0.0,0.0,0.393650794029,teleoperation
1449616898484665545,447,1449616898434496172,base_footprint,-0.0,0.0,0.0,0.0,0.0,0.393650794029,teleoperation
1449616898546194412,448,1449616898484506819,base_footprint,-0.0,0.0,0.0,0.0,0.0,0.393650794029,teleoperation
1449616898622685295,449,1449616898545378693,base_footprint,-0.00558730190992,0.0,0.0,0.0,0.0,0.393650794029,teleoperation
1449616898699606774,450,1449616898622119077,base_footprint,-0.00558730190992,0.0,0.0,0.0,0.0,0.393650794029,teleoperation
1449616898748176278,451,1449616898699013339,base_footprint,-0.00558730190992,0.0,0.0,0.0,0.0,0.393650794029,teleoperation
1449616898829657996,452,1449616898747580010,base_footprint,-0.00558730190992,0.0,0.0,0.0,0.0,0.387301588058,teleoperation
1449616898870505783,453,1449616898829013556,base_footprint,-0.00558730190992,0.0,0.0,0.0,0.0,0.393650794029,teleoperation
1449616898967456709,454,1449616898866766384,base_footprint,-0.00558730190992,0.0,0.0,0.0,0.0,0.393650794029,teleoperation
1449616899012159089,455,1449616898966612251,base_footprint,-0.00558730190992,0.0,0.0,0.0,0.0,0.393650794029,teleoperation
1449616899098160073,456,1449616899011744697,base_footprint,-0.00558730190992,0.0,0.0,0.0,0.0,0.393650794029,teleoperation
1449616899151001932,457,1449616899094158298,base_footprint,-0.00558730190992,0.0,0.0,0.0,0.0,0.393650794029,teleoperation
1449616899245413246,458,1449616899149437555,base_footprint,-0.0,0.0,0.0,0.0,0.0,0.393650794029,teleoperation
1449616899336516021,459,1449616899244677118,base_footprint,-0.0,0.0,0.0,0.0,0.0,0.393650794029,teleoperation
1449616899467873602,460,1449616899336323669,base_footprint,-0.00558730190992,0.0,0.0,0.0,0.0,0.393650794029,teleoperation
1449616899512964189,461,1449616899464813722,base_footprint,-0.00558730190992,0.0,0.0,0.0,0.0,0.393650794029,teleoperation
1449616899606550322,462,1449616899511343968,base_footprint,-0.00558730190992,0.0,0.0,0.0,0.0,0.393650794029,teleoperation
1449616899666028126,463,1449616899606147284,base_footprint,-0.00558730190992,0.0,0.0,0.0,0.0,0.349206352234,teleoperation
1449616899695719917,464,1449616899663015194,base_footprint,-0.00558730190992,0.0,0.0,0.0,0.0,0.0253968268633,teleoperation
1449616899747774195,465,1449616899692992629,base_footprint,-0.00558730190992,0.0,0.0,0.0,0.0,0.0253968268633,teleoperation
1449616899754511804,466,1449616899747114624,base_footprint,-0.00558730190992,0.0,0.0,0.0,0.0,0.0317460328341,teleoperation
1449616899797640244,467,1449616899780772215,base_footprint,-0.00558730190992,0.0,0.0,0.0,0.0,0.0317460328341,teleoperation
1449616899862289048,468,1449616899816122218,base_footprint,-0.00558730190992,0.0,0.0,0.0,0.0,0.0317460328341,teleoperation
1449616899895900721,469,1449616899862139102,base_footprint,-0.0,0.0,0.0,0.0,0.0,-0.0,teleoperation
1449616899927384703,470,1449616899895033817,base_footprint,-0.0,0.0,0.0,0.0,0.0,-0.0,teleoperation
1449616899966951829,471,1449616899927072637,base_footprint,-0.0,0.0,0.0,0.0,0.0,-0.0,teleoperation
1449616900007165516,472,1449616899966199587,base_footprint,-0.0,0.0,0.0,0.0,0.0,-0.0,teleoperation
1449616900055074119,473,1449616900006621456,base_footprint,-0.0,0.0,0.0,0.0,0.0,-0.0,teleoperation
1449616900087693315,474,1449616900051344440,base_footprint,-0.0,0.0,0.0,0.0,0.0,-0.0,teleoperation
1449616900126888372,475,1449616900087192602,base_footprint,-0.0,0.0,0.0,0.0,0.0,-0.0,teleoperation
1449616900166717205,476,1449616900126324583,base_footprint,-0.0,0.0,0.0,0.0,0.0,-0.0,teleoperation
1449616900206939625,477,1449616900166186024,base_footprint,-0.0,0.0,0.0,0.0,0.0,-0.0,teleoperation
1449616900247744124,478,1449616900206441379,base_footprint,-0.0,0.0,0.0,0.0,0.0,-0.0,teleoperation
1449616900286768815,479,1449616900246727516,base_footprint,-0.0,0.0,0.0,0.0,0.0,-0.0,teleoperation
1449616900326656775,480,1449616900286444478,base_footprint,-0.0,0.0,0.0,0.0,0.0,-0.0,teleoperation
1449616900366809158,481,1449616900326207572,base_footprint,-0.0,0.0,0.0,0.0,0.0,-0.0,teleoperation
1449616900407270089,482,1449616900366402764,base_footprint,-0.0,0.0,0.0,0.0,0.0,-0.0,teleoperation
1449616900451180459,483,1449616900406274922,base_footprint,-0.0,0.0,0.0,0.0,0.0,-0.0,teleoperation
1449616900488780867,484,1449616900450947016,base_footprint,-0.0,0.0,0.0,0.0,0.0,-0.0,teleoperation
1449616900527232792,485,1449616900487314560,base_footprint,-0.0,0.0,0.0,0.0,0.0,-0.0,teleoperation
1449616900567528534,486,1449616900526543760,base_footprint,-0.0,0.0,0.0,0.0,0.0,-0.0,teleoperation
1449616900606649599,487,1449616900566753216,base_footprint,-0.0,0.0,0.0,0.0,0.0,-0.0,teleoperation
1449616900647288259,488,1449616900606196320,base_footprint,-0.0,0.0,0.0,0.0,0.0,-0.0,teleoperation
1449616900690191730,489,1449616900646608125,base_footprint,-0.0,0.0,0.0,0.0,0.0,-0.0,teleoperation
1449616900727246045,490,1449616900688723629,base_footprint,-0.0,0.0,0.0,0.0,0.0,-0.0,teleoperation
1449616900767360417,491,1449616900726358310,base_footprint,-0.0,0.0,0.0,0.0,0.0,-0.0,teleoperation
1449616900807759635,492,1449616900766403463,base_footprint,-0.0,0.0,0.0,0.0,0.0,-0.0,teleoperation
1449616900847297268,493,1449616900807091743,base_footprint,-0.0,0.0,0.0,0.0,0.0,-0.0,teleoperation
1449616900888893385,494,1449616900846079403,base_footprint,-0.0,0.0,0.0,0.0,0.0,-0.0,teleoperation
1449616900927343217,495,1449616900888351268,base_footprint,-0.0,0.0,0.0,0.0,0.0,-0.0,teleoperation
1449616900967547027,496,1449616900927084323,base_footprint,-0.0,0.0,0.0,0.0,0.0,-0.0,teleoperation
1449616901019123385,497,1449616900967303806,base_footprint,-0.0,0.0,0.0,0.0,0.0,-0.0,teleoperation
1449616901053920527,498,1449616901012077643,base_footprint,-0.0,0.0,0.0,0.0,0.0,-0.0,teleoperation
1449616901086626446,499,1449616901046640580,base_footprint,-0.0,0.0,0.0,0.0,0.0,-0.0,teleoperation
1449616901128441222,500,1449616901086454435,base_footprint,-0.0,0.0,0.0,0.0,0.0,-0.0,teleoperation
1449616901167925817,501,1449616901127756616,base_footprint,-0.0,0.0,0.0,0.0,0.0,-0.0,teleoperation
1449616901209379526,502,1449616901166639421,base_footprint,-0.0,0.0,0.0,0.0,0.0,-0.0,teleoperation
1449616901248632227,503,1449616901206537551,base_footprint,-0.0,0.0,0.0,0.0,0.0,-0.0,teleoperation
1449616901286662204,504,1449616901247885719,base_footprint,-0.0,0.0,0.0,0.0,0.0,-0.0,teleoperation
1449616901338355769,505,1449616901286331104,base_footprint,-0.0,0.0,0.0,0.0,0.0,-0.0,teleoperation
1449616901366307717,506,1449616901328167194,base_footprint,-0.0,0.0,0.0,0.0,0.0,-0.0,teleoperation
1449616901407013702,507,1449616901366185782,base_footprint,-0.0,0.0,0.0,0.0,0.0,-0.0,teleoperation
1449616901447710510,508,1449616901406737404,base_footprint,-0.0,0.0,0.0,0.0,0.0,-0.0,teleoperation
1449616901488461288,509,1449616901446946864,base_footprint,-0.0,0.0,0.0,0.0,0.0,-0.0,teleoperation
1449616901529038395,510,1449616901487760548,base_footprint,-0.0,0.0,0.0,0.0,0.0,-0.0,teleoperation
1449616901567543688,511,1449616901527448843,base_footprint,-0.0,0.0,0.0,0.0,0.0,-0.0,teleoperation
1449616901607260028,512,1449616901567096446,base_footprint,-0.0,0.0,0.0,0.0,0.0,-0.0,teleoperation
1449616901649236794,513,1449616901606700290,base_footprint,-0.0,0.0,0.0,0.0,0.0,-0.0,teleoperation
1449616901686852549,514,1449616901647883045,base_footprint,-0.0,0.0,0.0,0.0,0.0,-0.0,teleoperation
1449616901728045602,515,1449616901686459257,base_footprint,-0.0,0.0,0.0,0.0,0.0,-0.0,teleoperation
1449616901767020115,516,1449616901727257618,base_footprint,-0.0,0.0,0.0,0.0,0.0,-0.0,teleoperation
1449616901807178435,517,1449616901766326407,base_footprint,-0.0,0.0,0.0,0.0,0.0,-0.0,teleoperation
1449616901850780778,518,1449616901806654039,base_footprint,-0.0,0.0,0.0,0.0,0.0,-0.0,teleoperation
1449616901886576220,519,1449616901849449782,base_footprint,-0.0,0.0,0.0,0.0,0.0,-0.0,teleoperation
1449616901926588037,520,1449616901886219776,base_footprint,-0.0,0.0,0.0,0.0,0.0,-0.0,teleoperation
1449616901971920024,521,1449616901926211701,base_footprint,-0.0,0.0,0.0,0.0,0.0,-0.0,teleoperation
1449616902006860109,522,1449616901967947084,base_footprint,-0.0,0.0,0.0,0.0,0.0,-0.00634920671582,teleoperation
1449616902076628069,523,1449616902006027962,base_footprint,-0.0,0.0,0.0,0.0,0.0,-0.00634920671582,teleoperation
1449616902109312314,524,1449616902076103763,base_footprint,-0.0,0.0,0.0,0.0,0.0,-0.393650794029,teleoperation
1449616902176355709,525,1449616902109493925,base_footprint,-0.0,0.0,0.0,0.0,0.0,-0.393650794029,teleoperation
1449616902187291582,526,1449616902173723678,base_footprint,-0.0,0.0,0.0,0.0,0.0,-0.393650794029,teleoperation
1449616902223698582,527,1449616902186878731,base_footprint,-0.0,0.0,0.0,0.0,0.0,-0.393650794029,teleoperation
1449616902255911808,528,1449616902223369094,base_footprint,-0.0,0.0,0.0,0.0,0.0,-0.393650794029,teleoperation
1449616902330239578,529,1449616902254994376,base_footprint,-0.0,0.0,0.0,0.0,0.0,-0.393650794029,teleoperation
1449616902353902012,530,1449616902330092429,base_footprint,-0.0,0.0,0.0,0.0,0.0,-0.393650794029,teleoperation
1449616902376074423,531,1449616902363496953,base_footprint,-0.0,0.0,0.0,0.0,0.0,-0.393650794029,teleoperation
1449616902423305861,532,1449616902396833597,base_footprint,-0.0,0.0,0.0,0.0,0.0,-0.393650794029,teleoperation
1449616902454266706,533,1449616902433205963,base_footprint,-0.0,0.0,0.0,0.0,0.0,-0.393650794029,teleoperation
1449616902507991437,534,1449616902463490864,base_footprint,-0.0,0.0,0.0,0.0,0.0,-0.393650794029,teleoperation
1449616902532540909,535,1449616902507683790,base_footprint,-0.0,0.0,0.0,0.0,0.0,-0.393650794029,teleoperation
1449616902598438449,536,1449616902532227727,base_footprint,-0.0,0.0,0.0,0.0,0.0,-0.393650794029,teleoperation
1449616902613429117,537,1449616902597754338,base_footprint,-0.0,0.0,0.0,0.0,0.0,-0.393650794029,teleoperation
1449616902721949600,538,1449616902631149874,base_footprint,-0.0,0.0,0.0,0.0,0.0,-0.393650794029,teleoperation
1449616902733117656,539,1449616902715983433,base_footprint,-0.0,0.0,0.0,0.0,0.0,-0.393650794029,teleoperation
1449616902755657564,540,1449616902749379811,base_footprint,-0.0,0.0,0.0,0.0,0.0,-0.374603176117,teleoperation
1449616902807611558,541,1449616902782723153,base_footprint,-0.0,0.0,0.0,0.0,0.0,-0.374603176117,teleoperation
1449616902834524653,542,1449616902817387632,base_footprint,-0.0,0.0,0.0,0.0,0.0,-0.374603176117,teleoperation
1449616902918033907,543,1449616902849378637,base_footprint,-0.0,0.0,0.0,0.0,0.0,-0.393650794029,teleoperation
1449616902932099238,544,1449616902917841658,base_footprint,-0.0,0.0,0.0,0.0,0.0,-0.393650794029,teleoperation
1449616902978603296,545,1449616902951241085,base_footprint,-0.0,0.0,0.0,0.0,0.0,-0.355555558205,teleoperation
1449616903057444766,546,1449616902984861842,base_footprint,-0.0,0.0,0.0,0.0,0.0,-0.355555558205,teleoperation
1449616903149987020,547,1449616903056805546,base_footprint,-0.0,0.0,0.0,0.0,0.0,-0.387301588058,teleoperation
1449616903221032208,548,1449616903149367837,base_footprint,-0.0,0.0,0.0,0.0,0.0,-0.355555558205,teleoperation
1449616903272303754,549,1449616903220462467,base_footprint,-0.0,0.0,0.0,0.0,0.0,-0.355555558205,teleoperation
1449616903304151150,550,1449616903271694349,base_footprint,-0.0,0.0,0.0,0.0,0.0,-0.393650794029,teleoperation
1449616903330845690,551,1449616903302424120,base_footprint,-0.0,0.0,0.0,0.0,0.0,-0.393650794029,teleoperation
1449616903397204371,552,1449616903329680620,base_footprint,-0.0,0.0,0.0,0.0,0.0,-0.393650794029,teleoperation
1449616903402882377,553,1449616903392602596,base_footprint,-0.0,0.0,0.0,0.0,0.0,-0.393650794029,teleoperation
1449616903440730946,554,1449616903429617147,base_footprint,-0.0,0.0,0.0,0.0,0.0,-0.393650794029,teleoperation
1449616903508893034,555,1449616903459369912,base_footprint,-0.0,0.0,0.0,0.0,0.0,-0.393650794029,teleoperation
1449616903536434293,556,1449616903508316601,base_footprint,-0.0,0.0,0.0,0.0,0.0,-0.393650794029,teleoperation
1449616903599998418,557,1449616903535874419,base_footprint,-0.0,0.0,0.0,0.0,0.0,-0.393650794029,teleoperation
1449616903628041902,558,1449616903599736213,base_footprint,-0.0,0.0,0.0,0.0,0.0,-0.393650794029,teleoperation
1449616903644080877,559,1449616903633133182,base_footprint,-0.0,0.0,0.0,0.0,0.0,-0.393650794029,teleoperation
1449616903723818144,560,1449616903669619478,base_footprint,-0.0,0.0,0.0,0.0,0.0,-0.393650794029,teleoperation
1449616903751874735,561,1449616903723333529,base_footprint,-0.0,0.0,0.0,0.0,0.0,-0.393650794029,teleoperation
1449616903762058121,562,1449616903751135356,base_footprint,-0.0,0.0,0.0,0.0,0.0,-0.393650794029,teleoperation
1449616903806821939,563,1449616903766461124,base_footprint,-0.0,0.0,0.0,0.0,0.0,-0.393650794029,teleoperation
1449616903842142795,564,1449616903806523460,base_footprint,-0.0,0.0,0.0,0.0,0.0,-0.393650794029,teleoperation
1449616903921261868,565,1449616903841916799,base_footprint,-0.0,0.0,0.0,0.0,0.0,-0.393650794029,teleoperation
