%time,field.x,field.y,field.z
1449616877898361666,6.0,6.0,0.0
1449616877931735099,6.0,6.0,0.0
1449616877965087257,6.0,6.0,0.0
1449616877998386185,6.0,6.0,0.0
1449616878031787023,6.0,6.0,0.0
1449616878065057029,6.0,6.0,0.0
1449616878098369694,6.0,6.0,0.0
1449616878131781410,6.0,6.0,0.0
1449616878165088363,6.0,6.0,0.0
1449616878198433448,6.0,6.0,0.0
1449616878231754742,6.0,6.0,0.0
1449616878265027090,6.0,6.0,0.0
1449616878298371262,6.0,6.0,0.0
1449616878331728520,6.0,6.0,0.0
1449616878365095813,6.0,6.0,0.0
1449616878398370901,6.0,6.0,0.0
1449616878431717657,6.0,6.0,0.0
1449616878465159391,6.0,6.0,0.0
1449616878498470057,6.0,6.0,0.0
1449616878531745819,6.0,6.0,0.0
1449616878565040267,6.0,6.0,0.0
1449616878598356606,6.0,6.0,0.0
1449616878631734434,6.0,6.0,0.0
1449616878665059426,6.0,6.0,0.0
1449616878698352626,6.0,6.0,0.0
1449616878731792664,6.0,6.0,0.0
1449616878765077801,6.0,6.0,0.0
1449616878798475898,6.0,6.0,0.0
1449616878831741009,6.0,6.0,0.0
1449616878865015649,6.0,6.0,0.0
1449616878898387030,6.0,6.0,0.0
1449616878931727754,6.0,6.0,0.0
1449616878965021759,6.0,6.0,0.0
1449616878998345271,6.0,6.0,0.0
1449616879031774593,6.0,6.0,0.0
1449616879065110212,6.0,6.0,0.0
1449616879098408231,6.0,6.0,0.0
1449616879131758195,6.0,6.0,0.0
1449616879165078003,6.0,6.0,0.0
1449616879198370168,6.0,6.0,0.0
1449616879231784228,6.0,6.0,0.0
1449616879265087165,6.0,6.0,0.0
1449616879298433143,6.0,6.0,0.0
1449616879331670710,6.0,6.0,0.0
1449616879365154845,6.0,6.0,0.0
1449616879398469803,6.0,6.0,0.0
1449616879431724347,6.0,6.0,0.0
1449616879465053700,6.0,6.0,0.0
1449616879498443054,6.0,6.0,0.0
1449616879531728798,6.0,6.0,0.0
1449616879565077475,6.0,6.0,0.0
1449616879598457441,6.0,6.0,0.0
1449616879631765999,6.0,6.0,0.0
1449616879665105050,6.0,6.0,0.0
1449616879698426874,6.0,6.0,0.0
1449616879731788539,6.0,6.0,0.0
1449616879765064840,6.0,6.0,0.0
1449616879798461185,6.0,6.0,0.0
1449616879831690506,6.0,6.0,0.0
1449616879865102529,6.0,6.0,0.0
1449616879898455857,6.0,6.0,0.0
1449616879932009903,6.0,6.0,0.0
1449616879965031429,6.0,6.0,0.0
1449616879998356673,6.0,6.0,0.0
1449616880031755335,6.0,6.0,0.0
1449616880065097034,6.0,6.0,0.0
1449616880098374462,6.0,6.0,0.0
1449616880131754451,6.0,6.0,0.0
1449616880165010620,6.0,6.0,0.0
1449616880198382924,6.0,6.0,0.0
1449616880231985685,6.0,6.0,0.0
1449616880265011794,6.0,6.0,0.0
1449616880298381580,6.0,6.0,0.0
1449616880331809720,6.0,6.0,0.0
1449616880365050718,6.0,6.0,0.0
1449616880398348448,6.0,6.0,0.0
1449616880431684427,6.0,6.0,0.0
1449616880465015887,6.0,6.0,0.0
1449616880498371434,6.0,6.0,0.0
1449616880531705455,6.0,6.0,0.0
1449616880565074872,6.0,6.0,0.0
1449616880598382700,6.0,6.0,0.0
1449616880631698395,6.0,6.0,0.0
1449616880665029204,6.0,6.0,0.0
1449616880698326147,6.0,6.0,0.0
1449616880731714008,6.0,6.0,0.0
1449616880765086926,6.0,6.0,0.0
1449616880798342147,6.0,6.0,0.0
1449616880831740934,6.0,6.0,0.0
1449616880865003541,6.0,6.0,0.0
1449616880898331901,6.0,6.0,0.0
1449616880931715446,6.0,6.0,0.0
1449616880965080904,6.0,6.0,0.0
1449616880998384347,6.0,6.0,0.0
1449616881031716956,6.0,6.0,0.0
1449616881065025773,6.0,6.0,0.0
1449616881098368379,6.0,6.0,0.0
1449616881131682663,6.0,6.0,0.0
1449616881165052187,6.0,6.0,0.0
1449616881198355505,6.0,6.0,0.0
1449616881231687821,6.0,6.0,0.0
1449616881265007876,6.0,6.0,0.0
1449616881298373888,6.0,6.0,0.0
1449616881331700026,6.0,6.0,0.0
1449616881365042950,6.0,6.0,0.0
1449616881398415878,6.0,6.0,0.0
1449616881431722961,6.0,6.0,0.0
1449616881465216085,6.0,6.0,0.0
1449616881499078682,6.0,6.0,0.0
1449616881532217370,6.0,6.0,0.0
1449616881566365180,6.0,6.0,0.0
1449616881598367541,6.0,6.0,0.0
1449616881631777129,6.0,6.0,0.0
1449616881665785641,6.0,6.0,0.0
1449616881698471905,6.0,6.0,0.0
1449616881732911058,6.0,6.0,0.0
1449616881765011345,6.0,6.0,0.0
1449616881798611912,6.0,6.0,0.0
1449616881831745313,6.0,6.0,0.0
1449616881865492824,6.0,6.0,0.0
1449616881898696014,6.0,6.0,0.0
1449616881931968445,6.0,6.0,0.0
1449616881965258411,6.0,6.0,0.0
1449616881999103667,6.0,6.0,0.0
1449616882031851324,6.0,6.0,0.0
1449616882065271991,6.0,6.0,0.0
1449616882098747908,6.0,6.0,0.0
1449616882131789821,6.0,6.0,0.0
1449616882165361734,6.0,6.0,0.0
1449616882199980974,6.0,6.0,0.0
1449616882232086143,6.0,6.0,0.0
1449616882265334714,6.0,6.0,0.0
1449616882299688429,6.0,6.0,0.0
1449616882331958768,6.0,6.0,0.0
1449616882365452720,6.0,6.0,0.0
1449616882398885816,6.0,6.0,0.0
1449616882432236374,6.0,6.0,0.0
1449616882465307196,6.0,6.0,0.0
1449616882498890526,6.0,6.0,0.0
1449616882532270844,6.0,6.0,0.0
1449616882565167621,6.0,6.0,0.0
1449616882598555729,6.0,6.0,0.0
1449616882631941339,6.0,6.0,0.0
1449616882665302682,6.0,6.0,0.0
1449616882698716550,6.0,6.0,0.0
1449616882732922106,6.0,6.0,0.0
1449616882765169141,6.0,6.0,0.0
1449616882798408188,6.0,6.0,0.0
1449616882831985345,6.0,6.0,0.0
1449616882867025590,6.0,6.0,0.0
1449616882899553488,6.0,6.0,0.0
1449616882931877646,6.0,6.0,0.0
1449616882965173253,6.0,6.0,0.0
1449616882998740302,6.0,6.0,0.0
1449616883032276298,6.0,6.0,0.0
1449616883065314289,6.0,6.0,0.0
1449616883098583179,6.0,6.0,0.0
1449616883132360372,6.0,6.0,0.0
1449616883166688674,6.0,6.0,0.0
1449616883199118260,6.0,6.0,0.0
1449616883232452745,6.0,6.0,0.0
1449616883265364289,6.0,6.0,0.0
1449616883298798659,6.0,6.0,0.0
1449616883331778134,6.0,6.0,0.0
1449616883365420507,6.0,6.0,0.0
1449616883398923278,6.0,6.0,0.0
1449616883432047468,6.0,6.0,0.0
1449616883465601386,6.0,6.0,0.0
1449616883498806269,6.0,6.0,0.0
1449616883532978844,6.0,6.0,0.0
1449616883565375448,6.0,6.0,0.0
1449616883599056149,6.0,6.0,0.0
1449616883631899074,6.0,6.0,0.0
1449616883665318456,6.0,6.0,0.0
1449616883700121407,6.0,6.0,0.0
1449616883732206286,6.0,6.0,0.0
1449616883765393740,6.0,6.0,0.0
1449616883798764155,6.0,6.0,0.0
1449616883831779104,6.0,6.0,0.0
1449616883865350005,6.0,6.0,0.0
1449616883898558543,6.0,6.0,0.0
1449616883931920627,6.0,6.0,0.0
1449616883965515012,6.0,6.0,0.0
1449616883999363968,6.0,6.0,0.0
1449616884031833181,6.0,6.0,0.0
1449616884065700309,6.0,6.0,0.0
1449616884098663759,6.0,6.0,0.0
1449616884131961113,6.0,6.0,0.0
1449616884165182509,6.0,6.0,0.0
1449616884199209068,6.0,6.0,0.0
1449616884231945299,6.0,6.0,0.0
1449616884265641792,6.0,6.0,0.0
1449616884298462077,6.0,6.0,0.0
1449616884331783404,6.0,6.0,0.0
1449616884365302362,6.0,6.0,0.0
1449616884398689364,6.0,6.0,0.0
1449616884432145156,6.0,6.0,0.0
1449616884465446133,6.0,6.0,0.0
1449616884499213752,6.0,6.0,0.0
1449616884532049317,6.0,6.0,0.0
1449616884570097044,6.0,6.0,0.0
1449616884598555799,6.0,6.0,0.0
1449616884647366660,6.0,6.0,0.0
1449616884665415403,6.0,6.0,0.0
1449616884698654890,6.0,6.0,0.0
1449616884731698149,6.0,6.0,0.0
1449616884765318080,6.0,6.0,0.0
1449616884799930378,6.0,6.0,0.0
1449616884833080318,6.0,6.0,0.0
1449616884867243659,6.0,6.0,0.0
1449616884898531997,6.0,6.0,0.0
1449616884932143858,6.0,6.0,0.0
1449616884965061805,6.0,6.0,0.0
1449616884999802978,6.0,6.0,0.0
1449616885031827887,6.0,6.0,0.0
1449616885065213201,6.0,6.0,0.0
1449616885098472274,6.0,6.0,0.0
1449616885131739211,6.0,6.0,0.0
1449616885165183116,6.0,6.0,0.0
1449616885198537286,6.0,6.0,0.0
1449616885232548273,6.0,6.0,0.0
1449616885265228825,6.0,6.0,0.0
1449616885301699406,6.0,6.0,0.0
1449616885332691066,6.0,6.0,0.0
1449616885365506745,6.0,6.0,0.0
1449616885398756006,6.0,6.0,0.0
1449616885431839309,6.0,6.0,0.0
1449616885466421722,6.0,6.0,0.0
1449616885498700104,6.0,6.0,0.0
1449616885532172997,6.0,6.0,0.0
1449616885565699754,6.0,6.0,0.0
1449616885599852347,6.0,6.0,0.0
1449616885632016838,6.0,6.0,0.0
1449616885666236011,6.0,6.0,0.0
1449616885698562372,6.0,6.0,0.0
1449616885732235319,6.0,6.0,0.0
1449616885765659091,6.0,6.0,0.0
1449616885799581109,6.0,6.0,0.0
1449616885832350733,6.0,6.0,0.0
1449616885869779379,6.0,6.0,0.0
1449616885900393137,6.0,6.0,0.0
1449616885934076515,6.0,6.0,0.0
1449616885965768788,6.0,6.0,0.0
1449616885998717554,6.0,6.0,0.0
1449616886032111126,6.0,6.0,0.0
1449616886065702835,6.0,6.0,0.0
1449616886098587808,6.0,6.0,0.0
1449616886131909536,6.0,6.0,0.0
1449616886165242471,6.0,6.0,0.0
1449616886199026405,6.0,6.0,0.0
1449616886232627629,6.0,6.0,0.0
1449616886265567031,6.0,6.0,0.0
1449616886298708241,6.0,6.0,0.0
1449616886331965044,6.0,6.0,0.0
1449616886365274471,6.0,6.0,0.0
1449616886399696405,6.0,6.0,0.0
1449616886431940403,6.0,6.0,0.0
1449616886474199249,6.0,6.0,0.0
1449616886498561332,6.0,6.0,0.0
1449616886531932859,6.0,6.0,0.0
1449616886565365469,6.0,6.0,0.0
1449616886599049745,6.61952,6.45876315789,0.0
1449616886632254960,6.61952,6.45876315789,0.0
1449616886665990465,6.61952,6.45876315789,0.0
1449616886698651904,6.61952,6.45876315789,0.0
1449616886731851953,6.61952,6.45876315789,0.0
1449616886765481874,6.61952,6.45876315789,0.0
1449616886799208726,6.61952,6.45876315789,0.0
1449616886832135642,6.61952,6.45876315789,0.0
1449616886865737950,6.61952,6.45876315789,0.0
1449616886898585238,6.61952,6.45876315789,0.0
1449616886932181801,6.61952,6.45876315789,0.0
1449616886965944600,6.61952,6.45876315789,0.0
1449616887001226745,6.61952,6.45876315789,0.0
1449616887031871351,6.61952,6.45876315789,0.0
1449616887070709674,6.61952,6.45876315789,0.0
1449616887098519608,6.61952,6.45876315789,0.0
1449616887131749047,6.61952,6.45876315789,0.0
1449616887166191020,6.61952,6.45876315789,0.0
1449616887198873309,6.61952,6.45876315789,0.0
1449616887234159053,6.61952,6.45876315789,0.0
1449616887266038752,6.61952,6.45876315789,0.0
1449616887311320492,6.61952,6.45876315789,0.0
1449616887332052880,6.61952,6.45876315789,0.0
1449616887365901260,6.61952,6.45876315789,0.0
1449616887399099167,6.61952,6.45876315789,0.0
1449616887432054162,6.61952,6.45876315789,0.0
1449616887465320641,6.61952,6.45876315789,0.0
1449616887498738316,6.61952,6.45876315789,0.0
1449616887531932871,6.61952,6.45876315789,0.0
1449616887565362209,6.61952,6.45876315789,0.0
1449616887599625057,6.61952,6.45876315789,0.0
1449616887634439022,6.61952,6.45876315789,0.0
1449616887665824217,6.61952,6.45876315789,0.0
1449616887698683095,6.61952,6.45876315789,0.0
1449616887731892052,6.61952,6.45876315789,0.0
1449616887765621761,6.61952,6.45876315789,0.0
1449616887798688399,6.0,6.01064285776,0.0
1449616887831881665,6.0,6.01064285776,0.0
1449616887865628183,6.0,6.01064285776,0.0
1449616887899069167,6.01773968356,6.01064285776,0.0
1449616887931868367,6.01773968356,6.01064285776,0.0
1449616887966120067,6.01773968356,6.11707143158,0.0
1449616887998589276,6.01773968356,6.11707143158,0.0
1449616888031840628,6.01773968356,6.11707143158,0.0
1449616888067554790,6.03547936713,6.64921428698,0.0
1449616888098537685,6.03547936713,6.64921428698,0.0
1449616888132306016,6.03547936713,6.64921428698,0.0
1449616888165463270,6.01773968356,6.64921428698,0.0
1449616888199072796,6.01773968356,6.64921428698,0.0
1449616888232438657,6.01773968356,6.64921428698,0.0
1449616888266881728,6.01773968356,6.64921428698,0.0
1449616888298711187,6.01773968356,6.65985714349,0.0
1449616888331975998,6.01773968356,6.65985714349,0.0
1449616888365415456,6.01773968356,6.65985714349,0.0
1449616888400014984,6.01773968356,6.65985714349,0.0
1449616888432656389,6.01773968356,6.65985714349,0.0
1449616888466629543,6.01773968356,6.65985714349,0.0
1449616888498617312,6.01773968356,6.65985714349,0.0
1449616888533228711,6.01773968356,6.65985714349,0.0
1449616888577914258,6.03547936713,6.64921428698,0.0
1449616888600052513,6.03547936713,6.64921428698,0.0
1449616888631945413,6.03547936713,6.64921428698,0.0
1449616888665982679,6.03547936713,6.64921428698,0.0
1449616888698579370,6.01773968356,6.64921428698,0.0
1449616888732253598,6.01773968356,6.64921428698,0.0
1449616888771833030,6.01773968356,6.64921428698,0.0
1449616888799141342,6.01773968356,6.64921428698,0.0
1449616888832477800,6.01773968356,6.64921428698,0.0
1449616888865903238,6.01773968356,6.64921428698,0.0
1449616888899367419,6.01773968356,6.64921428698,0.0
1449616888934723563,6.01773968356,6.65985714349,0.0
1449616888965837542,6.01773968356,6.65985714349,0.0
1449616888998868255,6.01773968356,6.65985714349,0.0
1449616889033824574,6.01773968356,6.65985714349,0.0
1449616889066871010,6.01773968356,6.65985714349,0.0
1449616889098985320,6.01773968356,6.64921428698,0.0
1449616889138469054,6.01773968356,6.64921428698,0.0
1449616889165610832,6.03547936713,6.36185716125,0.0
1449616889198642382,6.03547936713,6.36185716125,0.0
1449616889232029149,6.03547936713,6.36185716125,0.0
1449616889271201037,6.03547936713,6.36185716125,0.0
1449616889298470516,6.10643809722,6.14900000111,0.0
1449616889332005104,6.10643809722,6.14900000111,0.0
1449616889365747057,6.61214476234,6.10334774481,0.0
1449616889401732119,6.61214476234,6.10334774481,0.0
1449616889440838927,6.61214476234,6.10334774481,0.0
1449616889466197612,6.61214476234,6.10334774481,0.0
1449616889498990091,6.61214476234,6.07772086558,0.0
1449616889532053570,6.61214476234,6.07772086558,0.0
1449616889566400256,6.61214476234,6.07772086558,0.0
1449616889600606516,6.60968634979,6.02128571551,0.0
1449616889632471095,6.60968634979,6.02128571551,0.0
1449616889666635686,6.60968634979,6.02128571551,0.0
1449616889699265794,6.60968634979,6.02128571551,0.0
1449616889732170792,6.60968634979,6.02128571551,0.0
1449616889765489682,6.60968634979,6.02128571551,0.0
1449616889799754724,6.60968634979,6.02128571551,0.0
1449616889832658233,6.60968634979,6.02128571551,0.0
1449616889867274678,6.60968634979,6.02128571551,0.0
1449616889899087537,6.59985269958,6.02128571551,0.0
1449616889931939321,6.59985269958,6.02128571551,0.0
1449616889967290174,6.59985269958,6.03192857202,0.0
1449616889998504398,6.59985269958,6.03192857202,0.0
1449616890033420264,6.59985269958,6.03192857202,0.0
1449616890065270933,6.59985269958,6.03192857202,0.0
1449616890099294630,6.59985269958,6.02128571551,0.0
1449616890137752989,6.59985269958,6.02128571551,0.0
1449616890165286621,6.59985269958,6.02128571551,0.0
1449616890198599183,6.59985269958,6.02128571551,0.0
1449616890233052444,6.59985269958,6.02128571551,0.0
1449616890265993091,6.60968634979,6.02128571551,0.0
1449616890298794738,6.60968634979,6.02128571551,0.0
1449616890332300532,6.60968634979,6.02128571551,0.0
1449616890366320702,6.60968634979,6.02128571551,0.0
1449616890399113808,6.60968634979,6.02128571551,0.0
1449616890432663987,6.60968634979,6.02128571551,0.0
1449616890466401045,6.60968634979,6.02128571551,0.0
1449616890500329409,6.59985269958,6.03192857202,0.0
1449616890538644759,6.59985269958,6.03192857202,0.0
1449616890565760577,6.59985269958,6.03192857202,0.0
1449616890600387364,6.59985269958,6.02128571551,0.0
1449616890634412458,6.59985269958,6.02128571551,0.0
1449616890667783883,6.55068444855,6.02128571551,0.0
1449616890700005252,6.55068444855,6.02128571551,0.0
1449616890733613303,6.55068444855,6.02128571551,0.0
1449616890770628010,6.55068444855,6.02128571551,0.0
1449616890798733667,6.61952,6.17644736842,0.0
1449616890834783710,6.61952,6.17644736842,0.0
1449616890868048493,6.52118349792,6.02128571551,0.0
1449616890899224335,6.52118349792,6.02128571551,0.0
1449616890945929977,6.52118349792,6.02128571551,0.0
1449616890966600384,6.60968634979,6.02128571551,0.0
1449616890999426486,6.60968634979,6.02128571551,0.0
1449616891036683943,6.60968634979,6.02128571551,0.0
1449616891066875619,6.60968634979,6.02128571551,0.0
1449616891098859143,6.61952,6.10586842105,0.0
1449616891131908229,6.61952,6.10586842105,0.0
1449616891166116206,6.61952,6.10586842105,0.0
1449616891201899463,6.61952,6.10586842105,0.0
1449616891232333148,6.61952,6.10586842105,0.0
1449616891265499966,6.61952,6.10586842105,0.0
1449616891298503920,6.11800381172,5.98935714224,0.0
1449616891338295946,6.05321904861,5.97871428449,0.0
1449616891365264122,6.05321904861,5.97871428449,0.0
1449616891401611823,6.05321904861,5.97871428449,0.0
1449616891433026612,6.05321904861,5.97871428449,0.0
1449616891465929936,6.05321904861,5.97871428449,0.0
1449616891500910780,6.01773968356,5.98935714224,0.0
1449616891532325352,6.01773968356,5.98935714224,0.0
1449616891565877646,6.01773968356,5.98935714224,0.0
1449616891599564172,6.01773968356,5.98935714224,0.0
1449616891632557509,6.01773968356,5.98935714224,0.0
1449616891665418367,6.61952,5.96471052632,0.0
1449616891698888392,6.61952,5.96471052632,0.0
1449616891732127402,6.61952,5.96471052632,0.0
1449616891765635231,6.61952,6.0,0.0
1449616891798931880,6.61952,6.0,0.0
1449616891835564830,6.61952,6.0,0.0
1449616891866917432,6.61952,5.96471052632,0.0
1449616891899339989,6.61952,5.96471052632,0.0
1449616891932420470,6.61952,5.96471052632,0.0
1449616891966271741,6.61952,5.89413157895,0.0
1449616892000563063,6.61952,5.89413157895,0.0
1449616892033635861,6.61952,5.89413157895,0.0
1449616892065481820,6.61952,5.89413157895,0.0
1449616892100770464,6.61952,5.89413157895,0.0
1449616892131860073,6.61952,5.89413157895,0.0
1449616892165354402,6.61952,5.89413157895,0.0
1449616892199018772,6.61952,5.89413157895,0.0
1449616892232083260,6.61952,5.89413157895,0.0
1449616892265640360,6.61952,5.89413157895,0.0
1449616892301896048,6.61952,5.89413157895,0.0
1449616892337795135,6.61952,5.89413157895,0.0
1449616892365674631,6.61952,5.89413157895,0.0
1449616892398873049,6.61952,5.89413157895,0.0
1449616892434986138,6.61952,5.89413157895,0.0
1449616892469670241,6.61952,5.82355263158,0.0
1449616892498458775,6.61952,5.82355263158,0.0
1449616892532355445,6.61952,5.82355263158,0.0
1449616892566055059,6.61952,5.96471052632,0.0
1449616892598943984,6.61952,5.96471052632,0.0
1449616892633870309,6.61952,5.96471052632,0.0
1449616892666503000,6.537856,5.96471052632,0.0
1449616892700508445,6.537856,5.96471052632,0.0
1449616892732986897,6.61952,5.96471052632,0.0
1449616892765763922,6.61952,5.96471052632,0.0
1449616892800432646,6.61952,5.96471052632,0.0
1449616892832479693,6.374528,5.96471052632,0.0
1449616892866082349,6.374528,5.96471052632,0.0
1449616892899223255,6.374528,5.96471052632,0.0
1449616892932026211,6.374528,5.96471052632,0.0
1449616892965308279,6.374528,5.96471052632,0.0
1449616892998969701,6.374528,5.96471052632,0.0
1449616893032162745,6.61952,5.75297368421,0.0
1449616893065795943,6.61952,5.75297368421,0.0
1449616893098769411,6.61952,5.75297368421,0.0
1449616893132195062,6.61952,5.68239473684,0.0
1449616893165760280,6.61952,5.68239473684,0.0
1449616893199620137,6.61952,5.68239473684,0.0
1449616893232948541,6.61952,5.68239473684,0.0
1449616893267995390,6.61952,5.68239473684,0.0
1449616893299227823,6.61952,5.68239473684,0.0
1449616893332859985,6.61952,5.68239473684,0.0
1449616893365331834,6.61952,5.68239473684,0.0
1449616893399965170,6.61952,5.68239473684,0.0
1449616893433314907,6.61952,5.68239473684,0.0
1449616893470006629,6.61952,5.68239473684,0.0
1449616893498620134,6.61952,5.61181578947,0.0
1449616893534054073,6.61952,5.61181578947,0.0
1449616893566361337,6.61952,5.61181578947,0.0
1449616893599554889,6.61952,5.61181578947,0.0
1449616893633665239,6.61952,5.61181578947,0.0
1449616893665331724,6.61952,5.61181578947,0.0
1449616893699052345,6.61952,5.61181578947,0.0
1449616893731855169,6.61952,5.61181578947,0.0
1449616893768495569,6.61952,5.61181578947,0.0
1449616893799587151,6.61952,5.61181578947,0.0
1449616893834159847,6.61952,5.61181578947,0.0
1449616893865899756,6.61952,5.61181578947,0.0
1449616893899764946,6.61952,5.61181578947,0.0
1449616893932276155,6.61952,5.54123684211,0.0
1449616893966249944,6.61952,5.54123684211,0.0
1449616893999580671,6.61952,5.54123684211,0.0
1449616894032504870,6.0,5.98935714224,0.0
1449616894065317032,6.0,5.94678571246,0.0
1449616894099126091,6.0,5.94678571246,0.0
1449616894132116875,6.0,5.94678571246,0.0
1449616894165544031,6.0,5.94678571246,0.0
1449616894199211474,6.0,5.94678571246,0.0
1449616894237699283,5.98226031644,5.64878569525,0.0
1449616894266609715,5.98226031644,5.64878569525,0.0
1449616894298700808,5.98226031644,5.64878569525,0.0
1449616894332333148,6.0,5.67007142825,0.0
1449616894367565830,6.0,5.67007142825,0.0
1449616894399127912,6.0,6.0,0.0
1449616894432878537,6.0,6.0,0.0
1449616894465710957,6.0,6.0,0.0
1449616894498499665,6.0,6.0,0.0
1449616894531805183,6.0,6.0,0.0
1449616894567307914,6.0,6.0,0.0
1449616894598981697,6.0,6.0,0.0
1449616894632201697,6.0,6.0,0.0
1449616894666295957,6.0,6.0,0.0
1449616894698815511,6.0,6.0,0.0
1449616894732029532,6.0,6.0,0.0
1449616894770251752,6.0,6.0,0.0
1449616894798724308,6.0,6.0,0.0
1449616894832769520,6.0,6.0,0.0
1449616894866779485,5.99556507911,5.83503571413,0.0
1449616894899743597,5.99556507911,5.83503571413,0.0
1449616894932233784,5.99556507911,5.83503571413,0.0
1449616894967433513,5.99556507911,5.83503571413,0.0
1449616894999298381,5.99556507911,5.83503571413,0.0
1449616895032869604,5.99556507911,5.83503571413,0.0
1449616895067302382,5.99556507911,5.83503571413,0.0
1449616895108285598,5.99556507911,5.83503571413,0.0
1449616895132071517,5.99556507911,5.83503571413,0.0
1449616895165493049,5.99556507911,5.83503571413,0.0
1449616895198716168,5.99556507911,5.83503571413,0.0
1449616895235058385,5.99556507911,5.83503571413,0.0
1449616895266356840,5.99556507911,5.83503571413,0.0
1449616895298721039,5.99556507911,5.83503571413,0.0
1449616895334536368,5.99556507911,5.83503571413,0.0
1449616895365716482,5.99556507911,5.83503571413,0.0
1449616895399072299,5.99556507911,5.83503571413,0.0
1449616895431834598,5.99556507911,5.83503571413,0.0
1449616895465748043,5.99556507911,5.83503571413,0.0
1449616895499084568,5.99556507911,5.83503571413,0.0
1449616895532106258,5.99556507911,5.83503571413,0.0
1449616895565869658,5.99556507911,5.85366071302,0.0
1449616895598898656,5.99556507911,5.85366071302,0.0
1449616895632099541,5.99556507911,5.85366071302,0.0
1449616895666195910,5.99556507911,5.85366071302,0.0
1449616895699764902,5.99556507911,5.83503571413,0.0
1449616895732048508,5.99556507911,5.83503571413,0.0
1449616895770714973,5.99556507911,5.83503571413,0.0
1449616895799352719,5.99556507911,5.83503571413,0.0
1449616895833724510,6.0,5.4803625,0.0
1449616895865644653,6.0,5.4803625,0.0
1449616895899024723,6.0,5.4803625,0.0
1449616895932330240,6.0,5.4803625,0.0
1449616895966775849,6.0,5.4803625,0.0
1449616895998945890,6.0,5.4803625,0.0
1449616896033448734,6.0,5.4803625,0.0
1449616896065884657,6.0,5.4803625,0.0
1449616896098548257,6.0,5.4803625,0.0
1449616896131965850,6.0,5.4803625,0.0
1449616896166009093,6.0,5.4803625,0.0
1449616896199046807,6.0,5.4803625,0.0
1449616896232279719,6.0,5.4803625,0.0
1449616896265508152,6.0,5.4803625,0.0
1449616896300051367,6.0,5.4803625,0.0
1449616896332183649,6.0,5.4803625,0.0
1449616896365432518,6.0,5.4803625,0.0
1449616896398853532,6.0,5.4803625,0.0
1449616896433825053,6.0,5.4803625,0.0
1449616896465410328,6.0,5.4803625,0.0
1449616896498541677,6.0,5.4803625,0.0
1449616896531991015,6.0,5.4803625,0.0
1449616896565555189,6.0,5.4803625,0.0
1449616896598921049,6.0,5.4803625,0.0
1449616896631936258,6.0,5.4803625,0.0
1449616896669234732,6.0,5.4803625,0.0
1449616896698581741,6.0,5.4803625,0.0
1449616896732630251,6.0,5.4803625,0.0
1449616896767004707,6.0,5.4803625,0.0
1449616896799069185,6.0,5.4803625,0.0
1449616896832531043,6.0,5.4803625,0.0
1449616896866119753,6.0,5.4803625,0.0
1449616896899172120,6.0,5.4803625,0.0
1449616896931992533,6.0,5.4803625,0.0
1449616896965280715,6.0,5.4803625,0.0
1449616896999029229,6.0,5.4803625,0.0
1449616897032188263,6.0,5.4803625,0.0
1449616897066052280,6.0,5.4803625,0.0
1449616897110552150,6.0,5.4803625,0.0
1449616897132996788,6.0,5.4803625,0.0
1449616897166608920,6.0,5.4803625,0.0
1449616897199496318,6.0,5.4803625,0.0
1449616897232418619,6.0,5.4803625,0.0
1449616897265500150,6.0,5.4803625,0.0
1449616897305540283,6.0,5.4803625,0.0
1449616897332027257,6.0,5.4803625,0.0
1449616897365539630,6.0,5.4803625,0.0
1449616897398894770,6.0,5.4803625,0.0
1449616897432016998,6.0,5.4803625,0.0
1449616897467040436,6.0,5.4803625,0.0
1449616897499128705,6.0,5.4803625,0.0
1449616897531978659,6.0,5.4803625,0.0
1449616897566037182,6.0,5.4803625,0.0
1449616897598871406,6.0,5.4803625,0.0
1449616897632514872,6.0,5.4803625,0.0
1449616897665821995,6.0,5.4803625,0.0
1449616897698669812,6.0,5.4803625,0.0
1449616897733108991,5.99556507911,5.83503571413,0.0
1449616897765665001,5.99556507911,5.83503571413,0.0
1449616897799165189,5.99556507911,5.83503571413,0.0
1449616897833742032,6.0,5.47065789474,0.0
1449616897867327736,6.0,5.47065789474,0.0
1449616897898648926,6.0,5.47065789474,0.0
1449616897942852197,6.0,5.47065789474,0.0
1449616897966671671,6.0,5.47065789474,0.0
1449616897999242759,6.0,5.47065789474,0.0
1449616898031988371,6.0,5.47065789474,0.0
1449616898065623911,6.0,5.47065789474,0.0
1449616898099134071,6.0,5.47065789474,0.0
1449616898132421401,6.0,5.4803625,0.0
1449616898165303081,6.0,5.4803625,0.0
1449616898199388871,6.0,5.4803625,0.0
1449616898232313948,6.0,5.4803625,0.0
1449616898265671002,6.0,5.4803625,0.0
1449616898299511057,6.0,5.4803625,0.0
1449616898332311194,6.0,5.4803625,0.0
1449616898365253084,6.0,5.4803625,0.0
1449616898398859698,6.0,5.4803625,0.0
1449616898432108950,6.0,5.4803625,0.0
1449616898465727908,6.0,5.4803625,0.0
1449616898498844018,6.0,5.4803625,0.0
1449616898531891213,6.0,5.4803625,0.0
1449616898565116436,6.0,5.4803625,0.0
1449616898599106216,6.61952,5.61181578947,0.0
1449616898631817970,6.61952,5.61181578947,0.0
1449616898666205122,6.61952,5.61181578947,0.0
1449616898699602362,6.61952,5.61181578947,0.0
1449616898732071138,6.61952,5.61181578947,0.0
1449616898765226571,6.61952,5.61181578947,0.0
1449616898799134270,6.61952,5.61181578947,0.0
1449616898834347060,6.61952,5.61181578947,0.0
1449616898867005811,6.61952,5.68239473684,0.0
1449616898899231419,6.61952,5.68239473684,0.0
1449616898931977114,6.61952,5.68239473684,0.0
1449616898965795647,6.61952,5.68239473684,0.0
1449616899003489476,6.61952,5.68239473684,0.0
1449616899032782083,6.61952,5.68239473684,0.0
1449616899066091428,6.61952,5.68239473684,0.0
1449616899099251172,6.61952,5.68239473684,0.0
1449616899132434255,6.61952,5.68239473684,0.0
1449616899166087000,6.61952,5.68239473684,0.0
1449616899198648922,6.61952,5.68239473684,0.0
1449616899232223957,6.61952,5.68239473684,0.0
1449616899266132813,6.61952,5.68239473684,0.0
1449616899298883678,6.61952,5.68239473684,0.0
1449616899332052930,6.61952,5.68239473684,0.0
1449616899365626947,6.61952,5.68239473684,0.0
1449616899398810261,6.61952,5.68239473684,0.0
1449616899433578094,6.61952,5.68239473684,0.0
1449616899467709114,6.61952,5.68239473684,0.0
1449616899499018745,6.61952,5.68239473684,0.0
1449616899532401640,6.61952,5.68239473684,0.0
1449616899565398143,6.61952,5.68239473684,0.0
1449616899602367262,6.61952,5.68239473684,0.0
1449616899632414728,6.61952,5.68239473684,0.0
1449616899665956396,6.61952,5.75297368421,0.0
1449616899700301405,6.61952,5.75297368421,0.0
1449616899732157530,6.61952,5.75297368421,0.0
1449616899767078769,6.61952,5.75297368421,0.0
1449616899799479894,5.98226031644,5.95742856897,0.0
1449616899832591090,5.98226031644,5.94678571246,0.0
1449616899865761059,5.98226031644,5.94678571246,0.0
1449616899898538823,5.98226031644,5.94678571246,0.0
1449616899931932964,5.98226031644,5.94678571246,0.0
1449616899965974100,6.61952,5.82355263158,0.0
1449616899998951869,6.61952,5.82355263158,0.0
1449616900033532473,6.61952,5.82355263158,0.0
1449616900068426829,6.61952,5.82355263158,0.0
1449616900099305749,6.61952,5.82355263158,0.0
1449616900132307132,6.61952,5.82355263158,0.0
1449616900166478190,6.61952,5.82355263158,0.0
1449616900198814997,6.61952,5.82355263158,0.0
1449616900232660493,6.61952,5.89413157895,0.0
1449616900265217922,6.61952,5.89413157895,0.0
1449616900298696892,6.61952,5.89413157895,0.0
1449616900332707609,6.61952,5.89413157895,0.0
1449616900365442922,6.61952,5.89413157895,0.0
1449616900399095603,6.61952,5.89413157895,0.0
1449616900432058686,6.61952,5.89413157895,0.0
1449616900465322908,6.61952,5.89413157895,0.0
1449616900499288153,6.61952,5.96471052632,0.0
1449616900531999947,6.61952,5.96471052632,0.0
1449616900565369423,6.61952,5.89413157895,0.0
1449616900598898458,6.61952,5.89413157895,0.0
1449616900641843463,6.61952,5.89413157895,0.0
1449616900665978421,6.61952,5.96471052632,0.0
1449616900699783724,6.61952,5.96471052632,0.0
1449616900733575348,6.61952,5.96471052632,0.0
1449616900765608370,6.61952,5.96471052632,0.0
1449616900798574428,6.61952,5.96471052632,0.0
1449616900832146242,6.61952,5.96471052632,0.0
1449616900865818890,6.61952,5.96471052632,0.0
1449616900899245272,6.61952,5.96471052632,0.0
1449616900933760493,6.61952,5.96471052632,0.0
1449616900965554169,6.61952,5.96471052632,0.0
1449616901001560360,6.61952,5.96471052632,0.0
1449616901033342754,6.61952,6.0,0.0
1449616901066520391,6.61952,6.0,0.0
1449616901098952163,6.61952,6.0,0.0
1449616901131866376,6.61952,6.0,0.0
1449616901165122825,6.61952,6.0,0.0
1449616901199182503,6.61952,6.0,0.0
1449616901232344990,6.61952,6.0,0.0
1449616901266000963,6.61952,6.0,0.0
1449616901298858095,6.61952,6.03528947368,0.0
1449616901338306491,6.61952,6.03528947368,0.0
1449616901365395817,6.61952,6.10586842105,0.0
1449616901398726120,6.61952,6.10586842105,0.0
1449616901434414181,6.61952,6.10586842105,0.0
1449616901465529837,6.61952,6.10586842105,0.0
1449616901498665540,6.61952,6.10586842105,0.0
1449616901532326886,6.61952,6.17644736842,0.0
1449616901567537168,6.61952,6.17644736842,0.0
1449616901599439662,6.61952,6.17644736842,0.0
1449616901634314925,6.61952,6.17644736842,0.0
1449616901672376701,6.61952,6.17644736842,0.0
1449616901698502668,6.61952,6.17644736842,0.0
1449616901732882106,6.61952,6.17644736842,0.0
1449616901765618965,6.61952,6.17644736842,0.0
1449616901799341401,6.61952,6.17644736842,0.0
1449616901833830203,6.537856,6.17644736842,0.0
1449616901865826268,6.537856,6.17644736842,0.0
1449616901899448575,6.537856,6.17644736842,0.0
1449616901932365889,6.537856,6.17644736842,0.0
1449616901966482487,6.537856,6.24702631579,0.0
1449616902000590953,6.537856,6.24702631579,0.0
1449616902032700849,6.537856,6.24702631579,0.0
1449616902069439030,6.537856,6.24702631579,0.0
1449616902098851112,6.537856,6.24702631579,0.0
1449616902136411051,6.0,6.01064285776,0.0
1449616902165874835,6.0,6.01064285776,0.0
1449616902200146679,6.0,6.01064285776,0.0
1449616902232086058,6.0,6.65985714349,0.0
1449616902265265168,6.0,6.65985714349,0.0
1449616902303433811,6.0,6.65985714349,0.0
1449616902332233212,6.0,6.65985714349,0.0
1449616902365360677,6.0,6.65985714349,0.0
1449616902399078410,6.0,6.65985714349,0.0
1449616902432816984,6.0,6.65985714349,0.0
1449616902465370272,6.0,6.65985714349,0.0
1449616902499426374,6.0,6.65985714349,0.0
1449616902531974179,6.0,6.65985714349,0.0
1449616902566430310,6.0,6.65985714349,0.0
1449616902598829169,6.0,6.65985714349,0.0
1449616902632985228,6.0,6.65985714349,0.0
1449616902665659677,6.0,6.65985714349,0.0
1449616902698718370,6.0,6.65985714349,0.0
1449616902733111217,6.0,6.65985714349,0.0
1449616902765301438,6.0,6.65985714349,0.0
1449616902798945604,6.0,6.65985714349,0.0
1449616902831987381,6.0,6.65985714349,0.0
1449616902873857444,6.0,6.62792857397,0.0
1449616902898702699,6.292864,6.59992105263,0.0
1449616902932512748,6.292864,6.59992105263,0.0
1449616902965758455,6.292864,6.59992105263,0.0
1449616902999024873,6.292864,6.59992105263,0.0
1449616903033616776,6.0,6.65985714349,0.0
1449616903066282465,6.0,6.65985714349,0.0
1449616903099414871,6.292864,6.59992105263,0.0
1449616903132919092,6.292864,6.59992105263,0.0
1449616903168339887,6.292864,6.59992105263,0.0
1449616903217651234,6.2112,6.52934210526,0.0
1449616903232669671,6.2112,6.52934210526,0.0
1449616903270158317,6.0,6.64921428698,0.0
1449616903298836568,6.0,6.64921428698,0.0
1449616903333060762,6.2112,6.52934210526,0.0
1449616903366691108,6.2112,6.45876315789,0.0
1449616903398513395,6.2112,6.45876315789,0.0
1449616903432399561,6.2112,6.45876315789,0.0
1449616903465583817,6.0,6.65985714349,0.0
1449616903498893708,6.0,6.65985714349,0.0
1449616903533654939,6.0,6.65985714349,0.0
1449616903566401831,6.2112,6.45876315789,0.0
1449616903599992516,6.2112,6.45876315789,0.0
1449616903638106529,6.2112,6.45876315789,0.0
1449616903665895469,6.292864,6.52934210526,0.0
1449616903698567369,6.292864,6.52934210526,0.0
1449616903732114460,6.292864,6.52934210526,0.0
1449616903765618231,6.292864,6.38818421053,0.0
1449616903798985620,6.0,6.65985714349,0.0
1449616903832445045,6.0,6.65985714349,0.0
1449616903865294783,6.0,6.65985714349,0.0
1449616903898786421,6.0,6.65985714349,0.0
1449616903932176664,6.0,6.65985714349,0.0
1449616903965724410,6.292864,6.31760526316,0.0
1449616903999203700,6.292864,6.45876315789,0.0
1449616904033587156,6.292864,6.31760526316,0.0
1449616904066117477,6.14538476267,6.56631203103,0.0
1449616904098644250,6.14538476267,6.54866729418,0.0
1449616904139886603,6.14538476267,6.55664943657,0.0
1449616904165355181,6.14538476267,6.55664943657,0.0
1449616904198643618,6.14538476267,6.55664943657,0.0
1449616904233389864,6.374528,6.24702631579,0.0
1449616904265757872,6.374528,6.24702631579,0.0
1449616904299685295,6.374528,6.24702631579,0.0
1449616904332725517,6.374528,6.24702631579,0.0
1449616904365981670,6.292864,6.31760526316,0.0
1449616904401471256,6.14538476267,6.56631203103,0.0
1449616904433144560,6.14538476267,6.56631203103,0.0
1449616904465988397,6.14538476267,6.55664943657,0.0
1449616904504937883,6.14538476267,6.55664943657,0.0
1449616904532240087,6.14538476267,6.55664943657,0.0
1449616904565193918,6.14538476267,6.53900469972,0.0
1449616904601961011,6.292864,6.17644736842,0.0
1449616904634164018,6.292864,6.17644736842,0.0
1449616904668976117,6.292864,6.17644736842,0.0
1449616904699060992,6.14538476267,6.53102255734,0.0
1449616904733036268,6.14538476267,6.53102255734,0.0
1449616904770725991,6.374528,6.17644736842,0.0
1449616904798991138,6.374528,6.17644736842,0.0
1449616904835506837,6.374528,6.17644736842,0.0
1449616904865546999,6.374528,6.17644736842,0.0
1449616904898522192,6.374528,6.17644736842,0.0
1449616904932912439,6.292864,6.10586842105,0.0
1449616904965892936,6.292864,6.10586842105,0.0
1449616904999091986,6.292864,6.10586842105,0.0
1449616905038691522,6.374528,6.10586842105,0.0
1449616905067185325,6.456192,6.10586842105,0.0
1449616905099375491,6.456192,6.10586842105,0.0
1449616905132030217,6.456192,6.10586842105,0.0
1449616905165311207,6.456192,6.10586842105,0.0
1449616905198596826,6.456192,6.10586842105,0.0
1449616905252775734,6.456192,6.10586842105,0.0
1449616905266068124,6.456192,6.10586842105,0.0
1449616905299636647,6.456192,6.10586842105,0.0
1449616905333150823,6.456192,6.10586842105,0.0
1449616905366461427,6.456192,6.10586842105,0.0
1449616905399321902,6.456192,6.10586842105,0.0
1449616905432945604,6.456192,6.03528947368,0.0
1449616905466403820,6.456192,6.03528947368,0.0
1449616905500123856,6.292864,6.24702631579,0.0
1449616905532138675,6.292864,6.24702631579,0.0
1449616905566785252,6.292864,6.24702631579,0.0
1449616905599497162,6.292864,6.17644736842,0.0
1449616905634646197,6.292864,6.17644736842,0.0
1449616905666319365,6.292864,6.17644736842,0.0
1449616905700427277,6.292864,6.10586842105,0.0
1449616905732763422,6.292864,6.10586842105,0.0
1449616905765787154,6.374528,6.03528947368,0.0
1449616905798719997,6.374528,6.03528947368,0.0
1449616905832368023,6.537856,6.0,0.0
1449616905865232263,6.537856,6.0,0.0
1449616905898486227,6.537856,6.0,0.0
1449616905932460812,6.537856,6.0,0.0
1449616905965684127,6.537856,6.0,0.0
1449616906000737576,6.61952,5.96471052632,0.0
1449616906032846781,6.61952,5.96471052632,0.0
1449616906065746674,6.61952,5.96471052632,0.0
1449616906098954878,6.46709841284,6.02996804543,0.0
1449616906131875902,6.46709841284,6.02996804543,0.0
1449616906165330775,6.46709841284,6.02996804543,0.0
1449616906198896510,6.46709841284,6.01666447479,0.0
1449616906233224487,6.46709841284,6.01666447479,0.0
1449616906265280046,6.61952,5.96471052632,0.0
1449616906299195363,6.61952,5.96471052632,0.0
1449616906337776387,6.61952,5.96471052632,0.0
1449616906365278941,6.61952,5.96471052632,0.0
1449616906400347983,6.61952,5.96471052632,0.0
1449616906433664290,6.61952,5.96471052632,0.0
1449616906465338213,6.61952,5.96471052632,0.0
1449616906500113714,6.61952,5.96471052632,0.0
1449616906532384944,6.61952,5.96471052632,0.0
1449616906566511334,6.61952,5.89413157895,0.0
1449616906601944228,6.61952,5.89413157895,0.0
1449616906632562642,6.61952,5.89413157895,0.0
1449616906666471086,6.61952,5.89413157895,0.0
1449616906699380481,6.61952,5.89413157895,0.0
1449616906733857884,6.61952,5.82355263158,0.0
1449616906766898407,6.61952,5.82355263158,0.0
1449616906799363465,6.46709841284,5.9267603385,0.0
1449616906832348092,6.01773968356,6.36185716125,0.0
1449616906865275932,6.01773968356,6.36185716125,0.0
1449616906898884651,6.01773968356,6.36185716125,0.0
1449616906931971488,6.01773968356,6.36185716125,0.0
1449616906965886384,6.0,6.01064285776,0.0
1449616907000677426,6.0,6.01064285776,0.0
1449616907032082384,6.0,6.01064285776,0.0
1449616907066689394,6.61952,5.54123684211,0.0
1449616907099437617,6.61952,5.54123684211,0.0
1449616907131957520,6.61952,5.54123684211,0.0
1449616907165260852,6.61952,5.54123684211,0.0
1449616907198738517,6.61952,5.54123684211,0.0
1449616907242691256,6.61952,5.47065789474,0.0
1449616907265117439,6.61952,5.47065789474,0.0
1449616907299214721,6.61952,5.47065789474,0.0
1449616907332566515,6.61952,5.47065789474,0.0
1449616907365412357,6.61952,5.47065789474,0.0
1449616907402945043,6.61952,5.47065789474,0.0
1449616907435236113,6.61952,5.47065789474,0.0
1449616907466627891,6.61952,5.40007894737,0.0
1449616907499171119,6.61952,5.40007894737,0.0
1449616907531908899,6.61952,5.40007894737,0.0
1449616907566072845,6.61952,5.40007894737,0.0
1449616907598864574,6.61952,5.40007894737,0.0
1449616907631958394,6.61952,5.40007894737,0.0
1449616907665263737,6.61952,5.40007894737,0.0
1449616907699008457,6.61952,5.40007894737,0.0
1449616907732357406,6.61952,5.40007894737,0.0
1449616907765441639,6.61952,5.40007894737,0.0
1449616907805890811,6.61952,5.54123684211,0.0
1449616907833238358,6.61952,5.54123684211,0.0
1449616907865211941,6.61952,5.54123684211,0.0
1449616907898528339,6.61952,5.54123684211,0.0
1449616907932248681,6.2112,6.0,0.0
1449616907965872562,6.2112,6.0,0.0
1449616908003425200,6.2112,6.0,0.0
1449616908031952304,6.61952,5.40007894737,0.0
1449616908065331141,6.61952,5.40007894737,0.0
1449616908098547773,6.61952,5.40007894737,0.0
1449616908131700147,6.61952,5.40007894737,0.0
1449616908165486705,6.61952,5.40007894737,0.0
1449616908199930719,6.61952,5.40007894737,0.0
1449616908232464068,6.61952,5.40007894737,0.0
1449616908265198665,6.61952,5.40007894737,0.0
1449616908299060136,6.61952,5.40007894737,0.0
1449616908333500436,6.61952,5.40007894737,0.0
1449616908366337711,6.61952,5.40007894737,0.0
1449616908399138556,6.61952,5.40007894737,0.0
1449616908432051493,6.61952,5.40007894737,0.0
1449616908465450421,6.61952,5.40007894737,0.0
1449616908498918138,6.61952,5.40007894737,0.0
1449616908531885951,6.61952,5.47065789474,0.0
1449616908566047400,6.61952,5.47065789474,0.0
1449616908598826335,6.61952,5.47065789474,0.0
1449616908632586044,6.61952,5.47065789474,0.0
1449616908665767410,6.61952,5.54123684211,0.0
1449616908698919923,6.61952,5.47065789474,0.0
1449616908731986407,6.61952,5.47065789474,0.0
1449616908765594214,6.61952,5.47065789474,0.0
1449616908799330553,6.61952,5.47065789474,0.0
1449616908833062002,6.61952,5.47065789474,0.0
1449616908865660679,6.61952,5.47065789474,0.0
1449616908898802191,6.61952,5.47065789474,0.0
1449616908932320957,6.61264819554,5.47065789474,0.0
1449616908965569449,6.61264819554,5.47065789474,0.0
1449616908999016067,6.61264819554,5.47065789474,0.0
1449616909033234235,6.60157757946,5.54123684211,0.0
1449616909065332095,6.60157757946,5.54123684211,0.0
1449616909099162689,6.60157757946,5.54123684211,0.0
1449616909132799231,6.5917722815,5.47065789474,0.0
1449616909165524971,6.5917722815,5.47065789474,0.0
1449616909199291333,6.5917722815,5.47065789474,0.0
1449616909236484195,6.5917722815,5.47065789474,0.0
1449616909265458394,6.57062497952,5.40007894737,0.0
1449616909298409022,6.57062497952,5.40007894737,0.0
1449616909331941450,6.55354935878,5.40007894737,0.0
1449616909365754679,6.55354935878,5.40007894737,0.0
1449616909398711968,6.55354935878,5.40007894737,0.0
1449616909432377263,6.54784369725,5.40007894737,0.0
1449616909466006761,6.53639927872,5.40007894737,0.0
1449616909499176934,6.53639927872,5.40007894737,0.0
1449616909531942145,6.53061385225,5.40007894737,0.0
1449616909565276413,6.53061385225,5.40007894737,0.0
1449616909599021809,6.53061385225,5.40007894737,0.0
1449616909632414880,6.51322062691,5.40007894737,0.0
1449616909665392488,6.51322062691,5.40007894737,0.0
1449616909698456845,6.50006856955,5.40007894737,0.0
1449616909731956312,6.50006856955,5.40007894737,0.0
1449616909766168957,6.50006856955,5.40007894737,0.0
1449616909802830695,6.49567153155,5.40007894737,0.0
1449616909832207979,6.48391092451,5.40007894737,0.0
1449616909870034029,6.47208354029,5.40007894737,0.0
1449616909898611584,6.47208354029,5.40007894737,0.0
1449616909932110355,6.46612188031,5.47065789474,0.0
1449616909965835658,6.46612188031,5.47065789474,0.0
1449616909998654735,6.46612188031,5.47065789474,0.0
1449616910032063179,6.45714455566,5.47065789474,0.0
1449616910065270152,6.44963810905,5.46941286629,0.0
1449616910101709070,6.44963810905,5.46941286629,0.0
1449616910132348808,6.44963810905,5.46941286629,0.0
1449616910165672489,6.44963810905,5.46941286629,0.0
1449616910225668652,6.44058453756,5.47065789474,0.0
1449616910232054998,6.44058453756,5.47065789474,0.0
1449616910267245152,6.43149766422,5.47065789474,0.0
1449616910298756715,6.43149766422,5.47065789474,0.0
1449616910332761214,6.42081004244,5.53937212327,0.0
1449616910365778439,6.42081004244,5.53937212327,0.0
1449616910398816298,6.42081004244,5.53937212327,0.0
1449616910432365022,6.40696180627,5.54123684211,0.0
1449616910466657885,6.39917900056,5.60917723137,0.0
1449616910501985670,6.3944930062,5.6091991069,0.0
1449616910531851000,6.3944930062,5.6091991069,0.0
1449616910570495729,6.3944930062,5.6091991069,0.0
1449616910598835021,6.39137441445,5.61181578947,0.0
1449616910635866653,6.38037735967,5.60912431993,0.0
1449616910665354879,6.38037735967,5.60912431993,0.0
1449616910699195873,6.05321904861,6.02128571551,0.0
1449616910731888406,6.05321904861,6.02128571551,0.0
1449616910765958912,6.58018539917,6.21285715015,0.0
1449616910798830670,6.58018539917,6.21285715015,0.0
1449616910832462461,6.52118349792,6.56407143492,0.0
1449616910865331443,6.52118349792,6.56407143492,0.0
1449616910899926446,6.52118349792,6.56407143492,0.0
1449616910932056173,6.52118349792,6.56407143492,0.0
1449616910966734820,6.52118349792,6.56407143492,0.0
1449616910999022753,6.53101714813,6.56407143492,0.0
1449616911031865374,6.53101714813,6.56407143492,0.0
1449616911065514409,6.53101714813,6.56407143492,0.0
1449616911099417501,6.53101714813,6.56407143492,0.0
1449616911132108693,6.53101714813,6.56407143492,0.0
1449616911165823284,6.53101714813,6.56407143492,0.0
1449616911198789143,6.53101714813,6.57471429142,0.0
1449616911232603212,6.53101714813,6.57471429142,0.0
1449616911265500581,6.53101714813,6.56407143492,0.0
1449616911300176941,6.53101714813,6.56407143492,0.0
1449616911332061940,6.53101714813,6.56407143492,0.0
1449616911365394074,6.52118349792,6.56407143492,0.0
1449616911398680121,6.52118349792,6.56407143492,0.0
1449616911431882136,6.52118349792,6.56407143492,0.0
1449616911465287412,6.43268064606,6.47892858285,0.0
1449616911500376720,6.43268064606,6.47892858285,0.0
1449616911532703302,6.43268064606,6.47892858285,0.0
1449616911565391130,6.43268064606,6.47892858285,0.0
1449616911599038578,6.52118349792,6.56407143492,0.0
1449616911631949195,6.52118349792,6.56407143492,0.0
1449616911667882407,6.52118349792,6.56407143492,0.0
1449616911698947665,6.52118349792,6.56407143492,0.0
1449616911732029293,6.52118349792,6.56407143492,0.0
1449616911765478107,6.52118349792,6.56407143492,0.0
1449616911799807436,6.52118349792,6.56407143492,0.0
1449616911833825005,6.52118349792,6.56407143492,0.0
1449616911865260909,6.52118349792,6.56407143492,0.0
1449616911898494573,6.52118349792,6.56407143492,0.0
1449616911932760924,6.52118349792,6.56407143492,0.0
1449616911965559861,6.52118349792,6.56407143492,0.0
1449616912001410521,6.52118349792,6.57471429142,0.0
1449616912032301839,6.52118349792,6.57471429142,0.0
1449616912065250592,6.53101714813,6.57471429142,0.0
1449616912099152943,6.53101714813,6.57471429142,0.0
1449616912132510083,6.53101714813,6.57471429142,0.0
1449616912165559153,6.53101714813,6.57471429142,0.0
1449616912198549953,6.52118349792,6.57471429142,0.0
1449616912232074307,6.52118349792,6.57471429142,0.0
1449616912265995891,6.52118349792,6.57471429142,0.0
1449616912298770749,6.52118349792,6.57471429142,0.0
1449616912331931683,6.52118349792,6.57471429142,0.0
1449616912365637097,6.52118349792,6.57471429142,0.0
1449616912400782686,6.52118349792,6.56407143492,0.0
1449616912432218041,6.52118349792,6.56407143492,0.0
1449616912467196350,6.52118349792,6.56407143492,0.0
1449616912505670545,6.58018539917,6.20221429364,0.0
1449616912532394160,6.58018539917,6.20221429364,0.0
1449616912565187873,6.60968634979,6.05321428754,0.0
1449616912598593253,6.60968634979,6.05321428754,0.0
1449616912637644497,6.60968634979,6.05321428754,0.0
1449616912665108694,6.60968634979,6.02128571551,0.0
1449616912698846584,6.60968634979,6.02128571551,0.0
1449616912732634528,6.60968634979,6.02128571551,0.0
1449616912765263122,6.60968634979,6.02128571551,0.0
1449616912798838754,6.59985269958,6.03192857202,0.0
1449616912840163146,6.59985269958,6.03192857202,0.0
1449616912870483020,6.60968634979,6.01064285776,0.0
1449616912899985123,6.60968634979,6.01064285776,0.0
1449616912932922038,6.60968634979,6.01064285776,0.0
1449616912966490676,6.60968634979,6.01064285776,0.0
1449616912998944392,6.60968634979,6.01064285776,0.0
1449616913032920362,6.60968634979,6.01064285776,0.0
1449616913072133868,6.60968634979,6.01064285776,0.0
1449616913099582546,6.60968634979,6.01064285776,0.0
1449616913132340514,6.60968634979,6.01064285776,0.0
1449616913169627231,6.60968634979,6.01064285776,0.0
1449616913200331196,6.60968634979,6.01064285776,0.0
1449616913231997127,6.60968634979,6.01064285776,0.0
1449616913276625175,6.60968634979,6.01064285776,0.0
1449616913299366367,6.60968634979,6.01064285776,0.0
1449616913335125317,6.60968634979,6.01064285776,0.0
1449616913366291765,6.51006476234,6.12267293279,0.0
1449616913398645446,6.51006476234,6.12267293279,0.0
1449616913432233825,6.51006476234,6.12267293279,0.0
1449616913466377371,6.51006476234,6.12267293279,0.0
1449616913501319034,6.51006476234,6.13065507611,0.0
1449616913531999047,6.51006476234,6.13065507611,0.0
1449616913565565117,6.51006476234,6.13065507611,0.0
1449616913600081489,6.51006476234,6.15796240648,0.0
1449616913632072812,6.51006476234,6.15796240648,0.0
1449616913669694907,6.51006476234,6.15796240648,0.0
1449616913699811081,6.51006476234,6.15796240648,0.0
1449616913732139502,6.45726476234,6.17560714332,0.0
1449616913766479264,6.45726476234,6.17560714332,0.0
1449616913800076381,6.45726476234,6.00798214332,0.0
1449616913832460197,6.45726476234,6.00798214332,0.0
1449616913865854122,6.45726476234,6.00798214332,0.0
1449616913898860939,6.45726476234,6.00798214332,0.0
1449616913931742231,6.45726476234,6.00798214332,0.0
1449616913966155559,6.54085079834,6.0,0.0
1449616913998640107,6.54085079834,6.0,0.0
1449616914032707144,6.54085079834,6.0,0.0
1449616914065606038,6.45726476234,5.98403571336,0.0
1449616914098572372,6.45726476234,5.98403571336,0.0
1449616914132418343,6.45726476234,5.98403571336,0.0
1449616914165654908,6.45726476234,5.98403571336,0.0
1449616914200985193,6.45726476234,5.98403571336,0.0
1449616914232322014,6.53101714813,5.42528570858,0.0
1449616914266077924,6.53101714813,5.42528570858,0.0
1449616914298835563,6.53101714813,5.42528570858,0.0
1449616914332560615,6.53101714813,5.42528570858,0.0
1449616914365680755,6.53101714813,5.42528570858,0.0
1449616914398790459,6.53101714813,5.42528570858,0.0
1449616914431869525,6.53101714813,5.42528570858,0.0
1449616914465638807,6.53101714813,5.42528570858,0.0
1449616914498882472,6.53101714813,5.42528570858,0.0
1449616914532497338,6.53101714813,5.42528570858,0.0
1449616914565358187,6.53101714813,5.42528570858,0.0
1449616914598743891,6.58018539917,5.79778570636,0.0
1449616914632787214,6.58018539917,5.79778570636,0.0
1449616914665191035,6.58018539917,5.79778570636,0.0
1449616914698934444,6.44988952469,5.97605357098,0.0
1449616914733158432,6.44988952469,5.97605357098,0.0
1449616914765699527,6.45726476234,5.99201785668,0.0
1449616914798794919,6.45726476234,5.99201785668,0.0
1449616914832816357,6.45726476234,5.99201785668,0.0
1449616914865680527,6.45726476234,5.99201785668,0.0
1449616914899839292,6.45726476234,6.0,0.0
1449616914932737342,6.45726476234,6.0,0.0
1449616914965382402,6.45726476234,6.0,0.0
1449616915000247203,6.45726476234,6.0,0.0
1449616915032392041,6.45726476234,6.0,0.0
1449616915065727346,6.45726476234,6.0,0.0
1449616915100268968,6.45726476234,6.0,0.0
1449616915133161499,6.45726476234,6.0,0.0
1449616915165496998,6.45726476234,6.00798214332,0.0
1449616915198855521,6.45726476234,6.00798214332,0.0
1449616915232185923,6.45726476234,6.00798214332,0.0
1449616915265204133,6.45726476234,6.00798214332,0.0
1449616915298790185,6.45726476234,6.00798214332,0.0
1449616915331937509,6.45726476234,6.00798214332,0.0
1449616915365407426,6.45726476234,6.00798214332,0.0
1449616915400943585,6.45726476234,6.00798214332,0.0
1449616915432215631,6.45726476234,6.00798214332,0.0
1449616915465640070,6.45726476234,6.00798214332,0.0
1449616915498835201,6.45726476234,6.00798214332,0.0
1449616915531766077,6.45726476234,6.00798214332,0.0
1449616915565232892,6.45726476234,6.00798214332,0.0
1449616915599191810,6.45726476234,6.00798214332,0.0
1449616915634650676,6.45726476234,6.00798214332,0.0
1449616915665262782,6.45726476234,6.00798214332,0.0
1449616915698838887,6.45726476234,6.00798214332,0.0
1449616915732587357,6.45726476234,6.00798214332,0.0
1449616915768879971,6.3048431749,6.00532142888,0.0
1449616915798634391,6.3048431749,6.00532142888,0.0
1449616915831857659,6.3048431749,6.00532142888,0.0
1449616915865527884,6.3048431749,6.00532142888,0.0
1449616915898687983,6.3048431749,6.00532142888,0.0
1449616915931863096,6.3048431749,6.00532142888,0.0
1449616915965331652,6.3048431749,6.00532142888,0.0
1449616915998546588,6.3048431749,6.00532142888,0.0
1449616916032343026,6.3048431749,6.00532142888,0.0
1449616916065904053,6.3048431749,6.00532142888,0.0
1449616916102755225,6.3048431749,6.0,0.0
1449616916131814108,6.3048431749,6.0,0.0
1449616916165213632,6.3048431749,6.0,0.0
1449616916198572927,6.3048431749,6.0,0.0
1449616916232686136,6.3048431749,6.0,0.0
1449616916265154684,6.3048431749,6.0,0.0
1449616916298454704,6.40563809875,6.00798214332,0.0
1449616916332156388,6.40563809875,6.00798214332,0.0
1449616916365644188,6.3048431749,6.00532142888,0.0
1449616916405584396,6.3048431749,6.00532142888,0.0
1449616916431999757,6.3048431749,6.00532142888,0.0
1449616916466298604,6.3048431749,6.00532142888,0.0
1449616916498450345,6.3048431749,6.00532142888,0.0
1449616916533598253,6.3982628611,6.00798214332,0.0
1449616916566544740,6.3048431749,6.01064285776,0.0
1449616916599080481,6.3048431749,6.01064285776,0.0
1449616916631966627,6.3048431749,6.01064285776,0.0
1449616916666063380,6.3048431749,6.01064285776,0.0
1449616916698976140,6.39088762344,6.02394642902,0.0
1449616916732920426,6.39088762344,6.02394642902,0.0
1449616916777859018,6.3048431749,6.01064285776,0.0
1449616916799073139,6.3048431749,6.01064285776,0.0
1449616916833671361,6.3048431749,6.01064285776,0.0
1449616916866102869,6.3048431749,6.01064285776,0.0
1449616916898819085,6.3048431749,6.01064285776,0.0
1449616916933225649,6.3048431749,6.01064285776,0.0
1449616916965544153,6.3048431749,6.01064285776,0.0
1449616916998848847,6.3048431749,6.00532142888,0.0
1449616917032877287,6.3048431749,6.00532142888,0.0
1449616917065663655,6.29992634979,6.01064285776,0.0
1449616917099042045,6.29992634979,6.01064285776,0.0
1449616917131827858,6.3048431749,6.01064285776,0.0
1449616917165504753,6.3048431749,6.01064285776,0.0
1449616917198939758,6.3048431749,6.01064285776,0.0
1449616917232390965,6.3048431749,6.01064285776,0.0
1449616917265585661,6.3048431749,6.01064285776,0.0
1449616917304992615,6.3048431749,6.00532142888,0.0
1449616917332627313,6.3048431749,6.00532142888,0.0
1449616917365117273,6.3048431749,6.00532142888,0.0
1449616917399010901,6.3048431749,6.01064285776,0.0
1449616917432415178,6.3048431749,6.01064285776,0.0
1449616917465578011,6.29992634979,6.01064285776,0.0
1449616917499382338,6.29992634979,6.01064285776,0.0
1449616917532729175,6.29992634979,6.01064285776,0.0
1449616917565413163,6.29992634979,6.01064285776,0.0
1449616917599252633,6.3048431749,6.01064285776,0.0
1449616917635462988,6.3048431749,6.01064285776,0.0
1449616917665757788,6.3048431749,6.01064285776,0.0
1449616917699186114,6.3048431749,6.01064285776,0.0
1449616917733717968,6.3048431749,6.01064285776,0.0
1449616917765032418,6.3048431749,6.01064285776,0.0
1449616917798552135,6.3048431749,6.01064285776,0.0
1449616917832626864,6.3048431749,6.01064285776,0.0
1449616917865459820,6.3048431749,6.01064285776,0.0
1449616917898809742,6.3048431749,6.01064285776,0.0
1449616917932266007,6.3048431749,6.01064285776,0.0
1449616917965139895,6.3048431749,6.01064285776,0.0
1449616917998587047,6.3048431749,6.01064285776,0.0
1449616918032045954,6.3048431749,6.01064285776,0.0
1449616918065500788,6.3048431749,6.01064285776,0.0
1449616918099284964,6.3048431749,6.01064285776,0.0
1449616918131826269,6.3048431749,6.01064285776,0.0
1449616918165555382,6.3048431749,6.01064285776,0.0
1449616918198596524,6.29992634979,6.01064285776,0.0
1449616918231993600,6.29992634979,6.01064285776,0.0
1449616918265204571,6.3048431749,6.01064285776,0.0
1449616918299008839,6.3048431749,6.01064285776,0.0
1449616918332766540,6.3048431749,6.01064285776,0.0
1449616918365536670,6.3048431749,6.01064285776,0.0
1449616918399105064,6.3048431749,6.00532142888,0.0
1449616918432023501,6.3048431749,6.00532142888,0.0
1449616918465667488,6.29992634979,6.01064285776,0.0
1449616918499185580,6.29992634979,6.01064285776,0.0
1449616918537813687,6.29992634979,6.01064285776,0.0
1449616918565281662,6.3048431749,6.01064285776,0.0
1449616918599194962,6.3048431749,6.01064285776,0.0
1449616918631894315,6.3048431749,6.01064285776,0.0
1449616918665973069,6.3048431749,6.00532142888,0.0
1449616918699501001,6.3048431749,6.00532142888,0.0
1449616918731789835,6.3048431749,6.00532142888,0.0
1449616918765251288,6.3048431749,6.00532142888,0.0
1449616918798449484,6.26059174896,6.01064285776,0.0
1449616918831924022,6.26059174896,6.01064285776,0.0
1449616918870120571,6.3048431749,6.01064285776,0.0
1449616918898491537,6.3048431749,6.01064285776,0.0
1449616918933735060,6.3048431749,6.01064285776,0.0
1449616918967564653,6.26550857407,6.00532142888,0.0
1449616919002643701,6.26550857407,6.00532142888,0.0
1449616919032387069,6.26550857407,6.00532142888,0.0
1449616919066764021,6.3048431749,6.00532142888,0.0
1449616919099159966,6.3048431749,6.00532142888,0.0
1449616919133255879,6.3048431749,6.00532142888,0.0
1449616919165281291,6.26550857407,6.01064285776,0.0
1449616919198752195,6.26550857407,6.01064285776,0.0
1449616919232084893,6.26550857407,6.01064285776,0.0
1449616919266542273,6.3048431749,6.01064285776,0.0
1449616919298451352,6.3048431749,6.01064285776,0.0
1449616919332730723,6.3048431749,6.01064285776,0.0
1449616919366131213,6.3048431749,6.00532142888,0.0
1449616919398804131,6.3048431749,6.00532142888,0.0
1449616919432475907,6.3048431749,6.00532142888,0.0
1449616919465283734,6.3048431749,6.00532142888,0.0
1449616919499814200,6.3048431749,6.00532142888,0.0
1449616919532539701,6.3048431749,6.00532142888,0.0
1449616919565408095,6.3048431749,6.00532142888,0.0
1449616919599008125,6.3048431749,6.00532142888,0.0
1449616919631854862,6.3048431749,6.00532142888,0.0
1449616919665246842,6.3048431749,6.00532142888,0.0
1449616919699019177,6.3048431749,6.00532142888,0.0
1449616919732430349,6.3048431749,6.00532142888,0.0
1449616919765301013,6.26550857407,6.00532142888,0.0
1449616919799040059,6.26550857407,6.00532142888,0.0
1449616919832834474,6.26550857407,6.00532142888,0.0
1449616919865728777,6.29992634979,6.01064285776,0.0
1449616919898830492,6.29992634979,6.01064285776,0.0
1449616919932106335,6.29992634979,6.01064285776,0.0
1449616919965405036,6.3048431749,6.00532142888,0.0
1449616920000212728,6.3048431749,6.00532142888,0.0
1449616920032710828,6.3048431749,6.00532142888,0.0
1449616920065383682,6.3048431749,6.00532142888,0.0
1449616920098704568,6.3048431749,6.00532142888,0.0
1449616920132274697,6.3048431749,6.00532142888,0.0
1449616920165898058,6.3048431749,6.01064285776,0.0
1449616920198635123,6.3048431749,6.01064285776,0.0
1449616920232502303,6.3048431749,6.01064285776,0.0
1449616920265644639,6.3048431749,6.01064285776,0.0
1449616920298852946,6.3048431749,6.01064285776,0.0
1449616920332353148,6.3048431749,6.01064285776,0.0
1449616920365711373,6.3048431749,6.01064285776,0.0
1449616920400760699,6.3048431749,6.01064285776,0.0
1449616920431767395,6.3048431749,6.01064285776,0.0
1449616920465829896,6.3048431749,6.00532142888,0.0
1449616920499396119,6.3048431749,6.00532142888,0.0
1449616920536246134,6.3048431749,6.00532142888,0.0
1449616920565574760,6.3048431749,6.01064285776,0.0
1449616920599379586,6.3048431749,6.01064285776,0.0
1449616920632058614,6.3048431749,6.01064285776,0.0
1449616920665516262,6.3048431749,6.01064285776,0.0
1449616920699243471,6.3048431749,6.01064285776,0.0
1449616920732425972,6.3048431749,6.01064285776,0.0
1449616920766122396,6.3048431749,6.01064285776,0.0
1449616920798552550,6.3048431749,6.00532142888,0.0
1449616920832091526,6.3048431749,6.00532142888,0.0
1449616920865532059,6.3048431749,6.00532142888,0.0
1449616920902113497,6.3048431749,6.00532142888,0.0
1449616920931968498,6.3048431749,6.00532142888,0.0
1449616920965294582,6.3048431749,6.01064285776,0.0
1449616920998610851,6.3048431749,6.01064285776,0.0
1449616921032236253,6.3048431749,6.01064285776,0.0
1449616921065317997,6.3048431749,6.01064285776,0.0
1449616921098697071,6.3048431749,6.01064285776,0.0
1449616921132511677,6.3048431749,6.01064285776,0.0
1449616921165548832,6.30976,6.00532142888,0.0
1449616921198953068,6.30976,6.00532142888,0.0
1449616921232427960,6.15488,6.00266071444,0.0
1449616921265502545,6.15488,6.00266071444,0.0
1449616921298992460,6.3048431749,6.00532142888,0.0
1449616921331973469,6.15242158745,6.00266071444,0.0
1449616921365371932,6.15242158745,6.00266071444,0.0
1449616921399162878,6.3048431749,6.01064285776,0.0
1449616921432010770,6.3048431749,6.01064285776,0.0
1449616921466178145,6.26550857407,6.00532142888,0.0
1449616921498935829,6.26550857407,6.00532142888,0.0
1449616921533630484,6.26550857407,6.00532142888,0.0
1449616921566321658,6.15242158745,6.00266071444,0.0
1449616921598700857,6.15242158745,6.00266071444,0.0
1449616921636021916,6.15242158745,6.00266071444,0.0
1449616921665858230,6.15242158745,6.00266071444,0.0
1449616921698665845,6.25075809875,5.96807142798,0.0
1449616921732067905,6.25075809875,5.96807142798,0.0
1449616921765633103,6.26550857407,5.71264285429,0.0
1449616921799109459,6.26550857407,5.71264285429,0.0
1449616921832731249,6.26550857407,5.71264285429,0.0
1449616921866113614,6.26059174896,5.71264285429,0.0
1449616921898773108,6.26059174896,5.71264285429,0.0
1449616921932160646,6.26059174896,5.71264285429,0.0
1449616921966013946,6.26059174896,5.71264285429,0.0
1449616921998716251,6.26059174896,5.71264285429,0.0
1449616922032855643,6.22125714813,5.76585713683,0.0
1449616922066671390,6.26550857407,5.71264285429,0.0
1449616922098575522,6.26550857407,5.71264285429,0.0
1449616922132090921,6.26550857407,5.71264285429,0.0
1449616922165549455,6.26550857407,5.71264285429,0.0
1449616922198834146,6.26550857407,5.71264285429,0.0
1449616922232608850,6.26550857407,5.71264285429,0.0
1449616922265866810,6.26550857407,5.71264285429,0.0
1449616922298874178,6.26550857407,5.71264285429,0.0
1449616922338188239,6.22125714813,5.76053570858,0.0
1449616922366851297,6.26550857407,5.71796428254,0.0
1449616922399887552,6.13275428703,5.85898214127,0.0
1449616922433018733,6.13275428703,5.85898214127,0.0
1449616922465686871,6.13275428703,5.85632142714,0.0
1449616922499843473,6.13275428703,5.85632142714,0.0
