%time,field.header.seq,field.header.stamp,field.header.frame_id,field.ns,field.id,field.type,field.action,field.pose.position.x,field.pose.position.y,field.pose.position.z,field.pose.orientation.x,field.pose.orientation.y,field.pose.orientation.z,field.pose.orientation.w,field.scale.x,field.scale.y,field.scale.z,field.color.r,field.color.g,field.color.b,field.color.a,field.lifetime,field.frame_locked,field.text,field.mesh_resource,field.mesh_use_embedded_materials
1449618394971733276,0,0,/odom,acmd_vector,0,0,0,0.0,0.0,0.0,0.0,0.0,-0.0736175522382,0.997286546587,0.35201,0.05,0.05,1.0,0.0,0.0,1.0,0,0,,,0
1449618395008823667,1,0,/odom,acmd_vector,0,0,0,0.0,0.0,0.0,0.0,0.0,-0.0736175522382,0.997286546587,0.35201,0.05,0.05,1.0,0.0,0.0,1.0,0,0,,,0
1449618395054915776,2,0,/odom,acmd_vector,0,0,0,0.0,0.0,0.0,0.0,0.0,-0.0736175522382,0.997286546587,0.35201,0.05,0.05,1.0,0.0,0.0,1.0,0,0,,,0
1449618395112890695,3,0,/odom,acmd_vector,0,0,0,0.0,0.0,0.0,0.0,0.0,-0.0736175522382,0.997286546587,0.35201,0.05,0.05,1.0,0.0,0.0,1.0,0,0,,,0
1449618395170720872,4,0,/odom,acmd_vector,0,0,0,0.0,0.0,0.0,0.0,0.0,-0.0736175522382,0.997286546587,0.35201,0.05,0.05,1.0,0.0,0.0,1.0,0,0,,,0
1449618395254556130,5,0,/odom,acmd_vector,0,0,0,0.0,0.0,0.0,0.0,0.0,-0.0736175522382,0.997286546587,0.35201,0.05,0.05,1.0,0.0,0.0,1.0,0,0,,,0
1449618395363185860,6,0,/odom,acmd_vector,0,0,0,0.0,0.0,0.0,0.0,0.0,-0.0736175522382,0.997286546587,0.35201,0.05,0.05,1.0,0.0,0.0,1.0,0,0,,,0
1449618395456740699,7,0,/odom,acmd_vector,0,0,0,0.0,0.0,0.0,0.0,0.0,-0.0736175522382,0.997286546587,0.35201,0.05,0.05,1.0,0.0,0.0,1.0,0,0,,,0
1449618395504938899,8,0,/odom,acmd_vector,0,0,0,0.0,0.0,0.0,0.0,0.0,-0.0736175522382,0.997286546587,0.35201,0.05,0.05,1.0,0.0,0.0,1.0,0,0,,,0
1449618395539189580,9,0,/odom,acmd_vector,0,0,0,0.0,0.0,0.0,0.0,0.0,-0.0736175522382,0.997286546587,0.35201,0.05,0.05,1.0,0.0,0.0,1.0,0,0,,,0
1449618395651301339,10,0,/odom,acmd_vector,0,0,0,0.0,0.0,0.0,0.0,0.0,-0.0736175522382,0.997286546587,0.35201,0.05,0.05,1.0,0.0,0.0,1.0,0,0,,,0
1449618395682488083,11,0,/odom,acmd_vector,0,0,0,0.0,0.0,0.0,0.0,0.0,-0.0736175522382,0.997286546587,0.35201,0.05,0.05,1.0,0.0,0.0,1.0,0,0,,,0
1449618395781407627,12,0,/odom,acmd_vector,0,0,0,0.0,0.0,0.0,0.0,0.0,-0.0736175522382,0.997286546587,0.35201,0.05,0.05,1.0,0.0,0.0,1.0,0,0,,,0
1449618395820254343,13,0,/odom,acmd_vector,0,0,0,0.0,0.0,0.0,0.0,0.0,-0.0736175522382,0.997286546587,0.35201,0.05,0.05,1.0,0.0,0.0,1.0,0,0,,,0
1449618395984467434,14,0,/odom,acmd_vector,0,0,0,0.0,0.0,0.0,0.0,0.0,-0.0736175522382,0.997286546587,0.35201,0.05,0.05,1.0,0.0,0.0,1.0,0,0,,,0
1449618396060178496,15,0,/odom,acmd_vector,0,0,0,0.0,0.0,0.0,0.0,0.0,-0.0736175522382,0.997286546587,0.35201,0.05,0.05,1.0,0.0,0.0,1.0,0,0,,,0
1449618396305660364,16,0,/odom,acmd_vector,0,0,0,0.00575958653158,0.0,0.0,0.0,0.0,-0.0736175522382,0.997286546587,0.35201,0.05,0.05,1.0,0.0,0.0,1.0,0,0,,,0
1449618396337233068,17,0,/odom,acmd_vector,0,0,0,0.00575958653158,0.0,0.0,0.0,0.0,-0.0736175522382,0.997286546587,0.35201,0.05,0.05,1.0,0.0,0.0,1.0,0,0,,,0
1449618396410651043,18,0,/odom,acmd_vector,0,0,0,0.00575958653158,0.0,0.0,0.0,0.0,-0.0736175522382,0.997286546587,0.35201,0.05,0.05,1.0,0.0,0.0,1.0,0,0,,,0
1449618396455177508,19,0,/odom,acmd_vector,0,0,0,0.0115190122517,-3.04332289367e-05,0.0,0.0,0.0,-0.0736175522382,0.997286546587,0.35201,0.05,0.05,1.0,0.0,0.0,1.0,0,0,,,0
1449618396607084959,20,0,/odom,acmd_vector,0,0,0,0.0115190122517,-3.04332289367e-05,0.0,0.0,0.0,-0.0736175522382,0.997286546587,0.35201,0.05,0.05,1.0,0.0,0.0,1.0,0,0,,,0
1449618396627603832,21,0,/odom,acmd_vector,0,0,0,0.0115190122517,-3.04332289367e-05,0.0,0.0,0.0,-0.0526072833381,0.998615278143,0.35201,0.05,0.05,1.0,0.0,0.0,1.0,0,0,,,0
1449618396689604709,22,0,/odom,acmd_vector,0,0,0,0.0115190122517,-3.04332289367e-05,0.0,0.0,0.0,-0.0526072833381,0.998615278143,0.35201,0.05,0.05,1.0,0.0,0.0,1.0,0,0,,,0
1449618396724582670,23,0,/odom,acmd_vector,0,0,0,0.00863937979737,0.0,0.0,0.0,0.0,-0.0578832317999,0.998323360178,0.35201,0.05,0.05,1.0,0.0,0.0,1.0,0,0,,,0
1449618396820333655,24,0,/odom,acmd_vector,0,0,0,0.00575958653158,0.0,0.0,0.0,0.0,-0.0526072833381,0.998615278143,0.35201,0.05,0.05,1.0,0.0,0.0,1.0,0,0,,,0
1449618396850539594,25,0,/odom,acmd_vector,0,0,0,0.00575958653158,0.0,0.0,0.0,0.0,-0.0526072833381,0.998615278143,0.35201,0.05,0.05,1.0,0.0,0.0,1.0,0,0,,,0
1449618396895638373,26,0,/odom,acmd_vector,0,0,0,0.00575958653158,0.0,0.0,0.0,0.0,-0.0526072833381,0.998615278143,0.35201,0.05,0.05,1.0,0.0,0.0,1.0,0,0,,,0
1449618397016383053,27,0,/odom,acmd_vector,0,0,0,0.00575958653158,0.0,0.0,0.0,0.0,-0.0736175522382,0.997286546587,0.35201,0.05,0.05,1.0,0.0,0.0,1.0,0,0,,,0
1449618397040689924,28,0,/odom,acmd_vector,0,0,0,0.00575958653158,0.0,0.0,0.0,0.0,-0.0736175522382,0.997286546587,0.35201,0.05,0.05,1.0,0.0,0.0,1.0,0,0,,,0
1449618397206480901,29,0,/odom,acmd_vector,0,0,0,0.00863921898595,-3.04332289367e-05,0.0,0.0,0.0,-0.0788861863706,0.996883628916,0.35201,0.05,0.05,1.0,0.0,0.0,1.0,0,0,,,0
1449618397232954498,30,0,/odom,acmd_vector,0,0,0,0.0115190122517,-3.04332289367e-05,0.0,0.0,0.0,-0.0736175522382,0.997286546587,0.35201,0.05,0.05,1.0,0.0,0.0,1.0,0,0,,,0
1449618397506566919,31,0,/odom,acmd_vector,0,0,0,0.0172785987833,-3.04332289367e-05,0.0,0.0,0.0,-0.0526072833381,0.998615278143,0.35201,0.05,0.05,1.0,0.0,0.0,1.0,0,0,,,0
1449618397552462513,32,0,/odom,acmd_vector,0,0,0,0.0172785987833,-3.04332289367e-05,0.0,0.0,0.0,-0.0526072833381,0.998615278143,0.35201,0.05,0.05,1.0,0.0,0.0,1.0,0,0,,,0
1449618397673932105,33,0,/odom,acmd_vector,0,0,0,0.0172785987833,-3.04332289367e-05,0.0,0.0,0.0,-0.0526072833381,0.998615278143,0.35201,0.05,0.05,1.0,0.0,0.0,1.0,0,0,,,0
1449618397782195287,34,0,/odom,acmd_vector,0,0,0,0.0172785987833,-3.04332289367e-05,0.0,0.0,0.0,-0.0526072833381,0.998615278143,0.35201,0.05,0.05,1.0,0.0,0.0,1.0,0,0,,,0
1449618397944654920,35,0,/odom,acmd_vector,0,0,0,0.0172785987833,-3.04332289367e-05,0.0,0.0,0.0,-0.0526072833381,0.998615278143,0.35201,0.05,0.05,1.0,0.0,0.0,1.0,0,0,,,0
1449618397985701447,36,0,/odom,acmd_vector,0,0,0,0.0172785987833,-3.04332289367e-05,0.0,0.0,0.0,-0.0526072833381,0.998615278143,0.35201,0.05,0.05,1.0,0.0,0.0,1.0,0,0,,,0
1449618398174904635,37,0,/odom,acmd_vector,0,0,0,0.0172785987833,-3.04332289367e-05,0.0,0.0,0.0,-0.0526072833381,0.998615278143,0.35201,0.05,0.05,1.0,0.0,0.0,1.0,0,0,,,0
1449618398259368370,38,0,/odom,acmd_vector,0,0,0,0.0172785987833,-3.04332289367e-05,0.0,0.0,0.0,-0.0526072833381,0.998615278143,0.35201,0.05,0.05,1.0,0.0,0.0,1.0,0,0,,,0
1449618398361810877,39,0,/odom,acmd_vector,0,0,0,0.0172785987833,-3.04332289367e-05,0.0,0.0,0.0,-0.0526072833381,0.998615278143,0.35201,0.05,0.05,1.0,0.0,0.0,1.0,0,0,,,0
1449618398432789336,40,0,/odom,acmd_vector,0,0,0,0.0172785987833,-3.04332289367e-05,0.0,0.0,0.0,-0.0526072833381,0.998615278143,0.35201,0.05,0.05,1.0,0.0,0.0,1.0,0,0,,,0
1449618398484591523,41,0,/odom,acmd_vector,0,0,0,0.0172785987833,-3.04332289367e-05,0.0,0.0,0.0,-0.0526072833381,0.998615278143,0.35201,0.05,0.05,1.0,0.0,0.0,1.0,0,0,,,0
1449618398526051830,42,0,/odom,acmd_vector,0,0,0,0.0172785987833,-3.04332289367e-05,0.0,0.0,0.0,-0.0526072833381,0.998615278143,0.35201,0.05,0.05,1.0,0.0,0.0,1.0,0,0,,,0
1449618398570761136,43,0,/odom,acmd_vector,0,0,0,0.0172785987833,-3.04332289367e-05,0.0,0.0,0.0,-0.0526072833381,0.998615278143,0.35201,0.05,0.05,1.0,0.0,0.0,1.0,0,0,,,0
1449618398603309537,44,0,/odom,acmd_vector,0,0,0,0.0172785987833,-3.04332289367e-05,0.0,0.0,0.0,-0.0526072833381,0.998615278143,0.35201,0.05,0.05,1.0,0.0,0.0,1.0,0,0,,,0
1449618398624735931,45,0,/odom,acmd_vector,0,0,0,0.0172785987833,-3.04332289367e-05,0.0,0.0,0.0,-0.0526072833381,0.998615278143,0.35201,0.05,0.05,1.0,0.0,0.0,1.0,0,0,,,0
1449618398689797069,46,0,/odom,acmd_vector,0,0,0,0.0172785987833,-3.04332289367e-05,0.0,0.0,0.0,-0.0526072833381,0.998615278143,0.35201,0.05,0.05,1.0,0.0,0.0,1.0,0,0,,,0
1449618398720367842,47,0,/odom,acmd_vector,0,0,0,0.0172785987833,-3.04332289367e-05,0.0,0.0,0.0,-0.0526072833381,0.998615278143,0.35201,0.05,0.05,1.0,0.0,0.0,1.0,0,0,,,0
1449618398760293830,48,0,/odom,acmd_vector,0,0,0,0.0172785987833,-3.04332289367e-05,0.0,0.0,0.0,-0.0526072833381,0.998615278143,0.35201,0.05,0.05,1.0,0.0,0.0,1.0,0,0,,,0
1449618398839878444,49,0,/odom,acmd_vector,0,0,0,0.0172785987833,-3.04332289367e-05,0.0,0.0,0.0,-0.0526072833381,0.998615278143,0.35201,0.05,0.05,1.0,0.0,0.0,1.0,0,0,,,0
1449618398880149567,50,0,/odom,acmd_vector,0,0,0,0.0172785987833,-3.04332289367e-05,0.0,0.0,0.0,-0.0526072833381,0.998615278143,0.35201,0.05,0.05,1.0,0.0,0.0,1.0,0,0,,,0
1449618398957150096,51,0,/odom,acmd_vector,0,0,0,0.0172785987833,-3.04332289367e-05,0.0,0.0,0.0,-0.0526072833381,0.998615278143,0.35201,0.05,0.05,1.0,0.0,0.0,1.0,0,0,,,0
1449618399083593707,52,0,/odom,acmd_vector,0,0,0,0.0172785987833,-3.04332289367e-05,0.0,0.0,0.0,-0.0526072833381,0.998615278143,0.35201,0.05,0.05,1.0,0.0,0.0,1.0,0,0,,,0
1449618399125858149,53,0,/odom,acmd_vector,0,0,0,0.0230380245035,1.01643953671e-20,0.0,0.0,0.0,-0.0526072833381,0.998615278143,0.35201,0.05,0.05,1.0,0.0,0.0,1.0,0,0,,,0
1449618399462092064,54,0,/odom,acmd_vector,0,0,0,0.0374366692096,6.08664578733e-05,0.0,0.0,0.0,-0.0683468626413,0.997661619171,0.35201,0.05,0.05,1.0,0.0,0.0,1.0,0,0,,,0
1449618399629365154,55,0,/odom,acmd_vector,0,0,0,0.0431960949298,9.129968681e-05,0.0,0.0,0.0,-0.0683468626413,0.997661619171,0.35201,0.05,0.05,1.0,0.0,0.0,1.0,0,0,,,0
1449618399780087963,56,0,/odom,acmd_vector,0,0,0,0.0489553598385,0.000152166144683,0.0,0.0,0.0,-0.0473298660362,0.998879313922,0.35201,0.05,0.05,1.0,0.0,0.0,1.0,0,0,,,0
1449618400145381531,57,0,/odom,acmd_vector,0,0,0,0.0489553598385,0.000152166144683,0.0,0.0,0.0,-0.0473298660362,0.998879313922,0.35201,0.05,0.05,1.0,0.0,0.0,1.0,0,0,,,0
1449618400189775570,58,0,/odom,acmd_vector,0,0,0,0.0489553598385,0.000152166144683,0.0,0.0,0.0,-0.0683468626413,0.997661619171,0.35201,0.05,0.05,1.0,0.0,0.0,1.0,0,0,,,0
1449618400225504694,59,0,/odom,acmd_vector,0,0,0,0.0489553598385,0.000152166144683,0.0,0.0,0.0,-0.0683468626413,0.997661619171,0.35201,0.05,0.05,1.0,0.0,0.0,1.0,0,0,,,0
1449618400305644622,60,0,/odom,acmd_vector,0,0,0,0.0489553598385,0.000152166144683,0.0,0.0,0.0,-0.0473298660362,0.998879313922,0.35201,0.05,0.05,1.0,0.0,0.0,1.0,0,0,,,0
1449618400334523795,61,0,/odom,acmd_vector,0,0,0,0.0489553598385,0.000152166144683,0.0,0.0,0.0,-0.0473298660362,0.998879313922,0.35201,0.05,0.05,1.0,0.0,0.0,1.0,0,0,,,0
1449618400373124953,62,0,/odom,acmd_vector,0,0,0,0.0489553598385,0.000152166144683,0.0,0.0,0.0,-0.0473298660362,0.998879313922,0.35201,0.05,0.05,1.0,0.0,0.0,1.0,0,0,,,0
1449618400476811919,63,0,/odom,acmd_vector,0,0,0,0.0489553598385,0.000152166144683,0.0,0.0,0.0,-0.0473298660362,0.998879313922,0.35201,0.05,0.05,1.0,0.0,0.0,1.0,0,0,,,0
1449618400795691217,64,0,/odom,acmd_vector,0,0,0,0.0489553598385,0.000152166144683,0.0,0.0,0.0,-0.0473298660362,0.998879313922,0.35201,0.05,0.05,1.0,0.0,0.0,1.0,0,0,,,0
1449618400886639575,65,0,/odom,acmd_vector,0,0,0,0.0489553598385,0.000152166144683,0.0,0.0,0.0,-0.0473298660362,0.998879313922,0.35201,0.05,0.05,1.0,0.0,0.0,1.0,0,0,,,0
1449618400939549010,66,0,/odom,acmd_vector,0,0,0,0.0489553598385,0.000152166144683,0.0,0.0,0.0,-0.0473298660362,0.998879313922,0.35201,0.05,0.05,1.0,0.0,0.0,1.0,0,0,,,0
1449618401037003616,67,0,/odom,acmd_vector,0,0,0,0.0489553598385,0.000152166144683,0.0,0.0,0.0,-0.0683468626413,0.997661619171,0.35201,0.05,0.05,1.0,0.0,0.0,1.0,0,0,,,0
1449618401070967611,68,0,/odom,acmd_vector,0,0,0,0.0489553598385,0.000152166144683,0.0,0.0,0.0,-0.0683468626413,0.997661619171,0.35201,0.05,0.05,1.0,0.0,0.0,1.0,0,0,,,0
1449618401166303793,69,0,/odom,acmd_vector,0,0,0,0.0489553598385,0.000152166144683,0.0,0.0,0.0,-0.0683468626413,0.997661619171,0.35201,0.05,0.05,1.0,0.0,0.0,1.0,0,0,,,0
1449618401212408036,70,0,/odom,acmd_vector,0,0,0,0.0489553598385,0.000152166144683,0.0,0.0,0.0,-0.0683468626413,0.997661619171,0.35201,0.05,0.05,1.0,0.0,0.0,1.0,0,0,,,0
1449618401244698629,71,0,/odom,acmd_vector,0,0,0,0.0489553598385,0.000152166144683,0.0,0.0,0.0,-0.0683468626413,0.997661619171,0.35201,0.05,0.05,1.0,0.0,0.0,1.0,0,0,,,0
1449618415190164817,72,0,/odom,acmd_vector,0,0,0,0.057593292369,0.000304325491641,0.0,0.0,0.0,-0.0420511272444,0.999115460143,0.35201,0.05,0.05,1.0,0.0,0.0,1.0,0,0,,,0
1449618415234417423,73,0,/odom,acmd_vector,0,0,0,0.057593292369,0.000304325491641,0.0,0.0,0.0,-0.0420511272444,0.999115460143,0.35201,0.05,0.05,1.0,0.0,0.0,1.0,0,0,,,0
1449618415362857135,74,0,/odom,acmd_vector,0,0,0,0.057593292369,0.000304325491641,0.0,0.0,0.0,-0.0420511272444,0.999115460143,0.35201,0.05,0.05,1.0,0.0,0.0,1.0,0,0,,,0
1449618415444617484,75,0,/odom,acmd_vector,0,0,0,0.057593292369,0.000304325491641,0.0,0.0,0.0,-0.0420511272444,0.999115460143,0.35201,0.05,0.05,1.0,0.0,0.0,1.0,0,0,,,0
1449618415474652257,76,0,/odom,acmd_vector,0,0,0,0.057593292369,0.000304325491641,0.0,0.0,0.0,-0.0420511272444,0.999115460143,0.35201,0.05,0.05,1.0,0.0,0.0,1.0,0,0,,,0
1449618415494326701,77,0,/odom,acmd_vector,0,0,0,0.057593292369,0.000304325491641,0.0,0.0,0.0,-0.0420511272444,0.999115460143,0.35201,0.05,0.05,1.0,0.0,0.0,1.0,0,0,,,0
1449618415652637393,78,0,/odom,acmd_vector,0,0,0,0.057593292369,0.000304325491641,0.0,0.0,0.0,-0.0420511272444,0.999115460143,0.35201,0.05,0.05,1.0,0.0,0.0,1.0,0,0,,,0
1449618415725699462,79,0,/odom,acmd_vector,0,0,0,0.057593292369,0.000304325491641,0.0,0.0,0.0,-0.0420511272444,0.999115460143,0.35201,0.05,0.05,1.0,0.0,0.0,1.0,0,0,,,0
1449618415734563090,80,0,/odom,acmd_vector,0,0,0,0.057593292369,0.000304325491641,0.0,0.0,0.0,-0.0420511272444,0.999115460143,0.35201,0.05,0.05,1.0,0.0,0.0,1.0,0,0,,,0
1449618415775234310,81,0,/odom,acmd_vector,0,0,0,0.057593292369,0.000304325491641,0.0,0.0,0.0,-0.0420511272444,0.999115460143,0.35201,0.05,0.05,1.0,0.0,0.0,1.0,0,0,,,0
1449618415814847260,82,0,/odom,acmd_vector,0,0,0,0.057593292369,0.000304325491641,0.0,0.0,0.0,-0.0420511272444,0.999115460143,0.35201,0.05,0.05,1.0,0.0,0.0,1.0,0,0,,,0
1449618415850225449,83,0,/odom,acmd_vector,0,0,0,0.057593292369,0.000304325491641,0.0,0.0,0.0,-0.0420511272444,0.999115460143,0.35201,0.05,0.05,1.0,0.0,0.0,1.0,0,0,,,0
1449618415906776510,84,0,/odom,acmd_vector,0,0,0,0.057593292369,0.000304325491641,0.0,0.0,0.0,-0.0420511272444,0.999115460143,0.35201,0.05,0.05,1.0,0.0,0.0,1.0,0,0,,,0
1449618415924864003,85,0,/odom,acmd_vector,0,0,0,0.057593292369,0.000304325491641,0.0,0.0,0.0,-0.0420511272444,0.999115460143,0.35201,0.05,0.05,1.0,0.0,0.0,1.0,0,0,,,0
1449618415990401247,86,0,/odom,acmd_vector,0,0,0,0.057593292369,0.000304325491641,0.0,0.0,0.0,-0.0420511272444,0.999115460143,0.35201,0.05,0.05,1.0,0.0,0.0,1.0,0,0,,,0
1449618416007882053,87,0,/odom,acmd_vector,0,0,0,0.057593292369,0.000304325491641,0.0,0.0,0.0,-0.0420511272444,0.999115460143,0.35201,0.05,0.05,1.0,0.0,0.0,1.0,0,0,,,0
1449618416100367769,88,0,/odom,acmd_vector,0,0,0,0.057593292369,0.000304325491641,0.0,0.0,0.0,-0.0420511272444,0.999115460143,0.35201,0.05,0.05,1.0,0.0,0.0,1.0,0,0,,,0
1449618416125633588,89,0,/odom,acmd_vector,0,0,0,0.057593292369,0.000304325491641,0.0,0.0,0.0,-0.0420511272444,0.999115460143,0.35201,0.05,0.05,1.0,0.0,0.0,1.0,0,0,,,0
1449618416133367232,90,0,/odom,acmd_vector,0,0,0,0.057593292369,0.000304325491641,0.0,0.0,0.0,-0.0420511272444,0.999115460143,0.35201,0.05,0.05,1.0,0.0,0.0,1.0,0,0,,,0
1449618416184742769,91,0,/odom,acmd_vector,0,0,0,0.057593292369,0.000304325491641,0.0,0.0,0.0,-0.0420511272444,0.999115460143,0.35201,0.05,0.05,1.0,0.0,0.0,1.0,0,0,,,0
1449618416204317665,92,0,/odom,acmd_vector,0,0,0,0.057593292369,0.000304325491641,0.0,0.0,0.0,-0.0420511272444,0.999115460143,0.35201,0.05,0.05,1.0,0.0,0.0,1.0,0,0,,,0
1449618416291314675,93,0,/odom,acmd_vector,0,0,0,0.057593292369,0.000304325491641,0.0,0.0,0.0,-0.0420511272444,0.999115460143,0.35201,0.05,0.05,1.0,0.0,0.0,1.0,0,0,,,0
1449618416304184539,94,0,/odom,acmd_vector,0,0,0,0.057593292369,0.000304325491641,0.0,0.0,0.0,-0.0420511272444,0.999115460143,0.35201,0.05,0.05,1.0,0.0,0.0,1.0,0,0,,,0
1449618416367510743,95,0,/odom,acmd_vector,0,0,0,0.057593292369,0.000304325491641,0.0,0.0,0.0,-0.0420511272444,0.999115460143,0.35201,0.05,0.05,1.0,0.0,0.0,1.0,0,0,,,0
1449618416377621360,96,0,/odom,acmd_vector,0,0,0,0.057593292369,0.000304325491641,0.0,0.0,0.0,-0.0420511272444,0.999115460143,0.35201,0.05,0.05,1.0,0.0,0.0,1.0,0,0,,,0
1449618416411139775,97,0,/odom,acmd_vector,0,0,0,0.057593292369,0.000304325491641,0.0,0.0,0.0,-0.0420511272444,0.999115460143,0.35201,0.05,0.05,1.0,0.0,0.0,1.0,0,0,,,0
1449618416445346488,98,0,/odom,acmd_vector,0,0,0,0.0604729248234,0.000334758720578,0.0,0.0,0.0,-0.0473298660362,0.998879313922,0.35201,0.05,0.05,1.0,0.0,0.0,1.0,0,0,,,0
1449618416531087125,99,0,/odom,acmd_vector,0,0,0,0.0604729248234,0.000334758720578,0.0,0.0,0.0,-0.0473298660362,0.998879313922,0.35201,0.05,0.05,1.0,0.0,0.0,1.0,0,0,,,0
1449618416540748292,100,0,/odom,acmd_vector,0,0,0,0.0604729248234,0.000334758720578,0.0,0.0,0.0,-0.0473298660362,0.998879313922,0.35201,0.05,0.05,1.0,0.0,0.0,1.0,0,0,,,0
1449618416563490792,101,0,/odom,acmd_vector,0,0,0,0.0604729248234,0.000334758720578,0.0,0.0,0.0,-0.0473298660362,0.998879313922,0.35201,0.05,0.05,1.0,0.0,0.0,1.0,0,0,,,0
1449618416602920259,102,0,/odom,acmd_vector,0,0,0,0.0604729248234,0.000334758720578,0.0,0.0,0.0,-0.0473298660362,0.998879313922,0.35201,0.05,0.05,1.0,0.0,0.0,1.0,0,0,,,0
1449618416643000892,103,0,/odom,acmd_vector,0,0,0,0.0633520748615,0.000395621779589,0.0,0.0,0.0,-0.0420511272444,0.999115460143,0.35201,0.05,0.05,1.0,0.0,0.0,1.0,0,0,,,0
1449618416690085124,104,0,/odom,acmd_vector,0,0,0,0.0662317073158,0.000426055008525,0.0,0.0,0.0,-0.0473298660362,0.998879313922,0.35201,0.05,0.05,1.0,0.0,0.0,1.0,0,0,,,0
1449618416766168879,105,0,/odom,acmd_vector,0,0,0,0.0691108573539,0.000486918067536,0.0,0.0,0.0,-0.0420511272444,0.999115460143,0.35201,0.05,0.05,1.0,0.0,0.0,1.0,0,0,,,0
1449618416773677564,106,0,/odom,acmd_vector,0,0,0,0.0691108573539,0.000486918067536,0.0,0.0,0.0,-0.0420511272444,0.999115460143,0.35201,0.05,0.05,1.0,0.0,0.0,1.0,0,0,,,0
1449618416806223324,107,0,/odom,acmd_vector,0,0,0,0.0719904898083,0.000517351296473,0.0,0.0,0.0,-0.0473298660362,0.998879313922,0.35201,0.05,0.05,1.0,0.0,0.0,1.0,0,0,,,0
1449618416847329977,108,0,/odom,acmd_vector,0,0,0,0.0719904898083,0.000517351296473,0.0,0.0,0.0,-0.0473298660362,0.998879313922,0.35201,0.05,0.05,1.0,0.0,0.0,1.0,0,0,,,0
1449618416894885000,109,0,/odom,acmd_vector,0,0,0,0.0777492723007,0.00060864758442,0.0,0.0,0.0,-0.0473298660362,0.998879313922,0.35201,0.05,0.05,1.0,0.0,0.0,1.0,0,0,,,0
1449618416925381073,110,0,/odom,acmd_vector,0,0,0,0.0777492723007,0.00060864758442,0.0,0.0,0.0,-0.0473298660362,0.998879313922,0.35201,0.05,0.05,1.0,0.0,0.0,1.0,0,0,,,0
1449618416982443295,111,0,/odom,acmd_vector,0,0,0,0.0777492723007,0.00060864758442,0.0,0.0,0.0,-0.0683468626413,0.997661619171,0.35201,0.05,0.05,1.0,0.0,0.0,1.0,0,0,,,0
1449618417004882901,112,0,/odom,acmd_vector,0,0,0,0.0835080547932,0.000699943872368,0.0,0.0,0.0,-0.0683468626413,0.997661619171,0.35201,0.05,0.05,1.0,0.0,0.0,1.0,0,0,,,0
1449618417106411920,113,0,/odom,acmd_vector,0,0,0,0.0835080547932,0.000699943872368,0.0,0.0,0.0,-0.0683468626413,0.997661619171,0.35201,0.05,0.05,1.0,0.0,0.0,1.0,0,0,,,0
1449618417127427518,114,0,/odom,acmd_vector,0,0,0,0.0921455049074,0.0008825330494,0.0,0.0,0.0,-0.0630742647421,0.998008836197,0.35201,0.05,0.05,1.0,0.0,0.0,1.0,0,0,,,0
1449618417179076014,115,0,/odom,acmd_vector,0,0,0,0.0979038049835,0.00100425916742,0.0,0.0,0.0,-0.0630742647421,0.998008836197,0.35201,0.05,0.05,1.0,0.0,0.0,1.0,0,0,,,0
1449618417204152398,116,0,/odom,acmd_vector,0,0,0,0.10366210506,0.00112598528544,0.0,0.0,0.0,-0.0630742647421,0.998008836197,0.35201,0.05,0.05,1.0,0.0,0.0,1.0,0,0,,,0
1449618417227215936,117,0,/odom,acmd_vector,0,0,0,0.10366210506,0.00112598528544,0.0,0.0,0.0,-0.0420511272444,0.999115460143,0.35201,0.05,0.05,1.0,0.0,0.0,1.0,0,0,,,0
1449618417242291892,118,0,/odom,acmd_vector,0,0,0,0.10366210506,0.00112598528544,0.0,0.0,0.0,-0.0420511272444,0.999115460143,0.35201,0.05,0.05,1.0,0.0,0.0,1.0,0,0,,,0
1449618417320650081,119,0,/odom,acmd_vector,0,0,0,0.10366210506,0.00112598528544,0.0,0.0,0.0,-0.0420511272444,0.999115460143,0.35201,0.05,0.05,1.0,0.0,0.0,1.0,0,0,,,0
1449618417337327349,120,0,/odom,acmd_vector,0,0,0,0.112298751207,0.0013389974952,0.0,0.0,0.0,-0.0367712143494,0.999323710214,0.35201,0.05,0.05,1.0,0.0,0.0,1.0,0,0,,,0
1449618417643472820,121,0,/odom,acmd_vector,0,0,0,0.141087035718,0.00206932021623,0.0,0.0,0.0,-0.0577999057558,0.99832818797,0.35201,0.05,0.05,1.0,0.0,0.0,1.0,0,0,,,0
1449618417691497831,122,0,/odom,acmd_vector,0,0,0,0.143966185756,0.00213018327524,0.0,0.0,0.0,-0.0420511272444,0.999115460143,0.35201,0.05,0.05,1.0,0.0,0.0,1.0,0,0,,,0
1449618417723513052,123,0,/odom,acmd_vector,0,0,0,0.152601223969,0.00240404155045,0.0,0.0,0.0,-0.0367712143494,0.999323710214,0.35201,0.05,0.05,1.0,0.0,0.0,1.0,0,0,,,0
1449618417860201989,124,0,/odom,acmd_vector,0,0,0,0.15835791611,0.00258661373393,0.0,0.0,0.0,-0.0788029804216,0.996890209741,0.35201,0.05,0.05,1.0,0.0,0.0,1.0,0,0,,,0
1449618418013746717,125,0,/odom,acmd_vector,0,0,0,0.164114608252,0.00276918591741,0.0,0.0,0.0,-0.0577999057558,0.99832818797,0.35201,0.05,0.05,1.0,0.0,0.0,1.0,0,0,,,0
1449618418061692883,126,0,/odom,acmd_vector,0,0,0,0.175627992535,0.00313433028437,0.0,0.0,0.0,-0.0577999057558,0.99832818797,0.35201,0.05,0.05,1.0,0.0,0.0,1.0,0,0,,,0
1449618418097853511,127,0,/odom,acmd_vector,0,0,0,0.178505213177,0.00325602921377,0.0,0.0,0.0,-0.0525239329472,0.998619665572,0.35201,0.05,0.05,1.0,0.0,0.0,1.0,0,0,,,0
1449618418110898148,128,0,/odom,acmd_vector,0,0,0,0.181383559248,0.00334731530551,0.0,0.0,0.0,-0.0788029804216,0.996890209741,0.35201,0.05,0.05,1.0,0.0,0.0,1.0,0,0,,,0
1449618418132081968,129,0,/odom,acmd_vector,0,0,0,0.181383559248,0.00334731530551,0.0,0.0,0.0,-0.0788029804216,0.996890209741,0.35201,0.05,0.05,1.0,0.0,0.0,1.0,0,0,,,0
1449618418172214417,130,0,/odom,acmd_vector,0,0,0,0.181383559248,0.00334731530551,0.0,0.0,0.0,-0.0577999057558,0.99832818797,0.35201,0.05,0.05,1.0,0.0,0.0,1.0,0,0,,,0
1449618418213272837,131,0,/odom,acmd_vector,0,0,0,0.18426077989,0.00346901423491,0.0,0.0,0.0,-0.0525239329472,0.998619665572,0.35201,0.05,0.05,1.0,0.0,0.0,1.0,0,0,,,0
1449618418314657216,132,0,/odom,acmd_vector,0,0,0,0.187139125961,0.00356030032665,0.0,0.0,0.0,-0.0577999057558,0.99832818797,0.35201,0.05,0.05,1.0,0.0,0.0,1.0,0,0,,,0
1449618418357824865,133,0,/odom,acmd_vector,0,0,0,0.190016346603,0.00368199925604,0.0,0.0,0.0,-0.0525239329472,0.998619665572,0.35201,0.05,0.05,1.0,0.0,0.0,1.0,0,0,,,0
1449618418594107818,134,0,/odom,acmd_vector,0,0,0,0.201526354601,0.00413838213598,0.0,0.0,0.0,-0.0525239329472,0.998619665572,0.35201,0.05,0.05,1.0,0.0,0.0,1.0,0,0,,,0
1449618418682605095,135,0,/odom,acmd_vector,0,0,0,0.207280795885,0.00438177999478,0.0,0.0,0.0,-0.0525239329472,0.998619665572,0.35201,0.05,0.05,1.0,0.0,0.0,1.0,0,0,,,0
1449618418823839612,136,0,/odom,acmd_vector,0,0,0,0.21303523717,0.00462517785357,0.0,0.0,0.0,-0.0525239329472,0.998619665572,0.35201,0.05,0.05,1.0,0.0,0.0,1.0,0,0,,,0
1449618418853762386,137,0,/odom,acmd_vector,0,0,0,0.218789678454,0.00486857571237,0.0,0.0,0.0,-0.0525239329472,0.998619665572,0.35201,0.05,0.05,1.0,0.0,0.0,1.0,0,0,,,0
1449618418972985880,138,0,/odom,acmd_vector,0,0,0,0.221665452333,0.00502067388778,0.0,0.0,0.0,-0.0472464936258,0.998883260867,0.35201,0.05,0.05,1.0,0.0,0.0,1.0,0,0,,,0
1449618419064889721,139,0,/odom,acmd_vector,0,0,0,0.227418446853,0.00529447099258,0.0,0.0,0.0,-0.0472464936258,0.998883260867,0.35201,0.05,0.05,1.0,0.0,0.0,1.0,0,0,,,0
1449618419337795343,140,0,/odom,acmd_vector,0,0,0,0.236048662016,0.00568996702678,0.0,0.0,0.0,-0.0525239329472,0.998619665572,0.35201,0.05,0.05,1.0,0.0,0.0,1.0,0,0,,,0
1449618419348288286,141,0,/odom,acmd_vector,0,0,0,0.238924435894,0.00584206520218,0.0,0.0,0.0,-0.0472464936258,0.998883260867,0.35201,0.05,0.05,1.0,0.0,0.0,1.0,0,0,,,0
1449618419497624926,142,0,/odom,acmd_vector,0,0,0,0.238924435894,0.00584206520218,0.0,0.0,0.0,-0.0682635917935,0.99766732032,0.35201,0.05,0.05,1.0,0.0,0.0,1.0,0,0,,,0
1449618419516859965,143,0,/odom,acmd_vector,0,0,0,0.238924435894,0.00584206520218,0.0,0.0,0.0,-0.0472464936258,0.998883260867,0.35201,0.05,0.05,1.0,0.0,0.0,1.0,0,0,,,0
1449618419630773292,144,0,/odom,acmd_vector,0,0,0,0.238924435894,0.00584206520218,0.0,0.0,0.0,-0.0472464936258,0.998883260867,0.35201,0.05,0.05,1.0,0.0,0.0,1.0,0,0,,,0
1449618419667154597,145,0,/odom,acmd_vector,0,0,0,0.238924435894,0.00584206520218,0.0,0.0,0.0,-0.0472464936258,0.998883260867,0.35201,0.05,0.05,1.0,0.0,0.0,1.0,0,0,,,0
1449618419779717157,146,0,/odom,acmd_vector,0,0,0,0.238924435894,0.00584206520218,0.0,0.0,0.0,-0.0472464936258,0.998883260867,0.35201,0.05,0.05,1.0,0.0,0.0,1.0,0,0,,,0
1449618419822813216,147,0,/odom,acmd_vector,0,0,0,0.238924435894,0.00584206520218,0.0,0.0,0.0,-0.0472464936258,0.998883260867,0.35201,0.05,0.05,1.0,0.0,0.0,1.0,0,0,,,0
1449618419953888051,148,0,/odom,acmd_vector,0,0,0,0.238924435894,0.00584206520218,0.0,0.0,0.0,-0.0472464936258,0.998883260867,0.35201,0.05,0.05,1.0,0.0,0.0,1.0,0,0,,,0
1449618420022006284,149,0,/odom,acmd_vector,0,0,0,0.238924435894,0.00584206520218,0.0,0.0,0.0,-0.0472464936258,0.998883260867,0.35201,0.05,0.05,1.0,0.0,0.0,1.0,0,0,,,0
1449618420029168919,150,0,/odom,acmd_vector,0,0,0,0.238924435894,0.00584206520218,0.0,0.0,0.0,-0.0472464936258,0.998883260867,0.35201,0.05,0.05,1.0,0.0,0.0,1.0,0,0,,,0
1449618420187246476,151,0,/odom,acmd_vector,0,0,0,0.238924435894,0.00584206520218,0.0,0.0,0.0,-0.0472464936258,0.998883260867,0.35201,0.05,0.05,1.0,0.0,0.0,1.0,0,0,,,0
1449618420265861355,152,0,/odom,acmd_vector,0,0,0,0.241801656536,0.00596376413158,0.0,0.0,0.0,-0.0525239329472,0.998619665572,0.35201,0.05,0.05,1.0,0.0,0.0,1.0,0,0,,,0
1449618420296267193,153,0,/odom,acmd_vector,0,0,0,0.241801656536,0.00596376413158,0.0,0.0,0.0,-0.0525239329472,0.998619665572,0.35201,0.05,0.05,1.0,0.0,0.0,1.0,0,0,,,0
1449618420334193627,154,0,/odom,acmd_vector,0,0,0,0.241801656536,0.00596376413158,0.0,0.0,0.0,-0.0525239329472,0.998619665572,0.35201,0.05,0.05,1.0,0.0,0.0,1.0,0,0,,,0
1449618420399165910,155,0,/odom,acmd_vector,0,0,0,0.244677430415,0.00611586230698,0.0,0.0,0.0,-0.0472464936258,0.998883260867,0.35201,0.05,0.05,1.0,0.0,0.0,1.0,0,0,,,0
1449618420428924048,156,0,/odom,acmd_vector,0,0,0,0.244677430415,0.00611586230698,0.0,0.0,0.0,-0.0472464936258,0.998883260867,0.35201,0.05,0.05,1.0,0.0,0.0,1.0,0,0,,,0
1449618420531522569,157,0,/odom,acmd_vector,0,0,0,0.244677430415,0.00611586230698,0.0,0.0,0.0,-0.0472464936258,0.998883260867,0.35201,0.05,0.05,1.0,0.0,0.0,1.0,0,0,,,0
1449618420561355113,158,0,/odom,acmd_vector,0,0,0,0.244677430415,0.00611586230698,0.0,0.0,0.0,-0.0472464936258,0.998883260867,0.35201,0.05,0.05,1.0,0.0,0.0,1.0,0,0,,,0
1449618420602295564,159,0,/odom,acmd_vector,0,0,0,0.244677430415,0.00611586230698,0.0,0.0,0.0,-0.0472464936258,0.998883260867,0.35201,0.05,0.05,1.0,0.0,0.0,1.0,0,0,,,0
1449618420665601791,160,0,/odom,acmd_vector,0,0,0,0.247554651057,0.00623756123638,0.0,0.0,0.0,-0.0525239329472,0.998619665572,0.35201,0.05,0.05,1.0,0.0,0.0,1.0,0,0,,,0
1449618420713216300,161,0,/odom,acmd_vector,0,0,0,0.250430424935,0.00638965941179,0.0,0.0,0.0,-0.0472464936258,0.998883260867,0.35201,0.05,0.05,1.0,0.0,0.0,1.0,0,0,,,0
1449618420763246938,162,0,/odom,acmd_vector,0,0,0,0.250430424935,0.00638965941179,0.0,0.0,0.0,-0.0472464936258,0.998883260867,0.35201,0.05,0.05,1.0,0.0,0.0,1.0,0,0,,,0
1449618420863129316,163,0,/odom,acmd_vector,0,0,0,0.250430424935,0.00638965941179,0.0,0.0,0.0,-0.0472464936258,0.998883260867,0.35201,0.05,0.05,1.0,0.0,0.0,1.0,0,0,,,0
1449618420918622824,164,0,/odom,acmd_vector,0,0,0,0.256183419456,0.00666345651659,0.0,0.0,0.0,-0.0472464936258,0.998883260867,0.35201,0.05,0.05,1.0,0.0,0.0,1.0,0,0,,,0
1449618421041516239,165,0,/odom,acmd_vector,0,0,0,0.259060640098,0.00678515544599,0.0,0.0,0.0,-0.0525239329472,0.998619665572,0.35201,0.05,0.05,1.0,0.0,0.0,1.0,0,0,,,0
1449618421079913415,166,0,/odom,acmd_vector,0,0,0,0.267687961732,0.0072414499722,0.0,0.0,0.0,-0.0472464936258,0.998883260867,0.35201,0.05,0.05,1.0,0.0,0.0,1.0,0,0,,,0
1449618421111093901,167,0,/odom,acmd_vector,0,0,0,0.273439509489,0.007545646323,0.0,0.0,0.0,-0.0682635917935,0.99766732032,0.35201,0.05,0.05,1.0,0.0,0.0,1.0,0,0,,,0
1449618421201948160,168,0,/odom,acmd_vector,0,0,0,0.273439509489,0.007545646323,0.0,0.0,0.0,-0.0472464936258,0.998883260867,0.35201,0.05,0.05,1.0,0.0,0.0,1.0,0,0,,,0
1449618421255691175,169,0,/odom,acmd_vector,0,0,0,0.284942605002,0.00815403902462,0.0,0.0,0.0,-0.0472464936258,0.998883260867,0.35201,0.05,0.05,1.0,0.0,0.0,1.0,0,0,,,0
1449618421418915771,170,0,/odom,acmd_vector,0,0,0,0.293564622823,0.00870148032868,0.0,0.0,0.0,-0.0419677351422,0.999118966493,0.35201,0.05,0.05,1.0,0.0,0.0,1.0,0,0,,,0
1449618421459852647,171,0,/odom,acmd_vector,0,0,0,0.313689736156,0.00985731433435,0.0,0.0,0.0,-0.0472464936258,0.998883260867,0.35201,0.05,0.05,1.0,0.0,0.0,1.0,0,0,,,0
1449618421499891659,172,0,/odom,acmd_vector,0,0,0,0.322311753977,0.0104047556384,0.0,0.0,0.0,-0.0629909649319,0.998014097264,0.35201,0.05,0.05,1.0,0.0,0.0,1.0,0,0,,,0
1449618421600391520,173,0,/odom,acmd_vector,0,0,0,0.328059765858,0.0107697165078,0.0,0.0,0.0,-0.0629909649319,0.998014097264,0.35201,0.05,0.05,1.0,0.0,0.0,1.0,0,0,,,0
1449618421715823073,174,0,/odom,acmd_vector,0,0,0,0.345303801499,0.0118645991159,0.0,0.0,0.0,-0.0629909649319,0.998014097264,0.35201,0.05,0.05,1.0,0.0,0.0,1.0,0,0,,,0
1449618421899599373,175,0,/odom,acmd_vector,0,0,0,0.368295849021,0.0133244425934,0.0,0.0,0.0,-0.0629909649319,0.998014097264,0.35201,0.05,0.05,1.0,0.0,0.0,1.0,0,0,,,0
1449618421925638848,176,0,/odom,acmd_vector,0,0,0,0.402777653561,0.0156052934478,0.0,0.0,0.0,-0.0629909649319,0.998014097264,0.35201,0.05,0.05,1.0,0.0,0.0,1.0,0,0,,,0
1449618422011394352,177,0,/odom,acmd_vector,0,0,0,0.408525665442,0.0159702543172,0.0,0.0,0.0,-0.0629909649319,0.998014097264,0.35201,0.05,0.05,1.0,0.0,0.0,1.0,0,0,,,0
1449618422043832633,178,0,/odom,acmd_vector,0,0,0,0.440125108383,0.0181900722545,0.0,0.0,0.0,-0.057716579309,0.998333008807,0.35201,0.05,0.05,1.0,0.0,0.0,1.0,0,0,,,0
1449618422098890537,179,0,/odom,acmd_vector,0,0,0,0.440125108383,0.0181900722545,0.0,0.0,0.0,-0.057716579309,0.998333008807,0.35201,0.05,0.05,1.0,0.0,0.0,1.0,0,0,,,0
1449618422129501407,180,0,/odom,acmd_vector,0,0,0,0.463100444589,0.0198928107671,0.0,0.0,0.0,-0.057716579309,0.998333008807,0.35201,0.05,0.05,1.0,0.0,0.0,1.0,0,0,,,0
1449618422227831948,181,0,/odom,acmd_vector,0,0,0,0.463100444589,0.0198928107671,0.0,0.0,0.0,-0.057716579309,0.998333008807,0.35201,0.05,0.05,1.0,0.0,0.0,1.0,0,0,,,0
1449618422253908041,182,0,/odom,acmd_vector,0,0,0,0.497563448899,0.022446918536,0.0,0.0,0.0,-0.0787197739237,0.996896783621,0.35201,0.05,0.05,1.0,0.0,0.0,1.0,0,0,,,0
1449618422288476814,183,0,/odom,acmd_vector,0,0,0,0.509051117002,0.0232982877923,0.0,0.0,0.0,-0.0787197739237,0.996896783621,0.35201,0.05,0.05,1.0,0.0,0.0,1.0,0,0,,,0
1449618422418049663,184,0,/odom,acmd_vector,0,0,0,0.509051117002,0.0232982877923,0.0,0.0,0.0,-0.0787197739237,0.996896783621,0.35201,0.05,0.05,1.0,0.0,0.0,1.0,0,0,,,0
1449618422468838896,185,0,/odom,acmd_vector,0,0,0,0.555001789415,0.0267037648176,0.0,0.0,0.0,-0.0787197739237,0.996896783621,0.35201,0.05,0.05,1.0,0.0,0.0,1.0,0,0,,,0
1449618422518580270,186,0,/odom,acmd_vector,0,0,0,0.566489457518,0.0275551340739,0.0,0.0,0.0,-0.0787197739237,0.996896783621,0.35201,0.05,0.05,1.0,0.0,0.0,1.0,0,0,,,0
1449618422545572275,187,0,/odom,acmd_vector,0,0,0,0.577977125621,0.0284065033302,0.0,0.0,0.0,-0.0787197739237,0.996896783621,0.35201,0.05,0.05,1.0,0.0,0.0,1.0,0,0,,,0
1449618422636547701,188,0,/odom,acmd_vector,0,0,0,0.592324662462,0.0296224054436,0.0,0.0,0.0,-0.073451072605,0.997298821785,0.35201,0.05,0.05,1.0,0.0,0.0,1.0,0,0,,,0
1449618422686069316,189,0,/odom,acmd_vector,0,0,0,0.61528795038,0.0314768344993,0.0,0.0,0.0,-0.073451072605,0.997298821785,0.35201,0.05,0.05,1.0,0.0,0.0,1.0,0,0,,,0
1449618422724594244,190,0,/odom,acmd_vector,0,0,0,0.629647535509,0.0325410460697,0.0,0.0,0.0,-0.0787197739237,0.996896783621,0.35201,0.05,0.05,1.0,0.0,0.0,1.0,0,0,,,0
1449618422869532277,191,0,/odom,acmd_vector,0,0,0,0.638256057613,0.0332705873377,0.0,0.0,0.0,-0.09442900973,0.995531597751,0.35201,0.05,0.05,1.0,0.0,0.0,1.0,0,0,,,0
1449618422920366383,192,0,/odom,acmd_vector,0,0,0,0.687061779448,0.0371012734373,0.0,0.0,0.0,-0.0996880801764,0.995018736844,0.35201,0.05,0.05,1.0,0.0,0.0,1.0,0,0,,,0
1449618423065227700,193,0,/odom,acmd_vector,0,0,0,0.698549447551,0.0379526426936,0.0,0.0,0.0,-0.0787197739237,0.996896783621,0.35201,0.05,0.05,1.0,0.0,0.0,1.0,0,0,,,0
1449618423097723398,194,0,/odom,acmd_vector,0,0,0,0.747347940413,0.041874343119,0.0,0.0,0.0,-0.073451072605,0.997298821785,0.35201,0.05,0.05,1.0,0.0,0.0,1.0,0,0,,,0
1449618423249170053,195,0,/odom,acmd_vector,0,0,0,0.75596369149,0.0425128700612,0.0,0.0,0.0,-0.0996880801764,0.995018736844,0.35201,0.05,0.05,1.0,0.0,0.0,1.0,0,0,,,0
1449618423277224665,196,0,/odom,acmd_vector,0,0,0,0.7904266958,0.0450669778301,0.0,0.0,0.0,-0.0996880801764,0.995018736844,0.35201,0.05,0.05,1.0,0.0,0.0,1.0,0,0,,,0
1449618423326431366,197,0,/odom,acmd_vector,0,0,0,0.801914363903,0.0459183470864,0.0,0.0,0.0,-0.0996880801764,0.995018736844,0.35201,0.05,0.05,1.0,0.0,0.0,1.0,0,0,,,0
1449618423433645195,198,0,/odom,acmd_vector,0,0,0,0.819145866058,0.0471954009709,0.0,0.0,0.0,-0.0996880801764,0.995018736844,0.35201,0.05,0.05,1.0,0.0,0.0,1.0,0,0,,,0
1449618423456427839,199,0,/odom,acmd_vector,0,0,0,0.850747397914,0.0493848570288,0.0,0.0,0.0,-0.0839862773195,0.996466911253,0.35201,0.05,0.05,1.0,0.0,0.0,1.0,0,0,,,0
1449618423521805445,200,0,/odom,acmd_vector,0,0,0,0.859363148991,0.050023383971,0.0,0.0,0.0,-0.0787197739237,0.996896783621,0.35201,0.05,0.05,1.0,0.0,0.0,1.0,0,0,,,0
1449618423573575764,201,0,/odom,acmd_vector,0,0,0,0.873733178692,0.0509357861445,0.0,0.0,0.0,-0.0839862773195,0.996466911253,0.35201,0.05,0.05,1.0,0.0,0.0,1.0,0,0,,,0
1449618423776253245,202,0,/odom,acmd_vector,0,0,0,0.885229202453,0.0516657078832,0.0,0.0,0.0,-0.0839862773195,0.996466911253,0.35201,0.05,0.05,1.0,0.0,0.0,1.0,0,0,,,0
1449618423830572364,203,0,/odom,acmd_vector,0,0,0,0.954199078276,0.0561363239539,0.0,0.0,0.0,-0.0839862773195,0.996466911253,0.35201,0.05,0.05,1.0,0.0,0.0,1.0,0,0,,,0
1449618423910561380,204,0,/odom,acmd_vector,0,0,0,0.965695102037,0.0568662456926,0.0,0.0,0.0,-0.0839862773195,0.996466911253,0.35201,0.05,0.05,1.0,0.0,0.0,1.0,0,0,,,0
1449618423967916127,205,0,/odom,acmd_vector,0,0,0,0.988695989249,0.0581741778737,0.0,0.0,0.0,-0.0839862773195,0.996466911253,0.35201,0.05,0.05,1.0,0.0,0.0,1.0,0,0,,,0
1449618424009989334,206,0,/odom,acmd_vector,0,0,0,1.00307485864,0.0589346687507,0.0,0.0,0.0,-0.0892504357472,0.996009216684,0.35201,0.05,0.05,1.0,0.0,0.0,1.0,0,0,,,0
1449618424126790230,207,0,/odom,acmd_vector,0,0,0,1.01744488834,0.0598470709241,0.0,0.0,0.0,-0.0839862773195,0.996466911253,0.35201,0.05,0.05,1.0,0.0,0.0,1.0,0,0,,,0
1449618424204339698,208,0,/odom,acmd_vector,0,0,0,1.05194533519,0.0618241603254,0.0,0.0,0.0,-0.0839862773195,0.996466911253,0.35201,0.05,0.05,1.0,0.0,0.0,1.0,0,0,,,0
1449618424239071450,209,0,/odom,acmd_vector,0,0,0,1.07782730009,0.063193043904,0.0,0.0,0.0,-0.110197724182,0.993909684823,0.35201,0.05,0.05,1.0,0.0,0.0,1.0,0,0,,,0
1449618424290228992,210,0,/odom,acmd_vector,0,0,0,1.08933039561,0.0638014366056,0.0,0.0,0.0,-0.110197724182,0.993909684823,0.35201,0.05,0.05,1.0,0.0,0.0,1.0,0,0,,,0
1449618424398146596,211,0,/odom,acmd_vector,0,0,0,1.10083349112,0.0644098293073,0.0,0.0,0.0,-0.110197724182,0.993909684823,0.35201,0.05,0.05,1.0,0.0,0.0,1.0,0,0,,,0
1449618424446859816,212,0,/odom,acmd_vector,0,0,0,1.13822578536,0.0662351093575,0.0,0.0,0.0,-0.115448004303,0.993313524675,0.35201,0.05,0.05,1.0,0.0,0.0,1.0,0,0,,,0
1449618424537098744,213,0,/odom,acmd_vector,0,0,0,1.14685310699,0.0666914038837,0.0,0.0,0.0,-0.110197724182,0.993909684823,0.35201,0.05,0.05,1.0,0.0,0.0,1.0,0,0,,,0
1449618424644696391,214,0,/odom,acmd_vector,0,0,0,1.18425697534,0.0682734899659,0.0,0.0,0.0,-0.115448004303,0.993313524675,0.35201,0.05,0.05,1.0,0.0,0.0,1.0,0,0,,,0
1449618424697807567,215,0,/odom,acmd_vector,0,0,0,1.21015758826,0.0692167161422,0.0,0.0,0.0,-0.120695061018,0.992689630371,0.35201,0.05,0.05,1.0,0.0,0.0,1.0,0,0,,,0
1449618424748143354,216,0,/odom,acmd_vector,0,0,0,1.23030263447,0.0699469572973,0.0,0.0,0.0,-0.115448004303,0.993313524675,0.30561,0.05,0.05,1.0,0.0,0.0,1.0,0,0,,,0
1449618424788995293,217,0,/odom,acmd_vector,0,0,0,1.24469436483,0.070403387756,0.0,0.0,0.0,-0.141565500506,0.989928890914,0.30561,0.05,0.05,1.0,0.0,0.0,1.0,0,0,,,0
1449618424848476542,218,0,/odom,acmd_vector,0,0,0,1.25045105697,0.0705859599395,0.0,0.0,0.0,-0.141565500506,0.989928890914,0.30561,0.05,0.05,1.0,0.0,0.0,1.0,0,0,,,0
1449618424899427892,219,0,/odom,acmd_vector,0,0,0,1.26772113339,0.0711336764899,0.0,0.0,0.0,-0.162373198601,0.986729418015,0.30561,0.05,0.05,1.0,0.0,0.0,1.0,0,0,,,0
1449618424996118186,220,0,/odom,acmd_vector,0,0,0,1.28499120982,0.0716813930404,0.0,0.0,0.0,-0.162373198601,0.986729418015,0.30561,0.05,0.05,1.0,0.0,0.0,1.0,0,0,,,0
1449618425016650139,221,0,/odom,acmd_vector,0,0,0,1.30802199822,0.0722595666106,0.0,0.0,0.0,-0.162373198601,0.986729418015,0.30561,0.05,0.05,1.0,0.0,0.0,1.0,0,0,,,0
1449618425060964542,222,0,/odom,acmd_vector,0,0,0,1.32241774841,0.0725638819057,0.0,0.0,0.0,-0.188301038325,0.982111357722,0.30561,0.05,0.05,1.0,0.0,0.0,1.0,0,0,,,0
1449618425102072602,223,0,/odom,acmd_vector,0,0,0,1.33393434856,0.0728073341417,0.0,0.0,0.0,-0.188301038325,0.982111357722,0.30561,0.05,0.05,1.0,0.0,0.0,1.0,0,0,,,0
1449618425198273438,224,0,/odom,acmd_vector,0,0,0,1.34545094872,0.0730507863778,0.0,0.0,0.0,-0.167584809802,0.985857662913,0.30561,0.05,0.05,1.0,0.0,0.0,1.0,0,0,,,0
1449618425249076892,225,0,/odom,acmd_vector,0,0,0,1.3656083759,0.0732638189803,0.0,0.0,0.0,-0.172791741893,0.984958381828,0.30561,0.05,0.05,1.0,0.0,0.0,1.0,0,0,,,0
1449618425280558780,226,0,/odom,acmd_vector,0,0,0,1.37136764081,0.0733246854382,0.0,0.0,0.0,-0.172791741893,0.984958381828,0.25921,0.05,0.05,1.0,0.0,0.0,1.0,0,0,,,0
1449618425328874450,227,0,/odom,acmd_vector,0,0,0,1.38576660714,0.0733246854382,0.0,0.0,0.0,-0.177993849492,0.98403159987,0.25921,0.05,0.05,1.0,0.0,0.0,1.0,0,0,,,0
1449618425350095243,228,0,/odom,acmd_vector,0,0,0,1.3972857802,0.0733246854382,0.0,0.0,0.0,-0.198669330795,0.980066577841,0.25921,0.05,0.05,1.0,0.0,0.0,1.0,0,0,,,0
1449618425398252553,229,0,/odom,acmd_vector,0,0,0,1.40880495326,0.0733246854382,0.0,0.0,0.0,-0.198669330795,0.980066577841,0.25921,0.05,0.05,1.0,0.0,0.0,1.0,0,0,,,0
1449618425508325992,230,0,/odom,acmd_vector,0,0,0,1.41744385062,0.0732333857514,0.0,0.0,0.0,-0.203845228841,0.979003127002,0.25921,0.05,0.05,1.0,0.0,0.0,1.0,0,0,,,0
1449618425545811842,231,0,/odom,acmd_vector,0,0,0,1.44911643071,0.0726856114226,0.0,0.0,0.0,-0.209015435355,0.977912341564,0.21281,0.05,0.05,1.0,0.0,0.0,1.0,0,0,,,0
1449618428930676428,232,0,/odom,acmd_vector,0,0,0,1.55266857152,0.067909701438,0.0,0.0,0.0,-0.229636461432,0.97327647438,0.16641,0.05,0.05,1.0,0.0,0.0,1.0,0,0,,,0
1449618428969198811,233,0,/odom,acmd_vector,0,0,0,1.55266857152,0.067909701438,0.0,0.0,0.0,-0.229636461432,0.97327647438,0.16641,0.05,0.05,1.0,0.0,0.0,1.0,0,0,,,0
1449618434182516844,234,0,/odom,acmd_vector,0,0,0,0.573011697439,0.0155013999931,0.0,0.0,0.0,0.203926941395,0.978986109489,0.21281,0.05,0.05,1.0,0.0,0.0,1.0,0,0,,,0
1449618434194335721,235,0,/odom,acmd_vector,0,0,0,0.558625594227,0.0148929053461,0.0,0.0,0.0,0.198751132129,0.980049992336,0.21281,0.05,0.05,1.0,0.0,0.0,1.0,0,0,,,0
1449618434246992753,236,0,/odom,acmd_vector,0,0,0,0.541362270374,0.0141627117697,0.0,0.0,0.0,0.198751132129,0.980049992336,0.21281,0.05,0.05,1.0,0.0,0.0,1.0,0,0,,,0
1449618434278565731,237,0,/odom,acmd_vector,0,0,0,0.529853387805,0.0136759160521,0.0,0.0,0.0,0.198751132129,0.980049992336,0.21281,0.05,0.05,1.0,0.0,0.0,1.0,0,0,,,0
1449618434363374446,238,0,/odom,acmd_vector,0,0,0,0.515461657451,0.0132194855934,0.0,0.0,0.0,0.193569773563,0.981086511355,0.25921,0.05,0.05,1.0,0.0,0.0,1.0,0,0,,,0
1449618434367962027,239,0,/odom,acmd_vector,0,0,0,0.4895599191,0.0123066722548,0.0,0.0,0.0,0.198751132129,0.980049992336,0.25921,0.05,0.05,1.0,0.0,0.0,1.0,0,0,,,0
1449618436776192468,240,0,/odom,acmd_vector,0,0,0,0.210263872488,0.00765060915162,0.0,0.0,0.0,0.183190987352,0.983077342915,0.35201,0.05,0.05,1.0,0.0,0.0,1.0,0,0,,,0
1449618436793867206,241,0,/odom,acmd_vector,0,0,0,0.20450460758,0.00758974269374,0.0,0.0,0.0,0.183190987352,0.983077342915,0.35201,0.05,0.05,1.0,0.0,0.0,1.0,0,0,,,0
1449618438713157247,242,0,/odom,acmd_vector,0,0,0,0.0288724350613,0.0041509713621,0.0,0.0,0.0,0.188383010364,0.982095637607,0.35201,0.05,0.05,1.0,0.0,0.0,1.0,0,0,,,0
1449618438723265822,243,0,/odom,acmd_vector,0,0,0,0.0288724350613,0.0041509713621,0.0,0.0,0.0,0.188383010364,0.982095637607,0.35201,0.05,0.05,1.0,0.0,0.0,1.0,0,0,,,0
1449618438763246903,244,0,/odom,acmd_vector,0,0,0,0.0288724350613,0.0041509713621,0.0,0.0,0.0,0.188383010364,0.982095637607,0.35201,0.05,0.05,1.0,0.0,0.0,1.0,0,0,,,0
1449618438795478666,245,0,/odom,acmd_vector,0,0,0,0.0288724350613,0.0041509713621,0.0,0.0,0.0,0.188383010364,0.982095637607,0.35201,0.05,0.05,1.0,0.0,0.0,1.0,0,0,,,0
1449618438885852084,246,0,/odom,acmd_vector,0,0,0,0.0288724350613,0.0041509713621,0.0,0.0,0.0,0.188383010364,0.982095637607,0.35201,0.05,0.05,1.0,0.0,0.0,1.0,0,0,,,0
1449618438906402140,247,0,/odom,acmd_vector,0,0,0,0.0288724350613,0.0041509713621,0.0,0.0,0.0,0.188383010364,0.982095637607,0.35201,0.05,0.05,1.0,0.0,0.0,1.0,0,0,,,0
1449618438925526789,248,0,/odom,acmd_vector,0,0,0,0.0288724350613,0.0041509713621,0.0,0.0,0.0,0.188383010364,0.982095637607,0.35201,0.05,0.05,1.0,0.0,0.0,1.0,0,0,,,0
1449618438962432107,249,0,/odom,acmd_vector,0,0,0,0.0288724350613,0.0041509713621,0.0,0.0,0.0,0.188383010364,0.982095637607,0.35201,0.05,0.05,1.0,0.0,0.0,1.0,0,0,,,0
1449618439005988260,250,0,/odom,acmd_vector,0,0,0,0.0288724350613,0.0041509713621,0.0,0.0,0.0,0.0105678519699,0.999944158693,1e-05,0.05,0.05,1.0,0.0,0.0,1.0,0,0,,,0
1449618439044573106,251,0,/odom,acmd_vector,0,0,0,0.0288724350613,0.0041509713621,0.0,0.0,0.0,0.0105678519699,0.999944158693,1e-05,0.05,0.05,1.0,0.0,0.0,1.0,0,0,,,0
1449618439079549681,252,0,/odom,acmd_vector,0,0,0,0.0288724350613,0.0041509713621,0.0,0.0,0.0,0.0105678519699,0.999944158693,1e-05,0.05,0.05,1.0,0.0,0.0,1.0,0,0,,,0
1449618439161627413,253,0,/odom,acmd_vector,0,0,0,0.0288724350613,0.0041509713621,0.0,0.0,0.0,0.0105678519699,0.999944158693,1e-05,0.05,0.05,1.0,0.0,0.0,1.0,0,0,,,0
1449618439166479322,254,0,/odom,acmd_vector,0,0,0,0.0288724350613,0.0041509713621,0.0,0.0,0.0,0.0105678519699,0.999944158693,1e-05,0.05,0.05,1.0,0.0,0.0,1.0,0,0,,,0
1449618439199153696,255,0,/odom,acmd_vector,0,0,0,0.0288724350613,0.0041509713621,0.0,0.0,0.0,0.0105678519699,0.999944158693,1e-05,0.05,0.05,1.0,0.0,0.0,1.0,0,0,,,0
1449618439238759624,256,0,/odom,acmd_vector,0,0,0,0.0288724350613,0.0041509713621,0.0,0.0,0.0,0.0105678519699,0.999944158693,1e-05,0.05,0.05,1.0,0.0,0.0,1.0,0,0,,,0
1449618439328871719,257,0,/odom,acmd_vector,0,0,0,0.0288724350613,0.0041509713621,0.0,0.0,0.0,0.0105678519699,0.999944158693,1e-05,0.05,0.05,1.0,0.0,0.0,1.0,0,0,,,0
1449618439338927385,258,0,/odom,acmd_vector,0,0,0,0.0288724350613,0.0041509713621,0.0,0.0,0.0,0.0105678519699,0.999944158693,0.12001,0.05,0.05,1.0,0.0,0.0,1.0,0,0,,,0
1449618439366872246,259,0,/odom,acmd_vector,0,0,0,0.0288724350613,0.0041509713621,0.0,0.0,0.0,0.0105678519699,0.999944158693,0.12001,0.05,0.05,1.0,0.0,0.0,1.0,0,0,,,0
1449618439398689333,260,0,/odom,acmd_vector,0,0,0,0.0288724350613,0.0041509713621,0.0,0.0,0.0,0.0105678519699,0.999944158693,0.12001,0.05,0.05,1.0,0.0,0.0,1.0,0,0,,,0
1449618439440438104,261,0,/odom,acmd_vector,0,0,0,0.0288724350613,0.0041509713621,0.0,0.0,0.0,0.0105678519699,0.999944158693,0.12001,0.05,0.05,1.0,0.0,0.0,1.0,0,0,,,0
1449618439515701991,262,0,/odom,acmd_vector,0,0,0,0.0288724350613,0.0041509713621,0.0,0.0,0.0,0.0105678519699,0.999944158693,0.12001,0.05,0.05,1.0,0.0,0.0,1.0,0,0,,,0
1449618439522570534,263,0,/odom,acmd_vector,0,0,0,0.0288724350613,0.0041509713621,0.0,0.0,0.0,0.0105678519699,0.999944158693,0.12001,0.05,0.05,1.0,0.0,0.0,1.0,0,0,,,0
1449618439558627067,264,0,/odom,acmd_vector,0,0,0,0.0288724350613,0.0041509713621,0.0,0.0,0.0,0.0105678519699,0.999944158693,0.12001,0.05,0.05,1.0,0.0,0.0,1.0,0,0,,,0
1449618439599222346,265,0,/odom,acmd_vector,0,0,0,0.0288724350613,0.0041509713621,0.0,0.0,0.0,0.0105678519699,0.999944158693,0.12001,0.05,0.05,1.0,0.0,0.0,1.0,0,0,,,0
1449618439633228608,266,0,/odom,acmd_vector,0,0,0,0.0288724350613,0.0041509713621,0.0,0.0,0.0,0.0105678519699,0.999944158693,0.12001,0.05,0.05,1.0,0.0,0.0,1.0,0,0,,,0
1449618439691237745,267,0,/odom,acmd_vector,0,0,0,0.0317507811321,0.00424225745384,0.0,0.0,0.0,0.0158514091245,0.999874358521,0.12001,0.05,0.05,1.0,0.0,0.0,1.0,0,0,,,0
1449618439763447553,268,0,/odom,acmd_vector,0,0,0,0.0317507811321,0.00424225745384,0.0,0.0,0.0,0.0158514091245,0.999874358521,0.12001,0.05,0.05,1.0,0.0,0.0,1.0,0,0,,,0
1449618439769971483,269,0,/odom,acmd_vector,0,0,0,0.0346299311702,0.00430312051285,0.0,0.0,0.0,0.0105678519699,0.999944158693,0.12001,0.05,0.05,1.0,0.0,0.0,1.0,0,0,,,0
1449618439811117264,270,0,/odom,acmd_vector,0,0,0,0.0346299311702,0.00430312051285,0.0,0.0,0.0,0.0105678519699,0.999944158693,0.12001,0.05,0.05,1.0,0.0,0.0,1.0,0,0,,,0
1449618439866736975,271,0,/odom,acmd_vector,0,0,0,0.0346299311702,0.00430312051285,0.0,0.0,0.0,0.0105678519699,0.999944158693,0.12001,0.05,0.05,1.0,0.0,0.0,1.0,0,0,,,0
1449618439882432740,272,0,/odom,acmd_vector,0,0,0,0.0403882312463,0.00442484663087,0.0,0.0,0.0,0.0105678519699,0.999944158693,0.12001,0.05,0.05,1.0,0.0,0.0,1.0,0,0,,,0
1449618439996785676,273,0,/odom,acmd_vector,0,0,0,0.0403882312463,0.00442484663087,0.0,0.0,0.0,0.0105678519699,0.999944158693,0.12001,0.05,0.05,1.0,0.0,0.0,1.0,0,0,,,0
1449618440018606975,274,0,/odom,acmd_vector,0,0,0,0.0461457273552,0.00457699578162,0.0,0.0,0.0,0.0105678519699,0.999944158693,0.12001,0.05,0.05,1.0,0.0,0.0,1.0,0,0,,,0
1449618440046030230,275,0,/odom,acmd_vector,0,0,0,0.0519040274313,0.00469872189964,0.0,0.0,0.0,0.0105678519699,0.999944158693,0.12001,0.05,0.05,1.0,0.0,0.0,1.0,0,0,,,0
1449618440087920168,276,0,/odom,acmd_vector,0,0,0,0.0519040274313,0.00469872189964,0.0,0.0,0.0,0.0105678519699,0.999944158693,0.12001,0.05,0.05,1.0,0.0,0.0,1.0,0,0,,,0
1449618440181810821,277,0,/odom,acmd_vector,0,0,0,0.0519040274313,0.00469872189964,0.0,0.0,0.0,0.0105678519699,0.999944158693,0.12001,0.05,0.05,1.0,0.0,0.0,1.0,0,0,,,0
1449618440191199735,278,0,/odom,acmd_vector,0,0,0,0.0605406735783,0.0049117341094,0.0,0.0,0.0,0.0158514091245,0.999874358521,0.12001,0.05,0.05,1.0,0.0,0.0,1.0,0,0,,,0
1449618440206204664,279,0,/odom,acmd_vector,0,0,0,0.0605406735783,0.0049117341094,0.0,0.0,0.0,0.0158514091245,0.999874358521,0.12001,0.05,0.05,1.0,0.0,0.0,1.0,0,0,,,0
1449618440245982453,280,0,/odom,acmd_vector,0,0,0,0.0605406735783,0.0049117341094,0.0,0.0,0.0,0.0158514091245,0.999874358521,0.12001,0.05,0.05,1.0,0.0,0.0,1.0,0,0,,,0
1449618440289336213,281,0,/odom,acmd_vector,0,0,0,0.0634198236163,0.00497259716841,0.0,0.0,0.0,0.0105678519699,0.999944158693,0.12001,0.05,0.05,1.0,0.0,0.0,1.0,0,0,,,0
1449618440361935645,282,0,/odom,acmd_vector,0,0,0,0.0691781236925,0.00509432328644,0.0,0.0,0.0,0.0105678519699,0.999944158693,0.12001,0.05,0.05,1.0,0.0,0.0,1.0,0,0,,,0
1449618440453472808,283,0,/odom,acmd_vector,0,0,0,0.0749364237686,0.00521604940446,0.0,0.0,0.0,0.0105678519699,0.999944158693,0.12001,0.05,0.05,1.0,0.0,0.0,1.0,0,0,,,0
1449618440453479676,284,0,/odom,acmd_vector,0,0,0,0.0749364237686,0.00521604940446,0.0,0.0,0.0,-0.146794308206,0.989167039017,1e-05,0.05,0.05,1.0,0.0,0.0,1.0,0,0,,,0
1449618440467171870,285,0,/odom,acmd_vector,0,0,0,0.0749364237686,0.00521604940446,0.0,0.0,0.0,-0.146794308206,0.989167039017,1e-05,0.05,0.05,1.0,0.0,0.0,1.0,0,0,,,0
1449618440521965986,286,0,/odom,acmd_vector,0,0,0,0.0864530239209,0.0054595016405,0.0,0.0,0.0,-0.146794308206,0.989167039017,1e-05,0.05,0.05,1.0,0.0,0.0,1.0,0,0,,,0
1449618440527246626,287,0,/odom,acmd_vector,0,0,0,0.0864530239209,0.0054595016405,0.0,0.0,0.0,-0.146794308206,0.989167039017,1e-05,0.05,0.05,1.0,0.0,0.0,1.0,0,0,,,0
1449618440562234708,288,0,/odom,acmd_vector,0,0,0,0.0864530239209,0.0054595016405,0.0,0.0,0.0,-0.146794308206,0.989167039017,1e-05,0.05,0.05,1.0,0.0,0.0,1.0,0,0,,,0
1449618440603423301,289,0,/odom,acmd_vector,0,0,0,0.0922113239971,0.00558122775852,0.0,0.0,0.0,-0.146794308206,0.989167039017,1e-05,0.05,0.05,1.0,0.0,0.0,1.0,0,0,,,0
1449618440640325771,290,0,/odom,acmd_vector,0,0,0,0.0979696240732,0.00570295387654,0.0,0.0,0.0,-0.146794308206,0.989167039017,1e-05,0.05,0.05,1.0,0.0,0.0,1.0,0,0,,,0
1449618440688852430,291,0,/odom,acmd_vector,0,0,0,0.103727924149,0.00582467999456,0.0,0.0,0.0,-0.146794308206,0.989167039017,1e-05,0.05,0.05,1.0,0.0,0.0,1.0,0,0,,,0
1449618440723102547,292,0,/odom,acmd_vector,0,0,0,0.103727924149,0.00582467999456,0.0,0.0,0.0,-0.146794308206,0.989167039017,1e-05,0.05,0.05,1.0,0.0,0.0,1.0,0,0,,,0
1449618440776121281,293,0,/odom,acmd_vector,0,0,0,0.109486224226,0.00594640611259,0.0,0.0,0.0,-0.167584809802,0.985857662913,1e-05,0.05,0.05,1.0,0.0,0.0,1.0,0,0,,,0
1449618440822312943,294,0,/odom,acmd_vector,0,0,0,0.11236585668,0.00597683934152,0.0,0.0,0.0,-0.172791741893,0.984958381828,1e-05,0.05,0.05,1.0,0.0,0.0,1.0,0,0,,,0
1449618440846510775,295,0,/odom,acmd_vector,0,0,0,0.121003306794,0.00615942851856,0.0,0.0,0.0,-0.167584809802,0.985857662913,1e-05,0.05,0.05,1.0,0.0,0.0,1.0,0,0,,,0
1449618440883643444,296,0,/odom,acmd_vector,0,0,0,0.121003306794,0.00615942851856,0.0,0.0,0.0,-0.167584809802,0.985857662913,1e-05,0.05,0.05,1.0,0.0,0.0,1.0,0,0,,,0
1449618440952558432,297,0,/odom,acmd_vector,0,0,0,0.12676160687,0.00628115463658,0.0,0.0,0.0,-0.167584809802,0.985857662913,1e-05,0.05,0.05,1.0,0.0,0.0,1.0,0,0,,,0
1449618441004855814,298,0,/odom,acmd_vector,0,0,0,0.135400504233,0.00637245432339,0.0,0.0,0.0,-0.172791741893,0.984958381828,1e-05,0.05,0.05,1.0,0.0,0.0,1.0,0,0,,,0
1449618441020304830,299,0,/odom,acmd_vector,0,0,0,0.138279654271,0.0064333173824,0.0,0.0,0.0,-0.167584809802,0.985857662913,1e-05,0.05,0.05,1.0,0.0,0.0,1.0,0,0,,,0
1449618441041625701,300,0,/odom,acmd_vector,0,0,0,0.144037954348,0.00655504350042,0.0,0.0,0.0,-0.167584809802,0.985857662913,1e-05,0.05,0.05,1.0,0.0,0.0,1.0,0,0,,,0
1449618441082162752,301,0,/odom,acmd_vector,0,0,0,0.144037954348,0.00655504350042,0.0,0.0,0.0,-0.167584809802,0.985857662913,1e-05,0.05,0.05,1.0,0.0,0.0,1.0,0,0,,,0
1449618441122370437,302,0,/odom,acmd_vector,0,0,0,0.149796254424,0.00667676961844,0.0,0.0,0.0,-0.167584809802,0.985857662913,1e-05,0.05,0.05,1.0,0.0,0.0,1.0,0,0,,,0
1449618441211317121,303,0,/odom,acmd_vector,0,0,0,0.1555545545,0.00679849573646,0.0,0.0,0.0,0.0105678519699,0.999944158693,1e-05,0.05,0.05,1.0,0.0,0.0,1.0,0,0,,,0
1449618441233614142,304,0,/odom,acmd_vector,0,0,0,0.161312854576,0.00692022185448,0.0,0.0,0.0,0.0105678519699,0.999944158693,1e-05,0.05,0.05,1.0,0.0,0.0,1.0,0,0,,,0
1449618441245328052,305,0,/odom,acmd_vector,0,0,0,0.167071154652,0.00704194797251,0.0,0.0,0.0,0.0105678519699,0.999944158693,1e-05,0.05,0.05,1.0,0.0,0.0,1.0,0,0,,,0
1449618441308502661,306,0,/odom,acmd_vector,0,0,0,0.167071154652,0.00704194797251,0.0,0.0,0.0,0.0105678519699,0.999944158693,1e-05,0.05,0.05,1.0,0.0,0.0,1.0,0,0,,,0
1449618441325483203,307,0,/odom,acmd_vector,0,0,0,0.175709087183,0.00719410731946,0.0,0.0,0.0,0.0052839997518,0.999986039576,1e-05,0.05,0.05,1.0,0.0,0.0,1.0,0,0,,,0
1449618441367141283,308,0,/odom,acmd_vector,0,0,0,0.175709087183,0.00719410731946,0.0,0.0,0.0,0.0052839997518,0.999986039576,1e-05,0.05,0.05,1.0,0.0,0.0,1.0,0,0,,,0
1449618441406885236,309,0,/odom,acmd_vector,0,0,0,0.178588237221,0.00725497037847,0.0,0.0,0.0,0.0105678519699,0.999944158693,1e-05,0.05,0.05,1.0,0.0,0.0,1.0,0,0,,,0
1449618441443340028,310,0,/odom,acmd_vector,0,0,0,0.184346537297,0.0073766964965,0.0,0.0,0.0,0.0105678519699,0.999944158693,1e-05,0.05,0.05,1.0,0.0,0.0,1.0,0,0,,,0
1449618441501292485,311,0,/odom,acmd_vector,0,0,0,0.190104837373,0.00749842261452,0.0,0.0,0.0,0.0105678519699,0.999944158693,1e-05,0.05,0.05,1.0,0.0,0.0,1.0,0,0,,,0
1449618441525960590,312,0,/odom,acmd_vector,0,0,0,0.198742769904,0.00765058196148,0.0,0.0,0.0,0.0052839997518,0.999986039576,1e-05,0.05,0.05,1.0,0.0,0.0,1.0,0,0,,,0
1449618441576352200,313,0,/odom,acmd_vector,0,0,0,0.198742769904,0.00765058196148,0.0,0.0,0.0,0.0052839997518,0.999986039576,1e-05,0.05,0.05,1.0,0.0,0.0,1.0,0,0,,,0
1449618441612278127,314,0,/odom,acmd_vector,0,0,0,0.207380220018,0.00783317113851,0.0,0.0,0.0,0.0105678519699,0.999944158693,1e-05,0.05,0.05,1.0,0.0,0.0,1.0,0,0,,,0
1449618441724012711,315,0,/odom,acmd_vector,0,0,0,0.207380220018,0.00783317113851,0.0,0.0,0.0,0.0105678519699,0.999944158693,1e-05,0.05,0.05,1.0,0.0,0.0,1.0,0,0,,,0
1449618441762002650,316,0,/odom,acmd_vector,0,0,0,0.218898267419,0.00798533388433,0.0,0.0,0.0,0.0105678519699,0.999944158693,1e-05,0.05,0.05,1.0,0.0,0.0,1.0,0,0,,,0
1449618441797681952,317,0,/odom,acmd_vector,0,0,0,0.224656567495,0.00810706000235,0.0,0.0,0.0,0.0105678519699,0.999944158693,1e-05,0.05,0.05,1.0,0.0,0.0,1.0,0,0,,,0
1449618441851812456,318,0,/odom,acmd_vector,0,0,0,0.230414867571,0.00822878612037,0.0,0.0,0.0,0.0105678519699,0.999944158693,1e-05,0.05,0.05,1.0,0.0,0.0,1.0,0,0,,,0
1449618441872214964,319,0,/odom,acmd_vector,0,0,0,0.230414867571,0.00822878612037,0.0,0.0,0.0,0.0105678519699,0.999944158693,1e-05,0.05,0.05,1.0,0.0,0.0,1.0,0,0,,,0
1449618441911085027,320,0,/odom,acmd_vector,0,0,0,0.236173167647,0.00835051223839,0.0,0.0,0.0,0.0105678519699,0.999944158693,1e-05,0.05,0.05,1.0,0.0,0.0,1.0,0,0,,,0
1449618441947420002,321,0,/odom,acmd_vector,0,0,0,0.241931467724,0.00847223835641,0.0,0.0,0.0,0.0105678519699,0.999944158693,1e-05,0.05,0.05,1.0,0.0,0.0,1.0,0,0,,,0
1449618442022413553,322,0,/odom,acmd_vector,0,0,0,0.241931467724,0.00847223835641,0.0,0.0,0.0,0.0105678519699,0.999944158693,1e-05,0.05,0.05,1.0,0.0,0.0,1.0,0,0,,,0
1449618442051828987,323,0,/odom,acmd_vector,0,0,0,0.253448067876,0.00871569059246,0.0,0.0,0.0,0.0105678519699,0.999944158693,1e-05,0.05,0.05,1.0,0.0,0.0,1.0,0,0,,,0
1449618442064059628,324,0,/odom,acmd_vector,0,0,0,0.253448067876,0.00871569059246,0.0,0.0,0.0,0.0105678519699,0.999944158693,1e-05,0.05,0.05,1.0,0.0,0.0,1.0,0,0,,,0
1449618442168993893,325,0,/odom,acmd_vector,0,0,0,0.259206367952,0.00883741671048,0.0,0.0,0.0,0.0105678519699,0.999944158693,1e-05,0.05,0.05,1.0,0.0,0.0,1.0,0,0,,,0
1449618442188914558,326,0,/odom,acmd_vector,0,0,0,0.264964668028,0.0089591428285,0.0,0.0,0.0,0.0105678519699,0.999944158693,1e-05,0.05,0.05,1.0,0.0,0.0,1.0,0,0,,,0
1449618442268118892,327,0,/odom,acmd_vector,0,0,0,0.270722968104,0.00908086894652,0.0,0.0,0.0,0.0105678519699,0.999944158693,1e-05,0.05,0.05,1.0,0.0,0.0,1.0,0,0,,,0
1449618442305530792,328,0,/odom,acmd_vector,0,0,0,0.270722968104,0.00908086894652,0.0,0.0,0.0,0.0105678519699,0.999944158693,1e-05,0.05,0.05,1.0,0.0,0.0,1.0,0,0,,,0
1449618442331768455,329,0,/odom,acmd_vector,0,0,0,0.282239568257,0.00932432118257,0.0,0.0,0.0,0.0105678519699,0.999944158693,1e-05,0.05,0.05,1.0,0.0,0.0,1.0,0,0,,,0
1449618442361237432,330,0,/odom,acmd_vector,0,0,0,0.282239568257,0.00932432118257,0.0,0.0,0.0,0.0105678519699,0.999944158693,1e-05,0.05,0.05,1.0,0.0,0.0,1.0,0,0,,,0
1449618442445516461,331,0,/odom,acmd_vector,0,0,0,0.285119200711,0.0093547544115,0.0,0.0,0.0,0.0052839997518,0.999986039576,1e-05,0.05,0.05,1.0,0.0,0.0,1.0,0,0,,,0
1449618442464622474,332,0,/odom,acmd_vector,0,0,0,0.293756650825,0.00953734358853,0.0,0.0,0.0,0.0105678519699,0.999944158693,1e-05,0.05,0.05,1.0,0.0,0.0,1.0,0,0,,,0
1449618442484961653,333,0,/odom,acmd_vector,0,0,0,0.29663628328,0.00956777681747,0.0,0.0,0.0,0.0052839997518,0.999986039576,1e-05,0.05,0.05,1.0,0.0,0.0,1.0,0,0,,,0
1449618442511289227,334,0,/odom,acmd_vector,0,0,0,0.29663628328,0.00956777681747,0.0,0.0,0.0,0.0052839997518,0.999986039576,1e-05,0.05,0.05,1.0,0.0,0.0,1.0,0,0,,,0
1449618442692046905,335,0,/odom,acmd_vector,0,0,0,0.299515433318,0.00962863987648,0.0,0.0,0.0,0.0105678519699,0.999944158693,1e-05,0.05,0.05,1.0,0.0,0.0,1.0,0,0,,,0
1449618442735276159,336,0,/odom,acmd_vector,0,0,0,0.311032515886,0.00984166228245,0.0,0.0,0.0,0.0105678519699,0.999944158693,1e-05,0.05,0.05,1.0,0.0,0.0,1.0,0,0,,,0
1449618442833093955,337,0,/odom,acmd_vector,0,0,0,0.319671413249,0.00993296196926,0.0,0.0,0.0,0.0052839997518,0.999986039576,1e-05,0.05,0.05,1.0,0.0,0.0,1.0,0,0,,,0
1449618442918212186,338,0,/odom,acmd_vector,0,0,0,0.32830934578,0.0100851213162,0.0,0.0,0.0,0.0105678519699,0.999944158693,1e-05,0.05,0.05,1.0,0.0,0.0,1.0,0,0,,,0
1449618442945369961,339,0,/odom,acmd_vector,0,0,0,0.336948243143,0.010176421003,0.0,0.0,0.0,0.0052839997518,0.999986039576,1e-05,0.05,0.05,1.0,0.0,0.0,1.0,0,0,,,0
1449618443017600596,340,0,/odom,acmd_vector,0,0,0,0.342707508052,0.0102372874609,0.0,0.0,0.0,0.0052839997518,0.999986039576,1e-05,0.05,0.05,1.0,0.0,0.0,1.0,0,0,,,0
1449618443104535554,341,0,/odom,acmd_vector,0,0,0,0.348466290544,0.0103285837488,0.0,0.0,0.0,0.0052839997518,0.999986039576,1e-05,0.05,0.05,1.0,0.0,0.0,1.0,0,0,,,0
1449618443117247329,342,0,/odom,acmd_vector,0,0,0,0.357103740658,0.0105111729259,0.0,0.0,0.0,0.0105678519699,0.999944158693,1e-05,0.05,0.05,1.0,0.0,0.0,1.0,0,0,,,0
1449618443182399431,343,0,/odom,acmd_vector,0,0,0,0.357103740658,0.0105111729259,0.0,0.0,0.0,0.0105678519699,0.999944158693,1e-05,0.05,0.05,1.0,0.0,0.0,1.0,0,0,,,0
1449618443212036137,344,0,/odom,acmd_vector,0,0,0,0.362862040735,0.0106328990439,0.0,0.0,0.0,0.0105678519699,0.999944158693,1e-05,0.05,0.05,1.0,0.0,0.0,1.0,0,0,,,0
1449618443238103518,345,0,/odom,acmd_vector,0,0,0,0.362862040735,0.0106328990439,0.0,0.0,0.0,0.0105678519699,0.999944158693,1e-05,0.05,0.05,1.0,0.0,0.0,1.0,0,0,,,0
1449618443290154899,346,0,/odom,acmd_vector,0,0,0,0.365741673189,0.0106633322728,0.0,0.0,0.0,0.0052839997518,0.999986039576,1e-05,0.05,0.05,1.0,0.0,0.0,1.0,0,0,,,0
1449618443359186613,347,0,/odom,acmd_vector,0,0,0,0.368620823227,0.0107241953319,0.0,0.0,0.0,0.0105678519699,0.999944158693,1e-05,0.05,0.05,1.0,0.0,0.0,1.0,0,0,,,0
1449618443391012750,348,0,/odom,acmd_vector,0,0,0,0.37725972059,0.0108154950187,0.0,0.0,0.0,0.0052839997518,0.999986039576,1e-05,0.05,0.05,1.0,0.0,0.0,1.0,0,0,,,0
1449618443416576994,349,0,/odom,acmd_vector,0,0,0,0.380138870628,0.0108763580777,0.0,0.0,0.0,0.0105678519699,0.999944158693,1e-05,0.05,0.05,1.0,0.0,0.0,1.0,0,0,,,0
1449618443443992034,350,0,/odom,acmd_vector,0,0,0,0.383018503083,0.0109067913066,0.0,0.0,0.0,0.0052839997518,0.999986039576,1e-05,0.05,0.05,1.0,0.0,0.0,1.0,0,0,,,0
1449618443543262002,351,0,/odom,acmd_vector,0,0,0,0.383018503083,0.0109067913066,0.0,0.0,0.0,0.0052839997518,0.999986039576,1e-05,0.05,0.05,1.0,0.0,0.0,1.0,0,0,,,0
1449618443659377566,352,0,/odom,acmd_vector,0,0,0,0.391656918029,0.0110285208235,0.0,0.0,0.0,0.0105678519699,0.999944158693,1e-05,0.05,0.05,1.0,0.0,0.0,1.0,0,0,,,0
1449618443682974723,353,0,/odom,acmd_vector,0,0,0,0.403174000598,0.0112415432295,0.0,0.0,0.0,0.0105678519699,0.999944158693,1e-05,0.05,0.05,1.0,0.0,0.0,1.0,0,0,,,0
1449618443757712632,354,0,/odom,acmd_vector,0,0,0,0.403174000598,0.0112415432295,0.0,0.0,0.0,0.0105678519699,0.999944158693,1e-05,0.05,0.05,1.0,0.0,0.0,1.0,0,0,,,0
1449618443788811702,355,0,/odom,acmd_vector,0,0,0,0.411811933128,0.0113937025764,0.0,0.0,0.0,0.0052839997518,0.999986039576,1e-05,0.05,0.05,1.0,0.0,0.0,1.0,0,0,,,0
1449618443828746412,356,0,/odom,acmd_vector,0,0,0,0.414691083167,0.0114545656354,0.0,0.0,0.0,0.0105678519699,0.999944158693,1e-05,0.05,0.05,1.0,0.0,0.0,1.0,0,0,,,0
1449618443911210009,357,0,/odom,acmd_vector,0,0,0,0.420449383243,0.0115762917535,0.0,0.0,0.0,0.0105678519699,0.999944158693,1e-05,0.05,0.05,1.0,0.0,0.0,1.0,0,0,,,0
1449618443937546791,358,0,/odom,acmd_vector,0,0,0,0.426208165735,0.0116675880414,0.0,0.0,0.0,0.0105678519699,0.999944158693,1e-05,0.05,0.05,1.0,0.0,0.0,1.0,0,0,,,0
