%time,field.goals0.navgoal_poses0.header.seq,field.goals0.navgoal_poses0.header.stamp,field.goals0.navgoal_poses0.header.frame_id,field.goals0.navgoal_poses0.pose.position.x,field.goals0.navgoal_poses0.pose.position.y,field.goals0.navgoal_poses0.pose.position.z,field.goals0.navgoal_poses0.pose.orientation.x,field.goals0.navgoal_poses0.pose.orientation.y,field.goals0.navgoal_poses0.pose.orientation.z,field.goals0.navgoal_poses0.pose.orientation.w,field.goals0.goal_pose.header.seq,field.goals0.goal_pose.header.stamp,field.goals0.goal_pose.header.frame_id,field.goals0.goal_pose.pose.position.x,field.goals0.goal_pose.pose.position.y,field.goals0.goal_pose.pose.position.z,field.goals0.goal_pose.pose.orientation.x,field.goals0.goal_pose.pose.orientation.y,field.goals0.goal_pose.pose.orientation.z,field.goals0.goal_pose.pose.orientation.w,field.goals0.goal_type,field.goals0.goal_source,field.goals0.score,field.goals0.t_eval
1449618392166261910,0,1449618392110536944,/odom,nan,nan,0.0,nan,nan,nan,nan,0,1449618392110536944,/odom,nan,nan,0.0,nan,nan,nan,nan,0,user,1.0,0
1449618392259548856,0,1449618392202309241,/odom,0.0,0.0,0.0,0.0,0.0,0.0,1.0,0,1449618392202309241,/odom,0.0,0.0,0.0,0.0,0.0,0.0,1.0,0,user,1.0,0
1449618392325842790,0,1449618392271220248,/odom,0.0,0.0,0.0,0.0,0.0,0.0,1.0,0,1449618392271220248,/odom,0.0,0.0,0.0,0.0,0.0,0.0,1.0,0,user,1.0,0
1449618392382754718,0,1449618392329381107,/odom,0.0,0.0,0.0,0.0,0.0,0.0,1.0,0,1449618392329381107,/odom,0.0,0.0,0.0,0.0,0.0,0.0,1.0,0,user,1.0,0
1449618392403021925,0,1449618392387952928,/odom,0.0,0.0,0.0,0.0,0.0,0.0,1.0,0,1449618392387952928,/odom,0.0,0.0,0.0,0.0,0.0,0.0,1.0,0,user,1.0,0
1449618392493160058,0,1449618392481164694,/odom,0.0,0.0,0.0,0.0,0.0,0.0,1.0,0,1449618392481164694,/odom,0.0,0.0,0.0,0.0,0.0,0.0,1.0,0,user,1.0,0
1449618392582905522,0,1449618392581057472,/odom,0.0,0.0,0.0,0.0,0.0,0.0,1.0,0,1449618392581057472,/odom,0.0,0.0,0.0,0.0,0.0,0.0,1.0,0,user,1.0,0
1449618392679782555,0,1449618392676816340,/odom,0.0,0.0,0.0,0.0,0.0,0.0,1.0,0,1449618392676816340,/odom,0.0,0.0,0.0,0.0,0.0,0.0,1.0,0,user,1.0,0
1449618392794356668,0,1449618392791480465,/odom,0.0,0.0,0.0,0.0,0.0,0.0,1.0,0,1449618392791480465,/odom,0.0,0.0,0.0,0.0,0.0,0.0,1.0,0,user,1.0,0
1449618392879928773,0,1449618392877617430,/odom,0.0,0.0,0.0,0.0,0.0,0.0,1.0,0,1449618392877617430,/odom,0.0,0.0,0.0,0.0,0.0,0.0,1.0,0,user,1.0,0
1449618392981143107,0,1449618392978894269,/odom,0.0,0.0,0.0,0.0,0.0,0.0,1.0,0,1449618392978894269,/odom,0.0,0.0,0.0,0.0,0.0,0.0,1.0,0,user,1.0,0
1449618393082704998,0,1449618393079030886,/odom,0.0,0.0,0.0,0.0,0.0,0.0,1.0,0,1449618393079030886,/odom,0.0,0.0,0.0,0.0,0.0,0.0,1.0,0,user,1.0,0
1449618393193380367,0,1449618393179369693,/odom,0.0,0.0,0.0,0.0,0.0,0.0,1.0,0,1449618393179369693,/odom,0.0,0.0,0.0,0.0,0.0,0.0,1.0,0,user,1.0,0
1449618393284478780,0,1449618393278698624,/odom,0.0,0.0,0.0,0.0,0.0,0.0,1.0,0,1449618393278698624,/odom,0.0,0.0,0.0,0.0,0.0,0.0,1.0,0,user,1.0,0
1449618393384379979,0,1449618393381751851,/odom,0.0,0.0,0.0,0.0,0.0,0.0,1.0,0,1449618393381751851,/odom,0.0,0.0,0.0,0.0,0.0,0.0,1.0,0,user,1.0,0
1449618393487351763,0,1449618393480334489,/odom,0.0,0.0,0.0,0.0,0.0,0.0,1.0,0,1449618393480334489,/odom,0.0,0.0,0.0,0.0,0.0,0.0,1.0,0,user,1.0,0
1449618393588271406,0,1449618393581618150,/odom,0.0,0.0,0.0,0.0,0.0,0.0,1.0,0,1449618393581618150,/odom,0.0,0.0,0.0,0.0,0.0,0.0,1.0,0,user,1.0,0
1449618393684183864,0,1449618393679828713,/odom,0.0,0.0,0.0,0.0,0.0,0.0,1.0,0,1449618393679828713,/odom,0.0,0.0,0.0,0.0,0.0,0.0,1.0,0,user,1.0,0
1449618393789886721,0,1449618393777939236,/odom,0.0,0.0,0.0,0.0,0.0,0.0,1.0,0,1449618393777939236,/odom,0.0,0.0,0.0,0.0,0.0,0.0,1.0,0,user,1.0,0
1449618393884514595,0,1449618393879076833,/odom,0.0,0.0,0.0,0.0,0.0,0.0,1.0,0,1449618393879076833,/odom,0.0,0.0,0.0,0.0,0.0,0.0,1.0,0,user,1.0,0
1449618393981748311,0,1449618393978397290,/odom,0.0,0.0,0.0,0.0,0.0,0.0,1.0,0,1449618393978397290,/odom,0.0,0.0,0.0,0.0,0.0,0.0,1.0,0,user,1.0,0
1449618394099698404,0,1449618394089060943,/odom,0.0,0.0,0.0,0.0,0.0,0.0,1.0,0,1449618394089060943,/odom,0.0,0.0,0.0,0.0,0.0,0.0,1.0,0,user,1.0,0
1449618394179220238,0,1449618394177004478,/odom,0.0,0.0,0.0,0.0,0.0,0.0,1.0,0,1449618394177004478,/odom,0.0,0.0,0.0,0.0,0.0,0.0,1.0,0,user,1.0,0
1449618394322562507,0,1449618394089741120,/odom,2.1382491053,-0.493266767996,0.0,0.0,0.0,0.319261184153,0.947666764371,0,1449618394089741120,/odom,3.33246599418,0.414392872129,0.0,0.0,0.0,0.319261184153,0.947666764371,0,1449618394089741120,/odom,2.5363214016,-0.190713554621,0.738687872887,0.0,0.0,0.319261184153,0.947666764371,1,doorway_assistance,0.899999976158,1449618394089741120,0,0
1449618394389672459,0,1449618394089741120,/odom,2.1382491053,-0.493266767996,0.0,0.0,0.0,0.319261184153,0.947666764371,0,1449618394089741120,/odom,3.33246599418,0.414392872129,0.0,0.0,0.0,0.319261184153,0.947666764371,0,1449618394089741120,/odom,2.5363214016,-0.190713554621,0.738687872887,0.0,0.0,0.319261184153,0.947666764371,1,doorway_assistance,0.899999976158,1449618394089741120,0,0
1449618394485941638,0,1449618394275586772,/odom,2.07230248134,-0.508502870817,0.0,0.0,0.0,0.320999000364,0.947079532967,0,1449618394275586772,/odom,3.26318140664,0.403531879225,0.0,0.0,0.0,0.320999000364,0.947079532967,0,1449618394275586772,/odom,2.46926212311,-0.20449128747,0.669176638126,0.0,0.0,0.320999000364,0.947079532967,1,doorway_assistance,1.0,1449618394275586772,0,0
1449618394581640359,0,1449618394369445024,/odom,2.07443230084,-0.47628789445,0.0,0.0,0.0,0.318605179568,0.947887514187,0,1449618394369445024,/odom,3.2699045195,0.429717720553,0.0,0.0,0.0,0.318605179568,0.947887514187,0,1449618394369445024,/odom,2.47292304039,-0.174286022782,0.658651709557,0.0,0.0,0.318605179568,0.947887514187,1,doorway_assistance,1.0,1449618394369445024,0,0
1449618394683053918,0,1449618394458256939,/odom,2.03260500344,-0.501498661889,0.0,0.0,0.0,0.28905519893,0.957312431744,0,1449618394458256939,/odom,3.28194627936,0.3286497443,0.0,0.0,0.0,0.28905519893,0.957312431744,0,1449618394458256939,/odom,2.44905209541,-0.224782526493,0.687484323978,0.0,0.0,0.28905519893,0.957312431744,1,doorway_assistance,1.0,1449618394458256939,0,0
1449618394779272635,0,1449618394458256939,/odom,2.03260500344,-0.501498661889,0.0,0.0,0.0,0.28905519893,0.957312431744,0,1449618394458256939,/odom,3.28194627936,0.3286497443,0.0,0.0,0.0,0.28905519893,0.957312431744,0,1449618394458256939,/odom,2.44905209541,-0.224782526493,0.687484323978,0.0,0.0,0.28905519893,0.957312431744,1,doorway_assistance,0.899999976158,1449618394458256939,0,0
1449618394933659284,0,1449618394458256939,/odom,2.03260500344,-0.501498661889,0.0,0.0,0.0,0.28905519893,0.957312431744,0,1449618394458256939,/odom,3.28194627936,0.3286497443,0.0,0.0,0.0,0.28905519893,0.957312431744,0,1449618394458256939,/odom,2.44905209541,-0.224782526493,0.687484323978,0.0,0.0,0.28905519893,0.957312431744,1,doorway_assistance,0.899999976158,1449618394458256939,0,0
1449618394984994478,0,1449618394713675820,/odom,2.11556576202,-0.472044047682,0.0,0.0,0.0,0.321588324831,0.946879585445,0,1449618394713675820,/odom,3.30530861001,0.441472211417,0.0,0.0,0.0,0.321588324831,0.946879585445,0,1449618394713675820,/odom,2.51214671135,-0.167538627982,0.717779815197,0.0,0.0,0.321588324831,0.946879585445,1,doorway_assistance,1.0,1449618394713675820,0,0
1449618395107188095,0,1449618394713675820,/odom,2.11556576202,-0.472044047682,0.0,0.0,0.0,0.321588324831,0.946879585445,0,1449618394713675820,/odom,3.30530861001,0.441472211417,0.0,0.0,0.0,0.321588324831,0.946879585445,0,1449618394713675820,/odom,2.51214671135,-0.167538627982,0.717779815197,0.0,0.0,0.321588324831,0.946879585445,1,doorway_assistance,1.0,1449618394713675820,0,0
1449618395226516681,0,1449618394919183058,/odom,2.01166372749,-0.474764324507,0.0,0.0,0.0,0.277413037248,0.960750751634,0,1449618394919183058,/odom,3.28078974778,0.32481002764,0.0,0.0,0.0,0.277413037248,0.960750751634,0,1449618394919183058,/odom,2.43470573425,-0.208239540458,0.668420135975,0.0,0.0,0.277413037248,0.960750751634,1,doorway_assistance,1.0,1449618394919183058,0,0
1449618395294720993,0,1449618394919183058,/odom,2.01166372749,-0.474764324507,0.0,0.0,0.0,0.277413037248,0.960750751634,0,1449618394919183058,/odom,3.28078974778,0.32481002764,0.0,0.0,0.0,0.277413037248,0.960750751634,0,1449618394919183058,/odom,2.43470573425,-0.208239540458,0.668420135975,0.0,0.0,0.277413037248,0.960750751634,1,doorway_assistance,1.0,1449618394919183058,0,0
1449618395395235960,0,1449618395125539989,/odom,2.04146763784,-0.487605871248,0.0,0.0,0.0,0.29807235959,0.95454327741,0,1449618395125539989,/odom,3.27492624318,0.365963029837,0.0,0.0,0.0,0.29807235959,0.95454327741,0,1449618395125539989,/odom,2.45262050629,-0.20308290422,0.679130554199,0.0,0.0,0.29807235959,0.95454327741,1,doorway_assistance,1.0,1449618395125539989,0,0
1449618395502082069,0,1449618395291183952,/odom,2.1073166064,-0.484402057386,0.0,0.0,0.0,0.315055874714,0.949073124584,0,1449618395291183952,/odom,3.30953599382,0.412631132914,0.0,0.0,0.0,0.315055874714,0.949073124584,0,1449618395291183952,/odom,2.50805640221,-0.185390993953,0.738145291805,0.0,0.0,0.315055874714,0.949073124584,1,doorway_assistance,1.0,1449618395291183952,0,0
1449618395634791733,0,1449618395291183952,/odom,2.1073166064,-0.484402057386,0.0,0.0,0.0,0.315055874714,0.949073124584,0,1449618395291183952,/odom,3.30953599382,0.412631132914,0.0,0.0,0.0,0.315055874714,0.949073124584,0,1449618395291183952,/odom,2.50805640221,-0.185390993953,0.738145291805,0.0,0.0,0.315055874714,0.949073124584,1,doorway_assistance,1.0,1449618395291183952,0,0
1449618395714235803,0,1449618395440017173,/odom,2.07682668918,-0.502228054715,0.0,0.0,0.0,0.318318366364,0.947983869923,0,1449618395440017173,/odom,3.27284694208,0.403053975727,0.0,0.0,0.0,0.318318366364,0.947983869923,0,1449618395440017173,/odom,2.47550010681,-0.200467377901,0.667709946632,0.0,0.0,0.318318366364,0.947983869923,1,doorway_assistance,1.0,1449618395440017173,0,0
1449618395796070798,0,1449618395440017173,/odom,2.07682668918,-0.502228054715,0.0,0.0,0.0,0.318318366364,0.947983869923,0,1449618395440017173,/odom,3.27284694208,0.403053975727,0.0,0.0,0.0,0.318318366364,0.947983869923,0,1449618395440017173,/odom,2.47550010681,-0.200467377901,0.667709946632,0.0,0.0,0.318318366364,0.947983869923,1,doorway_assistance,1.0,1449618395440017173,0,0
1449618395886773829,0,1449618395630193142,/odom,2.09480717539,-0.471839379935,0.0,0.0,0.0,0.313250637679,0.949670489166,0,1449618395630193142,/odom,3.30042928937,0.420615279015,0.0,0.0,0.0,0.313250637679,0.949670489166,0,1449618395630193142,/odom,2.49668121338,-0.174354493618,0.688400685787,0.0,0.0,0.313250637679,0.949670489166,1,doorway_assistance,1.0,1449618395630193142,0,0
1449618395992446778,0,1449618395630193142,/odom,2.09480717539,-0.471839379935,0.0,0.0,0.0,0.313250637679,0.949670489166,0,1449618395630193142,/odom,3.30042928937,0.420615279015,0.0,0.0,0.0,0.313250637679,0.949670489166,0,1449618395630193142,/odom,2.49668121338,-0.174354493618,0.688400685787,0.0,0.0,0.313250637679,0.949670489166,1,doorway_assistance,1.0,1449618395630193142,0,0
1449618396085046055,0,1449618395775735420,/odom,2.06311274799,-0.479079837976,0.0,0.0,0.0,0.313392908975,0.949623548889,0,1449618395775735420,/odom,3.26846740181,0.413736021276,0.0,0.0,0.0,0.313392908975,0.949623548889,0,1449618395775735420,/odom,2.4648976326,-0.181474551558,0.658917665482,0.0,0.0,0.313392908975,0.949623548889,1,doorway_assistance,1.0,1449618395775735420,0,0
1449618396191550093,0,1449618395775735420,/odom,2.06311274799,-0.479079837976,0.0,0.0,0.0,0.313392908975,0.949623548889,0,1449618395775735420,/odom,3.26846740181,0.413736021276,0.0,0.0,0.0,0.313392908975,0.949623548889,0,1449618395775735420,/odom,2.4648976326,-0.181474551558,0.658917665482,0.0,0.0,0.313392908975,0.949623548889,1,doorway_assistance,1.0,1449618395775735420,0,0
1449618396298147792,0,1449618395988965765,/odom,2.09277504369,-0.469599135438,0.0,0.0,0.0,0.309872736207,0.95077804316,0,1449618395988965765,/odom,3.30471170576,0.41426144584,0.0,0.0,0.0,0.309872736207,0.95077804316,0,1449618395988965765,/odom,2.49675393105,-0.174978941679,0.68886834383,0.0,0.0,0.309872736207,0.95077804316,1,doorway_assistance,1.0,1449618395988965765,0,0
1449618396404445356,0,1449618396176097500,/odom,2.06262935261,-0.488137692955,0.0,0.0,0.0,0.317993157184,0.948093008088,0,1449618396176097500,/odom,3.25927040856,0.416323573881,0.0,0.0,0.0,0.317993157184,0.948093008088,0,1449618396176097500,/odom,2.46150970459,-0.18665060401,0.667945027351,0.0,0.0,0.317993157184,0.948093008088,1,doorway_assistance,1.0,1449618396176097500,0,0
1449618396494825735,0,1449618396176097500,/odom,2.06262935261,-0.488137692955,0.0,0.0,0.0,0.317993157184,0.948093008088,0,1449618396176097500,/odom,3.25927040856,0.416323573881,0.0,0.0,0.0,0.317993157184,0.948093008088,0,1449618396176097500,/odom,2.46150970459,-0.18665060401,0.667945027351,0.0,0.0,0.317993157184,0.948093008088,1,doorway_assistance,1.0,1449618396176097500,0,0
1449618396580910714,0,1449618396285020764,/odom,2.04183575689,-0.487833150814,0.0,0.0,0.0,0.301337931317,0.953517409988,0,1449618396285020764,/odom,3.26942211034,0.374159740587,0.0,0.0,0.0,0.301337931317,0.953517409988,0,1449618396285020764,/odom,2.45103120804,-0.200502187014,0.669831335545,0.0,0.0,0.301337931317,0.953517409988,1,doorway_assistance,1.0,1449618396285020764,0,0
1449618396683983948,0,1449618396285020764,/odom,2.04183575689,-0.487833150814,0.0,0.0,0.0,0.301337931317,0.953517409988,0,1449618396285020764,/odom,3.26942211034,0.374159740587,0.0,0.0,0.0,0.301337931317,0.953517409988,0,1449618396285020764,/odom,2.45103120804,-0.200502187014,0.669831335545,0.0,0.0,0.301337931317,0.953517409988,1,doorway_assistance,1.0,1449618396285020764,0,0
1449618396821198639,0,1449618396499836501,/odom,2.14067080512,-0.486290022939,0.0,0.0,0.0,0.328154470151,0.944624075344,0,1449618396499836501,/odom,3.31761473628,0.443657815872,0.0,0.0,0.0,0.328154470151,0.944624075344,0,1449618396499836501,/odom,2.53298544884,-0.176307410002,0.717695534229,0.0,0.0,0.328154470151,0.944624075344,1,doorway_assistance,1.0,1449618396499836501,0,0
1449618396894273080,0,1449618396499836501,/odom,2.14067080512,-0.486290022939,0.0,0.0,0.0,0.328154470151,0.944624075344,0,1449618396499836501,/odom,3.31761473628,0.443657815872,0.0,0.0,0.0,0.328154470151,0.944624075344,0,1449618396499836501,/odom,2.53298544884,-0.176307410002,0.717695534229,0.0,0.0,0.328154470151,0.944624075344,1,doorway_assistance,1.0,1449618396499836501,0,0
1449618397009583511,0,1449618396686597984,/odom,2.09417912015,-0.48154096683,0.0,0.0,0.0,0.322928879347,0.946423234544,0,1449618396686597984,/odom,3.2813299368,0.435341216726,0.0,0.0,0.0,0.322928879347,0.946423234544,0,1449618396686597984,/odom,2.48989605904,-0.175913572311,0.698064625263,0.0,0.0,0.322928879347,0.946423234544,1,doorway_assistance,1.0,1449618396686597984,0,0
1449618397120920775,0,1449618396686597984,/odom,2.09417912015,-0.48154096683,0.0,0.0,0.0,0.322928879347,0.946423234544,0,1449618396686597984,/odom,3.2813299368,0.435341216726,0.0,0.0,0.0,0.322928879347,0.946423234544,0,1449618396686597984,/odom,2.48989605904,-0.175913572311,0.698064625263,0.0,0.0,0.322928879347,0.946423234544,1,doorway_assistance,1.0,1449618396686597984,0,0
1449618397193273439,0,1449618396686597984,/odom,2.09417912015,-0.48154096683,0.0,0.0,0.0,0.322928879347,0.946423234544,0,1449618396686597984,/odom,3.2813299368,0.435341216726,0.0,0.0,0.0,0.322928879347,0.946423234544,0,1449618396686597984,/odom,2.48989605904,-0.175913572311,0.698064625263,0.0,0.0,0.322928879347,0.946423234544,1,doorway_assistance,0.899999976158,1449618396686597984,0,0
1449618397320567996,0,1449618396686597984,/odom,2.09417912015,-0.48154096683,0.0,0.0,0.0,0.322928879347,0.946423234544,0,1449618396686597984,/odom,3.2813299368,0.435341216726,0.0,0.0,0.0,0.322928879347,0.946423234544,0,1449618396686597984,/odom,2.48989605904,-0.175913572311,0.698064625263,0.0,0.0,0.322928879347,0.946423234544,1,doorway_assistance,0.899999976158,1449618396686597984,0,0
1449618397381347719,0,1449618397109470556,/odom,2.02819219398,-0.506536104487,0.0,0.0,0.0,0.29176618095,0.956489673574,0,1449618397109470556,/odom,3.27280968094,0.330677913043,0.0,0.0,0.0,0.29176618095,0.956489673574,0,1449618397109470556,/odom,2.44306468964,-0.22746476531,0.669622182846,0.0,0.0,0.29176618095,0.956489673574,1,doorway_assistance,1.0,1449618397109470556,0,0
1449618397497620941,0,1449618397109470556,/odom,2.02819219398,-0.506536104487,0.0,0.0,0.0,0.29176618095,0.956489673574,0,1449618397109470556,/odom,3.27280968094,0.330677913043,0.0,0.0,0.0,0.29176618095,0.956489673574,0,1449618397109470556,/odom,2.44306468964,-0.22746476531,0.669622182846,0.0,0.0,0.29176618095,0.956489673574,1,doorway_assistance,1.0,1449618397109470556,0,0
1449618397611946976,0,1449618397109470556,/odom,2.02819219398,-0.506536104487,0.0,0.0,0.0,0.29176618095,0.956489673574,0,1449618397109470556,/odom,3.27280968094,0.330677913043,0.0,0.0,0.0,0.29176618095,0.956489673574,0,1449618397109470556,/odom,2.44306468964,-0.22746476531,0.669622182846,0.0,0.0,0.29176618095,0.956489673574,1,doorway_assistance,0.899999976158,1449618397109470556,0,0
1449618397679690820,0,1449618397109470556,/odom,2.02819219398,-0.506536104487,0.0,0.0,0.0,0.29176618095,0.956489673574,0,1449618397109470556,/odom,3.27280968094,0.330677913043,0.0,0.0,0.0,0.29176618095,0.956489673574,0,1449618397109470556,/odom,2.44306468964,-0.22746476531,0.669622182846,0.0,0.0,0.29176618095,0.956489673574,1,doorway_assistance,0.899999976158,1449618397109470556,0,0
1449618397787695622,0,1449618397485977213,/odom,2.07366756833,-0.492850959061,0.0,0.0,0.0,0.31152886231,0.950236690487,0,1449618397485977213,/odom,3.28251687217,0.395227506277,0.0,0.0,0.0,0.31152886231,0.950236690487,0,1449618397485977213,/odom,2.47661733627,-0.196824803948,0.697928845882,0.0,0.0,0.31152886231,0.950236690487,1,doorway_assistance,1.0,1449618397485977213,0,0
1449618397912758792,0,1449618397485977213,/odom,2.07366756833,-0.492850959061,0.0,0.0,0.0,0.31152886231,0.950236690487,0,1449618397485977213,/odom,3.28251687217,0.395227506277,0.0,0.0,0.0,0.31152886231,0.950236690487,0,1449618397485977213,/odom,2.47661733627,-0.196824803948,0.697928845882,0.0,0.0,0.31152886231,0.950236690487,1,doorway_assistance,1.0,1449618397485977213,0,0
1449618397990457396,0,1449618397681341258,/odom,2.04955557144,-0.49602415342,0.0,0.0,0.0,0.294751708206,0.955573874962,0,1449618397681341258,/odom,3.28891986297,0.348946942466,0.0,0.0,0.0,0.294751708206,0.955573874962,0,1449618397681341258,/odom,2.46267700195,-0.214367121458,0.687456250191,0.0,0.0,0.294751708206,0.955573874962,1,doorway_assistance,1.0,1449618397681341258,0,0
1449618398090916968,0,1449618397681341258,/odom,2.04955557144,-0.49602415342,0.0,0.0,0.0,0.294751708206,0.955573874962,0,1449618397681341258,/odom,3.28891986297,0.348946942466,0.0,0.0,0.0,0.294751708206,0.955573874962,0,1449618397681341258,/odom,2.46267700195,-0.214367121458,0.687456250191,0.0,0.0,0.294751708206,0.955573874962,1,doorway_assistance,1.0,1449618397681341258,0,0
1449618398180633756,0,1449618397931884378,/odom,2.04434990509,-0.518294123005,0.0,0.0,0.0,0.298050404425,0.954550133006,0,1449618397931884378,/odom,3.27784777436,0.335218036554,0.0,0.0,0.0,0.298050404425,0.954550133006,0,1449618397931884378,/odom,2.45551586151,-0.233790069818,0.738978981972,0.0,0.0,0.298050404425,0.954550133006,1,doorway_assistance,1.0,1449618397931884378,0,0
1449618398288855970,0,1449618398073918798,/odom,2.04225110946,-0.491723986352,0.0,0.0,0.0,0.292412801536,0.956292190441,0,1449618398073918798,/odom,3.28573536996,0.347172249128,0.0,0.0,0.0,0.292412801536,0.956292190441,0,1449618398073918798,/odom,2.45674586296,-0.212091907859,0.708025336266,0.0,0.0,0.292412801536,0.956292190441,1,doorway_assistance,1.0,1449618398073918798,0,0
1449618398384866817,0,1449618398073918798,/odom,2.04225110946,-0.491723986352,0.0,0.0,0.0,0.292412801536,0.956292190441,0,1449618398073918798,/odom,3.28573536996,0.347172249128,0.0,0.0,0.0,0.292412801536,0.956292190441,0,1449618398073918798,/odom,2.45674586296,-0.212091907859,0.708025336266,0.0,0.0,0.292412801536,0.956292190441,1,doorway_assistance,1.0,1449618398073918798,0,0
1449618398484572994,0,1449618398154921842,/odom,2.06278614655,-0.520492555436,0.0,0.0,0.0,0.309874447664,0.950777485369,0,1449618398154921842,/odom,3.27471962661,0.363372388953,0.0,0.0,0.0,0.309874447664,0.950777485369,0,1449618398154921842,/odom,2.46676397324,-0.225870907307,0.667732179165,0.0,0.0,0.309874447664,0.950777485369,1,doorway_assistance,1.0,1449618398154921842,0,0
1449618398592194496,0,1449618398154921842,/odom,2.06278614655,-0.520492555436,0.0,0.0,0.0,0.309874447664,0.950777485369,0,1449618398154921842,/odom,3.27471962661,0.363372388953,0.0,0.0,0.0,0.309874447664,0.950777485369,0,1449618398154921842,/odom,2.46676397324,-0.225870907307,0.667732179165,0.0,0.0,0.309874447664,0.950777485369,1,doorway_assistance,1.0,1449618398154921842,0,0
1449618398684789869,0,1449618398375792161,/odom,2.02651993769,-0.480063148083,0.0,0.0,0.0,0.289918068758,0.957051468526,0,1449618398375792161,/odom,3.27436247791,0.352336392287,0.0,0.0,0.0,0.289918068758,0.957051468526,0,1449618398375792161,/odom,2.4424674511,-0.202596634626,0.65805542469,0.0,0.0,0.289918068758,0.957051468526,1,doorway_assistance,1.0,1449618398375792161,0,0
1449618398819693937,0,1449618398375792161,/odom,2.02651993769,-0.480063148083,0.0,0.0,0.0,0.289918068758,0.957051468526,0,1449618398375792161,/odom,3.27436247791,0.352336392287,0.0,0.0,0.0,0.289918068758,0.957051468526,0,1449618398375792161,/odom,2.4424674511,-0.202596634626,0.65805542469,0.0,0.0,0.289918068758,0.957051468526,1,doorway_assistance,1.0,1449618398375792161,0,0
1449618398888383543,0,1449618398620584204,/odom,2.01612947902,-0.483258878146,0.0,0.0,0.0,0.280690776682,0.959798253742,0,1449618398620584204,/odom,3.27976754267,0.324960673757,0.0,0.0,0.0,0.280690776682,0.959798253742,0,1449618398620584204,/odom,2.4373421669,-0.213852360845,0.68833732605,0.0,0.0,0.280690776682,0.959798253742,1,doorway_assistance,1.0,1449618398620584204,0,0
1449618398990392359,0,1449618398620584204,/odom,2.01612947902,-0.483258878146,0.0,0.0,0.0,0.280690776682,0.959798253742,0,1449618398620584204,/odom,3.27976754267,0.324960673757,0.0,0.0,0.0,0.280690776682,0.959798253742,0,1449618398620584204,/odom,2.4373421669,-0.213852360845,0.68833732605,0.0,0.0,0.280690776682,0.959798253742,1,doorway_assistance,1.0,1449618398620584204,0,0
1449618399087260160,0,1449618398811824286,/odom,2.08448498184,-0.481928630546,0.0,0.0,0.0,0.313533484407,0.949577144921,0,1449618398811824286,/odom,3.2895752443,0.411244062334,0.0,0.0,0.0,0.313533484407,0.949577144921,0,1449618398811824286,/odom,2.48618173599,-0.184204399586,0.698741018772,0.0,0.0,0.313533484407,0.949577144921,1,doorway_assistance,1.0,1449618398811824286,0,0
1449618399183570245,0,1449618398811824286,/odom,2.08448498184,-0.481928630546,0.0,0.0,0.0,0.313533484407,0.949577144921,0,1449618398811824286,/odom,3.2895752443,0.411244062334,0.0,0.0,0.0,0.313533484407,0.949577144921,0,1449618398811824286,/odom,2.48618173599,-0.184204399586,0.698741018772,0.0,0.0,0.313533484407,0.949577144921,1,doorway_assistance,1.0,1449618398811824286,0,0
1449618399285725855,0,1449618398986950967,/odom,2.13276444185,-0.492411137865,0.0,0.0,0.0,0.331356099787,0.943505768469,0,1449618398986950967,/odom,3.30337384725,0.445498036834,0.0,0.0,0.0,0.331356099787,0.943505768469,0,1449618398986950967,/odom,2.52296757698,-0.179774746299,0.739581227303,0.0,0.0,0.331356099787,0.943505768469,1,doorway_assistance,1.0,1449618398986950967,0,0
1449618399383051828,0,1449618398986950967,/odom,2.13276444185,-0.492411137865,0.0,0.0,0.0,0.331356099787,0.943505768469,0,1449618398986950967,/odom,3.30337384725,0.445498036834,0.0,0.0,0.0,0.331356099787,0.943505768469,0,1449618398986950967,/odom,2.52296757698,-0.179774746299,0.739581227303,0.0,0.0,0.331356099787,0.943505768469,1,doorway_assistance,1.0,1449618398986950967,0,0
1449618399516958744,0,1449618399175237082,/odom,2.07249745782,-0.493957257994,0.0,0.0,0.0,0.317095489434,0.948393615848,0,1449618399175237082,/odom,3.27084880956,0.408236755386,0.0,0.0,0.0,0.317095489434,0.948393615848,0,1449618399175237082,/odom,2.4719479084,-0.1932259202,0.698940753937,0.0,0.0,0.317095489434,0.948393615848,1,doorway_assistance,1.0,1449618399175237082,0,0
1449618399632941802,0,1449618399175237082,/odom,2.07249745782,-0.493957257994,0.0,0.0,0.0,0.317095489434,0.948393615848,0,1449618399175237082,/odom,3.27084880956,0.408236755386,0.0,0.0,0.0,0.317095489434,0.948393615848,0,1449618399175237082,/odom,2.4719479084,-0.1932259202,0.698940753937,0.0,0.0,0.317095489434,0.948393615848,1,doorway_assistance,1.0,1449618399175237082,0,0
1449618399699975814,0,1449618399384941301,/odom,2.02798806381,-0.495054722575,0.0,0.0,0.0,0.289185965901,0.957272937634,0,1449618399384941301,/odom,3.27710249519,0.335434974726,0.0,0.0,0.0,0.289185965901,0.957272937634,0,1449618399384941301,/odom,2.44435954094,-0.218224823475,0.688033759594,0.0,0.0,0.289185965901,0.957272937634,1,doorway_assistance,1.0,1449618399384941301,0,0
1449618399787764480,0,1449618399384941301,/odom,2.02798806381,-0.495054722575,0.0,0.0,0.0,0.289185965901,0.957272937634,0,1449618399384941301,/odom,3.27710249519,0.335434974726,0.0,0.0,0.0,0.289185965901,0.957272937634,0,1449618399384941301,/odom,2.44435954094,-0.218224823475,0.688033759594,0.0,0.0,0.289185965901,0.957272937634,1,doorway_assistance,1.0,1449618399384941301,0,0
1449618399888311421,0,1449618399615973449,/odom,2.03515680696,-0.509792366758,0.0,0.0,0.0,0.306576603732,0.951845988616,0,1449618399615973449,/odom,3.25318916509,0.36564876464,0.0,0.0,0.0,0.306576603732,0.951845988616,0,1449618399615973449,/odom,2.441167593,-0.217978656292,0.687601029873,0.0,0.0,0.306576603732,0.951845988616,1,doorway_assistance,1.0,1449618399615973449,0,0
1449618400003719756,0,1449618399778368369,/odom,2.07492448616,-0.488855160956,0.0,0.0,0.0,0.305717516047,0.952122261257,0,1449618399778368369,/odom,3.29453488731,0.384386197099,0.0,0.0,0.0,0.305717516047,0.952122261257,0,1449618399778368369,/odom,2.48146128654,-0.197774708271,0.708732306957,0.0,0.0,0.305717516047,0.952122261257,1,doorway_assistance,1.0,1449618399778368369,0,0
1449618400123701265,0,1449618399778368369,/odom,2.07492448616,-0.488855160956,0.0,0.0,0.0,0.305717516047,0.952122261257,0,1449618399778368369,/odom,3.29453488731,0.384386197099,0.0,0.0,0.0,0.305717516047,0.952122261257,0,1449618399778368369,/odom,2.48146128654,-0.197774708271,0.708732306957,0.0,0.0,0.305717516047,0.952122261257,1,doorway_assistance,1.0,1449618399778368369,0,0
1449618400179274821,0,1449618399865568548,/odom,2.0330686876,-0.508521488028,0.0,0.0,0.0,0.296948927133,0.954893362986,0,1449618399865568548,/odom,3.26853269163,0.342142190967,0.0,0.0,0.0,0.296948927133,0.954893362986,0,1449618399865568548,/odom,2.44489002228,-0.224966928363,0.659076571465,0.0,0.0,0.296948927133,0.954893362986,1,doorway_assistance,1.0,1449618399865568548,0,0
1449618400287696939,0,1449618399865568548,/odom,2.0330686876,-0.508521488028,0.0,0.0,0.0,0.296948927133,0.954893362986,0,1449618399865568548,/odom,3.26853269163,0.342142190967,0.0,0.0,0.0,0.296948927133,0.954893362986,0,1449618399865568548,/odom,2.44489002228,-0.224966928363,0.659076571465,0.0,0.0,0.296948927133,0.954893362986,1,doorway_assistance,1.0,1449618399865568548,0,0
1449618400398798302,0,1449618400115862395,/odom,2.07397662412,-0.507190424318,0.0,0.0,0.0,0.32942431117,0.944181986277,0,1449618400115862395,/odom,3.24841549375,0.425919077028,0.0,0.0,0.0,0.32942431117,0.944181986277,0,1449618400115862395,/odom,2.46545624733,-0.196153923869,0.717443823814,0.0,0.0,0.32942431117,0.944181986277,1,doorway_assistance,1.0,1449618400115862395,0,0
1449618400484945577,0,1449618400115862395,/odom,2.07397662412,-0.507190424318,0.0,0.0,0.0,0.32942431117,0.944181986277,0,1449618400115862395,/odom,3.24841549375,0.425919077028,0.0,0.0,0.0,0.32942431117,0.944181986277,0,1449618400115862395,/odom,2.46545624733,-0.196153923869,0.717443823814,0.0,0.0,0.32942431117,0.944181986277,1,doorway_assistance,1.0,1449618400115862395,0,0
1449618400644619889,0,1449618400115862395,/odom,2.07397662412,-0.507190424318,0.0,0.0,0.0,0.32942431117,0.944181986277,0,1449618400115862395,/odom,3.24841549375,0.425919077028,0.0,0.0,0.0,0.32942431117,0.944181986277,0,1449618400115862395,/odom,2.46545624733,-0.196153923869,0.717443823814,0.0,0.0,0.32942431117,0.944181986277,1,doorway_assistance,0.899999976158,1449618400115862395,0,0
1449618400688405778,0,1449618400115862395,/odom,2.07397662412,-0.507190424318,0.0,0.0,0.0,0.32942431117,0.944181986277,0,1449618400115862395,/odom,3.24841549375,0.425919077028,0.0,0.0,0.0,0.32942431117,0.944181986277,0,1449618400115862395,/odom,2.46545624733,-0.196153923869,0.717443823814,0.0,0.0,0.32942431117,0.944181986277,1,doorway_assistance,0.899999976158,1449618400115862395,0,0
1449618400792361239,0,1449618400486823199,/odom,2.02586871269,-0.497678821824,0.0,0.0,0.0,0.291592325358,0.956542688955,0,1449618400486823199,/odom,3.27079046006,0.339082699104,0.0,0.0,0.0,0.291592325358,0.956542688955,0,1449618400486823199,/odom,2.44084262848,-0.218758314848,0.697530329227,0.0,0.0,0.291592325358,0.956542688955,1,doorway_assistance,1.0,1449618400486823199,0,0
1449618400887100092,0,1449618400486823199,/odom,2.02586871269,-0.497678821824,0.0,0.0,0.0,0.291592325358,0.956542688955,0,1449618400486823199,/odom,3.27079046006,0.339082699104,0.0,0.0,0.0,0.291592325358,0.956542688955,0,1449618400486823199,/odom,2.44084262848,-0.218758314848,0.697530329227,0.0,0.0,0.291592325358,0.956542688955,1,doorway_assistance,1.0,1449618400486823199,0,0
1449618401021164219,0,1449618400688425639,/odom,2.05938770832,-0.499369295628,0.0,0.0,0.0,0.320866957175,0.947124276847,0,1449618400688425639,/odom,3.2505208957,0.412333358708,0.0,0.0,0.0,0.320866957175,0.947124276847,0,1449618400688425639,/odom,2.45643210411,-0.19546841085,0.689267754555,0.0,0.0,0.320866957175,0.947124276847,1,doorway_assistance,1.0,1449618400688425639,0,0
1449618401090153026,0,1449618400688425639,/odom,2.05938770832,-0.499369295628,0.0,0.0,0.0,0.320866957175,0.947124276847,0,1449618400688425639,/odom,3.2505208957,0.412333358708,0.0,0.0,0.0,0.320866957175,0.947124276847,0,1449618400688425639,/odom,2.45643210411,-0.19546841085,0.689267754555,0.0,0.0,0.320866957175,0.947124276847,1,doorway_assistance,1.0,1449618400688425639,0,0
1449618401191666470,0,1449618400887371800,/odom,2.03315332167,-0.480788718547,0.0,0.0,0.0,0.286639854812,0.958038409268,0,1449618400887371800,/odom,3.28666610257,0.343047253064,0.0,0.0,0.0,0.286639854812,0.958038409268,0,1449618400887371800,/odom,2.4509909153,-0.20617672801,0.697777986526,0.0,0.0,0.286639854812,0.958038409268,1,doorway_assistance,1.0,1449618400887371800,0,0
1449618401307467626,0,1449618400887371800,/odom,2.03315332167,-0.480788718547,0.0,0.0,0.0,0.286639854812,0.958038409268,0,1449618400887371800,/odom,3.28666610257,0.343047253064,0.0,0.0,0.0,0.286639854812,0.958038409268,0,1449618400887371800,/odom,2.4509909153,-0.20617672801,0.697777986526,0.0,0.0,0.286639854812,0.958038409268,1,doorway_assistance,1.0,1449618400887371800,0,0
1449618401387093184,0,1449618401104734900,/odom,2.02791743651,-0.490337099205,0.0,0.0,0.0,0.29435471954,0.955696237873,0,1449618401104734900,/odom,3.26798333377,0.353603994987,0.0,0.0,0.0,0.29435471954,0.955696237873,0,1449618401104734900,/odom,2.4412727356,-0.209023401141,0.69812220335,0.0,0.0,0.29435471954,0.955696237873,1,doorway_assistance,1.0,1449618401104734900,0,0
1449618401494147379,0,1449618401104734900,/odom,2.02791743651,-0.490337099205,0.0,0.0,0.0,0.29435471954,0.955696237873,0,1449618401104734900,/odom,3.26798333377,0.353603994987,0.0,0.0,0.0,0.29435471954,0.955696237873,0,1449618401104734900,/odom,2.4412727356,-0.209023401141,0.69812220335,0.0,0.0,0.29435471954,0.955696237873,1,doorway_assistance,1.0,1449618401104734900,0,0
1449618401581234875,0,1449618401104734900,/odom,2.02791743651,-0.490337099205,0.0,0.0,0.0,0.29435471954,0.955696237873,0,1449618401104734900,/odom,3.26798333377,0.353603994987,0.0,0.0,0.0,0.29435471954,0.955696237873,0,1449618401104734900,/odom,2.4412727356,-0.209023401141,0.69812220335,0.0,0.0,0.29435471954,0.955696237873,1,doorway_assistance,0.899999976158,1449618401104734900,0,0
1449618401687612152,0,1449618401104734900,/odom,2.02791743651,-0.490337099205,0.0,0.0,0.0,0.29435471954,0.955696237873,0,1449618401104734900,/odom,3.26798333377,0.353603994987,0.0,0.0,0.0,0.29435471954,0.955696237873,0,1449618401104734900,/odom,2.4412727356,-0.209023401141,0.69812220335,0.0,0.0,0.29435471954,0.955696237873,1,doorway_assistance,0.899999976158,1449618401104734900,0,0
1449618402380424780,0,1449618402118831832,/odom,2.09159890214,-0.497839516344,0.0,0.0,0.0,0.322209631152,0.946668344032,0,1449618402118831832,/odom,3.28014176291,0.417237457519,0.0,0.0,0.0,0.322209631152,0.946668344032,0,1449618402118831832,/odom,2.48777985573,-0.19281385839,0.699387013912,0.0,0.0,0.322209631152,0.946668344032,1,doorway_assistance,0.899999976158,1449618402118831832,0,0
1449618402499422670,0,1449618402118831832,/odom,2.09159890214,-0.497839516344,0.0,0.0,0.0,0.322209631152,0.946668344032,0,1449618402118831832,/odom,3.28014176291,0.417237457519,0.0,0.0,0.0,0.322209631152,0.946668344032,0,1449618402118831832,/odom,2.48777985573,-0.19281385839,0.699387013912,0.0,0.0,0.322209631152,0.946668344032,1,doorway_assistance,0.899999976158,1449618402118831832,0,0
1449618402609176799,0,1449618402333343307,/odom,2.14032159882,-0.500925032282,0.0,0.0,0.0,0.336851586147,0.941557756545,0,1449618402333343307,/odom,3.29991462555,0.450570638943,0.0,0.0,0.0,0.336851586147,0.941557756545,0,1449618402333343307,/odom,2.52685260773,-0.18375980854,0.728552758694,0.0,0.0,0.336851586147,0.941557756545,1,doorway_assistance,1.0,1449618402333343307,0,0
1449618402732697399,0,1449618402333343307,/odom,2.14032159882,-0.500925032282,0.0,0.0,0.0,0.336851586147,0.941557756545,0,1449618402333343307,/odom,3.29991462555,0.450570638943,0.0,0.0,0.0,0.336851586147,0.941557756545,0,1449618402333343307,/odom,2.52685260773,-0.18375980854,0.728552758694,0.0,0.0,0.336851586147,0.941557756545,1,doorway_assistance,1.0,1449618402333343307,0,0
1449618402790139201,0,1449618402504686160,/odom,2.01118049242,-0.477260560393,0.0,0.0,0.0,0.279365321628,0.960184886921,0,1449618402504686160,/odom,3.27704554363,0.327466518878,0.0,0.0,0.0,0.279365321628,0.960184886921,0,1449618402504686160,/odom,2.43313550949,-0.209018200636,0.668546974659,0.0,0.0,0.279365321628,0.960184886921,1,doorway_assistance,1.0,1449618402504686160,0,0
1449618402924268904,0,1449618402504686160,/odom,2.01118049242,-0.477260560393,0.0,0.0,0.0,0.279365321628,0.960184886921,0,1449618402504686160,/odom,3.27704554363,0.327466518878,0.0,0.0,0.0,0.279365321628,0.960184886921,0,1449618402504686160,/odom,2.43313550949,-0.209018200636,0.668546974659,0.0,0.0,0.279365321628,0.960184886921,1,doorway_assistance,1.0,1449618402504686160,0,0
1449618402992321748,0,1449618402742915445,/odom,2.09366611932,-0.480561757785,0.0,0.0,0.0,0.318893332675,0.94779061104,0,1449618402742915445,/odom,3.28858724645,0.426170562112,0.0,0.0,0.0,0.318893332675,0.94779061104,0,1449618402742915445,/odom,2.4919731617,-0.178317651153,0.698203384876,0.0,0.0,0.318893332675,0.94779061104,1,doorway_assistance,1.0,1449618402742915445,0,0
1449618403089207386,0,1449618402742915445,/odom,2.09366611932,-0.480561757785,0.0,0.0,0.0,0.318893332675,0.94779061104,0,1449618402742915445,/odom,3.28858724645,0.426170562112,0.0,0.0,0.0,0.318893332675,0.94779061104,0,1449618402742915445,/odom,2.4919731617,-0.178317651153,0.698203384876,0.0,0.0,0.318893332675,0.94779061104,1,doorway_assistance,1.0,1449618402742915445,0,0
1449618403188747090,0,1449618402742915445,/odom,2.09366611932,-0.480561757785,0.0,0.0,0.0,0.318893332675,0.94779061104,0,1449618402742915445,/odom,3.28858724645,0.426170562112,0.0,0.0,0.0,0.318893332675,0.94779061104,0,1449618402742915445,/odom,2.4919731617,-0.178317651153,0.698203384876,0.0,0.0,0.318893332675,0.94779061104,1,doorway_assistance,0.899999976158,1449618402742915445,0,0
1449618403291879703,0,1449618403073896383,/odom,2.01833452815,-0.482497653703,0.0,0.0,0.0,0.298011445603,0.954562296705,0,1449618403073896383,/odom,3.25190206302,0.370913816173,0.0,0.0,0.0,0.298011445603,0.954562296705,0,1449618403073896383,/odom,2.42952370644,-0.198027163744,0.69776725769,0.0,0.0,0.298011445603,0.954562296705,1,doorway_assistance,1.0,1449618403073896383,0,0
1449618403387801981,0,1449618403160948807,/odom,2.00018805157,-0.49064783466,0.0,0.0,0.0,0.295077350562,0.955473368119,0,1449618403160948807,/odom,3.23897612312,0.355167815331,0.0,0.0,0.0,0.295077350562,0.955473368119,0,1449618403160948807,/odom,2.41311740875,-0.208709284663,0.669583022594,0.0,0.0,0.295077350562,0.955473368119,1,doorway_assistance,1.0,1449618403160948807,0,0
1449618403488526867,0,1449618403160948807,/odom,2.00018805157,-0.49064783466,0.0,0.0,0.0,0.295077350562,0.955473368119,0,1449618403160948807,/odom,3.23897612312,0.355167815331,0.0,0.0,0.0,0.295077350562,0.955473368119,0,1449618403160948807,/odom,2.41311740875,-0.208709284663,0.669583022594,0.0,0.0,0.295077350562,0.955473368119,1,doorway_assistance,1.0,1449618403160948807,0,0
1449618403610543009,0,1449618403284138916,/odom,2.02690843978,-0.470977853736,0.0,0.0,0.0,0.287178364088,0.957877125314,0,1449618403284138916,/odom,3.27949420138,0.354266903799,0.0,0.0,0.0,0.287178364088,0.957877125314,0,1449618403284138916,/odom,2.44443702698,-0.195896267891,0.687951266766,0.0,0.0,0.287178364088,0.957877125314,1,doorway_assistance,1.0,1449618403284138916,0,0
1449618403713053476,0,1449618403284138916,/odom,2.02690843978,-0.470977853736,0.0,0.0,0.0,0.287178364088,0.957877125314,0,1449618403284138916,/odom,3.27949420138,0.354266903799,0.0,0.0,0.0,0.287178364088,0.957877125314,0,1449618403284138916,/odom,2.44443702698,-0.195896267891,0.687951266766,0.0,0.0,0.287178364088,0.957877125314,1,doorway_assistance,1.0,1449618403284138916,0,0
1449618403834602015,0,1449618403483374174,/odom,2.15283975306,-0.491476948953,0.0,0.0,0.0,0.344613944656,0.938744496201,0,1449618403483374174,/odom,3.29656344051,0.479036382628,0.0,0.0,0.0,0.344613944656,0.938744496201,0,1449618403483374174,/odom,2.53408098221,-0.167972505093,0.729232847691,0.0,0.0,0.344613944656,0.938744496201,1,doorway_assistance,1.0,1449618403483374174,0,0
1449618403886752269,0,1449618403483374174,/odom,2.15283975306,-0.491476948953,0.0,0.0,0.0,0.344613944656,0.938744496201,0,1449618403483374174,/odom,3.29656344051,0.479036382628,0.0,0.0,0.0,0.344613944656,0.938744496201,0,1449618403483374174,/odom,2.53408098221,-0.167972505093,0.729232847691,0.0,0.0,0.344613944656,0.938744496201,1,doorway_assistance,1.0,1449618403483374174,0,0
1449618403987231809,0,1449618403483374174,/odom,2.15283975306,-0.491476948953,0.0,0.0,0.0,0.344613944656,0.938744496201,0,1449618403483374174,/odom,3.29656344051,0.479036382628,0.0,0.0,0.0,0.344613944656,0.938744496201,0,1449618403483374174,/odom,2.53408098221,-0.167972505093,0.729232847691,0.0,0.0,0.344613944656,0.938744496201,1,doorway_assistance,0.899999976158,1449618403483374174,0,0
1449618404763463633,0,1449618403483374174,/odom,2.15283975306,-0.491476948953,0.0,0.0,0.0,0.344613944656,0.938744496201,0,1449618403483374174,/odom,3.29656344051,0.479036382628,0.0,0.0,0.0,0.344613944656,0.938744496201,0,1449618403483374174,/odom,2.53408098221,-0.167972505093,0.729232847691,0.0,0.0,0.344613944656,0.938744496201,1,doorway_assistance,0.899999976158,1449618403483374174,0,0
1449618404819761524,0,1449618403880455739,/odom,2.05927801244,-0.48239933245,0.0,0.0,0.0,0.30652047676,0.951864064521,0,1449618403880455739,/odom,3.27741360442,0.392898148152,0.0,0.0,0.0,0.30652047676,0.951864064521,0,1449618403880455739,/odom,2.46532320976,-0.190633505583,0.667725384235,0.0,0.0,0.30652047676,0.951864064521,1,doorway_assistance,1.0,1449618403880455739,0,0
1449618404870497971,0,1449618403880455739,/odom,2.05927801244,-0.48239933245,0.0,0.0,0.0,0.30652047676,0.951864064521,0,1449618403880455739,/odom,3.27741360442,0.392898148152,0.0,0.0,0.0,0.30652047676,0.951864064521,0,1449618403880455739,/odom,2.46532320976,-0.190633505583,0.667725384235,0.0,0.0,0.30652047676,0.951864064521,1,doorway_assistance,1.0,1449618403880455739,0,0
1449618404971956769,0,1449618404771939442,/odom,2.09467925623,-0.486856144069,0.0,0.0,0.0,0.323892666794,0.946093832766,0,1449618404771939442,/odom,3.27995987742,0.432442419526,0.0,0.0,0.0,0.323892666794,0.946093832766,0,1449618404771939442,/odom,2.48977279663,-0.180423289537,0.707584559917,0.0,0.0,0.323892666794,0.946093832766,1,doorway_assistance,1.0,1449618404771939442,0,0
1449618405082133282,0,1449618404771939442,/odom,2.09467925623,-0.486856144069,0.0,0.0,0.0,0.323892666794,0.946093832766,0,1449618404771939442,/odom,3.27995987742,0.432442419526,0.0,0.0,0.0,0.323892666794,0.946093832766,0,1449618404771939442,/odom,2.48977279663,-0.180423289537,0.707584559917,0.0,0.0,0.323892666794,0.946093832766,1,doorway_assistance,0.899999976158,1449618404771939442,0,0
1449618405166164020,0,1449618404771939442,/odom,2.09467925623,-0.486856144069,0.0,0.0,0.0,0.323892666794,0.946093832766,0,1449618404771939442,/odom,3.27995987742,0.432442419526,0.0,0.0,0.0,0.323892666794,0.946093832766,0,1449618404771939442,/odom,2.48977279663,-0.180423289537,0.707584559917,0.0,0.0,0.323892666794,0.946093832766,1,doorway_assistance,0.899999976158,1449618404771939442,0,0
1449618405480011743,0,1449618405152784176,/odom,2.15914030342,-0.473110555354,0.0,0.0,0.0,0.333640406181,0.942700418672,0,1449618405152784176,/odom,3.32519254151,0.470458296424,0.0,0.0,0.0,0.333640406181,0.942700418672,0,1449618405152784176,/odom,2.54782438278,-0.158587604761,0.759392261505,0.0,0.0,0.333640406181,0.942700418672,1,doorway_assistance,0.899999976158,1449618405152784176,0,0
1449618405569867477,0,1449618405152784176,/odom,2.15914030342,-0.473110555354,0.0,0.0,0.0,0.333640406181,0.942700418672,0,1449618405152784176,/odom,3.32519254151,0.470458296424,0.0,0.0,0.0,0.333640406181,0.942700418672,0,1449618405152784176,/odom,2.54782438278,-0.158587604761,0.759392261505,0.0,0.0,0.333640406181,0.942700418672,1,doorway_assistance,0.899999976158,1449618405152784176,0,0
1449618405668839818,0,1449618405386525721,/odom,2.04053735515,-0.475556807506,0.0,0.0,0.0,0.299878632656,0.953977361197,0,1449618405386525721,/odom,3.27075577218,0.382675472474,0.0,0.0,0.0,0.299878632656,0.953977361197,0,1449618405386525721,/odom,2.45061016083,-0.189479380846,0.708848714828,0.0,0.0,0.299878632656,0.953977361197,1,doorway_assistance,1.0,1449618405386525721,0,0
1449618405788928442,0,1449618405386525721,/odom,2.04053735515,-0.475556807506,0.0,0.0,0.0,0.299878632656,0.953977361197,0,1449618405386525721,/odom,3.27075577218,0.382675472474,0.0,0.0,0.0,0.299878632656,0.953977361197,0,1449618405386525721,/odom,2.45061016083,-0.189479380846,0.708848714828,0.0,0.0,0.299878632656,0.953977361197,1,doorway_assistance,1.0,1449618405386525721,0,0
1449618405905538059,0,1449618405581006648,/odom,2.01366052131,-0.490673185206,0.0,0.0,0.0,0.290039218347,0.957014760503,0,1449618405581006648,/odom,3.26129227677,0.342042254043,0.0,0.0,0.0,0.290039218347,0.957014760503,0,1449618405581006648,/odom,2.42953777313,-0.213101372123,0.667542338371,0.0,0.0,0.290039218347,0.957014760503,1,doorway_assistance,1.0,1449618405581006648,0,0
1449618405968186980,0,1449618405581006648,/odom,2.01366052131,-0.490673185206,0.0,0.0,0.0,0.290039218347,0.957014760503,0,1449618405581006648,/odom,3.26129227677,0.342042254043,0.0,0.0,0.0,0.290039218347,0.957014760503,0,1449618405581006648,/odom,2.42953777313,-0.213101372123,0.667542338371,0.0,0.0,0.290039218347,0.957014760503,1,doorway_assistance,0.899999976158,1449618405581006648,0,0
1449618406119617699,0,1449618405581006648,/odom,2.01366052131,-0.490673185206,0.0,0.0,0.0,0.290039218347,0.957014760503,0,1449618405581006648,/odom,3.26129227677,0.342042254043,0.0,0.0,0.0,0.290039218347,0.957014760503,0,1449618405581006648,/odom,2.42953777313,-0.213101372123,0.667542338371,0.0,0.0,0.290039218347,0.957014760503,1,doorway_assistance,0.899999976158,1449618405581006648,0,0
1449618406184768082,0,1449618405900744943,/odom,2.07119668704,-0.490103657166,0.0,0.0,0.0,0.318199276321,0.9480238502,0,1449618405900744943,/odom,3.26744434869,0.414877852042,0.0,0.0,0.0,0.318199276321,0.9480238502,0,1449618405900744943,/odom,2.46994590759,-0.188443154097,0.689478754997,0.0,0.0,0.318199276321,0.9480238502,1,doorway_assistance,1.0,1449618405900744943,0,0
1449618406292830519,0,1449618405900744943,/odom,2.07119668704,-0.490103657166,0.0,0.0,0.0,0.318199276321,0.9480238502,0,1449618405900744943,/odom,3.26744434869,0.414877852042,0.0,0.0,0.0,0.318199276321,0.9480238502,0,1449618405900744943,/odom,2.46994590759,-0.188443154097,0.689478754997,0.0,0.0,0.318199276321,0.9480238502,1,doorway_assistance,1.0,1449618405900744943,0,0
1449618406393236111,0,1449618406104510818,/odom,2.11153754947,-0.482984815008,0.0,0.0,0.0,0.328031759143,0.944666695186,0,1449618406104510818,/odom,3.28872304445,0.44665721847,0.0,0.0,0.0,0.328031759143,0.944666695186,0,1449618406104510818,/odom,2.50393271446,-0.173104137182,0.708889007568,0.0,0.0,0.328031759143,0.944666695186,1,doorway_assistance,1.0,1449618406104510818,0,0
1449618406483444733,0,1449618406104510818,/odom,2.11153754947,-0.482984815008,0.0,0.0,0.0,0.328031759143,0.944666695186,0,1449618406104510818,/odom,3.28872304445,0.44665721847,0.0,0.0,0.0,0.328031759143,0.944666695186,0,1449618406104510818,/odom,2.50393271446,-0.173104137182,0.708889007568,0.0,0.0,0.328031759143,0.944666695186,1,doorway_assistance,1.0,1449618406104510818,0,0
1449618406577005360,0,1449618406283210374,/odom,2.10246556717,-0.485080912056,0.0,0.0,0.0,0.337382111704,0.94136778716,0,1449618406283210374,/odom,3.26098549927,0.467721043711,0.0,0.0,0.0,0.337382111704,0.94136778716,0,1449618406283210374,/odom,2.48863887787,-0.167480260134,0.699178338051,0.0,0.0,0.337382111704,0.94136778716,1,doorway_assistance,1.0,1449618406283210374,0,0
1449618406693306923,0,1449618406283210374,/odom,2.10246556717,-0.485080912056,0.0,0.0,0.0,0.337382111704,0.94136778716,0,1449618406283210374,/odom,3.26098549927,0.467721043711,0.0,0.0,0.0,0.337382111704,0.94136778716,0,1449618406283210374,/odom,2.48863887787,-0.167480260134,0.699178338051,0.0,0.0,0.337382111704,0.94136778716,1,doorway_assistance,1.0,1449618406283210374,0,0
1449618406818428840,0,1449618406472310239,/odom,2.03433609023,-0.485919486141,0.0,0.0,0.0,0.29391611174,0.955831219023,0,1449618406472310239,/odom,3.275176048,0.356883099984,0.0,0.0,0.0,0.29391611174,0.955831219023,0,1449618406472310239,/odom,2.44794940948,-0.204985290766,0.687966048717,0.0,0.0,0.29391611174,0.955831219023,1,doorway_assistance,1.0,1449618406472310239,0,0
1449618406873867030,0,1449618406472310239,/odom,2.03433609023,-0.485919486141,0.0,0.0,0.0,0.29391611174,0.955831219023,0,1449618406472310239,/odom,3.275176048,0.356883099984,0.0,0.0,0.0,0.29391611174,0.955831219023,0,1449618406472310239,/odom,2.44794940948,-0.204985290766,0.687966048717,0.0,0.0,0.29391611174,0.955831219023,1,doorway_assistance,1.0,1449618406472310239,0,0
1449618406981825838,0,1449618406472310239,/odom,2.03433609023,-0.485919486141,0.0,0.0,0.0,0.29391611174,0.955831219023,0,1449618406472310239,/odom,3.275176048,0.356883099984,0.0,0.0,0.0,0.29391611174,0.955831219023,0,1449618406472310239,/odom,2.44794940948,-0.204985290766,0.687966048717,0.0,0.0,0.29391611174,0.955831219023,1,doorway_assistance,0.899999976158,1449618406472310239,0,0
1449618407314164046,0,1449618406974155705,/odom,2.02410209301,-0.483014374751,0.0,0.0,0.0,0.290525909721,0.956867125457,0,1449618406974155705,/odom,3.27088618035,0.350969701565,0.0,0.0,0.0,0.290525909721,0.956867125457,0,1449618406974155705,/odom,2.43969678879,-0.205019682646,0.677991330624,0.0,0.0,0.290525909721,0.956867125457,1,doorway_assistance,0.899999976158,1449618406974155705,0,0
1449618407466112285,0,1449618406974155705,/odom,2.02410209301,-0.483014374751,0.0,0.0,0.0,0.290525909721,0.956867125457,0,1449618406974155705,/odom,3.27088618035,0.350969701565,0.0,0.0,0.0,0.290525909721,0.956867125457,0,1449618406974155705,/odom,2.43969678879,-0.205019682646,0.677991330624,0.0,0.0,0.290525909721,0.956867125457,1,doorway_assistance,0.899999976158,1449618406974155705,0,0
1449618408177985482,0,1449618407980430654,/odom,2.13512955224,-0.500294738193,0.0,0.0,0.0,0.333007247428,0.942924266927,0,1449618407980430654,/odom,3.30244807172,0.441707105794,0.0,0.0,0.0,0.333007247428,0.942924266927,0,1449618407980430654,/odom,2.5242357254,-0.18629412353,0.769377887249,0.0,0.0,0.333007247428,0.942924266927,1,doorway_assistance,0.899999976158,1449618407980430654,0,0
1449618408303602220,0,1449618407980430654,/odom,2.13512955224,-0.500294738193,0.0,0.0,0.0,0.333007247428,0.942924266927,0,1449618407980430654,/odom,3.30244807172,0.441707105794,0.0,0.0,0.0,0.333007247428,0.942924266927,0,1449618407980430654,/odom,2.5242357254,-0.18629412353,0.769377887249,0.0,0.0,0.333007247428,0.942924266927,1,doorway_assistance,0.899999976158,1449618407980430654,0,0
1449618408584899340,0,1449618408307610925,/odom,2.03736891555,-0.483105643219,0.0,0.0,0.0,0.29916047885,0.954202812768,0,1449618408307610925,/odom,3.26887793924,0.373273667943,0.0,0.0,0.0,0.29916047885,0.954202812768,0,1449618408307610925,/odom,2.44787192345,-0.197645872831,0.697979986668,0.0,0.0,0.29916047885,0.954202812768,1,doorway_assistance,0.899999976158,1449618408307610925,0,0
1449618408692575572,0,1449618408307610925,/odom,2.03736891555,-0.483105643219,0.0,0.0,0.0,0.29916047885,0.954202812768,0,1449618408307610925,/odom,3.26887793924,0.373273667943,0.0,0.0,0.0,0.29916047885,0.954202812768,0,1449618408307610925,/odom,2.44787192345,-0.197645872831,0.697979986668,0.0,0.0,0.29916047885,0.954202812768,1,doorway_assistance,0.899999976158,1449618408307610925,0,0
1449618408975403471,0,1449618408704189526,/odom,2.14400376335,-0.48151734123,0.0,0.0,0.0,0.340531124739,0.940233243979,0,1449618408704189526,/odom,3.29611942261,0.479018711038,0.0,0.0,0.0,0.340531124739,0.940233243979,0,1449618408704189526,/odom,2.52804231644,-0.161338657141,0.727892637253,0.0,0.0,0.340531124739,0.940233243979,1,doorway_assistance,0.899999976158,1449618408704189526,0,0
1449618409084529791,0,1449618408704189526,/odom,2.14400376335,-0.48151734123,0.0,0.0,0.0,0.340531124739,0.940233243979,0,1449618408704189526,/odom,3.29611942261,0.479018711038,0.0,0.0,0.0,0.340531124739,0.940233243979,0,1449618408704189526,/odom,2.52804231644,-0.161338657141,0.727892637253,0.0,0.0,0.340531124739,0.940233243979,1,doorway_assistance,0.899999976158,1449618408704189526,0,0
1449618409186156565,0,1449618408887074925,/odom,1.99983872743,-0.493456264375,0.0,0.0,0.0,0.280429734871,0.959874556283,0,1449618408887074925,/odom,3.26391621884,0.314075837608,0.0,0.0,0.0,0.280429734871,0.959874556283,0,1449618408887074925,/odom,2.42119789124,-0.224278897047,0.688159406185,0.0,0.0,0.280429734871,0.959874556283,1,doorway_assistance,1.0,1449618408887074925,0,0
1449618409267351523,0,1449618408887074925,/odom,1.99983872743,-0.493456264375,0.0,0.0,0.0,0.280429734871,0.959874556283,0,1449618408887074925,/odom,3.26391621884,0.314075837608,0.0,0.0,0.0,0.280429734871,0.959874556283,0,1449618408887074925,/odom,2.42119789124,-0.224278897047,0.688159406185,0.0,0.0,0.280429734871,0.959874556283,1,doorway_assistance,1.0,1449618408887074925,0,0
1449618409367404211,0,1449618409102073883,/odom,2.02609658122,-0.495677021591,0.0,0.0,0.0,0.288497370311,0.957480687703,0,1449618409102073883,/odom,3.27640438319,0.333014959987,0.0,0.0,0.0,0.288497370311,0.957480687703,0,1449618409102073883,/odom,2.44286584854,-0.219446361065,0.688216090202,0.0,0.0,0.288497370311,0.957480687703,1,doorway_assistance,1.0,1449618409102073883,0,0
1449618409487393472,0,1449618409247317169,/odom,1.8952766382,-0.503656457506,0.0,0.0,0.0,0.247724373157,0.968830550171,0,1449618409247317169,/odom,3.21117454304,0.216352364704,0.0,0.0,0.0,0.247724373157,0.968830550171,0,1449618409247317169,/odom,2.33390927315,-0.263653516769,0.677672684193,0.0,0.0,0.247724373157,0.968830550171,1,doorway_assistance,1.0,1449618409247317169,0,0
1449618409583616908,0,1449618409247317169,/odom,1.8952766382,-0.503656457506,0.0,0.0,0.0,0.247724373157,0.968830550171,0,1449618409247317169,/odom,3.21117454304,0.216352364704,0.0,0.0,0.0,0.247724373157,0.968830550171,0,1449618409247317169,/odom,2.33390927315,-0.263653516769,0.677672684193,0.0,0.0,0.247724373157,0.968830550171,1,doorway_assistance,1.0,1449618409247317169,0,0
1449618409673981046,0,1449618409392585830,/odom,2.15713918744,-0.500626927814,0.0,0.0,0.0,0.350502798248,0.936561684258,0,1449618409392585830,/odom,3.2885825527,0.484175545378,0.0,0.0,0.0,0.350502798248,0.936561684258,0,1449618409392585830,/odom,2.53428697586,-0.17235943675,0.76971834898,0.0,0.0,0.350502798248,0.936561684258,1,doorway_assistance,1.0,1449618409392585830,0,0
1449618409778439406,0,1449618409560070116,/odom,2.05137160676,-0.501023866515,0.0,0.0,0.0,0.313394842978,0.949622910631,0,1449618409560070116,/odom,3.25672262395,0.39179690238,0.0,0.0,0.0,0.313394842978,0.949622910631,0,1449618409560070116,/odom,2.45315527916,-0.20341694355,0.698960363865,0.0,0.0,0.313394842978,0.949622910631,1,doorway_assistance,1.0,1449618409560070116,0,0
1449618409869995566,0,1449618409560070116,/odom,2.05137160676,-0.501023866515,0.0,0.0,0.0,0.313394842978,0.949622910631,0,1449618409560070116,/odom,3.25672262395,0.39179690238,0.0,0.0,0.0,0.313394842978,0.949622910631,0,1449618409560070116,/odom,2.45315527916,-0.20341694355,0.698960363865,0.0,0.0,0.313394842978,0.949622910631,1,doorway_assistance,0.899999976158,1449618409560070116,0,0
1449618410972085635,0,1449618410681837071,/odom,2.00147840879,-0.510467093242,0.0,0.0,0.0,0.301096919851,0.953593542793,0,1449618410681837071,/odom,3.22950034336,0.350905142333,0.0,0.0,0.0,0.301096919851,0.953593542793,0,1449618410681837071,/odom,2.41081905365,-0.223343014717,0.687401294708,0.0,0.0,0.301096919851,0.953593542793,1,doorway_assistance,0.899999976158,1449618410681837071,0,0
1449618411119959076,0,1449618410681837071,/odom,2.00147840879,-0.510467093242,0.0,0.0,0.0,0.301096919851,0.953593542793,0,1449618410681837071,/odom,3.22950034336,0.350905142333,0.0,0.0,0.0,0.301096919851,0.953593542793,0,1449618410681837071,/odom,2.41081905365,-0.223343014717,0.687401294708,0.0,0.0,0.301096919851,0.953593542793,1,doorway_assistance,0.899999976158,1449618410681837071,0,0
1449618411204274438,0,1449618410914548876,/odom,2.06078498476,-0.469280711616,0.0,0.0,0.0,0.300671725348,0.953727693619,0,1449618410914548876,/odom,3.28957452549,0.390996141841,0.0,0.0,0.0,0.300671725348,0.953727693619,0,1449618410914548876,/odom,2.47038149834,-0.182521760464,0.717992067337,0.0,0.0,0.300671725348,0.953727693619,1,doorway_assistance,1.0,1449618410914548876,0,0
1449618411278737806,0,1449618410914548876,/odom,2.06078498476,-0.469280711616,0.0,0.0,0.0,0.300671725348,0.953727693619,0,1449618410914548876,/odom,3.28957452549,0.390996141841,0.0,0.0,0.0,0.300671725348,0.953727693619,0,1449618410914548876,/odom,2.47038149834,-0.182521760464,0.717992067337,0.0,0.0,0.300671725348,0.953727693619,1,doorway_assistance,1.0,1449618410914548876,0,0
1449618411368161942,0,1449618410914548876,/odom,2.06078498476,-0.469280711616,0.0,0.0,0.0,0.300671725348,0.953727693619,0,1449618410914548876,/odom,3.28957452549,0.390996141841,0.0,0.0,0.0,0.300671725348,0.953727693619,0,1449618410914548876,/odom,2.47038149834,-0.182521760464,0.717992067337,0.0,0.0,0.300671725348,0.953727693619,1,doorway_assistance,0.899999976158,1449618410914548876,0,0
1449618411577442367,0,1449618411349768356,/odom,2.13806646549,-0.488627644693,0.0,0.0,0.0,0.344437597602,0.938809214568,0,1449618411349768356,/odom,3.28215468956,0.481455926726,0.0,0.0,0.0,0.344437597602,0.938809214568,0,1449618411349768356,/odom,2.51942920685,-0.16526645422,0.749073684216,0.0,0.0,0.344437597602,0.938809214568,1,doorway_assistance,0.899999976158,1449618411349768356,0,0
1449618411681604613,0,1449618411349768356,/odom,2.13806646549,-0.488627644693,0.0,0.0,0.0,0.344437597602,0.938809214568,0,1449618411349768356,/odom,3.28215468956,0.481455926726,0.0,0.0,0.0,0.344437597602,0.938809214568,0,1449618411349768356,/odom,2.51942920685,-0.16526645422,0.749073684216,0.0,0.0,0.344437597602,0.938809214568,1,doorway_assistance,0.899999976158,1449618411349768356,0,0
1449618411781299423,0,1449618411491844170,/odom,2.07897066716,-0.487051117813,0.0,0.0,0.0,0.317790822916,0.948160847573,0,1449618411491844170,/odom,3.27599764577,0.416899330209,0.0,0.0,0.0,0.317790822916,0.948160847573,0,1449618411491844170,/odom,2.47797966003,-0.185734301805,0.697444200516,0.0,0.0,0.317790822916,0.948160847573,1,doorway_assistance,1.0,1449618411491844170,0,0
1449618411870350500,0,1449618411491844170,/odom,2.07897066716,-0.487051117813,0.0,0.0,0.0,0.317790822916,0.948160847573,0,1449618411491844170,/odom,3.27599764577,0.416899330209,0.0,0.0,0.0,0.317790822916,0.948160847573,0,1449618411491844170,/odom,2.47797966003,-0.185734301805,0.697444200516,0.0,0.0,0.317790822916,0.948160847573,1,doorway_assistance,1.0,1449618411491844170,0,0
1449618411975009648,0,1449618411673902597,/odom,2.00864447428,-0.482456707495,0.0,0.0,0.0,0.284077546658,0.958801307615,0,1449618411673902597,/odom,3.26654431674,0.334665062104,0.0,0.0,0.0,0.284077546658,0.958801307615,0,1449618411673902597,/odom,2.42794442177,-0.210082784295,0.688357770443,0.0,0.0,0.284077546658,0.958801307615,1,doorway_assistance,1.0,1449618411673902597,0,0
1449618412131971954,0,1449618411673902597,/odom,2.00864447428,-0.482456707495,0.0,0.0,0.0,0.284077546658,0.958801307615,0,1449618411673902597,/odom,3.26654431674,0.334665062104,0.0,0.0,0.0,0.284077546658,0.958801307615,0,1449618411673902597,/odom,2.42794442177,-0.210082784295,0.688357770443,0.0,0.0,0.284077546658,0.958801307615,1,doorway_assistance,1.0,1449618411673902597,0,0
1449618412169318656,0,1449618411673902597,/odom,2.00864447428,-0.482456707495,0.0,0.0,0.0,0.284077546658,0.958801307615,0,1449618411673902597,/odom,3.26654431674,0.334665062104,0.0,0.0,0.0,0.284077546658,0.958801307615,0,1449618411673902597,/odom,2.42794442177,-0.210082784295,0.688357770443,0.0,0.0,0.284077546658,0.958801307615,1,doorway_assistance,0.899999976158,1449618411673902597,0,0
1449618412269700263,0,1449618411673902597,/odom,2.00864447428,-0.482456707495,0.0,0.0,0.0,0.284077546658,0.958801307615,0,1449618411673902597,/odom,3.26654431674,0.334665062104,0.0,0.0,0.0,0.284077546658,0.958801307615,0,1449618411673902597,/odom,2.42794442177,-0.210082784295,0.688357770443,0.0,0.0,0.284077546658,0.958801307615,1,doorway_assistance,0.899999976158,1449618411673902597,0,0
1449618412372954101,0,1449618412123309303,/odom,2.10679645125,-0.503331062654,0.0,0.0,0.0,0.340252784085,0.940334006044,0,1449618412123309303,/odom,3.25948058002,0.456522727925,0.0,0.0,0.0,0.340252784085,0.940334006044,0,1449618412123309303,/odom,2.49102449417,-0.183379799128,0.729334771633,0.0,0.0,0.340252784085,0.940334006044,1,doorway_assistance,1.0,1449618412123309303,0,0
1449618412471040643,0,1449618412260666948,/odom,2.06047374596,-0.492285675423,0.0,0.0,0.0,0.318110371981,0.948053685842,0,1449618412260666948,/odom,3.25689111968,0.41247145656,0.0,0.0,0.0,0.318110371981,0.948053685842,0,1449618412260666948,/odom,2.4592795372,-0.190699964762,0.718410730362,0.0,0.0,0.318110371981,0.948053685842,1,doorway_assistance,1.0,1449618412260666948,0,0
1449618412570569854,0,1449618412350145598,/odom,2.13637996494,-0.468118873736,0.0,0.0,0.0,0.332016541081,0.943273563951,0,1449618412350145598,/odom,3.30567501428,0.471428404253,0.0,0.0,0.0,0.332016541081,0.943273563951,0,1449618412350145598,/odom,2.52614498138,-0.15493644774,0.747469365597,0.0,0.0,0.332016541081,0.943273563951,1,doorway_assistance,1.0,1449618412350145598,0,0
