%time,field.header.seq,field.header.stamp,field.header.frame_id,field.ns,field.id,field.type,field.action,field.pose.position.x,field.pose.position.y,field.pose.position.z,field.pose.orientation.x,field.pose.orientation.y,field.pose.orientation.z,field.pose.orientation.w,field.scale.x,field.scale.y,field.scale.z,field.color.r,field.color.g,field.color.b,field.color.a,field.lifetime,field.frame_locked,field.text,field.mesh_resource,field.mesh_use_embedded_materials
1449618394974113215,0,0,/odom,bcmd_vector,0,0,0,0.0,0.0,0.0,0.0,0.0,-0.00144656218724,0.999998953728,0.0123980490635,0.05,0.05,0.0,1.0,0.0,1.0,0,0,,,0
1449618395008951090,1,0,/odom,bcmd_vector,0,0,0,0.0,0.0,0.0,0.0,0.0,-0.00144656218724,0.999998953728,0.0123980490635,0.05,0.05,0.0,1.0,0.0,1.0,0,0,,,0
1449618395055150911,2,0,/odom,bcmd_vector,0,0,0,0.0,0.0,0.0,0.0,0.0,0.00130008202331,0.999999154893,0.0194970447671,0.05,0.05,0.0,1.0,0.0,1.0,0,0,,,0
1449618395113024126,3,0,/odom,bcmd_vector,0,0,0,0.0,0.0,0.0,0.0,0.0,0.00130008202331,0.999999154893,0.0194970447671,0.05,0.05,0.0,1.0,0.0,1.0,0,0,,,0
1449618395170980295,4,0,/odom,bcmd_vector,0,0,0,0.0,0.0,0.0,0.0,0.0,0.00130008202331,0.999999154893,0.0194970447671,0.05,0.05,0.0,1.0,0.0,1.0,0,0,,,0
1449618395254629345,5,0,/odom,bcmd_vector,0,0,0,0.0,0.0,0.0,0.0,0.0,0.00749436684522,0.999971916838,0.346558968262,0.05,0.05,0.0,1.0,0.0,1.0,0,0,,,0
1449618395363243602,6,0,/odom,bcmd_vector,0,0,0,0.0,0.0,0.0,0.0,0.0,0.0137967055063,0.999904820929,0.341094416874,0.05,0.05,0.0,1.0,0.0,1.0,0,0,,,0
1449618395456753677,7,0,/odom,bcmd_vector,0,0,0,0.0,0.0,0.0,0.0,0.0,0.0140997158009,0.999900594066,0.341056604749,0.05,0.05,0.0,1.0,0.0,1.0,0,0,,,0
1449618395504952741,8,0,/odom,bcmd_vector,0,0,0,0.0,0.0,0.0,0.0,0.0,0.0140997158009,0.999900594066,0.341056604749,0.05,0.05,0.0,1.0,0.0,1.0,0,0,,,0
1449618395539196650,9,0,/odom,bcmd_vector,0,0,0,0.0,0.0,0.0,0.0,0.0,0.0140997158009,0.999900594066,0.341056604749,0.05,0.05,0.0,1.0,0.0,1.0,0,0,,,0
1449618395651532502,10,0,/odom,bcmd_vector,0,0,0,0.0,0.0,0.0,0.0,0.0,0.0139294334602,0.999902980735,0.341077854004,0.05,0.05,0.0,1.0,0.0,1.0,0,0,,,0
1449618395682501960,11,0,/odom,bcmd_vector,0,0,0,0.0,0.0,0.0,0.0,0.0,0.0139294334602,0.999902980735,0.341077854004,0.05,0.05,0.0,1.0,0.0,1.0,0,0,,,0
1449618395781440985,12,0,/odom,bcmd_vector,0,0,0,0.0,0.0,0.0,0.0,0.0,0.0108239492948,0.999941419345,0.346543927002,0.05,0.05,0.0,1.0,0.0,1.0,0,0,,,0
1449618395820269394,13,0,/odom,bcmd_vector,0,0,0,0.0,0.0,0.0,0.0,0.0,0.00781689404998,0.999969447617,0.341064620759,0.05,0.05,0.0,1.0,0.0,1.0,0,0,,,0
1449618395984490718,14,0,/odom,bcmd_vector,0,0,0,0.0,0.0,0.0,0.0,0.0,0.00765364429176,0.999970710436,0.341086545398,0.05,0.05,0.0,1.0,0.0,1.0,0,0,,,0
1449618396060199449,15,0,/odom,bcmd_vector,0,0,0,0.0,0.0,0.0,0.0,0.0,0.00765364429176,0.999970710436,0.341086545398,0.05,0.05,0.0,1.0,0.0,1.0,0,0,,,0
1449618396306774129,16,0,/odom,bcmd_vector,0,0,0,0.00575958653158,0.0,0.0,0.0,0.0,0.00468015873376,0.999989047997,0.297302173044,0.05,0.05,0.0,1.0,0.0,1.0,0,0,,,0
1449618396337277944,17,0,/odom,bcmd_vector,0,0,0,0.00575958653158,0.0,0.0,0.0,0.0,0.00450390997556,0.999989857346,0.297425217308,0.05,0.05,0.0,1.0,0.0,1.0,0,0,,,0
1449618396410754245,18,0,/odom,bcmd_vector,0,0,0,0.00575958653158,0.0,0.0,0.0,0.0,0.00450390997556,0.999989857346,0.346551521731,0.05,0.05,0.0,1.0,0.0,1.0,0,0,,,0
1449618396457676762,19,0,/odom,bcmd_vector,0,0,0,0.0115190122517,-3.04332289367e-05,0.0,0.0,0.0,0.00442069658484,0.999990228673,0.346557331091,0.05,0.05,0.0,1.0,0.0,1.0,0,0,,,0
1449618396607099792,20,0,/odom,bcmd_vector,0,0,0,0.0115190122517,-3.04332289367e-05,0.0,0.0,0.0,0.00442069658484,0.999990228673,0.341104662181,0.05,0.05,0.0,1.0,0.0,1.0,0,0,,,0
1449618396627757991,21,0,/odom,bcmd_vector,0,0,0,0.0115190122517,-3.04332289367e-05,0.0,0.0,0.0,0.00522442115637,0.999986352619,0.341048496822,0.05,0.05,0.0,1.0,0.0,1.0,0,0,,,0
1449618396689692790,22,0,/odom,bcmd_vector,0,0,0,0.0115190122517,-3.04332289367e-05,0.0,0.0,0.0,0.00211037958834,0.999997773147,0.3026832357,0.05,0.05,0.0,1.0,0.0,1.0,0,0,,,0
1449618396724599336,23,0,/odom,bcmd_vector,0,0,0,0.00863937979737,0.0,0.0,0.0,0.0,-0.00316469346215,0.999994992345,0.302675176062,0.05,0.05,0.0,1.0,0.0,1.0,0,0,,,0
1449618396820379734,24,0,/odom,bcmd_vector,0,0,0,0.00575958653158,0.0,0.0,0.0,0.0,0.00212819192592,0.999997735397,0.34652746504,0.05,0.05,0.0,1.0,0.0,1.0,0,0,,,0
1449618396851249170,25,0,/odom,bcmd_vector,0,0,0,0.00575958653158,0.0,0.0,0.0,0.0,0.0019874794305,0.999998024961,0.346541553171,0.05,0.05,0.0,1.0,0.0,1.0,0,0,,,0
1449618396895678326,26,0,/odom,bcmd_vector,0,0,0,0.00575958653158,0.0,0.0,0.0,0.0,0.0019874794305,0.999998024961,0.341073106341,0.05,0.05,0.0,1.0,0.0,1.0,0,0,,,0
1449618397016397023,27,0,/odom,bcmd_vector,0,0,0,0.00575958653158,0.0,0.0,0.0,0.0,0.00153964345552,0.999998814748,0.341073106341,0.05,0.05,0.0,1.0,0.0,1.0,0,0,,,0
1449618397040706900,28,0,/odom,bcmd_vector,0,0,0,0.00575958653158,0.0,0.0,0.0,0.0,0.00153964345552,0.999998814748,0.346541553171,0.05,0.05,0.0,1.0,0.0,1.0,0,0,,,0
1449618397206496506,29,0,/odom,bcmd_vector,0,0,0,0.00863921898595,-3.04332289367e-05,0.0,0.0,0.0,-0.000651699990543,0.999999787644,0.346542557919,0.05,0.05,0.0,1.0,0.0,1.0,0,0,,,0
1449618397232962417,30,0,/odom,bcmd_vector,0,0,0,0.0115190122517,-3.04332289367e-05,0.0,0.0,0.0,0.00438905030103,0.999990368072,0.346559540406,0.05,0.05,0.0,1.0,0.0,1.0,0,0,,,0
1449618397507021956,31,0,/odom,bcmd_vector,0,0,0,0.0172785987833,-3.04332289367e-05,0.0,0.0,0.0,0.00488028340728,0.999988091346,0.346561849296,0.05,0.05,0.0,1.0,0.0,1.0,0,0,,,0
1449618397552472416,32,0,/odom,bcmd_vector,0,0,0,0.0172785987833,-3.04332289367e-05,0.0,0.0,0.0,0.00488028340728,0.999988091346,0.346561849296,0.05,0.05,0.0,1.0,0.0,1.0,0,0,,,0
1449618397674758708,33,0,/odom,bcmd_vector,0,0,0,0.0172785987833,-3.04332289367e-05,0.0,0.0,0.0,0.00190423541231,0.999998186942,0.346549887557,0.05,0.05,0.0,1.0,0.0,1.0,0,0,,,0
1449618397782208683,34,0,/odom,bcmd_vector,0,0,0,0.0172785987833,-3.04332289367e-05,0.0,0.0,0.0,0.00190423541231,0.999998186942,0.346549887557,0.05,0.05,0.0,1.0,0.0,1.0,0,0,,,0
1449618397944673451,35,0,/odom,bcmd_vector,0,0,0,0.0172785987833,-3.04332289367e-05,0.0,0.0,0.0,0.00495689288369,0.999987714531,0.341099183852,0.05,0.05,0.0,1.0,0.0,1.0,0,0,,,0
1449618397986593788,36,0,/odom,bcmd_vector,0,0,0,0.0172785987833,-3.04332289367e-05,0.0,0.0,0.0,0.00495689288369,0.999987714531,0.341099183852,0.05,0.05,0.0,1.0,0.0,1.0,0,0,,,0
1449618398174922523,37,0,/odom,bcmd_vector,0,0,0,0.0172785987833,-3.04332289367e-05,0.0,0.0,0.0,0.00183647864355,0.999998313672,0.34655667136,0.05,0.05,0.0,1.0,0.0,1.0,0,0,,,0
1449618398259381759,38,0,/odom,bcmd_vector,0,0,0,0.0172785987833,-3.04332289367e-05,0.0,0.0,0.0,0.00183354484512,0.999998319055,0.346556965092,0.05,0.05,0.0,1.0,0.0,1.0,0,0,,,0
1449618398361854528,39,0,/odom,bcmd_vector,0,0,0,0.0172785987833,-3.04332289367e-05,0.0,0.0,0.0,0.00187673687592,0.999998238928,0.346552640709,0.05,0.05,0.0,1.0,0.0,1.0,0,0,,,0
1449618398432817850,40,0,/odom,bcmd_vector,0,0,0,0.0172785987833,-3.04332289367e-05,0.0,0.0,0.0,0.00187673687592,0.999998238928,0.31380848496,0.05,0.05,0.0,1.0,0.0,1.0,0,0,,,0
1449618398484617512,41,0,/odom,bcmd_vector,0,0,0,0.0172785987833,-3.04332289367e-05,0.0,0.0,0.0,0.00187673687592,0.999998238928,0.346552640709,0.05,0.05,0.0,1.0,0.0,1.0,0,0,,,0
1449618398526140039,42,0,/odom,bcmd_vector,0,0,0,0.0172785987833,-3.04332289367e-05,0.0,0.0,0.0,0.00177340530021,0.999998427516,0.346562986258,0.05,0.05,0.0,1.0,0.0,1.0,0,0,,,0
1449618398570779149,43,0,/odom,bcmd_vector,0,0,0,0.0172785987833,-3.04332289367e-05,0.0,0.0,0.0,0.00177340530021,0.999998427516,0.30298687632,0.05,0.05,0.0,1.0,0.0,1.0,0,0,,,0
1449618398603326606,44,0,/odom,bcmd_vector,0,0,0,0.0172785987833,-3.04332289367e-05,0.0,0.0,0.0,0.00177340530021,0.999998427516,0.30298687632,0.05,0.05,0.0,1.0,0.0,1.0,0,0,,,0
1449618398624745467,45,0,/odom,bcmd_vector,0,0,0,0.0172785987833,-3.04332289367e-05,0.0,0.0,0.0,0.00177340530021,0.999998427516,0.346562986258,0.05,0.05,0.0,1.0,0.0,1.0,0,0,,,0
1449618398689808338,46,0,/odom,bcmd_vector,0,0,0,0.0172785987833,-3.04332289367e-05,0.0,0.0,0.0,0.00177340530021,0.999998427516,0.346562986258,0.05,0.05,0.0,1.0,0.0,1.0,0,0,,,0
1449618398720384277,47,0,/odom,bcmd_vector,0,0,0,0.0172785987833,-3.04332289367e-05,0.0,0.0,0.0,0.00177340530021,0.999998427516,0.346562986258,0.05,0.05,0.0,1.0,0.0,1.0,0,0,,,0
1449618398760304611,48,0,/odom,bcmd_vector,0,0,0,0.0172785987833,-3.04332289367e-05,0.0,0.0,0.0,0.00175637463145,0.999998457573,0.303002222301,0.05,0.05,0.0,1.0,0.0,1.0,0,0,,,0
1449618398839917929,49,0,/odom,bcmd_vector,0,0,0,0.0172785987833,-3.04332289367e-05,0.0,0.0,0.0,0.00175637463145,0.999998457573,0.303002222301,0.05,0.05,0.0,1.0,0.0,1.0,0,0,,,0
1449618398880159048,50,0,/odom,bcmd_vector,0,0,0,0.0172785987833,-3.04332289367e-05,0.0,0.0,0.0,0.00485028223978,0.999988237312,0.341119382734,0.05,0.05,0.0,1.0,0.0,1.0,0,0,,,0
1449618398957564477,51,0,/odom,bcmd_vector,0,0,0,0.0172785987833,-3.04332289367e-05,0.0,0.0,0.0,0.00503976340834,0.999987300312,0.341083482862,0.05,0.05,0.0,1.0,0.0,1.0,0,0,,,0
1449618399083648659,52,0,/odom,bcmd_vector,0,0,0,0.0172785987833,-3.04332289367e-05,0.0,0.0,0.0,0.00193565898297,0.99999812661,0.346546741431,0.05,0.05,0.0,1.0,0.0,1.0,0,0,,,0
1449618399125890719,53,0,/odom,bcmd_vector,0,0,0,0.0230380245035,1.01643953671e-20,0.0,0.0,0.0,0.00204195426069,0.999997915209,0.346536099153,0.05,0.05,0.0,1.0,0.0,1.0,0,0,,,0
1449618399462168310,54,0,/odom,bcmd_vector,0,0,0,0.0374366692096,6.08664578733e-05,0.0,0.0,0.0,0.00657626222448,0.999978376154,0.346559535077,0.05,0.05,0.0,1.0,0.0,1.0,0,0,,,0
1449618399629367253,55,0,/odom,bcmd_vector,0,0,0,0.0431960949298,9.129968681e-05,0.0,0.0,0.0,0.00639765182574,0.999979534816,0.346572519549,0.05,0.05,0.0,1.0,0.0,1.0,0,0,,,0
1449618399780184607,56,0,/odom,bcmd_vector,0,0,0,0.0489553598385,0.000152166144683,0.0,0.0,0.0,0.0100249301952,0.999949749125,0.346575038581,0.05,0.05,0.0,1.0,0.0,1.0,0,0,,,0
1449618400145508670,57,0,/odom,bcmd_vector,0,0,0,0.0489553598385,0.000152166144683,0.0,0.0,0.0,0.00694207500738,0.999975903507,0.346574530046,0.05,0.05,0.0,1.0,0.0,1.0,0,0,,,0
1449618400190031775,58,0,/odom,bcmd_vector,0,0,0,0.0489553598385,0.000152166144683,0.0,0.0,0.0,0.00636999603323,0.999979711369,0.346574530046,0.05,0.05,0.0,1.0,0.0,1.0,0,0,,,0
1449618400225627015,59,0,/odom,bcmd_vector,0,0,0,0.0489553598385,0.000152166144683,0.0,0.0,0.0,0.00647649165125,0.999979027308,0.346566788118,0.05,0.05,0.0,1.0,0.0,1.0,0,0,,,0
1449618400305661581,60,0,/odom,bcmd_vector,0,0,0,0.0489553598385,0.000152166144683,0.0,0.0,0.0,0.0101120194905,0.999948872224,0.341123576236,0.05,0.05,0.0,1.0,0.0,1.0,0,0,,,0
1449618400334528905,61,0,/odom,bcmd_vector,0,0,0,0.0489553598385,0.000152166144683,0.0,0.0,0.0,0.0101120194905,0.999948872224,0.341123576236,0.05,0.05,0.0,1.0,0.0,1.0,0,0,,,0
1449618400373156268,62,0,/odom,bcmd_vector,0,0,0,0.0489553598385,0.000152166144683,0.0,0.0,0.0,0.00701939979771,0.99997536371,0.346566788118,0.05,0.05,0.0,1.0,0.0,1.0,0,0,,,0
1449618400476856407,63,0,/odom,bcmd_vector,0,0,0,0.0489553598385,0.000152166144683,0.0,0.0,0.0,0.00701939979771,0.99997536371,0.346566788118,0.05,0.05,0.0,1.0,0.0,1.0,0,0,,,0
1449618400795704191,64,0,/odom,bcmd_vector,0,0,0,0.0489553598385,0.000152166144683,0.0,0.0,0.0,0.00692163201159,0.999976045218,0.346576576843,0.05,0.05,0.0,1.0,0.0,1.0,0,0,,,0
1449618400886914448,65,0,/odom,bcmd_vector,0,0,0,0.0489553598385,0.000152166144683,0.0,0.0,0.0,0.00698095527561,0.999975632835,0.346570637268,0.05,0.05,0.0,1.0,0.0,1.0,0,0,,,0
1449618400939562869,66,0,/odom,bcmd_vector,0,0,0,0.0489553598385,0.000152166144683,0.0,0.0,0.0,0.010071389078,0.999949282275,0.346570637268,0.05,0.05,0.0,1.0,0.0,1.0,0,0,,,0
1449618401037090773,67,0,/odom,bcmd_vector,0,0,0,0.0489553598385,0.000152166144683,0.0,0.0,0.0,0.00642354390998,0.999979368829,0.346570637268,0.05,0.05,0.0,1.0,0.0,1.0,0,0,,,0
1449618401071200475,68,0,/odom,bcmd_vector,0,0,0,0.0489553598385,0.000152166144683,0.0,0.0,0.0,0.00639652946885,0.999979541996,0.346572601141,0.05,0.05,0.0,1.0,0.0,1.0,0,0,,,0
1449618401166322853,69,0,/odom,bcmd_vector,0,0,0,0.0489553598385,0.000152166144683,0.0,0.0,0.0,0.00639652946885,0.999979541996,0.346572601141,0.05,0.05,0.0,1.0,0.0,1.0,0,0,,,0
1449618401212654794,70,0,/odom,bcmd_vector,0,0,0,0.0489553598385,0.000152166144683,0.0,0.0,0.0,0.00639652946885,0.999979541996,0.346572601141,0.05,0.05,0.0,1.0,0.0,1.0,0,0,,,0
1449618401244772615,71,0,/odom,bcmd_vector,0,0,0,0.0489553598385,0.000152166144683,0.0,0.0,0.0,0.00633913808175,0.999979907462,0.34657677333,0.05,0.05,0.0,1.0,0.0,1.0,0,0,,,0
1449618415190173403,72,0,/odom,bcmd_vector,0,0,0,0.057593292369,0.000304325491641,0.0,0.0,0.0,0.00595808848346,0.999982250433,0.346584851284,0.05,0.05,0.0,1.0,0.0,1.0,0,0,,,0
1449618415234921809,73,0,/odom,bcmd_vector,0,0,0,0.057593292369,0.000304325491641,0.0,0.0,0.0,0.00605694336778,0.99998165655,0.346573683153,0.05,0.05,0.0,1.0,0.0,1.0,0,0,,,0
1449618415362867120,74,0,/odom,bcmd_vector,0,0,0,0.057593292369,0.000304325491641,0.0,0.0,0.0,0.0091456696557,0.999958177489,0.194356811427,0.05,0.05,0.0,1.0,0.0,1.0,0,0,,,0
1449618415444669360,75,0,/odom,bcmd_vector,0,0,0,0.057593292369,0.000304325491641,0.0,0.0,0.0,0.00925090190958,0.999957209491,0.194032829389,0.05,0.05,0.0,1.0,0.0,1.0,0,0,,,0
1449618415474691320,76,0,/odom,bcmd_vector,0,0,0,0.057593292369,0.000304325491641,0.0,0.0,0.0,0.00925090190958,0.999957209491,0.177690353236,0.05,0.05,0.0,1.0,0.0,1.0,0,0,,,0
1449618415494883242,77,0,/odom,bcmd_vector,0,0,0,0.057593292369,0.000304325491641,0.0,0.0,0.0,0.00925090190958,0.999957209491,0.177690353236,0.05,0.05,0.0,1.0,0.0,1.0,0,0,,,0
1449618415652647484,78,0,/odom,bcmd_vector,0,0,0,0.057593292369,0.000304325491641,0.0,0.0,0.0,0.00916393928222,0.999958010227,0.188862307734,0.05,0.05,0.0,1.0,0.0,1.0,0,0,,,0
1449618415725721404,79,0,/odom,bcmd_vector,0,0,0,0.057593292369,0.000304325491641,0.0,0.0,0.0,0.00916393928222,0.999958010227,0.188862307734,0.05,0.05,0.0,1.0,0.0,1.0,0,0,,,0
1449618415734573209,80,0,/odom,bcmd_vector,0,0,0,0.057593292369,0.000304325491641,0.0,0.0,0.0,0.00902285151052,0.999959293247,0.189311657247,0.05,0.05,0.0,1.0,0.0,1.0,0,0,,,0
1449618415775287300,81,0,/odom,bcmd_vector,0,0,0,0.057593292369,0.000304325491641,0.0,0.0,0.0,0.00902285151052,0.999959293247,0.173041812789,0.05,0.05,0.0,1.0,0.0,1.0,0,0,,,0
1449618415815062841,82,0,/odom,bcmd_vector,0,0,0,0.057593292369,0.000304325491641,0.0,0.0,0.0,0.00902285151052,0.999959293247,0.173041812789,0.05,0.05,0.0,1.0,0.0,1.0,0,0,,,0
1449618415850299190,83,0,/odom,bcmd_vector,0,0,0,0.057593292369,0.000304325491641,0.0,0.0,0.0,0.00902285151052,0.999959293247,0.194734935339,0.05,0.05,0.0,1.0,0.0,1.0,0,0,,,0
1449618415906821052,84,0,/odom,bcmd_vector,0,0,0,0.057593292369,0.000304325491641,0.0,0.0,0.0,0.00902285151052,0.999959293247,0.194734935339,0.05,0.05,0.0,1.0,0.0,1.0,0,0,,,0
1449618415925021839,85,0,/odom,bcmd_vector,0,0,0,0.057593292369,0.000304325491641,0.0,0.0,0.0,0.00902285151052,0.999959293247,0.194734935339,0.05,0.05,0.0,1.0,0.0,1.0,0,0,,,0
1449618415990420031,86,0,/odom,bcmd_vector,0,0,0,0.057593292369,0.000304325491641,0.0,0.0,0.0,0.00902285151052,0.999959293247,0.194734935339,0.05,0.05,0.0,1.0,0.0,1.0,0,0,,,0
1449618416007894682,87,0,/odom,bcmd_vector,0,0,0,0.057593292369,0.000304325491641,0.0,0.0,0.0,0.00902285151052,0.999959293247,0.194734935339,0.05,0.05,0.0,1.0,0.0,1.0,0,0,,,0
1449618416100453156,88,0,/odom,bcmd_vector,0,0,0,0.057593292369,0.000304325491641,0.0,0.0,0.0,0.00902285151052,0.999959293247,0.178465090881,0.05,0.05,0.0,1.0,0.0,1.0,0,0,,,0
1449618416125747151,89,0,/odom,bcmd_vector,0,0,0,0.057593292369,0.000304325491641,0.0,0.0,0.0,0.00902285151052,0.999959293247,0.178465090881,0.05,0.05,0.0,1.0,0.0,1.0,0,0,,,0
1449618416133379820,90,0,/odom,bcmd_vector,0,0,0,0.057593292369,0.000304325491641,0.0,0.0,0.0,0.00902285151052,0.999959293247,0.189311657247,0.05,0.05,0.0,1.0,0.0,1.0,0,0,,,0
1449618416184762227,91,0,/odom,bcmd_vector,0,0,0,0.057593292369,0.000304325491641,0.0,0.0,0.0,0.00902285151052,0.999959293247,0.189311657247,0.05,0.05,0.0,1.0,0.0,1.0,0,0,,,0
1449618416204328009,92,0,/odom,bcmd_vector,0,0,0,0.057593292369,0.000304325491641,0.0,0.0,0.0,0.00898029551838,0.999959676333,0.189447193433,0.05,0.05,0.0,1.0,0.0,1.0,0,0,,,0
1449618416293893931,93,0,/odom,bcmd_vector,0,0,0,0.057593292369,0.000304325491641,0.0,0.0,0.0,0.00898029551838,0.999959676333,0.189447193433,0.05,0.05,0.0,1.0,0.0,1.0,0,0,,,0
1449618416304192211,94,0,/odom,bcmd_vector,0,0,0,0.057593292369,0.000304325491641,0.0,0.0,0.0,0.00898029551838,0.999959676333,0.189447193433,0.05,0.05,0.0,1.0,0.0,1.0,0,0,,,0
1449618416367537468,95,0,/odom,bcmd_vector,0,0,0,0.057593292369,0.000304325491641,0.0,0.0,0.0,0.00898029551838,0.999959676333,0.173190902602,0.05,0.05,0.0,1.0,0.0,1.0,0,0,,,0
1449618416377711298,96,0,/odom,bcmd_vector,0,0,0,0.057593292369,0.000304325491641,0.0,0.0,0.0,0.00939466520179,0.999955869159,0.171739205665,0.05,0.05,0.0,1.0,0.0,1.0,0,0,,,0
1449618416411154638,97,0,/odom,bcmd_vector,0,0,0,0.057593292369,0.000304325491641,0.0,0.0,0.0,0.00939466520179,0.999955869159,0.193590220053,0.05,0.05,0.0,1.0,0.0,1.0,0,0,,,0
1449618416445348538,98,0,/odom,bcmd_vector,0,0,0,0.0604729248234,0.000334758720578,0.0,0.0,0.0,0.00410087947031,0.999991591358,0.193620661577,0.05,0.05,0.0,1.0,0.0,1.0,0,0,,,0
1449618416531097767,99,0,/odom,bcmd_vector,0,0,0,0.0604729248234,0.000334758720578,0.0,0.0,0.0,0.00410087947031,0.999991591358,0.193620661577,0.05,0.05,0.0,1.0,0.0,1.0,0,0,,,0
1449618416541773907,100,0,/odom,bcmd_vector,0,0,0,0.0604729248234,0.000334758720578,0.0,0.0,0.0,0.00397110553027,0.999992115129,0.194020187271,0.05,0.05,0.0,1.0,0.0,1.0,0,0,,,0
1449618416563499833,101,0,/odom,bcmd_vector,0,0,0,0.0604729248234,0.000334758720578,0.0,0.0,0.0,0.00397110553027,0.999992115129,0.194020187271,0.05,0.05,0.0,1.0,0.0,1.0,0,0,,,0
1449618416603007168,102,0,/odom,bcmd_vector,0,0,0,0.0604729248234,0.000334758720578,0.0,0.0,0.0,0.00397110553027,0.999992115129,0.194020187271,0.05,0.05,0.0,1.0,0.0,1.0,0,0,,,0
1449618416643046790,103,0,/odom,bcmd_vector,0,0,0,0.0633520748615,0.000395621779589,0.0,0.0,0.0,0.00924398806642,0.99995727343,0.194054115278,0.05,0.05,0.0,1.0,0.0,1.0,0,0,,,0
1449618416690130977,104,0,/odom,bcmd_vector,0,0,0,0.0662317073158,0.000426055008525,0.0,0.0,0.0,0.00390485391278,0.999992376029,0.17790146706,0.05,0.05,0.0,1.0,0.0,1.0,0,0,,,0
1449618416766193275,105,0,/odom,bcmd_vector,0,0,0,0.0691108573539,0.000486918067536,0.0,0.0,0.0,0.00917720232649,0.999957888592,0.177940727197,0.05,0.05,0.0,1.0,0.0,1.0,0,0,,,0
1449618416773981843,106,0,/odom,bcmd_vector,0,0,0,0.0691108573539,0.000486918067536,0.0,0.0,0.0,0.00937164313701,0.999956085188,0.188200792038,0.05,0.05,0.0,1.0,0.0,1.0,0,0,,,0
1449618416806236366,107,0,/odom,bcmd_vector,0,0,0,0.0719904898083,0.000517351296473,0.0,0.0,0.0,0.00407766208676,0.999991686301,0.193692139281,0.05,0.05,0.0,1.0,0.0,1.0,0,0,,,0
1449618416847343997,108,0,/odom,bcmd_vector,0,0,0,0.0719904898083,0.000517351296473,0.0,0.0,0.0,0.00407766208676,0.999991686301,0.193692139281,0.05,0.05,0.0,1.0,0.0,1.0,0,0,,,0
1449618416894899191,109,0,/odom,bcmd_vector,0,0,0,0.0777492723007,0.00060864758442,0.0,0.0,0.0,0.00405725550744,0.999991769305,0.193754963557,0.05,0.05,0.0,1.0,0.0,1.0,0,0,,,0
1449618416925442918,110,0,/odom,bcmd_vector,0,0,0,0.0777492723007,0.00060864758442,0.0,0.0,0.0,0.00405725550744,0.999991769305,0.193754963557,0.05,0.05,0.0,1.0,0.0,1.0,0,0,,,0
1449618416982460403,111,0,/odom,bcmd_vector,0,0,0,0.0777492723007,0.00060864758442,0.0,0.0,0.0,0.00356655599666,0.999993639819,0.177383742645,0.05,0.05,0.0,1.0,0.0,1.0,0,0,,,0
1449618417004903809,112,0,/odom,bcmd_vector,0,0,0,0.0835080547932,0.000699943872368,0.0,0.0,0.0,0.00325127498313,0.999994714592,0.178148771825,0.05,0.05,0.0,1.0,0.0,1.0,0,0,,,0
1449618417106445058,113,0,/odom,bcmd_vector,0,0,0,0.0835080547932,0.000699943872368,0.0,0.0,0.0,0.00325127498313,0.999994714592,0.194448271211,0.05,0.05,0.0,1.0,0.0,1.0,0,0,,,0
1449618417127797676,114,0,/odom,bcmd_vector,0,0,0,0.0921455049074,0.0008825330494,0.0,0.0,0.0,0.00848375192373,0.999964012329,0.194561412854,0.05,0.05,0.0,1.0,0.0,1.0,0,0,,,0
1449618417179088730,115,0,/odom,bcmd_vector,0,0,0,0.0979038049835,0.00100425916742,0.0,0.0,0.0,0.00844875834986,0.999964308604,0.189211758506,0.05,0.05,0.0,1.0,0.0,1.0,0,0,,,0
1449618417204422680,116,0,/odom,bcmd_vector,0,0,0,0.10366210506,0.00112598528544,0.0,0.0,0.0,0.00838777868493,0.999964821966,0.18935048178,0.05,0.05,0.0,1.0,0.0,1.0,0,0,,,0
1449618417227243949,117,0,/odom,bcmd_vector,0,0,0,0.10366210506,0.00112598528544,0.0,0.0,0.0,0.0090106612877,0.999959403168,0.173084519778,0.05,0.05,0.0,1.0,0.0,1.0,0,0,,,0
1449618417242331164,118,0,/odom,bcmd_vector,0,0,0,0.10366210506,0.00112598528544,0.0,0.0,0.0,0.0090106612877,0.999959403168,0.173084519778,0.05,0.05,0.0,1.0,0.0,1.0,0,0,,,0
1449618417320667340,119,0,/odom,bcmd_vector,0,0,0,0.10366210506,0.00112598528544,0.0,0.0,0.0,0.0090106612877,0.999959403168,0.173084519778,0.05,0.05,0.0,1.0,0.0,1.0,0,0,,,0
1449618417337362133,120,0,/odom,bcmd_vector,0,0,0,0.112298751207,0.0013389974952,0.0,0.0,0.0,0.0142551519245,0.99989839016,0.173221751423,0.05,0.05,0.0,1.0,0.0,1.0,0,0,,,0
1449618417643499800,121,0,/odom,bcmd_vector,0,0,0,0.141087035718,0.00206932021623,0.0,0.0,0.0,0.0135172278741,0.999908638102,0.195111687837,0.05,0.05,0.0,1.0,0.0,1.0,0,0,,,0
1449618417691507163,122,0,/odom,bcmd_vector,0,0,0,0.143966185756,0.00213018327524,0.0,0.0,0.0,0.00888661016667,0.9999605133,0.195154385166,0.05,0.05,0.0,1.0,0.0,1.0,0,0,,,0
1449618417723526087,123,0,/odom,bcmd_vector,0,0,0,0.152601223969,0.00240404155045,0.0,0.0,0.0,0.0141280593884,0.999900193988,0.195284370089,0.05,0.05,0.0,1.0,0.0,1.0,0,0,,,0
1449618417860374012,124,0,/odom,bcmd_vector,0,0,0,0.15835791611,0.00258661373393,0.0,0.0,0.0,0.0122539302114,0.999924917779,0.190756657219,0.05,0.05,0.0,1.0,0.0,1.0,0,0,,,0
1449618418013767775,125,0,/odom,bcmd_vector,0,0,0,0.164114608252,0.00276918591741,0.0,0.0,0.0,0.0129715180544,0.99991586632,0.190942907077,0.05,0.05,0.0,1.0,0.0,1.0,0,0,,,0
1449618418061708747,126,0,/odom,bcmd_vector,0,0,0,0.175627992535,0.00313433028437,0.0,0.0,0.0,0.0130178093868,0.999915264729,0.346637586443,0.05,0.05,0.0,1.0,0.0,1.0,0,0,,,0
1449618418097865704,127,0,/odom,bcmd_vector,0,0,0,0.178505213177,0.00325602921377,0.0,0.0,0.0,0.0182779019833,0.999832945196,0.212373147581,0.05,0.05,0.0,1.0,0.0,1.0,0,0,,,0
1449618418110907793,128,0,/odom,bcmd_vector,0,0,0,0.181383559248,0.00334731530551,0.0,0.0,0.0,0.0121480444817,0.999926209785,0.196312882195,0.05,0.05,0.0,1.0,0.0,1.0,0,0,,,0
1449618418132095721,129,0,/odom,bcmd_vector,0,0,0,0.181383559248,0.00334731530551,0.0,0.0,0.0,0.0121480444817,0.999926209785,0.196312882195,0.05,0.05,0.0,1.0,0.0,1.0,0,0,,,0
1449618418172230863,130,0,/odom,bcmd_vector,0,0,0,0.181383559248,0.00334731530551,0.0,0.0,0.0,0.0129710305921,0.999915872644,0.196312882195,0.05,0.05,0.0,1.0,0.0,1.0,0,0,,,0
1449618418213281940,131,0,/odom,bcmd_vector,0,0,0,0.18426077989,0.00346901423491,0.0,0.0,0.0,0.0182307625652,0.999833805838,0.196364880028,0.05,0.05,0.0,1.0,0.0,1.0,0,0,,,0
1449618418314668134,132,0,/odom,bcmd_vector,0,0,0,0.187139125961,0.00356030032665,0.0,0.0,0.0,0.0129235183795,0.999916487849,0.35201,0.05,0.05,0.0,1.0,0.0,1.0,0,0,,,0
1449618418357872531,133,0,/odom,bcmd_vector,0,0,0,0.190016346603,0.00368199925604,0.0,0.0,0.0,0.0181828809945,0.999834677754,0.35201,0.05,0.05,0.0,1.0,0.0,1.0,0,0,,,0
1449618418594120391,134,0,/odom,bcmd_vector,0,0,0,0.201526354601,0.00413838213598,0.0,0.0,0.0,0.0183753379558,0.999831159224,0.31436373573,0.05,0.05,0.0,1.0,0.0,1.0,0,0,,,0
1449618418682698112,135,0,/odom,bcmd_vector,0,0,0,0.207280795885,0.00438177999478,0.0,0.0,0.0,0.0183297970126,0.999831995158,0.314387912645,0.05,0.05,0.0,1.0,0.0,1.0,0,0,,,0
1449618418823855025,136,0,/odom,bcmd_vector,0,0,0,0.21303523717,0.00462517785357,0.0,0.0,0.0,0.0182835402678,0.999832842107,0.314412469545,0.05,0.05,0.0,1.0,0.0,1.0,0,0,,,0
1449618418853819474,137,0,/odom,bcmd_vector,0,0,0,0.218789678454,0.00486857571237,0.0,0.0,0.0,0.0182579264677,0.999833310168,0.314426067456,0.05,0.05,0.0,1.0,0.0,1.0,0,0,,,0
1449618418972994952,138,0,/odom,bcmd_vector,0,0,0,0.221665452333,0.00502067388778,0.0,0.0,0.0,0.0235172344081,0.999723431598,0.346642653481,0.05,0.05,0.0,1.0,0.0,1.0,0,0,,,0
1449618419064960121,139,0,/odom,bcmd_vector,0,0,0,0.227418446853,0.00529447099258,0.0,0.0,0.0,0.0234695293549,0.99972455266,0.346646271842,0.05,0.05,0.0,1.0,0.0,1.0,0,0,,,0
1449618419337810957,140,0,/odom,bcmd_vector,0,0,0,0.236048662016,0.00568996702678,0.0,0.0,0.0,0.0181456480386,0.999835354175,0.35201,0.05,0.05,0.0,1.0,0.0,1.0,0,0,,,0
1449618419348334872,141,0,/odom,bcmd_vector,0,0,0,0.238924435894,0.00584206520218,0.0,0.0,0.0,0.023153625281,0.999731918884,0.35201,0.05,0.05,0.0,1.0,0.0,1.0,0,0,,,0
1449618419497643029,142,0,/odom,bcmd_vector,0,0,0,0.238924435894,0.00584206520218,0.0,0.0,0.0,0.0224562554293,0.9997478265,0.191400938659,0.05,0.05,0.0,1.0,0.0,1.0,0,0,,,0
1449618419516885668,143,0,/odom,bcmd_vector,0,0,0,0.238924435894,0.00584206520218,0.0,0.0,0.0,0.0233364642462,0.999727667636,0.191400938659,0.05,0.05,0.0,1.0,0.0,1.0,0,0,,,0
1449618419630787236,144,0,/odom,bcmd_vector,0,0,0,0.238924435894,0.00584206520218,0.0,0.0,0.0,0.0233364642462,0.999727667636,0.346656364622,0.05,0.05,0.0,1.0,0.0,1.0,0,0,,,0
1449618419667166802,145,0,/odom,bcmd_vector,0,0,0,0.238924435894,0.00584206520218,0.0,0.0,0.0,0.0229576747231,0.999736437853,0.346685095043,0.05,0.05,0.0,1.0,0.0,1.0,0,0,,,0
1449618419779730687,146,0,/odom,bcmd_vector,0,0,0,0.238924435894,0.00584206520218,0.0,0.0,0.0,0.0229576747231,0.999736437853,0.346685095043,0.05,0.05,0.0,1.0,0.0,1.0,0,0,,,0
1449618419822865424,147,0,/odom,bcmd_vector,0,0,0,0.238924435894,0.00584206520218,0.0,0.0,0.0,0.0229576747231,0.999736437853,0.346685095043,0.05,0.05,0.0,1.0,0.0,1.0,0,0,,,0
1449618419954302479,148,0,/odom,bcmd_vector,0,0,0,0.238924435894,0.00584206520218,0.0,0.0,0.0,0.0229576747231,0.999736437853,0.35201,0.05,0.05,0.0,1.0,0.0,1.0,0,0,,,0
1449618420022038214,149,0,/odom,bcmd_vector,0,0,0,0.238924435894,0.00584206520218,0.0,0.0,0.0,0.0236022779176,0.999721427437,0.35201,0.05,0.05,0.0,1.0,0.0,1.0,0,0,,,0
1449618420029178837,150,0,/odom,bcmd_vector,0,0,0,0.238924435894,0.00584206520218,0.0,0.0,0.0,0.0236022779176,0.999721427437,0.196169888156,0.05,0.05,0.0,1.0,0.0,1.0,0,0,,,0
1449618420187256419,151,0,/odom,bcmd_vector,0,0,0,0.238924435894,0.00584206520218,0.0,0.0,0.0,0.0236022779176,0.999721427437,0.35201,0.05,0.05,0.0,1.0,0.0,1.0,0,0,,,0
1449618420265874836,152,0,/odom,bcmd_vector,0,0,0,0.241801656536,0.00596376413158,0.0,0.0,0.0,0.0182962790999,0.999832609076,0.35201,0.05,0.05,0.0,1.0,0.0,1.0,0,0,,,0
1449618420296332668,153,0,/odom,bcmd_vector,0,0,0,0.241801656536,0.00596376413158,0.0,0.0,0.0,0.0182962790999,0.999832609076,0.341265916206,0.05,0.05,0.0,1.0,0.0,1.0,0,0,,,0
1449618420334318629,154,0,/odom,bcmd_vector,0,0,0,0.241801656536,0.00596376413158,0.0,0.0,0.0,0.0182962790999,0.999832609076,0.346637958103,0.05,0.05,0.0,1.0,0.0,1.0,0,0,,,0
1449618420399204722,155,0,/odom,bcmd_vector,0,0,0,0.244677430415,0.00611586230698,0.0,0.0,0.0,0.0221023544481,0.999755713126,0.346749968447,0.05,0.05,0.0,1.0,0.0,1.0,0,0,,,0
1449618420429032787,156,0,/odom,bcmd_vector,0,0,0,0.244677430415,0.00611586230698,0.0,0.0,0.0,0.0221023544481,0.999755713126,0.346749968447,0.05,0.05,0.0,1.0,0.0,1.0,0,0,,,0
1449618420531702147,157,0,/odom,bcmd_vector,0,0,0,0.244677430415,0.00611586230698,0.0,0.0,0.0,0.0221023544481,0.999755713126,0.346749968447,0.05,0.05,0.0,1.0,0.0,1.0,0,0,,,0
1449618420561368515,158,0,/odom,bcmd_vector,0,0,0,0.244677430415,0.00611586230698,0.0,0.0,0.0,0.0221023544481,0.999755713126,0.346749968447,0.05,0.05,0.0,1.0,0.0,1.0,0,0,,,0
1449618420602307397,159,0,/odom,bcmd_vector,0,0,0,0.244677430415,0.00611586230698,0.0,0.0,0.0,0.023018289173,0.999735044081,0.325362487881,0.05,0.05,0.0,1.0,0.0,1.0,0,0,,,0
1449618420665679530,160,0,/odom,bcmd_vector,0,0,0,0.247554651057,0.00623756123638,0.0,0.0,0.0,0.0177077340834,0.999843205785,0.346682593328,0.05,0.05,0.0,1.0,0.0,1.0,0,0,,,0
1449618420713238320,161,0,/odom,bcmd_vector,0,0,0,0.250430424935,0.00638965941179,0.0,0.0,0.0,0.0229628558239,0.999736318862,0.346684702069,0.05,0.05,0.0,1.0,0.0,1.0,0,0,,,0
1449618420763288113,162,0,/odom,bcmd_vector,0,0,0,0.250430424935,0.00638965941179,0.0,0.0,0.0,0.0233609030153,0.999727096867,0.314521576874,0.05,0.05,0.0,1.0,0.0,1.0,0,0,,,0
1449618420864837344,163,0,/odom,bcmd_vector,0,0,0,0.250430424935,0.00638965941179,0.0,0.0,0.0,0.0233609030153,0.999727096867,0.314521576874,0.05,0.05,0.0,1.0,0.0,1.0,0,0,,,0
1449618420918638058,164,0,/odom,bcmd_vector,0,0,0,0.256183419456,0.00666345651659,0.0,0.0,0.0,0.0231561104419,0.999731861325,0.346670044126,0.05,0.05,0.0,1.0,0.0,1.0,0,0,,,0
1449618421041655206,165,0,/odom,bcmd_vector,0,0,0,0.259060640098,0.00678515544599,0.0,0.0,0.0,0.0178466549455,0.999840735771,0.34667205762,0.05,0.05,0.0,1.0,0.0,1.0,0,0,,,0
1449618421079920499,166,0,/odom,bcmd_vector,0,0,0,0.267687961732,0.0072414499722,0.0,0.0,0.0,0.0230488444439,0.999734340097,0.346678180027,0.05,0.05,0.0,1.0,0.0,1.0,0,0,,,0
1449618421111116002,167,0,/odom,bcmd_vector,0,0,0,0.273439509489,0.007545646323,0.0,0.0,0.0,0.0220159343165,0.999757619944,0.346682339893,0.05,0.05,0.0,1.0,0.0,1.0,0,0,,,0
1449618421201986393,168,0,/odom,bcmd_vector,0,0,0,0.273439509489,0.007545646323,0.0,0.0,0.0,0.0229939994956,0.999735603041,0.35201,0.05,0.05,0.0,1.0,0.0,1.0,0,0,,,0
1449618421255621930,169,0,/odom,bcmd_vector,0,0,0,0.284942605002,0.00815403902462,0.0,0.0,0.0,0.0228817803073,0.99973817779,0.35201,0.05,0.05,0.0,1.0,0.0,1.0,0,0,,,0
1449618421418911819,170,0,/odom,bcmd_vector,0,0,0,0.293564622823,0.00870148032868,0.0,0.0,0.0,0.0281127383611,0.999604758863,0.346694745893,0.05,0.05,0.0,1.0,0.0,1.0,0,0,,,0
1449618421459863214,171,0,/odom,bcmd_vector,0,0,0,0.313689736156,0.00985731433435,0.0,0.0,0.0,0.0226227898978,0.999744071939,0.35201,0.05,0.05,0.0,1.0,0.0,1.0,0,0,,,0
1449618421500112756,172,0,/odom,bcmd_vector,0,0,0,0.322311753977,0.0104047556384,0.0,0.0,0.0,0.0267024861145,0.999643425045,0.346717494779,0.05,0.05,0.0,1.0,0.0,1.0,0,0,,,0
1449618421600408508,173,0,/odom,bcmd_vector,0,0,0,0.328059765858,0.0107697165078,0.0,0.0,0.0,0.0266218960416,0.999645574517,0.346722249435,0.05,0.05,0.0,1.0,0.0,1.0,0,0,,,0
1449618421715824351,174,0,/odom,bcmd_vector,0,0,0,0.345303801499,0.0118645991159,0.0,0.0,0.0,0.0259447960435,0.999663377122,0.34676219661,0.05,0.05,0.0,1.0,0.0,1.0,0,0,,,0
1449618421899611459,175,0,/odom,bcmd_vector,0,0,0,0.368295849021,0.0133244425934,0.0,0.0,0.0,0.0255693154026,0.999673051607,0.346784348707,0.05,0.05,0.0,1.0,0.0,1.0,0,0,,,0
1449618421925649758,176,0,/odom,bcmd_vector,0,0,0,0.402777653561,0.0156052934478,0.0,0.0,0.0,0.0254347631056,0.999676484082,0.346792286788,0.05,0.05,0.0,1.0,0.0,1.0,0,0,,,0
1449618422011411133,177,0,/odom,bcmd_vector,0,0,0,0.408525665442,0.0159702543172,0.0,0.0,0.0,0.0253352428814,0.999679011217,0.346798158092,0.05,0.05,0.0,1.0,0.0,1.0,0,0,,,0
1449618422043897880,178,0,/odom,bcmd_vector,0,0,0,0.440125108383,0.0181900722545,0.0,0.0,0.0,0.0297043020816,0.999558729859,0.346852022219,0.05,0.05,0.0,1.0,0.0,1.0,0,0,,,0
1449618422098925830,179,0,/odom,bcmd_vector,0,0,0,0.440125108383,0.0181900722545,0.0,0.0,0.0,0.0297043020816,0.999558729859,0.346852022219,0.05,0.05,0.0,1.0,0.0,1.0,0,0,,,0
1449618422129612109,180,0,/odom,bcmd_vector,0,0,0,0.463100444589,0.0198928107671,0.0,0.0,0.0,0.0292420619154,0.999572359469,0.346879295638,0.05,0.05,0.0,1.0,0.0,1.0,0,0,,,0
1449618422227966022,181,0,/odom,bcmd_vector,0,0,0,0.463100444589,0.0198928107671,0.0,0.0,0.0,0.0291529997422,0.999574960974,0.346884550504,0.05,0.05,0.0,1.0,0.0,1.0,0,0,,,0
1449618422254878882,182,0,/odom,bcmd_vector,0,0,0,0.497563448899,0.022446918536,0.0,0.0,0.0,0.0264939070894,0.999648974834,0.346928938955,0.05,0.05,0.0,1.0,0.0,1.0,0,0,,,0
1449618422288483970,183,0,/odom,bcmd_vector,0,0,0,0.509051117002,0.0232982877923,0.0,0.0,0.0,0.0261705141164,0.99965749344,0.346944549361,0.05,0.05,0.0,1.0,0.0,1.0,0,0,,,0
1449618422418083194,184,0,/odom,bcmd_vector,0,0,0,0.509051117002,0.0232982877923,0.0,0.0,0.0,0.0261705141164,0.99965749344,0.346944549361,0.05,0.05,0.0,1.0,0.0,1.0,0,0,,,0
1449618422468874086,185,0,/odom,bcmd_vector,0,0,0,0.555001789415,0.0267037648176,0.0,0.0,0.0,0.0255567747214,0.99967337229,0.346974174631,0.05,0.05,0.0,1.0,0.0,1.0,0,0,,,0
1449618422518592838,186,0,/odom,bcmd_vector,0,0,0,0.566489457518,0.0275551340739,0.0,0.0,0.0,0.0252078185453,0.999682232454,0.316877130042,0.05,0.05,0.0,1.0,0.0,1.0,0,0,,,0
1449618422545613304,187,0,/odom,bcmd_vector,0,0,0,0.577977125621,0.0284065033302,0.0,0.0,0.0,0.0248496830179,0.999691198948,0.347008305452,0.05,0.05,0.0,1.0,0.0,1.0,0,0,,,0
1449618422636753013,188,0,/odom,bcmd_vector,0,0,0,0.592324662462,0.0296224054436,0.0,0.0,0.0,0.0296720154226,0.999559688813,0.34703049718,0.05,0.05,0.0,1.0,0.0,1.0,0,0,,,0
1449618422686074899,189,0,/odom,bcmd_vector,0,0,0,0.61528795038,0.0314768344993,0.0,0.0,0.0,0.0289049775049,0.999582163844,0.347067525687,0.05,0.05,0.0,1.0,0.0,1.0,0,0,,,0
1449618422724715368,190,0,/odom,bcmd_vector,0,0,0,0.629647535509,0.0325410460697,0.0,0.0,0.0,0.0231228225501,0.999732631796,0.317581601165,0.05,0.05,0.0,1.0,0.0,1.0,0,0,,,0
1449618422869548397,191,0,/odom,bcmd_vector,0,0,0,0.638256057613,0.0332705873377,0.0,0.0,0.0,0.0255229527076,0.999674236382,0.347106461785,0.05,0.05,0.0,1.0,0.0,1.0,0,0,,,0
1449618422920378720,192,0,/odom,bcmd_vector,0,0,0,0.687061779448,0.0371012734373,0.0,0.0,0.0,0.0131518868579,0.999913510196,0.347395925356,0.05,0.05,0.0,1.0,0.0,1.0,0,0,,,0
1449618423065238473,193,0,/odom,bcmd_vector,0,0,0,0.698549447551,0.0379526426936,0.0,0.0,0.0,0.0162684847736,0.999867659445,0.347422471106,0.05,0.05,0.0,1.0,0.0,1.0,0,0,,,0
1449618423097750659,194,0,/odom,bcmd_vector,0,0,0,0.747347940413,0.041874343119,0.0,0.0,0.0,0.0190961005527,0.999817652847,0.347540981179,0.05,0.05,0.0,1.0,0.0,1.0,0,0,,,0
1449618423249210090,195,0,/odom,bcmd_vector,0,0,0,0.75596369149,0.0425128700612,0.0,0.0,0.0,0.00653560673112,0.999978642694,0.347562915475,0.05,0.05,0.0,1.0,0.0,1.0,0,0,,,0
1449618423277238378,196,0,/odom,bcmd_vector,0,0,0,0.7904266958,0.0450669778301,0.0,0.0,0.0,0.00934771703956,0.999956309139,0.347445365525,0.05,0.05,0.0,1.0,0.0,1.0,0,0,,,0
1449618423326440833,197,0,/odom,bcmd_vector,0,0,0,0.801914363903,0.0459183470864,0.0,0.0,0.0,0.00869005907966,0.999962240724,0.347472856745,0.05,0.05,0.0,1.0,0.0,1.0,0,0,,,0
1449618423433720455,198,0,/odom,bcmd_vector,0,0,0,0.819145866058,0.0471954009709,0.0,0.0,0.0,0.00767993913638,0.999970508833,0.347515081172,0.05,0.05,0.0,1.0,0.0,1.0,0,0,,,0
1449618423456451971,199,0,/odom,bcmd_vector,0,0,0,0.850747397914,0.0493848570288,0.0,0.0,0.0,0.00488784689018,0.999988054405,0.34759566256,0.05,0.05,0.0,1.0,0.0,1.0,0,0,,,0
1449618423521822578,200,0,/odom,bcmd_vector,0,0,0,0.859363148991,0.050023383971,0.0,0.0,0.0,0.00971556522132,0.999952802782,0.347618295218,0.05,0.05,0.0,1.0,0.0,1.0,0,0,,,0
1449618423573606974,201,0,/odom,bcmd_vector,0,0,0,0.873733178692,0.0509357861445,0.0,0.0,0.0,0.00630730270222,0.999980108768,0.347525236229,0.05,0.05,0.0,1.0,0.0,1.0,0,0,,,0
1449618423776299732,202,0,/odom,bcmd_vector,0,0,0,0.885229202453,0.0516657078832,0.0,0.0,0.0,0.00571690679853,0.999983658355,0.347554528803,0.05,0.05,0.0,1.0,0.0,1.0,0,0,,,0
1449618423830590226,203,0,/odom,bcmd_vector,0,0,0,0.954199078276,0.0561363239539,0.0,0.0,0.0,0.00195065982681,0.999998097461,0.347741389769,0.05,0.05,0.0,1.0,0.0,1.0,0,0,,,0
1449618423910569568,204,0,/odom,bcmd_vector,0,0,0,0.965695102037,0.0568662456926,0.0,0.0,0.0,0.00128609587024,0.999999172978,0.347774361649,0.05,0.05,0.0,1.0,0.0,1.0,0,0,,,0
1449618423967925727,205,0,/odom,bcmd_vector,0,0,0,0.988695989249,0.0581741778737,0.0,0.0,0.0,-7.54340601516e-05,0.999999997155,0.34784191294,0.05,0.05,0.0,1.0,0.0,1.0,0,0,,,0
1449618424010056450,206,0,/odom,bcmd_vector,0,0,0,1.00307485864,0.0589346687507,0.0,0.0,0.0,-0.0107608956914,0.999942099886,0.348109911453,0.05,0.05,0.0,1.0,0.0,1.0,0,0,,,0
1449618424126878032,207,0,/odom,bcmd_vector,0,0,0,1.01744488834,0.0598470709241,0.0,0.0,0.0,-0.0064173842384,0.999979408378,0.348156566167,0.05,0.05,0.0,1.0,0.0,1.0,0,0,,,0
1449618424204438306,208,0,/odom,bcmd_vector,0,0,0,1.05194533519,0.0618241603254,0.0,0.0,0.0,-0.00872344610358,0.99996195002,0.348270982978,0.05,0.05,0.0,1.0,0.0,1.0,0,0,,,0
1449618424239106226,209,0,/odom,bcmd_vector,0,0,0,1.07782730009,0.063193043904,0.0,0.0,0.0,-0.0230700459053,0.999733851073,0.322800198235,0.05,0.05,0.0,1.0,0.0,1.0,0,0,,,0
1449618424290245667,210,0,/odom,bcmd_vector,0,0,0,1.08933039561,0.0638014366056,0.0,0.0,0.0,-0.0260655391472,0.999660236115,0.348398245056,0.05,0.05,0.0,1.0,0.0,1.0,0,0,,,0
1449618424398165256,211,0,/odom,bcmd_vector,0,0,0,1.10083349112,0.0644098293073,0.0,0.0,0.0,-0.025814488144,0.999666750573,0.348387492212,0.05,0.05,0.0,1.0,0.0,1.0,0,0,,,0
1449618424446903084,212,0,/odom,bcmd_vector,0,0,0,1.13822578536,0.0662351093575,0.0,0.0,0.0,-0.0321621837304,0.99948266315,0.3205829021,0.05,0.05,0.0,1.0,0.0,1.0,0,0,,,0
1449618424537118664,213,0,/odom,bcmd_vector,0,0,0,1.14685310699,0.0666914038837,0.0,0.0,0.0,-0.0276080502843,0.999618825133,0.34854852444,0.05,0.05,0.0,1.0,0.0,1.0,0,0,,,0
1449618424644709665,214,0,/odom,bcmd_vector,0,0,0,1.18425697534,0.0682734899659,0.0,0.0,0.0,-0.0432802646729,0.999062970333,0.348983169386,0.05,0.05,0.0,1.0,0.0,1.0,0,0,,,0
1449618424697826243,215,0,/odom,bcmd_vector,0,0,0,1.21015758826,0.0692167161422,0.0,0.0,0.0,-0.050743700889,0.998711708563,0.337333074247,0.05,0.05,0.0,1.0,0.0,1.0,0,0,,,0
1449618424748222424,216,0,/odom,bcmd_vector,0,0,0,1.23030263447,0.0699469572973,0.0,0.0,0.0,-0.0471556453354,0.998887553788,0.326535141012,0.05,0.05,0.0,1.0,0.0,1.0,0,0,,,0
1449618424789105621,217,0,/odom,bcmd_vector,0,0,0,1.24469436483,0.070403387756,0.0,0.0,0.0,-0.0640648785811,0.997945735665,0.326167712253,0.05,0.05,0.0,1.0,0.0,1.0,0,0,,,0
1449618424848486367,218,0,/odom,bcmd_vector,0,0,0,1.25045105697,0.0705859599395,0.0,0.0,0.0,-0.0534408780088,0.99857101528,0.32897501665,0.05,0.05,0.0,1.0,0.0,1.0,0,0,,,0
1449618424899437981,219,0,/odom,bcmd_vector,0,0,0,1.26772113339,0.0711336764899,0.0,0.0,0.0,-0.0643699602696,0.997926103584,0.328522706258,0.05,0.05,0.0,1.0,0.0,1.0,0,0,,,0
1449618424996132015,220,0,/odom,bcmd_vector,0,0,0,1.28499120982,0.0716813930404,0.0,0.0,0.0,-0.066313584358,0.997798831694,0.328070449384,0.05,0.05,0.0,1.0,0.0,1.0,0,0,,,0
1449618425016812046,221,0,/odom,bcmd_vector,0,0,0,1.30802199822,0.0722595666106,0.0,0.0,0.0,-0.0689057043544,0.997623177311,0.327467204254,0.05,0.05,0.0,1.0,0.0,1.0,0,0,,,0
1449618425061004088,222,0,/odom,bcmd_vector,0,0,0,1.32241774841,0.0725638819057,0.0,0.0,0.0,-0.0857320458901,0.99631823044,0.327090828295,0.05,0.05,0.0,1.0,0.0,1.0,0,0,,,0
1449618425102144123,223,0,/odom,bcmd_vector,0,0,0,1.33393434856,0.0728073341417,0.0,0.0,0.0,-0.0925793537502,0.995705309446,0.325665336571,0.05,0.05,0.0,1.0,0.0,1.0,0,0,,,0
1449618425198289341,224,0,/odom,bcmd_vector,0,0,0,1.34545094872,0.0730507863778,0.0,0.0,0.0,-0.0847143490054,0.996405278525,0.249626950843,0.05,0.05,0.0,1.0,0.0,1.0,0,0,,,0
1449618425249085941,225,0,/odom,bcmd_vector,0,0,0,1.3656083759,0.0732638189803,0.0,0.0,0.0,-0.0921484934482,0.99574527624,0.251087019639,0.05,0.05,0.0,1.0,0.0,1.0,0,0,,,0
1449618425280828550,226,0,/odom,bcmd_vector,0,0,0,1.37136764081,0.0733246854382,0.0,0.0,0.0,-0.0933573466097,0.995632666114,0.175147913381,0.05,0.05,0.0,1.0,0.0,1.0,0,0,,,0
1449618425328886625,227,0,/odom,bcmd_vector,0,0,0,1.38576660714,0.0733246854382,0.0,0.0,0.0,-0.100143363747,0.994973018075,0.176756380266,0.05,0.05,0.0,1.0,0.0,1.0,0,0,,,0
1449618425350172657,228,0,/odom,bcmd_vector,0,0,0,1.3972857802,0.0733246854382,0.0,0.0,0.0,-0.110065859078,0.993924296245,0.145451150928,0.05,0.05,0.0,1.0,0.0,1.0,0,0,,,0
1449618425398265778,229,0,/odom,bcmd_vector,0,0,0,1.40880495326,0.0733246854382,0.0,0.0,0.0,-0.111454857531,0.993769497787,0.147223393826,0.05,0.05,0.0,1.0,0.0,1.0,0,0,,,0
1449618425508340924,230,0,/odom,bcmd_vector,0,0,0,1.41744385062,0.0732333857514,0.0,0.0,0.0,-0.117634259202,0.993056987822,0.148410718742,0.05,0.05,0.0,1.0,0.0,1.0,0,0,,,0
1449618425545833706,231,0,/odom,bcmd_vector,0,0,0,1.44911643071,0.0726856114226,0.0,0.0,0.0,-0.126574731651,0.991957074327,0.126140307266,0.05,0.05,0.0,1.0,0.0,1.0,0,0,,,0
1449618428932372103,232,0,/odom,bcmd_vector,0,0,0,1.55266857152,0.067909701438,0.0,0.0,0.0,-0.155180719537,0.987886098841,0.101146185163,0.05,0.05,0.0,1.0,0.0,1.0,0,0,,,0
1449618428969479477,233,0,/odom,bcmd_vector,0,0,0,1.55266857152,0.067909701438,0.0,0.0,0.0,-0.15222092984,0.988346492137,0.0985703453257,0.05,0.05,0.0,1.0,0.0,1.0,0,0,,,0
1449618434182584051,234,0,/odom,bcmd_vector,0,0,0,0.573011697439,0.0155013999931,0.0,0.0,0.0,0.0459433643686,0.998944046116,0.0182686000399,0.05,0.05,0.0,1.0,0.0,1.0,0,0,,,0
1449618434194485621,235,0,/odom,bcmd_vector,0,0,0,0.558625594227,0.0148929053461,0.0,0.0,0.0,0.0399489870873,0.99920172059,0.017394918893,0.05,0.05,0.0,1.0,0.0,1.0,0,0,,,0
1449618434247001587,236,0,/odom,bcmd_vector,0,0,0,0.541362270374,0.0141627117697,0.0,0.0,0.0,0.0391204531949,0.999234502077,0.0163829852772,0.05,0.05,0.0,1.0,0.0,1.0,0,0,,,0
1449618434278574471,237,0,/odom,bcmd_vector,0,0,0,0.529853387805,0.0136759160521,0.0,0.0,0.0,0.0385858139056,0.999255290186,0.0157300186452,0.05,0.05,0.0,1.0,0.0,1.0,0,0,,,0
1449618434363404813,238,0,/odom,bcmd_vector,0,0,0,0.515461657451,0.0132194855934,0.0,0.0,0.0,0.0326550286646,0.999466682338,0.0192945181706,0.05,0.05,0.0,1.0,0.0,1.0,0,0,,,0
1449618434368145271,239,0,/odom,bcmd_vector,0,0,0,0.4895599191,0.0123066722548,0.0,0.0,0.0,0.0368197735226,0.999321922244,0.0176420532989,0.05,0.05,0.0,1.0,0.0,1.0,0,0,,,0
1449618436776247376,240,0,/odom,bcmd_vector,0,0,0,0.210263872488,0.00765060915162,0.0,0.0,0.0,0.0155815689749,0.999878599985,0.00891469765362,0.05,0.05,0.0,1.0,0.0,1.0,0,0,,,0
1449618436793878209,241,0,/odom,bcmd_vector,0,0,0,0.20450460758,0.00758974269374,0.0,0.0,0.0,0.0154660334641,0.999880393752,0.00867962704639,0.05,0.05,0.0,1.0,0.0,1.0,0,0,,,0
1449618438713174411,242,0,/odom,bcmd_vector,0,0,0,0.0288724350613,0.0041509713621,0.0,0.0,0.0,0.014934416478,0.999888475383,0.0140509472146,0.05,0.05,0.0,1.0,0.0,1.0,0,0,,,0
1449618438723371655,243,0,/odom,bcmd_vector,0,0,0,0.0288724350613,0.0041509713621,0.0,0.0,0.0,0.014934416478,0.999888475383,0.0140509472146,0.05,0.05,0.0,1.0,0.0,1.0,0,0,,,0
1449618438763472624,244,0,/odom,bcmd_vector,0,0,0,0.0288724350613,0.0041509713621,0.0,0.0,0.0,0.014934416478,0.999888475383,0.0413057098559,0.05,0.05,0.0,1.0,0.0,1.0,0,0,,,0
1449618438795491824,245,0,/odom,bcmd_vector,0,0,0,0.0288724350613,0.0041509713621,0.0,0.0,0.0,0.014934416478,0.999888475383,0.0413057098559,0.05,0.05,0.0,1.0,0.0,1.0,0,0,,,0
1449618438885887442,246,0,/odom,bcmd_vector,0,0,0,0.0288724350613,0.0041509713621,0.0,0.0,0.0,0.014934416478,0.999888475383,0.193932387811,0.05,0.05,0.0,1.0,0.0,1.0,0,0,,,0
1449618438906489379,247,0,/odom,bcmd_vector,0,0,0,0.0288724350613,0.0041509713621,0.0,0.0,0.0,0.0150330347798,0.999886997548,0.194021693895,0.05,0.05,0.0,1.0,0.0,1.0,0,0,,,0
1449618438925532321,248,0,/odom,bcmd_vector,0,0,0,0.0288724350613,0.0041509713621,0.0,0.0,0.0,0.0150330347798,0.999886997548,0.172230193169,0.05,0.05,0.0,1.0,0.0,1.0,0,0,,,0
1449618438962621491,249,0,/odom,bcmd_vector,0,0,0,0.0288724350613,0.0041509713621,0.0,0.0,0.0,0.0150330347798,0.999886997548,0.172230193169,0.05,0.05,0.0,1.0,0.0,1.0,0,0,,,0
1449618439006004484,250,0,/odom,bcmd_vector,0,0,0,0.0288724350613,0.0041509713621,0.0,0.0,0.0,0.0105678519699,0.999944158693,0.167629048119,0.05,0.05,0.0,1.0,0.0,1.0,0,0,,,0
1449618439044588643,251,0,/odom,bcmd_vector,0,0,0,0.0288724350613,0.0041509713621,0.0,0.0,0.0,0.0105678519699,0.999944158693,0.184390962372,0.05,0.05,0.0,1.0,0.0,1.0,0,0,,,0
1449618439079563605,252,0,/odom,bcmd_vector,0,0,0,0.0288724350613,0.0041509713621,0.0,0.0,0.0,0.0105678519699,0.999944158693,0.184390962372,0.05,0.05,0.0,1.0,0.0,1.0,0,0,,,0
1449618439161642357,253,0,/odom,bcmd_vector,0,0,0,0.0288724350613,0.0041509713621,0.0,0.0,0.0,0.0105678519699,0.999944158693,0.184390962372,0.05,0.05,0.0,1.0,0.0,1.0,0,0,,,0
1449618439166533400,254,0,/odom,bcmd_vector,0,0,0,0.0288724350613,0.0041509713621,0.0,0.0,0.0,0.0105678519699,0.999944158693,0.184390962372,0.05,0.05,0.0,1.0,0.0,1.0,0,0,,,0
1449618439199181757,255,0,/odom,bcmd_vector,0,0,0,0.0288724350613,0.0041509713621,0.0,0.0,0.0,0.0105678519699,0.999944158693,0.189978263626,0.05,0.05,0.0,1.0,0.0,1.0,0,0,,,0
1449618439238809851,256,0,/odom,bcmd_vector,0,0,0,0.0288724350613,0.0041509713621,0.0,0.0,0.0,0.0105678519699,0.999944158693,0.189978263626,0.05,0.05,0.0,1.0,0.0,1.0,0,0,,,0
1449618439329246042,257,0,/odom,bcmd_vector,0,0,0,0.0288724350613,0.0041509713621,0.0,0.0,0.0,0.0105678519699,0.999944158693,0.189978263626,0.05,0.05,0.0,1.0,0.0,1.0,0,0,,,0
1449618439338956498,258,0,/odom,bcmd_vector,0,0,0,0.0288724350613,0.0041509713621,0.0,0.0,0.0,0.0105678519699,0.999944158693,0.189978263626,0.05,0.05,0.0,1.0,0.0,1.0,0,0,,,0
1449618439366890146,259,0,/odom,bcmd_vector,0,0,0,0.0288724350613,0.0041509713621,0.0,0.0,0.0,0.0105678519699,0.999944158693,0.189978263626,0.05,0.05,0.0,1.0,0.0,1.0,0,0,,,0
1449618439398720019,260,0,/odom,bcmd_vector,0,0,0,0.0288724350613,0.0041509713621,0.0,0.0,0.0,0.0105678519699,0.999944158693,0.189978263626,0.05,0.05,0.0,1.0,0.0,1.0,0,0,,,0
1449618439440660698,261,0,/odom,bcmd_vector,0,0,0,0.0288724350613,0.0041509713621,0.0,0.0,0.0,0.0105678519699,0.999944158693,0.189978263626,0.05,0.05,0.0,1.0,0.0,1.0,0,0,,,0
1449618439515723625,262,0,/odom,bcmd_vector,0,0,0,0.0288724350613,0.0041509713621,0.0,0.0,0.0,0.0105678519699,0.999944158693,0.189978263626,0.05,0.05,0.0,1.0,0.0,1.0,0,0,,,0
1449618439522578012,263,0,/odom,bcmd_vector,0,0,0,0.0288724350613,0.0041509713621,0.0,0.0,0.0,0.0105678519699,0.999944158693,0.189978263626,0.05,0.05,0.0,1.0,0.0,1.0,0,0,,,0
1449618439558671178,264,0,/odom,bcmd_vector,0,0,0,0.0288724350613,0.0041509713621,0.0,0.0,0.0,0.0105678519699,0.999944158693,0.167629048119,0.05,0.05,0.0,1.0,0.0,1.0,0,0,,,0
1449618439599215034,265,0,/odom,bcmd_vector,0,0,0,0.0288724350613,0.0041509713621,0.0,0.0,0.0,0.0105678519699,0.999944158693,0.167629048119,0.05,0.05,0.0,1.0,0.0,1.0,0,0,,,0
1449618439634252363,266,0,/odom,bcmd_vector,0,0,0,0.0288724350613,0.0041509713621,0.0,0.0,0.0,0.0105678519699,0.999944158693,0.189978263626,0.05,0.05,0.0,1.0,0.0,1.0,0,0,,,0
1449618439691249979,267,0,/odom,bcmd_vector,0,0,0,0.0317507811321,0.00424225745384,0.0,0.0,0.0,0.0158514091245,0.999874358521,0.189978263626,0.05,0.05,0.0,1.0,0.0,1.0,0,0,,,0
1449618439763454043,268,0,/odom,bcmd_vector,0,0,0,0.0317507811321,0.00424225745384,0.0,0.0,0.0,0.0158514091245,0.999874358521,0.189978263626,0.05,0.05,0.0,1.0,0.0,1.0,0,0,,,0
1449618439770003998,269,0,/odom,bcmd_vector,0,0,0,0.0346299311702,0.00430312051285,0.0,0.0,0.0,0.0105678519699,0.999944158693,0.189978263626,0.05,0.05,0.0,1.0,0.0,1.0,0,0,,,0
1449618439811132828,270,0,/odom,bcmd_vector,0,0,0,0.0346299311702,0.00430312051285,0.0,0.0,0.0,0.0105678519699,0.999944158693,0.173216349373,0.05,0.05,0.0,1.0,0.0,1.0,0,0,,,0
1449618439866745972,271,0,/odom,bcmd_vector,0,0,0,0.0346299311702,0.00430312051285,0.0,0.0,0.0,0.0105678519699,0.999944158693,0.173216349373,0.05,0.05,0.0,1.0,0.0,1.0,0,0,,,0
1449618439882463820,272,0,/odom,bcmd_vector,0,0,0,0.0403882312463,0.00442484663087,0.0,0.0,0.0,0.0105678519699,0.999944158693,0.173216349373,0.05,0.05,0.0,1.0,0.0,1.0,0,0,,,0
1449618439996845188,273,0,/odom,bcmd_vector,0,0,0,0.0403882312463,0.00442484663087,0.0,0.0,0.0,0.0105678519699,0.999944158693,0.189978263626,0.05,0.05,0.0,1.0,0.0,1.0,0,0,,,0
1449618440018619884,274,0,/odom,bcmd_vector,0,0,0,0.0461457273552,0.00457699578162,0.0,0.0,0.0,0.0105678519699,0.999944158693,0.189978263626,0.05,0.05,0.0,1.0,0.0,1.0,0,0,,,0
1449618440046052916,275,0,/odom,bcmd_vector,0,0,0,0.0519040274313,0.00469872189964,0.0,0.0,0.0,0.0105678519699,0.999944158693,0.184390962372,0.05,0.05,0.0,1.0,0.0,1.0,0,0,,,0
1449618440087928808,276,0,/odom,bcmd_vector,0,0,0,0.0519040274313,0.00469872189964,0.0,0.0,0.0,0.0105678519699,0.999944158693,0.184390962372,0.05,0.05,0.0,1.0,0.0,1.0,0,0,,,0
1449618440181825631,277,0,/odom,bcmd_vector,0,0,0,0.0519040274313,0.00469872189964,0.0,0.0,0.0,0.0105678519699,0.999944158693,0.184390962372,0.05,0.05,0.0,1.0,0.0,1.0,0,0,,,0
1449618440191205255,278,0,/odom,bcmd_vector,0,0,0,0.0605406735783,0.0049117341094,0.0,0.0,0.0,0.0158514091245,0.999874358521,0.184390962372,0.05,0.05,0.0,1.0,0.0,1.0,0,0,,,0
1449618440206222990,279,0,/odom,bcmd_vector,0,0,0,0.0605406735783,0.0049117341094,0.0,0.0,0.0,0.0158514091245,0.999874358521,0.189978263626,0.05,0.05,0.0,1.0,0.0,1.0,0,0,,,0
1449618440250649781,280,0,/odom,bcmd_vector,0,0,0,0.0605406735783,0.0049117341094,0.0,0.0,0.0,0.0158514091245,0.999874358521,0.189978263626,0.05,0.05,0.0,1.0,0.0,1.0,0,0,,,0
1449618440289352986,281,0,/odom,bcmd_vector,0,0,0,0.0634198236163,0.00497259716841,0.0,0.0,0.0,0.0105678519699,0.999944158693,0.189978263626,0.05,0.05,0.0,1.0,0.0,1.0,0,0,,,0
1449618440361954129,282,0,/odom,bcmd_vector,0,0,0,0.0691781236925,0.00509432328644,0.0,0.0,0.0,0.0105678519699,0.999944158693,0.189978263626,0.05,0.05,0.0,1.0,0.0,1.0,0,0,,,0
1449618440453536223,283,0,/odom,bcmd_vector,0,0,0,0.0749364237686,0.00521604940446,0.0,0.0,0.0,0.0105678519699,0.999944158693,0.189978263626,0.05,0.05,0.0,1.0,0.0,1.0,0,0,,,0
1449618440453560540,284,0,/odom,bcmd_vector,0,0,0,0.0749364237686,0.00521604940446,0.0,0.0,0.0,0.0105678519699,0.999944158693,0.167629048119,0.05,0.05,0.0,1.0,0.0,1.0,0,0,,,0
1449618440467268803,285,0,/odom,bcmd_vector,0,0,0,0.0749364237686,0.00521604940446,0.0,0.0,0.0,0.0105678519699,0.999944158693,0.167629048119,0.05,0.05,0.0,1.0,0.0,1.0,0,0,,,0
1449618440521990553,286,0,/odom,bcmd_vector,0,0,0,0.0864530239209,0.0054595016405,0.0,0.0,0.0,0.0105678519699,0.999944158693,0.167629048119,0.05,0.05,0.0,1.0,0.0,1.0,0,0,,,0
1449618440527257910,287,0,/odom,bcmd_vector,0,0,0,0.0864530239209,0.0054595016405,0.0,0.0,0.0,0.0105678519699,0.999944158693,0.184390962372,0.05,0.05,0.0,1.0,0.0,1.0,0,0,,,0
1449618440562428245,288,0,/odom,bcmd_vector,0,0,0,0.0864530239209,0.0054595016405,0.0,0.0,0.0,0.0105678519699,0.999944158693,0.184390962372,0.05,0.05,0.0,1.0,0.0,1.0,0,0,,,0
1449618440603437209,289,0,/odom,bcmd_vector,0,0,0,0.0922113239971,0.00558122775852,0.0,0.0,0.0,0.0105678519699,0.999944158693,0.184390962372,0.05,0.05,0.0,1.0,0.0,1.0,0,0,,,0
1449618440640489858,290,0,/odom,bcmd_vector,0,0,0,0.0979696240732,0.00570295387654,0.0,0.0,0.0,0.0105678519699,0.999944158693,0.189978263626,0.05,0.05,0.0,1.0,0.0,1.0,0,0,,,0
1449618440688867361,291,0,/odom,bcmd_vector,0,0,0,0.103727924149,0.00582467999456,0.0,0.0,0.0,0.0105678519699,0.999944158693,0.189978263626,0.05,0.05,0.0,1.0,0.0,1.0,0,0,,,0
1449618440723134928,292,0,/odom,bcmd_vector,0,0,0,0.103727924149,0.00582467999456,0.0,0.0,0.0,0.0105678519699,0.999944158693,0.189978263626,0.05,0.05,0.0,1.0,0.0,1.0,0,0,,,0
1449618440776131922,293,0,/odom,bcmd_vector,0,0,0,0.109486224226,0.00594640611259,0.0,0.0,0.0,0.0105678519699,0.999944158693,0.189978263626,0.05,0.05,0.0,1.0,0.0,1.0,0,0,,,0
1449618440826866591,294,0,/odom,bcmd_vector,0,0,0,0.11236585668,0.00597683934152,0.0,0.0,0.0,0.0052839997518,0.999986039576,0.189978263626,0.05,0.05,0.0,1.0,0.0,1.0,0,0,,,0
1449618440846525933,295,0,/odom,bcmd_vector,0,0,0,0.121003306794,0.00615942851856,0.0,0.0,0.0,0.0105678519699,0.999944158693,0.189978263626,0.05,0.05,0.0,1.0,0.0,1.0,0,0,,,0
1449618440883656484,296,0,/odom,bcmd_vector,0,0,0,0.121003306794,0.00615942851856,0.0,0.0,0.0,0.0105678519699,0.999944158693,0.189978263626,0.05,0.05,0.0,1.0,0.0,1.0,0,0,,,0
1449618440952642523,297,0,/odom,bcmd_vector,0,0,0,0.12676160687,0.00628115463658,0.0,0.0,0.0,0.0105678519699,0.999944158693,0.189978263626,0.05,0.05,0.0,1.0,0.0,1.0,0,0,,,0
1449618441004867110,298,0,/odom,bcmd_vector,0,0,0,0.135400504233,0.00637245432339,0.0,0.0,0.0,0.0052839997518,0.999986039576,0.189978263626,0.05,0.05,0.0,1.0,0.0,1.0,0,0,,,0
1449618441020316919,299,0,/odom,bcmd_vector,0,0,0,0.138279654271,0.0064333173824,0.0,0.0,0.0,0.0105678519699,0.999944158693,0.189978263626,0.05,0.05,0.0,1.0,0.0,1.0,0,0,,,0
1449618441041705027,300,0,/odom,bcmd_vector,0,0,0,0.144037954348,0.00655504350042,0.0,0.0,0.0,0.0105678519699,0.999944158693,0.167629048119,0.05,0.05,0.0,1.0,0.0,1.0,0,0,,,0
1449618441082169144,301,0,/odom,bcmd_vector,0,0,0,0.144037954348,0.00655504350042,0.0,0.0,0.0,0.0105678519699,0.999944158693,0.167629048119,0.05,0.05,0.0,1.0,0.0,1.0,0,0,,,0
1449618441122375600,302,0,/odom,bcmd_vector,0,0,0,0.149796254424,0.00667676961844,0.0,0.0,0.0,0.0105678519699,0.999944158693,0.167629048119,0.05,0.05,0.0,1.0,0.0,1.0,0,0,,,0
1449618441211330674,303,0,/odom,bcmd_vector,0,0,0,0.1555545545,0.00679849573646,0.0,0.0,0.0,0.0105678519699,0.999944158693,0.189978263626,0.05,0.05,0.0,1.0,0.0,1.0,0,0,,,0
1449618441233633863,304,0,/odom,bcmd_vector,0,0,0,0.161312854576,0.00692022185448,0.0,0.0,0.0,0.0105678519699,0.999944158693,0.189978263626,0.05,0.05,0.0,1.0,0.0,1.0,0,0,,,0
1449618441245333680,305,0,/odom,bcmd_vector,0,0,0,0.167071154652,0.00704194797251,0.0,0.0,0.0,0.0105678519699,0.999944158693,0.189978263626,0.05,0.05,0.0,1.0,0.0,1.0,0,0,,,0
1449618441308527135,306,0,/odom,bcmd_vector,0,0,0,0.167071154652,0.00704194797251,0.0,0.0,0.0,0.0105678519699,0.999944158693,0.189978263626,0.05,0.05,0.0,1.0,0.0,1.0,0,0,,,0
1449618441325494741,307,0,/odom,bcmd_vector,0,0,0,0.175709087183,0.00719410731946,0.0,0.0,0.0,0.0052839997518,0.999986039576,0.189978263626,0.05,0.05,0.0,1.0,0.0,1.0,0,0,,,0
1449618441367189397,308,0,/odom,bcmd_vector,0,0,0,0.175709087183,0.00719410731946,0.0,0.0,0.0,0.0052839997518,0.999986039576,0.173216349373,0.05,0.05,0.0,1.0,0.0,1.0,0,0,,,0
1449618441406893850,309,0,/odom,bcmd_vector,0,0,0,0.178588237221,0.00725497037847,0.0,0.0,0.0,0.0105678519699,0.999944158693,0.173216349373,0.05,0.05,0.0,1.0,0.0,1.0,0,0,,,0
1449618441443350625,310,0,/odom,bcmd_vector,0,0,0,0.184346537297,0.0073766964965,0.0,0.0,0.0,0.0105678519699,0.999944158693,0.184390962372,0.05,0.05,0.0,1.0,0.0,1.0,0,0,,,0
1449618441501303539,311,0,/odom,bcmd_vector,0,0,0,0.190104837373,0.00749842261452,0.0,0.0,0.0,0.0105678519699,0.999944158693,0.184390962372,0.05,0.05,0.0,1.0,0.0,1.0,0,0,,,0
1449618441526009326,312,0,/odom,bcmd_vector,0,0,0,0.198742769904,0.00765058196148,0.0,0.0,0.0,0.0052839997518,0.999986039576,0.184390962372,0.05,0.05,0.0,1.0,0.0,1.0,0,0,,,0
1449618441576440772,313,0,/odom,bcmd_vector,0,0,0,0.198742769904,0.00765058196148,0.0,0.0,0.0,0.0052839997518,0.999986039576,0.173216349373,0.05,0.05,0.0,1.0,0.0,1.0,0,0,,,0
1449618441612492349,314,0,/odom,bcmd_vector,0,0,0,0.207380220018,0.00783317113851,0.0,0.0,0.0,0.0105678519699,0.999944158693,0.173216349373,0.05,0.05,0.0,1.0,0.0,1.0,0,0,,,0
1449618441724031488,315,0,/odom,bcmd_vector,0,0,0,0.207380220018,0.00783317113851,0.0,0.0,0.0,0.0105678519699,0.999944158693,0.173216349373,0.05,0.05,0.0,1.0,0.0,1.0,0,0,,,0
1449618441762029554,316,0,/odom,bcmd_vector,0,0,0,0.218898267419,0.00798533388433,0.0,0.0,0.0,0.0105678519699,0.999944158693,0.173216349373,0.05,0.05,0.0,1.0,0.0,1.0,0,0,,,0
1449618441797702202,317,0,/odom,bcmd_vector,0,0,0,0.224656567495,0.00810706000235,0.0,0.0,0.0,0.0105678519699,0.999944158693,0.17601,0.05,0.05,0.0,1.0,0.0,1.0,0,0,,,0
1449618441851822465,318,0,/odom,bcmd_vector,0,0,0,0.230414867571,0.00822878612037,0.0,0.0,0.0,0.0105678519699,0.999944158693,0.173216349373,0.05,0.05,0.0,1.0,0.0,1.0,0,0,,,0
1449618441872284612,319,0,/odom,bcmd_vector,0,0,0,0.230414867571,0.00822878612037,0.0,0.0,0.0,0.0105678519699,0.999944158693,0.173216349373,0.05,0.05,0.0,1.0,0.0,1.0,0,0,,,0
1449618441911150446,320,0,/odom,bcmd_vector,0,0,0,0.236173167647,0.00835051223839,0.0,0.0,0.0,0.0105678519699,0.999944158693,0.173216349373,0.05,0.05,0.0,1.0,0.0,1.0,0,0,,,0
1449618441947440248,321,0,/odom,bcmd_vector,0,0,0,0.241931467724,0.00847223835641,0.0,0.0,0.0,0.0105678519699,0.999944158693,0.173216349373,0.05,0.05,0.0,1.0,0.0,1.0,0,0,,,0
1449618442022470450,322,0,/odom,bcmd_vector,0,0,0,0.241931467724,0.00847223835641,0.0,0.0,0.0,0.0105678519699,0.999944158693,0.173216349373,0.05,0.05,0.0,1.0,0.0,1.0,0,0,,,0
1449618442051880493,323,0,/odom,bcmd_vector,0,0,0,0.253448067876,0.00871569059246,0.0,0.0,0.0,0.0105678519699,0.999944158693,0.173216349373,0.05,0.05,0.0,1.0,0.0,1.0,0,0,,,0
1449618442064113366,324,0,/odom,bcmd_vector,0,0,0,0.253448067876,0.00871569059246,0.0,0.0,0.0,0.0105678519699,0.999944158693,0.17601,0.05,0.05,0.0,1.0,0.0,1.0,0,0,,,0
1449618442169170252,325,0,/odom,bcmd_vector,0,0,0,0.259206367952,0.00883741671048,0.0,0.0,0.0,0.0105678519699,0.999944158693,0.17601,0.05,0.05,0.0,1.0,0.0,1.0,0,0,,,0
1449618442188904555,326,0,/odom,bcmd_vector,0,0,0,0.264964668028,0.0089591428285,0.0,0.0,0.0,0.0121550510323,0.999926124638,0.170422698746,0.05,0.05,0.0,1.0,0.0,1.0,0,0,,,0
1449618442268174028,327,0,/odom,bcmd_vector,0,0,0,0.270722968104,0.00908086894652,0.0,0.0,0.0,0.0121550510323,0.999926124638,0.173216349373,0.05,0.05,0.0,1.0,0.0,1.0,0,0,,,0
1449618442305547909,328,0,/odom,bcmd_vector,0,0,0,0.270722968104,0.00908086894652,0.0,0.0,0.0,0.0121550510323,0.999926124638,0.173216349373,0.05,0.05,0.0,1.0,0.0,1.0,0,0,,,0
1449618442331779707,329,0,/odom,bcmd_vector,0,0,0,0.282239568257,0.00932432118257,0.0,0.0,0.0,0.0121550510323,0.999926124638,0.173216349373,0.05,0.05,0.0,1.0,0.0,1.0,0,0,,,0
1449618442361283574,330,0,/odom,bcmd_vector,0,0,0,0.282239568257,0.00932432118257,0.0,0.0,0.0,0.0121550510323,0.999926124638,0.173216349373,0.05,0.05,0.0,1.0,0.0,1.0,0,0,,,0
1449618442445523839,331,0,/odom,bcmd_vector,0,0,0,0.285119200711,0.0093547544115,0.0,0.0,0.0,0.00687127194824,0.999976392532,0.173216349373,0.05,0.05,0.0,1.0,0.0,1.0,0,0,,,0
1449618442464688885,332,0,/odom,bcmd_vector,0,0,0,0.293756650825,0.00953734358853,0.0,0.0,0.0,0.0121550510323,0.999926124638,0.150867144356,0.05,0.05,0.0,1.0,0.0,1.0,0,0,,,0
1449618442484975614,333,0,/odom,bcmd_vector,0,0,0,0.29663628328,0.00956777681747,0.0,0.0,0.0,0.00687127194824,0.999976392532,0.150867144356,0.05,0.05,0.0,1.0,0.0,1.0,0,0,,,0
1449618442511415788,334,0,/odom,bcmd_vector,0,0,0,0.29663628328,0.00956777681747,0.0,0.0,0.0,0.00845852683232,0.999964226022,0.173216349373,0.05,0.05,0.0,1.0,0.0,1.0,0,0,,,0
1449618442692411080,335,0,/odom,bcmd_vector,0,0,0,0.299515433318,0.00962863987648,0.0,0.0,0.0,0.0137422194698,0.999905571244,0.173216349373,0.05,0.05,0.0,1.0,0.0,1.0,0,0,,,0
1449618442735288428,336,0,/odom,bcmd_vector,0,0,0,0.311032515886,0.00984166228245,0.0,0.0,0.0,0.0137422194698,0.999905571244,0.173216349373,0.05,0.05,0.0,1.0,0.0,1.0,0,0,,,0
1449618442833119023,337,0,/odom,bcmd_vector,0,0,0,0.319671413249,0.00993296196926,0.0,0.0,0.0,0.00687127194824,0.999976392532,0.173216349373,0.05,0.05,0.0,1.0,0.0,1.0,0,0,,,0
1449618442918222524,338,0,/odom,bcmd_vector,0,0,0,0.32830934578,0.0100851213162,0.0,0.0,0.0,0.0121550510323,0.999926124638,0.173216349373,0.05,0.05,0.0,1.0,0.0,1.0,0,0,,,0
1449618442945382763,339,0,/odom,bcmd_vector,0,0,0,0.336948243143,0.010176421003,0.0,0.0,0.0,0.00687127194824,0.999976392532,0.148073493729,0.05,0.05,0.0,1.0,0.0,1.0,0,0,,,0
1449618443017609075,340,0,/odom,bcmd_vector,0,0,0,0.342707508052,0.0102372874609,0.0,0.0,0.0,0.00687127194824,0.999976392532,0.173216349373,0.05,0.05,0.0,1.0,0.0,1.0,0,0,,,0
1449618443104626417,341,0,/odom,bcmd_vector,0,0,0,0.348466290544,0.0103285837488,0.0,0.0,0.0,0.00687127194824,0.999976392532,0.173216349373,0.05,0.05,0.0,1.0,0.0,1.0,0,0,,,0
1449618443117261608,342,0,/odom,bcmd_vector,0,0,0,0.357103740658,0.0105111729259,0.0,0.0,0.0,0.0121550510323,0.999926124638,0.173216349373,0.05,0.05,0.0,1.0,0.0,1.0,0,0,,,0
1449618443182752304,343,0,/odom,bcmd_vector,0,0,0,0.357103740658,0.0105111729259,0.0,0.0,0.0,0.0121550510323,0.999926124638,0.173216349373,0.05,0.05,0.0,1.0,0.0,1.0,0,0,,,0
1449618443212060164,344,0,/odom,bcmd_vector,0,0,0,0.362862040735,0.0106328990439,0.0,0.0,0.0,0.0121550510323,0.999926124638,0.173216349373,0.05,0.05,0.0,1.0,0.0,1.0,0,0,,,0
