%time,field.robot_pose.position.x,field.robot_pose.position.y,field.robot_pose.position.z,field.robot_pose.orientation.x,field.robot_pose.orientation.y,field.robot_pose.orientation.z,field.robot_pose.orientation.w,field.ctime,field.hasac,field.acmd.linear.x,field.acmd.linear.y,field.acmd.linear.z,field.acmd.angular.x,field.acmd.angular.y,field.acmd.angular.z,field.hasuc,field.ucmd.linear.x,field.ucmd.linear.y,field.ucmd.linear.z,field.ucmd.angular.x,field.ucmd.angular.y,field.ucmd.angular.z,field.bcmd.linear.x,field.bcmd.linear.y,field.bcmd.linear.z,field.bcmd.angular.x,field.bcmd.angular.y,field.bcmd.angular.z,field.blending,field.blendingno,field.controlstate,field.alpha,field.source,field.sxb
1449618392323510778,0.0,0.0,0.0,0.0,0.0,0.0,1.0,1449618392323131384,1,0.0,0.0,0.0,0.0,0.0,0.0,1,-0.0,0.0,0.0,0.0,0.0,-0.0,-0.0,0.0,0.0,0.0,0.0,-0.0,,0,Sharing Zero Relinquish,10.0,user,0
1449618392365227645,0.0,0.0,0.0,0.0,0.0,0.0,1.0,1449618392362880477,1,0.0,0.0,0.0,0.0,0.0,0.0,1,-0.0,0.0,0.0,0.0,0.0,-0.0,-0.0,0.0,0.0,0.0,0.0,-0.0,,0,Sharing Zero Relinquish,10.0,user,0
1449618392417230221,0.0,0.0,0.0,0.0,0.0,0.0,1.0,1449618392413244404,1,0.0,0.0,0.0,0.0,0.0,0.0,1,-0.0,0.0,0.0,0.0,0.0,-0.0,-0.0,0.0,0.0,0.0,0.0,-0.0,,0,Allway Blend,10.0,user,0
1449618392443267314,0.0,0.0,0.0,0.0,0.0,0.0,1.0,1449618392442873947,1,0.0,0.0,0.0,0.0,0.0,0.0,1,-0.0,0.0,0.0,0.0,0.0,-0.0,-0.0,0.0,0.0,0.0,0.0,-0.0,,0,Allway Blend,10.0,user,0
1449618392483658058,0.0,0.0,0.0,0.0,0.0,0.0,1.0,1449618392482877569,1,0.0,0.0,0.0,0.0,0.0,0.0,1,-0.0,0.0,0.0,0.0,0.0,-0.0,-0.0,0.0,0.0,0.0,0.0,-0.0,,0,Allway Blend,10.0,user,0
1449618392524419025,0.0,0.0,0.0,0.0,0.0,0.0,1.0,1449618392522923386,1,0.0,0.0,0.0,0.0,0.0,0.0,1,-0.0,0.0,0.0,0.0,0.0,-0.0,-0.0,0.0,0.0,0.0,0.0,-0.0,,0,Allway Blend,10.0,user,0
1449618392563128241,0.0,0.0,0.0,0.0,0.0,0.0,1.0,1449618392562884360,1,0.0,0.0,0.0,0.0,0.0,0.0,1,-0.0,0.0,0.0,0.0,0.0,-0.0,-0.0,0.0,0.0,0.0,0.0,-0.0,,0,Allway Blend,10.0,user,0
1449618392603844581,0.0,0.0,0.0,0.0,0.0,0.0,1.0,1449618392602882529,1,0.0,0.0,0.0,0.0,0.0,0.0,1,-0.0,0.0,0.0,0.0,0.0,-0.0,-0.0,0.0,0.0,0.0,0.0,-0.0,,0,Allway Blend,10.0,user,0
1449618392643220285,0.0,0.0,0.0,0.0,0.0,0.0,1.0,1449618392642885695,1,0.0,0.0,0.0,0.0,0.0,0.0,1,-0.0,0.0,0.0,0.0,0.0,-0.0,-0.0,0.0,0.0,0.0,0.0,-0.0,,0,Allway Blend,10.0,user,0
1449618392684689655,0.0,0.0,0.0,0.0,0.0,0.0,1.0,1449618392682893260,1,0.0,0.0,0.0,0.0,0.0,0.0,1,-0.0,0.0,0.0,0.0,0.0,-0.0,-0.0,0.0,0.0,0.0,0.0,-0.0,,0,Allway Blend,10.0,user,0
1449618392725830193,0.0,0.0,0.0,0.0,0.0,0.0,1.0,1449618392723824611,1,0.0,0.0,0.0,0.0,0.0,0.0,1,-0.0,0.0,0.0,0.0,0.0,-0.0,-0.0,0.0,0.0,0.0,0.0,-0.0,,0,Allway Blend,10.0,user,0
1449618392764078272,0.0,0.0,0.0,0.0,0.0,0.0,1.0,1449618392762875106,1,0.0,0.0,0.0,0.0,0.0,0.0,1,-0.0,0.0,0.0,0.0,0.0,-0.0,-0.0,0.0,0.0,0.0,0.0,-0.0,,0,Allway Blend,10.0,user,0
1449618392803106074,0.0,0.0,0.0,0.0,0.0,0.0,1.0,1449618392802863954,1,0.0,0.0,0.0,0.0,0.0,0.0,1,-0.0,0.0,0.0,0.0,0.0,-0.0,-0.0,0.0,0.0,0.0,0.0,-0.0,,0,Allway Blend,10.0,user,0
1449618392844120758,0.0,0.0,0.0,0.0,0.0,0.0,1.0,1449618392842870793,1,0.0,0.0,0.0,0.0,0.0,0.0,1,-0.0,0.0,0.0,0.0,0.0,-0.0,-0.0,0.0,0.0,0.0,0.0,-0.0,,0,Allway Blend,10.0,user,0
1449618392883657848,0.0,0.0,0.0,0.0,0.0,0.0,1.0,1449618392882935893,1,0.0,0.0,0.0,0.0,0.0,0.0,1,-0.0,0.0,0.0,0.0,0.0,-0.0,-0.0,0.0,0.0,0.0,0.0,-0.0,,0,Allway Blend,10.0,user,0
1449618392925223921,0.0,0.0,0.0,0.0,0.0,0.0,1.0,1449618392922892003,1,0.0,0.0,0.0,0.0,0.0,0.0,1,-0.0,0.0,0.0,0.0,0.0,-0.0,-0.0,0.0,0.0,0.0,0.0,-0.0,,0,Allway Blend,10.0,user,0
1449618392963910808,0.0,0.0,0.0,0.0,0.0,0.0,1.0,1449618392962877982,1,0.0,0.0,0.0,0.0,0.0,0.0,1,-0.0,0.0,0.0,0.0,0.0,-0.0,-0.0,0.0,0.0,0.0,0.0,-0.0,,0,Allway Blend,10.0,user,0
1449618393003287790,0.0,0.0,0.0,0.0,0.0,0.0,1.0,1449618393002862007,1,0.0,0.0,0.0,0.0,0.0,0.0,1,-0.0,0.0,0.0,0.0,0.0,-0.0,-0.0,0.0,0.0,0.0,0.0,-0.0,,0,Allway Blend,10.0,user,0
1449618393043748290,0.0,0.0,0.0,0.0,0.0,0.0,1.0,1449618393042881405,1,0.0,0.0,0.0,0.0,0.0,0.0,1,-0.0,0.0,0.0,0.0,0.0,-0.0,-0.0,0.0,0.0,0.0,0.0,-0.0,,0,Allway Blend,10.0,user,0
1449618393084989399,0.0,0.0,0.0,0.0,0.0,0.0,1.0,1449618393082885943,1,0.0,0.0,0.0,0.0,0.0,0.0,1,-0.0,0.0,0.0,0.0,0.0,-0.0,-0.0,0.0,0.0,0.0,0.0,-0.0,,0,Allway Blend,10.0,user,0
1449618393130474277,0.0,0.0,0.0,0.0,0.0,0.0,1.0,1449618393125719459,1,0.0,0.0,0.0,0.0,0.0,0.0,1,-0.0,0.0,0.0,0.0,0.0,-0.0,-0.0,0.0,0.0,0.0,0.0,-0.0,,0,Allway Blend,10.0,user,0
1449618393163698064,0.0,0.0,0.0,0.0,0.0,0.0,1.0,1449618393162878285,1,0.0,0.0,0.0,0.0,0.0,0.0,1,-0.0,0.0,0.0,0.0,0.0,-0.0,-0.0,0.0,0.0,0.0,0.0,-0.0,,0,Allway Blend,10.0,user,0
1449618393203533839,0.0,0.0,0.0,0.0,0.0,0.0,1.0,1449618393202874879,1,0.0,0.0,0.0,0.0,0.0,0.0,1,-0.0,0.0,0.0,0.0,0.0,-0.0,-0.0,0.0,0.0,0.0,0.0,-0.0,,0,Allway Blend,10.0,user,0
1449618393255560271,0.0,0.0,0.0,0.0,0.0,0.0,1.0,1449618393242878637,1,0.0,0.0,0.0,0.0,0.0,0.0,1,-0.0,0.0,0.0,0.0,0.0,-0.0,-0.0,0.0,0.0,0.0,0.0,-0.0,,0,Allway Blend,10.0,user,0
1449618393283849333,0.0,0.0,0.0,0.0,0.0,0.0,1.0,1449618393282879218,1,0.0,0.0,0.0,0.0,0.0,0.0,1,-0.0,0.0,0.0,0.0,0.0,-0.0,-0.0,0.0,0.0,0.0,0.0,-0.0,,0,Allway Blend,10.0,user,0
1449618393323772332,0.0,0.0,0.0,0.0,0.0,0.0,1.0,1449618393322888995,1,0.0,0.0,0.0,0.0,0.0,0.0,1,-0.0,0.0,0.0,0.0,0.0,-0.0,-0.0,0.0,0.0,0.0,0.0,-0.0,,0,Allway Blend,10.0,user,0
1449618393364410087,0.0,0.0,0.0,0.0,0.0,0.0,1.0,1449618393364177407,1,0.0,0.0,0.0,0.0,0.0,0.0,1,-0.0,0.0,0.0,0.0,0.0,-0.0,-0.0,0.0,0.0,0.0,0.0,-0.0,,0,Allway Blend,10.0,user,0
1449618393403477597,0.0,0.0,0.0,0.0,0.0,0.0,1.0,1449618393402868575,1,0.0,0.0,0.0,0.0,0.0,0.0,1,-0.0,0.0,0.0,0.0,0.0,-0.0,-0.0,0.0,0.0,0.0,0.0,-0.0,,0,Allway Blend,10.0,user,0
1449618393443670117,0.0,0.0,0.0,0.0,0.0,0.0,1.0,1449618393442870512,1,0.0,0.0,0.0,0.0,0.0,0.0,1,-0.0,0.0,0.0,0.0,0.0,-0.0,-0.0,0.0,0.0,0.0,0.0,-0.0,,0,Allway Blend,10.0,user,0
1449618393483497918,0.0,0.0,0.0,0.0,0.0,0.0,1.0,1449618393482886576,1,0.0,0.0,0.0,0.0,0.0,0.0,1,-0.0,0.0,0.0,0.0,0.0,-0.0,-0.0,0.0,0.0,0.0,0.0,-0.0,,0,Allway Blend,10.0,user,0
1449618393524769827,0.0,0.0,0.0,0.0,0.0,0.0,1.0,1449618393522890526,1,0.0,0.0,0.0,0.0,0.0,0.0,1,-0.0,0.0,0.0,0.0,0.0,-0.0,-0.0,0.0,0.0,0.0,0.0,-0.0,,0,Allway Blend,10.0,user,0
1449618393564809961,0.0,0.0,0.0,0.0,0.0,0.0,1.0,1449618393562878358,1,0.0,0.0,0.0,0.0,0.0,0.0,1,-0.0,0.0,0.0,0.0,0.0,-0.0,-0.0,0.0,0.0,0.0,0.0,-0.0,,0,Allway Blend,10.0,user,0
1449618393603250929,0.0,0.0,0.0,0.0,0.0,0.0,1.0,1449618393602869690,1,0.0,0.0,0.0,0.0,0.0,0.0,1,-0.0,0.0,0.0,0.0,0.0,-0.0,-0.0,0.0,0.0,0.0,0.0,-0.0,,0,Allway Blend,10.0,user,0
1449618393644950703,0.0,0.0,0.0,0.0,0.0,0.0,1.0,1449618393643322118,1,0.0,0.0,0.0,0.0,0.0,0.0,1,-0.0,0.0,0.0,0.0,0.0,-0.0,-0.0,0.0,0.0,0.0,0.0,-0.0,,0,Allway Blend,10.0,user,0
1449618393684113937,0.0,0.0,0.0,0.0,0.0,0.0,1.0,1449618393682884832,1,0.0,0.0,0.0,0.0,0.0,0.0,1,-0.0,0.0,0.0,0.0,0.0,-0.0,-0.0,0.0,0.0,0.0,0.0,-0.0,,0,Allway Blend,10.0,user,0
1449618393723994824,0.0,0.0,0.0,0.0,0.0,0.0,1.0,1449618393722887231,1,0.0,0.0,0.0,0.0,0.0,0.0,1,-0.0,0.0,0.0,0.0,0.0,-0.0,-0.0,0.0,0.0,0.0,0.0,-0.0,,0,Allway Blend,10.0,user,0
1449618393763723333,0.0,0.0,0.0,0.0,0.0,0.0,1.0,1449618393762876995,1,0.0,0.0,0.0,0.0,0.0,0.0,1,-0.0,0.0,0.0,0.0,0.0,-0.0,-0.0,0.0,0.0,0.0,0.0,-0.0,,0,Allway Blend,10.0,user,0
1449618393803510224,0.0,0.0,0.0,0.0,0.0,0.0,1.0,1449618393802877059,1,0.0,0.0,0.0,0.0,0.0,0.0,1,-0.0,0.0,0.0,0.0,0.0,-0.0,-0.0,0.0,0.0,0.0,0.0,-0.0,,0,Allway Blend,10.0,user,0
1449618393844808657,0.0,0.0,0.0,0.0,0.0,0.0,1.0,1449618393842867446,1,0.0,0.0,0.0,0.0,0.0,0.0,1,-0.0,0.0,0.0,0.0,0.0,-0.0,-0.0,0.0,0.0,0.0,0.0,-0.0,,0,Allway Blend,10.0,user,0
1449618393883297712,0.0,0.0,0.0,0.0,0.0,0.0,1.0,1449618393882881480,1,0.0,0.0,0.0,0.0,0.0,0.0,1,-0.0,0.0,0.0,0.0,0.0,-0.0,-0.0,0.0,0.0,0.0,0.0,-0.0,,0,Allway Blend,10.0,user,0
1449618393924249789,0.0,0.0,0.0,0.0,0.0,0.0,1.0,1449618393922898982,1,0.0,0.0,0.0,0.0,0.0,0.0,1,-0.0,0.0,0.0,0.0,0.0,-0.0,-0.0,0.0,0.0,0.0,0.0,-0.0,,0,Allway Blend,10.0,user,0
1449618393963733038,0.0,0.0,0.0,0.0,0.0,0.0,1.0,1449618393962912269,1,0.0,0.0,0.0,0.0,0.0,0.0,1,-0.0,0.0,0.0,0.0,0.0,-0.0,-0.0,0.0,0.0,0.0,0.0,-0.0,,0,Allway Blend,10.0,user,0
1449618394003140469,0.0,0.0,0.0,0.0,0.0,0.0,1.0,1449618394002874839,1,0.0,0.0,0.0,0.0,0.0,0.0,1,-0.0,0.0,0.0,0.0,0.0,-0.0,-0.0,0.0,0.0,0.0,0.0,-0.0,,0,Allway Blend,10.0,user,0
1449618394043840327,0.0,0.0,0.0,0.0,0.0,0.0,1.0,1449618394042887728,1,0.0,0.0,0.0,0.0,0.0,0.0,1,-0.0,0.0,0.0,0.0,0.0,-0.0,-0.0,0.0,0.0,0.0,0.0,-0.0,,0,Allway Blend,10.0,user,0
1449618394083943214,0.0,0.0,0.0,0.0,0.0,0.0,1.0,1449618394082885674,1,0.0,0.0,0.0,0.0,0.0,0.0,1,-0.0,0.0,0.0,0.0,0.0,-0.0,-0.0,0.0,0.0,0.0,0.0,-0.0,,0,Allway Blend,10.0,user,0
1449618394124509814,0.0,0.0,0.0,0.0,0.0,0.0,1.0,1449618394122892901,1,0.0,0.0,0.0,0.0,0.0,0.0,1,-0.0,0.0,0.0,0.0,0.0,-0.0,-0.0,0.0,0.0,0.0,0.0,-0.0,,0,Allway Blend,10.0,user,0
1449618394163722268,0.0,0.0,0.0,0.0,0.0,0.0,1.0,1449618394162880531,1,0.0,0.0,0.0,0.0,0.0,0.0,1,-0.0,0.0,0.0,0.0,0.0,-0.0,-0.0,0.0,0.0,0.0,0.0,-0.0,,0,Allway Blend,10.0,user,0
1449618394205892752,0.0,0.0,0.0,0.0,0.0,0.0,1.0,1449618394202874671,1,0.0,0.0,0.0,0.0,0.0,0.0,1,-0.0,0.0,0.0,0.0,0.0,-0.0,-0.0,0.0,0.0,0.0,0.0,-0.0,,0,Allway Blend,10.0,user,0
1449618394243460919,0.0,0.0,0.0,0.0,0.0,0.0,1.0,1449618394242869287,1,0.0,0.0,0.0,0.0,0.0,0.0,1,-0.0,0.0,0.0,0.0,0.0,-0.0,-0.0,0.0,0.0,0.0,0.0,-0.0,,0,Allway Blend,10.0,user,0
1449618394283643993,0.0,0.0,0.0,0.0,0.0,0.0,1.0,1449618394282879484,1,0.0,0.0,0.0,0.0,0.0,0.0,1,-0.0,0.0,0.0,0.0,0.0,-0.0,-0.0,0.0,0.0,0.0,0.0,-0.0,,0,Allway Blend,10.0,user,0
1449618394323365536,0.0,0.0,0.0,0.0,0.0,0.0,1.0,1449618394322883750,1,0.0,0.0,0.0,0.0,0.0,0.0,1,-0.0,0.0,0.0,0.0,0.0,-0.0,-0.0,0.0,0.0,0.0,0.0,-0.0,,0,Allway Blend,10.0,user,0
1449618394363442585,0.0,0.0,0.0,0.0,0.0,0.0,1.0,1449618394362866665,1,0.0,0.0,0.0,0.0,0.0,0.0,1,-0.0,0.0,0.0,0.0,0.0,-0.0,-0.0,0.0,0.0,0.0,0.0,-0.0,,0,Allway Blend,10.0,user,0
1449618394414924851,0.0,0.0,0.0,0.0,0.0,0.0,1.0,1449618394402953962,1,0.0,0.0,0.0,0.0,0.0,0.0,1,-0.0,0.0,0.0,0.0,0.0,-0.0,-0.0,0.0,0.0,0.0,0.0,-0.0,,2,Allway Blend,10.0,doorway_assistance,2
1449618394443487153,0.0,0.0,0.0,0.0,0.0,0.0,1.0,1449618394442822498,1,0.0,0.0,0.0,0.0,0.0,0.0,1,-0.0,0.0,0.0,0.0,0.0,-0.0,-0.0,0.0,0.0,0.0,0.0,-0.0,,2,Allway Blend,10.0,doorway_assistance,2
1449618394485980567,0.0,0.0,0.0,0.0,0.0,0.0,1.0,1449618394482905765,1,0.0,0.0,0.0,0.0,0.0,0.0,1,-0.0,0.0,0.0,0.0,0.0,-0.0,-0.0,0.0,0.0,0.0,0.0,-0.0,,2,Allway Blend,10.0,doorway_assistance,2
1449618394524848114,0.0,0.0,0.0,0.0,0.0,0.0,1.0,1449618394522883048,1,0.0,0.0,0.0,0.0,0.0,0.0,1,-0.0,0.0,0.0,0.0,0.0,-0.0,-0.0,0.0,0.0,0.0,0.0,-0.0,,2,Allway Blend,10.0,doorway_assistance,2
1449618394565856517,0.0,0.0,0.0,0.0,0.0,0.0,1.0,1449618394562865332,1,0.352,0.0,0.0,0.0,0.0,-0.147368421053,1,-0.0,0.0,0.0,0.0,0.0,-0.0,-0.0,0.0,0.0,0.0,0.0,-0.0,,2,Allway Blend,10.0,doorway_assistance,2
1449618394604512949,0.0,0.0,0.0,0.0,0.0,0.0,1.0,1449618394602931475,1,0.352,0.0,0.0,0.0,0.0,-0.147368421053,1,-0.0,0.0,0.0,0.0,0.0,-0.0,-0.0,0.0,0.0,0.0,0.0,-0.0,,2,Allway Blend,10.0,doorway_assistance,2
1449618394643014335,0.0,0.0,0.0,0.0,0.0,0.0,1.0,1449618394642867272,1,0.352,0.0,0.0,0.0,0.0,-0.147368421053,1,-0.0,0.0,0.0,0.0,0.0,-0.0,-0.0,0.0,0.0,0.0,0.0,-0.0,,2,Allway Blend,10.0,doorway_assistance,2
1449618394683882560,0.0,0.0,0.0,0.0,0.0,0.0,1.0,1449618394682879475,1,0.352,0.0,0.0,0.0,0.0,-0.147368421053,1,-0.0,0.0,0.0,0.0,0.0,-0.0,-0.0,0.0,0.0,0.0,0.0,-0.0,,2,Allway Blend,10.0,doorway_assistance,2
1449618394732557502,0.0,0.0,0.0,0.0,0.0,0.0,1.0,1449618394722884116,1,0.352,0.0,0.0,0.0,0.0,-0.147368421053,1,-0.0,0.0,0.0,0.0,0.0,-0.0,-0.0,0.0,0.0,0.0,0.0,-0.0,,2,Allway Blend,10.0,doorway_assistance,2
1449618394764002439,0.0,0.0,0.0,0.0,0.0,0.0,1.0,1449618394762878959,1,0.352,0.0,0.0,0.0,0.0,-0.147368421053,1,-0.0,0.0,0.0,0.0,0.0,-0.0,-0.0,0.0,0.0,0.0,0.0,-0.0,,2,Allway Blend,10.0,doorway_assistance,2
1449618394804945497,0.0,0.0,0.0,0.0,0.0,0.0,1.0,1449618394802862534,1,0.352,0.0,0.0,0.0,0.0,-0.147368421053,1,-0.0,0.0,0.0,0.0,0.0,-0.0,-0.0,0.0,0.0,0.0,0.0,-0.0,,2,Allway Blend,10.0,doorway_assistance,2
1449618394843267744,0.0,0.0,0.0,0.0,0.0,0.0,1.0,1449618394842885750,1,0.352,0.0,0.0,0.0,0.0,-0.147368421053,1,-0.0,0.0,0.0,0.0,0.0,-0.0,-0.0,0.0,0.0,0.0,0.0,-0.0,,2,Allway Blend,10.0,doorway_assistance,2
1449618394884031823,0.0,0.0,0.0,0.0,0.0,0.0,1.0,1449618394883056029,1,0.352,0.0,0.0,0.0,0.0,-0.147368421053,1,-0.0,0.0,0.0,0.0,0.0,-0.0,-0.0,0.0,0.0,0.0,0.0,-0.0,,2,Allway Blend,10.0,doorway_assistance,2
1449618394924136187,0.0,0.0,0.0,0.0,0.0,0.0,1.0,1449618394922901673,1,0.352,0.0,0.0,0.0,0.0,-0.147368421053,1,-0.0,0.0,0.0,0.0,0.0,-0.0,-0.0,0.0,0.0,0.0,0.0,-0.0,,2,Allway Blend,10.0,doorway_assistance,2
1449618394974147356,0.0,0.0,0.0,0.0,0.0,0.0,1.0,1449618394971440357,1,0.352,0.0,0.0,0.0,0.0,-0.147368421053,1,0.00558730190992,0.0,0.0,0.0,0.0,0.0,0.0123880490635,0.0,0.0,0.0,0.0,-0.00289312538348,Hybrid-Dynamic Alpha,2,Allway Blend,0.980368077755,doorway_assistance,2
1449618395009022314,0.0,0.0,0.0,0.0,0.0,0.0,1.0,1449618395008540832,1,0.352,0.0,0.0,0.0,0.0,-0.147368421053,1,0.00558730190992,0.0,0.0,0.0,0.0,0.0,0.0123880490635,0.0,0.0,0.0,0.0,-0.00289312538348,Hybrid-Dynamic Alpha,2,Allway Blend,0.980368077755,doorway_assistance,2
1449618395055658237,0.0,0.0,0.0,0.0,0.0,0.0,1.0,1449618395049274739,1,0.352,0.0,0.0,0.0,0.0,-0.147368421053,1,0.0111746038198,0.0,0.0,0.0,0.0,0.00634920671582,0.0194870447671,0.0,0.0,0.0,0.0,0.00260016477909,Hybrid-Dynamic Alpha,2,Allway Blend,0.975610852242,doorway_assistance,2
1449618395113206676,0.0,0.0,0.0,0.0,0.0,0.0,1.0,1449618395111553086,1,0.352,0.0,0.0,0.0,0.0,-0.147368421053,1,0.0111746038198,0.0,0.0,0.0,0.0,0.00634920671582,0.0194870447671,0.0,0.0,0.0,0.0,0.00260016477909,Hybrid-Dynamic Alpha,2,Allway Blend,0.975610852242,doorway_assistance,2
1449618395171123031,0.0,0.0,0.0,0.0,0.0,0.0,1.0,1449618395169176198,1,0.352,0.0,0.0,0.0,0.0,-0.147368421053,1,0.0111746038198,0.0,0.0,0.0,0.0,0.00634920671582,0.0194870447671,0.0,0.0,0.0,0.0,0.00260016477909,Hybrid-Dynamic Alpha,2,Allway Blend,0.975610852242,doorway_assistance,2
1449618395254645693,0.0,0.0,0.0,0.0,0.0,0.0,1.0,1449618395254329489,1,0.352,0.0,0.0,0.0,0.0,-0.147368421053,1,0.346412698746,0.0,0.0,0.0,0.0,0.0190476194024,0.346548968262,0.0,0.0,0.0,0.0,0.0149888740024,Hybrid-Dynamic Alpha,2,Allway Blend,0.975610852242,doorway_assistance,2
1449618395254649238,0.0,0.0,0.0,0.0,0.0,0.0,1.0,1449618395254410999,1,0.352,0.0,0.0,0.0,0.0,-0.147368421053,1,-0.0,0.0,0.0,0.0,0.0,-0.0,-0.0,0.0,0.0,0.0,0.0,-0.0,Hybrid-Dynamic Alpha,2,Allway Blend,0.975610852242,doorway_assistance,2
1449618395298130744,0.0,0.0,0.0,0.0,0.0,0.0,1.0,1449618395297779027,1,0.352,0.0,0.0,0.0,0.0,-0.147368421053,1,-0.0,0.0,0.0,0.0,0.0,-0.0,-0.0,0.0,0.0,0.0,0.0,-0.0,Hybrid-Dynamic Alpha,2,Allway Blend,0.975610852242,doorway_assistance,2
1449618395363434739,0.0,0.0,0.0,0.0,0.0,0.0,1.0,1449618395361881873,1,0.352,0.0,0.0,0.0,0.0,-0.147368421053,1,0.340825397491,0.0,0.0,0.0,0.0,0.0317460328341,0.341084416874,0.0,0.0,0.0,0.0,0.0275942864844,Hybrid-Dynamic Alpha,2,Allway Blend,0.976820707321,doorway_assistance,2
1449618395456822777,0.0,0.0,0.0,0.0,0.0,0.0,1.0,1449618395454186569,1,0.352,0.0,0.0,0.0,0.0,-0.147368421053,1,0.340825397491,0.0,0.0,0.0,0.0,0.0317460328341,0.341046604749,0.0,0.0,0.0,0.0,0.0282003660358,Hybrid-Dynamic Alpha,2,Allway Blend,0.980204463005,doorway_assistance,2
1449618395505069184,0.0,0.0,0.0,0.0,0.0,0.0,1.0,1449618395504555960,1,0.352,0.0,0.0,0.0,0.0,-0.147368421053,1,0.340825397491,0.0,0.0,0.0,0.0,0.0317460328341,0.341046604749,0.0,0.0,0.0,0.0,0.0282003660358,Hybrid-Dynamic Alpha,2,Allway Blend,0.980204463005,doorway_assistance,2
1449618395545734720,0.0,0.0,0.0,0.0,0.0,0.0,1.0,1449618395538616405,1,0.352,0.0,0.0,0.0,0.0,-0.147368421053,1,0.340825397491,0.0,0.0,0.0,0.0,0.0317460328341,0.341046604749,0.0,0.0,0.0,0.0,0.0282003660358,Hybrid-Dynamic Alpha,2,Allway Blend,0.980204463005,doorway_assistance,2
1449618395651558466,0.0,0.0,0.0,0.0,0.0,0.0,1.0,1449618395650500020,1,0.352,0.0,0.0,0.0,0.0,-0.147368421053,1,0.340825397491,0.0,0.0,0.0,0.0,0.0317460328341,0.341067854004,0.0,0.0,0.0,0.0,0.0278597679043,Hybrid-Dynamic Alpha,2,Allway Blend,0.978302896023,doorway_assistance,2
1449618395682532435,0.0,0.0,0.0,0.0,0.0,0.0,1.0,1449618395681748964,1,0.352,0.0,0.0,0.0,0.0,-0.147368421053,1,0.340825397491,0.0,0.0,0.0,0.0,0.0317460328341,0.341067854004,0.0,0.0,0.0,0.0,0.0278597679043,Hybrid-Dynamic Alpha,2,Allway Blend,0.978302896023,doorway_assistance,2
1449618395781469664,0.0,0.0,0.0,0.0,0.0,0.0,1.0,1449618395780341733,1,0.352,0.0,0.0,0.0,0.0,-0.147368421053,1,0.346412698746,0.0,0.0,0.0,0.0,0.0253968268633,0.346533927002,0.0,0.0,0.0,0.0,0.0216483213156,Hybrid-Dynamic Alpha,2,Allway Blend,0.978302896023,doorway_assistance,2
1449618395820329758,0.0,0.0,0.0,0.0,0.0,0.0,1.0,1449618395819692618,1,0.352,0.0,0.0,0.0,0.0,-0.147368421053,1,0.340825397491,0.0,0.0,0.0,0.0,0.0190476194024,0.341054620759,0.0,0.0,0.0,0.0,0.0156339473184,Hybrid-Dynamic Alpha,2,Allway Blend,0.979487121105,doorway_assistance,2
1449618395821179734,0.0,0.0,0.0,0.0,0.0,0.0,1.0,1449618395820575873,1,0.352,0.0,0.0,0.0,0.0,-0.147368421053,1,-0.0,0.0,0.0,0.0,0.0,-0.0,-0.0,0.0,0.0,0.0,0.0,-0.0,Hybrid-Dynamic Alpha,2,Allway Blend,0.979487121105,doorway_assistance,2
1449618395862342577,0.0,0.0,0.0,0.0,0.0,0.0,1.0,1449618395860532000,1,0.352,0.0,0.0,0.0,0.0,-0.147368421053,1,-0.0,0.0,0.0,0.0,0.0,-0.0,-0.0,0.0,0.0,0.0,0.0,-0.0,Hybrid-Dynamic Alpha,2,Allway Blend,0.979487121105,doorway_assistance,2
1449618395902074630,0.0,0.0,0.0,0.0,0.0,0.0,1.0,1449618395900675599,1,0.352,0.0,0.0,0.0,0.0,-0.147368421053,1,-0.0,0.0,0.0,0.0,0.0,-0.0,-0.0,0.0,0.0,0.0,0.0,-0.0,Hybrid-Dynamic Alpha,2,Allway Blend,0.979487121105,doorway_assistance,2
1449618395984540609,0.0,0.0,0.0,0.0,0.0,0.0,1.0,1449618395983448299,1,0.352,0.0,0.0,0.0,0.0,-0.147368421053,1,0.340825397491,0.0,0.0,0.0,0.0,0.0190476194024,0.341076545398,0.0,0.0,0.0,0.0,0.0153074380332,Hybrid-Dynamic Alpha,2,Allway Blend,0.977525115013,doorway_assistance,2
1449618396060262348,0.0,0.0,0.0,0.0,0.0,0.0,1.0,1449618396053206079,1,0.352,0.0,0.0,0.0,0.0,-0.147368421053,1,0.340825397491,0.0,0.0,0.0,0.0,0.0190476194024,0.341076545398,0.0,0.0,0.0,0.0,0.0153074380332,Hybrid-Dynamic Alpha,2,Allway Blend,0.977525115013,doorway_assistance,2
1449618396060265998,0.00575958653158,0.0,0.0,0.0,0.0,0.0,1.0,1449618396053304895,1,0.352,0.0,0.0,0.0,0.0,-0.147368421053,1,-0.0,0.0,0.0,0.0,0.0,-0.0,-0.0,0.0,0.0,0.0,0.0,-0.0,Hybrid-Dynamic Alpha,2,Allway Blend,0.977525115013,doorway_assistance,2
1449618396063868601,0.00575958653158,0.0,0.0,0.0,0.0,0.0,1.0,1449618396060620088,1,0.352,0.0,0.0,0.0,0.0,-0.147368421053,1,-0.0,0.0,0.0,0.0,0.0,-0.0,-0.0,0.0,0.0,0.0,0.0,-0.0,Hybrid-Dynamic Alpha,2,Allway Blend,0.977525115013,doorway_assistance,2
1449618396101206761,0.00575958653158,0.0,0.0,0.0,0.0,0.0,1.0,1449618396100555420,1,0.352,0.0,0.0,0.0,0.0,-0.147368421053,1,-0.0,0.0,0.0,0.0,0.0,-0.0,-0.0,0.0,0.0,0.0,0.0,-0.0,Hybrid-Dynamic Alpha,2,Allway Blend,0.977525115013,doorway_assistance,2
1449618396142199016,0.00575958653158,0.0,0.0,0.0,0.0,0.0,1.0,1449618396140545130,1,0.352,0.0,0.0,0.0,0.0,-0.147368421053,1,-0.0,0.0,0.0,0.0,0.0,-0.0,-0.0,0.0,0.0,0.0,0.0,-0.0,Hybrid-Dynamic Alpha,2,Allway Blend,0.977525115013,doorway_assistance,2
1449618396181113136,0.00575958653158,0.0,0.0,0.0,0.0,0.0,1.0,1449618396180529777,1,0.352,0.0,0.0,0.0,0.0,-0.147368421053,1,-0.0,0.0,0.0,0.0,0.0,-0.0,-0.0,0.0,0.0,0.0,0.0,-0.0,Hybrid-Dynamic Alpha,2,Allway Blend,0.977525115013,doorway_assistance,2
1449618396220940511,0.00575958653158,0.0,0.0,0.0,0.0,0.0,1.0,1449618396220535055,1,0.352,0.0,0.0,0.0,0.0,-0.147368421053,1,-0.0,0.0,0.0,0.0,0.0,-0.0,-0.0,0.0,0.0,0.0,0.0,-0.0,Hybrid-Dynamic Alpha,2,Allway Blend,0.977525115013,doorway_assistance,2
1449618396306795443,0.00575958653158,0.0,0.0,0.0,0.0,0.0,1.0,1449618396305285373,1,0.352,0.0,0.0,0.0,0.0,-0.147368421053,1,0.296126987457,0.0,0.0,0.0,0.0,0.0126984134316,0.297292173044,0.0,0.0,0.0,0.0,0.00936035163908,Hybrid-Dynamic Alpha,2,Allway Blend,0.979145824909,doorway_assistance,2
1449618396337364270,0.00575958653158,0.0,0.0,0.0,0.0,0.0,1.0,1449618396335829269,1,0.352,0.0,0.0,0.0,0.0,-0.147368421053,1,0.296126987457,0.0,0.0,0.0,0.0,0.0126984134316,0.297415217308,0.0,0.0,0.0,0.0,0.00900785040564,Hybrid-Dynamic Alpha,2,Allway Blend,0.976943612099,doorway_assistance,2
1449618396410770223,0.00575958653158,0.0,0.0,0.0,0.0,0.0,1.0,1449618396410030058,1,0.352,0.0,0.0,0.0,0.0,-0.147368421053,1,0.346412698746,0.0,0.0,0.0,0.0,0.0126984134316,0.346541521731,0.0,0.0,0.0,0.0,0.00900785040564,Hybrid-Dynamic Alpha,2,Allway Blend,0.976943612099,doorway_assistance,2
1449618396457751127,0.0115190122517,-3.04332289367e-05,0.0,0.0,0.0,0.0,1.0,1449618396449709618,1,0.352,0.0,0.0,0.0,0.0,-0.147368421053,1,0.346412698746,0.0,0.0,0.0,0.0,0.0126984134316,0.346547331091,0.0,0.0,0.0,0.0,0.00884142196717,Hybrid-Dynamic Alpha,2,Allway Blend,0.975903868675,doorway_assistance,2
1449618396457754583,0.0115190122517,-3.04332289367e-05,0.0,0.0,0.0,0.0,1.0,1449618396449886930,1,0.352,0.0,0.0,0.0,0.0,-0.147368421053,1,-0.0,0.0,0.0,0.0,0.0,-0.0,-0.0,0.0,0.0,0.0,0.0,-0.0,Hybrid-Dynamic Alpha,2,Allway Blend,0.975903868675,doorway_assistance,2
1449618396470845675,0.0115190122517,-3.04332289367e-05,0.0,0.0,0.0,0.0,1.0,1449618396460674085,1,0.352,0.0,0.0,0.0,0.0,-0.147368421053,1,-0.0,0.0,0.0,0.0,0.0,-0.0,-0.0,0.0,0.0,0.0,0.0,-0.0,Hybrid-Dynamic Alpha,2,Allway Blend,0.975903868675,doorway_assistance,2
1449618396502698128,0.0115190122517,-3.04332289367e-05,0.0,0.0,0.0,0.0,1.0,1449618396500542342,1,0.352,0.0,0.0,0.0,0.0,-0.147368421053,1,-0.0,0.0,0.0,0.0,0.0,-0.0,-0.0,0.0,0.0,0.0,0.0,-0.0,Hybrid-Dynamic Alpha,2,Allway Blend,0.975903868675,doorway_assistance,2
1449618396607117775,0.0115190122517,-3.04332289367e-05,0.0,0.0,0.0,0.0,1.0,1449618396598641595,1,0.352,0.0,0.0,0.0,0.0,-0.147368421053,1,0.340825397491,0.0,0.0,0.0,0.0,0.0126984134316,0.341094662181,0.0,0.0,0.0,0.0,0.00884142196717,Hybrid-Dynamic Alpha,2,Allway Blend,0.975903868675,doorway_assistance,2
1449618396628610386,0.0115190122517,-3.04332289367e-05,0.0,0.0,0.0,0.0,1.0,1449618396627341179,1,0.352,0.0,0.0,0.0,0.0,-0.105263157895,1,0.340825397491,0.0,0.0,0.0,0.0,0.0126984134316,0.341038496822,0.0,0.0,0.0,0.0,0.0104488898461,Hybrid-Dynamic Alpha,2,Allway Blend,0.980930030346,doorway_assistance,2
1449618396689701515,0.0115190122517,-3.04332289367e-05,0.0,0.0,0.0,0.0,1.0,1449618396687600970,1,0.352,0.0,0.0,0.0,0.0,-0.105263157895,1,0.301714288712,0.0,0.0,0.0,0.0,0.00634920671582,0.3026732357,0.0,0.0,0.0,0.0,0.00422076230968,Hybrid-Dynamic Alpha,2,Allway Blend,0.980930030346,doorway_assistance,2
1449618396724621026,0.00863937979737,0.0,0.0,0.0,0.0,-0.0052839997518,0.999986039576,1449618396723584849,1,0.352,0.0,0.0,0.0,0.0,-0.105263157895,1,0.301714288712,0.0,0.0,0.0,0.0,0.00634920671582,0.302665176062,0.0,0.0,0.0,0.0,0.00423865119234,Hybrid-Dynamic Alpha,2,Allway Blend,0.981090307236,doorway_assistance,2
1449618396820634084,0.00575958653158,0.0,0.0,0.0,0.0,0.0,1.0,1449618396819782590,1,0.352,0.0,0.0,0.0,0.0,-0.105263157895,1,0.346412698746,0.0,0.0,0.0,0.0,0.00634920671582,0.34651746504,0.0,0.0,0.0,0.0,0.00425638706485,Hybrid-Dynamic Alpha,2,Allway Blend,0.981249213219,doorway_assistance,2
1449618396851298404,0.00575958653158,0.0,0.0,0.0,0.0,0.0,1.0,1449618396850368272,1,0.352,0.0,0.0,0.0,0.0,-0.105263157895,1,0.346412698746,0.0,0.0,0.0,0.0,0.00634920671582,0.346531553171,0.0,0.0,0.0,0.0,0.00397496147791,Hybrid-Dynamic Alpha,2,Allway Blend,0.978727757931,doorway_assistance,2
1449618396895768373,0.00575958653158,0.0,0.0,0.0,0.0,0.0,1.0,1449618396894767414,1,0.352,0.0,0.0,0.0,0.0,-0.105263157895,1,0.340825397491,0.0,0.0,0.0,0.0,0.00634920671582,0.341063106341,0.0,0.0,0.0,0.0,0.00397496147791,Hybrid-Dynamic Alpha,2,Allway Blend,0.978727757931,doorway_assistance,2
1449618397016481321,0.00575958653158,0.0,0.0,0.0,0.0,0.0,1.0,1449618397002020883,1,0.352,0.0,0.0,0.0,0.0,-0.147368421053,1,0.340825397491,0.0,0.0,0.0,0.0,0.00634920671582,0.341063106341,0.0,0.0,0.0,0.0,0.00307928812762,Hybrid-Dynamic Alpha,2,Allway Blend,0.978727757931,doorway_assistance,2
1449618397040771339,0.00575958653158,0.0,0.0,0.0,0.0,0.0,1.0,1449618397040242364,1,0.352,0.0,0.0,0.0,0.0,-0.147368421053,1,0.346412698746,0.0,0.0,0.0,0.0,0.00634920671582,0.346531553171,0.0,0.0,0.0,0.0,0.00307928812762,Hybrid-Dynamic Alpha,2,Allway Blend,0.978727757931,doorway_assistance,2
1449618397043373205,0.00575958653158,0.0,0.0,0.0,0.0,0.0,1.0,1449618397042431038,1,0.352,0.0,0.0,0.0,0.0,-0.147368421053,1,-0.0,0.0,0.0,0.0,0.0,-0.0,-0.0,0.0,0.0,0.0,0.0,-0.0,Hybrid-Dynamic Alpha,2,Allway Blend,0.978727757931,doorway_assistance,2
1449618397083285341,0.00575958653158,0.0,0.0,0.0,0.0,0.0,1.0,1449618397082847915,1,0.352,0.0,0.0,0.0,0.0,-0.147368421053,1,-0.0,0.0,0.0,0.0,0.0,-0.0,-0.0,0.0,0.0,0.0,0.0,-0.0,Hybrid-Dynamic Alpha,2,Allway Blend,0.978727757931,doorway_assistance,2
1449618397132819389,0.00863921898595,-3.04332289367e-05,0.0,0.0,0.0,-0.0052839997518,0.999986039576,1449618397122476466,1,0.352,0.0,0.0,0.0,0.0,-0.147368421053,1,-0.0,0.0,0.0,0.0,0.0,-0.0,-0.0,0.0,0.0,0.0,0.0,-0.0,Hybrid-Dynamic Alpha,2,Allway Blend,0.978727757931,doorway_assistance,2
1449618397207234318,0.00863921898595,-3.04332289367e-05,0.0,0.0,0.0,-0.0052839997518,0.999986039576,1449618397204614345,1,0.352,0.0,0.0,0.0,0.0,-0.147368421053,1,0.346412698746,0.0,0.0,0.0,0.0,0.0126984134316,0.346532557919,0.0,0.0,0.0,0.0,0.00926464860845,Hybrid-Dynamic Alpha,2,Allway Blend,0.978547930717,doorway_assistance,2
1449618397232973025,0.0115190122517,-3.04332289367e-05,0.0,0.0,0.0,0.0,1.0,1449618397231796135,1,0.352,0.0,0.0,0.0,0.0,-0.147368421053,1,0.346412698746,0.0,0.0,0.0,0.0,0.0126984134316,0.346549540406,0.0,0.0,0.0,0.0,0.00877812878552,Hybrid-Dynamic Alpha,2,Allway Blend,0.975508451462,doorway_assistance,2
1449618397242595150,0.0115190122517,-3.04332289367e-05,0.0,0.0,0.0,0.0,1.0,1449618397242179791,1,0.352,0.0,0.0,0.0,0.0,-0.147368421053,1,-0.0,0.0,0.0,0.0,0.0,-0.0,-0.0,0.0,0.0,0.0,0.0,-0.0,Hybrid-Dynamic Alpha,2,Allway Blend,0.975508451462,doorway_assistance,2
1449618397283101863,0.0115190122517,-3.04332289367e-05,0.0,0.0,0.0,0.0,1.0,1449618397282174669,1,0.352,0.0,0.0,0.0,0.0,-0.147368421053,1,-0.0,0.0,0.0,0.0,0.0,-0.0,-0.0,0.0,0.0,0.0,0.0,-0.0,Hybrid-Dynamic Alpha,2,Allway Blend,0.975508451462,doorway_assistance,2
1449618397323085535,0.0115190122517,-3.04332289367e-05,0.0,0.0,0.0,0.0,1.0,1449618397322183499,1,0.352,0.0,0.0,0.0,0.0,-0.147368421053,1,-0.0,0.0,0.0,0.0,0.0,-0.0,-0.0,0.0,0.0,0.0,0.0,-0.0,Hybrid-Dynamic Alpha,2,Allway Blend,0.975508451462,doorway_assistance,2
1449618397363345163,0.0115190122517,-3.04332289367e-05,0.0,0.0,0.0,0.0,1.0,1449618397362174126,1,0.352,0.0,0.0,0.0,0.0,-0.147368421053,1,-0.0,0.0,0.0,0.0,0.0,-0.0,-0.0,0.0,0.0,0.0,0.0,-0.0,Hybrid-Dynamic Alpha,2,Allway Blend,0.975508451462,doorway_assistance,2
1449618397402496142,0.0172785987833,-3.04332289367e-05,0.0,0.0,0.0,0.0,1.0,1449618397402167553,1,0.352,0.0,0.0,0.0,0.0,-0.105263157895,1,-0.0,0.0,0.0,0.0,0.0,-0.0,-0.0,0.0,0.0,0.0,0.0,-0.0,Hybrid-Dynamic Alpha,2,Allway Blend,0.975508451462,doorway_assistance,2
1449618397507084347,0.0172785987833,-3.04332289367e-05,0.0,0.0,0.0,0.0,1.0,1449618397505900880,1,0.352,0.0,0.0,0.0,0.0,-0.105263157895,1,0.346412698746,0.0,0.0,0.0,0.0,0.0126984134316,0.346551849296,0.0,0.0,0.0,0.0,0.00976060555982,Hybrid-Dynamic Alpha,2,Allway Blend,0.97509521246,doorway_assistance,2
1449618397552657817,0.0172785987833,-3.04332289367e-05,0.0,0.0,0.0,0.0,1.0,1449618397551904873,1,0.352,0.0,0.0,0.0,0.0,-0.105263157895,1,0.346412698746,0.0,0.0,0.0,0.0,0.0126984134316,0.346551849296,0.0,0.0,0.0,0.0,0.00976060555982,Hybrid-Dynamic Alpha,2,Allway Blend,0.97509521246,doorway_assistance,2
1449618397552662099,0.0172785987833,-3.04332289367e-05,0.0,0.0,0.0,0.0,1.0,1449618397552034272,1,0.352,0.0,0.0,0.0,0.0,-0.105263157895,1,-0.0,0.0,0.0,0.0,0.0,-0.0,-0.0,0.0,0.0,0.0,0.0,-0.0,Hybrid-Dynamic Alpha,2,Allway Blend,0.97509521246,doorway_assistance,2
1449618397563074197,0.0172785987833,-3.04332289367e-05,0.0,0.0,0.0,0.0,1.0,1449618397562194914,1,0.352,0.0,0.0,0.0,0.0,-0.105263157895,1,-0.0,0.0,0.0,0.0,0.0,-0.0,-0.0,0.0,0.0,0.0,0.0,-0.0,Hybrid-Dynamic Alpha,2,Allway Blend,0.97509521246,doorway_assistance,2
1449618397604023859,0.0172785987833,-3.04332289367e-05,0.0,0.0,0.0,0.0,1.0,1449618397602183140,1,0.352,0.0,0.0,0.0,0.0,-0.105263157895,1,-0.0,0.0,0.0,0.0,0.0,-0.0,-0.0,0.0,0.0,0.0,0.0,-0.0,Hybrid-Dynamic Alpha,2,Allway Blend,0.97509521246,doorway_assistance,2
1449618397674781141,0.0172785987833,-3.04332289367e-05,0.0,0.0,0.0,0.0,1.0,1449618397673708529,1,0.352,0.0,0.0,0.0,0.0,-0.105263157895,1,0.346412698746,0.0,0.0,0.0,0.0,0.00634920671582,0.346539887557,0.0,0.0,0.0,0.0,0.00380847312628,Hybrid-Dynamic Alpha,2,Allway Blend,0.977236092091,doorway_assistance,2
1449618397782237059,0.0172785987833,-3.04332289367e-05,0.0,0.0,0.0,0.0,1.0,1449618397775587919,1,0.352,0.0,0.0,0.0,0.0,-0.105263157895,1,0.346412698746,0.0,0.0,0.0,0.0,0.00634920671582,0.346539887557,0.0,0.0,0.0,0.0,0.00380847312628,Hybrid-Dynamic Alpha,2,Allway Blend,0.977236092091,doorway_assistance,2
1449618397782732759,0.0172785987833,-3.04332289367e-05,0.0,0.0,0.0,0.0,1.0,1449618397775702358,1,0.352,0.0,0.0,0.0,0.0,-0.105263157895,1,-0.0,0.0,0.0,0.0,0.0,-0.0,-0.0,0.0,0.0,0.0,0.0,-0.0,Hybrid-Dynamic Alpha,2,Allway Blend,0.977236092091,doorway_assistance,2
1449618397816587510,0.0172785987833,-3.04332289367e-05,0.0,0.0,0.0,0.0,1.0,1449618397815777272,1,0.352,0.0,0.0,0.0,0.0,-0.105263157895,1,-0.0,0.0,0.0,0.0,0.0,-0.0,-0.0,0.0,0.0,0.0,0.0,-0.0,Hybrid-Dynamic Alpha,2,Allway Blend,0.977236092091,doorway_assistance,2
1449618397945440247,0.0172785987833,-3.04332289367e-05,0.0,0.0,0.0,0.0,1.0,1449618397942155238,1,0.352,0.0,0.0,0.0,0.0,-0.105263157895,1,0.340825397491,0.0,0.0,0.0,0.0,0.0126984134316,0.341089183852,0.0,0.0,0.0,0.0,0.00991382636609,Hybrid-Dynamic Alpha,2,Allway Blend,0.976394116879,doorway_assistance,2
1449618397986672032,0.0172785987833,-3.04332289367e-05,0.0,0.0,0.0,0.0,1.0,1449618397984965860,1,0.352,0.0,0.0,0.0,0.0,-0.105263157895,1,0.340825397491,0.0,0.0,0.0,0.0,0.0126984134316,0.341089183852,0.0,0.0,0.0,0.0,0.00991382636609,Hybrid-Dynamic Alpha,2,Allway Blend,0.976394116879,doorway_assistance,2
1449618397986678825,0.0172785987833,-3.04332289367e-05,0.0,0.0,0.0,0.0,1.0,1449618397985166347,1,0.352,0.0,0.0,0.0,0.0,-0.105263157895,1,-0.0,0.0,0.0,0.0,0.0,-0.0,-0.0,0.0,0.0,0.0,0.0,-0.0,Hybrid-Dynamic Alpha,2,Allway Blend,0.976394116879,doorway_assistance,2
1449618398029961359,0.0172785987833,-3.04332289367e-05,0.0,0.0,0.0,0.0,1.0,1449618398022362294,1,0.352,0.0,0.0,0.0,0.0,-0.105263157895,1,-0.0,0.0,0.0,0.0,0.0,-0.0,-0.0,0.0,0.0,0.0,0.0,-0.0,Hybrid-Dynamic Alpha,2,Allway Blend,0.976394116879,doorway_assistance,2
1449618398063436870,0.0172785987833,-3.04332289367e-05,0.0,0.0,0.0,0.0,1.0,1449618398062372068,1,0.352,0.0,0.0,0.0,0.0,-0.105263157895,1,-0.0,0.0,0.0,0.0,0.0,-0.0,-0.0,0.0,0.0,0.0,0.0,-0.0,Hybrid-Dynamic Alpha,2,Allway Blend,0.976394116879,doorway_assistance,2
1449618398104212054,0.0172785987833,-3.04332289367e-05,0.0,0.0,0.0,0.0,1.0,1449618398102344300,1,0.352,0.0,0.0,0.0,0.0,-0.105263157895,1,-0.0,0.0,0.0,0.0,0.0,-0.0,-0.0,0.0,0.0,0.0,0.0,-0.0,Hybrid-Dynamic Alpha,2,Allway Blend,0.976394116879,doorway_assistance,2
1449618398174969979,0.0172785987833,-3.04332289367e-05,0.0,0.0,0.0,0.0,1.0,1449618398173373642,1,0.352,0.0,0.0,0.0,0.0,-0.105263157895,1,0.346412698746,0.0,0.0,0.0,0.0,0.00634920671582,0.34654667136,0.0,0.0,0.0,0.0,0.0036729593517,Hybrid-Dynamic Alpha,2,Allway Blend,0.976021945477,doorway_assistance,2
1449618398259399704,0.0172785987833,-3.04332289367e-05,0.0,0.0,0.0,0.0,1.0,1449618398257670328,1,0.352,0.0,0.0,0.0,0.0,-0.105263157895,1,0.346412698746,0.0,0.0,0.0,0.0,0.00634920671582,0.346546965092,0.0,0.0,0.0,0.0,0.00366709174496,Hybrid-Dynamic Alpha,2,Allway Blend,0.97596937418,doorway_assistance,2
1449618398361908286,0.0172785987833,-3.04332289367e-05,0.0,0.0,0.0,0.0,1.0,1449618398354887712,1,0.352,0.0,0.0,0.0,0.0,-0.105263157895,1,0.346412698746,0.0,0.0,0.0,0.0,0.00634920671582,0.346542640709,0.0,0.0,0.0,0.0,0.00375347595522,Hybrid-Dynamic Alpha,2,Allway Blend,0.976743340492,doorway_assistance,2
1449618398432881848,0.0172785987833,-3.04332289367e-05,0.0,0.0,0.0,0.0,1.0,1449618398432157160,1,0.352,0.0,0.0,0.0,0.0,-0.105263157895,1,0.31288889122,0.0,0.0,0.0,0.0,0.00634920671582,0.31379848496,0.0,0.0,0.0,0.0,0.00375347595522,Hybrid-Dynamic Alpha,2,Allway Blend,0.976743340492,doorway_assistance,2
1449618398484654668,0.0172785987833,-3.04332289367e-05,0.0,0.0,0.0,0.0,1.0,1449618398483474608,1,0.352,0.0,0.0,0.0,0.0,-0.105263157895,1,0.346412698746,0.0,0.0,0.0,0.0,0.00634920671582,0.346542640709,0.0,0.0,0.0,0.0,0.00375347595522,Hybrid-Dynamic Alpha,2,Allway Blend,0.976743340492,doorway_assistance,2
1449618398526327214,0.0172785987833,-3.04332289367e-05,0.0,0.0,0.0,0.0,1.0,1449618398524512389,1,0.352,0.0,0.0,0.0,0.0,-0.105263157895,1,0.346412698746,0.0,0.0,0.0,0.0,0.00634920671582,0.346552986258,0.0,0.0,0.0,0.0,0.00354681245952,Hybrid-Dynamic Alpha,2,Allway Blend,0.974891722202,doorway_assistance,2
1449618398570811473,0.0172785987833,-3.04332289367e-05,0.0,0.0,0.0,0.0,1.0,1449618398570300973,1,0.352,0.0,0.0,0.0,0.0,-0.105263157895,1,0.301714288712,0.0,0.0,0.0,0.0,0.00634920671582,0.30297687632,0.0,0.0,0.0,0.0,0.00354681245952,Hybrid-Dynamic Alpha,2,Allway Blend,0.974891722202,doorway_assistance,2
1449618398603349988,0.0172785987833,-3.04332289367e-05,0.0,0.0,0.0,0.0,1.0,1449618398602466588,1,0.352,0.0,0.0,0.0,0.0,-0.105263157895,1,0.301714288712,0.0,0.0,0.0,0.0,0.00634920671582,0.30297687632,0.0,0.0,0.0,0.0,0.00354681245952,Hybrid-Dynamic Alpha,2,Allway Blend,0.974891722202,doorway_assistance,2
1449618398624813879,0.0172785987833,-3.04332289367e-05,0.0,0.0,0.0,0.0,1.0,1449618398624478189,1,0.352,0.0,0.0,0.0,0.0,-0.105263157895,1,0.346412698746,0.0,0.0,0.0,0.0,0.00634920671582,0.346552986258,0.0,0.0,0.0,0.0,0.00354681245952,Hybrid-Dynamic Alpha,2,Allway Blend,0.974891722202,doorway_assistance,2
1449618398689889470,0.0172785987833,-3.04332289367e-05,0.0,0.0,0.0,0.0,1.0,1449618398686207085,1,0.352,0.0,0.0,0.0,0.0,-0.105263157895,1,0.346412698746,0.0,0.0,0.0,0.0,0.00634920671582,0.346552986258,0.0,0.0,0.0,0.0,0.00354681245952,Hybrid-Dynamic Alpha,2,Allway Blend,0.974891722202,doorway_assistance,2
1449618398720411385,0.0172785987833,-3.04332289367e-05,0.0,0.0,0.0,0.0,1.0,1449618398718257539,1,0.352,0.0,0.0,0.0,0.0,-0.105263157895,1,0.346412698746,0.0,0.0,0.0,0.0,0.00634920671582,0.346552986258,0.0,0.0,0.0,0.0,0.00354681245952,Hybrid-Dynamic Alpha,2,Allway Blend,0.974891722202,doorway_assistance,2
1449618398760318913,0.0172785987833,-3.04332289367e-05,0.0,0.0,0.0,0.0,1.0,1449618398759325077,1,0.352,0.0,0.0,0.0,0.0,-0.105263157895,1,0.301714288712,0.0,0.0,0.0,0.0,0.00634920671582,0.302992222301,0.0,0.0,0.0,0.0,0.00351275106896,Hybrid-Dynamic Alpha,2,Allway Blend,0.974586546421,doorway_assistance,2
1449618398839972812,0.0172785987833,-3.04332289367e-05,0.0,0.0,0.0,0.0,1.0,1449618398839169297,1,0.352,0.0,0.0,0.0,0.0,-0.105263157895,1,0.301714288712,0.0,0.0,0.0,0.0,0.00634920671582,0.302992222301,0.0,0.0,0.0,0.0,0.00351275106896,Hybrid-Dynamic Alpha,2,Allway Blend,0.974586546421,doorway_assistance,2
1449618398880174255,0.0172785987833,-3.04332289367e-05,0.0,0.0,0.0,0.0,1.0,1449618398879238726,1,0.352,0.0,0.0,0.0,0.0,-0.105263157895,1,0.340825397491,0.0,0.0,0.0,0.0,0.0126984134316,0.341109382734,0.0,0.0,0.0,0.0,0.00970060251464,Hybrid-Dynamic Alpha,2,Allway Blend,0.974586546421,doorway_assistance,2
1449618398957874470,0.0172785987833,-3.04332289367e-05,0.0,0.0,0.0,0.0,1.0,1449618398954117895,1,0.352,0.0,0.0,0.0,0.0,-0.105263157895,1,0.340825397491,0.0,0.0,0.0,0.0,0.0126984134316,0.341073482862,0.0,0.0,0.0,0.0,0.0100795694859,Hybrid-Dynamic Alpha,2,Allway Blend,0.97779917717,doorway_assistance,2
1449618398957880381,0.0172785987833,-3.04332289367e-05,0.0,0.0,0.0,0.0,1.0,1449618398954319821,1,0.352,0.0,0.0,0.0,0.0,-0.105263157895,1,-0.0,0.0,0.0,0.0,0.0,-0.0,-0.0,0.0,0.0,0.0,0.0,-0.0,Hybrid-Dynamic Alpha,2,Allway Blend,0.97779917717,doorway_assistance,2
1449618398996343820,0.0172785987833,-3.04332289367e-05,0.0,0.0,0.0,0.0,1.0,1449618398994436559,1,0.352,0.0,0.0,0.0,0.0,-0.105263157895,1,-0.0,0.0,0.0,0.0,0.0,-0.0,-0.0,0.0,0.0,0.0,0.0,-0.0,Hybrid-Dynamic Alpha,2,Allway Blend,0.97779917717,doorway_assistance,2
1449618399083785888,0.0172785987833,-3.04332289367e-05,0.0,0.0,0.0,0.0,1.0,1449618399083030358,1,0.352,0.0,0.0,0.0,0.0,-0.105263157895,1,0.346412698746,0.0,0.0,0.0,0.0,0.00634920671582,0.346536741431,0.0,0.0,0.0,0.0,0.00387132038344,Hybrid-Dynamic Alpha,2,Allway Blend,0.97779917717,doorway_assistance,2
1449618399126015269,0.0230380245035,1.01643953671e-20,0.0,0.0,0.0,0.0,1.0,1449618399123891902,1,0.352,0.0,0.0,0.0,0.0,-0.105263157895,1,0.346412698746,0.0,0.0,0.0,0.0,0.00634920671582,0.346526099153,0.0,0.0,0.0,0.0,0.00408391135941,Hybrid-Dynamic Alpha,2,Allway Blend,0.979703903198,doorway_assistance,2
1449618399126023963,0.0230380245035,1.01643953671e-20,0.0,0.0,0.0,0.0,1.0,1449618399124061618,1,0.352,0.0,0.0,0.0,0.0,-0.105263157895,1,-0.0,0.0,0.0,0.0,0.0,-0.0,-0.0,0.0,0.0,0.0,0.0,-0.0,Hybrid-Dynamic Alpha,2,Allway Blend,0.979703903198,doorway_assistance,2
1449618399156909868,0.0230380245035,1.01643953671e-20,0.0,0.0,0.0,0.0,1.0,1449618399154388779,1,0.352,0.0,0.0,0.0,0.0,-0.105263157895,1,-0.0,0.0,0.0,0.0,0.0,-0.0,-0.0,0.0,0.0,0.0,0.0,-0.0,Hybrid-Dynamic Alpha,2,Allway Blend,0.979703903198,doorway_assistance,2
1449618399195371930,0.0230380245035,1.01643953671e-20,0.0,0.0,0.0,0.0,1.0,1449618399194391752,1,0.352,0.0,0.0,0.0,0.0,-0.105263157895,1,-0.0,0.0,0.0,0.0,0.0,-0.0,-0.0,0.0,0.0,0.0,0.0,-0.0,Hybrid-Dynamic Alpha,2,Allway Blend,0.979703903198,doorway_assistance,2
1449618399236320998,0.0287976110351,1.01643953671e-20,0.0,0.0,0.0,0.0,1.0,1449618399234392403,1,0.352,0.0,0.0,0.0,0.0,-0.105263157895,1,-0.0,0.0,0.0,0.0,0.0,-0.0,-0.0,0.0,0.0,0.0,0.0,-0.0,Hybrid-Dynamic Alpha,2,Allway Blend,0.979703903198,doorway_assistance,2
1449618399274836157,0.0287976110351,1.01643953671e-20,0.0,0.0,0.0,0.0,1.0,1449618399274383383,1,0.352,0.0,0.0,0.0,0.0,-0.105263157895,1,-0.0,0.0,0.0,0.0,0.0,-0.0,-0.0,0.0,0.0,0.0,0.0,-0.0,Hybrid-Dynamic Alpha,2,Allway Blend,0.979703903198,doorway_assistance,2
1449618399319299323,0.0316772434894,3.04332289367e-05,0.0,0.0,0.0,0.0052839997518,0.999986039576,1449618399315835524,1,0.352,0.0,0.0,0.0,0.0,-0.105263157895,1,-0.0,0.0,0.0,0.0,0.0,-0.0,-0.0,0.0,0.0,0.0,0.0,-0.0,Hybrid-Dynamic Alpha,2,Allway Blend,0.979703903198,doorway_assistance,2
1449618399355286750,0.0345570367552,3.04332289367e-05,0.0,0.0,0.0,0.0,1.0,1449618399354392863,1,0.352,0.0,0.0,0.0,0.0,-0.105263157895,1,-0.0,0.0,0.0,0.0,0.0,-0.0,-0.0,0.0,0.0,0.0,0.0,-0.0,Hybrid-Dynamic Alpha,2,Allway Blend,0.979703903198,doorway_assistance,2
1449618399396005328,0.0345570367552,3.04332289367e-05,0.0,0.0,0.0,0.0,1.0,1449618399395010780,1,0.352,0.0,0.0,0.0,0.0,-0.105263157895,1,-0.0,0.0,0.0,0.0,0.0,-0.0,-0.0,0.0,0.0,0.0,0.0,-0.0,Hybrid-Dynamic Alpha,2,Allway Blend,0.979703903198,doorway_assistance,2
1449618399462184789,0.0374366692096,6.08664578733e-05,0.0,0.0,0.0,0.0052839997518,0.999986039576,1449618399461617833,1,0.352,0.0,0.0,0.0,0.0,-0.147368421053,1,0.346412698746,0.0,0.0,0.0,0.0,0.00634920671582,0.346549535077,0.0,0.0,0.0,0.0,0.00258457057071,Hybrid-Dynamic Alpha,2,Allway Blend,0.975509405136,doorway_assistance,2
1449618399630449552,0.0431960949298,9.129968681e-05,0.0,0.0,0.0,0.0052839997518,0.999986039576,1449618399629035462,1,0.352,0.0,0.0,0.0,0.0,-0.147368421053,1,0.346412698746,0.0,0.0,0.0,0.0,0.00634920671582,0.346562519549,0.0,0.0,0.0,0.0,0.00222734225648,Hybrid-Dynamic Alpha,2,Allway Blend,0.973185479641,doorway_assistance,2
1449618399630583821,0.0489553598385,0.000152166144683,0.0,0.0,0.0,0.0052839997518,0.999986039576,1449618399629119678,1,0.352,0.0,0.0,0.0,0.0,-0.147368421053,1,-0.0,0.0,0.0,0.0,0.0,-0.0,-0.0,0.0,0.0,0.0,0.0,-0.0,Hybrid-Dynamic Alpha,2,Allway Blend,0.973185479641,doorway_assistance,2
1449618399670645927,0.0489553598385,0.000152166144683,0.0,0.0,0.0,0.0052839997518,0.999986039576,1449618399669194843,1,0.352,0.0,0.0,0.0,0.0,-0.147368421053,1,-0.0,0.0,0.0,0.0,0.0,-0.0,-0.0,0.0,0.0,0.0,0.0,-0.0,Hybrid-Dynamic Alpha,2,Allway Blend,0.973185479641,doorway_assistance,2
1449618399780208335,0.0489553598385,0.000152166144683,0.0,0.0,0.0,0.0052839997518,0.999986039576,1449618399779800396,1,0.352,0.0,0.0,0.0,0.0,-0.105263157895,1,0.346412698746,0.0,0.0,0.0,0.0,0.0126984134316,0.346565038581,0.0,0.0,0.0,0.0,0.00948214755637,Hybrid-Dynamic Alpha,2,Allway Blend,0.972734630108,doorway_assistance,2
1449618399780214086,0.0489553598385,0.000152166144683,0.0,0.0,0.0,0.0052839997518,0.999986039576,1449618399779927754,1,0.352,0.0,0.0,0.0,0.0,-0.105263157895,1,-0.0,0.0,0.0,0.0,0.0,-0.0,-0.0,0.0,0.0,0.0,0.0,-0.0,Hybrid-Dynamic Alpha,2,Allway Blend,0.972734630108,doorway_assistance,2
1449618399790340022,0.0489553598385,0.000152166144683,0.0,0.0,0.0,0.0052839997518,0.999986039576,1449618399789198573,1,0.352,0.0,0.0,0.0,0.0,-0.105263157895,1,-0.0,0.0,0.0,0.0,0.0,-0.0,-0.0,0.0,0.0,0.0,0.0,-0.0,Hybrid-Dynamic Alpha,2,Allway Blend,0.972734630108,doorway_assistance,2
1449618399831945469,0.0489553598385,0.000152166144683,0.0,0.0,0.0,0.0052839997518,0.999986039576,1449618399829190193,1,0.352,0.0,0.0,0.0,0.0,-0.105263157895,1,-0.0,0.0,0.0,0.0,0.0,-0.0,-0.0,0.0,0.0,0.0,0.0,-0.0,Hybrid-Dynamic Alpha,2,Allway Blend,0.972734630108,doorway_assistance,2
1449618399870691678,0.0489553598385,0.000152166144683,0.0,0.0,0.0,0.0052839997518,0.999986039576,1449618399869204113,1,0.352,0.0,0.0,0.0,0.0,-0.105263157895,1,-0.0,0.0,0.0,0.0,0.0,-0.0,-0.0,0.0,0.0,0.0,0.0,-0.0,Hybrid-Dynamic Alpha,2,Allway Blend,0.972734630108,doorway_assistance,2
1449618399909781063,0.0489553598385,0.000152166144683,0.0,0.0,0.0,0.0052839997518,0.999986039576,1449618399909189400,1,0.352,0.0,0.0,0.0,0.0,-0.105263157895,1,-0.0,0.0,0.0,0.0,0.0,-0.0,-0.0,0.0,0.0,0.0,0.0,-0.0,Hybrid-Dynamic Alpha,2,Allway Blend,0.972734630108,doorway_assistance,2
1449618399951256352,0.0489553598385,0.000152166144683,0.0,0.0,0.0,0.0052839997518,0.999986039576,1449618399949198592,1,0.352,0.0,0.0,0.0,0.0,-0.105263157895,1,-0.0,0.0,0.0,0.0,0.0,-0.0,-0.0,0.0,0.0,0.0,0.0,-0.0,Hybrid-Dynamic Alpha,2,Allway Blend,0.972734630108,doorway_assistance,2
1449618399990669674,0.0489553598385,0.000152166144683,0.0,0.0,0.0,0.0052839997518,0.999986039576,1449618399989205648,1,0.352,0.0,0.0,0.0,0.0,-0.105263157895,1,-0.0,0.0,0.0,0.0,0.0,-0.0,-0.0,0.0,0.0,0.0,0.0,-0.0,Hybrid-Dynamic Alpha,2,Allway Blend,0.972734630108,doorway_assistance,2
1449618400029859370,0.0489553598385,0.000152166144683,0.0,0.0,0.0,0.0052839997518,0.999986039576,1449618400029195731,1,0.352,0.0,0.0,0.0,0.0,-0.105263157895,1,-0.0,0.0,0.0,0.0,0.0,-0.0,-0.0,0.0,0.0,0.0,0.0,-0.0,Hybrid-Dynamic Alpha,2,Allway Blend,0.972734630108,doorway_assistance,2
1449618400145529583,0.0489553598385,0.000152166144683,0.0,0.0,0.0,0.0052839997518,0.999986039576,1449618400143541644,1,0.352,0.0,0.0,0.0,0.0,-0.105263157895,1,0.346412698746,0.0,0.0,0.0,0.0,0.00634920671582,0.346564530046,0.0,0.0,0.0,0.0,0.00331621285381,Hybrid-Dynamic Alpha,2,Allway Blend,0.9728256464,doorway_assistance,2
1449618400190046372,0.0489553598385,0.000152166144683,0.0,0.0,0.0,0.0052839997518,0.999986039576,1449618400189278874,1,0.352,0.0,0.0,0.0,0.0,-0.147368421053,1,0.346412698746,0.0,0.0,0.0,0.0,0.00634920671582,0.346564530046,0.0,0.0,0.0,0.0,0.00217202954436,Hybrid-Dynamic Alpha,2,Allway Blend,0.9728256464,doorway_assistance,2
1449618400225758845,0.0489553598385,0.000152166144683,0.0,0.0,0.0,0.0052839997518,0.999986039576,1449618400223411360,1,0.352,0.0,0.0,0.0,0.0,-0.147368421053,1,0.346412698746,0.0,0.0,0.0,0.0,0.00634920671582,0.346556788118,0.0,0.0,0.0,0.0,0.00238502517443,Hybrid-Dynamic Alpha,2,Allway Blend,0.974211275578,doorway_assistance,2
1449618400305694282,0.0489553598385,0.000152166144683,0.0,0.0,0.0,0.0052839997518,0.999986039576,1449618400301603794,1,0.352,0.0,0.0,0.0,0.0,-0.105263157895,1,0.340825397491,0.0,0.0,0.0,0.0,0.0126984134316,0.341113576236,0.0,0.0,0.0,0.0,0.00965633497627,Hybrid-Dynamic Alpha,2,Allway Blend,0.974211275578,doorway_assistance,2
1449618400334710600,0.0489553598385,0.000152166144683,0.0,0.0,0.0,0.0052839997518,0.999986039576,1449618400333823082,1,0.352,0.0,0.0,0.0,0.0,-0.105263157895,1,0.340825397491,0.0,0.0,0.0,0.0,0.0126984134316,0.341113576236,0.0,0.0,0.0,0.0,0.00965633497627,Hybrid-Dynamic Alpha,2,Allway Blend,0.974211275578,doorway_assistance,2
1449618400373298819,0.0489553598385,0.000152166144683,0.0,0.0,0.0,0.0052839997518,0.999986039576,1449618400368143031,1,0.352,0.0,0.0,0.0,0.0,-0.105263157895,1,0.346412698746,0.0,0.0,0.0,0.0,0.00634920671582,0.346556788118,0.0,0.0,0.0,0.0,0.00347086620274,Hybrid-Dynamic Alpha,2,Allway Blend,0.974211275578,doorway_assistance,2
1449618400477104641,0.0489553598385,0.000152166144683,0.0,0.0,0.0,0.0052839997518,0.999986039576,1449618400476180848,1,0.352,0.0,0.0,0.0,0.0,-0.105263157895,1,0.346412698746,0.0,0.0,0.0,0.0,0.00634920671582,0.346556788118,0.0,0.0,0.0,0.0,0.00347086620274,Hybrid-Dynamic Alpha,2,Allway Blend,0.974211275578,doorway_assistance,2
1449618400477111235,0.0489553598385,0.000152166144683,0.0,0.0,0.0,0.0052839997518,0.999986039576,1449618400476321398,1,0.352,0.0,0.0,0.0,0.0,-0.105263157895,1,-0.0,0.0,0.0,0.0,0.0,-0.0,-0.0,0.0,0.0,0.0,0.0,-0.0,Hybrid-Dynamic Alpha,2,Allway Blend,0.974211275578,doorway_assistance,2
1449618400517784882,0.0489553598385,0.000152166144683,0.0,0.0,0.0,0.0052839997518,0.999986039576,1449618400516727851,1,0.352,0.0,0.0,0.0,0.0,-0.105263157895,1,-0.0,0.0,0.0,0.0,0.0,-0.0,-0.0,0.0,0.0,0.0,0.0,-0.0,Hybrid-Dynamic Alpha,2,Allway Blend,0.974211275578,doorway_assistance,2
1449618400557547973,0.0489553598385,0.000152166144683,0.0,0.0,0.0,0.0052839997518,0.999986039576,1449618400556405248,1,0.352,0.0,0.0,0.0,0.0,-0.105263157895,1,-0.0,0.0,0.0,0.0,0.0,-0.0,-0.0,0.0,0.0,0.0,0.0,-0.0,Hybrid-Dynamic Alpha,2,Allway Blend,0.974211275578,doorway_assistance,2
1449618400605694431,0.0489553598385,0.000152166144683,0.0,0.0,0.0,0.0052839997518,0.999986039576,1449618400596386523,1,0.352,0.0,0.0,0.0,0.0,-0.105263157895,1,-0.0,0.0,0.0,0.0,0.0,-0.0,-0.0,0.0,0.0,0.0,0.0,-0.0,Hybrid-Dynamic Alpha,2,Allway Blend,0.974211275578,doorway_assistance,2
1449618400644714822,0.0489553598385,0.000152166144683,0.0,0.0,0.0,0.0052839997518,0.999986039576,1449618400636383963,1,0.352,0.0,0.0,0.0,0.0,-0.105263157895,1,-0.0,0.0,0.0,0.0,0.0,-0.0,-0.0,0.0,0.0,0.0,0.0,-0.0,Hybrid-Dynamic Alpha,2,Allway Blend,0.974211275578,doorway_assistance,2
1449618400678362527,0.0489553598385,0.000152166144683,0.0,0.0,0.0,0.0052839997518,0.999986039576,1449618400676926008,1,0.352,0.0,0.0,0.0,0.0,-0.105263157895,1,-0.0,0.0,0.0,0.0,0.0,-0.0,-0.0,0.0,0.0,0.0,0.0,-0.0,Hybrid-Dynamic Alpha,2,Allway Blend,0.974211275578,doorway_assistance,2
1449618400718153231,0.0489553598385,0.000152166144683,0.0,0.0,0.0,0.0052839997518,0.999986039576,1449618400716401462,1,0.352,0.0,0.0,0.0,0.0,-0.105263157895,1,-0.0,0.0,0.0,0.0,0.0,-0.0,-0.0,0.0,0.0,0.0,0.0,-0.0,Hybrid-Dynamic Alpha,2,Allway Blend,0.974211275578,doorway_assistance,2
1449618400795721858,0.0489553598385,0.000152166144683,0.0,0.0,0.0,0.0052839997518,0.999986039576,1449618400793444869,1,0.352,0.0,0.0,0.0,0.0,-0.105263157895,1,0.346412698746,0.0,0.0,0.0,0.0,0.00634920671582,0.346566576843,0.0,0.0,0.0,0.0,0.0032753258799,Hybrid-Dynamic Alpha,2,Allway Blend,0.972459316254,doorway_assistance,2
1449618400886946136,0.0489553598385,0.000152166144683,0.0,0.0,0.0,0.0052839997518,0.999986039576,1449618400885792782,1,0.352,0.0,0.0,0.0,0.0,-0.105263157895,1,0.346412698746,0.0,0.0,0.0,0.0,0.00634920671582,0.346560637268,0.0,0.0,0.0,0.0,0.00339397527458,Hybrid-Dynamic Alpha,2,Allway Blend,0.973522365093,doorway_assistance,2
1449618400939632521,0.0489553598385,0.000152166144683,0.0,0.0,0.0,0.0052839997518,0.999986039576,1449618400938333619,1,0.352,0.0,0.0,0.0,0.0,-0.105263157895,1,0.346412698746,0.0,0.0,0.0,0.0,0.0126984134316,0.346560637268,0.0,0.0,0.0,0.0,0.00957507001304,Hybrid-Dynamic Alpha,2,Allway Blend,0.973522365093,doorway_assistance,2
1449618401037177770,0.0489553598385,0.000152166144683,0.0,0.0,0.0,0.0052839997518,0.999986039576,1449618401035207315,1,0.352,0.0,0.0,0.0,0.0,-0.147368421053,1,0.346412698746,0.0,0.0,0.0,0.0,0.00634920671582,0.346560637268,0.0,0.0,0.0,0.0,0.00227912748903,Hybrid-Dynamic Alpha,2,Allway Blend,0.973522365093,doorway_assistance,2
1449618401071322116,0.0489553598385,0.000152166144683,0.0,0.0,0.0,0.0052839997518,0.999986039576,1449618401069786308,1,0.352,0.0,0.0,0.0,0.0,-0.147368421053,1,0.346412698746,0.0,0.0,0.0,0.0,0.00634920671582,0.346562601141,0.0,0.0,0.0,0.0,0.00222509749676,Hybrid-Dynamic Alpha,2,Allway Blend,0.973170876503,doorway_assistance,2
1449618401076247210,0.0489553598385,0.000152166144683,0.0,0.0,0.0,0.0052839997518,0.999986039576,1449618401075462393,1,0.352,0.0,0.0,0.0,0.0,-0.147368421053,1,-0.0,0.0,0.0,0.0,0.0,-0.0,-0.0,0.0,0.0,0.0,0.0,-0.0,Hybrid-Dynamic Alpha,2,Allway Blend,0.973170876503,doorway_assistance,2
1449618401166370440,0.0489553598385,0.000152166144683,0.0,0.0,0.0,0.0052839997518,0.999986039576,1449618401165478429,1,0.352,0.0,0.0,0.0,0.0,-0.147368421053,1,0.346412698746,0.0,0.0,0.0,0.0,0.00634920671582,0.346562601141,0.0,0.0,0.0,0.0,0.00222509749676,Hybrid-Dynamic Alpha,2,Allway Blend,0.973170876503,doorway_assistance,2
1449618401212935260,0.0489553598385,0.000152166144683,0.0,0.0,0.0,0.0052839997518,0.999986039576,1449618401210219667,1,0.352,0.0,0.0,0.0,0.0,-0.147368421053,1,0.346412698746,0.0,0.0,0.0,0.0,0.00634920671582,0.346562601141,0.0,0.0,0.0,0.0,0.00222509749676,Hybrid-Dynamic Alpha,2,Allway Blend,0.973170876503,doorway_assistance,2
1449618401244950066,0.0489553598385,0.000152166144683,0.0,0.0,0.0,0.0052839997518,0.999986039576,1449618401243282381,1,0.352,0.0,0.0,0.0,0.0,-0.147368421053,1,0.346412698746,0.0,0.0,0.0,0.0,0.00634920671582,0.34656677333,0.0,0.0,0.0,0.0,0.0021103123953,Hybrid-Dynamic Alpha,2,Allway Blend,0.972424149513,doorway_assistance,2
1449618401244957047,0.0489553598385,0.000152166144683,0.0,0.0,0.0,0.0052839997518,0.999986039576,1449618401243385512,1,0.352,0.0,0.0,0.0,0.0,-0.147368421053,1,0.0,0.0,0.0,0.0,0.0,0.0,0.0,0.0,0.0,0.0,0.0,0.0,Hybrid-Dynamic Alpha,2,Allway Blend,0.972424149513,doorway_assistance,2
1449618401296019517,0.0489553598385,0.000152166144683,0.0,0.0,0.0,0.0052839997518,0.999986039576,1449618401275412857,1,0.352,0.0,0.0,0.0,0.0,-0.147368421053,1,0.0,0.0,0.0,0.0,0.0,0.0,0.0,0.0,0.0,0.0,0.0,0.0,Hybrid-Dynamic Alpha,2,Allway Blend,0.972424149513,doorway_assistance,2
1449618401317734402,0.0489553598385,0.000152166144683,0.0,0.0,0.0,0.0052839997518,0.999986039576,1449618401315411118,1,0.352,0.0,0.0,0.0,0.0,-0.105263157895,1,0.0,0.0,0.0,0.0,0.0,0.0,0.0,0.0,0.0,0.0,0.0,0.0,Hybrid-Dynamic Alpha,2,Allway Blend,0.972424149513,doorway_assistance,2
1449618401356097892,0.0489553598385,0.000152166144683,0.0,0.0,0.0,0.0052839997518,0.999986039576,1449618401355419711,1,0.352,0.0,0.0,0.0,0.0,-0.105263157895,1,0.0,0.0,0.0,0.0,0.0,0.0,0.0,0.0,0.0,0.0,0.0,0.0,Hybrid-Dynamic Alpha,2,Allway Blend,0.972424149513,doorway_assistance,2
1449618401399111979,0.0489553598385,0.000152166144683,0.0,0.0,0.0,0.0052839997518,0.999986039576,1449618401396583836,1,0.352,0.0,0.0,0.0,0.0,-0.105263157895,1,0.0,0.0,0.0,0.0,0.0,0.0,0.0,0.0,0.0,0.0,0.0,0.0,Hybrid-Dynamic Alpha,2,Allway Blend,0.972424149513,doorway_assistance,2
1449618401436723802,0.0518345098766,0.000213029203694,0.0,0.0,0.0,0.0105678519699,0.999944158693,1449618401435406895,1,0.352,0.0,0.0,0.0,0.0,-0.105263157895,1,0.0,0.0,0.0,0.0,0.0,0.0,0.0,0.0,0.0,0.0,0.0,0.0,Hybrid-Dynamic Alpha,2,Allway Blend,0.972424149513,doorway_assistance,2
1449618401479201986,0.0518345098766,0.000213029203694,0.0,0.0,0.0,0.0105678519699,0.999944158693,1449618401475706503,1,0.352,0.0,0.0,0.0,0.0,-0.105263157895,1,0.0,0.0,0.0,0.0,0.0,0.0,0.0,0.0,0.0,0.0,0.0,0.0,Hybrid-Dynamic Alpha,2,Allway Blend,0.972424149513,doorway_assistance,2
1449618401526059188,0.054714142331,0.000243462432631,0.0,0.0,0.0,0.0052839997518,0.999986039576,1449618401515413200,1,0.352,0.0,0.0,0.0,0.0,-0.105263157895,1,0.0,0.0,0.0,0.0,0.0,0.0,0.0,0.0,0.0,0.0,0.0,0.0,Hybrid-Dynamic Alpha,2,Allway Blend,0.972424149513,doorway_assistance,2
1449618401560885381,0.054714142331,0.000243462432631,0.0,0.0,0.0,0.0052839997518,0.999986039576,1449618401555407689,1,0.352,0.0,0.0,0.0,0.0,-0.147368421053,1,0.0,0.0,0.0,0.0,0.0,0.0,0.0,0.0,0.0,0.0,0.0,0.0,Hybrid-Dynamic Alpha,2,Allway Blend,0.972424149513,doorway_assistance,2
1449618401596172397,0.054714142331,0.000243462432631,0.0,0.0,0.0,0.0052839997518,0.999986039576,1449618401595417121,1,0.352,0.0,0.0,0.0,0.0,-0.147368421053,1,0.0,0.0,0.0,0.0,0.0,0.0,0.0,0.0,0.0,0.0,0.0,0.0,Hybrid-Dynamic Alpha,2,Allway Blend,0.972424149513,doorway_assistance,2
1449618401638739727,0.054714142331,0.000243462432631,0.0,0.0,0.0,0.0052839997518,0.999986039576,1449618401636753540,1,0.352,0.0,0.0,0.0,0.0,-0.147368421053,1,0.0,0.0,0.0,0.0,0.0,0.0,0.0,0.0,0.0,0.0,0.0,0.0,Hybrid-Dynamic Alpha,2,Allway Blend,0.972424149513,doorway_assistance,2
1449618401676562731,0.054714142331,0.000243462432631,0.0,0.0,0.0,0.0052839997518,0.999986039576,1449618401675412444,1,0.352,0.0,0.0,0.0,0.0,-0.147368421053,1,0.0,0.0,0.0,0.0,0.0,0.0,0.0,0.0,0.0,0.0,0.0,0.0,Hybrid-Dynamic Alpha,2,Allway Blend,0.972424149513,doorway_assistance,2
1449618401716859212,0.054714142331,0.000243462432631,0.0,0.0,0.0,0.0052839997518,0.999986039576,1449618401715419292,1,0.352,0.0,0.0,0.0,0.0,-0.147368421053,1,0.0,0.0,0.0,0.0,0.0,0.0,0.0,0.0,0.0,0.0,0.0,0.0,Hybrid-Dynamic Alpha,2,Allway Blend,0.972424149513,doorway_assistance,2
1449618401756039580,0.054714142331,0.000243462432631,0.0,0.0,0.0,0.0052839997518,0.999986039576,1449618401755423642,1,0.352,0.0,0.0,0.0,0.0,-0.147368421053,1,0.0,0.0,0.0,0.0,0.0,0.0,0.0,0.0,0.0,0.0,0.0,0.0,Hybrid-Dynamic Alpha,2,Allway Blend,0.972424149513,doorway_assistance,2
1449618401796040515,0.057593292369,0.000304325491641,0.0,0.0,0.0,0.0105678519699,0.999944158693,1449618401795654645,1,0.352,0.0,0.0,0.0,0.0,-0.147368421053,1,0.0,0.0,0.0,0.0,0.0,0.0,0.0,0.0,0.0,0.0,0.0,0.0,Hybrid-Dynamic Alpha,2,Allway Blend,0.972424149513,doorway_assistance,2
1449618401836170537,0.057593292369,0.000304325491641,0.0,0.0,0.0,0.0105678519699,0.999944158693,1449618401835403788,1,0.352,0.0,0.0,0.0,0.0,-0.147368421053,1,0.0,0.0,0.0,0.0,0.0,0.0,0.0,0.0,0.0,0.0,0.0,0.0,Hybrid-Dynamic Alpha,2,Allway Blend,0.972424149513,doorway_assistance,2
1449618401876014413,0.057593292369,0.000304325491641,0.0,0.0,0.0,0.0105678519699,0.999944158693,1449618401875409754,1,0.352,0.0,0.0,0.0,0.0,-0.147368421053,1,0.0,0.0,0.0,0.0,0.0,0.0,0.0,0.0,0.0,0.0,0.0,0.0,Hybrid-Dynamic Alpha,2,Allway Blend,0.972424149513,doorway_assistance,2
1449618401918925599,0.057593292369,0.000304325491641,0.0,0.0,0.0,0.0105678519699,0.999944158693,1449618401915411208,1,0.352,0.0,0.0,0.0,0.0,-0.147368421053,1,0.0,0.0,0.0,0.0,0.0,0.0,0.0,0.0,0.0,0.0,0.0,0.0,Hybrid-Dynamic Alpha,2,Allway Blend,0.972424149513,doorway_assistance,2
1449618401957772912,0.057593292369,0.000304325491641,0.0,0.0,0.0,0.0105678519699,0.999944158693,1449618401955407545,1,0.352,0.0,0.0,0.0,0.0,-0.105263157895,1,0.0,0.0,0.0,0.0,0.0,0.0,0.0,0.0,0.0,0.0,0.0,0.0,Hybrid-Dynamic Alpha,2,Allway Blend,0.972424149513,doorway_assistance,2
1449618401996156772,0.057593292369,0.000304325491641,0.0,0.0,0.0,0.0105678519699,0.999944158693,1449618401995405065,1,0.352,0.0,0.0,0.0,0.0,-0.105263157895,1,0.0,0.0,0.0,0.0,0.0,0.0,0.0,0.0,0.0,0.0,0.0,0.0,Hybrid-Dynamic Alpha,2,Allway Blend,0.972424149513,doorway_assistance,2
1449618402035812504,0.057593292369,0.000304325491641,0.0,0.0,0.0,0.0105678519699,0.999944158693,1449618402035399891,1,0.352,0.0,0.0,0.0,0.0,-0.105263157895,1,0.0,0.0,0.0,0.0,0.0,0.0,0.0,0.0,0.0,0.0,0.0,0.0,Hybrid-Dynamic Alpha,2,Allway Blend,0.972424149513,doorway_assistance,2
1449618402076184968,0.057593292369,0.000304325491641,0.0,0.0,0.0,0.0105678519699,0.999944158693,1449618402075393833,1,0.352,0.0,0.0,0.0,0.0,-0.105263157895,1,0.0,0.0,0.0,0.0,0.0,0.0,0.0,0.0,0.0,0.0,0.0,0.0,Hybrid-Dynamic Alpha,2,Allway Blend,0.972424149513,doorway_assistance,2
1449618402115838575,0.057593292369,0.000304325491641,0.0,0.0,0.0,0.0105678519699,0.999944158693,1449618402115395582,1,0.352,0.0,0.0,0.0,0.0,-0.105263157895,1,0.0,0.0,0.0,0.0,0.0,0.0,0.0,0.0,0.0,0.0,0.0,0.0,Hybrid-Dynamic Alpha,2,Allway Blend,0.972424149513,doorway_assistance,2
1449618402158034721,0.057593292369,0.000304325491641,0.0,0.0,0.0,0.0105678519699,0.999944158693,1449618402155402992,1,0.352,0.0,0.0,0.0,0.0,-0.105263157895,1,0.0,0.0,0.0,0.0,0.0,0.0,0.0,0.0,0.0,0.0,0.0,0.0,Hybrid-Dynamic Alpha,2,Allway Blend,0.972424149513,doorway_assistance,2
1449618402196189039,0.057593292369,0.000304325491641,0.0,0.0,0.0,0.0105678519699,0.999944158693,1449618402195414477,1,0.352,0.0,0.0,0.0,0.0,-0.105263157895,1,0.0,0.0,0.0,0.0,0.0,0.0,0.0,0.0,0.0,0.0,0.0,0.0,Hybrid-Dynamic Alpha,2,Allway Blend,0.972424149513,doorway_assistance,2
1449618402235912670,0.057593292369,0.000304325491641,0.0,0.0,0.0,0.0105678519699,0.999944158693,1449618402235411963,1,0.352,0.0,0.0,0.0,0.0,-0.105263157895,1,0.0,0.0,0.0,0.0,0.0,0.0,0.0,0.0,0.0,0.0,0.0,0.0,Hybrid-Dynamic Alpha,2,Allway Blend,0.972424149513,doorway_assistance,2
1449618402276046409,0.057593292369,0.000304325491641,0.0,0.0,0.0,0.0105678519699,0.999944158693,1449618402275555036,1,0.352,0.0,0.0,0.0,0.0,-0.105263157895,1,0.0,0.0,0.0,0.0,0.0,0.0,0.0,0.0,0.0,0.0,0.0,0.0,Hybrid-Dynamic Alpha,2,Allway Blend,0.972424149513,doorway_assistance,2
1449618402316502388,0.057593292369,0.000304325491641,0.0,0.0,0.0,0.0105678519699,0.999944158693,1449618402315430452,1,0.352,0.0,0.0,0.0,0.0,-0.105263157895,1,0.0,0.0,0.0,0.0,0.0,0.0,0.0,0.0,0.0,0.0,0.0,0.0,Hybrid-Dynamic Alpha,2,Allway Blend,0.972424149513,doorway_assistance,2
1449618402358453168,0.057593292369,0.000304325491641,0.0,0.0,0.0,0.0105678519699,0.999944158693,1449618402355408454,1,0.352,0.0,0.0,0.0,0.0,-0.105263157895,1,0.0,0.0,0.0,0.0,0.0,0.0,0.0,0.0,0.0,0.0,0.0,0.0,Hybrid-Dynamic Alpha,2,Allway Blend,0.972424149513,doorway_assistance,2
1449618402396081459,0.057593292369,0.000304325491641,0.0,0.0,0.0,0.0105678519699,0.999944158693,1449618402395403971,1,0.352,0.0,0.0,0.0,0.0,-0.105263157895,1,0.0,0.0,0.0,0.0,0.0,0.0,0.0,0.0,0.0,0.0,0.0,0.0,Hybrid-Dynamic Alpha,2,Allway Blend,0.972424149513,doorway_assistance,2
1449618402436458678,0.057593292369,0.000304325491641,0.0,0.0,0.0,0.0105678519699,0.999944158693,1449618402435401876,1,0.352,0.0,0.0,0.0,0.0,-0.105263157895,1,0.0,0.0,0.0,0.0,0.0,0.0,0.0,0.0,0.0,0.0,0.0,0.0,Hybrid-Dynamic Alpha,2,Allway Blend,0.972424149513,doorway_assistance,2
1449618402476702324,0.057593292369,0.000304325491641,0.0,0.0,0.0,0.0105678519699,0.999944158693,1449618402475407980,1,0.352,0.0,0.0,0.0,0.0,-0.105263157895,1,0.0,0.0,0.0,0.0,0.0,0.0,0.0,0.0,0.0,0.0,0.0,0.0,Hybrid-Dynamic Alpha,2,Allway Blend,0.972424149513,doorway_assistance,2
1449618402516341715,0.057593292369,0.000304325491641,0.0,0.0,0.0,0.0105678519699,0.999944158693,1449618402515400546,1,0.352,0.0,0.0,0.0,0.0,-0.105263157895,1,0.0,0.0,0.0,0.0,0.0,0.0,0.0,0.0,0.0,0.0,0.0,0.0,Hybrid-Dynamic Alpha,2,Allway Blend,0.972424149513,doorway_assistance,2
1449618402558689097,0.057593292369,0.000304325491641,0.0,0.0,0.0,0.0105678519699,0.999944158693,1449618402555410418,1,0.352,0.0,0.0,0.0,0.0,-0.105263157895,1,0.0,0.0,0.0,0.0,0.0,0.0,0.0,0.0,0.0,0.0,0.0,0.0,Hybrid-Dynamic Alpha,2,Allway Blend,0.972424149513,doorway_assistance,2
1449618402596109750,0.057593292369,0.000304325491641,0.0,0.0,0.0,0.0105678519699,0.999944158693,1449618402595426244,1,0.352,0.0,0.0,0.0,0.0,-0.105263157895,1,0.0,0.0,0.0,0.0,0.0,0.0,0.0,0.0,0.0,0.0,0.0,0.0,Hybrid-Dynamic Alpha,2,Allway Blend,0.972424149513,doorway_assistance,2
