%time,field.linear.x,field.linear.y,field.linear.z,field.angular.x,field.angular.y,field.angular.z
1449618389321153448,0.0,0.0,0.0,0.0,0.0,0.0
1449618389361400426,0.0,0.0,0.0,0.0,0.0,0.0
1449618389401082386,0.0,0.0,0.0,0.0,0.0,0.0
1449618389441241611,0.0,0.0,0.0,0.0,0.0,0.0
1449618389481281809,0.0,0.0,0.0,0.0,0.0,0.0
1449618389521245763,0.0,0.0,0.0,0.0,0.0,0.0
1449618389561310750,0.0,0.0,0.0,0.0,0.0,0.0
1449618389601449700,0.0,0.0,0.0,0.0,0.0,0.0
1449618389641192803,0.0,0.0,0.0,0.0,0.0,0.0
1449618389681379692,0.0,0.0,0.0,0.0,0.0,0.0
1449618389721427399,0.0,0.0,0.0,0.0,0.0,0.0
1449618389761330304,0.0,0.0,0.0,0.0,0.0,0.0
1449618389801709251,0.0,0.0,0.0,0.0,0.0,0.0
1449618389841661408,0.0,0.0,0.0,0.0,0.0,0.0
1449618389881626338,0.0,0.0,0.0,0.0,0.0,0.0
1449618389921381954,0.0,0.0,0.0,0.0,0.0,0.0
1449618389963804290,0.0,0.0,0.0,0.0,0.0,0.0
1449618390001263839,0.0,0.0,0.0,0.0,0.0,0.0
1449618390041111117,0.0,0.0,0.0,0.0,0.0,0.0
1449618390081278771,0.0,0.0,0.0,0.0,0.0,0.0
1449618390121129527,0.0,0.0,0.0,0.0,0.0,0.0
1449618390161421857,0.0,0.0,0.0,0.0,0.0,0.0
1449618390202350679,0.0,0.0,0.0,0.0,0.0,0.0
1449618390241884998,0.0,0.0,0.0,0.0,0.0,0.0
1449618390281179643,0.0,0.0,0.0,0.0,0.0,0.0
1449618390321243849,0.0,0.0,0.0,0.0,0.0,0.0
1449618390361992438,0.0,0.0,0.0,0.0,0.0,0.0
1449618390401443213,0.0,0.0,0.0,0.0,0.0,0.0
1449618390441491493,0.0,0.0,0.0,0.0,0.0,0.0
1449618390482587494,0.0,0.0,0.0,0.0,0.0,0.0
1449618390522009326,0.0,0.0,0.0,0.0,0.0,0.0
1449618390562121064,0.0,0.0,0.0,0.0,0.0,0.0
1449618390602119249,0.0,0.0,0.0,0.0,0.0,0.0
1449618390642920277,0.0,0.0,0.0,0.0,0.0,0.0
1449618390681551772,0.0,0.0,0.0,0.0,0.0,0.0
1449618390722566941,0.0,0.0,0.0,0.0,0.0,0.0
1449618390761963761,0.0,0.0,0.0,0.0,0.0,0.0
1449618390801834900,0.0,0.0,0.0,0.0,0.0,0.0
1449618390842893251,0.0,0.0,0.0,0.0,0.0,0.0
1449618390882370055,0.0,0.0,0.0,0.0,0.0,0.0
1449618390922064744,0.0,0.0,0.0,0.0,0.0,0.0
1449618390961885964,0.0,0.0,0.0,0.0,0.0,0.0
1449618391001318049,0.0,0.0,0.0,0.0,0.0,0.0
1449618391041870715,0.0,0.0,0.0,0.0,0.0,0.0
1449618391082490193,0.0,0.0,0.0,0.0,0.0,0.0
1449618391121734387,0.0,0.0,0.0,0.0,0.0,0.0
1449618391161495752,0.0,0.0,0.0,0.0,0.0,0.0
1449618391203762399,0.0,0.0,0.0,0.0,0.0,0.0
1449618391242742118,0.0,0.0,0.0,0.0,0.0,0.0
1449618391281835560,0.0,0.0,0.0,0.0,0.0,0.0
1449618391321909259,0.0,0.0,0.0,0.0,0.0,0.0
1449618391362681392,0.0,0.0,0.0,0.0,0.0,0.0
1449618391402693182,0.0,0.0,0.0,0.0,0.0,0.0
1449618391442063197,0.0,0.0,0.0,0.0,0.0,0.0
1449618391481534866,0.0,0.0,0.0,0.0,0.0,0.0
1449618391521722909,0.0,0.0,0.0,0.0,0.0,0.0
1449618391561708012,0.0,0.0,0.0,0.0,0.0,0.0
1449618391602194779,0.0,0.0,0.0,0.0,0.0,0.0
1449618391642086931,0.0,0.0,0.0,0.0,0.0,0.0
1449618391687455388,0.0,0.0,0.0,0.0,0.0,0.0
1449618391722056310,0.0,0.0,0.0,0.0,0.0,0.0
1449618391761417822,0.0,0.0,0.0,0.0,0.0,0.0
1449618391802116022,0.0,0.0,0.0,0.0,0.0,0.0
1449618391844701172,0.0,0.0,0.0,0.0,0.0,0.0
1449618391882165005,0.0,0.0,0.0,0.0,0.0,0.0
1449618391921583290,0.0,0.0,0.0,0.0,0.0,0.0
1449618391965976179,0.0,0.0,0.0,0.0,0.0,0.0
1449618392001884784,0.0,0.0,0.0,0.0,0.0,0.0
1449618392041537421,0.0,0.0,0.0,0.0,0.0,0.0
1449618392081859942,0.0,0.0,0.0,0.0,0.0,0.0
1449618392121803711,0.0,0.0,0.0,0.0,0.0,0.0
1449618392162969933,0.0,0.0,0.0,0.0,0.0,0.0
1449618392202746678,0.0,0.0,0.0,0.0,0.0,0.0
1449618392241825730,0.0,0.0,0.0,0.0,0.0,0.0
1449618392281721806,0.0,0.0,0.0,0.0,0.0,0.0
1449618392321520119,0.0,0.0,0.0,0.0,0.0,0.0
1449618392361419035,-0.0,0.0,0.0,0.0,0.0,-0.0
1449618392401796007,-0.0,0.0,0.0,0.0,0.0,-0.0
1449618392441578057,-0.0,0.0,0.0,0.0,0.0,-0.0
1449618392481344212,-0.0,0.0,0.0,0.0,0.0,-0.0
1449618392523236182,-0.0,0.0,0.0,0.0,0.0,-0.0
1449618392562224202,-0.0,0.0,0.0,0.0,0.0,-0.0
1449618392601891117,-0.0,0.0,0.0,0.0,0.0,-0.0
1449618392641668900,-0.0,0.0,0.0,0.0,0.0,-0.0
1449618392681856684,-0.0,0.0,0.0,0.0,0.0,-0.0
1449618392721285392,-0.0,0.0,0.0,0.0,0.0,-0.0
1449618392761810897,-0.0,0.0,0.0,0.0,0.0,-0.0
1449618392802246417,-0.0,0.0,0.0,0.0,0.0,-0.0
1449618392841393402,-0.0,0.0,0.0,0.0,0.0,-0.0
1449618392882919465,-0.0,0.0,0.0,0.0,0.0,-0.0
1449618392922750893,-0.0,0.0,0.0,0.0,0.0,-0.0
1449618392962307124,-0.0,0.0,0.0,0.0,0.0,-0.0
1449618393001962776,-0.0,0.0,0.0,0.0,0.0,-0.0
1449618393042562337,-0.0,0.0,0.0,0.0,0.0,-0.0
1449618393081634954,-0.0,0.0,0.0,0.0,0.0,-0.0
1449618393127092622,-0.0,0.0,0.0,0.0,0.0,-0.0
1449618393161476799,-0.0,0.0,0.0,0.0,0.0,-0.0
1449618393202021380,-0.0,0.0,0.0,0.0,0.0,-0.0
1449618393243642680,-0.0,0.0,0.0,0.0,0.0,-0.0
1449618393283882772,-0.0,0.0,0.0,0.0,0.0,-0.0
1449618393322085895,-0.0,0.0,0.0,0.0,0.0,-0.0
1449618393361549909,-0.0,0.0,0.0,0.0,0.0,-0.0
1449618393401524991,-0.0,0.0,0.0,0.0,0.0,-0.0
1449618393441352941,-0.0,0.0,0.0,0.0,0.0,-0.0
1449618393483122233,-0.0,0.0,0.0,0.0,0.0,-0.0
1449618393523022366,-0.0,0.0,0.0,0.0,0.0,-0.0
1449618393561964209,-0.0,0.0,0.0,0.0,0.0,-0.0
1449618393601337356,-0.0,0.0,0.0,0.0,0.0,-0.0
1449618393641370198,-0.0,0.0,0.0,0.0,0.0,-0.0
1449618393682087447,-0.0,0.0,0.0,0.0,0.0,-0.0
1449618393723798503,-0.0,0.0,0.0,0.0,0.0,-0.0
1449618393761992366,-0.0,0.0,0.0,0.0,0.0,-0.0
1449618393801892289,-0.0,0.0,0.0,0.0,0.0,-0.0
1449618393844691907,-0.0,0.0,0.0,0.0,0.0,-0.0
1449618393881614116,-0.0,0.0,0.0,0.0,0.0,-0.0
1449618393922130996,-0.0,0.0,0.0,0.0,0.0,-0.0
1449618393963549308,-0.0,0.0,0.0,0.0,0.0,-0.0
1449618394001894262,-0.0,0.0,0.0,0.0,0.0,-0.0
1449618394041361337,-0.0,0.0,0.0,0.0,0.0,-0.0
1449618394081955214,-0.0,0.0,0.0,0.0,0.0,-0.0
1449618394124431781,-0.0,0.0,0.0,0.0,0.0,-0.0
1449618394162652576,-0.0,0.0,0.0,0.0,0.0,-0.0
1449618394205850285,-0.0,0.0,0.0,0.0,0.0,-0.0
1449618394242045089,-0.0,0.0,0.0,0.0,0.0,-0.0
1449618394282256728,-0.0,0.0,0.0,0.0,0.0,-0.0
1449618394322460977,-0.0,0.0,0.0,0.0,0.0,-0.0
1449618394361651429,-0.0,0.0,0.0,0.0,0.0,-0.0
1449618394401795334,-0.0,0.0,0.0,0.0,0.0,-0.0
1449618394441995475,-0.0,0.0,0.0,0.0,0.0,-0.0
1449618394485907767,-0.0,0.0,0.0,0.0,0.0,-0.0
1449618394521821031,-0.0,0.0,0.0,0.0,0.0,-0.0
1449618394562563406,-0.0,0.0,0.0,0.0,0.0,-0.0
1449618394602887856,-0.0,0.0,0.0,0.0,0.0,-0.0
1449618394641947468,-0.0,0.0,0.0,0.0,0.0,-0.0
1449618394682869060,-0.0,0.0,0.0,0.0,0.0,-0.0
1449618394732391659,-0.0,0.0,0.0,0.0,0.0,-0.0
1449618394761482165,-0.0,0.0,0.0,0.0,0.0,-0.0
1449618394801527034,-0.0,0.0,0.0,0.0,0.0,-0.0
1449618394841728448,-0.0,0.0,0.0,0.0,0.0,-0.0
1449618394881948639,-0.0,0.0,0.0,0.0,0.0,-0.0
1449618394921417657,-0.0,0.0,0.0,0.0,0.0,-0.0
1449618394965829171,-0.0,0.0,0.0,0.0,0.0,-0.0
1449618395001779188,-0.0,0.0,0.0,0.0,0.0,-0.0
1449618395041489506,0.0123880490635,0.0,0.0,0.0,0.0,-0.00289312538348
1449618395083787571,0.0123880490635,0.0,0.0,0.0,0.0,-0.00289312538348
1449618395121974186,0.0194870447671,0.0,0.0,0.0,0.0,0.00260016477909
1449618395167771194,0.0194870447671,0.0,0.0,0.0,0.0,0.00260016477909
1449618395209481218,0.0194870447671,0.0,0.0,0.0,0.0,0.00260016477909
1449618395241413839,0.0194870447671,0.0,0.0,0.0,0.0,0.00260016477909
1449618395283567373,0.0194870447671,0.0,0.0,0.0,0.0,0.00260016477909
1449618395322120804,-0.0,0.0,0.0,0.0,0.0,-0.0
1449618395361601849,-0.0,0.0,0.0,0.0,0.0,-0.0
1449618395402695988,-0.0,0.0,0.0,0.0,0.0,-0.0
1449618395441553514,0.341084416874,0.0,0.0,0.0,0.0,0.0275942864844
1449618395486667034,0.341084416874,0.0,0.0,0.0,0.0,0.0275942864844
1449618395522194693,0.341046604749,0.0,0.0,0.0,0.0,0.0282003660358
1449618395561908242,0.341046604749,0.0,0.0,0.0,0.0,0.0282003660358
1449618395601793592,0.341046604749,0.0,0.0,0.0,0.0,0.0282003660358
1449618395645555323,0.341046604749,0.0,0.0,0.0,0.0,0.0282003660358
1449618395682291787,0.341046604749,0.0,0.0,0.0,0.0,0.0282003660358
1449618395721538262,0.341067854004,0.0,0.0,0.0,0.0,0.0278597679043
1449618395764276305,0.341067854004,0.0,0.0,0.0,0.0,0.0278597679043
1449618395801879488,0.341067854004,0.0,0.0,0.0,0.0,0.0278597679043
1449618395841965408,0.346533927002,0.0,0.0,0.0,0.0,0.0216483213156
1449618395883562493,-0.0,0.0,0.0,0.0,0.0,-0.0
1449618395922199572,-0.0,0.0,0.0,0.0,0.0,-0.0
1449618395962137430,-0.0,0.0,0.0,0.0,0.0,-0.0
1449618396002234004,-0.0,0.0,0.0,0.0,0.0,-0.0
1449618396042000964,0.341076545398,0.0,0.0,0.0,0.0,0.0153074380332
1449618396084941028,0.341076545398,0.0,0.0,0.0,0.0,0.0153074380332
1449618396121674875,-0.0,0.0,0.0,0.0,0.0,-0.0
1449618396161440488,-0.0,0.0,0.0,0.0,0.0,-0.0
1449618396201541927,-0.0,0.0,0.0,0.0,0.0,-0.0
1449618396241845117,-0.0,0.0,0.0,0.0,0.0,-0.0
1449618396282276242,-0.0,0.0,0.0,0.0,0.0,-0.0
1449618396325087569,-0.0,0.0,0.0,0.0,0.0,-0.0
1449618396364250871,0.297292173044,0.0,0.0,0.0,0.0,0.00936035163908
1449618396401507180,0.297415217308,0.0,0.0,0.0,0.0,0.00900785040564
1449618396450746285,0.297415217308,0.0,0.0,0.0,0.0,0.00900785040564
1449618396482515405,0.346541521731,0.0,0.0,0.0,0.0,0.00900785040564
1449618396523340996,-0.0,0.0,0.0,0.0,0.0,-0.0
1449618396564133555,-0.0,0.0,0.0,0.0,0.0,-0.0
1449618396604534515,-0.0,0.0,0.0,0.0,0.0,-0.0
1449618396643788380,0.341094662181,0.0,0.0,0.0,0.0,0.00884142196717
1449618396681944347,0.341038496822,0.0,0.0,0.0,0.0,0.0104488898461
1449618396722439697,0.341038496822,0.0,0.0,0.0,0.0,0.0104488898461
1449618396763421790,0.3026732357,0.0,0.0,0.0,0.0,0.00422076230968
1449618396801377867,0.302665176062,0.0,0.0,0.0,0.0,0.00423865119234
1449618396844289647,0.302665176062,0.0,0.0,0.0,0.0,0.00423865119234
1449618396894178310,0.34651746504,0.0,0.0,0.0,0.0,0.00425638706485
1449618396922151172,0.346531553171,0.0,0.0,0.0,0.0,0.00397496147791
1449618396961714495,0.341063106341,0.0,0.0,0.0,0.0,0.00397496147791
1449618397002297667,0.341063106341,0.0,0.0,0.0,0.0,0.00397496147791
1449618397041551805,0.341063106341,0.0,0.0,0.0,0.0,0.00397496147791
1449618397081955415,0.341063106341,0.0,0.0,0.0,0.0,0.00307928812762
1449618397132612489,-0.0,0.0,0.0,0.0,0.0,0.0
1449618397161804596,-0.0,0.0,0.0,0.0,0.0,0.0
1449618397201486515,-0.0,0.0,0.0,0.0,0.0,0.0
1449618397242488080,-0.0,0.0,0.0,0.0,0.0,0.0
1449618397283086579,0.346549540406,0.0,0.0,0.0,0.0,0.00877812878552
1449618397322369939,-0.0,0.0,0.0,0.0,0.0,0.0
1449618397361655062,-0.0,0.0,0.0,0.0,0.0,0.0
1449618397401555672,-0.0,0.0,0.0,0.0,0.0,0.0
1449618397441632927,-0.0,0.0,0.0,0.0,0.0,0.0
1449618397482521825,-0.0,0.0,0.0,0.0,0.0,0.0
1449618397524888928,-0.0,0.0,0.0,0.0,0.0,0.0
1449618397561370632,0.346551849296,0.0,0.0,0.0,0.0,0.00976060555982
1449618397602304094,-0.0,0.0,0.0,0.0,0.0,-0.0
1449618397642587770,-0.0,0.0,0.0,0.0,0.0,-0.0
1449618397681284102,-0.0,0.0,0.0,0.0,0.0,-0.0
1449618397722099687,0.346539887557,0.0,0.0,0.0,0.0,0.00380847312628
1449618397765178562,0.346539887557,0.0,0.0,0.0,0.0,0.00380847312628
1449618397801732084,0.346539887557,0.0,0.0,0.0,0.0,0.00380847312628
1449618397841669179,-0.0,0.0,0.0,0.0,0.0,-0.0
1449618397883838513,-0.0,0.0,0.0,0.0,0.0,-0.0
1449618397926291442,-0.0,0.0,0.0,0.0,0.0,-0.0
1449618397961804976,-0.0,0.0,0.0,0.0,0.0,-0.0
1449618398001743235,0.341089183852,0.0,0.0,0.0,0.0,0.00991382636609
1449618398042198073,-0.0,0.0,0.0,0.0,0.0,-0.0
1449618398081915791,-0.0,0.0,0.0,0.0,0.0,-0.0
1449618398121211673,-0.0,0.0,0.0,0.0,0.0,-0.0
1449618398162086091,-0.0,0.0,0.0,0.0,0.0,-0.0
1449618398201499834,-0.0,0.0,0.0,0.0,0.0,-0.0
1449618398242144313,0.34654667136,0.0,0.0,0.0,0.0,0.0036729593517
1449618398281779599,0.34654667136,0.0,0.0,0.0,0.0,0.0036729593517
1449618398321905056,0.346546965092,0.0,0.0,0.0,0.0,0.00366709174496
1449618398366234628,0.346546965092,0.0,0.0,0.0,0.0,0.00366709174496
1449618398402275032,0.346542640709,0.0,0.0,0.0,0.0,0.00375347595522
1449618398442453459,0.346542640709,0.0,0.0,0.0,0.0,0.00375347595522
1449618398481534874,0.31379848496,0.0,0.0,0.0,0.0,0.00375347595522
1449618398521645246,0.31379848496,0.0,0.0,0.0,0.0,0.00375347595522
1449618398565718808,0.346542640709,0.0,0.0,0.0,0.0,0.00375347595522
1449618398601713973,0.346552986258,0.0,0.0,0.0,0.0,0.00354681245952
1449618398645454877,0.30297687632,0.0,0.0,0.0,0.0,0.00354681245952
1449618398681740448,0.346552986258,0.0,0.0,0.0,0.0,0.00354681245952
1449618398722199495,0.346552986258,0.0,0.0,0.0,0.0,0.00354681245952
1449618398764357970,0.346552986258,0.0,0.0,0.0,0.0,0.00354681245952
1449618398805164146,0.302992222301,0.0,0.0,0.0,0.0,0.00351275106896
1449618398844509900,0.302992222301,0.0,0.0,0.0,0.0,0.00351275106896
1449618398881418112,0.302992222301,0.0,0.0,0.0,0.0,0.00351275106896
1449618398923729507,0.341109382734,0.0,0.0,0.0,0.0,0.00970060251464
1449618398961785686,0.341109382734,0.0,0.0,0.0,0.0,0.00970060251464
1449618399002326536,-0.0,0.0,0.0,0.0,0.0,-0.0
1449618399042543256,-0.0,0.0,0.0,0.0,0.0,-0.0
1449618399081620370,-0.0,0.0,0.0,0.0,0.0,-0.0
1449618399125832419,-0.0,0.0,0.0,0.0,0.0,-0.0
1449618399162391288,0.346536741431,0.0,0.0,0.0,0.0,0.00387132038344
1449618399201995829,-0.0,0.0,0.0,0.0,0.0,0.0
1449618399241429063,-0.0,0.0,0.0,0.0,0.0,0.0
1449618399282893286,-0.0,0.0,0.0,0.0,0.0,-0.0
1449618399321514754,-0.0,0.0,0.0,0.0,0.0,0.0
1449618399366407166,-0.0,0.0,0.0,0.0,0.0,0.0
1449618399405935855,-0.0,0.0,0.0,0.0,0.0,-0.0
1449618399443403164,-0.0,0.0,0.0,0.0,0.0,0.0
1449618399483289593,-0.0,0.0,0.0,0.0,0.0,0.0
1449618399522091340,0.346549535077,0.0,0.0,0.0,0.0,0.00258457057071
1449618399561811295,0.346549535077,0.0,0.0,0.0,0.0,0.00258457057071
1449618399602405080,0.346549535077,0.0,0.0,0.0,0.0,0.00258457057071
1449618399642431730,0.346549535077,0.0,0.0,0.0,0.0,0.00258457057071
1449618399681638233,-0.0,0.0,0.0,0.0,0.0,0.0
1449618399722396953,-0.0,0.0,0.0,0.0,0.0,-0.0
1449618399763245415,-0.0,0.0,0.0,0.0,0.0,-0.0
1449618399803029454,-0.0,0.0,0.0,0.0,0.0,-0.0
1449618399850060686,-0.0,0.0,0.0,0.0,0.0,-0.0
1449618399881395922,-0.0,0.0,0.0,0.0,0.0,-0.0
1449618399921901849,-0.0,0.0,0.0,0.0,0.0,-0.0
1449618399961512102,-0.0,0.0,0.0,0.0,0.0,-0.0
1449618400003694166,-0.0,0.0,0.0,0.0,0.0,-0.0
1449618400042018881,-0.0,0.0,0.0,0.0,0.0,-0.0
1449618400081555492,-0.0,0.0,0.0,0.0,0.0,-0.0
1449618400123073783,-0.0,0.0,0.0,0.0,0.0,-0.0
1449618400163010861,-0.0,0.0,0.0,0.0,0.0,-0.0
1449618400205887603,0.346564530046,0.0,0.0,0.0,0.0,0.00331621285381
1449618400242436792,0.346564530046,0.0,0.0,0.0,0.0,0.00217202954436
1449618400281981881,0.346556788118,0.0,0.0,0.0,0.0,0.00238502517443
1449618400322105915,0.346556788118,0.0,0.0,0.0,0.0,0.00238502517443
1449618400361530830,0.341113576236,0.0,0.0,0.0,0.0,0.00965633497627
1449618400402586944,0.341113576236,0.0,0.0,0.0,0.0,0.00965633497627
1449618400448128461,0.346556788118,0.0,0.0,0.0,0.0,0.00347086620274
1449618400482355213,0.346556788118,0.0,0.0,0.0,0.0,0.00347086620274
1449618400524791998,-0.0,0.0,0.0,0.0,0.0,-0.0
1449618400574186555,-0.0,0.0,0.0,0.0,0.0,-0.0
1449618400605680772,-0.0,0.0,0.0,0.0,0.0,-0.0
1449618400644521850,-0.0,0.0,0.0,0.0,0.0,-0.0
1449618400682319751,-0.0,0.0,0.0,0.0,0.0,-0.0
1449618400727931658,-0.0,0.0,0.0,0.0,0.0,-0.0
1449618400766664661,-0.0,0.0,0.0,0.0,0.0,-0.0
1449618400804829131,-0.0,0.0,0.0,0.0,0.0,-0.0
1449618400841896583,0.346566576843,0.0,0.0,0.0,0.0,0.0032753258799
1449618400881454762,0.346566576843,0.0,0.0,0.0,0.0,0.0032753258799
1449618400921342119,0.346566576843,0.0,0.0,0.0,0.0,0.0032753258799
1449618400961396820,0.346560637268,0.0,0.0,0.0,0.0,0.00339397527458
1449618401001520067,0.346560637268,0.0,0.0,0.0,0.0,0.00957507001304
1449618401041633562,0.346560637268,0.0,0.0,0.0,0.0,0.00957507001304
1449618401082068615,0.346560637268,0.0,0.0,0.0,0.0,0.00227912748903
1449618401124572102,-0.0,0.0,0.0,0.0,0.0,-0.0
1449618401161641297,-0.0,0.0,0.0,0.0,0.0,-0.0
1449618401201621358,-0.0,0.0,0.0,0.0,0.0,-0.0
1449618401242321133,0.346562601141,0.0,0.0,0.0,0.0,0.00222509749676
1449618401295965955,0.346562601141,0.0,0.0,0.0,0.0,0.00222509749676
1449618401322278586,0.0,0.0,0.0,0.0,0.0,0.0
1449618401362885432,0.0,0.0,0.0,0.0,0.0,0.0
1449618401402660023,0.0,0.0,0.0,0.0,0.0,0.0
1449618401444385817,0.0,0.0,0.0,0.0,0.0,0.0
1449618401493585572,0.0,0.0,0.0,0.0,0.0,0.0
1449618401525998659,0.0,0.0,0.0,0.0,0.0,0.0
1449618401561314722,0.0,0.0,0.0,0.0,0.0,0.0
1449618401601676237,0.0,0.0,0.0,0.0,0.0,0.0
1449618401642559335,0.0,0.0,0.0,0.0,0.0,0.0
1449618401681558550,0.0,0.0,0.0,0.0,0.0,0.0
1449618401721793377,0.0,0.0,0.0,0.0,0.0,0.0
1449618401762091360,0.0,0.0,0.0,0.0,0.0,0.0
1449618401801388545,0.0,0.0,0.0,0.0,0.0,0.0
1449618401841953904,0.0,0.0,0.0,0.0,0.0,0.0
1449618401881835953,0.0,0.0,0.0,0.0,0.0,0.0
1449618401923690209,0.0,0.0,0.0,0.0,0.0,0.0
1449618401962229511,0.0,0.0,0.0,0.0,0.0,0.0
1449618402001314627,0.0,0.0,0.0,0.0,0.0,0.0
1449618402041425643,0.0,0.0,0.0,0.0,0.0,0.0
1449618402082260194,0.0,0.0,0.0,0.0,0.0,0.0
1449618402122655392,0.0,0.0,0.0,0.0,0.0,0.0
1449618402165041680,0.0,0.0,0.0,0.0,0.0,0.0
1449618402201629837,0.0,0.0,0.0,0.0,0.0,0.0
1449618402242904750,0.0,0.0,0.0,0.0,0.0,0.0
1449618402281240233,0.0,0.0,0.0,0.0,0.0,0.0
1449618402322610257,0.0,0.0,0.0,0.0,0.0,0.0
1449618402361487039,0.0,0.0,0.0,0.0,0.0,0.0
1449618402406742274,0.0,0.0,0.0,0.0,0.0,0.0
1449618402441568266,0.0,0.0,0.0,0.0,0.0,0.0
1449618402482385194,0.0,0.0,0.0,0.0,0.0,0.0
1449618402521542922,0.0,0.0,0.0,0.0,0.0,0.0
1449618402561390418,0.0,0.0,0.0,0.0,0.0,0.0
1449618402601440921,0.0,0.0,0.0,0.0,0.0,0.0
1449618402642132570,0.0,0.0,0.0,0.0,0.0,0.0
1449618402681940269,0.0,0.0,0.0,0.0,0.0,0.0
1449618402721838292,0.0,0.0,0.0,0.0,0.0,0.0
1449618402761579226,0.0,0.0,0.0,0.0,0.0,0.0
1449618402802319347,0.0,0.0,0.0,0.0,0.0,0.0
1449618402841469727,0.0,0.0,0.0,0.0,0.0,0.0
1449618402882653429,0.0,0.0,0.0,0.0,0.0,0.0
1449618402923859790,0.0,0.0,0.0,0.0,0.0,0.0
1449618402961790854,0.0,0.0,0.0,0.0,0.0,0.0
1449618403001381623,0.0,0.0,0.0,0.0,0.0,0.0
1449618403045895061,0.0,0.0,0.0,0.0,0.0,0.0
1449618403081340428,0.0,0.0,0.0,0.0,0.0,0.0
1449618403121904163,0.0,0.0,0.0,0.0,0.0,0.0
1449618403161329295,0.0,0.0,0.0,0.0,0.0,0.0
1449618403201095430,0.0,0.0,0.0,0.0,0.0,0.0
1449618403241517996,0.0,0.0,0.0,0.0,0.0,0.0
1449618403281969921,0.0,0.0,0.0,0.0,0.0,0.0
1449618403322157469,0.0,0.0,0.0,0.0,0.0,0.0
1449618403361655560,0.0,0.0,0.0,0.0,0.0,0.0
1449618403402537496,0.0,0.0,0.0,0.0,0.0,0.0
1449618403443063011,0.0,0.0,0.0,0.0,0.0,0.0
1449618403482410402,0.0,0.0,0.0,0.0,0.0,0.0
1449618403521494105,0.0,0.0,0.0,0.0,0.0,0.0
1449618403561991599,0.0,0.0,0.0,0.0,0.0,0.0
1449618403601285828,0.0,0.0,0.0,0.0,0.0,0.0
1449618403641793489,0.0,0.0,0.0,0.0,0.0,0.0
1449618403681510371,0.0,0.0,0.0,0.0,0.0,0.0
1449618403721636601,0.0,0.0,0.0,0.0,0.0,0.0
1449618403761368493,0.0,0.0,0.0,0.0,0.0,0.0
1449618403801790504,0.0,0.0,0.0,0.0,0.0,0.0
1449618403844116493,0.0,0.0,0.0,0.0,0.0,0.0
1449618403881586490,0.0,0.0,0.0,0.0,0.0,0.0
1449618403921476632,0.0,0.0,0.0,0.0,0.0,0.0
1449618403961428356,0.0,0.0,0.0,0.0,0.0,0.0
1449618404002993656,0.0,0.0,0.0,0.0,0.0,0.0
1449618404041976188,0.0,0.0,0.0,0.0,0.0,0.0
1449618404081469303,0.0,0.0,0.0,0.0,0.0,0.0
1449618404121462535,0.0,0.0,0.0,0.0,0.0,0.0
1449618404163071574,0.0,0.0,0.0,0.0,0.0,0.0
1449618404203328066,0.0,0.0,0.0,0.0,0.0,0.0
1449618404244019388,0.0,0.0,0.0,0.0,0.0,0.0
1449618404283905253,0.0,0.0,0.0,0.0,0.0,0.0
1449618404323247558,0.0,0.0,0.0,0.0,0.0,0.0
1449618404361338490,0.0,0.0,0.0,0.0,0.0,0.0
1449618404402647780,0.0,0.0,0.0,0.0,0.0,0.0
1449618404443659527,0.0,0.0,0.0,0.0,0.0,0.0
1449618404481498516,0.0,0.0,0.0,0.0,0.0,0.0
1449618404521951728,0.0,0.0,0.0,0.0,0.0,0.0
1449618404561796021,0.0,0.0,0.0,0.0,0.0,0.0
1449618404601497102,0.0,0.0,0.0,0.0,0.0,0.0
1449618404641199419,0.0,0.0,0.0,0.0,0.0,0.0
1449618404681531984,0.0,0.0,0.0,0.0,0.0,0.0
1449618404722340132,0.0,0.0,0.0,0.0,0.0,0.0
1449618404761499142,0.0,0.0,0.0,0.0,0.0,0.0
1449618404801777322,0.0,0.0,0.0,0.0,0.0,0.0
1449618404845846388,0.0,0.0,0.0,0.0,0.0,0.0
1449618404882781193,0.0,0.0,0.0,0.0,0.0,0.0
1449618404923076475,0.0,0.0,0.0,0.0,0.0,0.0
1449618404963786730,0.0,0.0,0.0,0.0,0.0,0.0
1449618405001424941,0.0,0.0,0.0,0.0,0.0,0.0
1449618405043602000,0.0,0.0,0.0,0.0,0.0,0.0
1449618405081321019,0.0,0.0,0.0,0.0,0.0,0.0
1449618405121760483,0.0,0.0,0.0,0.0,0.0,0.0
1449618405161354077,0.0,0.0,0.0,0.0,0.0,0.0
1449618405201576691,0.0,0.0,0.0,0.0,0.0,0.0
1449618405241499934,0.0,0.0,0.0,0.0,0.0,0.0
1449618405282414646,0.0,0.0,0.0,0.0,0.0,0.0
1449618405321320822,0.0,0.0,0.0,0.0,0.0,0.0
1449618405361528651,0.0,0.0,0.0,0.0,0.0,0.0
1449618405404722604,0.0,0.0,0.0,0.0,0.0,0.0
1449618405442531783,0.0,0.0,0.0,0.0,0.0,0.0
1449618405481893293,0.0,0.0,0.0,0.0,0.0,0.0
1449618405521491955,0.0,0.0,0.0,0.0,0.0,0.0
1449618405561308052,0.0,0.0,0.0,0.0,0.0,0.0
1449618405601561308,0.0,0.0,0.0,0.0,0.0,0.0
1449618405642601593,0.0,0.0,0.0,0.0,0.0,0.0
1449618405681425310,0.0,0.0,0.0,0.0,0.0,0.0
1449618405722768385,0.0,0.0,0.0,0.0,0.0,0.0
1449618405761411380,0.0,0.0,0.0,0.0,0.0,0.0
1449618405802086314,0.0,0.0,0.0,0.0,0.0,0.0
1449618405841516324,0.0,0.0,0.0,0.0,0.0,0.0
1449618405883243146,0.0,0.0,0.0,0.0,0.0,0.0
1449618405921305474,0.0,0.0,0.0,0.0,0.0,0.0
1449618405961822521,0.0,0.0,0.0,0.0,0.0,0.0
1449618406003543854,0.0,0.0,0.0,0.0,0.0,0.0
1449618406042580807,0.0,0.0,0.0,0.0,0.0,0.0
1449618406081214053,0.0,0.0,0.0,0.0,0.0,0.0
1449618406126750112,0.0,0.0,0.0,0.0,0.0,0.0
1449618406161942305,0.0,0.0,0.0,0.0,0.0,0.0
1449618406202999828,0.0,0.0,0.0,0.0,0.0,0.0
1449618406242181312,0.0,0.0,0.0,0.0,0.0,0.0
1449618406282099072,0.0,0.0,0.0,0.0,0.0,0.0
1449618406321868221,0.0,0.0,0.0,0.0,0.0,0.0
1449618406362434825,0.0,0.0,0.0,0.0,0.0,0.0
1449618406401191904,0.0,0.0,0.0,0.0,0.0,0.0
1449618406444591545,0.0,0.0,0.0,0.0,0.0,0.0
1449618406483404702,0.0,0.0,0.0,0.0,0.0,0.0
1449618406521753238,0.0,0.0,0.0,0.0,0.0,0.0
1449618406562449922,0.0,0.0,0.0,0.0,0.0,0.0
1449618406602549324,0.0,0.0,0.0,0.0,0.0,0.0
1449618406642524948,0.0,0.0,0.0,0.0,0.0,0.0
1449618406682769330,0.0,0.0,0.0,0.0,0.0,0.0
1449618406721980003,0.0,0.0,0.0,0.0,0.0,0.0
1449618406761331658,0.0,0.0,0.0,0.0,0.0,0.0
1449618406801479203,0.0,0.0,0.0,0.0,0.0,0.0
1449618406841245968,0.0,0.0,0.0,0.0,0.0,0.0
1449618406881500292,0.0,0.0,0.0,0.0,0.0,0.0
1449618406921526881,0.0,0.0,0.0,0.0,0.0,0.0
1449618406961284631,0.0,0.0,0.0,0.0,0.0,0.0
1449618407002788035,0.0,0.0,0.0,0.0,0.0,0.0
1449618407043409062,0.0,0.0,0.0,0.0,0.0,0.0
1449618407081566478,0.0,0.0,0.0,0.0,0.0,0.0
1449618407121670474,0.0,0.0,0.0,0.0,0.0,0.0
1449618407161427888,0.0,0.0,0.0,0.0,0.0,0.0
1449618407202158133,0.0,0.0,0.0,0.0,0.0,0.0
1449618407242333925,0.0,0.0,0.0,0.0,0.0,0.0
1449618407282241944,0.0,0.0,0.0,0.0,0.0,0.0
1449618407322301592,0.0,0.0,0.0,0.0,0.0,0.0
1449618407362584685,0.0,0.0,0.0,0.0,0.0,0.0
1449618407401496099,0.0,0.0,0.0,0.0,0.0,0.0
1449618407441998178,0.0,0.0,0.0,0.0,0.0,0.0
1449618407481358718,0.0,0.0,0.0,0.0,0.0,0.0
1449618407521663358,0.0,0.0,0.0,0.0,0.0,0.0
1449618407565018644,0.0,0.0,0.0,0.0,0.0,0.0
1449618407601898309,0.0,0.0,0.0,0.0,0.0,0.0
1449618407641344832,0.0,0.0,0.0,0.0,0.0,0.0
1449618407681795890,0.0,0.0,0.0,0.0,0.0,0.0
1449618407721681436,0.0,0.0,0.0,0.0,0.0,0.0
1449618407761690598,0.0,0.0,0.0,0.0,0.0,0.0
1449618407802192943,0.0,0.0,0.0,0.0,0.0,0.0
1449618407842025751,0.0,0.0,0.0,0.0,0.0,0.0
1449618407881443525,0.0,0.0,0.0,0.0,0.0,0.0
1449618407925878798,0.0,0.0,0.0,0.0,0.0,0.0
1449618407961903348,0.0,0.0,0.0,0.0,0.0,0.0
1449618408001643169,0.0,0.0,0.0,0.0,0.0,0.0
1449618408041502243,0.0,0.0,0.0,0.0,0.0,0.0
1449618408081448043,0.0,0.0,0.0,0.0,0.0,0.0
1449618408121460395,0.0,0.0,0.0,0.0,0.0,0.0
1449618408161287751,0.0,0.0,0.0,0.0,0.0,0.0
1449618408202928500,0.0,0.0,0.0,0.0,0.0,0.0
1449618408242020044,0.0,0.0,0.0,0.0,0.0,0.0
1449618408282101053,0.0,0.0,0.0,0.0,0.0,0.0
1449618408321424368,0.0,0.0,0.0,0.0,0.0,0.0
1449618408362152154,0.0,0.0,0.0,0.0,0.0,0.0
1449618408401688157,0.0,0.0,0.0,0.0,0.0,0.0
1449618408441752775,0.0,0.0,0.0,0.0,0.0,0.0
1449618408481369451,0.0,0.0,0.0,0.0,0.0,0.0
1449618408522386659,0.0,0.0,0.0,0.0,0.0,0.0
1449618408562216388,0.0,0.0,0.0,0.0,0.0,0.0
1449618408601543174,0.0,0.0,0.0,0.0,0.0,0.0
1449618408641804166,0.0,0.0,0.0,0.0,0.0,0.0
1449618408682108809,0.0,0.0,0.0,0.0,0.0,0.0
1449618408729827992,0.0,0.0,0.0,0.0,0.0,0.0
1449618408761455971,0.0,0.0,0.0,0.0,0.0,0.0
1449618408801365540,0.0,0.0,0.0,0.0,0.0,0.0
1449618408842006523,0.0,0.0,0.0,0.0,0.0,0.0
1449618408884887913,0.0,0.0,0.0,0.0,0.0,0.0
1449618408922285756,0.0,0.0,0.0,0.0,0.0,0.0
1449618408961972719,0.0,0.0,0.0,0.0,0.0,0.0
1449618409001439360,0.0,0.0,0.0,0.0,0.0,0.0
1449618409042313874,0.0,0.0,0.0,0.0,0.0,0.0
1449618409082052579,0.0,0.0,0.0,0.0,0.0,0.0
1449618409121843009,0.0,0.0,0.0,0.0,0.0,0.0
1449618409163993684,0.0,0.0,0.0,0.0,0.0,0.0
1449618409202588215,0.0,0.0,0.0,0.0,0.0,0.0
1449618409241534864,0.0,0.0,0.0,0.0,0.0,0.0
1449618409281493289,0.0,0.0,0.0,0.0,0.0,0.0
1449618409322081582,0.0,0.0,0.0,0.0,0.0,0.0
1449618409361482035,0.0,0.0,0.0,0.0,0.0,0.0
1449618409401452278,0.0,0.0,0.0,0.0,0.0,0.0
1449618409441539065,0.0,0.0,0.0,0.0,0.0,0.0
1449618409482370388,0.0,0.0,0.0,0.0,0.0,0.0
1449618409521268806,0.0,0.0,0.0,0.0,0.0,0.0
1449618409563180411,0.0,0.0,0.0,0.0,0.0,0.0
1449618409601657084,0.0,0.0,0.0,0.0,0.0,0.0
1449618409646572388,0.0,0.0,0.0,0.0,0.0,0.0
1449618409681270881,0.0,0.0,0.0,0.0,0.0,0.0
1449618409723951241,0.0,0.0,0.0,0.0,0.0,0.0
1449618409761799457,0.0,0.0,0.0,0.0,0.0,0.0
1449618409801612456,0.0,0.0,0.0,0.0,0.0,0.0
1449618409841361274,0.0,0.0,0.0,0.0,0.0,0.0
1449618409883674243,0.0,0.0,0.0,0.0,0.0,0.0
1449618409922317701,0.0,0.0,0.0,0.0,0.0,0.0
1449618409961268483,0.0,0.0,0.0,0.0,0.0,0.0
1449618410003476541,0.0,0.0,0.0,0.0,0.0,0.0
1449618410042110484,0.0,0.0,0.0,0.0,0.0,0.0
1449618410084709786,0.0,0.0,0.0,0.0,0.0,0.0
1449618410123796639,0.0,0.0,0.0,0.0,0.0,0.0
1449618410164367138,0.0,0.0,0.0,0.0,0.0,0.0
1449618410201410732,0.0,0.0,0.0,0.0,0.0,0.0
1449618410241305728,0.0,0.0,0.0,0.0,0.0,0.0
1449618410281502075,0.0,0.0,0.0,0.0,0.0,0.0
1449618410322758862,0.0,0.0,0.0,0.0,0.0,0.0
1449618410365748312,0.0,0.0,0.0,0.0,0.0,0.0
1449618410401931414,0.0,0.0,0.0,0.0,0.0,0.0
1449618410441486401,0.0,0.0,0.0,0.0,0.0,0.0
1449618410481579050,0.0,0.0,0.0,0.0,0.0,0.0
1449618410521454279,0.0,0.0,0.0,0.0,0.0,0.0
1449618410561323219,0.0,0.0,0.0,0.0,0.0,0.0
1449618410607136677,0.0,0.0,0.0,0.0,0.0,0.0
1449618410643502828,0.0,0.0,0.0,0.0,0.0,0.0
1449618410681871452,0.0,0.0,0.0,0.0,0.0,0.0
1449618410725181007,0.0,0.0,0.0,0.0,0.0,0.0
1449618410761617155,0.0,0.0,0.0,0.0,0.0,0.0
1449618410807636504,0.0,0.0,0.0,0.0,0.0,0.0
1449618410844099979,0.0,0.0,0.0,0.0,0.0,0.0
1449618410881850309,0.0,0.0,0.0,0.0,0.0,0.0
1449618410922342044,0.0,0.0,0.0,0.0,0.0,0.0
1449618410962379307,0.0,0.0,0.0,0.0,0.0,0.0
1449618411001482413,0.0,0.0,0.0,0.0,0.0,0.0
1449618411041638618,0.0,0.0,0.0,0.0,0.0,0.0
1449618411082616928,0.0,0.0,0.0,0.0,0.0,0.0
1449618411121427289,0.0,0.0,0.0,0.0,0.0,0.0
1449618411161872341,0.0,0.0,0.0,0.0,0.0,0.0
1449618411202848394,0.0,0.0,0.0,0.0,0.0,0.0
1449618411242040624,0.0,0.0,0.0,0.0,0.0,0.0
1449618411283231857,0.0,0.0,0.0,0.0,0.0,0.0
1449618411327156910,0.0,0.0,0.0,0.0,0.0,0.0
1449618411362739854,0.0,0.0,0.0,0.0,0.0,0.0
1449618411401627232,0.0,0.0,0.0,0.0,0.0,0.0
1449618411446615474,0.0,0.0,0.0,0.0,0.0,0.0
1449618411482024335,0.0,0.0,0.0,0.0,0.0,0.0
1449618411522022585,0.0,0.0,0.0,0.0,0.0,0.0
1449618411561415504,0.0,0.0,0.0,0.0,0.0,0.0
1449618411601636592,0.0,0.0,0.0,0.0,0.0,0.0
1449618411641350169,0.0,0.0,0.0,0.0,0.0,0.0
1449618411681760520,0.0,0.0,0.0,0.0,0.0,0.0
1449618411721727608,0.0,0.0,0.0,0.0,0.0,0.0
1449618411761433752,0.0,0.0,0.0,0.0,0.0,0.0
1449618411801633725,0.0,0.0,0.0,0.0,0.0,0.0
1449618411841493614,0.0,0.0,0.0,0.0,0.0,0.0
1449618411881424618,0.0,0.0,0.0,0.0,0.0,0.0
1449618411926456717,0.0,0.0,0.0,0.0,0.0,0.0
1449618411961394087,0.0,0.0,0.0,0.0,0.0,0.0
1449618412002004758,0.0,0.0,0.0,0.0,0.0,0.0
1449618412041155060,0.0,0.0,0.0,0.0,0.0,0.0
1449618412081449458,0.0,0.0,0.0,0.0,0.0,0.0
1449618412121204910,0.0,0.0,0.0,0.0,0.0,0.0
1449618412162117132,0.0,0.0,0.0,0.0,0.0,0.0
1449618412201417657,0.0,0.0,0.0,0.0,0.0,0.0
1449618412242105686,0.0,0.0,0.0,0.0,0.0,0.0
1449618412281464293,0.0,0.0,0.0,0.0,0.0,0.0
1449618412333236531,0.0,0.0,0.0,0.0,0.0,0.0
1449618412363475709,0.0,0.0,0.0,0.0,0.0,0.0
1449618412401475690,0.0,0.0,0.0,0.0,0.0,0.0
1449618412441500204,0.0,0.0,0.0,0.0,0.0,0.0
1449618412482360518,0.0,0.0,0.0,0.0,0.0,0.0
1449618412521810895,0.0,0.0,0.0,0.0,0.0,0.0
1449618412562248401,0.0,0.0,0.0,0.0,0.0,0.0
1449618412601979805,0.0,0.0,0.0,0.0,0.0,0.0
1449618412642109011,0.0,0.0,0.0,0.0,0.0,0.0
1449618412681466115,0.0,0.0,0.0,0.0,0.0,0.0
1449618412721845379,0.0,0.0,0.0,0.0,0.0,0.0
1449618412761757332,0.0,0.0,0.0,0.0,0.0,0.0
1449618412801659608,0.0,0.0,0.0,0.0,0.0,0.0
1449618412841573301,0.0,0.0,0.0,0.0,0.0,0.0
1449618412889026427,0.0,0.0,0.0,0.0,0.0,0.0
1449618412927919110,0.0,0.0,0.0,0.0,0.0,0.0
1449618412961655226,0.0,0.0,0.0,0.0,0.0,0.0
1449618413001308059,-0.0,0.0,0.0,0.0,0.0,-0.0
1449618413041392959,-0.0,0.0,0.0,0.0,0.0,-0.0
1449618413081452781,-0.0,0.0,0.0,0.0,0.0,-0.0
1449618413121580477,-0.0,0.0,0.0,0.0,0.0,-0.0
1449618413161420374,-0.0,0.0,0.0,0.0,0.0,-0.0
1449618413201300251,-0.0,0.0,0.0,0.0,0.0,-0.0
1449618413241246001,-0.0,0.0,0.0,0.0,0.0,-0.0
1449618413284631216,-0.0,0.0,0.0,0.0,0.0,-0.0
1449618413322477639,-0.0,0.0,0.0,0.0,0.0,-0.0
1449618413362018941,-0.0,0.0,0.0,0.0,0.0,-0.0
1449618413401557205,-0.0,0.0,0.0,0.0,0.0,-0.0
1449618413441227437,-0.0,0.0,0.0,0.0,0.0,-0.0
1449618413483085287,-0.0,0.0,0.0,0.0,0.0,-0.0
1449618413521298539,-0.0,0.0,0.0,0.0,0.0,-0.0
1449618413564177526,-0.0,0.0,0.0,0.0,0.0,-0.0
1449618413603431894,-0.0,0.0,0.0,0.0,0.0,-0.0
1449618413650393659,-0.0,0.0,0.0,0.0,0.0,-0.0
1449618413681461067,-0.0,0.0,0.0,0.0,0.0,-0.0
1449618413723432224,-0.0,0.0,0.0,0.0,0.0,-0.0
1449618413761314429,-0.0,0.0,0.0,0.0,0.0,-0.0
1449618413805042874,-0.0,0.0,0.0,0.0,0.0,-0.0
1449618413844270221,-0.0,0.0,0.0,0.0,0.0,-0.0
1449618413882329826,-0.0,0.0,0.0,0.0,0.0,-0.0
1449618413924458117,-0.0,0.0,0.0,0.0,0.0,-0.0
1449618413962305882,-0.0,0.0,0.0,0.0,0.0,-0.0
1449618414001268782,-0.0,0.0,0.0,0.0,0.0,-0.0
1449618414043592629,-0.0,0.0,0.0,0.0,0.0,-0.0
1449618414082440819,-0.0,0.0,0.0,0.0,0.0,-0.0
1449618414121856026,-0.0,0.0,0.0,0.0,0.0,-0.0
1449618414161608064,-0.0,0.0,0.0,0.0,0.0,-0.0
1449618414201613350,-0.0,0.0,0.0,0.0,0.0,-0.0
1449618414242775122,-0.0,0.0,0.0,0.0,0.0,-0.0
1449618414282346771,-0.0,0.0,0.0,0.0,0.0,-0.0
1449618414321714989,-0.0,0.0,0.0,0.0,0.0,-0.0
1449618414361950893,-0.0,0.0,0.0,0.0,0.0,-0.0
1449618414401360080,-0.0,0.0,0.0,0.0,0.0,-0.0
1449618414441647004,-0.0,0.0,0.0,0.0,0.0,-0.0
1449618414482238370,-0.0,0.0,0.0,0.0,0.0,-0.0
1449618414521981134,-0.0,0.0,0.0,0.0,0.0,-0.0
1449618414562110989,-0.0,0.0,0.0,0.0,0.0,-0.0
1449618414602095407,-0.0,0.0,0.0,0.0,0.0,-0.0
1449618414641447599,-0.0,0.0,0.0,0.0,0.0,-0.0
1449618414681636266,-0.0,0.0,0.0,0.0,0.0,-0.0
1449618414721737293,-0.0,0.0,0.0,0.0,0.0,-0.0
1449618414761436701,-0.0,0.0,0.0,0.0,0.0,-0.0
1449618414810744124,-0.0,0.0,0.0,0.0,0.0,-0.0
1449618414841303450,-0.0,0.0,0.0,0.0,0.0,-0.0
1449618414881620241,-0.0,0.0,0.0,0.0,0.0,-0.0
1449618414921535895,-0.0,0.0,0.0,0.0,0.0,-0.0
1449618414961684901,-0.0,0.0,0.0,0.0,0.0,-0.0
1449618415001419107,-0.0,0.0,0.0,0.0,0.0,-0.0
1449618415041522145,-0.0,0.0,0.0,0.0,0.0,-0.0
1449618415081771723,-0.0,0.0,0.0,0.0,0.0,-0.0
1449618415129406630,-0.0,0.0,0.0,0.0,0.0,-0.0
1449618415161954444,-0.0,0.0,0.0,0.0,0.0,-0.0
1449618415201429762,-0.0,0.0,0.0,0.0,0.0,-0.0
1449618415245566394,0.346574851284,0.0,0.0,0.0,0.0,-0.00921984989386
1449618415289706224,-0.0,0.0,0.0,0.0,0.0,-0.0
1449618415322670907,-0.0,0.0,0.0,0.0,0.0,-0.0
1449618415362273653,-0.0,0.0,0.0,0.0,0.0,-0.0
1449618415407244193,-0.0,0.0,0.0,0.0,0.0,-0.0
1449618415442161809,0.194346811427,0.0,0.0,0.0,0.0,-0.00284450305136
1449618415482756818,0.194346811427,0.0,0.0,0.0,0.0,-0.00284450305136
1449618415522834322,0.177680353236,0.0,0.0,0.0,0.0,-0.00263402963939
1449618415563570944,-0.0,0.0,0.0,0.0,0.0,-0.0
1449618415605017538,-0.0,0.0,0.0,0.0,0.0,-0.0
1449618415641568860,-0.0,0.0,0.0,0.0,0.0,-0.0
1449618415682017927,-0.0,0.0,0.0,0.0,0.0,-0.0
1449618415721759769,0.188852307734,0.0,0.0,0.0,0.0,-0.00280796226702
1449618415765196262,0.188852307734,0.0,0.0,0.0,0.0,-0.00280796226702
1449618415803062459,0.189301657247,0.0,0.0,0.0,0.0,-0.00309014947791
1449618415841838121,0.173031812789,0.0,0.0,0.0,0.0,-0.00309014947791
1449618415886756801,0.173031812789,0.0,0.0,0.0,0.0,-0.00309014947791
1449618415921533707,0.194724935339,0.0,0.0,0.0,0.0,-0.00309014947791
1449618415961322582,0.194724935339,0.0,0.0,0.0,0.0,-0.00309014947791
1449618416001300362,0.194724935339,0.0,0.0,0.0,0.0,-0.00309014947791
1449618416042840471,0.194724935339,0.0,0.0,0.0,0.0,-0.00309014947791
1449618416081950542,0.194724935339,0.0,0.0,0.0,0.0,-0.00309014947791
1449618416125162564,0.194724935339,0.0,0.0,0.0,0.0,-0.00309014947791
1449618416183112485,0.178455090881,0.0,0.0,0.0,0.0,-0.00309014947791
1449618416202418651,0.189301657247,0.0,0.0,0.0,0.0,-0.00309014947791
1449618416241435914,0.189301657247,0.0,0.0,0.0,0.0,-0.00309014947791
1449618416281672688,0.189437193433,0.0,0.0,0.0,0.0,-0.00317526491065
1449618416321696500,0.189437193433,0.0,0.0,0.0,0.0,-0.00317526491065
1449618416362327643,0.189437193433,0.0,0.0,0.0,0.0,-0.00317526491065
1449618416402373402,0.189437193433,0.0,0.0,0.0,0.0,-0.00317526491065
1449618416441474389,0.171729205665,0.0,0.0,0.0,0.0,-0.00234649055883
1449618416486980398,0.193580220053,0.0,0.0,0.0,0.0,-0.00234649055883
1449618416521414251,0.193610661577,0.0,0.0,0.0,0.0,-0.00236626675254
1449618416561544267,0.193610661577,0.0,0.0,0.0,0.0,-0.00236626675254
1449618416601615087,0.194010187271,0.0,0.0,0.0,0.0,-0.00262581674676
1449618416641287632,0.194010187271,0.0,0.0,0.0,0.0,-0.00262581674676
1449618416682198892,0.194010187271,0.0,0.0,0.0,0.0,-0.00262581674676
1449618416721986796,0.194044115278,0.0,0.0,0.0,0.0,-0.00264785791698
1449618416766084751,0.17789146706,0.0,0.0,0.0,0.0,-0.00275832100918
1449618416801442255,0.17789146706,0.0,0.0,0.0,0.0,-0.00275832100918
1449618416841773558,0.188190792038,0.0,0.0,0.0,0.0,-0.00239253671546
1449618416889584850,0.193682139281,0.0,0.0,0.0,0.0,-0.00241270190791
1449618416921390684,0.193682139281,0.0,0.0,0.0,0.0,-0.00241270190791
1449618416962388387,0.193744963557,0.0,0.0,0.0,0.0,-0.00245351540415
1449618417002332990,0.193744963557,0.0,0.0,0.0,0.0,-0.00245351540415
1449618417041930157,0.177373742645,0.0,0.0,0.0,0.0,-0.00343492156581
1449618417081889903,0.178138771825,0.0,0.0,0.0,0.0,-0.00406548725931
1449618417124670438,0.178138771825,0.0,0.0,0.0,0.0,-0.00406548725931
1449618417162288896,0.194438271211,0.0,0.0,0.0,0.0,-0.00406548725931
1449618417201703960,0.194551412854,0.0,0.0,0.0,0.0,-0.00416838997289
1449618417241155039,0.189201758506,0.0,0.0,0.0,0.0,-0.00423837962903
1449618417283272566,0.173074519778,0.0,0.0,0.0,0.0,-0.00311453091471
1449618417321819070,0.173074519778,0.0,0.0,0.0,0.0,-0.00311453091471
1449618417361874790,0.173074519778,0.0,0.0,0.0,0.0,-0.00311453091471
1449618417401610132,-0.0,0.0,0.0,0.0,0.0,-0.0
1449618417441799861,-0.0,0.0,0.0,0.0,0.0,-0.0
1449618417484102084,-0.0,0.0,0.0,0.0,0.0,-0.0
1449618417529808397,-0.0,0.0,0.0,0.0,0.0,-0.0
1449618417564849886,-0.0,0.0,0.0,0.0,0.0,-0.0
1449618417601805255,-0.0,0.0,0.0,0.0,0.0,-0.0
1449618417641260730,-0.0,0.0,0.0,0.0,0.0,-0.0
1449618417682265096,-0.0,0.0,0.0,0.0,0.0,-0.0
1449618417721405924,0.195101687837,0.0,0.0,0.0,0.0,-0.00466886696063
1449618417761922740,0.195144385166,0.0,0.0,0.0,0.0,-0.0033626430913
1449618417802501992,-0.0,0.0,0.0,0.0,0.0,-0.0
1449618417842249832,-0.0,0.0,0.0,0.0,0.0,-0.0
1449618417881721614,-0.0,0.0,0.0,0.0,0.0,-0.0
1449618417921504297,0.190746657219,0.0,0.0,0.0,0.0,-0.00719567223599
1449618417961807650,0.190746657219,0.0,0.0,0.0,0.0,-0.00719567223599
1449618418002405174,0.190746657219,0.0,0.0,0.0,0.0,-0.00719567223599
1449618418042472238,0.190746657219,0.0,0.0,0.0,0.0,-0.00719567223599
1449618418081800783,0.190932907077,0.0,0.0,0.0,0.0,-0.00576038235112
1449618418121712192,0.346627586443,0.0,0.0,0.0,0.0,-0.00566779186851
1449618418161397749,0.196302882195,0.0,0.0,0.0,0.0,-0.00740745945981
1449618418201401586,0.196302882195,0.0,0.0,0.0,0.0,-0.00740745945981
1449618418242538102,0.196302882195,0.0,0.0,0.0,0.0,-0.00576135735763
1449618418284412290,0.196354880028,0.0,0.0,0.0,0.0,-0.00580864956504
1449618418321417015,0.196354880028,0.0,0.0,0.0,0.0,-0.00580864956504
1449618418361472998,0.352,0.0,0.0,0.0,0.0,-0.00585638974842
1449618418402115159,-0.0,0.0,0.0,0.0,0.0,-0.0
1449618418442829243,-0.0,0.0,0.0,0.0,0.0,-0.0
1449618418481676183,-0.0,0.0,0.0,0.0,0.0,0.0
1449618418523318400,-0.0,0.0,0.0,0.0,0.0,-0.0
1449618418566758733,-0.0,0.0,0.0,0.0,0.0,-0.0
1449618418601767395,-0.0,0.0,0.0,0.0,0.0,0.0
1449618418641478033,0.31435373573,0.0,0.0,0.0,0.0,-0.00551945033826
1449618418682553523,0.31435373573,0.0,0.0,0.0,0.0,-0.00551945033826
1449618418721815416,0.31435373573,0.0,0.0,0.0,0.0,-0.00551945033826
1449618418761410770,-0.0,0.0,0.0,0.0,0.0,-0.0
1449618418801693510,-0.0,0.0,0.0,0.0,0.0,-0.0
1449618418847259908,-0.0,0.0,0.0,0.0,0.0,-0.0
1449618418881746036,0.314402469545,0.0,0.0,0.0,0.0,-0.00570307656338
1449618418921434157,-0.0,0.0,0.0,0.0,0.0,0.0
1449618418963408432,-0.0,0.0,0.0,0.0,0.0,0.0
1449618419001696373,-0.0,0.0,0.0,0.0,0.0,0.0
1449618419042109141,0.346632653481,0.0,0.0,0.0,0.0,-0.00580143803044
1449618419081399719,0.346632653481,0.0,0.0,0.0,0.0,-0.00580143803044
1449618419121567746,-0.0,0.0,0.0,0.0,0.0,-0.0
1449618419162225215,-0.0,0.0,0.0,0.0,0.0,-0.0
1449618419206279658,-0.0,0.0,0.0,0.0,0.0,-0.0
1449618419243338255,-0.0,0.0,0.0,0.0,0.0,-0.0
1449618419282579904,-0.0,0.0,0.0,0.0,0.0,0.0
1449618419331969708,-0.0,0.0,0.0,0.0,0.0,0.0
1449618419364158243,0.352,0.0,0.0,0.0,0.0,-0.00597890678205
1449618419401948360,-0.0,0.0,0.0,0.0,0.0,0.0
1449618419444885396,-0.0,0.0,0.0,0.0,0.0,-0.0
1449618419482468020,-0.0,0.0,0.0,0.0,0.0,-0.0
1449618419522143748,-0.0,0.0,0.0,0.0,0.0,-0.0
1449618419561268399,0.191390938659,0.0,0.0,0.0,0.0,-0.0061630776054
1449618419611780504,0.191390938659,0.0,0.0,0.0,0.0,-0.0061630776054
1449618419642199404,0.191390938659,0.0,0.0,0.0,0.0,-0.0061630776054
1449618419681671799,0.346646364622,0.0,0.0,0.0,0.0,-0.0061630776054
1449618419722235599,-0.0,0.0,0.0,0.0,0.0,-0.0
1449618419763191597,-0.0,0.0,0.0,0.0,0.0,-0.0
1449618419801731361,-0.0,0.0,0.0,0.0,0.0,-0.0
1449618419843664519,0.346675095043,0.0,0.0,0.0,0.0,-0.00692085968821
1449618419882553610,0.346675095043,0.0,0.0,0.0,0.0,-0.00692085968821
1449618419926044842,0.346675095043,0.0,0.0,0.0,0.0,-0.00692085968821
1449618419962795184,0.346675095043,0.0,0.0,0.0,0.0,-0.00692085968821
1449618420003763755,0.352,0.0,0.0,0.0,0.0,-0.00692085968821
1449618420043096315,0.352,0.0,0.0,0.0,0.0,-0.00692085968821
1449618420081709212,-0.0,0.0,0.0,0.0,0.0,-0.0
1449618420125281573,-0.0,0.0,0.0,0.0,0.0,-0.0
1449618420161576827,-0.0,0.0,0.0,0.0,0.0,0.0
1449618420201986531,-0.0,0.0,0.0,0.0,0.0,0.0
1449618420241394500,0.352,0.0,0.0,0.0,0.0,-0.00563130378723
1449618420283017282,0.352,0.0,0.0,0.0,0.0,-0.00563130378723
1449618420323077821,0.352,0.0,0.0,0.0,0.0,-0.00567759463662
1449618420364134452,0.341255916206,0.0,0.0,0.0,0.0,-0.00567759463662
1449618420401926733,0.346627958103,0.0,0.0,0.0,0.0,-0.00567759463662
1449618420443423713,0.346739968447,0.0,0.0,0.0,0.0,-0.0086319346177
1449618420482182393,0.346739968447,0.0,0.0,0.0,0.0,-0.0086319346177
1449618420522548733,0.346739968447,0.0,0.0,0.0,0.0,-0.0086319346177
1449618420561864617,0.346739968447,0.0,0.0,0.0,0.0,-0.0086319346177
1449618420601397878,0.346739968447,0.0,0.0,0.0,0.0,-0.0086319346177
1449618420642743911,0.346739968447,0.0,0.0,0.0,0.0,-0.0086319346177
1449618420684548128,0.325352487881,0.0,0.0,0.0,0.0,-0.00679959874404
1449618420722297270,0.346672593328,0.0,0.0,0.0,0.0,-0.00685487546419
1449618420762979065,0.346674702069,0.0,0.0,0.0,0.0,-0.00691049475419
1449618420803010017,0.346674702069,0.0,0.0,0.0,0.0,-0.00691049475419
1449618420841341941,0.314511576874,0.0,0.0,0.0,0.0,-0.00611418673867
1449618420881384356,0.314511576874,0.0,0.0,0.0,0.0,-0.00611418673867
1449618420924233540,0.314511576874,0.0,0.0,0.0,0.0,-0.00611418673867
1449618420961661645,0.346660044126,0.0,0.0,0.0,0.0,-0.00652388271533
1449618421002166886,0.346660044126,0.0,0.0,0.0,0.0,-0.00652388271533
1449618421042398604,0.346660044126,0.0,0.0,0.0,0.0,-0.00652388271533
1449618421081343641,0.346660044126,0.0,0.0,0.0,0.0,-0.00652388271533
1449618421121662007,0.346668180027,0.0,0.0,0.0,0.0,-0.00673847198486
1449618421163269154,0.346672339893,0.0,0.0,0.0,0.0,-0.00880481694874
1449618421201774893,0.346672339893,0.0,0.0,0.0,0.0,-0.00880481694874
1449618421242113435,0.346672339893,0.0,0.0,0.0,0.0,-0.00880481694874
1449618421289884106,0.352,0.0,0.0,0.0,0.0,-0.00684819096013
1449618421322891292,0.352,0.0,0.0,0.0,0.0,-0.00707268840388
1449618421361695125,0.352,0.0,0.0,0.0,0.0,-0.00707268840388
1449618421403151625,0.352,0.0,0.0,0.0,0.0,-0.00707268840388
1449618421441341068,0.352,0.0,0.0,0.0,0.0,-0.00707268840388
1449618421482825107,0.346684745893,0.0,0.0,0.0,0.0,-0.00717540665677
1449618421522161205,0.352,0.0,0.0,0.0,0.0,-0.00759080334714
1449618421562677149,0.346707494779,0.0,0.0,0.0,0.0,-0.00999697133114
1449618421601816166,0.346707494779,0.0,0.0,0.0,0.0,-0.00999697133114
1449618421642150565,0.346712249435,0.0,0.0,0.0,0.0,-0.0101582087969
1449618421681794675,0.346712249435,0.0,0.0,0.0,0.0,-0.0101582087969
1449618421722144374,0.346712249435,0.0,0.0,0.0,0.0,-0.0101582087969
1449618421761380769,0.34675219661,0.0,0.0,0.0,0.0,-0.0115128768118
1449618421801682696,0.34675219661,0.0,0.0,0.0,0.0,-0.0115128768118
1449618421842394064,0.34675219661,0.0,0.0,0.0,0.0,-0.0115128768118
1449618421889064643,0.34675219661,0.0,0.0,0.0,0.0,-0.0115128768118
1449618421925405604,0.34675219661,0.0,0.0,0.0,0.0,-0.0115128768118
1449618421961679313,0.346774348707,0.0,0.0,0.0,0.0,-0.0122640873256
1449618422002067845,0.346782286788,0.0,0.0,0.0,0.0,-0.0125332794691
1449618422041420741,0.346782286788,0.0,0.0,0.0,0.0,-0.0125332794691
1449618422085680131,0.346788158092,0.0,0.0,0.0,0.0,-0.0127323840794
1449618422122829108,0.346842022219,0.0,0.0,0.0,0.0,-0.0145589966523
1449618422162146019,0.346842022219,0.0,0.0,0.0,0.0,-0.0145589966523
1449618422202637495,0.346869295638,0.0,0.0,0.0,0.0,-0.0154838787882
1449618422242279245,0.346869295638,0.0,0.0,0.0,0.0,-0.0154838787882
1449618422282721488,0.346874550504,0.0,0.0,0.0,0.0,-0.0156620791084
1449618422321702111,0.346918938955,0.0,0.0,0.0,0.0,-0.0209823257045
1449618422361377438,0.346934549361,0.0,0.0,0.0,0.0,-0.0216293360058
1449618422402663115,0.346934549361,0.0,0.0,0.0,0.0,-0.0216293360058
1449618422442425148,0.346934549361,0.0,0.0,0.0,0.0,-0.0216293360058
1449618422482448236,0.346934549361,0.0,0.0,0.0,0.0,-0.0216293360058
1449618422523677467,0.346964174631,0.0,0.0,0.0,0.0,-0.0228572255687
1449618422565583125,0.316867130042,0.0,0.0,0.0,0.0,-0.023555362852
1449618422602397274,0.346998305452,0.0,0.0,0.0,0.0,-0.0242718583659
1449618422642177723,0.346998305452,0.0,0.0,0.0,0.0,-0.0242718583659
1449618422681934805,0.34702049718,0.0,0.0,0.0,0.0,-0.0251916471281
1449618422723418327,0.34702049718,0.0,0.0,0.0,0.0,-0.0251916471281
1449618422761528741,0.347057525687,0.0,0.0,0.0,0.0,-0.0267263814023
1449618422815954440,0.317571601165,0.0,0.0,0.0,0.0,-0.0277265736931
1449618422841596155,0.317571601165,0.0,0.0,0.0,0.0,-0.0277265736931
1449618422882437369,0.317571601165,0.0,0.0,0.0,0.0,-0.0277265736931
1449618422921376728,0.347096461785,0.0,0.0,0.0,0.0,-0.0334929403506
1449618422962764562,0.347385925356,0.0,0.0,0.0,0.0,-0.0476718086945
1449618423001445919,0.347385925356,0.0,0.0,0.0,0.0,-0.0476718086945
1449618423041636604,0.347385925356,0.0,0.0,0.0,0.0,-0.0476718086945
1449618423081826346,0.347385925356,0.0,0.0,0.0,0.0,-0.0476718086945
1449618423122060615,0.347412471106,0.0,0.0,0.0,0.0,-0.0414379358292
1449618423161675899,0.347530981179,0.0,0.0,0.0,0.0,-0.0463498667667
1449618423215159825,0.347530981179,0.0,0.0,0.0,0.0,-0.0463498667667
1449618423242109128,0.347530981179,0.0,0.0,0.0,0.0,-0.0463498667667
1449618423282262978,0.347530981179,0.0,0.0,0.0,0.0,-0.0463498667667
1449618423321682311,0.347435365525,0.0,0.0,0.0,0.0,-0.0552806344155
1449618423380716570,0.347435365525,0.0,0.0,0.0,0.0,-0.0552806344155
1449618423402515692,0.347462856745,0.0,0.0,0.0,0.0,-0.0565960038564
1449618423441768218,0.347462856745,0.0,0.0,0.0,0.0,-0.0565960038564
1449618423481365702,0.347505081172,0.0,0.0,0.0,0.0,-0.0586163115045
1449618423525861244,0.34758566256,0.0,0.0,0.0,0.0,-0.0536325593848
1449618423562228905,0.347608295218,0.0,0.0,0.0,0.0,-0.0545449046258
1449618423601788196,0.347608295218,0.0,0.0,0.0,0.0,-0.0545449046258
1449618423642983150,0.347515236229,0.0,0.0,0.0,0.0,-0.0507936030457
1449618423684216780,0.347515236229,0.0,0.0,0.0,0.0,-0.0507936030457
1449618423722152512,0.347515236229,0.0,0.0,0.0,0.0,-0.0507936030457
1449618423761565317,0.347515236229,0.0,0.0,0.0,0.0,-0.0507936030457
1449618423802877515,0.347515236229,0.0,0.0,0.0,0.0,-0.0507936030457
1449618423849063527,0.347544528803,0.0,0.0,0.0,0.0,-0.0519744162109
1449618423881661159,0.347731389769,0.0,0.0,0.0,0.0,-0.059506969963
1449618423925903752,0.347731389769,0.0,0.0,0.0,0.0,-0.059506969963
1449618423962005522,0.347764361649,0.0,0.0,0.0,0.0,-0.0608360996412
1449618424008035852,0.347764361649,0.0,0.0,0.0,0.0,-0.0608360996412
1449618424041832900,0.34783191294,0.0,0.0,0.0,0.0,-0.0635591602113
1449618424081621214,0.348099911453,0.0,0.0,0.0,0.0,-0.0743624501728
1449618424126656944,0.348099911453,0.0,0.0,0.0,0.0,-0.0743624501728
1449618424162617465,0.348146566167,0.0,0.0,0.0,0.0,-0.0762431486646
1449618424202258559,0.348146566167,0.0,0.0,0.0,0.0,-0.0762431486646
1449618424241785583,0.348146566167,0.0,0.0,0.0,0.0,-0.0762431486646
1449618424281625250,0.322790198235,0.0,0.0,0.0,0.0,-0.0989844290341
1449618424326314341,0.322790198235,0.0,0.0,0.0,0.0,-0.0989844290341
1449618424364225361,0.348388245056,0.0,0.0,0.0,0.0,-0.104977226592
1449618424401679013,0.348388245056,0.0,0.0,0.0,0.0,-0.104977226592
1449618424441309904,0.348377492212,0.0,0.0,0.0,0.0,-0.10447495557
1449618424482745387,0.348377492212,0.0,0.0,0.0,0.0,-0.10447495557
1449618424521560078,0.3205729021,0.0,0.0,0.0,0.0,-0.106607656939
1449618424565107419,0.3205729021,0.0,0.0,0.0,0.0,-0.106607656939
1449618424601605897,0.34853852444,0.0,0.0,0.0,0.0,-0.108063360711
1449618424641475370,0.34853852444,0.0,0.0,0.0,0.0,-0.108063360711
1449618424682348243,0.34853852444,0.0,0.0,0.0,0.0,-0.108063360711
1449618424724657119,0.348973169386,0.0,0.0,0.0,0.0,-0.128859770805
1449618424773836830,0.337323074247,0.0,0.0,0.0,0.0,-0.133235152078
1449618424801612496,0.326525141012,0.0,0.0,0.0,0.0,-0.136618473047
1449618424844876576,0.326157712253,0.0,0.0,0.0,0.0,-0.159921712829
1449618424883376016,0.326157712253,0.0,0.0,0.0,0.0,-0.159921712829
1449618424924568524,0.32896501665,0.0,0.0,0.0,0.0,-0.13863684198
1449618424961922055,0.328512706258,0.0,0.0,0.0,0.0,-0.160533138232
1449618425001806242,0.328512706258,0.0,0.0,0.0,0.0,-0.160533138232
1449618425041289068,0.328060449384,0.0,0.0,0.0,0.0,-0.164428712095
1449618425081184022,0.327457204254,0.0,0.0,0.0,0.0,-0.169624843093
1449618425121291254,0.327080828295,0.0,0.0,0.0,0.0,-0.192810929961
1449618425163217568,0.325655336571,0.0,0.0,0.0,0.0,-0.206560327506
1449618425201643469,0.325655336571,0.0,0.0,0.0,0.0,-0.206560327506
1449618425241246961,0.249616950843,0.0,0.0,0.0,0.0,-0.190768104066
1449618425281340910,0.249616950843,0.0,0.0,0.0,0.0,-0.190768104066
1449618425321702132,0.175137913381,0.0,0.0,0.0,0.0,-0.19755503277
1449618425361252212,0.175137913381,0.0,0.0,0.0,0.0,-0.19755503277
1449618425401880123,0.145441150928,0.0,0.0,0.0,0.0,-0.220578622818
1449618425442492705,0.147213393826,0.0,0.0,0.0,0.0,-0.223373818398
1449618425483141058,0.147213393826,0.0,0.0,0.0,0.0,-0.223373818398
1449618425522998646,0.147213393826,0.0,0.0,0.0,0.0,-0.223373818398
1449618425561600952,0.148400718742,0.0,0.0,0.0,0.0,-0.225246477127
1449618425608726567,-0.0,0.0,0.0,0.0,0.0,0.0
1449618425641670346,-0.0,0.0,0.0,0.0,0.0,0.0
1449618425681205920,-0.0,0.0,0.0,0.0,0.0,0.0
1449618425722289284,-0.0,0.0,0.0,0.0,0.0,0.0
1449618425762016302,-0.0,0.0,0.0,0.0,0.0,0.0
1449618425801472742,-0.0,0.0,0.0,0.0,0.0,0.0
1449618425844874191,-0.0,0.0,0.0,0.0,0.0,0.0
1449618425881297622,-0.0,0.0,0.0,0.0,0.0,0.0
1449618425921370660,-0.0,0.0,0.0,0.0,0.0,0.0
1449618425961435851,-0.0,0.0,0.0,0.0,0.0,0.0
1449618426001849619,-0.0,0.0,0.0,0.0,0.0,0.0
1449618426041368864,-0.0,0.0,0.0,0.0,0.0,0.0
1449618426082129062,-0.0,0.0,0.0,0.0,0.0,0.0
1449618426122115277,-0.0,0.0,0.0,0.0,0.0,0.0
1449618426163606037,-0.0,0.0,0.0,0.0,0.0,0.0
1449618426201475244,-0.0,0.0,0.0,0.0,0.0,0.0
1449618426241630872,-0.0,0.0,0.0,0.0,0.0,0.0
1449618426281578092,-0.0,0.0,0.0,0.0,0.0,0.0
1449618426322779592,-0.0,0.0,0.0,0.0,0.0,0.0
1449618426361706590,-0.0,0.0,0.0,0.0,0.0,0.0
1449618426402133751,-0.0,0.0,0.0,0.0,0.0,0.0
1449618426441296484,-0.0,0.0,0.0,0.0,0.0,0.0
1449618426482280635,-0.0,0.0,0.0,0.0,0.0,-0.0
1449618426521517218,-0.0,0.0,0.0,0.0,0.0,0.0
1449618426562302822,-0.0,0.0,0.0,0.0,0.0,-0.0
1449618426601549747,0.0,0.0,0.0,0.0,0.0,-0.0
1449618426641426816,0.0,0.0,0.0,0.0,0.0,-0.0
1449618426681843708,0.0,0.0,0.0,0.0,0.0,-0.0
1449618426725709864,0.0,0.0,0.0,0.0,0.0,0.0
1449618426761658339,0.0,0.0,0.0,0.0,0.0,0.0
1449618426803368732,0.0,0.0,0.0,0.0,0.0,-0.0
1449618426841439927,0.0,0.0,0.0,0.0,0.0,-0.0
1449618426884731620,0.0,0.0,0.0,0.0,0.0,-0.0
1449618426921234323,0.0,0.0,0.0,0.0,0.0,-0.0
1449618426962904730,0.0,0.0,0.0,0.0,0.0,-0.0
1449618427002460133,0.0,0.0,0.0,0.0,0.0,-0.0
1449618427041972160,0.0,0.0,0.0,0.0,0.0,0.0
1449618427081296371,0.0,0.0,0.0,0.0,0.0,0.0
1449618427121128205,0.0,0.0,0.0,0.0,0.0,-0.0
1449618427162736905,0.0,0.0,0.0,0.0,0.0,-0.0
1449618427201371221,0.0,0.0,0.0,0.0,0.0,-0.0
1449618427243257609,0.0,0.0,0.0,0.0,0.0,-0.0
1449618427285468632,0.0,0.0,0.0,0.0,0.0,-0.0
1449618427321230168,-0.0,0.0,0.0,0.0,0.0,-0.0
1449618427363453505,-0.0,0.0,0.0,0.0,0.0,-0.0
1449618427402874674,-0.0,0.0,0.0,0.0,0.0,-0.0
1449618427441148991,-0.0,0.0,0.0,0.0,0.0,-0.0
1449618427481896779,-0.0,0.0,0.0,0.0,0.0,-0.0
1449618427521940743,-0.0,0.0,0.0,0.0,0.0,-0.0
1449618427563553903,-0.0,0.0,0.0,0.0,0.0,-0.0
1449618427601584272,-0.0,0.0,0.0,0.0,0.0,-0.0
1449618427641282059,-0.0,0.0,0.0,0.0,0.0,-0.0
1449618427681767524,-0.0,0.0,0.0,0.0,0.0,-0.0
1449618427722348132,-0.0,0.0,0.0,0.0,0.0,-0.0
1449618427761748153,-0.0,0.0,0.0,0.0,0.0,-0.0
1449618427801480946,-0.0,0.0,0.0,0.0,0.0,-0.0
1449618427841575740,-0.0,0.0,0.0,0.0,0.0,-0.0
1449618427881762456,-0.0,0.0,0.0,0.0,0.0,-0.0
1449618427921533934,-0.0,0.0,0.0,0.0,0.0,-0.0
1449618427966077485,-0.0,0.0,0.0,0.0,0.0,-0.0
1449618428001430453,-0.0,0.0,0.0,0.0,0.0,-0.0
1449618428041541771,-0.0,0.0,0.0,0.0,0.0,-0.0
1449618428082444720,-0.0,0.0,0.0,0.0,0.0,-0.0
1449618428121376388,-0.0,0.0,0.0,0.0,0.0,-0.0
1449618428165991985,-0.0,0.0,0.0,0.0,0.0,-0.0
1449618428203383019,-0.0,0.0,0.0,0.0,0.0,-0.0
1449618428241791931,-0.0,0.0,0.0,0.0,0.0,-0.0
1449618428281773934,-0.0,0.0,0.0,0.0,0.0,-0.0
1449618428321771779,-0.0,0.0,0.0,0.0,0.0,-0.0
1449618428362053498,-0.0,0.0,0.0,0.0,0.0,-0.0
1449618428402076890,-0.0,0.0,0.0,0.0,0.0,-0.0
1449618428441491485,-0.0,0.0,0.0,0.0,0.0,-0.0
1449618428481506408,-0.0,0.0,0.0,0.0,0.0,-0.0
1449618428522042910,-0.0,0.0,0.0,0.0,0.0,-0.0
1449618428561653996,-0.0,0.0,0.0,0.0,0.0,-0.0
1449618428602092271,-0.0,0.0,0.0,0.0,0.0,-0.0
1449618428641830346,-0.0,0.0,0.0,0.0,0.0,-0.0
1449618428681340588,-0.0,0.0,0.0,0.0,0.0,-0.0
1449618428724540812,-0.0,0.0,0.0,0.0,0.0,-0.0
1449618428762699991,-0.0,0.0,0.0,0.0,0.0,-0.0
1449618428805510127,-0.0,0.0,0.0,0.0,0.0,-0.0
1449618428841412666,-0.0,0.0,0.0,0.0,0.0,-0.0
1449618428886012039,-0.0,0.0,0.0,0.0,0.0,-0.0
1449618428924310383,-0.0,0.0,0.0,0.0,0.0,-0.0
1449618428961943125,-0.0,0.0,0.0,0.0,0.0,-0.0
1449618429004183947,0.101136185163,0.0,0.0,0.0,0.0,-0.248212480545
1449618429041327633,-0.346412698746,0.0,0.0,0.0,0.0,0.0
1449618429081950367,-0.324063493729,0.0,0.0,0.0,0.0,-0.00634920671582
1449618429126327304,-0.324063493729,0.0,0.0,0.0,0.0,-0.00634920671582
1449618429174818475,-0.324063493729,0.0,0.0,0.0,0.0,-0.00634920671582
1449618429201751944,-0.346412698746,0.0,0.0,0.0,0.0,-0.00634920671582
1449618429241092686,-0.346412698746,0.0,0.0,0.0,0.0,-0.00634920671582
1449618429281758208,-0.346412698746,0.0,0.0,0.0,0.0,-0.00634920671582
1449618429321539387,-0.346412698746,0.0,0.0,0.0,0.0,0.0
1449618429374524136,-0.346412698746,0.0,0.0,0.0,0.0,0.0
1449618429405512414,-0.346412698746,0.0,0.0,0.0,0.0,0.0
1449618429441764842,-0.346412698746,0.0,0.0,0.0,0.0,0.0
1449618429481373478,-0.346412698746,0.0,0.0,0.0,0.0,0.0
1449618429521397656,-0.346412698746,0.0,0.0,0.0,0.0,0.0
1449618429561480273,-0.346412698746,0.0,0.0,0.0,0.0,0.0
1449618429601677289,-0.0,0.0,0.0,0.0,0.0,-0.0
1449618429641729965,-0.0,0.0,0.0,0.0,0.0,-0.0
1449618429681279660,-0.0,0.0,0.0,0.0,0.0,-0.0
1449618429721315190,-0.0,0.0,0.0,0.0,0.0,-0.0
1449618429762441816,0.0,0.0,0.0,0.0,0.0,0.0
1449618429801908501,0.0,0.0,0.0,0.0,0.0,0.0
1449618429842125493,0.0,0.0,0.0,0.0,0.0,0.0
1449618429885549692,0.0,0.0,0.0,0.0,0.0,0.0
1449618429921401218,-0.346412698746,0.0,0.0,0.0,0.0,0.0
1449618429962601823,-0.346412698746,0.0,0.0,0.0,0.0,0.0
1449618430005222978,-0.346412698746,0.0,0.0,0.0,0.0,0.0
1449618430042627200,-0.346412698746,0.0,0.0,0.0,0.0,0.0
1449618430081859547,-0.346412698746,0.0,0.0,0.0,0.0,0.0
1449618430124452667,0.0,0.0,0.0,0.0,0.0,-0.0
1449618430161405560,0.0,0.0,0.0,0.0,0.0,-0.0
1449618430203767227,0.0,0.0,0.0,0.0,0.0,-0.0
1449618430245627000,0.0,0.0,0.0,0.0,0.0,-0.0
1449618430282970200,0.0,0.0,0.0,0.0,0.0,-0.0
1449618430322552097,-0.346412698746,0.0,0.0,0.0,0.0,0.0
1449618430362556560,-0.346412698746,0.0,0.0,0.0,0.0,0.0
1449618430402509665,-0.324063493729,0.0,0.0,0.0,0.0,0.0
1449618430444575278,-0.324063493729,0.0,0.0,0.0,0.0,0.0
1449618430481666413,-0.324063493729,0.0,0.0,0.0,0.0,0.0
1449618430522436926,0.0,0.0,0.0,0.0,0.0,-0.0
1449618430569067645,0.0,0.0,0.0,0.0,0.0,-0.0
1449618430601449183,-0.31288889122,0.0,0.0,0.0,0.0,0.0
1449618430642236948,-0.31288889122,0.0,0.0,0.0,0.0,0.0
1449618430684005612,-0.31288889122,0.0,0.0,0.0,0.0,0.0
1449618430721640800,-0.346412698746,0.0,0.0,0.0,0.0,0.0
1449618430765051008,-0.346412698746,0.0,0.0,0.0,0.0,0.0
1449618430823458686,-0.31288889122,0.0,0.0,0.0,0.0,0.0
1449618430846573372,-0.31288889122,0.0,0.0,0.0,0.0,0.0
1449618430881954202,-0.31288889122,0.0,0.0,0.0,0.0,0.0
1449618430921464241,-0.346412698746,0.0,0.0,0.0,0.0,0.0
1449618430961948142,-0.346412698746,0.0,0.0,0.0,0.0,0.0
1449618431001643197,0.0,0.0,0.0,0.0,0.0,-0.0
1449618431042701383,0.0,0.0,0.0,0.0,0.0,-0.0
1449618431081674233,0.0,0.0,0.0,0.0,0.0,-0.0
1449618431126650088,-0.346412698746,0.0,0.0,0.0,0.0,0.0
1449618431161480075,-0.346412698746,0.0,0.0,0.0,0.0,0.0
1449618431201936457,-0.346412698746,0.0,0.0,0.0,0.0,0.0
1449618431242910415,-0.346412698746,0.0,0.0,0.0,0.0,0.0
1449618431281791997,-0.346412698746,0.0,0.0,0.0,0.0,0.0
1449618431322018923,-0.346412698746,0.0,0.0,0.0,0.0,0.0
1449618431366038418,-0.346412698746,0.0,0.0,0.0,0.0,0.0
1449618431401546830,-0.346412698746,0.0,0.0,0.0,0.0,0.0
1449618431442231812,-0.346412698746,0.0,0.0,0.0,0.0,0.0
1449618431481608006,-0.346412698746,0.0,0.0,0.0,0.0,0.0
1449618431521772804,0.0,0.0,0.0,0.0,0.0,-0.0
1449618431561421550,0.0,0.0,0.0,0.0,0.0,-0.0
1449618431601419640,-0.346412698746,0.0,0.0,0.0,0.0,0.0
1449618431645744780,-0.346412698746,0.0,0.0,0.0,0.0,0.0
1449618431681314057,-0.346412698746,0.0,0.0,0.0,0.0,0.0
1449618431722948763,-0.346412698746,0.0,0.0,0.0,0.0,0.0
1449618431762560610,-0.346412698746,0.0,0.0,0.0,0.0,0.0
1449618431803366602,-0.346412698746,0.0,0.0,0.0,0.0,0.0
1449618431841811413,-0.346412698746,0.0,0.0,0.0,0.0,0.0
1449618431881363684,-0.346412698746,0.0,0.0,0.0,0.0,0.0
1449618431923529212,-0.340825397491,0.0,0.0,0.0,0.0,0.0
1449618431962085621,-0.340825397491,0.0,0.0,0.0,0.0,0.0
1449618432002598592,-0.346412698746,0.0,0.0,0.0,0.0,0.0
1449618432043069808,-0.346412698746,0.0,0.0,0.0,0.0,0.0
1449618432083165363,-0.346412698746,0.0,0.0,0.0,0.0,0.0
1449618432122829804,-0.346412698746,0.0,0.0,0.0,0.0,0.0
1449618432164789800,-0.346412698746,0.0,0.0,0.0,0.0,0.0
1449618432203324478,-0.340825397491,0.0,0.0,0.0,0.0,0.0
1449618432241713072,-0.340825397491,0.0,0.0,0.0,0.0,0.0
1449618432281915318,-0.340825397491,0.0,0.0,0.0,0.0,0.0
1449618432321302807,-0.346412698746,0.0,0.0,0.0,0.0,0.0
1449618432361614655,-0.346412698746,0.0,0.0,0.0,0.0,0.0
1449618432422030098,-0.340825397491,0.0,0.0,0.0,0.0,0.0
1449618432442726129,-0.340825397491,0.0,0.0,0.0,0.0,0.0
1449618432481907056,-0.340825397491,0.0,0.0,0.0,0.0,0.0
1449618432522162675,-0.346412698746,0.0,0.0,0.0,0.0,0.0
1449618432561990369,-0.346412698746,0.0,0.0,0.0,0.0,0.0
1449618432601433110,-0.346412698746,0.0,0.0,0.0,0.0,0.0
1449618432641274184,-0.346412698746,0.0,0.0,0.0,0.0,0.0
1449618432681402970,-0.346412698746,0.0,0.0,0.0,0.0,0.0
1449618432722996844,-0.31288889122,0.0,0.0,0.0,0.0,0.0
1449618432761344924,-0.31288889122,0.0,0.0,0.0,0.0,0.0
1449618432801345493,-0.346412698746,0.0,0.0,0.0,0.0,0.0
1449618432846360812,-0.346412698746,0.0,0.0,0.0,0.0,0.0
1449618432881552310,-0.346412698746,0.0,0.0,0.0,0.0,0.0
1449618432921693933,-0.31288889122,0.0,0.0,0.0,0.0,0.0
1449618432962322656,-0.31288889122,0.0,0.0,0.0,0.0,0.0
1449618433001830896,-0.346412698746,0.0,0.0,0.0,0.0,0.0
1449618433041548887,-0.346412698746,0.0,0.0,0.0,0.0,0.0
1449618433081927257,-0.346412698746,0.0,0.0,0.0,0.0,0.0
1449618433121213090,-0.31288889122,0.0,0.0,0.0,0.0,0.0
1449618433161814088,-0.31288889122,0.0,0.0,0.0,0.0,0.0
1449618433207177451,-0.346412698746,0.0,0.0,0.0,0.0,0.0
1449618433241407670,-0.346412698746,0.0,0.0,0.0,0.0,0.0
1449618433281975479,-0.346412698746,0.0,0.0,0.0,0.0,0.0
1449618433321803163,-0.346412698746,0.0,0.0,0.0,0.0,0.0
1449618433362399108,-0.346412698746,0.0,0.0,0.0,0.0,0.0
1449618433401788185,-0.346412698746,0.0,0.0,0.0,0.0,0.0
1449618433441833143,-0.346412698746,0.0,0.0,0.0,0.0,0.0
1449618433481832612,-0.346412698746,0.0,0.0,0.0,0.0,0.0
1449618433522480808,-0.346412698746,0.0,0.0,0.0,0.0,0.0
1449618433564678608,-0.346412698746,0.0,0.0,0.0,0.0,0.0
1449618433605602423,-0.346412698746,0.0,0.0,0.0,0.0,0.0
1449618433641512119,-0.346412698746,0.0,0.0,0.0,0.0,0.0
1449618433682174729,-0.346412698746,0.0,0.0,0.0,0.0,0.0
1449618433723530073,-0.346412698746,0.0,0.0,0.0,0.0,0.0
1449618433762458265,-0.346412698746,0.0,0.0,0.0,0.0,0.0
1449618433802242900,-0.346412698746,0.0,0.0,0.0,0.0,0.0
1449618433843634125,-0.346412698746,0.0,0.0,0.0,0.0,0.0
1449618433881908169,-0.346412698746,0.0,0.0,0.0,0.0,0.0
1449618433922983183,-0.346412698746,0.0,0.0,0.0,0.0,0.0
1449618433963841906,-0.346412698746,0.0,0.0,0.0,0.0,0.0
1449618434001357656,-0.346412698746,0.0,0.0,0.0,0.0,0.0
1449618434041615771,-0.346412698746,0.0,0.0,0.0,0.0,0.0
1449618434082620158,-0.346412698746,0.0,0.0,0.0,0.0,0.0
1449618434129773839,-0.0558730177879,0.0,0.0,0.0,0.0,0.0
1449618434182334783,-0.0558730177879,0.0,0.0,0.0,0.0,0.0
1449618434201257793,-0.0558730177879,0.0,0.0,0.0,0.0,0.0
1449618434242042684,0.017384918893,0.0,0.0,0.0,0.0,0.0376470465409
1449618434281647465,0.017384918893,0.0,0.0,0.0,0.0,0.0376470465409
1449618434321427224,0.0157200186452,0.0,0.0,0.0,0.0,0.0349185956152
1449618434361520603,0.0157200186452,0.0,0.0,0.0,0.0,0.0349185956152
1449618434401400132,0.0157200186452,0.0,0.0,0.0,0.0,0.0349185956152
1449618434449647964,0.0,0.0,0.0,0.0,0.0,0.0
1449618434481406498,0.0,0.0,0.0,0.0,0.0,0.0
1449618434521503836,0.0,0.0,0.0,0.0,0.0,0.0
1449618434566547329,0.0,0.0,0.0,0.0,0.0,0.0
1449618434601404514,0.0,0.0,0.0,0.0,0.0,0.0
1449618434641449853,0.0,0.0,0.0,0.0,0.0,0.0
1449618434681316754,0.0,0.0,0.0,0.0,0.0,0.0
1449618434723052803,0.0,0.0,0.0,0.0,0.0,0.0
1449618434761565198,0.0,0.0,0.0,0.0,0.0,0.0
1449618434801651785,0.0,0.0,0.0,0.0,0.0,0.0
1449618434844335662,0.0,0.0,0.0,0.0,0.0,0.0
1449618434881399242,0.0,0.0,0.0,0.0,0.0,0.0
1449618434939834540,0.0,0.0,0.0,0.0,0.0,-0.0
1449618434965568159,0.0,0.0,0.0,0.0,0.0,-0.0
1449618435001451572,0.0,0.0,0.0,0.0,0.0,0.0
1449618435042670371,0.0,0.0,0.0,0.0,0.0,0.0
1449618435081493868,0.0,0.0,0.0,0.0,0.0,0.0
1449618435122996328,0.0,0.0,0.0,0.0,0.0,0.0
1449618435161198252,0.0,0.0,0.0,0.0,0.0,0.0
1449618435201801826,-0.0111746038198,0.0,0.0,0.0,0.0,0.0
1449618435249950845,-0.0111746038198,0.0,0.0,0.0,0.0,0.0
1449618435282454701,-0.0111746038198,0.0,0.0,0.0,0.0,0.0
1449618435322108404,-0.340825397491,0.0,0.0,0.0,0.0,0.0
1449618435363079774,-0.340825397491,0.0,0.0,0.0,0.0,0.0
