%time,field.header.seq,field.header.stamp,field.header.frame_id,field.pose.position.x,field.pose.position.y,field.pose.position.z,field.pose.orientation.x,field.pose.orientation.y,field.pose.orientation.z,field.pose.orientation.w
1449618392595321124,0,1449618392534956842,/odom,2.41957998276,-0.227287396789,0.659117102623,0.0,0.0,0.286006353084,0.958227721367
1449618392730118786,1,1449618392677297805,/odom,2.52286958694,-0.187530249357,0.717827856541,0.0,0.0,0.305284485098,0.952261194819
1449618392925234494,2,1449618392858278476,/odom,2.40539312363,-0.21558085084,0.65814602375,0.0,0.0,0.258837572918,0.965920861586
1449618393132812988,3,1449618393065227914,/odom,2.40960264206,-0.218650370836,0.658814966679,0.0,0.0,0.255854495607,0.966715303012
1449618393284033612,4,1449618393220699134,/odom,2.43840813637,-0.226772174239,0.669334828854,0.0,0.0,0.275091618198,0.961418016056
1449618393429347935,5,1449618393368584823,/odom,2.45270252228,-0.212476551533,0.658038377762,0.0,0.0,0.308114737889,0.951349204181
1449618393535898478,6,1449618393468122109,/odom,2.4808113575,-0.182363063097,0.698420107365,0.0,0.0,0.303991502291,0.952674743307
1449618393642058074,7,1449618393578109903,/odom,2.42272591591,-0.211899727583,0.658429384232,0.0,0.0,0.265562477495,0.964093652373
1449618393844821943,8,1449618393578109903,/odom,2.42272591591,-0.211899727583,0.658429384232,0.0,0.0,0.265562477495,0.964093652373
1449618393936802675,9,1449618393885749967,/odom,2.46620368958,-0.211790397763,0.729657292366,0.0,0.0,0.303776518608,0.952743316294
1449618394154908898,10,1449618394089741120,/odom,2.5363214016,-0.190713554621,0.738687872887,0.0,0.0,0.319261184153,0.947666764371
1449618394350262744,11,1449618394275586772,/odom,2.46926212311,-0.20449128747,0.669176638126,0.0,0.0,0.320999000364,0.947079532967
1449618394429926899,12,1449618394369445024,/odom,2.47292304039,-0.174286022782,0.658651709557,0.0,0.0,0.318605179568,0.947887514187
1449618394516181302,13,1449618394458256939,/odom,2.44905209541,-0.224782526493,0.687484323978,0.0,0.0,0.28905519893,0.957312431744
1449618394640045915,14,1449618394458256939,/odom,2.44905209541,-0.224782526493,0.687484323978,0.0,0.0,0.28905519893,0.957312431744
1449618394778735138,15,1449618394713675820,/odom,2.51214671135,-0.167538627982,0.717779815197,0.0,0.0,0.321588324831,0.946879585445
1449618394983697793,16,1449618394919183058,/odom,2.43470573425,-0.208239540458,0.668420135975,0.0,0.0,0.277413037248,0.960750751634
1449618395208826454,17,1449618395125539989,/odom,2.45262050629,-0.20308290422,0.679130554199,0.0,0.0,0.29807235959,0.95454327741
1449618395343380447,18,1449618395291183952,/odom,2.50805640221,-0.185390993953,0.738145291805,0.0,0.0,0.315055874714,0.949073124584
1449618395517851914,19,1449618395440017173,/odom,2.47550010681,-0.200467377901,0.667709946632,0.0,0.0,0.318318366364,0.947983869923
1449618395702132465,20,1449618395630193142,/odom,2.49668121338,-0.174354493618,0.688400685787,0.0,0.0,0.313250637679,0.949670489166
1449618395840000863,21,1449618395775735420,/odom,2.4648976326,-0.181474551558,0.658917665482,0.0,0.0,0.313392908975,0.949623548889
1449618396060547297,22,1449618395988965765,/odom,2.49675393105,-0.174978941679,0.68886834383,0.0,0.0,0.309872736207,0.95077804316
1449618396236951241,23,1449618396176097500,/odom,2.46150970459,-0.18665060401,0.667945027351,0.0,0.0,0.317993157184,0.948093008088
1449618396352418934,24,1449618396285020764,/odom,2.45103120804,-0.200502187014,0.669831335545,0.0,0.0,0.301337931317,0.953517409988
1449618396579145585,25,1449618396499836501,/odom,2.53298544884,-0.176307410002,0.717695534229,0.0,0.0,0.328154470151,0.944624075344
1449618396755938778,26,1449618396686597984,/odom,2.48989605904,-0.175913572311,0.698064625263,0.0,0.0,0.322928879347,0.946423234544
1449618396954824305,27,1449618396686597984,/odom,2.48989605904,-0.175913572311,0.698064625263,0.0,0.0,0.322928879347,0.946423234544
1449618397179263069,28,1449618397109470556,/odom,2.44306468964,-0.22746476531,0.669622182846,0.0,0.0,0.29176618095,0.956489673574
1449618397354481929,29,1449618397109470556,/odom,2.44306468964,-0.22746476531,0.669622182846,0.0,0.0,0.29176618095,0.956489673574
1449618397550303563,30,1449618397485977213,/odom,2.47661733627,-0.196824803948,0.697928845882,0.0,0.0,0.31152886231,0.950236690487
1449618397765676616,31,1449618397681341258,/odom,2.46267700195,-0.214367121458,0.687456250191,0.0,0.0,0.294751708206,0.955573874962
1449618397982327437,32,1449618397931884378,/odom,2.45551586151,-0.233790069818,0.738978981972,0.0,0.0,0.298050404425,0.954550133006
1449618398138906832,33,1449618398073918798,/odom,2.45674586296,-0.212091907859,0.708025336266,0.0,0.0,0.292412801536,0.956292190441
1449618398215860563,34,1449618398154921842,/odom,2.46676397324,-0.225870907307,0.667732179165,0.0,0.0,0.309874447664,0.950777485369
1449618398435192752,35,1449618398375792161,/odom,2.4424674511,-0.202596634626,0.65805542469,0.0,0.0,0.289918068758,0.957051468526
1449618398694769698,36,1449618398620584204,/odom,2.4373421669,-0.213852360845,0.68833732605,0.0,0.0,0.280690776682,0.959798253742
1449618398878125420,37,1449618398811824286,/odom,2.48618173599,-0.184204399586,0.698741018772,0.0,0.0,0.313533484407,0.949577144921
1449618399056109794,38,1449618398986950967,/odom,2.52296757698,-0.179774746299,0.739581227303,0.0,0.0,0.331356099787,0.943505768469
1449618399238242263,39,1449618399175237082,/odom,2.4719479084,-0.1932259202,0.698940753937,0.0,0.0,0.317095489434,0.948393615848
1449618399456880925,40,1449618399384941301,/odom,2.44435954094,-0.218224823475,0.688033759594,0.0,0.0,0.289185965901,0.957272937634
1449618399686167336,41,1449618399615973449,/odom,2.441167593,-0.217978656292,0.687601029873,0.0,0.0,0.306576603732,0.951845988616
1449618399850106969,42,1449618399778368369,/odom,2.48146128654,-0.197774708271,0.708732306957,0.0,0.0,0.305717516047,0.952122261257
1449618399946802035,43,1449618399865568548,/odom,2.44489002228,-0.224966928363,0.659076571465,0.0,0.0,0.296948927133,0.954893362986
1449618400182641459,44,1449618400115862395,/odom,2.46545624733,-0.196153923869,0.717443823814,0.0,0.0,0.32942431117,0.944181986277
1449618400356994825,45,1449618400115862395,/odom,2.46545624733,-0.196153923869,0.717443823814,0.0,0.0,0.32942431117,0.944181986277
1449618400551415438,46,1449618400486823199,/odom,2.44084262848,-0.218758314848,0.697530329227,0.0,0.0,0.291592325358,0.956542688955
1449618400771494226,47,1449618400688425639,/odom,2.45643210411,-0.19546841085,0.689267754555,0.0,0.0,0.320866957175,0.947124276847
1449618400951594547,48,1449618400887371800,/odom,2.4509909153,-0.20617672801,0.697777986526,0.0,0.0,0.286639854812,0.958038409268
1449618401180275384,49,1449618401104734900,/odom,2.4412727356,-0.209023401141,0.69812220335,0.0,0.0,0.29435471954,0.955696237873
1449618401384199647,50,1449618401104734900,/odom,2.4412727356,-0.209023401141,0.69812220335,0.0,0.0,0.29435471954,0.955696237873
1449618401549385630,51,1449618401104734900,/odom,2.4412727356,-0.209023401141,0.69812220335,0.0,0.0,0.29435471954,0.955696237873
1449618401734039101,52,1449618401104734900,/odom,2.4412727356,-0.209023401141,0.69812220335,0.0,0.0,0.29435471954,0.955696237873
1449618402012088642,53,1449618401941622707,/odom,2.47365903854,-0.196327239275,0.707820951939,0.0,0.0,0.321525957544,0.94690076493
1449618402185674669,54,1449618402118831832,/odom,2.48777985573,-0.19281385839,0.699387013912,0.0,0.0,0.322209631152,0.946668344032
1449618402406794471,55,1449618402333343307,/odom,2.52685260773,-0.18375980854,0.728552758694,0.0,0.0,0.336851586147,0.941557756545
1449618402573269781,56,1449618402504686160,/odom,2.43313550949,-0.209018200636,0.668546974659,0.0,0.0,0.279365321628,0.960184886921
1449618402821718140,57,1449618402742915445,/odom,2.4919731617,-0.178317651153,0.698203384876,0.0,0.0,0.318893332675,0.94779061104
1449618402977745133,58,1449618402742915445,/odom,2.4919731617,-0.178317651153,0.698203384876,0.0,0.0,0.318893332675,0.94779061104
1449618403148990613,59,1449618403073896383,/odom,2.42952370644,-0.198027163744,0.69776725769,0.0,0.0,0.298011445603,0.954562296705
1449618403229658272,60,1449618403160948807,/odom,2.41311740875,-0.208709284663,0.669583022594,0.0,0.0,0.295077350562,0.955473368119
1449618403356062963,61,1449618403284138916,/odom,2.44443702698,-0.195896267891,0.687951266766,0.0,0.0,0.287178364088,0.957877125314
1449618403563388223,62,1449618403483374174,/odom,2.53408098221,-0.167972505093,0.729232847691,0.0,0.0,0.344613944656,0.938744496201
1449618403767998518,63,1449618403483374174,/odom,2.53408098221,-0.167972505093,0.729232847691,0.0,0.0,0.344613944656,0.938744496201
1449618403948272148,64,1449618403880455739,/odom,2.46532320976,-0.190633505583,0.667725384235,0.0,0.0,0.30652047676,0.951864064521
1449618404846144870,65,1449618404771939442,/odom,2.48977279663,-0.180423289537,0.707584559917,0.0,0.0,0.323892666794,0.946093832766
1449618404944183070,66,1449618404771939442,/odom,2.48977279663,-0.180423289537,0.707584559917,0.0,0.0,0.323892666794,0.946093832766
1449618405089843356,67,1449618404771939442,/odom,2.48977279663,-0.180423289537,0.707584559917,0.0,0.0,0.323892666794,0.946093832766
1449618405238524894,68,1449618405152784176,/odom,2.54782438278,-0.158587604761,0.759392261505,0.0,0.0,0.333640406181,0.942700418672
1449618405454100296,69,1449618405386525721,/odom,2.45061016083,-0.189479380846,0.708848714828,0.0,0.0,0.299878632656,0.953977361197
1449618405659932671,70,1449618405581006648,/odom,2.42953777313,-0.213101372123,0.667542338371,0.0,0.0,0.290039218347,0.957014760503
1449618405840741117,71,1449618405581006648,/odom,2.42953777313,-0.213101372123,0.667542338371,0.0,0.0,0.290039218347,0.957014760503
1449618405970845575,72,1449618405900744943,/odom,2.46994590759,-0.188443154097,0.689478754997,0.0,0.0,0.318199276321,0.9480238502
1449618406166586047,73,1449618406104510818,/odom,2.50393271446,-0.173104137182,0.708889007568,0.0,0.0,0.328031759143,0.944666695186
1449618406345286196,74,1449618406283210374,/odom,2.48863887787,-0.167480260134,0.699178338051,0.0,0.0,0.337382111704,0.94136778716
1449618406534522281,75,1449618406472310239,/odom,2.44794940948,-0.204985290766,0.687966048717,0.0,0.0,0.29391611174,0.955831219023
1449618406758756139,76,1449618406472310239,/odom,2.44794940948,-0.204985290766,0.687966048717,0.0,0.0,0.29391611174,0.955831219023
1449618406926770220,77,1449618406472310239,/odom,2.44794940948,-0.204985290766,0.687966048717,0.0,0.0,0.29391611174,0.955831219023
1449618407043424490,78,1449618406974155705,/odom,2.43969678879,-0.205019682646,0.677991330624,0.0,0.0,0.290525909721,0.956867125457
1449618407249424190,79,1449618406974155705,/odom,2.43969678879,-0.205019682646,0.677991330624,0.0,0.0,0.290525909721,0.956867125457
1449618407504751911,80,1449618406974155705,/odom,2.43969678879,-0.205019682646,0.677991330624,0.0,0.0,0.290525909721,0.956867125457
1449618407635028324,81,1449618406974155705,/odom,2.43969678879,-0.205019682646,0.677991330624,0.0,0.0,0.290525909721,0.956867125457
1449618407794297719,82,1449618407734763737,/odom,2.51101732254,-0.170010507107,0.728824913502,0.0,0.0,0.345793376873,0.938310684427
1449618407925896346,83,1449618407858626505,/odom,2.51972937584,-0.166589140892,0.737730681896,0.0,0.0,0.360831566384,0.932630999217
1449618408032945614,84,1449618407980430654,/odom,2.5242357254,-0.18629412353,0.769377887249,0.0,0.0,0.333007247428,0.942924266927
1449618408153828073,85,1449618407980430654,/odom,2.5242357254,-0.18629412353,0.769377887249,0.0,0.0,0.333007247428,0.942924266927
1449618408374908540,86,1449618408307610925,/odom,2.44787192345,-0.197645872831,0.697979986668,0.0,0.0,0.29916047885,0.954202812768
1449618408510301883,87,1449618408307610925,/odom,2.44787192345,-0.197645872831,0.697979986668,0.0,0.0,0.29916047885,0.954202812768
1449618408766591610,88,1449618408704189526,/odom,2.52804231644,-0.161338657141,0.727892637253,0.0,0.0,0.340531124739,0.940233243979
1449618408954351520,89,1449618408887074925,/odom,2.42119789124,-0.224278897047,0.688159406185,0.0,0.0,0.280429734871,0.959874556283
1449618409173675940,90,1449618409102073883,/odom,2.44286584854,-0.219446361065,0.688216090202,0.0,0.0,0.288497370311,0.957480687703
1449618409320582570,91,1449618409247317169,/odom,2.33390927315,-0.263653516769,0.677672684193,0.0,0.0,0.247724373157,0.968830550171
1449618409462194670,92,1449618409392585830,/odom,2.53428697586,-0.17235943675,0.76971834898,0.0,0.0,0.350502798248,0.936561684258
1449618409623813069,93,1449618409560070116,/odom,2.45315527916,-0.20341694355,0.698960363865,0.0,0.0,0.313394842978,0.949622910631
1449618409723976855,94,1449618409560070116,/odom,2.45315527916,-0.20341694355,0.698960363865,0.0,0.0,0.313394842978,0.949622910631
1449618409824641586,95,1449618409560070116,/odom,2.45315527916,-0.20341694355,0.698960363865,0.0,0.0,0.313394842978,0.949622910631
1449618409964177813,96,1449618409560070116,/odom,2.45315527916,-0.20341694355,0.698960363865,0.0,0.0,0.313394842978,0.949622910631
1449618410157959129,97,1449618409560070116,/odom,2.45315527916,-0.20341694355,0.698960363865,0.0,0.0,0.313394842978,0.949622910631
1449618410326229596,98,1449618410261865533,/odom,2.42102861404,-0.208555519581,0.699178040028,0.0,0.0,0.294677707417,0.95559669775
1449618410567783220,99,1449618410506709597,/odom,2.43647003174,-0.222936078906,0.697901308537,0.0,0.0,0.290884288399,0.956758240499
1449618410753560370,100,1449618410681837071,/odom,2.41081905365,-0.223343014717,0.687401294708,0.0,0.0,0.301096919851,0.953593542793
1449618410992164442,101,1449618410914548876,/odom,2.47038149834,-0.182521760464,0.717992067337,0.0,0.0,0.300671725348,0.953727693619
1449618411182635802,102,1449618410914548876,/odom,2.47038149834,-0.182521760464,0.717992067337,0.0,0.0,0.300671725348,0.953727693619
1449618411320866569,103,1449618410914548876,/odom,2.47038149834,-0.182521760464,0.717992067337,0.0,0.0,0.300671725348,0.953727693619
1449618411440133710,104,1449618411349768356,/odom,2.51942920685,-0.16526645422,0.749073684216,0.0,0.0,0.344437597602,0.938809214568
1449618411557296240,105,1449618411491844170,/odom,2.47797966003,-0.185734301805,0.697444200516,0.0,0.0,0.317790822916,0.948160847573
1449618411757902533,106,1449618411673902597,/odom,2.42794442177,-0.210082784295,0.688357770443,0.0,0.0,0.284077546658,0.958801307615
1449618411923877809,107,1449618411673902597,/odom,2.42794442177,-0.210082784295,0.688357770443,0.0,0.0,0.284077546658,0.958801307615
1449618412194080853,108,1449618412123309303,/odom,2.49102449417,-0.183379799128,0.729334771633,0.0,0.0,0.340252784085,0.940334006044
1449618412333300140,109,1449618412260666948,/odom,2.4592795372,-0.190699964762,0.718410730362,0.0,0.0,0.318110371981,0.948053685842
1449618412416071258,110,1449618412350145598,/odom,2.52614498138,-0.15493644774,0.747469365597,0.0,0.0,0.332016541081,0.943273563951
1449618412534794562,111,1449618412350145598,/odom,2.52614498138,-0.15493644774,0.747469365597,0.0,0.0,0.332016541081,0.943273563951
1449618412731896989,112,1449618412654733700,/odom,2.45919275284,-0.199621975422,0.698971807957,0.0,0.0,0.325886453958,0.945408916357
1449618412919118827,113,1449618412654733700,/odom,2.45919275284,-0.199621975422,0.698971807957,0.0,0.0,0.325886453958,0.945408916357
1449618413068744825,114,1449618413002251079,/odom,2.49705982208,-0.184021145105,0.719417095184,0.0,0.0,0.319325718926,0.947645020687
1449618413235223398,115,1449618413170744497,/odom,2.51136803627,-0.182414069772,0.708752274513,0.0,0.0,0.313773057453,0.949498008643
1449618413383518703,116,1449618413170744497,/odom,2.51136803627,-0.182414069772,0.708752274513,0.0,0.0,0.313773057453,0.949498008643
1449618413521152249,117,1449618413456303512,/odom,2.41333866119,-0.217455148697,0.68818539381,0.0,0.0,0.288566451183,0.957459870309
1449618413610342043,118,1449618413550654284,/odom,2.4067363739,-0.221154749393,0.669629275799,0.0,0.0,0.290155512445,0.95697950793
1449618413761181887,119,1449618413696331371,/odom,2.39149332047,-0.21962583065,0.688138246536,0.0,0.0,0.282183447875,0.959360464969
1449618413924503651,120,1449618413862322016,/odom,2.45445251465,-0.206430315971,0.707556903362,0.0,0.0,0.299345358845,0.95414482975
1449618414911120076,121,1449618414847297174,/odom,2.43198108673,-0.211980104446,0.7086622715,0.0,0.0,0.308609224637,0.951188912083
1449618415190192842,122,1449618415122080517,/odom,2.45746588707,-0.202297568321,0.717432558537,0.0,0.0,0.30182425969,0.953363580311
1449618415341830640,123,1449618415269457470,/odom,2.48441195488,-0.196637898684,0.698436141014,0.0,0.0,0.32236319416,0.94661606317
1449618415538596830,124,1449618415468712610,/odom,2.4621758461,-0.199289143085,0.719745337963,0.0,0.0,0.316723971099,0.948517752143
1449618415716124667,125,1449618415644500506,/odom,2.42833280563,-0.208384305239,0.70821416378,0.0,0.0,0.283586980377,0.958946518092
1449618415917775532,126,1449618415644500506,/odom,2.42833280563,-0.208384305239,0.70821416378,0.0,0.0,0.283586980377,0.958946518092
1449618416185343058,127,1449618416097566954,/odom,2.41810822487,-0.217482879758,0.677435815334,0.0,0.0,0.296802082403,0.954939015792
1449618416362356131,128,1449618416297672328,/odom,2.52448916435,-0.191832840443,0.73846757412,0.0,0.0,0.346376283975,0.93809566138
1449618416512345723,129,1449618416445141558,/odom,2.48918962479,-0.186175137758,0.708763360977,0.0,0.0,0.329738481887,0.944072313736
1449618416617685905,130,1449618416549175607,/odom,2.47787976265,-0.187744498253,0.698214232922,0.0,0.0,0.319570563989,0.947562480595
1449618416711267783,131,1449618416648166562,/odom,2.53092074394,-0.170249119401,0.729747414589,0.0,0.0,0.340221122907,0.9403454618
1449618416946323779,132,1449618416874157877,/odom,2.47793292999,-0.180921763182,0.707870781422,0.0,0.0,0.303684471586,0.952772660039
1449618417177745411,133,1449618417111677897,/odom,2.46773147583,-0.248373612761,0.697675943375,0.0,0.0,0.307420530447,0.951573758287
1449618417297103218,134,1449618417111677897,/odom,2.46773147583,-0.248373612761,0.697675943375,0.0,0.0,0.307420530447,0.951573758287
1449618417430434528,135,1449618417111677897,/odom,2.46773147583,-0.248373612761,0.697675943375,0.0,0.0,0.307420530447,0.951573758287
1449618417553391442,136,1449618417488049812,/odom,2.48523187637,-0.208768382668,0.72847878933,0.0,0.0,0.311462285066,0.950258514817
1449618417701816194,137,1449618417642622322,/odom,2.44157981873,-0.183167979121,0.647743105888,0.0,0.0,0.307472910913,0.95155683438
1449618417802682159,138,1449618417733692133,/odom,2.4310092926,-0.248000577092,0.698324739933,0.0,0.0,0.286544066525,0.958067063383
1449618417959881078,139,1449618417867535877,/odom,2.45005488396,-0.230230227113,0.677521586418,0.0,0.0,0.32950314655,0.944154476987
1449618418208591338,140,1449618417867535877,/odom,2.45005488396,-0.230230227113,0.677521586418,0.0,0.0,0.32950314655,0.944154476987
1449618418478013288,141,1449618418408762465,/odom,2.48408031464,-0.240226730704,0.697519600391,0.0,0.0,0.302947091425,0.95300737657
1449618418729266652,142,1449618418664301382,/odom,2.48664522171,-0.24049782753,0.717549860477,0.0,0.0,0.320377740582,0.947289872922
1449618418904627697,143,1449618418664301382,/odom,2.48664522171,-0.24049782753,0.717549860477,0.0,0.0,0.320377740582,0.947289872922
1449618418999292226,144,1449618418932324501,/odom,2.49447321892,-0.199613422155,0.718089044094,0.0,0.0,0.31737622789,0.948299704719
1449618419259849435,145,1449618419189544550,/odom,2.46077466011,-0.253676831722,0.718626141548,0.0,0.0,0.310837808092,0.950462969852
1449618419411843471,146,1449618419350069965,/odom,2.48635458946,-0.203283146024,0.717272460461,0.0,0.0,0.337858508454,0.941196912588
1449618419628061750,147,1449618419568413105,/odom,2.44312143326,-0.22719168663,0.708134710789,0.0,0.0,0.292376787428,0.956303202009
1449618419826641747,148,1449618419754785533,/odom,2.51593351364,-0.224361270666,0.769364535809,0.0,0.0,0.34241222858,0.939549820775
1449618420093081836,149,1449618419754785533,/odom,2.51593351364,-0.224361270666,0.769364535809,0.0,0.0,0.34241222858,0.939549820775
1449618420306391298,150,1449618420241016401,/odom,2.36502385139,-0.270163506269,0.689223647118,0.0,0.0,0.235683415718,0.97182988612
1449618420540146938,151,1449618420472927357,/odom,2.45349597931,-0.241861104965,0.70838111639,0.0,0.0,0.289416396037,0.957203295912
1449618420700091248,152,1449618420635481059,/odom,2.4975631237,-0.233704149723,0.69917935133,0.0,0.0,0.323745292668,0.946144273076
1449618420826791000,153,1449618420757469444,/odom,2.4777905941,-0.2572003901,0.718790709972,0.0,0.0,0.298773604734,0.954324018934
1449618421058949907,154,1449618420757469444,/odom,2.4777905941,-0.2572003901,0.718790709972,0.0,0.0,0.298773604734,0.954324018934
1449618421236213918,155,1449618421170703359,/odom,2.48335695267,-0.239075392485,0.747855067253,0.0,0.0,0.314120206701,0.949383218591
1449618421516790563,156,1449618421451330319,/odom,2.4552283287,-0.242269963026,0.727650403976,0.0,0.0,0.298520929161,0.954403088246
1449618421726649011,157,1449618421659570009,/odom,2.4851500988,-0.211512118578,0.718341827393,0.0,0.0,0.315606453253,0.948890176293
1449618421991874809,158,1449618421932179448,/odom,2.46095991135,-0.264266937971,0.69913995266,0.0,0.0,0.306142551751,0.951985681619
1449618422110024286,159,1449618422045972519,/odom,2.4604640007,-0.23662891984,0.717532515526,0.0,0.0,0.289755548922,0.957100685335
1449618422330774052,160,1449618422264274997,/odom,2.4872841835,-0.220601767302,0.697917997837,0.0,0.0,0.309211353929,0.95099334309
1449618422820528837,161,1449618422705979543,/odom,2.38618183136,-0.264753848314,0.689126133919,0.0,0.0,0.263676399047,0.964611194516
1449618423181392210,162,1449618423120048852,/odom,2.46700024605,-0.265626341105,0.718525528908,0.0,0.0,0.304143957744,0.952626082452
1449618423505440263,163,1449618423445688826,/odom,2.5263106823,-0.211836457253,0.737437844276,0.0,0.0,0.331095275113,0.943597328736
1449618423943355264,164,1449618423883029394,/odom,2.44204878807,-0.277440011501,0.668231487274,0.0,0.0,0.285717878856,0.958313776225
1449618424239149855,165,1449618424182657698,/odom,2.46275997162,-0.251507848501,0.727337837219,0.0,0.0,0.303457041763,0.952845120575
1449618424494238070,166,1449618424434583990,/odom,2.36030006409,-0.317672252655,0.688856482506,0.0,0.0,0.222918390879,0.974837109987
1449618424789400213,167,1449618424724286575,/odom,2.4843378067,-0.282281756401,0.737801015377,0.0,0.0,0.311899973121,0.950114943976
1449618425026639435,168,1449618424974463414,/odom,2.44706678391,-0.263020068407,0.698009490967,0.0,0.0,0.285960069518,0.958241534605
1449618425216931214,169,1449618425164959762,/odom,2.44054698944,-0.266079753637,0.68779194355,0.0,0.0,0.279653931561,0.960100868952
1449618425370514774,170,1449618425313765668,/odom,2.42753005028,-0.305486619473,0.689109623432,0.0,0.0,0.266937999218,0.963713704672
1449618425608780800,171,1449618425551455811,/odom,2.45454144478,-0.271469384432,0.697930812836,0.0,0.0,0.28159498699,0.959533357055
1449618425808091466,172,1449618425756659729,/odom,2.48227739334,-0.26949390769,0.727574467659,0.0,0.0,0.29669593954,0.954971999307
1449618425915340500,173,1449618425859405586,/odom,2.47601771355,-0.26684743166,0.718062877655,0.0,0.0,0.293804738255,0.955865459036
1449618426074148677,174,1449618426013711749,/odom,2.46560049057,-0.273216217756,0.718217611313,0.0,0.0,0.287364919651,0.957821174831
1449618426376728443,175,1449618426323764263,/odom,2.46388864517,-0.266968548298,0.699535369873,0.0,0.0,0.280372050928,0.959891406909
1449618426551124745,176,1449618426483911856,/odom,2.48459362984,-0.281507790089,0.71811568737,0.0,0.0,0.288919444957,0.957353411404
1449618426705218944,177,1449618426649928018,/odom,2.46267986298,-0.289556026459,0.69932538271,0.0,0.0,0.267487336267,0.963561375802
1449618426914278825,178,1449618426856001589,/odom,2.46717262268,-0.281649947166,0.698820114136,0.0,0.0,0.274136598029,0.96169076403
1449618427069536791,179,1449618427010778202,/odom,2.46286344528,-0.286676585674,0.698451161385,0.0,0.0,0.267178410765,0.963647081053
1449618427299329145,180,1449618427235891843,/odom,2.4563806057,-0.301260113716,0.698751032352,0.0,0.0,0.257220481913,0.966352742886
1449618427449812314,181,1449618427395761391,/odom,2.42969250679,-0.303716242313,0.698761820793,0.0,0.0,0.235949353455,0.971765353676
1449618427635276000,182,1449618427582269248,/odom,2.43435716629,-0.295542448759,0.708106458187,0.0,0.0,0.248725231366,0.968574085593
1449618427802785616,183,1449618427748729312,/odom,2.40148377419,-0.314088076353,0.698048949242,0.0,0.0,0.220444072169,0.975399616078
1449618427980927020,184,1449618427925066069,/odom,2.41586852074,-0.30519977212,0.6980458498,0.0,0.0,0.235775154031,0.971807633609
1449618428176207581,185,1449618428122713960,/odom,2.47825956345,-0.274300992489,0.708028435707,0.0,0.0,0.286637730466,0.958039044858
1449618428431404138,186,1449618428375997436,/odom,2.47927618027,-0.269642740488,0.698868155479,0.0,0.0,0.283252830758,0.959045272063
1449618428666182530,187,1449618428613819164,/odom,2.46935081482,-0.290079385042,0.698642551899,0.0,0.0,0.269666610551,0.962953747152
1449618428840964911,188,1449618428788947516,/odom,2.49897074699,-0.284092545509,0.72816824913,0.0,0.0,0.292297300843,0.956327500347
1449618429202281311,189,1449618429145419766,/odom,2.40825414658,-0.319829672575,0.698243558407,0.0,0.0,0.222511375622,0.97493009376
1449618429346798530,190,1449618429284901835,/odom,2.4723443985,-0.290678739548,0.708893895149,0.0,0.0,0.273666131131,0.961824749459
1449618429943042746,191,1449618429883390366,/odom,2.46505284309,-0.285776078701,0.708208978176,0.0,0.0,0.270632756559,0.962682663746
1449618430037037280,192,1449618429982398250,/odom,2.47747612,-0.290480077267,0.69843429327,0.0,0.0,0.278856107068,0.960332896214
1449618430157128076,193,1449618430094573574,/odom,2.47213697433,-0.285513758659,0.697988688946,0.0,0.0,0.275453601899,0.96131436752
1449618430297439095,194,1449618430230957445,/odom,2.48919892311,-0.289291769266,0.708890795708,0.0,0.0,0.284450479097,0.958690734774
1449618430435187380,195,1449618430381960027,/odom,2.48190927505,-0.283891677856,0.708316981792,0.0,0.0,0.281782081159,0.959478430575
1449618430576206811,196,1449618430518171515,/odom,2.49754905701,-0.305735379457,0.70886194706,0.0,0.0,0.281722043461,0.959496060559
1449618430700401673,197,1449618430633369213,/odom,2.44832992554,-0.305025666952,0.708911240101,0.0,0.0,0.249307274621,0.968424433201
1449618430846701978,198,1449618430790206560,/odom,2.43626832962,-0.330455452204,0.699840962887,0.0,0.0,0.231099909254,0.972930024176
1449618430966147869,199,1449618430910676936,/odom,2.46994829178,-0.295013487339,0.697928369045,0.0,0.0,0.27018173924,0.962809341345
1449618431155886732,200,1449618431104889340,/odom,2.46355247498,-0.28778976202,0.688531279564,0.0,0.0,0.26536949089,0.964146790331
1449618431248030681,201,1449618431197466322,/odom,2.47471046448,-0.284037947655,0.698405265808,0.0,0.0,0.272557090438,0.962139611726
1449618431470150299,202,1449618431414514167,/odom,2.42623209953,-0.3097833395,0.698120892048,0.0,0.0,0.235878911624,0.971782454591
1449618431536055557,203,1449618431483202325,/odom,2.49393367767,-0.284367531538,0.707840025425,0.0,0.0,0.285803438967,0.95828826262
1449618431813916789,204,1449618431761860948,/odom,3.07369017601,-0.364690095186,0.889823019505,0.0,0.0,-0.462877014331,0.886422511901
1449618431979049234,205,1449618431921823160,/odom,2.46082758904,-0.304236084223,0.68839776516,0.0,0.0,0.263750321329,0.964590984822
1449618432160387767,206,1449618432097654810,/odom,2.45493412018,-0.284822523594,0.688060879707,0.0,0.0,0.264332070457,0.964431727251
1449618432278522362,207,1449618432201402353,/odom,2.48856067657,-0.281380534172,0.698027551174,0.0,0.0,0.284227930922,0.958756738325
1449618432374174058,208,1449618432317665168,/odom,2.46033191681,-0.282282501459,0.688685059547,0.0,0.0,0.270006790687,0.962858417932
1449618432626382318,209,1449618432571433848,/odom,2.44330430031,-0.284802347422,0.678956151009,0.0,0.0,0.256539939264,0.966533630849
1449618432783342008,210,1449618432711630621,/odom,2.49358892441,-0.273280292749,0.707605183125,0.0,0.0,0.292411166896,0.956292690276
1449618432846374507,211,1449618432785927671,/odom,2.4378452301,-0.28630694747,0.688868463039,0.0,0.0,0.254431194067,0.967090878607
1449618432964049219,212,1449618432904132653,/odom,2.4951107502,-0.278227388859,0.717806458473,0.0,0.0,0.293492449081,0.955961391654
1449618433147270073,213,1449618433083974761,/odom,2.46035337448,-0.277737975121,0.679158985615,0.0,0.0,0.277263047829,0.960794047811
1449618433265357145,214,1449618433083974761,/odom,2.46035337448,-0.277737975121,0.679158985615,0.0,0.0,0.277263047829,0.960794047811
1449618433395915308,215,1449618433083974761,/odom,2.46035337448,-0.277737975121,0.679158985615,0.0,0.0,0.277263047829,0.960794047811
1449618433558627316,216,1449618433083974761,/odom,2.46035337448,-0.277737975121,0.679158985615,0.0,0.0,0.277263047829,0.960794047811
1449618433697069365,217,1449618433083974761,/odom,2.46035337448,-0.277737975121,0.679158985615,0.0,0.0,0.277263047829,0.960794047811
1449618433883643796,218,1449618433083974761,/odom,2.46035337448,-0.277737975121,0.679158985615,0.0,0.0,0.277263047829,0.960794047811
1449618433954004075,219,1449618433083974761,/odom,2.46035337448,-0.277737975121,0.679158985615,0.0,0.0,0.277263047829,0.960794047811
1449618434046290671,220,1449618433083974761,/odom,2.46035337448,-0.277737975121,0.679158985615,0.0,0.0,0.277263047829,0.960794047811
1449618434198044834,221,1449618433083974761,/odom,2.46035337448,-0.277737975121,0.679158985615,0.0,0.0,0.277263047829,0.960794047811
1449618434394236056,222,1449618433083974761,/odom,2.46035337448,-0.277737975121,0.679158985615,0.0,0.0,0.277263047829,0.960794047811
1449618434566338869,223,1449618433083974761,/odom,2.46035337448,-0.277737975121,0.679158985615,0.0,0.0,0.277263047829,0.960794047811
1449618434739522791,224,1449618433083974761,/odom,2.46035337448,-0.277737975121,0.679158985615,0.0,0.0,0.277263047829,0.960794047811
1449618434879996440,225,1449618433083974761,/odom,2.46035337448,-0.277737975121,0.679158985615,0.0,0.0,0.277263047829,0.960794047811
1449618434993961477,226,1449618433083974761,/odom,2.46035337448,-0.277737975121,0.679158985615,0.0,0.0,0.277263047829,0.960794047811
1449618435179791403,227,1449618433083974761,/odom,2.46035337448,-0.277737975121,0.679158985615,0.0,0.0,0.277263047829,0.960794047811
1449618435397784434,228,1449618433083974761,/odom,2.46035337448,-0.277737975121,0.679158985615,0.0,0.0,0.277263047829,0.960794047811
1449618435570265380,229,1449618433083974761,/odom,2.46035337448,-0.277737975121,0.679158985615,0.0,0.0,0.277263047829,0.960794047811
1449618435782175546,230,1449618433083974761,/odom,2.46035337448,-0.277737975121,0.679158985615,0.0,0.0,0.277263047829,0.960794047811
1449618435900502071,231,1449618433083974761,/odom,2.46035337448,-0.277737975121,0.679158985615,0.0,0.0,0.277263047829,0.960794047811
1449618436105789516,232,1449618433083974761,/odom,2.46035337448,-0.277737975121,0.679158985615,0.0,0.0,0.277263047829,0.960794047811
1449618436302191245,233,1449618433083974761,/odom,2.46035337448,-0.277737975121,0.679158985615,0.0,0.0,0.277263047829,0.960794047811
1449618436508782419,234,1449618433083974761,/odom,2.46035337448,-0.277737975121,0.679158985615,0.0,0.0,0.277263047829,0.960794047811
1449618436700558073,235,1449618433083974761,/odom,2.46035337448,-0.277737975121,0.679158985615,0.0,0.0,0.277263047829,0.960794047811
1449618436818249298,236,1449618433083974761,/odom,2.46035337448,-0.277737975121,0.679158985615,0.0,0.0,0.277263047829,0.960794047811
1449618437010295506,237,1449618433083974761,/odom,2.46035337448,-0.277737975121,0.679158985615,0.0,0.0,0.277263047829,0.960794047811
1449618437212626683,238,1449618433083974761,/odom,2.46035337448,-0.277737975121,0.679158985615,0.0,0.0,0.277263047829,0.960794047811
1449618437375265136,239,1449618433083974761,/odom,2.46035337448,-0.277737975121,0.679158985615,0.0,0.0,0.277263047829,0.960794047811
1449618437598649967,240,1449618433083974761,/odom,2.46035337448,-0.277737975121,0.679158985615,0.0,0.0,0.277263047829,0.960794047811
1449618437807452163,241,1449618433083974761,/odom,2.46035337448,-0.277737975121,0.679158985615,0.0,0.0,0.277263047829,0.960794047811
1449618437876657148,242,1449618437814695728,/odom,2.46335029602,-0.230357944965,0.709074139595,0.0,0.0,0.309250636874,0.950980569514
1449618437997048080,243,1449618437928649627,/odom,2.47350978851,-0.221833974123,0.708573997021,0.0,0.0,0.302874914472,0.953030317558
1449618438228810274,244,1449618437928649627,/odom,2.47350978851,-0.221833974123,0.708573997021,0.0,0.0,0.302874914472,0.953030317558
1449618438391360075,245,1449618438312513386,/odom,2.46203041077,-0.219278007746,0.727306246758,0.0,0.0,0.311855657688,0.950129490527
1449618438630359280,246,1449618438312513386,/odom,2.46203041077,-0.219278007746,0.727306246758,0.0,0.0,0.311855657688,0.950129490527
1449618438868938655,247,1449618438802251068,/odom,2.45581769943,-0.202649697661,0.738078713417,0.0,0.0,0.320826110186,0.947138114017
1449618439091445060,248,1449618439025514354,/odom,2.45410013199,-0.228899806738,0.708904922009,0.0,0.0,0.292990622776,0.95611531468
1449618439853715488,249,1449618439782072285,/odom,2.49886035919,-0.203098997474,0.727366805077,0.0,0.0,0.316709600375,0.948522550618
1449618439974229831,250,1449618439894826047,/odom,2.45979547501,-0.212615415454,0.737589240074,0.0,0.0,0.319171218703,0.947697068241
1449618440185128575,251,1449618439894826047,/odom,2.45979547501,-0.212615415454,0.737589240074,0.0,0.0,0.319171218703,0.947697068241
1449618440453910467,252,1449618439894826047,/odom,2.45979547501,-0.212615415454,0.737589240074,0.0,0.0,0.319171218703,0.947697068241
1449618440555994543,253,1449618439894826047,/odom,2.45979547501,-0.212615415454,0.737589240074,0.0,0.0,0.319171218703,0.947697068241
1449618440637419343,254,1449618439894826047,/odom,2.45979547501,-0.212615415454,0.737589240074,0.0,0.0,0.319171218703,0.947697068241
1449618440801174890,255,1449618440730998967,/odom,2.47831535339,-0.160044640303,0.648259222507,0.0,0.0,0.329644084623,0.944105278808
1449618440995327924,256,1449618440730998967,/odom,2.47831535339,-0.160044640303,0.648259222507,0.0,0.0,0.329644084623,0.944105278808
1449618441154950142,257,1449618441083320946,/odom,2.47398042679,-0.167471215129,0.649091601372,0.0,0.0,0.335202240949,0.942146197606
1449618441394689500,258,1449618441083320946,/odom,2.47398042679,-0.167471215129,0.649091601372,0.0,0.0,0.335202240949,0.942146197606
1449618441550603076,259,1449618441083320946,/odom,2.47398042679,-0.167471215129,0.649091601372,0.0,0.0,0.335202240949,0.942146197606
1449618441633849718,260,1449618441083320946,/odom,2.47398042679,-0.167471215129,0.649091601372,0.0,0.0,0.335202240949,0.942146197606
1449618441924052223,261,1449618441853429642,/odom,2.4532957077,-0.226704388857,0.727238178253,0.0,0.0,0.300461715191,0.9537938759
1449618442268503444,262,1449618441853429642,/odom,2.4532957077,-0.226704388857,0.727238178253,0.0,0.0,0.300461715191,0.9537938759
1449618442373396461,263,1449618441853429642,/odom,2.4532957077,-0.226704388857,0.727238178253,0.0,0.0,0.300461715191,0.9537938759
1449618442548430051,264,1449618441853429642,/odom,2.4532957077,-0.226704388857,0.727238178253,0.0,0.0,0.300461715191,0.9537938759
1449618442796580078,265,1449618441853429642,/odom,2.4532957077,-0.226704388857,0.727238178253,0.0,0.0,0.300461715191,0.9537938759
1449618443012142227,266,1449618441853429642,/odom,2.4532957077,-0.226704388857,0.727238178253,0.0,0.0,0.300461715191,0.9537938759
1449618443252127412,267,1449618441853429642,/odom,2.4532957077,-0.226704388857,0.727238178253,0.0,0.0,0.300461715191,0.9537938759
1449618443405930231,268,1449618441853429642,/odom,2.4532957077,-0.226704388857,0.727238178253,0.0,0.0,0.300461715191,0.9537938759
1449618443579320172,269,1449618441853429642,/odom,2.4532957077,-0.226704388857,0.727238178253,0.0,0.0,0.300461715191,0.9537938759
1449618443751902082,270,1449618441853429642,/odom,2.4532957077,-0.226704388857,0.727238178253,0.0,0.0,0.300461715191,0.9537938759
1449618443969620303,271,1449618441853429642,/odom,2.4532957077,-0.226704388857,0.727238178253,0.0,0.0,0.300461715191,0.9537938759
1449618444169285035,272,1449618441853429642,/odom,2.4532957077,-0.226704388857,0.727238178253,0.0,0.0,0.300461715191,0.9537938759
1449618445062313717,273,1449618441853429642,/odom,2.4532957077,-0.226704388857,0.727238178253,0.0,0.0,0.300461715191,0.9537938759
1449618445205627316,274,1449618441853429642,/odom,2.4532957077,-0.226704388857,0.727238178253,0.0,0.0,0.300461715191,0.9537938759
1449618445453114972,275,1449618445390526359,/odom,2.47039914131,-0.227189600468,0.738569796085,0.0,0.0,0.311761546218,0.950160375042
1449618445603447426,276,1449618445390526359,/odom,2.47039914131,-0.227189600468,0.738569796085,0.0,0.0,0.311761546218,0.950160375042
1449618445782174149,277,1449618445390526359,/odom,2.47039914131,-0.227189600468,0.738569796085,0.0,0.0,0.311761546218,0.950160375042
1449618446029297574,278,1449618445390526359,/odom,2.47039914131,-0.227189600468,0.738569796085,0.0,0.0,0.311761546218,0.950160375042
1449618446186006534,279,1449618446124551824,/odom,2.55563497543,-0.158092081547,0.808986186981,0.0,0.0,0.371145402442,0.928574762874
1449618446395345657,280,1449618446124551824,/odom,2.55563497543,-0.158092081547,0.808986186981,0.0,0.0,0.371145402442,0.928574762874
1449618446654018967,281,1449618446587470804,/odom,2.37733769417,-0.255272179842,0.689147770405,0.0,0.0,0.247486612495,0.968891313118
1449618446817843764,282,1449618446746305223,/odom,2.46394634247,-0.243263229728,0.708639502525,0.0,0.0,0.297534830585,0.954710963899
1449618447033229202,283,1449618446969750221,/odom,2.47233772278,-0.238898515701,0.727574944496,0.0,0.0,0.309106953099,0.95102728223
1449618447276735277,284,1449618447121348892,/odom,2.48681163788,-0.193541511893,0.678474903107,0.0,0.0,0.326015586064,0.945364394106
1449618447383695506,285,1449618447320809989,/odom,2.37820100784,-0.290145456791,0.679385304451,0.0,0.0,0.234858601153,0.972029545572
1449618447690714780,286,1449618447621858872,/odom,2.49590396881,-0.20221015811,0.678868889809,0.0,0.0,0.328672567126,0.94444393355
1449618447889366006,287,1449618447819087825,/odom,2.4710893631,-0.243759840727,0.717892110348,0.0,0.0,0.304275089721,0.952584206134
1449618448111302180,288,1449618448041066627,/odom,2.46911287308,-0.245553582907,0.698137521744,0.0,0.0,0.302969685929,0.953000193813
1449618448326530154,289,1449618448265245712,/odom,2.47796463966,-0.239568561316,0.718053936958,0.0,0.0,0.311622522686,0.950205979435
1449618448499730405,290,1449618448430949025,/odom,2.50679731369,-0.230568036437,0.718685626984,0.0,0.0,0.326506258352,0.945195039797
1449618448703143127,291,1449618448638078520,/odom,2.40596294403,-0.259228229523,0.687934279442,0.0,0.0,0.271851246784,0.962339285087
1449618448892722769,292,1449618448822494150,/odom,2.47309422493,-0.250629961491,0.71741515398,0.0,0.0,0.308553105977,0.951207117715
1449618449066013520,293,1449618448986624402,/odom,2.48922133446,-0.226027578115,0.708715200424,0.0,0.0,0.325453718944,0.945557971161
1449618449297016702,294,1449618449243756717,/odom,3.03282237053,-0.325676590204,0.81947183609,0.0,0.0,-0.459970839345,0.887934021734
1449618449613413727,295,1449618449556110521,/odom,3.27049136162,-0.198370456696,1.07954633236,0.0,0.0,-0.474100623368,0.880470668973
1449618449780117466,296,1449618449720584831,/odom,2.44040226936,-0.24655225873,0.698473930359,0.0,0.0,0.290332762047,0.956925748051
1449618450065073273,297,1449618450005365275,/odom,2.47580122948,-0.2501937747,0.727674901485,0.0,0.0,0.315693731946,0.948861142428
1449618450350431106,298,1449618450277183054,/odom,2.48721885681,-0.236279636621,0.728022396564,0.0,0.0,0.325686354175,0.945477867908
1449618450682737901,299,1449618450615186293,/odom,2.45527386665,-0.271829426289,0.718166470528,0.0,0.0,0.291882121581,0.956454299536
1449618451107089569,300,1449618451047489444,/odom,2.44084429741,-0.258545249701,0.688707530499,0.0,0.0,0.288106405426,0.957598401812
1449618451347808351,301,1449618451287615163,/odom,2.45370769501,-0.245563134551,0.697718203068,0.0,0.0,0.302711584555,0.953082208719
1449618451515646366,302,1449618451287615163,/odom,2.45370769501,-0.245563134551,0.697718203068,0.0,0.0,0.302711584555,0.953082208719
1449618451734460054,303,1449618451287615163,/odom,2.45370769501,-0.245563134551,0.697718203068,0.0,0.0,0.302711584555,0.953082208719
1449618451995930649,304,1449618451287615163,/odom,2.45370769501,-0.245563134551,0.697718203068,0.0,0.0,0.302711584555,0.953082208719
1449618452403833781,305,1449618451287615163,/odom,2.45370769501,-0.245563134551,0.697718203068,0.0,0.0,0.302711584555,0.953082208719
1449618452530080486,306,1449618451287615163,/odom,2.45370769501,-0.245563134551,0.697718203068,0.0,0.0,0.302711584555,0.953082208719
1449618452875232101,307,1449618451287615163,/odom,2.45370769501,-0.245563134551,0.697718203068,0.0,0.0,0.302711584555,0.953082208719
1449618453147806492,308,1449618451287615163,/odom,2.45370769501,-0.245563134551,0.697718203068,0.0,0.0,0.302711584555,0.953082208719
1449618453473931070,309,1449618451287615163,/odom,2.45370769501,-0.245563134551,0.697718203068,0.0,0.0,0.302711584555,0.953082208719
1449618453685667699,310,1449618451287615163,/odom,2.45370769501,-0.245563134551,0.697718203068,0.0,0.0,0.302711584555,0.953082208719
1449618454056524542,311,1449618451287615163,/odom,2.45370769501,-0.245563134551,0.697718203068,0.0,0.0,0.302711584555,0.953082208719
1449618454561869848,312,1449618451287615163,/odom,2.45370769501,-0.245563134551,0.697718203068,0.0,0.0,0.302711584555,0.953082208719
1449618454780162058,313,1449618451287615163,/odom,2.45370769501,-0.245563134551,0.697718203068,0.0,0.0,0.302711584555,0.953082208719
1449618455067599016,314,1449618451287615163,/odom,2.45370769501,-0.245563134551,0.697718203068,0.0,0.0,0.302711584555,0.953082208719
1449618455243862485,315,1449618451287615163,/odom,2.45370769501,-0.245563134551,0.697718203068,0.0,0.0,0.302711584555,0.953082208719
1449618455469837802,316,1449618451287615163,/odom,2.45370769501,-0.245563134551,0.697718203068,0.0,0.0,0.302711584555,0.953082208719
1449618455732028681,317,1449618451287615163,/odom,2.45370769501,-0.245563134551,0.697718203068,0.0,0.0,0.302711584555,0.953082208719
1449618455996202148,318,1449618451287615163,/odom,2.45370769501,-0.245563134551,0.697718203068,0.0,0.0,0.302711584555,0.953082208719
1449618456258391392,319,1449618451287615163,/odom,2.45370769501,-0.245563134551,0.697718203068,0.0,0.0,0.302711584555,0.953082208719
1449618456475258091,320,1449618451287615163,/odom,2.45370769501,-0.245563134551,0.697718203068,0.0,0.0,0.302711584555,0.953082208719
1449618456802168987,321,1449618451287615163,/odom,2.45370769501,-0.245563134551,0.697718203068,0.0,0.0,0.302711584555,0.953082208719
1449618457056188209,322,1449618451287615163,/odom,2.45370769501,-0.245563134551,0.697718203068,0.0,0.0,0.302711584555,0.953082208719
1449618457245007845,323,1449618457190068214,/odom,2.23653149605,-0.432577222586,0.797319591045,0.0,0.0,0.0831659092004,0.996535715139
1449618457491236516,324,1449618457190068214,/odom,2.23653149605,-0.432577222586,0.797319591045,0.0,0.0,0.0831659092004,0.996535715139
1449618457815893384,325,1449618457190068214,/odom,2.23653149605,-0.432577222586,0.797319591045,0.0,0.0,0.0831659092004,0.996535715139
1449618458038570041,326,1449618457190068214,/odom,2.23653149605,-0.432577222586,0.797319591045,0.0,0.0,0.0831659092004,0.996535715139
1449618458236466426,327,1449618457190068214,/odom,2.23653149605,-0.432577222586,0.797319591045,0.0,0.0,0.0831659092004,0.996535715139
1449618458504620815,328,1449618457190068214,/odom,2.23653149605,-0.432577222586,0.797319591045,0.0,0.0,0.0831659092004,0.996535715139
1449618458858470031,329,1449618457190068214,/odom,2.23653149605,-0.432577222586,0.797319591045,0.0,0.0,0.0831659092004,0.996535715139
1449618459110539340,330,1449618457190068214,/odom,2.23653149605,-0.432577222586,0.797319591045,0.0,0.0,0.0831659092004,0.996535715139
1449618460053656086,331,1449618457190068214,/odom,2.23653149605,-0.432577222586,0.797319591045,0.0,0.0,0.0831659092004,0.996535715139
1449618460458678188,332,1449618457190068214,/odom,2.23653149605,-0.432577222586,0.797319591045,0.0,0.0,0.0831659092004,0.996535715139
1449618460783294081,333,1449618457190068214,/odom,2.23653149605,-0.432577222586,0.797319591045,0.0,0.0,0.0831659092004,0.996535715139
1449618461195562488,334,1449618457190068214,/odom,2.23653149605,-0.432577222586,0.797319591045,0.0,0.0,0.0831659092004,0.996535715139
1449618461535551871,335,1449618457190068214,/odom,2.23653149605,-0.432577222586,0.797319591045,0.0,0.0,0.0831659092004,0.996535715139
1449618461817616163,336,1449618457190068214,/odom,2.23653149605,-0.432577222586,0.797319591045,0.0,0.0,0.0831659092004,0.996535715139
1449618462038198189,337,1449618457190068214,/odom,2.23653149605,-0.432577222586,0.797319591045,0.0,0.0,0.0831659092004,0.996535715139
1449618462298843977,338,1449618457190068214,/odom,2.23653149605,-0.432577222586,0.797319591045,0.0,0.0,0.0831659092004,0.996535715139
1449618462649666962,339,1449618457190068214,/odom,2.23653149605,-0.432577222586,0.797319591045,0.0,0.0,0.0831659092004,0.996535715139
1449618462984823677,340,1449618457190068214,/odom,2.23653149605,-0.432577222586,0.797319591045,0.0,0.0,0.0831659092004,0.996535715139
1449618463313130465,341,1449618457190068214,/odom,2.23653149605,-0.432577222586,0.797319591045,0.0,0.0,0.0831659092004,0.996535715139
1449618463529079441,342,1449618457190068214,/odom,2.23653149605,-0.432577222586,0.797319591045,0.0,0.0,0.0831659092004,0.996535715139
1449618463723017021,343,1449618457190068214,/odom,2.23653149605,-0.432577222586,0.797319591045,0.0,0.0,0.0831659092004,0.996535715139
1449618464115948852,344,1449618457190068214,/odom,2.23653149605,-0.432577222586,0.797319591045,0.0,0.0,0.0831659092004,0.996535715139
1449618464224264200,345,1449618457190068214,/odom,2.23653149605,-0.432577222586,0.797319591045,0.0,0.0,0.0831659092004,0.996535715139
1449618464340156398,346,1449618457190068214,/odom,2.23653149605,-0.432577222586,0.797319591045,0.0,0.0,0.0831659092004,0.996535715139
1449618464567223726,347,1449618457190068214,/odom,2.23653149605,-0.432577222586,0.797319591045,0.0,0.0,0.0831659092004,0.996535715139
1449618464811571899,348,1449618457190068214,/odom,2.23653149605,-0.432577222586,0.797319591045,0.0,0.0,0.0831659092004,0.996535715139
1449618464961102855,349,1449618457190068214,/odom,2.23653149605,-0.432577222586,0.797319591045,0.0,0.0,0.0831659092004,0.996535715139
1449618465214852341,350,1449618457190068214,/odom,2.23653149605,-0.432577222586,0.797319591045,0.0,0.0,0.0831659092004,0.996535715139
1449618465449765356,351,1449618457190068214,/odom,2.23653149605,-0.432577222586,0.797319591045,0.0,0.0,0.0831659092004,0.996535715139
1449618465561962648,352,1449618457190068214,/odom,2.23653149605,-0.432577222586,0.797319591045,0.0,0.0,0.0831659092004,0.996535715139
1449618465781275205,353,1449618457190068214,/odom,2.23653149605,-0.432577222586,0.797319591045,0.0,0.0,0.0831659092004,0.996535715139
1449618466044608577,354,1449618457190068214,/odom,2.23653149605,-0.432577222586,0.797319591045,0.0,0.0,0.0831659092004,0.996535715139
1449618466389581260,355,1449618457190068214,/odom,2.23653149605,-0.432577222586,0.797319591045,0.0,0.0,0.0831659092004,0.996535715139
1449618466675987494,356,1449618457190068214,/odom,2.23653149605,-0.432577222586,0.797319591045,0.0,0.0,0.0831659092004,0.996535715139
1449618466953370589,357,1449618457190068214,/odom,2.23653149605,-0.432577222586,0.797319591045,0.0,0.0,0.0831659092004,0.996535715139
1449618467190917629,358,1449618457190068214,/odom,2.23653149605,-0.432577222586,0.797319591045,0.0,0.0,0.0831659092004,0.996535715139
1449618467553601084,359,1449618457190068214,/odom,2.23653149605,-0.432577222586,0.797319591045,0.0,0.0,0.0831659092004,0.996535715139
1449618467729286265,360,1449618457190068214,/odom,2.23653149605,-0.432577222586,0.797319591045,0.0,0.0,0.0831659092004,0.996535715139
1449618467965794151,361,1449618457190068214,/odom,2.23653149605,-0.432577222586,0.797319591045,0.0,0.0,0.0831659092004,0.996535715139
1449618468208451383,362,1449618457190068214,/odom,2.23653149605,-0.432577222586,0.797319591045,0.0,0.0,0.0831659092004,0.996535715139
1449618468404924810,363,1449618457190068214,/odom,2.23653149605,-0.432577222586,0.797319591045,0.0,0.0,0.0831659092004,0.996535715139
1449618468554545141,364,1449618457190068214,/odom,2.23653149605,-0.432577222586,0.797319591045,0.0,0.0,0.0831659092004,0.996535715139
1449618468721925568,365,1449618457190068214,/odom,2.23653149605,-0.432577222586,0.797319591045,0.0,0.0,0.0831659092004,0.996535715139
1449618468979030519,366,1449618457190068214,/odom,2.23653149605,-0.432577222586,0.797319591045,0.0,0.0,0.0831659092004,0.996535715139
1449618469294387943,367,1449618457190068214,/odom,2.23653149605,-0.432577222586,0.797319591045,0.0,0.0,0.0831659092004,0.996535715139
1449618469539562756,368,1449618457190068214,/odom,2.23653149605,-0.432577222586,0.797319591045,0.0,0.0,0.0831659092004,0.996535715139
1449618469880411665,369,1449618457190068214,/odom,2.23653149605,-0.432577222586,0.797319591045,0.0,0.0,0.0831659092004,0.996535715139
1449618470064457669,370,1449618457190068214,/odom,2.23653149605,-0.432577222586,0.797319591045,0.0,0.0,0.0831659092004,0.996535715139
1449618470350658980,371,1449618457190068214,/odom,2.23653149605,-0.432577222586,0.797319591045,0.0,0.0,0.0831659092004,0.996535715139
1449618470543383744,372,1449618457190068214,/odom,2.23653149605,-0.432577222586,0.797319591045,0.0,0.0,0.0831659092004,0.996535715139
1449618470815520695,373,1449618457190068214,/odom,2.23653149605,-0.432577222586,0.797319591045,0.0,0.0,0.0831659092004,0.996535715139
1449618471005188106,374,1449618457190068214,/odom,2.23653149605,-0.432577222586,0.797319591045,0.0,0.0,0.0831659092004,0.996535715139
1449618471325450291,375,1449618457190068214,/odom,2.23653149605,-0.432577222586,0.797319591045,0.0,0.0,0.0831659092004,0.996535715139
1449618471542754540,376,1449618457190068214,/odom,2.23653149605,-0.432577222586,0.797319591045,0.0,0.0,0.0831659092004,0.996535715139
1449618471768253282,377,1449618457190068214,/odom,2.23653149605,-0.432577222586,0.797319591045,0.0,0.0,0.0831659092004,0.996535715139
1449618471920581147,378,1449618457190068214,/odom,2.23653149605,-0.432577222586,0.797319591045,0.0,0.0,0.0831659092004,0.996535715139
1449618472194603243,379,1449618457190068214,/odom,2.23653149605,-0.432577222586,0.797319591045,0.0,0.0,0.0831659092004,0.996535715139
1449618472460783714,380,1449618457190068214,/odom,2.23653149605,-0.432577222586,0.797319591045,0.0,0.0,0.0831659092004,0.996535715139
1449618472777884228,381,1449618457190068214,/odom,2.23653149605,-0.432577222586,0.797319591045,0.0,0.0,0.0831659092004,0.996535715139
1449618472958110545,382,1449618457190068214,/odom,2.23653149605,-0.432577222586,0.797319591045,0.0,0.0,0.0831659092004,0.996535715139
1449618473158146393,383,1449618457190068214,/odom,2.23653149605,-0.432577222586,0.797319591045,0.0,0.0,0.0831659092004,0.996535715139
1449618473406377744,384,1449618457190068214,/odom,2.23653149605,-0.432577222586,0.797319591045,0.0,0.0,0.0831659092004,0.996535715139
1449618473654261536,385,1449618457190068214,/odom,2.23653149605,-0.432577222586,0.797319591045,0.0,0.0,0.0831659092004,0.996535715139
1449618473841717832,386,1449618457190068214,/odom,2.23653149605,-0.432577222586,0.797319591045,0.0,0.0,0.0831659092004,0.996535715139
1449618474022535013,387,1449618457190068214,/odom,2.23653149605,-0.432577222586,0.797319591045,0.0,0.0,0.0831659092004,0.996535715139
1449618474114370299,388,1449618457190068214,/odom,2.23653149605,-0.432577222586,0.797319591045,0.0,0.0,0.0831659092004,0.996535715139
1449618474293914259,389,1449618457190068214,/odom,2.23653149605,-0.432577222586,0.797319591045,0.0,0.0,0.0831659092004,0.996535715139
1449618475171268154,390,1449618457190068214,/odom,2.23653149605,-0.432577222586,0.797319591045,0.0,0.0,0.0831659092004,0.996535715139
1449618475410401749,391,1449618457190068214,/odom,2.23653149605,-0.432577222586,0.797319591045,0.0,0.0,0.0831659092004,0.996535715139
1449618475594103794,392,1449618457190068214,/odom,2.23653149605,-0.432577222586,0.797319591045,0.0,0.0,0.0831659092004,0.996535715139
1449618475795435335,393,1449618457190068214,/odom,2.23653149605,-0.432577222586,0.797319591045,0.0,0.0,0.0831659092004,0.996535715139
1449618475956840877,394,1449618457190068214,/odom,2.23653149605,-0.432577222586,0.797319591045,0.0,0.0,0.0831659092004,0.996535715139
1449618476283933493,395,1449618457190068214,/odom,2.23653149605,-0.432577222586,0.797319591045,0.0,0.0,0.0831659092004,0.996535715139
1449618476530125411,396,1449618457190068214,/odom,2.23653149605,-0.432577222586,0.797319591045,0.0,0.0,0.0831659092004,0.996535715139
1449618476887177369,397,1449618457190068214,/odom,2.23653149605,-0.432577222586,0.797319591045,0.0,0.0,0.0831659092004,0.996535715139
1449618477211567783,398,1449618457190068214,/odom,2.23653149605,-0.432577222586,0.797319591045,0.0,0.0,0.0831659092004,0.996535715139
1449618477463664570,399,1449618457190068214,/odom,2.23653149605,-0.432577222586,0.797319591045,0.0,0.0,0.0831659092004,0.996535715139
1449618477742065268,400,1449618457190068214,/odom,2.23653149605,-0.432577222586,0.797319591045,0.0,0.0,0.0831659092004,0.996535715139
1449618478040700942,401,1449618457190068214,/odom,2.23653149605,-0.432577222586,0.797319591045,0.0,0.0,0.0831659092004,0.996535715139
1449618478325807122,402,1449618457190068214,/odom,2.23653149605,-0.432577222586,0.797319591045,0.0,0.0,0.0831659092004,0.996535715139
1449618478654054078,403,1449618457190068214,/odom,2.23653149605,-0.432577222586,0.797319591045,0.0,0.0,0.0831659092004,0.996535715139
1449618478968475328,404,1449618457190068214,/odom,2.23653149605,-0.432577222586,0.797319591045,0.0,0.0,0.0831659092004,0.996535715139
1449618479233206020,405,1449618457190068214,/odom,2.23653149605,-0.432577222586,0.797319591045,0.0,0.0,0.0831659092004,0.996535715139
1449618479405336791,406,1449618457190068214,/odom,2.23653149605,-0.432577222586,0.797319591045,0.0,0.0,0.0831659092004,0.996535715139
1449618479544016376,407,1449618457190068214,/odom,2.23653149605,-0.432577222586,0.797319591045,0.0,0.0,0.0831659092004,0.996535715139
1449618479787367188,408,1449618457190068214,/odom,2.23653149605,-0.432577222586,0.797319591045,0.0,0.0,0.0831659092004,0.996535715139
1449618479943873920,409,1449618457190068214,/odom,2.23653149605,-0.432577222586,0.797319591045,0.0,0.0,0.0831659092004,0.996535715139
1449618480134525747,410,1449618457190068214,/odom,2.23653149605,-0.432577222586,0.797319591045,0.0,0.0,0.0831659092004,0.996535715139
1449618480321361350,411,1449618457190068214,/odom,2.23653149605,-0.432577222586,0.797319591045,0.0,0.0,0.0831659092004,0.996535715139
1449618480422141266,412,1449618457190068214,/odom,2.23653149605,-0.432577222586,0.797319591045,0.0,0.0,0.0831659092004,0.996535715139
1449618480606359894,413,1449618457190068214,/odom,2.23653149605,-0.432577222586,0.797319591045,0.0,0.0,0.0831659092004,0.996535715139
1449618480714302490,414,1449618457190068214,/odom,2.23653149605,-0.432577222586,0.797319591045,0.0,0.0,0.0831659092004,0.996535715139
1449618480883813414,415,1449618457190068214,/odom,2.23653149605,-0.432577222586,0.797319591045,0.0,0.0,0.0831659092004,0.996535715139
1449618481109210031,416,1449618457190068214,/odom,2.23653149605,-0.432577222586,0.797319591045,0.0,0.0,0.0831659092004,0.996535715139
1449618481318397670,417,1449618457190068214,/odom,2.23653149605,-0.432577222586,0.797319591045,0.0,0.0,0.0831659092004,0.996535715139
1449618481534652301,418,1449618457190068214,/odom,2.23653149605,-0.432577222586,0.797319591045,0.0,0.0,0.0831659092004,0.996535715139
1449618481693880336,419,1449618457190068214,/odom,2.23653149605,-0.432577222586,0.797319591045,0.0,0.0,0.0831659092004,0.996535715139
1449618481817004424,420,1449618457190068214,/odom,2.23653149605,-0.432577222586,0.797319591045,0.0,0.0,0.0831659092004,0.996535715139
1449618481886312699,421,1449618457190068214,/odom,2.23653149605,-0.432577222586,0.797319591045,0.0,0.0,0.0831659092004,0.996535715139
1449618482002311047,422,1449618457190068214,/odom,2.23653149605,-0.432577222586,0.797319591045,0.0,0.0,0.0831659092004,0.996535715139
1449618482092978083,423,1449618457190068214,/odom,2.23653149605,-0.432577222586,0.797319591045,0.0,0.0,0.0831659092004,0.996535715139
1449618482209309087,424,1449618457190068214,/odom,2.23653149605,-0.432577222586,0.797319591045,0.0,0.0,0.0831659092004,0.996535715139
1449618482314016426,425,1449618457190068214,/odom,2.23653149605,-0.432577222586,0.797319591045,0.0,0.0,0.0831659092004,0.996535715139
1449618482481473083,426,1449618457190068214,/odom,2.23653149605,-0.432577222586,0.797319591045,0.0,0.0,0.0831659092004,0.996535715139
1449618482586688163,427,1449618457190068214,/odom,2.23653149605,-0.432577222586,0.797319591045,0.0,0.0,0.0831659092004,0.996535715139
1449618482778559032,428,1449618457190068214,/odom,2.23653149605,-0.432577222586,0.797319591045,0.0,0.0,0.0831659092004,0.996535715139
1449618482915229126,429,1449618457190068214,/odom,2.23653149605,-0.432577222586,0.797319591045,0.0,0.0,0.0831659092004,0.996535715139
1449618482985993275,430,1449618457190068214,/odom,2.23653149605,-0.432577222586,0.797319591045,0.0,0.0,0.0831659092004,0.996535715139
1449618483102990287,431,1449618457190068214,/odom,2.23653149605,-0.432577222586,0.797319591045,0.0,0.0,0.0831659092004,0.996535715139
1449618483183489538,432,1449618457190068214,/odom,2.23653149605,-0.432577222586,0.797319591045,0.0,0.0,0.0831659092004,0.996535715139
1449618483310084877,433,1449618457190068214,/odom,2.23653149605,-0.432577222586,0.797319591045,0.0,0.0,0.0831659092004,0.996535715139
1449618483517002529,434,1449618457190068214,/odom,2.23653149605,-0.432577222586,0.797319591045,0.0,0.0,0.0831659092004,0.996535715139
1449618483642223833,435,1449618457190068214,/odom,2.23653149605,-0.432577222586,0.797319591045,0.0,0.0,0.0831659092004,0.996535715139
1449618483784128347,436,1449618457190068214,/odom,2.23653149605,-0.432577222586,0.797319591045,0.0,0.0,0.0831659092004,0.996535715139
1449618483895442690,437,1449618457190068214,/odom,2.23653149605,-0.432577222586,0.797319591045,0.0,0.0,0.0831659092004,0.996535715139
1449618483990405023,438,1449618457190068214,/odom,2.23653149605,-0.432577222586,0.797319591045,0.0,0.0,0.0831659092004,0.996535715139
1449618484110995155,439,1449618457190068214,/odom,2.23653149605,-0.432577222586,0.797319591045,0.0,0.0,0.0831659092004,0.996535715139
1449618484300618820,440,1449618457190068214,/odom,2.23653149605,-0.432577222586,0.797319591045,0.0,0.0,0.0831659092004,0.996535715139
1449618484381543091,441,1449618457190068214,/odom,2.23653149605,-0.432577222586,0.797319591045,0.0,0.0,0.0831659092004,0.996535715139
1449618484472868121,442,1449618457190068214,/odom,2.23653149605,-0.432577222586,0.797319591045,0.0,0.0,0.0831659092004,0.996535715139
1449618484575122862,443,1449618457190068214,/odom,2.23653149605,-0.432577222586,0.797319591045,0.0,0.0,0.0831659092004,0.996535715139
1449618484690001081,444,1449618457190068214,/odom,2.23653149605,-0.432577222586,0.797319591045,0.0,0.0,0.0831659092004,0.996535715139
1449618484895301690,445,1449618457190068214,/odom,2.23653149605,-0.432577222586,0.797319591045,0.0,0.0,0.0831659092004,0.996535715139
1449618485196613398,446,1449618457190068214,/odom,2.23653149605,-0.432577222586,0.797319591045,0.0,0.0,0.0831659092004,0.996535715139
1449618485287579135,447,1449618457190068214,/odom,2.23653149605,-0.432577222586,0.797319591045,0.0,0.0,0.0831659092004,0.996535715139
1449618485421895775,448,1449618457190068214,/odom,2.23653149605,-0.432577222586,0.797319591045,0.0,0.0,0.0831659092004,0.996535715139
1449618485542475930,449,1449618457190068214,/odom,2.23653149605,-0.432577222586,0.797319591045,0.0,0.0,0.0831659092004,0.996535715139
