%time,field.header.seq,field.header.stamp,field.header.frame_id,field.polygon.points0.x,field.polygon.points0.y,field.polygon.points0.z,field.polygon.points1.x,field.polygon.points1.y,field.polygon.points1.z,field.polygon.points2.x,field.polygon.points2.y,field.polygon.points2.z,field.polygon.points3.x,field.polygon.points3.y,field.polygon.points3.z,field.polygon.points4.x,field.polygon.points4.y,field.polygon.points4.z
1449618389730237829,1,1449618389730031151,odom,0.569999992847,0.0,0.0,0.469999998808,-0.305000007153,0.0,-0.730000019073,-0.305000007153,0.0,-0.730000019073,0.305000007153,0.0,0.469999998808,0.305000007153,0.0
1449618389930351012,2,1449618389930045732,odom,0.569999992847,0.0,0.0,0.469999998808,-0.305000007153,0.0,-0.730000019073,-0.305000007153,0.0,-0.730000019073,0.305000007153,0.0,0.469999998808,0.305000007153,0.0
1449618390130484396,3,1449618390130130536,odom,0.569999992847,0.0,0.0,0.469999998808,-0.305000007153,0.0,-0.730000019073,-0.305000007153,0.0,-0.730000019073,0.305000007153,0.0,0.469999998808,0.305000007153,0.0
1449618390333492379,4,1449618390330387343,odom,0.569999992847,0.0,0.0,0.469999998808,-0.305000007153,0.0,-0.730000019073,-0.305000007153,0.0,-0.730000019073,0.305000007153,0.0,0.469999998808,0.305000007153,0.0
1449618390530356510,5,1449618390530023100,odom,0.569999992847,0.0,0.0,0.469999998808,-0.305000007153,0.0,-0.730000019073,-0.305000007153,0.0,-0.730000019073,0.305000007153,0.0,0.469999998808,0.305000007153,0.0
1449618390732314093,6,1449618390730449545,odom,0.569999992847,0.0,0.0,0.469999998808,-0.305000007153,0.0,-0.730000019073,-0.305000007153,0.0,-0.730000019073,0.305000007153,0.0,0.469999998808,0.305000007153,0.0
1449618390931279487,7,1449618390930739808,odom,0.569999992847,0.0,0.0,0.469999998808,-0.305000007153,0.0,-0.730000019073,-0.305000007153,0.0,-0.730000019073,0.305000007153,0.0,0.469999998808,0.305000007153,0.0
1449618391132038910,8,1449618391131319015,odom,0.569999992847,0.0,0.0,0.469999998808,-0.305000007153,0.0,-0.730000019073,-0.305000007153,0.0,-0.730000019073,0.305000007153,0.0,0.469999998808,0.305000007153,0.0
1449618391332319667,9,1449618391331812111,odom,0.569999992847,0.0,0.0,0.469999998808,-0.305000007153,0.0,-0.730000019073,-0.305000007153,0.0,-0.730000019073,0.305000007153,0.0,0.469999998808,0.305000007153,0.0
1449618391531377940,10,1449618391530496479,odom,0.569999992847,0.0,0.0,0.469999998808,-0.305000007153,0.0,-0.730000019073,-0.305000007153,0.0,-0.730000019073,0.305000007153,0.0,0.469999998808,0.305000007153,0.0
1449618391833983025,11,1449618391833719795,odom,0.569999992847,0.0,0.0,0.469999998808,-0.305000007153,0.0,-0.730000019073,-0.305000007153,0.0,-0.730000019073,0.305000007153,0.0,0.469999998808,0.305000007153,0.0
1449618392094383316,12,1449618392092355103,odom,0.569999992847,0.0,0.0,0.469999998808,-0.305000007153,0.0,-0.730000019073,-0.305000007153,0.0,-0.730000019073,0.305000007153,0.0,0.469999998808,0.305000007153,0.0
1449618392320670518,13,1449618392320181856,odom,0.569999992847,0.0,0.0,0.469999998808,-0.305000007153,0.0,-0.730000019073,-0.305000007153,0.0,-0.730000019073,0.305000007153,0.0,0.469999998808,0.305000007153,0.0
1449618392510626601,14,1449618392509702246,odom,0.569999992847,0.0,0.0,0.469999998808,-0.305000007153,0.0,-0.730000019073,-0.305000007153,0.0,-0.730000019073,0.305000007153,0.0,0.469999998808,0.305000007153,0.0
1449618392657118695,15,1449618392656540284,odom,0.569999992847,0.0,0.0,0.469999998808,-0.305000007153,0.0,-0.730000019073,-0.305000007153,0.0,-0.730000019073,0.305000007153,0.0,0.469999998808,0.305000007153,0.0
1449618392841251974,16,1449618392840815808,odom,0.569999992847,0.0,0.0,0.469999998808,-0.305000007153,0.0,-0.730000019073,-0.305000007153,0.0,-0.730000019073,0.305000007153,0.0,0.469999998808,0.305000007153,0.0
1449618393033906910,17,1449618393031066878,odom,0.569999992847,0.0,0.0,0.469999998808,-0.305000007153,0.0,-0.730000019073,-0.305000007153,0.0,-0.730000019073,0.305000007153,0.0,0.469999998808,0.305000007153,0.0
1449618393258182827,18,1449618393257341102,odom,0.569999992847,0.0,0.0,0.469999998808,-0.305000007153,0.0,-0.730000019073,-0.305000007153,0.0,-0.730000019073,0.305000007153,0.0,0.469999998808,0.305000007153,0.0
1449618393440078098,19,1449618393439479997,odom,0.569999992847,0.0,0.0,0.469999998808,-0.305000007153,0.0,-0.730000019073,-0.305000007153,0.0,-0.730000019073,0.305000007153,0.0,0.469999998808,0.305000007153,0.0
1449618393630822790,20,1449618393625769403,odom,0.569999992847,0.0,0.0,0.469999998808,-0.305000007153,0.0,-0.730000019073,-0.305000007153,0.0,-0.730000019073,0.305000007153,0.0,0.469999998808,0.305000007153,0.0
1449618393829931853,21,1449618393827155372,odom,0.569999992847,0.0,0.0,0.469999998808,-0.305000007153,0.0,-0.730000019073,-0.305000007153,0.0,-0.730000019073,0.305000007153,0.0,0.469999998808,0.305000007153,0.0
1449618394040786392,22,1449618394037901227,odom,0.569999992847,0.0,0.0,0.469999998808,-0.305000007153,0.0,-0.730000019073,-0.305000007153,0.0,-0.730000019073,0.305000007153,0.0,0.469999998808,0.305000007153,0.0
1449618394215431022,23,1449618394215126111,odom,0.569999992847,0.0,0.0,0.469999998808,-0.305000007153,0.0,-0.730000019073,-0.305000007153,0.0,-0.730000019073,0.305000007153,0.0,0.469999998808,0.305000007153,0.0
1449618394437798611,24,1449618394435874916,odom,0.569999992847,0.0,0.0,0.469999998808,-0.305000007153,0.0,-0.730000019073,-0.305000007153,0.0,-0.730000019073,0.305000007153,0.0,0.469999998808,0.305000007153,0.0
1449618394631656327,25,1449618394628967994,odom,0.569999992847,0.0,0.0,0.469999998808,-0.305000007153,0.0,-0.730000019073,-0.305000007153,0.0,-0.730000019073,0.305000007153,0.0,0.469999998808,0.305000007153,0.0
1449618394837612888,26,1449618394837277040,odom,0.569999992847,0.0,0.0,0.469999998808,-0.305000007153,0.0,-0.730000019073,-0.305000007153,0.0,-0.730000019073,0.305000007153,0.0,0.469999998808,0.305000007153,0.0
1449618395049046752,27,1449618395048161118,odom,0.569999992847,0.0,0.0,0.469999998808,-0.305000007153,0.0,-0.730000019073,-0.305000007153,0.0,-0.730000019073,0.305000007153,0.0,0.469999998808,0.305000007153,0.0
1449618395271546422,28,1449618395269074907,odom,0.569999992847,0.0,0.0,0.469999998808,-0.305000007153,0.0,-0.730000019073,-0.305000007153,0.0,-0.730000019073,0.305000007153,0.0,0.469999998808,0.305000007153,0.0
1449618395465845841,29,1449618395463281968,odom,0.569999992847,0.0,0.0,0.469999998808,-0.305000007153,0.0,-0.730000019073,-0.305000007153,0.0,-0.730000019073,0.305000007153,0.0,0.469999998808,0.305000007153,0.0
1449618395702101290,30,1449618395691964495,odom,0.569999992847,0.0,0.0,0.469999998808,-0.305000007153,0.0,-0.730000019073,-0.305000007153,0.0,-0.730000019073,0.305000007153,0.0,0.469999998808,0.305000007153,0.0
1449618395889763085,31,1449618395888996396,odom,0.569999992847,0.0,0.0,0.469999998808,-0.305000007153,0.0,-0.730000019073,-0.305000007153,0.0,-0.730000019073,0.305000007153,0.0,0.469999998808,0.305000007153,0.0
1449618396101152258,32,1449618396097907790,odom,0.569999992847,0.0,0.0,0.469999998808,-0.305000007153,0.0,-0.730000019073,-0.305000007153,0.0,-0.730000019073,0.305000007153,0.0,0.469999998808,0.305000007153,0.0
1449618396236150594,33,1449618396235983707,odom,0.575759589672,0.0,0.0,0.475759595633,-0.305000007153,0.0,-0.724240422249,-0.305000007153,0.0,-0.724240422249,0.305000007153,0.0,0.475759595633,0.305000007153,0.0
1449618396475380271,34,1449618396472719794,odom,0.575759589672,0.0,0.0,0.475759595633,-0.305000007153,0.0,-0.724240422249,-0.305000007153,0.0,-0.724240422249,0.305000007153,0.0,0.475759595633,0.305000007153,0.0
1449618396717177691,35,1449618396714774346,odom,0.581519007683,-3.04332297674e-05,0.0,0.481519013643,-0.305030435324,0.0,-0.718481004238,-0.305030435324,0.0,-0.718481004238,0.304969578981,0.0,0.481519013643,0.304969578981,0.0
1449618396832745631,36,1449618396832419085,odom,0.575759589672,0.0,0.0,0.475759595633,-0.305000007153,0.0,-0.724240422249,-0.305000007153,0.0,-0.724240422249,0.305000007153,0.0,0.475759595633,0.305000007153,0.0
1449618397132627149,37,1449618397121520502,odom,0.575759589672,0.0,0.0,0.475759595633,-0.305000007153,0.0,-0.724240422249,-0.305000007153,0.0,-0.724240422249,0.305000007153,0.0,0.475759595633,0.305000007153,0.0
1449618397294355061,38,1449618397290225010,odom,0.581519007683,-3.04332297674e-05,0.0,0.481519013643,-0.305030435324,0.0,-0.718481004238,-0.305030435324,0.0,-0.718481004238,0.304969578981,0.0,0.481519013643,0.304969578981,0.0
1449618397515843499,39,1449618397514849231,odom,0.581519007683,-3.04332297674e-05,0.0,0.481519013643,-0.305030435324,0.0,-0.718481004238,-0.305030435324,0.0,-0.718481004238,0.304969578981,0.0,0.481519013643,0.304969578981,0.0
1449618397868428560,40,1449618397861094670,odom,0.587278604507,-3.04332297674e-05,0.0,0.487278610468,-0.305030435324,0.0,-0.712721407413,-0.305030435324,0.0,-0.712721407413,0.304969578981,0.0,0.487278610468,0.304969578981,0.0
1449618398082068018,41,1449618398081753302,odom,0.587278604507,-3.04332297674e-05,0.0,0.487278610468,-0.305030435324,0.0,-0.712721407413,-0.305030435324,0.0,-0.712721407413,0.304969578981,0.0,0.487278610468,0.304969578981,0.0
1449618398272467874,42,1449618398271465893,odom,0.587278604507,-3.04332297674e-05,0.0,0.487278610468,-0.305030435324,0.0,-0.712721407413,-0.305030435324,0.0,-0.712721407413,0.304969578981,0.0,0.487278610468,0.304969578981,0.0
1449618398524089914,43,1449618398523834566,odom,0.587278604507,-3.04332297674e-05,0.0,0.487278610468,-0.305030435324,0.0,-0.712721407413,-0.305030435324,0.0,-0.712721407413,0.304969578981,0.0,0.487278610468,0.304969578981,0.0
1449618398891264786,44,1449618398890759765,odom,0.587278604507,-3.04332297674e-05,0.0,0.487278610468,-0.305030435324,0.0,-0.712721407413,-0.305030435324,0.0,-0.712721407413,0.304969578981,0.0,0.487278610468,0.304969578981,0.0
1449618399158935840,45,1449618399158332658,odom,0.587278604507,-3.04332297674e-05,0.0,0.487278610468,-0.305030435324,0.0,-0.712721407413,-0.305030435324,0.0,-0.712721407413,0.304969578981,0.0,0.487278610468,0.304969578981,0.0
1449618399284462327,46,1449618399276938159,odom,0.598797619343,1.01643953671e-20,0.0,0.498797595501,-0.305000007153,0.0,-0.701202392578,-0.305000007153,0.0,-0.701202392578,0.305000007153,0.0,0.498797595501,0.305000007153,0.0
1449618399499391688,47,1449618399496975536,odom,0.604557037354,3.04332297674e-05,0.0,0.504557013512,-0.304969578981,0.0,-0.695442974567,-0.304969578981,0.0,-0.695442974567,0.305030435324,0.0,0.504557013512,0.305030435324,0.0
1449618399760628958,48,1449618399743274216,odom,0.613164246082,0.00611497508362,0.0,0.516393065453,-0.299924790859,0.0,-0.68353998661,-0.312606215477,0.0,-0.689986348152,0.297359734774,0.0,0.509946644306,0.310041159391,0.0
1449618399935655529,49,1449618399911467320,odom,0.618923544884,0.00617584167048,0.0,0.522152304649,-0.299863904715,0.0,-0.677780687809,-0.312545329332,0.0,-0.684227108955,0.297420620918,0.0,0.515705943108,0.310102045536,0.0
1449618400281216014,50,1449618400280691413,odom,0.618923544884,0.00617584167048,0.0,0.522152304649,-0.299863904715,0.0,-0.677780687809,-0.312545329332,0.0,-0.684227108955,0.297420620918,0.0,0.515705943108,0.310102045536,0.0
1449618400448375233,51,1449618400445141300,odom,0.618923544884,0.00617584167048,0.0,0.522152304649,-0.299863904715,0.0,-0.677780687809,-0.312545329332,0.0,-0.684227108955,0.297420620918,0.0,0.515705943108,0.310102045536,0.0
1449618400683111233,52,1449618400676653432,odom,0.618923544884,0.00617584167048,0.0,0.522152304649,-0.299863904715,0.0,-0.677780687809,-0.312545329332,0.0,-0.684227108955,0.297420620918,0.0,0.515705943108,0.310102045536,0.0
1449618400938029043,53,1449618400934987286,odom,0.618923544884,0.00617584167048,0.0,0.522152304649,-0.299863904715,0.0,-0.677780687809,-0.312545329332,0.0,-0.684227108955,0.297420620918,0.0,0.515705943108,0.310102045536,0.0
1449618401086757979,54,1449618401084293312,odom,0.618923544884,0.00617584167048,0.0,0.522152304649,-0.299863904715,0.0,-0.677780687809,-0.312545329332,0.0,-0.684227108955,0.297420620918,0.0,0.515705943108,0.310102045536,0.0
1449618401295991353,55,1449618401276095375,odom,0.618923544884,0.00617584167048,0.0,0.522152304649,-0.299863904715,0.0,-0.677780687809,-0.312545329332,0.0,-0.684227108955,0.297420620918,0.0,0.515705943108,0.310102045536,0.0
1449618401468063952,56,1449618401466081839,odom,0.618923544884,0.00617584167048,0.0,0.522152304649,-0.299863904715,0.0,-0.677780687809,-0.312545329332,0.0,-0.684227108955,0.297420620918,0.0,0.515705943108,0.310102045536,0.0
1449618401688798082,57,1449618401686699881,odom,0.624682307243,0.00626713782549,0.0,0.527911067009,-0.299772620201,0.0,-0.672021925449,-0.312454044819,0.0,-0.678468286991,0.297511905432,0.0,0.521464705467,0.31019333005,0.0
1449618401910425074,58,1449618401908267283,odom,0.627465963364,0.0123510034755,0.0,0.533934354782,-0.294694334269,0.0,-0.665797650814,-0.320055752993,0.0,-0.678689718246,0.289808005095,0.0,0.52104228735,0.315169423819,0.0
1449618402097675510,59,1449618402094803237,odom,0.627465963364,0.0123510034755,0.0,0.533934354782,-0.294694334269,0.0,-0.665797650814,-0.320055752993,0.0,-0.678689718246,0.289808005095,0.0,0.52104228735,0.315169423819,0.0
1449618402276897817,60,1449618402275946374,odom,0.627465963364,0.0123510034755,0.0,0.533934354782,-0.294694334269,0.0,-0.665797650814,-0.320055752993,0.0,-0.678689718246,0.289808005095,0.0,0.52104228735,0.315169423819,0.0
1449618402465114059,61,1449618402461629634,odom,0.627465963364,0.0123510034755,0.0,0.533934354782,-0.294694334269,0.0,-0.665797650814,-0.320055752993,0.0,-0.678689718246,0.289808005095,0.0,0.52104228735,0.315169423819,0.0
1449618402696379568,62,1449618402695801321,odom,0.627465963364,0.0123510034755,0.0,0.533934354782,-0.294694334269,0.0,-0.665797650814,-0.320055752993,0.0,-0.678689718246,0.289808005095,0.0,0.52104228735,0.315169423819,0.0
1449618402838886286,63,1449618402834398005,odom,0.627465963364,0.0123510034755,0.0,0.533934354782,-0.294694334269,0.0,-0.665797650814,-0.320055752993,0.0,-0.678689718246,0.289808005095,0.0,0.52104228735,0.315169423819,0.0
1449618403085737998,64,1449618403075373895,odom,0.627465963364,0.0123510034755,0.0,0.533934354782,-0.294694334269,0.0,-0.665797650814,-0.320055752993,0.0,-0.678689718246,0.289808005095,0.0,0.52104228735,0.315169423819,0.0
1449618403242274032,65,1449618403238104210,odom,0.627465963364,0.0123510034755,0.0,0.533934354782,-0.294694334269,0.0,-0.665797650814,-0.320055752993,0.0,-0.678689718246,0.289808005095,0.0,0.52104228735,0.315169423819,0.0
1449618403437209319,66,1449618403431765103,odom,0.627465963364,0.0123510034755,0.0,0.533934354782,-0.294694334269,0.0,-0.665797650814,-0.320055752993,0.0,-0.678689718246,0.289808005095,0.0,0.52104228735,0.315169423819,0.0
1449618403639681981,67,1449618403636501054,odom,0.627465963364,0.0123510034755,0.0,0.533934354782,-0.294694334269,0.0,-0.665797650814,-0.320055752993,0.0,-0.678689718246,0.289808005095,0.0,0.52104228735,0.315169423819,0.0
1449618403856920781,68,1449618403849378712,odom,0.627465963364,0.0123510034755,0.0,0.533934354782,-0.294694334269,0.0,-0.665797650814,-0.320055752993,0.0,-0.678689718246,0.289808005095,0.0,0.52104228735,0.315169423819,0.0
1449618404075372793,69,1449618404074472343,odom,0.627465963364,0.0123510034755,0.0,0.533934354782,-0.294694334269,0.0,-0.665797650814,-0.320055752993,0.0,-0.678689718246,0.289808005095,0.0,0.52104228735,0.315169423819,0.0
1449618404309806900,70,1449618404309540809,odom,0.627465963364,0.0123510034755,0.0,0.533934354782,-0.294694334269,0.0,-0.665797650814,-0.320055752993,0.0,-0.678689718246,0.289808005095,0.0,0.52104228735,0.315169423819,0.0
1449618404440723727,71,1449618404437366998,odom,0.627465963364,0.0123510034755,0.0,0.533934354782,-0.294694334269,0.0,-0.665797650814,-0.320055752993,0.0,-0.678689718246,0.289808005095,0.0,0.52104228735,0.315169423819,0.0
1449618404632127490,72,1449618404631746771,odom,0.627465963364,0.0123510034755,0.0,0.533934354782,-0.294694334269,0.0,-0.665797650814,-0.320055752993,0.0,-0.678689718246,0.289808005095,0.0,0.52104228735,0.315169423819,0.0
1449618404897656815,73,1449618404897347470,odom,0.627465963364,0.0123510034755,0.0,0.533934354782,-0.294694334269,0.0,-0.665797650814,-0.320055752993,0.0,-0.678689718246,0.289808005095,0.0,0.52104228735,0.315169423819,0.0
1449618405047704855,74,1449618405047400315,odom,0.627465963364,0.0123510034755,0.0,0.533934354782,-0.294694334269,0.0,-0.665797650814,-0.320055752993,0.0,-0.678689718246,0.289808005095,0.0,0.52104228735,0.315169423819,0.0
1449618405238494366,75,1449618405227361998,odom,0.627465963364,0.0123510034755,0.0,0.533934354782,-0.294694334269,0.0,-0.665797650814,-0.320055752993,0.0,-0.678689718246,0.289808005095,0.0,0.52104228735,0.315169423819,0.0
1449618405485212417,76,1449618405484854104,odom,0.627465963364,0.0123510034755,0.0,0.533934354782,-0.294694334269,0.0,-0.665797650814,-0.320055752993,0.0,-0.678689718246,0.289808005095,0.0,0.52104228735,0.315169423819,0.0
1449618405647384865,77,1449618405644839724,odom,0.627465963364,0.0123510034755,0.0,0.533934354782,-0.294694334269,0.0,-0.665797650814,-0.320055752993,0.0,-0.678689718246,0.289808005095,0.0,0.52104228735,0.315169423819,0.0
1449618405841097979,78,1449618405838655006,odom,0.627465963364,0.0123510034755,0.0,0.533934354782,-0.294694334269,0.0,-0.665797650814,-0.320055752993,0.0,-0.678689718246,0.289808005095,0.0,0.52104228735,0.315169423819,0.0
1449618406034291879,79,1449618406032148124,odom,0.627465963364,0.0123510034755,0.0,0.533934354782,-0.294694334269,0.0,-0.665797650814,-0.320055752993,0.0,-0.678689718246,0.289808005095,0.0,0.52104228735,0.315169423819,0.0
1449618406257959672,80,1449618406257551795,odom,0.627465963364,0.0123510034755,0.0,0.533934354782,-0.294694334269,0.0,-0.665797650814,-0.320055752993,0.0,-0.678689718246,0.289808005095,0.0,0.52104228735,0.315169423819,0.0
1449618406431916106,81,1449618406431459606,odom,0.627465963364,0.0123510034755,0.0,0.533934354782,-0.294694334269,0.0,-0.665797650814,-0.320055752993,0.0,-0.678689718246,0.289808005095,0.0,0.52104228735,0.315169423819,0.0
1449618406645724245,82,1449618406643178075,odom,0.627465963364,0.0123510034755,0.0,0.533934354782,-0.294694334269,0.0,-0.665797650814,-0.320055752993,0.0,-0.678689718246,0.289808005095,0.0,0.52104228735,0.315169423819,0.0
1449618406878024381,83,1449618406877121473,odom,0.627465963364,0.0123510034755,0.0,0.533934354782,-0.294694334269,0.0,-0.665797650814,-0.320055752993,0.0,-0.678689718246,0.289808005095,0.0,0.52104228735,0.315169423819,0.0
1449618407054337384,84,1449618407049521065,odom,0.627465963364,0.0123510034755,0.0,0.533934354782,-0.294694334269,0.0,-0.665797650814,-0.320055752993,0.0,-0.678689718246,0.289808005095,0.0,0.52104228735,0.315169423819,0.0
1449618407263928135,85,1449618407259924815,odom,0.627465963364,0.0123510034755,0.0,0.533934354782,-0.294694334269,0.0,-0.665797650814,-0.320055752993,0.0,-0.678689718246,0.289808005095,0.0,0.52104228735,0.315169423819,0.0
1449618407455318841,86,1449618407452105951,odom,0.627465963364,0.0123510034755,0.0,0.533934354782,-0.294694334269,0.0,-0.665797650814,-0.320055752993,0.0,-0.678689718246,0.289808005095,0.0,0.52104228735,0.315169423819,0.0
1449618407689325526,87,1449618407687198331,odom,0.627465963364,0.0123510034755,0.0,0.533934354782,-0.294694334269,0.0,-0.665797650814,-0.320055752993,0.0,-0.678689718246,0.289808005095,0.0,0.52104228735,0.315169423819,0.0
1449618407845343381,88,1449618407844696123,odom,0.627465963364,0.0123510034755,0.0,0.533934354782,-0.294694334269,0.0,-0.665797650814,-0.320055752993,0.0,-0.678689718246,0.289808005095,0.0,0.52104228735,0.315169423819,0.0
1449618408054132336,89,1449618408051918332,odom,0.627465963364,0.0123510034755,0.0,0.533934354782,-0.294694334269,0.0,-0.665797650814,-0.320055752993,0.0,-0.678689718246,0.289808005095,0.0,0.52104228735,0.315169423819,0.0
1449618408276014377,90,1449618408275632104,odom,0.627465963364,0.0123510034755,0.0,0.533934354782,-0.294694334269,0.0,-0.665797650814,-0.320055752993,0.0,-0.678689718246,0.289808005095,0.0,0.52104228735,0.315169423819,0.0
1449618408470202922,91,1449618408467320555,odom,0.627465963364,0.0123510034755,0.0,0.533934354782,-0.294694334269,0.0,-0.665797650814,-0.320055752993,0.0,-0.678689718246,0.289808005095,0.0,0.52104228735,0.315169423819,0.0
1449618408677561564,92,1449618408671349650,odom,0.627465963364,0.0123510034755,0.0,0.533934354782,-0.294694334269,0.0,-0.665797650814,-0.320055752993,0.0,-0.678689718246,0.289808005095,0.0,0.52104228735,0.315169423819,0.0
1449618408873284586,93,1449618408872554593,odom,0.627465963364,0.0123510034755,0.0,0.533934354782,-0.294694334269,0.0,-0.665797650814,-0.320055752993,0.0,-0.678689718246,0.289808005095,0.0,0.52104228735,0.315169423819,0.0
1449618409061850876,94,1449618409061306432,odom,0.627465963364,0.0123510034755,0.0,0.533934354782,-0.294694334269,0.0,-0.665797650814,-0.320055752993,0.0,-0.678689718246,0.289808005095,0.0,0.52104228735,0.315169423819,0.0
1449618409320345908,95,1449618409312349540,odom,0.627465963364,0.0123510034755,0.0,0.533934354782,-0.294694334269,0.0,-0.665797650814,-0.320055752993,0.0,-0.678689718246,0.289808005095,0.0,0.52104228735,0.315169423819,0.0
1449618409429319862,96,1449618409424094906,odom,0.627465963364,0.0123510034755,0.0,0.533934354782,-0.294694334269,0.0,-0.665797650814,-0.320055752993,0.0,-0.678689718246,0.289808005095,0.0,0.52104228735,0.315169423819,0.0
1449618409666303426,97,1449618409664001418,odom,0.627465963364,0.0123510034755,0.0,0.533934354782,-0.294694334269,0.0,-0.665797650814,-0.320055752993,0.0,-0.678689718246,0.289808005095,0.0,0.52104228735,0.315169423819,0.0
1449618409902234399,98,1449618409896112533,odom,0.627465963364,0.0123510034755,0.0,0.533934354782,-0.294694334269,0.0,-0.665797650814,-0.320055752993,0.0,-0.678689718246,0.289808005095,0.0,0.52104228735,0.315169423819,0.0
1449618410058185660,99,1449618410055436358,odom,0.627465963364,0.0123510034755,0.0,0.533934354782,-0.294694334269,0.0,-0.665797650814,-0.320055752993,0.0,-0.678689718246,0.289808005095,0.0,0.52104228735,0.315169423819,0.0
1449618410252180776,100,1449618410248754135,odom,0.627465963364,0.0123510034755,0.0,0.533934354782,-0.294694334269,0.0,-0.665797650814,-0.320055752993,0.0,-0.678689718246,0.289808005095,0.0,0.52104228735,0.315169423819,0.0
1449618410467904036,101,1449618410460403711,odom,0.627465963364,0.0123510034755,0.0,0.533934354782,-0.294694334269,0.0,-0.665797650814,-0.320055752993,0.0,-0.678689718246,0.289808005095,0.0,0.52104228735,0.315169423819,0.0
1449618410634824757,102,1449618410629947751,odom,0.627465963364,0.0123510034755,0.0,0.533934354782,-0.294694334269,0.0,-0.665797650814,-0.320055752993,0.0,-0.678689718246,0.289808005095,0.0,0.52104228735,0.315169423819,0.0
1449618410846654651,103,1449618410844084542,odom,0.627465963364,0.0123510034755,0.0,0.533934354782,-0.294694334269,0.0,-0.665797650814,-0.320055752993,0.0,-0.678689718246,0.289808005095,0.0,0.52104228735,0.315169423819,0.0
1449618411069010275,104,1449618411068046298,odom,0.627465963364,0.0123510034755,0.0,0.533934354782,-0.294694334269,0.0,-0.665797650814,-0.320055752993,0.0,-0.678689718246,0.289808005095,0.0,0.52104228735,0.315169423819,0.0
1449618411241034177,105,1449618411240074605,odom,0.627465963364,0.0123510034755,0.0,0.533934354782,-0.294694334269,0.0,-0.665797650814,-0.320055752993,0.0,-0.678689718246,0.289808005095,0.0,0.52104228735,0.315169423819,0.0
1449618411472430731,106,1449618411469562340,odom,0.627465963364,0.0123510034755,0.0,0.533934354782,-0.294694334269,0.0,-0.665797650814,-0.320055752993,0.0,-0.678689718246,0.289808005095,0.0,0.52104228735,0.315169423819,0.0
1449618411698007992,107,1449618411694908464,odom,0.627465963364,0.0123510034755,0.0,0.533934354782,-0.294694334269,0.0,-0.665797650814,-0.320055752993,0.0,-0.678689718246,0.289808005095,0.0,0.52104228735,0.315169423819,0.0
1449618411832184219,108,1449618411830321329,odom,0.627465963364,0.0123510034755,0.0,0.533934354782,-0.294694334269,0.0,-0.665797650814,-0.320055752993,0.0,-0.678689718246,0.289808005095,0.0,0.52104228735,0.315169423819,0.0
1449618412055870439,109,1449618412055264594,odom,0.627465963364,0.0123510034755,0.0,0.533934354782,-0.294694334269,0.0,-0.665797650814,-0.320055752993,0.0,-0.678689718246,0.289808005095,0.0,0.52104228735,0.315169423819,0.0
1449618412279197899,110,1449618412276769502,odom,0.627465963364,0.0123510034755,0.0,0.533934354782,-0.294694334269,0.0,-0.665797650814,-0.320055752993,0.0,-0.678689718246,0.289808005095,0.0,0.52104228735,0.315169423819,0.0
1449618412446272181,111,1449618412444965411,odom,0.627465963364,0.0123510034755,0.0,0.533934354782,-0.294694334269,0.0,-0.665797650814,-0.320055752993,0.0,-0.678689718246,0.289808005095,0.0,0.52104228735,0.315169423819,0.0
1449618412681012079,112,1449618412680824336,odom,0.627465963364,0.0123510034755,0.0,0.533934354782,-0.294694334269,0.0,-0.665797650814,-0.320055752993,0.0,-0.678689718246,0.289808005095,0.0,0.52104228735,0.315169423819,0.0
1449618412908433653,113,1449618412907447590,odom,0.627465963364,0.0123510034755,0.0,0.533934354782,-0.294694334269,0.0,-0.665797650814,-0.320055752993,0.0,-0.678689718246,0.289808005095,0.0,0.52104228735,0.315169423819,0.0
1449618413061054442,114,1449618413060747143,odom,0.627465963364,0.0123510034755,0.0,0.533934354782,-0.294694334269,0.0,-0.665797650814,-0.320055752993,0.0,-0.678689718246,0.289808005095,0.0,0.52104228735,0.315169423819,0.0
1449618413246734860,115,1449618413242492214,odom,0.627465963364,0.0123510034755,0.0,0.533934354782,-0.294694334269,0.0,-0.665797650814,-0.320055752993,0.0,-0.678689718246,0.289808005095,0.0,0.52104228735,0.315169423819,0.0
1449618413465902178,116,1449618413465563167,odom,0.627465963364,0.0123510034755,0.0,0.533934354782,-0.294694334269,0.0,-0.665797650814,-0.320055752993,0.0,-0.678689718246,0.289808005095,0.0,0.52104228735,0.315169423819,0.0
1449618413663886679,117,1449618413659559278,odom,0.627465963364,0.0123510034755,0.0,0.533934354782,-0.294694334269,0.0,-0.665797650814,-0.320055752993,0.0,-0.678689718246,0.289808005095,0.0,0.52104228735,0.315169423819,0.0
1449618413841626233,118,1449618413841298562,odom,0.627465963364,0.0123510034755,0.0,0.533934354782,-0.294694334269,0.0,-0.665797650814,-0.320055752993,0.0,-0.678689718246,0.289808005095,0.0,0.52104228735,0.315169423819,0.0
1449618414071892087,119,1449618414071449175,odom,0.627465963364,0.0123510034755,0.0,0.533934354782,-0.294694334269,0.0,-0.665797650814,-0.320055752993,0.0,-0.678689718246,0.289808005095,0.0,0.52104228735,0.315169423819,0.0
1449618414261882995,120,1449618414261519206,odom,0.627465963364,0.0123510034755,0.0,0.533934354782,-0.294694334269,0.0,-0.665797650814,-0.320055752993,0.0,-0.678689718246,0.289808005095,0.0,0.52104228735,0.315169423819,0.0
1449618414440907524,121,1449618414440677615,odom,0.627465963364,0.0123510034755,0.0,0.533934354782,-0.294694334269,0.0,-0.665797650814,-0.320055752993,0.0,-0.678689718246,0.289808005095,0.0,0.52104228735,0.315169423819,0.0
1449618414635526592,122,1449618414635305500,odom,0.627465963364,0.0123510034755,0.0,0.533934354782,-0.294694334269,0.0,-0.665797650814,-0.320055752993,0.0,-0.678689718246,0.289808005095,0.0,0.52104228735,0.315169423819,0.0
1449618414862093779,123,1449618414860446132,odom,0.627465963364,0.0123510034755,0.0,0.533934354782,-0.294694334269,0.0,-0.665797650814,-0.320055752993,0.0,-0.678689718246,0.289808005095,0.0,0.52104228735,0.315169423819,0.0
1449618415063277592,124,1449618415058384393,odom,0.627465963364,0.0123510034755,0.0,0.533934354782,-0.294694334269,0.0,-0.665797650814,-0.320055752993,0.0,-0.678689718246,0.289808005095,0.0,0.52104228735,0.315169423819,0.0
1449618415341810719,125,1449618415323811264,odom,0.627465963364,0.0123510034755,0.0,0.533934354782,-0.294694334269,0.0,-0.665797650814,-0.320055752993,0.0,-0.678689718246,0.289808005095,0.0,0.52104228735,0.315169423819,0.0
1449618415451631734,126,1449618415448440988,odom,0.627465963364,0.0123510034755,0.0,0.533934354782,-0.294694334269,0.0,-0.665797650814,-0.320055752993,0.0,-0.678689718246,0.289808005095,0.0,0.52104228735,0.315169423819,0.0
1449618415651126499,127,1449618415648046213,odom,0.627465963364,0.0123510034755,0.0,0.533934354782,-0.294694334269,0.0,-0.665797650814,-0.320055752993,0.0,-0.678689718246,0.289808005095,0.0,0.52104228735,0.315169423819,0.0
1449618415905393344,128,1449618415889909594,odom,0.627465963364,0.0123510034755,0.0,0.533934354782,-0.294694334269,0.0,-0.665797650814,-0.320055752993,0.0,-0.678689718246,0.289808005095,0.0,0.52104228735,0.315169423819,0.0
1449618416074228035,129,1449618416055742611,odom,0.627465963364,0.0123510034755,0.0,0.533934354782,-0.294694334269,0.0,-0.665797650814,-0.320055752993,0.0,-0.678689718246,0.289808005095,0.0,0.52104228735,0.315169423819,0.0
1449618416276582628,130,1449618416247644237,odom,0.627465963364,0.0123510034755,0.0,0.533934354782,-0.294694334269,0.0,-0.665797650814,-0.320055752993,0.0,-0.678689718246,0.289808005095,0.0,0.52104228735,0.315169423819,0.0
1449618416504956284,131,1449618416502944487,odom,0.627465963364,0.0123510034755,0.0,0.533934354782,-0.294694334269,0.0,-0.665797650814,-0.320055752993,0.0,-0.678689718246,0.289808005095,0.0,0.52104228735,0.315169423819,0.0
1449618416635804305,132,1449618416635475148,odom,0.630441069603,0.00635843444616,0.0,0.533669888973,-0.299681335688,0.0,-0.66626316309,-0.312362760305,0.0,-0.672709524632,0.297603189945,0.0,0.527223467827,0.310284614563,0.0
1449618416870844756,133,1449618416865950018,odom,0.638983547688,0.0125335967168,0.0,0.545451879501,-0.294511735439,0.0,-0.65428006649,-0.319873154163,0.0,-0.667172133923,0.289990603924,0.0,0.532559871674,0.315352022648,0.0
1449618417051024786,134,1449618417049451377,odom,0.650501072407,0.0127161890268,0.0,0.556969463825,-0.29432913661,0.0,-0.642762541771,-0.319690585136,0.0,-0.655654549599,0.290173202753,0.0,0.544077396393,0.315534621477,0.0
1449618417295419865,135,1449618417295208878,odom,0.667776465416,0.0130509370938,0.0,0.574244856834,-0.293994396925,0.0,-0.625487148762,-0.319355815649,0.0,-0.638379216194,0.290507942438,0.0,0.561352789402,0.315869361162,0.0
1449618417443114106,136,1449618417438630414,odom,0.685050606728,0.0134465387091,0.0,0.591518938541,-0.293598800898,0.0,-0.60821300745,-0.318960219622,0.0,-0.621105074883,0.290903538465,0.0,0.578626871109,0.31626495719,0.0
1449618417641046185,137,1449618417638413808,odom,0.705043911934,0.0199550837278,0.0,0.614762306213,-0.288061529398,0.0,-0.584634661674,-0.32610014081,0.0,-0.603970944881,0.283593326807,0.0,0.595426023006,0.321631938219,0.0
1449618417848182406,138,1449618417847898392,odom,0.72231477499,0.0204723775387,0.0,0.63203316927,-0.287544250488,0.0,-0.567363798618,-0.325582832098,0.0,-0.586700081825,0.284110635519,0.0,0.612696886063,0.322149217129,0.0
1449618418168359649,139,1449618418165849720,odom,0.739584863186,0.0210200939327,0.0,0.649303257465,-0.286996513605,0.0,-0.550093710423,-0.325035125017,0.0,-0.569429993629,0.2846583426,0.0,0.629966974258,0.322696954012,0.0
1449618418272078740,140,1449618418271060491,odom,0.753751575947,0.027556989342,0.0,0.666730105877,-0.281396508217,0.0,-0.532197952271,-0.332108050585,0.0,-0.557976305485,0.277347028255,0.0,0.640951752663,0.328058570623,0.0
1449618418518685917,141,1449618418517206219,odom,0.762608230114,0.0218416210264,0.0,0.672326624393,-0.286174982786,0.0,-0.527070343494,-0.324213594198,0.0,-0.546406626701,0.285479873419,0.0,0.652990341187,0.323518484831,0.0
1449618418728942713,142,1449618418725152593,odom,0.77101713419,0.0282263569534,0.0,0.68399566412,-0.280727148056,0.0,-0.514932334423,-0.331438660622,0.0,-0.540710687637,0.278016418219,0.0,0.658217310905,0.328727930784,0.0
1449618418934571014,143,1449618418932077067,odom,0.782526016235,0.0287131536752,0.0,0.695504546165,-0.280240356922,0.0,-0.503423452377,-0.330951869488,0.0,-0.529201805592,0.278503209352,0.0,0.669726192951,0.329214721918,0.0
1449618419056947954,144,1449618419049650103,odom,0.79403346777,0.0292303487659,0.0,0.7070119977,-0.279723137617,0.0,-0.491916030645,-0.330434679985,0.0,-0.517694413662,0.279020398855,0.0,0.681233644485,0.329731941223,0.0
1449618419313778152,145,1449618419312987201,odom,0.802375853062,0.0356731936336,0.0,0.7186242342,-0.274182677269,0.0,-0.479700922966,-0.337561488152,0.0,-0.511918485165,0.27158716321,0.0,0.686406672001,0.33496594429,0.0
1449618419707635399,146,1449618419675688171,odom,0.808128893375,0.0359469912946,0.0,0.724377214909,-0.273908883333,0.0,-0.473947942257,-0.337287664413,0.0,-0.506165504456,0.271860957146,0.0,0.69215965271,0.335239738226,0.0
1449618419909327825,147,1449618419895997808,odom,0.808128893375,0.0359469912946,0.0,0.724377214909,-0.273908883333,0.0,-0.473947942257,-0.337287664413,0.0,-0.506165504456,0.271860957146,0.0,0.69215965271,0.335239738226,0.0
1449618420158583215,148,1449618420151437685,odom,0.808128893375,0.0359469912946,0.0,0.724377214909,-0.273908883333,0.0,-0.473947942257,-0.337287664413,0.0,-0.506165504456,0.271860957146,0.0,0.69215965271,0.335239738226,0.0
1449618420275852593,149,1449618420275024448,odom,0.811292469501,0.0300517398864,0.0,0.724270939827,-0.27890175581,0.0,-0.474657058716,-0.329613298178,0.0,-0.50043541193,0.279841780663,0.0,0.698492586613,0.33055332303,0.0
1449618420508929382,150,1449618420501757993,odom,0.813881874084,0.0362207852304,0.0,0.730130195618,-0.273635089397,0.0,-0.468194931746,-0.337013870478,0.0,-0.500412464142,0.272134751081,0.0,0.697912693024,0.335513532162,0.0
1449618420635664947,151,1449618420635311226,odom,0.813881874084,0.0362207852304,0.0,0.730130195618,-0.273635089397,0.0,-0.468194931746,-0.337013870478,0.0,-0.500412464142,0.272134751081,0.0,0.697912693024,0.335513532162,0.0
1449618420931387142,152,1449618420929643708,odom,0.819634854794,0.0364945828915,0.0,0.735883235931,-0.273361295462,0.0,-0.462441951036,-0.336740076542,0.0,-0.494659483433,0.272408545017,0.0,0.703665673733,0.335787326097,0.0
1449618421097807893,153,1449618421096868041,odom,0.831140816212,0.0370421782136,0.0,0.74738919735,-0.27281370759,0.0,-0.450935959816,-0.33619248867,0.0,-0.483153492212,0.272956132889,0.0,0.715171635151,0.336334913969,0.0
1449618421311582782,154,1449618421307576640,odom,0.848395466805,0.0379547663033,0.0,0.764643847942,-0.271901100874,0.0,-0.433681309223,-0.335279911757,0.0,-0.465898871422,0.273868709803,0.0,0.732426285744,0.337247520685,0.0
1449618421537971919,155,1449618421528425492,odom,0.873916924,0.0455195307732,0.0,0.79344445467,-0.265204131603,0.0,-0.404143989086,-0.341243088245,0.0,-0.442797154188,0.267531037331,0.0,0.75479131937,0.343570023775,0.0
1449618421708155927,156,1449618421703817178,odom,0.902662277222,0.0472531877458,0.0,0.822189807892,-0.263470470905,0.0,-0.375398635864,-0.339509427547,0.0,-0.414051771164,0.269264698029,0.0,0.783536672592,0.345303684473,0.0
1449618421912187269,157,1449618421910997325,odom,0.942898392677,0.0498079136014,0.0,0.862425923347,-0.260915726423,0.0,-0.335162550211,-0.336954712868,0.0,-0.373815685511,0.271819442511,0.0,0.823772788048,0.347858399153,0.0
1449618422071020430,158,1449618422066935893,odom,0.98887616396,0.0528186894953,0.0,0.908403754234,-0.257904976606,0.0,-0.289184719324,-0.333943933249,0.0,-0.327837884426,0.274830192327,0.0,0.86975055933,0.350869178772,0.0
1449618422313037928,159,1449618422310337915,odom,1.04302918911,0.0628722459078,0.0,0.965844869614,-0.248684480786,0.0,-0.230873137712,-0.33737513423,0.0,-0.275957554579,0.270956516266,0.0,0.920760452747,0.35964718461,0.0
1449618422500934458,160,1449618422500637043,odom,1.08897984028,0.0662777200341,0.0,1.01179552078,-0.245278999209,0.0,-0.184922471642,-0.333969652653,0.0,-0.230006888509,0.274361997843,0.0,0.966711103916,0.363052666187,0.0
1449618422670337330,161,1449618422665128509,odom,1.16028881073,0.0777553170919,0.0,1.08640122414,-0.234599679708,0.0,-0.109312646091,-0.335932135582,0.0,-0.160823315382,0.27188912034,0.0,1.0348906517,0.373221576214,0.0
1449618422905131947,162,1449618422902459641,odom,1.21769821644,0.0823762193322,0.0,1.14381074905,-0.229978770018,0.0,-0.0519032254815,-0.331311225891,0.0,-0.103413887322,0.276510030031,0.0,1.09230005741,0.377842485905,0.0
1449618423105683765,163,1449618423105091864,odom,1.2808611393,0.0873014554381,0.0,1.2069735527,-0.225053533912,0.0,0.0112596731633,-0.326385974884,0.0,-0.0402509905398,0.281435251236,0.0,1.15546298027,0.382767707109,0.0
1449618423347918273,164,1449618423345646006,odom,1.33589243889,0.0854923054576,0.0,1.25870811939,-0.226064413786,0.0,0.0619901046157,-0.31475508213,0.0,0.0169056802988,0.293576568365,0.0,1.21362364292,0.38226723671,0.0
1449618423481372952,165,1449618423476531522,odom,1.39333069324,0.0897491499782,0.0,1.31614649296,-0.221807569265,0.0,0.119428440928,-0.31049823761,0.0,0.0743440240622,0.297833442688,0.0,1.27106201649,0.38652408123,0.0
1449618423635104871,166,1449618423634883287,odom,1.45408368111,0.0877842158079,0.0,1.37361121178,-0.222939431667,0.0,0.176022782922,-0.298978418112,0.0,0.137369647622,0.309795737267,0.0,1.33495807648,0.385834693909,0.0
1449618423925969159,167,1449618423920362187,odom,1.51155757904,0.0915249139071,0.0,1.43108510971,-0.219198733568,0.0,0.233496636152,-0.295237720013,0.0,0.194843500853,0.313536435366,0.0,1.39243197441,0.389575392008,0.0
1449618424077634647,168,1449618424076408450,odom,1.57227933407,0.089039593935,0.0,1.4885276556,-0.220816284418,0.0,0.290202498436,-0.284195065498,0.0,0.257984936237,0.324953556061,0.0,1.4563100338,0.388332337141,0.0
1449618424277371364,169,1449618424276986797,odom,1.63552868366,0.0926895737648,0.0,1.5517770052,-0.217166304588,0.0,0.35345184803,-0.280545085669,0.0,0.321234285831,0.328603535891,0.0,1.51955938339,0.391982316971,0.0
1449618424551712049,170,1449618424551495697,odom,1.68154096603,0.0951231494546,0.0,1.59778940678,-0.214732736349,0.0,0.399464219809,-0.278111517429,0.0,0.36724665761,0.33103710413,0.0,1.56557178497,0.39441588521,0.0
1449618424670992884,171,1449618424669776101,odom,1.75374782085,0.0923614650965,0.0,1.66672623158,-0.216592028737,0.0,0.467798262835,-0.267303556204,0.0,0.44201990962,0.342151522636,0.0,1.64094793797,0.392863035202,0.0
1449618424899414611,172,1449618424891870849,odom,1.81440794468,0.0884717255831,0.0,1.72412633896,-0.219544887543,0.0,0.524729311466,-0.257583498955,0.0,0.505393028259,0.352109968662,0.0,1.70478999615,0.390148580074,0.0
1449618425102007303,173,1449618425100199016,odom,1.86925959587,0.0840323865414,0.0,1.77572798729,-0.223012953997,0.0,0.575996041298,-0.248374372721,0.0,0.563103973866,0.361489385366,0.0,1.76283597946,0.38685080409,0.0
1449618425285536116,174,1449618425283161464,odom,1.92405796051,0.079165764153,0.0,1.82728683949,-0.226873993874,0.0,0.627353787422,-0.239555418491,0.0,0.62090742588,0.370410531759,0.0,1.82084035873,0.383091956377,0.0
1449618425437666055,175,1449618425433912961,odom,1.97880494595,0.0733246877789,0.0,1.8788049221,-0.231675326824,0.0,0.678804934025,-0.231675326824,0.0,0.678804934025,0.378324687481,0.0,1.8788049221,0.378324687481,0.0
1449618425631407876,176,1449618425630587246,odom,2.02746510506,0.0543434172869,0.0,1.91784715652,-0.247333437204,0.0,0.718450129032,-0.209294825792,0.0,0.737786471844,0.400398641825,0.0,1.93718338013,0.362360030413,0.0
1449618425839617192,177,1449618425836253104,odom,2.07041192055,0.0468024238944,0.0,1.95761203766,-0.253699153662,0.0,0.758683979511,-0.202987626195,0.0,0.784462332726,0.406467437744,0.0,1.98339033127,0.355755925179,0.0
1449618426043640109,178,1449618426040535292,odom,2.1100332737,0.0326121971011,0.0,1.99090766907,-0.26543828845,0.0,0.793319225311,-0.189399316907,0.0,0.831972420216,0.41937482357,0.0,2.02956080437,0.343335837126,0.0
1449618426261866018,179,1449618426260226830,odom,2.13547754288,0.0248388722539,0.0,2.01320886612,-0.271936058998,0.0,0.816490828991,-0.183245405555,0.0,0.861575245857,0.425086259842,0.0,2.05829334259,0.336395591497,0.0
1449618426454213249,180,1449618426450575698,odom,2.14122128487,0.0244131870568,0.0,2.01895260811,-0.272361755371,0.0,0.822234690189,-0.183671087027,0.0,0.867319107056,0.424660563469,0.0,2.06403708458,0.335969895124,0.0
1449618426664142401,181,1449618426658024945,odom,2.14122128487,0.0244131870568,0.0,2.01895260811,-0.272361755371,0.0,0.822234690189,-0.183671087027,0.0,0.867319107056,0.424660563469,0.0,2.06403708458,0.335969895124,0.0
1449618426857750025,182,1449618426850404531,odom,2.12973165512,0.0252341944724,0.0,2.00746297836,-0.271540760994,0.0,0.81074488163,-0.182850077748,0.0,0.855829358101,0.425481587648,0.0,2.05254745483,0.336790919304,0.0
1449618427019425600,183,1449618427018509030,odom,2.12152314186,0.0317911915481,0.0,2.00239753723,-0.26625931263,0.0,0.804809033871,-0.190220326185,0.0,0.84346216917,0.418553799391,0.0,2.04105067253,0.342514842749,0.0
1449618427214888454,184,1449618427213961122,odom,2.12152314186,0.0317911915481,0.0,2.00239753723,-0.26625931263,0.0,0.804809033871,-0.190220326185,0.0,0.84346216917,0.418553799391,0.0,2.04105067253,0.342514842749,0.0
1449618427417551180,185,1449618427417142001,odom,2.12152314186,0.0317911915481,0.0,2.00239753723,-0.26625931263,0.0,0.804809033871,-0.190220326185,0.0,0.84346216917,0.418553799391,0.0,2.04105067253,0.342514842749,0.0
1449618427639440691,186,1449618427637885299,odom,2.12152314186,0.0317911915481,0.0,2.00239753723,-0.26625931263,0.0,0.804809033871,-0.190220326185,0.0,0.84346216917,0.418553799391,0.0,2.04105067253,0.342514842749,0.0
1449618427809534928,187,1449618427809225359,odom,2.12152314186,0.0317911915481,0.0,2.00239753723,-0.26625931263,0.0,0.804809033871,-0.190220326185,0.0,0.84346216917,0.418553799391,0.0,2.04105067253,0.342514842749,0.0
1449618428055701395,188,1449618428055032437,odom,2.12152314186,0.0317911915481,0.0,2.00239753723,-0.26625931263,0.0,0.804809033871,-0.190220326185,0.0,0.84346216917,0.418553799391,0.0,2.04105067253,0.342514842749,0.0
1449618428227391793,189,1449618428222144500,odom,2.12152314186,0.0317911915481,0.0,2.00239753723,-0.26625931263,0.0,0.804809033871,-0.190220326185,0.0,0.84346216917,0.418553799391,0.0,2.04105067253,0.342514842749,0.0
1449618428513609654,190,1449618428512468566,odom,2.12152314186,0.0317911915481,0.0,2.00239753723,-0.26625931263,0.0,0.804809033871,-0.190220326185,0.0,0.84346216917,0.418553799391,0.0,2.04105067253,0.342514842749,0.0
1449618428631610433,191,1449618428629201983,odom,2.12152314186,0.0317911915481,0.0,2.00239753723,-0.26625931263,0.0,0.804809033871,-0.190220326185,0.0,0.84346216917,0.418553799391,0.0,2.04105067253,0.342514842749,0.0
1449618428887996505,192,1449618428880913248,odom,2.12152314186,0.0317911915481,0.0,2.00239753723,-0.26625931263,0.0,0.804809033871,-0.190220326185,0.0,0.84346216917,0.418553799391,0.0,2.04105067253,0.342514842749,0.0
1449618429049316339,193,1449618429047441973,odom,2.12152314186,0.0317911915481,0.0,2.00239753723,-0.26625931263,0.0,0.804809033871,-0.190220326185,0.0,0.84346216917,0.418553799391,0.0,2.04105067253,0.342514842749,0.0
1449618429257931332,194,1449618429257289813,odom,2.12152314186,0.0317911915481,0.0,2.00239753723,-0.26625931263,0.0,0.804809033871,-0.190220326185,0.0,0.84346216917,0.418553799391,0.0,2.04105067253,0.342514842749,0.0
1449618429433302861,195,1449618429433080057,odom,2.12152314186,0.0317911915481,0.0,2.00239753723,-0.26625931263,0.0,0.804809033871,-0.190220326185,0.0,0.84346216917,0.418553799391,0.0,2.04105067253,0.342514842749,0.0
1449618429668179080,196,1449618429666122313,odom,2.12152314186,0.0317911915481,0.0,2.00239753723,-0.26625931263,0.0,0.804809033871,-0.190220326185,0.0,0.84346216917,0.418553799391,0.0,2.04105067253,0.342514842749,0.0
1449618429842142261,197,1449618429841808705,odom,2.11823773384,0.0259944796562,0.0,1.99596893787,-0.270780473948,0.0,0.79925096035,-0.182089805603,0.0,0.844335377216,0.426241874695,0.0,2.04105329514,0.33755120635,0.0
1449618430056838082,198,1449618430055924635,odom,2.10428118706,0.0329164341092,0.0,1.98515558243,-0.265134066343,0.0,0.787567079067,-0.189095079899,0.0,0.826220214367,0.419679045677,0.0,2.02380871773,0.343640089035,0.0
1449618430248091469,199,1449618430245197812,odom,2.08450245857,0.0400250926614,0.0,1.9685331583,-0.259267657995,0.0,0.770208060741,-0.195888862014,0.0,0.80242562294,0.413259744644,0.0,2.00075078011,0.349880963564,0.0
1449618430458269883,200,1449618430456505939,odom,2.05624389648,0.0533698536456,0.0,1.94662606716,-0.248307004571,0.0,0.747229099274,-0.210268393159,0.0,0.766565382481,0.399425059557,0.0,1.96596240997,0.361386477947,0.0
1449618430676680860,201,1449618430669101810,odom,2.02473902702,0.0602739341557,0.0,1.91831541061,-0.24254450202,0.0,0.718583405018,-0.217183068395,0.0,0.731475412846,0.392680704594,0.0,1.93120741844,0.367319256067,0.0
1449618430824718255,202,1449618430812314428,odom,1.99892175198,0.0668142735958,0.0,1.8957041502,-0.237111911178,0.0,0.695771098137,-0.22443048656,0.0,0.702217459679,0.38553544879,0.0,1.90215051174,0.372854024172,0.0
1449618431043756029,203,1449618431043577109,odom,1.96727597713,0.0728683844209,0.0,1.86727595329,-0.232131630182,0.0,0.667275965214,-0.232131630182,0.0,0.667275965214,0.377868384123,0.0,1.86727595329,0.377868384123,0.0
1449618431302931878,204,1449618431268907152,odom,1.94132685661,0.0787398964167,0.0,1.84455561638,-0.227299869061,0.0,0.644622564316,-0.239981293678,0.0,0.638176202774,0.369984656572,0.0,1.83810925484,0.38266608119,0.0
1449618431417298021,205,1449618431411351090,odom,1.90380477905,0.0838804095984,0.0,1.81027317047,-0.22316493094,0.0,0.610541164875,-0.248526349664,0.0,0.597649097443,0.361337423325,0.0,1.79738104343,0.386698842049,0.0
1449618431628552626,206,1449618431627262380,odom,1.86888837814,0.0946742072701,0.0,1.78186690807,-0.214279294014,0.0,0.582938849926,-0.26499080658,0.0,0.557160496712,0.344464272261,0.0,1.75608849525,0.395175784826,0.0
1449618431865199565,207,1449618431861806818,odom,1.82799220085,0.104575417936,0.0,1.74751973152,-0.20614823699,0.0,0.549931287766,-0.282187193632,0.0,0.511278152466,0.326586931944,0.0,1.70886659622,0.402625918388,0.0
1449618432069381017,208,1449618432068960142,odom,1.79023134708,0.108000196517,0.0,1.71304702759,-0.203556522727,0.0,0.516328990459,-0.29224717617,0.0,0.471244573593,0.316084474325,0.0,1.66796255112,0.40477514267,0.0
1449618432293145109,209,1449618432289023563,odom,1.7467199564,0.110266402364,0.0,1.67283248901,-0.202088594437,0.0,0.477118521929,-0.30342105031,0.0,0.425607860088,0.304400205612,0.0,1.62132179737,0.405732661486,0.0
1449618432509359678,210,1449618432502184639,odom,1.7031724453,0.112224124372,0.0,1.63258993626,-0.200894251466,0.0,0.438013702631,-0.314857184887,0.0,0.380082547665,0.292385786772,0.0,1.5746588707,0.406348705292,0.0
1449618432632578852,211,1449618432630273271,odom,1.65385174751,0.113386519253,0.0,1.58658230305,-0.200460284948,0.0,0.393277019262,-0.327040940523,0.0,0.328931868076,0.279555886984,0.0,1.52223706245,0.406136542559,0.0
1449618432857375087,212,1449618432854859570,odom,1.59426534176,0.101528652012,0.0,1.52368295193,-0.211589738727,0.0,0.329106688499,-0.325552642345,0.0,0.271175533533,0.281690299511,0.0,1.46575176716,0.395653218031,0.0
1449618433104216283,213,1449618433104018354,odom,1.53457343578,0.0901192799211,0.0,1.4606859684,-0.222235709429,0.0,0.264972001314,-0.323568165302,0.0,0.213461354375,0.28425309062,0.0,1.40917527676,0.385585546494,0.0
1449618433267681385,214,1449618433262608912,odom,1.47145247459,0.0846783816814,0.0,1.39756500721,-0.227676615119,0.0,0.201851040125,-0.329009056091,0.0,0.150340378284,0.278812170029,0.0,1.34605431557,0.380144625902,0.0
1449618433425643665,215,1449618433423772986,odom,1.40590906143,0.0733534246683,0.0,1.32872474194,-0.238203302026,0.0,0.13200673461,-0.326893955469,0.0,0.0869223177433,0.281437695026,0.0,1.28364038467,0.370128363371,0.0
1449618433677122636,216,1449618433655295603,odom,1.3369846344,0.0682453289628,0.0,1.2598003149,-0.243311390281,0.0,0.0630823373795,-0.332002073526,0.0,0.0179979130626,0.276329606771,0.0,1.21471595764,0.365020275116,0.0
1449618433876838076,217,1449618433871469481,odom,1.27128708363,0.0581906326115,0.0,1.1908146143,-0.252533018589,0.0,-0.00677379919216,-0.328571975231,0.0,-0.0454269461334,0.280202150345,0.0,1.152161479,0.356241136789,0.0
1449618434060065930,218,1449618434057849417,odom,1.19400179386,0.0478881038725,0.0,1.11025011539,-0.261967778206,0.0,-0.0880750417709,-0.325346559286,0.0,-0.120292589068,0.283802062273,0.0,1.0780326128,0.347180843353,0.0
1449618434309535777,219,1449618434298100612,odom,1.12811636925,0.0389808788896,0.0,1.04109489918,-0.269972622395,0.0,-0.157833114266,-0.32068413496,0.0,-0.183611467481,0.28877094388,0.0,1.01531648636,0.339482456446,0.0
1449618434466194374,220,1449618434465126523,odom,1.05905067921,0.0363946482539,0.0,0.972029209137,-0.272558838129,0.0,-0.226898789406,-0.323270380497,0.0,-0.25267714262,0.286184698343,0.0,0.946250855923,0.336896240711,0.0
1449618434646614636,221,1449618434646146634,odom,0.996095299721,0.0228622481227,0.0,0.902563691139,-0.284183084965,0.0,-0.297168284655,-0.309544503689,0.0,-0.310060352087,0.300319254398,0.0,0.889671623707,0.325680673122,0.0
1449618434838081100,222,1449618434836543409,odom,0.944270610809,0.0217667128891,0.0,0.850739002228,-0.285278618336,0.0,-0.348993003368,-0.31064003706,0.0,-0.361885070801,0.299223721027,0.0,0.837846934795,0.324585139751,0.0
1449618435087533873,223,1449618435086190584,odom,0.903960108757,0.0210667792708,0.0,0.810428500175,-0.285978555679,0.0,-0.389303505421,-0.311339974403,0.0,-0.402195572853,0.298523783684,0.0,0.797536432743,0.323885202408,0.0
1449618435250205857,224,1449618435244437215,odom,0.872379660606,0.0147090107203,0.0,0.775608420372,-0.291330754757,0.0,-0.424324601889,-0.304012179375,0.0,-0.430770993233,0.305953770876,0.0,0.769161999226,0.318635195494,0.0
1449618435554805022,225,1449618435540103006,odom,0.860861122608,0.0145872784778,0.0,0.764089882374,-0.291452497244,0.0,-0.435843110085,-0.304133892059,0.0,-0.442289501429,0.305832058191,0.0,0.757643520832,0.318513482809,0.0
1449618435745358904,226,1449618435744744592,odom,0.855101823807,0.014526411891,0.0,0.758330643177,-0.291513353586,0.0,-0.441602379084,-0.304194778204,0.0,-0.448048770428,0.305771172047,0.0,0.751884222031,0.318452596664,0.0
1449618435858783656,227,1449618435858052280,odom,0.858013451099,0.00850273575634,0.0,0.758013486862,-0.296497285366,0.0,-0.441986560822,-0.296497285366,0.0,-0.441986560822,0.313502728939,0.0,0.758013486862,0.313502728939,0.0
1449618436105718074,228,1449618436100808196,odom,0.855102002621,0.0144959781319,0.0,0.758330762386,-0.291543781757,0.0,-0.441602230072,-0.304225206375,0.0,-0.448048621416,0.305740743876,0.0,0.751884400845,0.318422168493,0.0
1449618436266174135,229,1449618436263890685,odom,0.849342703819,0.0144351124763,0.0,0.75257152319,-0.2916046381,0.0,-0.447361499071,-0.304286062717,0.0,-0.453807890415,0.305679887533,0.0,0.746125102043,0.318361312151,0.0
1449618436498766379,230,1449618436498440655,odom,0.832064926624,0.0142525127158,0.0,0.735293745995,-0.291787236929,0.0,-0.464639276266,-0.304468661547,0.0,-0.47108566761,0.305497288704,0.0,0.728847324848,0.318178713322,0.0
1449618436700002097,231,1449618436675581633,odom,0.809027850628,0.0140090463683,0.0,0.712256669998,-0.292030721903,0.0,-0.487676352262,-0.304712146521,0.0,-0.494122743607,0.30525380373,0.0,0.705810248852,0.317935228348,0.0
1449618436872607397,232,1449618436869427692,odom,0.774472773075,0.013613418676,0.0,0.677701532841,-0.292426347733,0.0,-0.522231459618,-0.30510777235,0.0,-0.528677821159,0.3048581779,0.0,0.671255171299,0.317539602518,0.0
1449618437064061623,233,1449618437058114455,odom,0.725429832935,0.0187234692276,0.0,0.631898164749,-0.288321852684,0.0,-0.567833781242,-0.31368330121,0.0,-0.580725848675,0.296180456877,0.0,0.619006097317,0.321541905403,0.0
1449618437243302843,234,1449618437237479466,odom,0.685118794441,0.0180539637804,0.0,0.59158718586,-0.288991361856,0.0,-0.608144819736,-0.314352810383,0.0,-0.621036887169,0.295510977507,0.0,0.578695118427,0.320872396231,0.0
1449618437449163637,235,1449618437447871240,odom,0.644810736179,0.0172018818557,0.0,0.551279067993,-0.289843440056,0.0,-0.648452877998,-0.315204888582,0.0,-0.661344945431,0.294658869505,0.0,0.538387000561,0.320020318031,0.0
1449618437701994702,236,1449618437695245593,odom,0.616019189358,0.0165932513773,0.0,0.522487580776,-0.290452092886,0.0,-0.67724442482,-0.31581351161,0.0,-0.690136492252,0.294050246477,0.0,0.509595513344,0.319411695004,0.0
1449618437837613734,237,1449618437832932077,odom,0.598745107651,0.016197649762,0.0,0.505213499069,-0.290847688913,0.0,-0.694518506527,-0.316209107637,0.0,-0.707410573959,0.29365465045,0.0,0.492321431637,0.319016069174,0.0
1449618438081639457,238,1449618438080549153,odom,0.592987596989,0.0160455014557,0.0,0.499455988407,-0.290999829769,0.0,-0.700276017189,-0.316361248493,0.0,-0.713168084621,0.293502509594,0.0,0.486563920975,0.318863928318,0.0
1449618438268603547,239,1449618438265046874,odom,0.592987596989,0.0160455014557,0.0,0.499455988407,-0.290999829769,0.0,-0.700276017189,-0.316361248493,0.0,-0.713168084621,0.293502509594,0.0,0.486563920975,0.318863928318,0.0
1449618438510705904,240,1449618438505504439,odom,0.595706820488,0.0221584439278,0.0,0.505425214767,-0.285858184099,0.0,-0.69397175312,-0.323896765709,0.0,-0.713308036327,0.285796701908,0.0,0.486088961363,0.323835283518,0.0
1449618438760191437,241,1449618438750813161,odom,0.598745107651,0.016197649762,0.0,0.505213499069,-0.290847688913,0.0,-0.694518506527,-0.316209107637,0.0,-0.707410573959,0.29365465045,0.0,0.492321431637,0.319016069174,0.0
1449618438881555718,242,1449618438879683626,odom,0.598745107651,0.016197649762,0.0,0.505213499069,-0.290847688913,0.0,-0.694518506527,-0.316209107637,0.0,-0.707410573959,0.29365465045,0.0,0.492321431637,0.319016069174,0.0
1449618439039828321,243,1449618439035209983,odom,0.598745107651,0.016197649762,0.0,0.505213499069,-0.290847688913,0.0,-0.694518506527,-0.316209107637,0.0,-0.707410573959,0.29365465045,0.0,0.492321431637,0.319016069174,0.0
1449618439301611671,244,1449618439301022296,odom,0.598745107651,0.016197649762,0.0,0.505213499069,-0.290847688913,0.0,-0.694518506527,-0.316209107637,0.0,-0.707410573959,0.29365465045,0.0,0.492321431637,0.319016069174,0.0
1449618439465624658,245,1449618439459875881,odom,0.598745107651,0.016197649762,0.0,0.505213499069,-0.290847688913,0.0,-0.694518506527,-0.316209107637,0.0,-0.707410573959,0.29365465045,0.0,0.492321431637,0.319016069174,0.0
1449618439647423293,246,1449618439647098318,odom,0.598745107651,0.016197649762,0.0,0.505213499069,-0.290847688913,0.0,-0.694518506527,-0.316209107637,0.0,-0.707410573959,0.29365465045,0.0,0.492321431637,0.319016069174,0.0
1449618439860787946,247,1449618439857302979,odom,0.604502618313,0.0163497980684,0.0,0.510971009731,-0.290695548058,0.0,-0.688760995865,-0.316056966782,0.0,-0.701653063297,0.293806791306,0.0,0.498078912497,0.319168239832,0.0
1449618440090621884,248,1449618440087421454,odom,0.612980127335,0.0225844681263,0.0,0.522698521614,-0.285432159901,0.0,-0.676698446274,-0.32347074151,0.0,-0.696034729481,0.286222726107,0.0,0.503362238407,0.324261307716,0.0
1449618440281708611,249,1449618440280769863,odom,0.627534985542,0.0168671272695,0.0,0.534003376961,-0.290178209543,0.0,-0.665728628635,-0.315539628267,0.0,-0.678620696068,0.29432412982,0.0,0.521111309528,0.319685548544,0.0
1449618440499084601,250,1449618440482419237,odom,0.644809126854,0.0172627270222,0.0,0.551277458668,-0.289782613516,0.0,-0.648454487324,-0.31514403224,0.0,-0.661346554756,0.294719725847,0.0,0.538385391235,0.320081144571,0.0
1449618440677060985,251,1449618440676417043,odom,0.662083983421,0.0176279060543,0.0,0.56855237484,-0.289417415857,0.0,-0.631179630756,-0.314778864384,0.0,-0.644071698189,0.295084893703,0.0,0.555660307407,0.32044634223,0.0
1449618440877298892,252,1449618440877150865,odom,0.682334005833,0.0120005151257,0.0,0.585562825203,-0.29403924942,0.0,-0.61437022686,-0.306720674038,0.0,-0.620816588402,0.303245276213,0.0,0.579116404057,0.31592670083,0.0
1449618441072359857,253,1449618441065652153,odom,0.705368638039,0.0123961297795,0.0,0.608597457409,-0.29364362359,0.0,-0.591335535049,-0.306325048208,0.0,-0.597781956196,0.303640902042,0.0,0.602151036263,0.31632232666,0.0
1449618441296514945,254,1449618441295910470,odom,0.725427210331,0.0188451744616,0.0,0.631895601749,-0.288200169802,0.0,-0.567836403847,-0.313561588526,0.0,-0.580728471279,0.296302169561,0.0,0.619003534317,0.321663618088,0.0
1449618441475381001,255,1449618441473562781,odom,0.748460888863,0.019301649183,0.0,0.654929280281,-0.28774368763,0.0,-0.544802725315,-0.313105106354,0.0,-0.557694733143,0.296758651733,0.0,0.642037212849,0.322120070457,0.0
1449618441674040204,256,1449618441672566839,odom,0.771494626999,0.0197581239045,0.0,0.677962958813,-0.287287205458,0.0,-0.521769046783,-0.312648653984,0.0,-0.534661054611,0.297215133905,0.0,0.66507089138,0.322576552629,0.0
1449618441899224477,257,1449618441897870111,odom,0.794529259205,0.0201537385583,0.0,0.700997591019,-0.28689160943,0.0,-0.498734354973,-0.312253028154,0.0,-0.511626422405,0.297610729933,0.0,0.688105583191,0.322972178459,0.0
1449618442082427885,258,1449618442082006061,odom,0.811804175377,0.0205189175904,0.0,0.718272507191,-0.286526411772,0.0,-0.481459468603,-0.311887860298,0.0,-0.494351536036,0.297975927591,0.0,0.705380439758,0.323337346315,0.0
1449618442325370516,259,1449618442322442303,odom,0.834837317467,0.021005820483,0.0,0.741305708885,-0.286039501429,0.0,-0.458426266909,-0.311400949955,0.0,-0.471318334341,0.298462808132,0.0,0.728413641453,0.323824256659,0.0
1449618442453142002,260,1449618442449992310,odom,0.855087339878,0.0153784295544,0.0,0.758316159248,-0.290661334991,0.0,-0.441616863012,-0.303342759609,0.0,-0.448063254356,0.306623190641,0.0,0.751869738102,0.319304615259,0.0
1449618442708680989,261,1449618442707630817,odom,0.875146389008,0.0217970442027,0.0,0.781614780426,-0.285248279572,0.0,-0.418117195368,-0.310609728098,0.0,-0.4310092628,0.299254059792,0.0,0.768722712994,0.324615478516,0.0
1449618442973071531,262,1449618442953256425,odom,0.892423212528,0.0220405030996,0.0,0.798891603947,-0.2850048244,0.0,-0.400840371847,-0.310366272926,0.0,-0.41373243928,0.299497514963,0.0,0.785999536514,0.324858933687,0.0
1449618443075641758,263,1449618443069832453,odom,0.91267567873,0.0162609629333,0.0,0.815904438496,-0.289778798819,0.0,-0.384028553963,-0.302460223436,0.0,-0.390474945307,0.307505726814,0.0,0.809458076954,0.320187151432,0.0
1449618443287337897,264,1449618443282370819,odom,0.926976442337,0.0225578509271,0.0,0.833444774151,-0.284487485886,0.0,-0.366287201643,-0.30984890461,0.0,-0.379179269075,0.300014853477,0.0,0.820552706718,0.325376272202,0.0
1449618443518742915,265,1449618443513738730,odom,0.94722789526,0.0168391708285,0.0,0.850456655025,-0.289200603962,0.0,-0.349476337433,-0.301881998777,0.0,-0.355922728777,0.308083951473,0.0,0.844010293484,0.320765346289,0.0
1449618443638284259,266,1449618443636794354,odom,0.961529612541,0.0230751987547,0.0,0.867997944355,-0.283970147371,0.0,-0.331734031439,-0.309331566095,0.0,-0.344626069069,0.300532191992,0.0,0.855105936527,0.325893640518,0.0
1449618443917523758,267,1449618443915497247,odom,0.98178011179,0.0174173787236,0.0,0.885008871555,-0.288622379303,0.0,-0.314924120903,-0.301303803921,0.0,-0.321370512247,0.30866214633,0.0,0.878562510014,0.321343570948,0.0
1449618444076236674,268,1449618444066930165,odom,1.00183916092,0.0238359924406,0.0,0.908307492733,-0.283209353685,0.0,-0.291424483061,-0.308570772409,0.0,-0.304316520691,0.301292985678,0.0,0.895415484905,0.326654434204,0.0
1449618444356099918,269,1449618444352951087,odom,1.02209055424,0.0181173123419,0.0,0.925319373608,-0.287922441959,0.0,-0.274613618851,-0.300603866577,0.0,-0.281060010195,0.309362083673,0.0,0.918873012066,0.322043508291,0.0
1449618444515327806,270,1449618444512120702,odom,1.04790985584,0.0245359335095,0.0,0.954378247261,-0.282509416342,0.0,-0.245353728533,-0.307870835066,0.0,-0.258245795965,0.301992923021,0.0,0.941486179829,0.327354371548,0.0
