%time,field.x,field.y,field.z
1449618388464908998,0.0,0.0,265.0
1449618388467211150,0.0,0.0,267.0
1449618388469476231,0.0,0.0,263.0
1449618388471776867,0.0,0.0,265.0
1449618388474046739,0.0,0.0,263.0
1449618388476337122,0.0,0.0,263.0
1449618388478658711,0.0,0.0,265.0
1449618388480959800,0.0,0.0,265.0
1449618388489917209,0.0,0.0,273.0
1449618388502106741,0.0,0.0,267.0
1449618388518579662,0.0,0.0,269.0
1449618388534915978,0.0,0.0,265.0
1449618388547236692,0.0,0.0,266.0
1449618388563595109,0.0,0.0,265.0
1449618388579984417,0.0,0.0,261.0
1449618388592295346,0.0,0.0,267.0
1449618388608661004,0.0,0.0,263.0
1449618388625198103,0.0,0.0,261.0
1449618388637349480,0.0,0.0,265.0
1449618388653743634,0.0,0.0,263.0
1449618388670166654,0.0,0.0,260.0
1449618388682389536,0.0,0.0,262.0
1449618388698728553,0.0,0.0,266.0
1449618388715204377,0.0,0.0,260.0
1449618388727487625,0.0,0.0,264.0
1449618388743813743,0.0,0.0,266.0
1449618388760207933,0.0,0.0,264.0
1449618388772550417,0.0,0.0,265.0
1449618388789020908,0.0,0.0,269.0
1449618388801139377,0.0,0.0,267.0
1449618388817543788,0.0,0.0,263.0
1449618388834021480,0.0,0.0,270.0
1449618388846212687,0.0,0.0,263.0
1449618388862603256,0.0,0.0,258.0
1449618388878967455,0.0,0.0,269.0
1449618388891370787,0.0,0.0,272.0
1449618388907685652,0.0,0.0,261.0
1449618388924184385,0.0,0.0,267.0
1449618388936337256,0.0,0.0,263.0
1449618388952827861,0.0,0.0,265.0
1449618388969388855,0.0,0.0,266.0
1449618388982320088,0.0,0.0,267.0
1449618389001850909,0.0,0.0,264.0
1449618389014199081,0.0,0.0,260.0
1449618389030622129,0.0,0.0,272.0
1449618389046935411,0.0,0.0,257.0
1449618389059334627,0.0,0.0,267.0
1449618389075657056,0.0,0.0,262.0
1449618389092027362,0.0,0.0,269.0
1449618389104363341,0.0,0.0,261.0
1449618389120796885,0.0,0.0,259.0
1449618389137098051,0.0,0.0,271.0
1449618389149354029,0.0,0.0,262.0
1449618389165746922,0.0,0.0,268.0
1449618389182114704,0.0,0.0,259.0
1449618389194488034,0.0,0.0,261.0
1449618389210805774,0.0,0.0,260.0
1449618389227247740,0.0,0.0,268.0
1449618389239551718,0.0,0.0,264.0
1449618389255962386,0.0,0.0,262.0
1449618389272266556,0.0,0.0,266.0
1449618389284666601,0.0,0.0,263.0
1449618389300906756,0.0,0.0,264.0
1449618389317326947,0.0,0.0,262.0
1449618389329658569,0.0,0.0,262.0
1449618389346025530,0.0,0.0,259.0
1449618389358433481,0.0,0.0,261.0
1449618389374743669,0.0,0.0,259.0
1449618389391091096,0.0,0.0,256.0
1449618389403307362,0.0,0.0,256.0
1449618389419722553,0.0,0.0,255.0
1449618389436154037,0.0,0.0,255.0
1449618389448409575,0.0,0.0,255.0
1449618389464818684,0.0,0.0,261.0
1449618389481331346,0.0,0.0,252.0
1449618389493498149,0.0,0.0,259.0
1449618389509868070,0.0,0.0,255.0
1449618389526449969,0.0,0.0,259.0
1449618389539169205,0.0,0.0,246.0
1449618389555031377,0.0,0.0,254.0
1449618389571534982,0.0,0.0,254.0
1449618389583571082,0.0,0.0,255.0
1449618389601801332,0.0,0.0,251.0
1449618389616442523,0.0,0.0,251.0
1449618389628810439,0.0,0.0,250.0
1449618389645053217,0.0,0.0,248.0
1449618389661653331,0.0,0.0,249.0
1449618389673761728,0.0,0.0,244.0
1449618389690239869,0.0,0.0,242.0
1449618389706474470,0.0,0.0,241.0
1449618389718799302,0.0,0.0,236.0
1449618389735316302,0.0,0.0,239.0
1449618389747490694,0.0,0.0,237.0
1449618389764135033,0.0,0.0,237.0
1449618389780677407,0.0,0.0,235.0
1449618389792888290,0.0,0.0,237.0
1449618389809001996,0.0,0.0,236.0
1449618389825772846,0.0,0.0,235.0
1449618389837669476,0.0,0.0,238.0
1449618389854069118,0.0,0.0,239.0
1449618389870593973,0.0,0.0,238.0
1449618389883301038,0.0,0.0,239.0
1449618389899523317,0.0,0.0,246.0
1449618389915695573,0.0,0.0,239.0
1449618389927922951,0.0,0.0,237.0
1449618389944243985,0.0,0.0,239.0
1449618389962172514,0.0,0.0,240.0
1449618389972925485,0.0,0.0,240.0
1449618389989287668,0.0,0.0,238.0
1449618390005653867,0.0,0.0,240.0
1449618390017855984,0.0,0.0,242.0
1449618390034293106,0.0,0.0,244.0
1449618390050592423,0.0,0.0,244.0
1449618390062989667,0.0,0.0,246.0
1449618390079297146,0.0,0.0,244.0
1449618390095813296,0.0,0.0,239.0
1449618390108070965,0.0,0.0,241.0
1449618390124625653,0.0,0.0,242.0
1449618390136952709,0.0,0.0,244.0
1449618390153212577,0.0,0.0,242.0
1449618390169459627,0.0,0.0,241.0
1449618390181904505,0.0,0.0,242.0
1449618390198173430,0.0,0.0,242.0
1449618390214557900,0.0,0.0,239.0
1449618390226950583,0.0,0.0,242.0
1449618390243124278,0.0,0.0,238.0
1449618390259708453,0.0,0.0,241.0
1449618390272023844,0.0,0.0,240.0
1449618390288329661,0.0,0.0,245.0
1449618390307760491,0.0,0.0,245.0
1449618390316963056,0.0,0.0,243.0
1449618390333696784,0.0,0.0,243.0
1449618390349932627,0.0,0.0,241.0
1449618390362594557,0.0,0.0,237.0
1449618390378471622,0.0,0.0,238.0
1449618390395119181,0.0,0.0,239.0
1449618390407027377,0.0,0.0,238.0
1449618390423627718,0.0,0.0,240.0
1449618390439889890,0.0,0.0,244.0
1449618390452511451,0.0,0.0,240.0
1449618390468764028,0.0,0.0,238.0
1449618390480983270,0.0,0.0,240.0
1449618390499696410,0.0,0.0,235.0
1449618390514588676,0.0,0.0,239.0
1449618390526494688,0.0,0.0,238.0
1449618390546455418,0.0,0.0,237.0
1449618390559196742,0.0,0.0,240.0
1449618390575212692,0.0,0.0,241.0
1449618390591533257,0.0,0.0,240.0
1449618390609708622,0.0,0.0,237.0
1449618390620170730,0.0,0.0,239.0
1449618390638274750,0.0,0.0,238.0
1449618390651043144,0.0,0.0,237.0
1449618390665442935,0.0,0.0,238.0
1449618390681760793,0.0,0.0,240.0
1449618390694068562,0.0,0.0,243.0
1449618390710300111,0.0,0.0,236.0
1449618390726863283,0.0,0.0,238.0
1449618390739716992,0.0,0.0,237.0
1449618390755455976,0.0,0.0,240.0
1449618390771909192,0.0,0.0,237.0
1449618390784293810,0.0,0.0,236.0
1449618390800848228,0.0,0.0,237.0
1449618390816849141,0.0,0.0,241.0
1449618390830101225,0.0,0.0,240.0
1449618390846922461,0.0,0.0,239.0
1449618390862364747,0.0,0.0,239.0
1449618390874496105,0.0,0.0,239.0
1449618390890824431,0.0,0.0,240.0
1449618390902978015,0.0,0.0,229.0
1449618390919639357,0.0,0.0,242.0
1449618390935493607,0.0,0.0,239.0
1449618390948009336,0.0,0.0,243.0
1449618390965962912,0.0,0.0,237.0
1449618390980886006,0.0,0.0,239.0
1449618390993742840,0.0,0.0,244.0
1449618391010643805,0.0,0.0,236.0
1449618391025920368,0.0,0.0,241.0
1449618391038219120,0.0,0.0,243.0
1449618391057615664,0.0,0.0,241.0
1449618391071790870,0.0,0.0,240.0
1449618391083303959,0.0,0.0,246.0
1449618391099566417,0.0,0.0,242.0
1449618391117409124,0.0,0.0,242.0
1449618391130709658,0.0,0.0,245.0
1449618391145647849,0.0,0.0,242.0
1449618391161220818,0.0,0.0,239.0
1449618391174576421,0.0,0.0,244.0
1449618391189718879,0.0,0.0,244.0
1449618391206492527,0.0,0.0,243.0
1449618391218271769,0.0,0.0,241.0
1449618391235178969,0.0,0.0,245.0
1449618391251248744,0.0,0.0,243.0
1449618391263522746,0.0,0.0,244.0
1449618391279980504,0.0,0.0,242.0
1449618391292432912,0.0,0.0,249.0
1449618391308528049,0.0,0.0,243.0
1449618391325524465,0.0,0.0,244.0
1449618391337357172,0.0,0.0,243.0
1449618391355411675,0.0,0.0,244.0
1449618391369698085,0.0,0.0,246.0
1449618391382754048,0.0,0.0,245.0
1449618391398916577,0.0,0.0,246.0
1449618391415145952,0.0,0.0,244.0
1449618391427919841,0.0,0.0,246.0
1449618391443567462,0.0,0.0,242.0
1449618391460117618,0.0,0.0,238.0
1449618391472305930,0.0,0.0,247.0
1449618391489307683,0.0,0.0,254.0
1449618391505298674,0.0,0.0,242.0
1449618391517816365,0.0,0.0,241.0
1449618391534452767,0.0,0.0,242.0
1449618391552123784,0.0,0.0,246.0
1449618391562450627,0.0,0.0,242.0
1449618391579677012,0.0,0.0,245.0
1449618391595378746,0.0,0.0,244.0
1449618391607600017,0.0,0.0,250.0
1449618391623717054,0.0,0.0,242.0
1449618391640822617,0.0,0.0,244.0
1449618391653248037,0.0,0.0,242.0
1449618391669183029,0.0,0.0,242.0
1449618391690509278,0.0,0.0,247.0
1449618391700201015,0.0,0.0,242.0
1449618391714154880,0.0,0.0,241.0
1449618391726318405,0.0,0.0,242.0
1449618391742855320,0.0,0.0,244.0
1449618391759025493,0.0,0.0,241.0
1449618391771451756,0.0,0.0,245.0
1449618391787750721,0.0,0.0,244.0
1449618391804399431,0.0,0.0,242.0
1449618391817331435,0.0,0.0,245.0
1449618391832917009,0.0,0.0,245.0
1449618391849858127,0.0,0.0,245.0
1449618391861611256,0.0,0.0,246.0
1449618391878307077,0.0,0.0,244.0
1449618391894215864,0.0,0.0,245.0
1449618391907129744,0.0,0.0,242.0
1449618391926329555,0.0,0.0,245.0
1449618391939446332,0.0,0.0,241.0
1449618391952033090,0.0,0.0,242.0
1449618391968028846,0.0,0.0,240.0
1449618391985635148,0.0,0.0,246.0
1449618391996698712,0.0,0.0,245.0
1449618392013004014,0.0,0.0,234.0
1449618392025285445,0.0,0.0,245.0
1449618392042143410,0.0,0.0,243.0
1449618392058353820,0.0,0.0,240.0
1449618392070778414,0.0,0.0,240.0
1449618392087344965,0.0,0.0,244.0
1449618392103213323,0.0,0.0,245.0
1449618392116589566,0.0,0.0,242.0
1449618392131740485,0.0,0.0,240.0
1449618392148452533,0.0,0.0,244.0
1449618392162829539,0.0,0.0,243.0
1449618392177148414,0.0,0.0,244.0
1449618392193179214,0.0,0.0,242.0
1449618392205612781,0.0,0.0,245.0
1449618392224265686,0.0,0.0,244.0
1449618392238521313,0.0,0.0,245.0
1449618392250794416,0.0,0.0,247.0
1449618392267131115,0.0,0.0,248.0
1449618392284742106,0.0,0.0,245.0
1449618392296106173,0.0,0.0,242.0
1449618392312020235,0.0,0.0,242.0
1449618392332054218,0.0,0.0,241.0
1449618392340640651,0.0,0.0,244.0
1449618392359800225,0.0,0.0,243.0
1449618392373636829,0.0,0.0,243.0
1449618392385960893,0.0,0.0,244.0
1449618392402203619,0.0,0.0,244.0
1449618392417215406,0.0,0.0,247.0
1449618392430790253,0.0,0.0,240.0
1449618392449418668,0.0,0.0,240.0
1449618392459569165,0.0,0.0,243.0
1449618392475996918,0.0,0.0,242.0
1449618392492781273,0.0,0.0,245.0
1449618392504750049,0.0,0.0,243.0
1449618392524390640,0.0,0.0,245.0
1449618392537557143,0.0,0.0,248.0
1449618392550046050,0.0,0.0,245.0
1449618392565842284,0.0,0.0,246.0
1449618392582221785,0.0,0.0,241.0
1449618392594754704,0.0,0.0,247.0
1449618392611326247,0.0,0.0,244.0
1449618392629679568,0.0,0.0,244.0
1449618392640312638,0.0,0.0,244.0
1449618392656678509,0.0,0.0,244.0
1449618392672428043,0.0,0.0,246.0
1449618392686258795,0.0,0.0,248.0
1449618392701617447,0.0,0.0,245.0
1449618392717796789,0.0,0.0,244.0
1449618392730240590,0.0,0.0,249.0
1449618392747228931,0.0,0.0,247.0
1449618392763431017,0.0,0.0,244.0
1449618392776433010,0.0,0.0,244.0
1449618392791318723,0.0,0.0,244.0
1449618392803442291,0.0,0.0,244.0
1449618392821998939,0.0,0.0,246.0
1449618392836399731,0.0,0.0,245.0
1449618392848762406,0.0,0.0,242.0
1449618392865279555,0.0,0.0,242.0
1449618392884393283,0.0,0.0,241.0
1449618392894396271,0.0,0.0,245.0
1449618392910568211,0.0,0.0,244.0
1449618392928495289,0.0,0.0,247.0
1449618392939838821,0.0,0.0,251.0
1449618392957641813,0.0,0.0,243.0
1449618392971690274,0.0,0.0,242.0
1449618392983967739,0.0,0.0,244.0
1449618393000376082,0.0,0.0,241.0
1449618393016939502,0.0,0.0,245.0
1449618393029183284,0.0,0.0,245.0
1449618393051298919,0.0,0.0,246.0
1449618393062124037,0.0,0.0,242.0
1449618393078319476,0.0,0.0,247.0
1449618393094956339,0.0,0.0,245.0
1449618393107142479,0.0,0.0,244.0
1449618393130703676,0.0,0.0,240.0
1449618393139817246,0.0,0.0,244.0
1449618393152092447,0.0,0.0,243.0
1449618393168107652,0.0,0.0,247.0
1449618393186591354,0.0,0.0,244.0
1449618393196936641,0.0,0.0,244.0
1449618393213752507,0.0,0.0,245.0
1449618393230025102,0.0,0.0,247.0
1449618393243397640,0.0,0.0,243.0
1449618393258317954,0.0,0.0,251.0
1449618393270971832,0.0,0.0,248.0
1449618393287027529,0.0,0.0,250.0
1449618393303566279,0.0,0.0,251.0
1449618393316076245,0.0,0.0,248.0
1449618393332284765,0.0,0.0,252.0
1449618393349414290,0.0,0.0,250.0
1449618393360698411,0.0,0.0,250.0
1449618393377210687,0.0,0.0,253.0
1449618393393445463,0.0,0.0,249.0
1449618393405714613,0.0,0.0,255.0
1449618393423782173,0.0,0.0,256.0
1449618393438535602,0.0,0.0,250.0
1449618393451152263,0.0,0.0,256.0
1449618393468158945,0.0,0.0,256.0
1449618393484031458,0.0,0.0,258.0
1449618393495976425,0.0,0.0,258.0
1449618393512724930,0.0,0.0,254.0
1449618393528963349,0.0,0.0,254.0
1449618393541379652,0.0,0.0,260.0
1449618393557574231,0.0,0.0,266.0
1449618393573907862,0.0,0.0,259.0
1449618393586740289,0.0,0.0,261.0
1449618393602369384,0.0,0.0,262.0
1449618393618956247,0.0,0.0,260.0
1449618393631127366,0.0,0.0,258.0
1449618393647579595,0.0,0.0,256.0
1449618393660056164,0.0,0.0,259.0
1449618393677711019,0.0,0.0,258.0
1449618393692872561,0.0,0.0,258.0
1449618393704939728,0.0,0.0,259.0
1449618393724833168,0.0,0.0,260.0
1449618393737881165,0.0,0.0,259.0
1449618393750089186,0.0,0.0,262.0
1449618393766289492,0.0,0.0,257.0
1449618393782618879,0.0,0.0,260.0
1449618393798026529,0.0,0.0,263.0
1449618393811282534,0.0,0.0,265.0
1449618393827782623,0.0,0.0,263.0
1449618393839810416,0.0,0.0,260.0
1449618393857234749,0.0,0.0,257.0
1449618393875467243,0.0,0.0,263.0
1449618393887069140,0.0,0.0,259.0
1449618393901531570,0.0,0.0,259.0
1449618393918430917,0.0,0.0,262.0
1449618393930692004,0.0,0.0,261.0
1449618393946948104,0.0,0.0,262.0
1449618393959264455,0.0,0.0,252.0
1449618393975230824,0.0,0.0,260.0
1449618393991565499,0.0,0.0,259.0
1449618394004277988,0.0,0.0,258.0
1449618394020462228,0.0,0.0,254.0
1449618394036893781,0.0,0.0,251.0
1449618394050108979,0.0,0.0,248.0
1449618394066854119,0.0,0.0,244.0
1449618394083066964,0.0,0.0,244.0
1449618394095226073,0.0,0.0,236.0
1449618394110942196,0.0,0.0,239.0
1449618394127571873,0.0,0.0,237.0
1449618394139287000,0.0,0.0,234.0
1449618394155256405,0.0,0.0,226.0
1449618394172169863,0.0,0.0,226.0
1449618394184414829,0.0,0.0,220.0
1449618394200808155,0.0,0.0,225.0
1449618394216960963,0.0,0.0,223.0
1449618394229545401,0.0,0.0,221.0
1449618394245520713,0.0,0.0,226.0
1449618394261845459,0.0,0.0,237.0
1449618394274506926,0.0,0.0,241.0
1449618394291812658,0.0,0.0,244.0
1449618394307292083,0.0,0.0,249.0
1449618394320264272,0.0,0.0,249.0
1449618394336216324,0.0,0.0,255.0
1449618394350208376,0.0,0.0,251.0
1449618394365286998,0.0,0.0,248.0
1449618394380887515,0.0,0.0,249.0
1449618394393239495,0.0,0.0,245.0
1449618394429635130,0.0,0.0,247.0
1449618394429878247,0.0,0.0,249.0
1449618394438372135,0.0,0.0,246.0
1449618394455562662,0.0,0.0,246.0
1449618394472221289,0.0,0.0,246.0
1449618394485837489,0.0,0.0,247.0
1449618394499842325,0.0,0.0,252.0
1449618394515741565,0.0,0.0,250.0
1449618394534024721,0.0,0.0,250.0
1449618394544524212,0.0,0.0,247.0
1449618394561774583,0.0,0.0,246.0
1449618394573455513,0.0,0.0,247.0
1449618394589910473,0.0,0.0,252.0
1449618394606194848,0.0,0.0,246.0
1449618394619258824,0.0,0.0,250.0
1449618394636951549,0.0,0.0,245.0
1449618394654548669,0.0,0.0,250.0
1449618394663586627,0.0,0.0,252.0
1449618394679780056,0.0,0.0,250.0
1449618394697536105,0.0,0.0,253.0
1449618394708782339,0.0,0.0,246.0
1449618394727321831,0.0,0.0,253.0
1449618394737308862,0.0,0.0,251.0
1449618394756836895,0.0,0.0,252.0
1449618394770124753,0.0,0.0,249.0
1449618394785725893,0.0,0.0,252.0
1449618394798741216,0.0,0.0,254.0
1449618394817621575,0.0,0.0,253.0
1449618394827365478,0.0,0.0,248.0
1449618394843797587,0.0,0.0,249.0
1449618394860659813,0.0,0.0,250.0
1449618394874819450,0.0,0.0,247.0
1449618394888851132,0.0,0.0,251.0
1449618394905225733,0.0,0.0,250.0
1449618394917504015,0.0,0.0,250.0
1449618394933715705,0.0,0.0,248.0
1449618394950413239,0.0,0.0,249.0
1449618394965753377,0.0,0.0,251.0
1449618394981218283,0.0,0.0,253.0
1449618394995121665,0.0,0.0,249.0
1449618395008645312,0.0,0.0,246.0
1449618395024473605,0.0,0.0,242.0
1449618395040391529,0.0,0.0,250.0
1449618395056392577,0.0,0.0,248.0
1449618395068880226,0.0,0.0,250.0
1449618395085778036,0.0,0.0,248.0
1449618395098545746,0.0,0.0,249.0
1449618395113989623,0.0,0.0,252.0
1449618395126669390,0.0,0.0,247.0
1449618395145083909,0.0,0.0,244.0
1449618395159279238,0.0,0.0,247.0
1449618395205819345,0.0,0.0,251.0
1449618395205839658,0.0,0.0,249.0
1449618395205864519,0.0,0.0,252.0
1449618395216370134,0.0,0.0,247.0
1449618395235220259,0.0,0.0,249.0
1449618395249282850,0.0,0.0,246.0
1449618395261434080,0.0,0.0,246.0
1449618395281022539,0.0,0.0,252.0
1449618395298828512,0.0,0.0,249.0
1449618395308148701,0.0,0.0,248.0
1449618395323254473,0.0,0.0,250.0
1449618395340725901,0.0,0.0,243.0
1449618395351631146,0.0,0.0,247.0
1449618395371429218,0.0,0.0,246.0
1449618395388444001,0.0,0.0,246.0
1449618395396590691,0.0,0.0,245.0
1449618395413182553,0.0,0.0,245.0
1449618395429484404,0.0,0.0,248.0
1449618395441738334,0.0,0.0,246.0
1449618395458568820,0.0,0.0,242.0
1449618395475989641,0.0,0.0,242.0
1449618395490595715,0.0,0.0,235.0
1449618395504178463,0.0,0.0,246.0
1449618395515383034,0.0,0.0,243.0
1449618395533751883,0.0,0.0,242.0
1449618395553272900,0.0,0.0,244.0
1449618395565038385,0.0,0.0,246.0
1449618395581297876,0.0,0.0,249.0
1449618395593873422,0.0,0.0,248.0
1449618395613636429,0.0,0.0,246.0
1449618395627593985,0.0,0.0,246.0
1449618395640156028,0.0,0.0,248.0
1449618395655240936,0.0,0.0,252.0
1449618395671500641,0.0,0.0,245.0
1449618395684713450,0.0,0.0,240.0
1449618395702337613,0.0,0.0,245.0
1449618395717806526,0.0,0.0,245.0
1449618395729014427,0.0,0.0,244.0
1449618395745199876,0.0,0.0,246.0
1449618395764207899,0.0,0.0,244.0
1449618395773942779,0.0,0.0,245.0
1449618395790363042,0.0,0.0,243.0
1449618395810885765,0.0,0.0,246.0
1449618395819284200,0.0,0.0,247.0
1449618395835178298,0.0,0.0,241.0
1449618395852222476,0.0,0.0,241.0
1449618395863918692,0.0,0.0,243.0
1449618395886339636,0.0,0.0,242.0
1449618395893606755,0.0,0.0,240.0
1449618395911551713,0.0,0.0,237.0
1449618395924995334,0.0,0.0,237.0
1449618395937623174,0.0,0.0,237.0
1449618395953759203,0.0,0.0,243.0
1449618395971305825,0.0,0.0,241.0
1449618395982746014,0.0,-2.0,244.0
1449618396000161960,-2.0,-2.0,253.0
1449618396015529469,-2.0,-2.0,253.0
1449618396027506309,-2.0,-2.0,255.0
1449618396044561848,-2.0,-2.0,251.0
1449618396062352618,-2.0,-2.0,253.0
1449618396076749850,-2.0,-2.0,255.0
1449618396090450386,-2.0,-2.0,255.0
1449618396105453565,-2.0,-2.0,253.0
1449618396117828458,-2.0,-2.0,257.0
1449618396134913703,-2.0,-2.0,260.0
1449618396150704152,-2.0,-2.0,265.0
1449618396163991256,-2.0,-2.0,260.0
1449618396181097557,-2.0,-2.0,254.0
1449618396197616774,-2.0,-2.0,258.0
1449618396207854503,-2.0,-2.0,257.0
1449618396225178853,-2.0,-2.0,258.0
1449618396240468665,-2.0,-2.0,263.0
1449618396253646062,-2.0,-2.0,257.0
1449618396271878885,-2.0,-2.0,260.0
1449618396281895160,-2.0,-2.0,269.0
1449618396299034438,-2.0,-2.0,257.0
1449618396314423910,-2.0,-4.0,252.0
1449618396328770155,-2.0,-4.0,247.0
1449618396343118395,-4.0,-4.0,243.0
1449618396364108922,-4.0,-4.0,244.0
1449618396374923998,-4.0,-4.0,248.0
1449618396388252169,-4.0,-4.0,244.0
1449618396404452091,-4.0,-4.0,241.0
1449618396417625902,-4.0,-4.0,243.0
1449618396433240893,-4.0,-4.0,238.0
1449618396450617462,-4.0,-4.0,242.0
1449618396469623862,-4.0,-4.0,240.0
1449618396480891042,-4.0,-4.0,238.0
1449618396494835594,-4.0,-4.0,235.0
1449618396506850129,-4.0,-4.0,238.0
1449618396524017322,-4.0,-4.0,240.0
1449618396539815136,-4.0,-4.0,243.0
1449618396554577454,-4.0,-4.0,244.0
1449618396570556234,-2.0,-4.0,243.0
1449618396584845039,-2.0,-4.0,248.0
1449618396604486072,-2.0,-4.0,250.0
1449618396613803223,-2.0,-4.0,257.0
1449618396630050184,-2.0,-4.0,261.0
1449618396642271261,-2.0,-4.0,264.0
1449618396658978475,-2.0,-2.0,262.0
1449618396671024445,-2.0,-2.0,265.0
1449618396689488572,-2.0,-2.0,266.0
1449618396704038577,-2.0,-2.0,262.0
1449618396716378780,-2.0,-2.0,258.0
1449618396732716173,-2.0,-2.0,251.0
1449618396755909787,-2.0,-2.0,250.0
1449618396763267221,-2.0,-2.0,257.0
1449618396777468672,-2.0,-2.0,254.0
1449618396797471104,-2.0,-2.0,255.0
1449618396807750448,-2.0,-2.0,260.0
1449618396829821184,-2.0,-2.0,256.0
1449618396844277647,-2.0,-2.0,259.0
1449618396851209265,-2.0,-2.0,256.0
1449618396868077325,-2.0,-2.0,258.0
1449618396894039573,-2.0,-2.0,259.0
1449618396899199616,-2.0,-2.0,256.0
1449618396912431988,-2.0,-2.0,257.0
1449618396932773541,-2.0,-2.0,256.0
1449618396941668397,-2.0,-2.0,258.0
1449618396958216647,-2.0,-2.0,263.0
1449618396974786965,-2.0,-2.0,259.0
1449618396986629098,-2.0,-2.0,260.0
1449618397012095444,-2.0,-2.0,255.0
1449618397019960939,-2.0,-2.0,254.0
1449618397031168263,-2.0,-4.0,250.0
1449618397048100550,-4.0,-4.0,248.0
1449618397060064142,-4.0,-4.0,245.0
1449618397081316740,-4.0,-4.0,246.0
1449618397094255820,-4.0,-4.0,244.0
1449618397105288644,-4.0,-4.0,243.0
1449618397132187905,-4.0,-4.0,240.0
1449618397139271924,-4.0,-4.0,242.0
1449618397150129256,-4.0,-4.0,243.0
1449618397167374533,-4.0,-4.0,244.0
1449618397183691185,-4.0,-4.0,243.0
1449618397196291630,-4.0,-4.0,234.0
1449618397211930097,-4.0,-4.0,240.0
1449618397228447138,-4.0,-4.0,237.0
1449618397241571351,-4.0,-4.0,240.0
1449618397257840266,-4.0,-4.0,241.0
1449618397272906748,-4.0,-4.0,238.0
1449618397285659655,-4.0,-4.0,238.0
1449618397302840277,-4.0,-4.0,239.0
1449618397320753340,-6.0,-6.0,246.0
1449618397332333082,-6.0,-6.0,254.0
1449618397346746795,-6.0,-6.0,252.0
1449618397363329200,-6.0,-6.0,249.0
1449618397375410820,-6.0,-6.0,252.0
1449618397394040515,-6.0,-6.0,253.0
1449618397411713650,-6.0,-6.0,255.0
1449618397420354856,-6.0,-6.0,256.0
1449618397436744121,-6.0,-6.0,255.0
1449618397450948989,-6.0,-6.0,257.0
1449618397465836681,-6.0,-6.0,256.0
1449618397482473146,-6.0,-6.0,257.0
1449618397494998311,-6.0,-6.0,257.0
1449618397512167280,-6.0,-6.0,260.0
1449618397526974371,-6.0,-6.0,263.0
1449618397540244942,-6.0,-6.0,262.0
1449618397555959105,-6.0,-6.0,260.0
1449618397575723568,-6.0,-6.0,255.0
1449618397585612511,-6.0,-6.0,253.0
1449618397602256455,-6.0,-6.0,263.0
1449618397617723263,-6.0,-6.0,253.0
1449618397629414033,-6.0,-6.0,254.0
1449618397645685734,-6.0,-6.0,258.0
1449618397661959395,-6.0,-6.0,254.0
1449618397674733459,-6.0,-6.0,257.0
1449618397694646249,-6.0,-6.0,253.0
1449618397707554108,-6.0,-6.0,255.0
1449618397719724973,-6.0,-6.0,258.0
1449618397736320270,-6.0,-6.0,262.0
1449618397753641559,-6.0,-6.0,259.0
1449618397765065711,-6.0,-6.0,256.0
1449618397783128058,-6.0,-6.0,254.0
1449618397798388783,-6.0,-6.0,256.0
1449618397810015024,-6.0,-6.0,255.0
1449618397826080186,-6.0,-6.0,254.0
1449618397838659244,-6.0,-6.0,250.0
1449618397854849528,-6.0,-6.0,251.0
1449618397871916255,-6.0,-6.0,250.0
1449618397883700159,-6.0,-6.0,248.0
1449618397899918147,-6.0,-6.0,261.0
1449618397917827871,-6.0,-6.0,259.0
1449618397929858641,-6.0,-6.0,261.0
1449618397945610905,-6.0,-6.0,248.0
1449618397961722529,-6.0,-6.0,248.0
1449618397974424810,-6.0,-6.0,251.0
1449618397990894625,-6.0,-6.0,247.0
1449618398007143185,-6.0,-6.0,248.0
1449618398029530459,-6.0,-6.0,252.0
1449618398037488605,-6.0,-6.0,252.0
1449618398051880900,-6.0,-6.0,251.0
1449618398067960058,-6.0,-6.0,252.0
1449618398085623742,-6.0,-6.0,251.0
1449618398096369040,-6.0,-6.0,250.0
1449618398112683921,-6.0,-6.0,250.0
1449618398131618140,-6.0,-6.0,252.0
1449618398143015260,-6.0,-6.0,254.0
1449618398158331749,-6.0,-6.0,254.0
1449618398174868843,-6.0,-6.0,256.0
1449618398191213517,-6.0,-6.0,254.0
1449618398202792606,-6.0,-6.0,252.0
1449618398215202432,-6.0,-6.0,251.0
1449618398231945244,-6.0,-6.0,246.0
1449618398247895727,-6.0,-6.0,252.0
1449618398260681257,-6.0,-6.0,252.0
1449618398277897484,-6.0,-6.0,251.0
1449618398293711882,-6.0,-6.0,249.0
1449618398305238554,-6.0,-6.0,248.0
1449618398322479843,-6.0,-6.0,252.0
1449618398338197658,-6.0,-6.0,250.0
1449618398350376469,-6.0,-6.0,256.0
1449618398369360592,-6.0,-6.0,254.0
1449618398384504382,-6.0,-6.0,251.0
1449618398395605397,-6.0,-6.0,253.0
1449618398412477845,-6.0,-6.0,255.0
1449618398428426438,-6.0,-6.0,252.0
1449618398442436627,-6.0,-6.0,252.0
1449618398456766922,-6.0,-6.0,251.0
1449618398473428826,-6.0,-6.0,249.0
1449618398485622833,-6.0,-6.0,249.0
1449618398505205780,-6.0,-6.0,249.0
1449618398518547424,-6.0,-6.0,251.0
1449618398533982728,-6.0,-6.0,254.0
1449618398547777740,-6.0,-6.0,252.0
1449618398565662184,-6.0,-6.0,255.0
1449618398579707785,-6.0,-6.0,249.0
1449618398598314776,-6.0,-6.0,253.0
1449618398605039780,-6.0,-6.0,251.0
1449618398622457413,-6.0,-6.0,251.0
1449618398637459003,-6.0,-6.0,249.0
1449618398649927724,-6.0,-6.0,252.0
1449618398668183292,-6.0,-6.0,256.0
1449618398685011397,-6.0,-6.0,253.0
1449618398695933610,-6.0,-6.0,249.0
1449618398711277069,-6.0,-6.0,249.0
1449618398728171111,-6.0,-6.0,249.0
1449618398745636414,-6.0,-6.0,251.0
1449618398756649239,-6.0,-6.0,249.0
1449618398774550141,-6.0,-6.0,249.0
1449618398785618812,-6.0,-6.0,248.0
1449618398805112374,-6.0,-6.0,249.0
1449618398817684364,-6.0,-6.0,253.0
1449618398831701856,-6.0,-6.0,251.0
1449618398845871303,-6.0,-6.0,252.0
1449618398862418434,-6.0,-6.0,248.0
1449618398874772233,-6.0,-6.0,244.0
1449618398891254124,-6.0,-6.0,247.0
1449618398907968551,-6.0,-6.0,243.0
1449618398920132368,-6.0,-6.0,246.0
1449618398938244361,-6.0,-6.0,242.0
1449618398953188038,-8.0,-6.0,226.0
1449618398964669542,-8.0,-6.0,238.0
1449618398981181276,-8.0,-8.0,239.0
1449618398995614877,-8.0,-8.0,235.0
1449618399013572555,-8.0,-8.0,237.0
1449618399028240702,-8.0,-8.0,231.0
1449618399042437454,-8.0,-8.0,230.0
1449618399056114108,-8.0,-8.0,228.0
1449618399071109641,-8.0,-8.0,234.0
1449618399083560255,-10.0,-8.0,245.0
1449618399100236932,-10.0,-8.0,245.0
1449618399116912793,-10.0,-10.0,247.0
1449618399128957645,-10.0,-10.0,250.0
1449618399154487820,-10.0,-10.0,253.0
1449618399162362361,-10.0,-10.0,254.0
1449618399173659089,-10.0,-10.0,255.0
1449618399190247726,-12.0,-10.0,241.0
1449618399209613473,-12.0,-10.0,242.0
1449618399218694586,-12.0,-10.0,242.0
1449618399235021899,-12.0,-12.0,235.0
1449618399251595064,-12.0,-12.0,233.0
1449618399264282995,-12.0,-12.0,230.0
1449618399281003173,-12.0,-12.0,239.0
1449618399296434592,-14.0,-12.0,246.0
1449618399309094137,-14.0,-12.0,250.0
1449618399325624642,-14.0,-12.0,249.0
1449618399342273393,-14.0,-12.0,256.0
1449618399353835663,-14.0,-14.0,254.0
1449618399370822799,-14.0,-14.0,252.0
1449618399382980550,-14.0,-14.0,250.0
1449618399399271577,-16.0,-14.0,243.0
1449618399419191112,-16.0,-14.0,243.0
1449618399428436940,-16.0,-14.0,239.0
1449618399446275657,-16.0,-14.0,239.0
1449618399460542126,-16.0,-14.0,240.0
1449618399476017794,-16.0,-14.0,229.0
1449618399489231435,-16.0,-14.0,238.0
1449618399505741062,-16.0,-14.0,232.0
1449618399517821435,-16.0,-14.0,237.0
1449618399534881014,-16.0,-16.0,239.0
1449618399551096360,-18.0,-16.0,244.0
1449618399564751125,-18.0,-16.0,249.0
1449618399581151394,-18.0,-16.0,243.0
1449618399624830981,-18.0,-16.0,242.0
1449618399705072195,-18.0,-16.0,252.0
1449618399715713444,-18.0,-16.0,256.0
1449618399732860381,-18.0,-16.0,255.0
1449618399747390420,-18.0,-16.0,251.0
1449618399763185385,-18.0,-16.0,247.0
1449618399776797946,-18.0,-16.0,255.0
1449618399793612481,-18.0,-16.0,256.0
1449618399804763471,-18.0,-16.0,256.0
1449618399831888961,-18.0,-16.0,253.0
1449618399839218867,-18.0,-16.0,253.0
1449618399850011387,-18.0,-16.0,253.0
1449618399866674473,-18.0,-16.0,257.0
1449618399884734187,-18.0,-16.0,255.0
1449618399894547676,-18.0,-16.0,257.0
1449618399911810325,-18.0,-16.0,258.0
1449618399928286095,-18.0,-16.0,253.0
1449618399940253301,-18.0,-16.0,250.0
1449618399956225760,-18.0,-16.0,250.0
1449618399969452472,-18.0,-16.0,248.0
1449618399985358231,-18.0,-16.0,251.0
1449618400003649577,-18.0,-16.0,254.0
1449618400013430196,-18.0,-16.0,251.0
1449618400030004545,-18.0,-16.0,256.0
1449618400046919517,-18.0,-16.0,253.0
1449618400061853195,-18.0,-16.0,251.0
1449618400075993579,-18.0,-16.0,256.0
1449618400093178076,-18.0,-16.0,247.0
1449618400104313850,-18.0,-16.0,248.0
1449618400120721575,-18.0,-16.0,246.0
1449618400138021380,-18.0,-16.0,250.0
1449618400148940509,-18.0,-16.0,249.0
1449618400166248028,-18.0,-16.0,250.0
1449618400182547365,-18.0,-16.0,244.0
1449618400193611896,-18.0,-16.0,270.0
1449618400210801273,-18.0,-16.0,248.0
1449618400227349081,-18.0,-16.0,246.0
1449618400239385485,-18.0,-16.0,246.0
1449618400255520798,-18.0,-16.0,246.0
1449618400271641943,-18.0,-16.0,250.0
1449618400285310090,-18.0,-16.0,237.0
1449618400300129239,-18.0,-16.0,246.0
1449618400316739459,-18.0,-16.0,243.0
1449618400331767049,-18.0,-16.0,246.0
1449618400348949245,-18.0,-16.0,246.0
1449618400358789215,-18.0,-16.0,250.0
1449618400373885231,-18.0,-16.0,251.0
1449618400391464099,-18.0,-16.0,253.0
1449618400402547163,-18.0,-16.0,254.0
1449618400419956021,-18.0,-16.0,248.0
1449618400435623552,-18.0,-16.0,249.0
1449618400448349585,-18.0,-16.0,246.0
1449618400465338704,-18.0,-16.0,294.0
1449618400480326674,-18.0,-16.0,249.0
1449618400493613837,-18.0,-16.0,249.0
1449618400509361906,-18.0,-16.0,250.0
1449618400527872851,-18.0,-16.0,249.0
1449618400537856312,-18.0,-16.0,246.0
1449618400554694641,-18.0,-16.0,247.0
1449618400574049902,-18.0,-16.0,247.0
1449618400605659649,-18.0,-16.0,245.0
1449618400605662559,-18.0,-16.0,245.0
1449618400644309104,-18.0,-16.0,291.0
1449618400644326742,-18.0,-16.0,246.0
1449618400644350578,-18.0,-16.0,246.0
1449618400664268609,-18.0,-16.0,247.0
1449618400676011043,-18.0,-16.0,250.0
1449618400689548642,-18.0,-16.0,252.0
1449618400705623023,-18.0,-16.0,246.0
1449618400718268208,-18.0,-16.0,248.0
1449618400737450176,-18.0,-16.0,284.0
1449618400748398330,-18.0,-16.0,248.0
1449618400766397463,-18.0,-16.0,246.0
1449618400779724998,-18.0,-16.0,248.0
1449618400792372195,-18.0,-16.0,246.0
1449618400808576160,-18.0,-16.0,246.0
1449618400824798283,-18.0,-16.0,247.0
1449618400837181151,-18.0,-16.0,249.0
1449618400853688594,-18.0,-16.0,251.0
1449618400877857200,-18.0,-16.0,248.0
1449618400882438947,-18.0,-16.0,248.0
1449618400898130244,-18.0,-16.0,251.0
1449618400918758811,-18.0,-16.0,249.0
1449618400926984713,-18.0,-16.0,246.0
1449618400943638915,-18.0,-16.0,249.0
1449618400959783137,-18.0,-16.0,246.0
1449618400973754023,-18.0,-16.0,247.0
1449618400989160139,-18.0,-16.0,242.0
1449618401006729185,-18.0,-16.0,239.0
1449618401017562012,-18.0,-16.0,244.0
1449618401033852490,-18.0,-16.0,245.0
1449618401050512108,-18.0,-16.0,251.0
1449618401062079457,-18.0,-16.0,250.0
1449618401078883496,-18.0,-16.0,251.0
1449618401095107867,-18.0,-16.0,251.0
1449618401125268513,-18.0,-16.0,245.0
1449618401201632676,-18.0,-16.0,250.0
1449618401214219311,-18.0,-16.0,251.0
1449618401230104433,-18.0,-16.0,245.0
1449618401246420924,-18.0,-16.0,242.0
1449618401258788761,-18.0,-16.0,239.0
1449618401293379433,-18.0,-16.0,234.0
1449618401293398054,-18.0,-16.0,244.0
1449618401304009650,-20.0,-16.0,241.0
1449618401321954232,-20.0,-16.0,236.0
1449618401337125080,-20.0,-16.0,237.0
1449618401355812062,-20.0,-16.0,240.0
1449618401365365430,-20.0,-18.0,234.0
1449618401381113062,-20.0,-18.0,233.0
1449618401393890192,-20.0,-18.0,238.0
1449618401412275608,-20.0,-18.0,237.0
1449618401423158804,-20.0,-18.0,238.0
1449618401444191199,-20.0,-18.0,237.0
1449618401455701749,-20.0,-18.0,238.0
1449618401467899570,-20.0,-18.0,234.0
1449618401493438782,-20.0,-18.0,231.0
1449618401501556413,-20.0,-18.0,229.0
1449618401512821147,-20.0,-18.0,229.0
1449618401531463326,-20.0,-18.0,232.0
1449618401548200107,-20.0,-18.0,227.0
1449618401560683395,-20.0,-18.0,233.0
1449618401576850930,-20.0,-18.0,235.0
1449618401590729267,-20.0,-18.0,234.0
1449618401606348741,-20.0,-18.0,232.0
1449618401626111446,-20.0,-18.0,233.0
1449618401639565117,-20.0,-18.0,235.0
1449618401648231909,-22.0,-18.0,241.0
1449618401666981264,-22.0,-18.0,242.0
1449618401681483065,-22.0,-18.0,248.0
1449618401694514895,-22.0,-18.0,248.0
1449618401709173244,-22.0,-18.0,246.0
1449618401721975137,-22.0,-18.0,237.0
1449618401739905949,-22.0,-18.0,240.0
1449618401755061713,-22.0,-18.0,238.0
1449618401777407305,-22.0,-18.0,241.0
1449618401788365578,-22.0,-18.0,244.0
1449618401801307648,-22.0,-18.0,242.0
1449618401812060407,-22.0,-18.0,242.0
1449618401828163378,-22.0,-18.0,243.0
1449618401845685811,-22.0,-18.0,242.0
1449618401857107222,-22.0,-18.0,241.0
1449618401874836447,-22.0,-18.0,241.0
1449618401890433885,-22.0,-18.0,244.0
1449618401902144556,-22.0,-18.0,242.0
1449618401919298648,-22.0,-18.0,243.0
1449618401938263589,-22.0,-18.0,243.0
1449618401950498494,-22.0,-18.0,242.0
1449618401963558131,-22.0,-18.0,243.0
1449618401979837940,-22.0,-18.0,238.0
1449618401993358111,-22.0,-18.0,246.0
1449618402009756939,-22.0,-18.0,242.0
1449618402028509358,-22.0,-18.0,240.0
1449618402038295038,-22.0,-18.0,241.0
1449618402053456087,-22.0,-18.0,242.0
1449618402070382899,-22.0,-18.0,239.0
1449618402082237906,-22.0,-18.0,243.0
1449618402105311293,-22.0,-18.0,241.0
1449618402111231552,-22.0,-18.0,240.0
1449618402128694222,-22.0,-18.0,241.0
1449618402143967157,-22.0,-18.0,243.0
1449618402157885187,-22.0,-18.0,239.0
1449618402172569789,-22.0,-18.0,240.0
1449618402189000343,-22.0,-18.0,235.0
1449618402207499261,-22.0,-18.0,248.0
1449618402219231848,-22.0,-18.0,243.0
1449618402233840302,-22.0,-18.0,240.0
1449618402248017710,-22.0,-18.0,240.0
1449618402263322936,-22.0,-18.0,240.0
1449618402279470855,-22.0,-18.0,246.0
1449618402292125393,-22.0,-18.0,243.0
1449618402307611929,-22.0,-18.0,245.0
1449618402324428363,-22.0,-18.0,250.0
1449618402336333348,-22.0,-18.0,251.0
1449618402353857969,-22.0,-18.0,250.0
1449618402369117287,-22.0,-18.0,244.0
1449618402384502620,-22.0,-18.0,244.0
1449618402399016122,-22.0,-18.0,242.0
1449618402417905139,-22.0,-18.0,245.0
1449618402426867971,-22.0,-18.0,244.0
1449618402443084974,-22.0,-18.0,240.0
1449618402460715434,-22.0,-18.0,240.0
1449618402472047036,-22.0,-18.0,245.0
1449618402578669084,-22.0,-18.0,245.0
1449618402596083282,-22.0,-18.0,243.0
1449618402610667789,-22.0,-18.0,242.0
1449618402624190492,-22.0,-18.0,243.0
1449618402639867892,-22.0,-18.0,245.0
1449618402653330906,-22.0,-18.0,238.0
1449618402670000543,-22.0,-18.0,246.0
1449618402687193319,-22.0,-18.0,238.0
1449618402697105682,-22.0,-18.0,241.0
1449618402716360378,-22.0,-18.0,241.0
1449618402729652383,-22.0,-18.0,242.0
1449618402741505576,-22.0,-18.0,241.0
1449618402760849419,-22.0,-18.0,241.0
1449618402775049126,-22.0,-18.0,243.0
1449618402790492336,-22.0,-18.0,244.0
1449618402804582170,-22.0,-18.0,241.0
1449618402821961516,-22.0,-18.0,245.0
1449618402831804616,-22.0,-18.0,242.0
1449618402849626084,-22.0,-18.0,241.0
1449618402868139888,-22.0,-18.0,237.0
1449618402879616011,-22.0,-18.0,245.0
1449618402893587566,-22.0,-18.0,244.0
1449618402910694121,-22.0,-18.0,252.0
1449618402923685659,-22.0,-18.0,244.0
1449618402939311518,-22.0,-18.0,243.0
1449618402955726007,-22.0,-18.0,243.0
1449618402968662358,-22.0,-18.0,242.0
1449618402988156792,-22.0,-18.0,246.0
1449618402999873267,-22.0,-18.0,243.0
1449618403014580779,-22.0,-18.0,244.0
1449618403028330689,-22.0,-18.0,242.0
1449618403040923320,-22.0,-18.0,241.0
1449618403059468117,-22.0,-18.0,241.0
1449618403077870479,-22.0,-18.0,244.0
1449618403086413325,-22.0,-18.0,244.0
1449618403104136141,-22.0,-18.0,239.0
1449618403120470380,-22.0,-18.0,243.0
1449618403131504262,-22.0,-18.0,240.0
1449618403149015952,-22.0,-18.0,242.0
1449618403164339515,-22.0,-18.0,246.0
1449618403176016808,-22.0,-18.0,242.0
1449618403192061408,-22.0,-18.0,242.0
1449618403208815076,-22.0,-18.0,241.0
1449618403221323830,-22.0,-18.0,242.0
1449618403237909975,-22.0,-18.0,242.0
1449618403254315974,-22.0,-18.0,241.0
1449618403271564742,-22.0,-18.0,241.0
1449618403286183847,-22.0,-18.0,241.0
1449618403303576975,-22.0,-18.0,244.0
1449618403311298201,-22.0,-18.0,240.0
1449618403328773246,-22.0,-18.0,241.0
1449618403344116412,-22.0,-18.0,242.0
1449618403358832024,-22.0,-18.0,232.0
1449618403372391967,-22.0,-18.0,240.0
1449618403391065805,-22.0,-18.0,240.0
1449618403403377087,-22.0,-18.0,243.0
1449618403418038097,-22.0,-18.0,241.0
1449618403431174556,-22.0,-18.0,243.0
1449618403447416746,-22.0,-18.0,240.0
1449618403463000213,-22.0,-18.0,244.0
1449618403476976769,-22.0,-18.0,241.0
1449618403492517609,-22.0,-18.0,245.0
1449618403508328179,-22.0,-18.0,242.0
1449618403520239547,-22.0,-18.0,243.0
1449618403537314919,-22.0,-18.0,244.0
1449618403553598314,-22.0,-18.0,242.0
1449618403565858830,-22.0,-18.0,244.0
1449618403583062385,-22.0,-18.0,238.0
1449618403601266366,-22.0,-18.0,243.0
1449618403611354152,-22.0,-18.0,239.0
1449618403626738275,-22.0,-18.0,241.0
1449618403646302702,-22.0,-18.0,242.0
1449618403657502575,-22.0,-18.0,231.0
1449618403671737955,-22.0,-18.0,244.0
1449618403688499727,-22.0,-18.0,241.0
1449618403700209472,-22.0,-18.0,241.0
1449618403717286531,-22.0,-18.0,241.0
1449618403733678782,-22.0,-18.0,240.0
1449618403750804013,-22.0,-18.0,241.0
1449618403767835033,-22.0,-18.0,242.0
1449618403778677366,-22.0,-18.0,243.0
1449618403793621288,-22.0,-18.0,240.0
1449618403807210288,-22.0,-18.0,241.0
1449618403819180917,-22.0,-18.0,241.0
1449618403836979783,-22.0,-18.0,240.0
1449618403852371254,-22.0,-18.0,242.0
1449618403872836305,-22.0,-18.0,243.0
1449618403882228433,-22.0,-18.0,240.0
1449618403897699710,-22.0,-18.0,246.0
1449618403909658089,-22.0,-18.0,243.0
1449618403926059163,-22.0,-18.0,240.0
1449618403944757993,-22.0,-18.0,244.0
1449618403957171588,-22.0,-18.0,242.0
1449618403971529321,-22.0,-18.0,239.0
1449618403987238457,-22.0,-18.0,240.0
1449618404003221309,-22.0,-18.0,243.0
1449618404018252241,-22.0,-18.0,239.0
1449618404032240622,-22.0,-18.0,241.0
1449618404044493108,-22.0,-18.0,242.0
1449618404061571563,-22.0,-18.0,240.0
1449618404077197846,-22.0,-18.0,244.0
1449618404090277790,-22.0,-18.0,241.0
1449618404106653735,-22.0,-18.0,242.0
1449618404122206356,-22.0,-18.0,242.0
1449618404134941174,-22.0,-18.0,242.0
1449618404151301856,-22.0,-18.0,240.0
1449618404167921578,-22.0,-18.0,243.0
1449618404181533311,-22.0,-18.0,242.0
1449618404197800014,-22.0,-18.0,243.0
1449618404211324646,-22.0,-18.0,242.0
1449618404225215296,-22.0,-18.0,242.0
1449618404241131369,-22.0,-18.0,237.0
1449618404253510895,-22.0,-18.0,244.0
1449618404269561111,-22.0,-18.0,241.0
1449618404286477456,-22.0,-18.0,245.0
1449618404298478442,-22.0,-18.0,235.0
1449618404317824276,-22.0,-18.0,243.0
1449618404331909674,-22.0,-18.0,243.0
1449618404343575922,-22.0,-18.0,242.0
1449618404360067855,-22.0,-18.0,243.0
1449618404376607895,-22.0,-18.0,242.0
1449618404389256453,-22.0,-18.0,242.0
1449618404405537591,-22.0,-18.0,244.0
1449618404421333959,-22.0,-18.0,239.0
1449618404438006813,-22.0,-18.0,241.0
1449618404450680969,-22.0,-18.0,239.0
1449618404467931562,-22.0,-18.0,239.0
1449618404479880639,-22.0,-18.0,240.0
1449618404494972072,-22.0,-18.0,244.0
1449618404511365754,-22.0,-18.0,244.0
1449618404523990158,-22.0,-18.0,255.0
1449618404540055508,-22.0,-18.0,242.0
1449618404556853889,-22.0,-18.0,241.0
1449618404568616060,-22.0,-18.0,242.0
1449618404588076264,-22.0,-18.0,241.0
1449618404599270502,-22.0,-18.0,242.0
1449618404614328252,-22.0,-18.0,243.0
1449618404630899102,-22.0,-18.0,242.0
1449618404643559447,-22.0,-18.0,243.0
1449618404659157048,-22.0,-18.0,244.0
1449618404675426379,-22.0,-18.0,230.0
1449618404687562313,-22.0,-18.0,239.0
1449618404706748861,-22.0,-18.0,244.0
1449618404720642498,-22.0,-18.0,242.0
1449618404738392077,-22.0,-18.0,242.0
1449618404748851213,-22.0,-18.0,248.0
1449618404765325361,-22.0,-18.0,241.0
1449618404777663649,-22.0,-18.0,242.0
1449618404794060917,-22.0,-18.0,241.0
1449618404813218391,-22.0,-18.0,243.0
1449618404824396510,-22.0,-18.0,241.0
1449618404845752445,-22.0,-18.0,240.0
1449618404859570425,-22.0,-18.0,243.0
1449618404867897160,-22.0,-18.0,243.0
1449618404885266735,-22.0,-18.0,244.0
1449618404901279657,-22.0,-18.0,241.0
1449618404912898002,-22.0,-18.0,239.0
1449618404933641691,-22.0,-18.0,243.0
1449618404947022697,-22.0,-18.0,243.0
1449618404959757025,-22.0,-18.0,243.0
1449618404974564250,-22.0,-18.0,241.0
1449618404986805016,-22.0,-18.0,241.0
1449618405003883901,-22.0,-18.0,239.0
1449618405019673472,-22.0,-18.0,240.0
1449618405042035924,-22.0,-18.0,244.0
1449618405054193885,-22.0,-18.0,243.0
1449618405064566112,-22.0,-18.0,242.0
1449618405081305249,-22.0,-18.0,243.0
1449618405097285012,-22.0,-18.0,241.0
1449618405109367754,-22.0,-18.0,242.0
1449618405126507012,-22.0,-18.0,242.0
1449618405142382503,-22.0,-18.0,240.0
1449618405157900649,-22.0,-18.0,245.0
1449618405170784927,-22.0,-18.0,242.0
1449618405187150084,-22.0,-18.0,243.0
1449618405199461606,-22.0,-18.0,241.0
1449618405238419088,-22.0,-18.0,241.0
1449618405238486663,-22.0,-18.0,240.0
1449618405246689121,-22.0,-18.0,244.0
1449618405263269480,-22.0,-18.0,240.0
1449618405279883315,-22.0,-18.0,244.0
1449618405293624618,-22.0,-18.0,240.0
1449618405306437955,-22.0,-18.0,243.0
1449618405322462627,-22.0,-18.0,243.0
1449618405347277080,-22.0,-18.0,246.0
1449618405351774572,-22.0,-18.0,245.0
1449618405363668078,-22.0,-18.0,244.0
1449618405381312029,-22.0,-18.0,243.0
1449618405396203299,-22.0,-18.0,243.0
1449618405408772312,-22.0,-18.0,244.0
1449618405425013412,-22.0,-18.0,246.0
1449618405444275817,-22.0,-18.0,241.0
1449618405453488247,-22.0,-18.0,242.0
1449618405470327343,-22.0,-18.0,244.0
1449618405486306505,-22.0,-18.0,241.0
1449618405501613287,-22.0,-18.0,244.0
1449618405517137689,-22.0,-18.0,241.0
1449618405531930526,-22.0,-18.0,241.0
1449618405544028593,-22.0,-18.0,244.0
1449618405561281542,-22.0,-18.0,239.0
1449618405577622844,-22.0,-18.0,238.0
1449618405589625036,-22.0,-18.0,241.0
1449618405604967748,-22.0,-18.0,241.0
1449618405621634782,-22.0,-18.0,235.0
1449618405633805046,-22.0,-18.0,237.0
1449618405650598571,-22.0,-18.0,237.0
1449618405666513371,-22.0,-18.0,240.0
1449618405679182211,-22.0,-18.0,234.0
1449618405695162737,-22.0,-18.0,239.0
1449618405711764247,-22.0,-18.0,237.0
1449618405724713140,-22.0,-18.0,240.0
1449618405740220761,-22.0,-18.0,238.0
1449618405753576588,-22.0,-18.0,237.0
1449618405768849321,-22.0,-18.0,238.0
1449618405785284404,-22.0,-18.0,237.0
1449618405803547100,-22.0,-18.0,237.0
1449618405814128785,-22.0,-18.0,239.0
1449618405830858062,-22.0,-18.0,241.0
1449618405842956616,-22.0,-18.0,242.0
1449618405860289995,-22.0,-18.0,242.0
1449618405876025643,-22.0,-18.0,241.0
1449618405888101651,-22.0,-18.0,241.0
1449618405910115417,-22.0,-18.0,241.0
1449618405921966573,-22.0,-18.0,243.0
1449618405932841399,-22.0,-18.0,243.0
1449618405949442794,-22.0,-18.0,246.0
1449618405965875898,-22.0,-18.0,247.0
1449618405977885545,-22.0,-18.0,246.0
1449618405995422538,-22.0,-18.0,246.0
1449618406010930609,-22.0,-18.0,247.0
1449618406024134685,-22.0,-18.0,245.0
1449618406039334822,-22.0,-18.0,246.0
1449618406055965505,-22.0,-18.0,247.0
1449618406068176706,-22.0,-18.0,246.0
1449618406085625767,-22.0,-18.0,248.0
1449618406102144125,-22.0,-18.0,248.0
1449618406113152091,-22.0,-18.0,248.0
1449618406137944374,-22.0,-18.0,250.0
1449618406148727964,-22.0,-18.0,247.0
1449618406161619646,-22.0,-18.0,246.0
1449618406175651716,-22.0,-18.0,247.0
1449618406187044289,-22.0,-18.0,248.0
1449618406206629913,-22.0,-18.0,245.0
1449618406221144759,-22.0,-18.0,246.0
1449618406231828941,-22.0,-18.0,247.0
1449618406253460203,-22.0,-18.0,246.0
1449618406265660130,-22.0,-18.0,247.0
1449618406277031101,-22.0,-18.0,248.0
1449618406304090345,-22.0,-18.0,244.0
1449618406314168393,-22.0,-18.0,244.0
1449618406322607779,-22.0,-18.0,245.0
1449618406339323494,-22.0,-18.0,246.0
1449618406355684320,-22.0,-18.0,245.0
1449618406367331937,-22.0,-18.0,245.0
1449618406383402646,-22.0,-18.0,246.0
1449618406400028930,-22.0,-18.0,243.0
1449618406412815863,-22.0,-18.0,239.0
1449618406429012120,-22.0,-18.0,240.0
1449618406449000353,-22.0,-18.0,236.0
1449618406457197341,-22.0,-18.0,236.0
1449618406473734947,-22.0,-18.0,237.0
1449618406490335715,-22.0,-18.0,233.0
1449618406506615910,-22.0,-18.0,238.0
1449618406518971945,-22.0,-18.0,234.0
1449618406532808281,-22.0,-18.0,234.0
1449618406547532340,-22.0,-18.0,239.0
1449618406564420962,-22.0,-18.0,234.0
1449618406576184983,-22.0,-18.0,238.0
1449618406597750270,-22.0,-18.0,239.0
1449618406608757260,-22.0,-18.0,238.0
1449618406622381898,-22.0,-18.0,240.0
1449618406640901078,-22.0,-18.0,241.0
1449618406655323660,-22.0,-18.0,237.0
1449618406666814081,-22.0,-18.0,238.0
1449618406685312298,-22.0,-18.0,237.0
1449618406699976028,-22.0,-18.0,234.0
1449618406711715095,-22.0,-18.0,234.0
1449618406727819748,-22.0,-18.0,231.0
1449618406744080113,-22.0,-18.0,235.0
1449618406757113344,-22.0,-18.0,231.0
1449618406773800421,-22.0,-18.0,238.0
1449618406789411361,-22.0,-18.0,236.0
1449618406804544876,-22.0,-18.0,240.0
1449618406818403537,-22.0,-18.0,237.0
1449618406834682164,-22.0,-18.0,241.0
1449618406846502248,-22.0,-18.0,243.0
1449618406862883704,-22.0,-18.0,240.0
1449618406880416274,-22.0,-18.0,237.0
1449618406892059990,-22.0,-18.0,239.0
1449618406908692265,-22.0,-18.0,235.0
1449618406920474300,-22.0,-18.0,238.0
1449618406939224343,-22.0,-18.0,237.0
1449618406954934480,-22.0,-18.0,238.0
1449618406965466173,-22.0,-18.0,233.0
1449618406981805898,-22.0,-18.0,233.0
1449618406998039672,-22.0,-18.0,240.0
1449618407017641935,-22.0,-18.0,239.0
1449618407033615807,-22.0,-18.0,246.0
1449618407043371228,-22.0,-18.0,246.0
1449618407055927723,-22.0,-18.0,246.0
1449618407073177065,-22.0,-18.0,246.0
1449618407093637646,-22.0,-18.0,245.0
1449618407104560659,-22.0,-18.0,245.0
1449618407118067920,-22.0,-18.0,247.0
1449618407137633562,-22.0,-18.0,244.0
1449618407149152290,-22.0,-18.0,246.0
1449618407161905780,-22.0,-18.0,242.0
1449618407178286721,-22.0,-18.0,241.0
1449618407192733068,-22.0,-18.0,237.0
1449618407209617853,-22.0,-18.0,243.0
1449618407225632371,-22.0,-18.0,242.0
1449618407235487235,-22.0,-18.0,240.0
1449618407252121351,-22.0,-18.0,241.0
1449618407271153748,-22.0,-18.0,238.0
1449618407280671994,-22.0,-18.0,241.0
1449618407297656136,-22.0,-18.0,239.0
1449618407309471503,-22.0,-18.0,239.0
1449618407325953398,-22.0,-18.0,242.0
1449618407345629295,-22.0,-18.0,240.0
1449618407354424961,-22.0,-18.0,239.0
1449618407373054181,-22.0,-18.0,240.0
1449618407387619213,-22.0,-18.0,241.0
1449618407400351316,-22.0,-18.0,241.0
1449618407416490198,-22.0,-18.0,242.0
1449618407433424930,-22.0,-18.0,242.0
1449618407444624878,-22.0,-18.0,237.0
1449618407465894941,-22.0,-18.0,237.0
1449618407479244214,-22.0,-18.0,239.0
1449618407489697939,-22.0,-18.0,231.0
1449618407506518108,-22.0,-18.0,233.0
1449618407522797062,-22.0,-18.0,227.0
1449618407538735290,-22.0,-18.0,229.0
1449618407555188904,-22.0,-18.0,228.0
1449618407567821081,-22.0,-18.0,230.0
1449618407584889524,-22.0,-18.0,229.0
1449618407600099532,-22.0,-18.0,230.0
1449618407613357395,-22.0,-18.0,234.0
1449618407628968881,-22.0,-18.0,235.0
1449618407646217912,-22.0,-18.0,240.0
1449618407660512571,-22.0,-18.0,241.0
1449618407674193403,-22.0,-18.0,244.0
1449618407686232369,-22.0,-18.0,242.0
1449618407702456085,-22.0,-18.0,244.0
1449618407720136601,-22.0,-18.0,243.0
1449618407731480153,-22.0,-18.0,248.0
1449618407748088464,-22.0,-18.0,244.0
1449618407767050266,-22.0,-18.0,241.0
1449618407779104052,-22.0,-18.0,243.0
1449618407792871753,-22.0,-18.0,244.0
1449618407809826708,-22.0,-18.0,240.0
1449618407821248166,-22.0,-18.0,238.0
1449618407838930979,-22.0,-18.0,235.0
1449618407855034369,-22.0,-18.0,238.0
1449618407868357645,-22.0,-18.0,240.0
1449618407882720698,-22.0,-18.0,235.0
1449618407899790260,-22.0,-18.0,234.0
1449618407911398564,-22.0,-18.0,230.0
1449618407927890447,-22.0,-18.0,232.0
1449618407948235679,-22.0,-18.0,234.0
1449618407956931302,-22.0,-18.0,233.0
1449618407972801294,-22.0,-18.0,229.0
1449618407989205351,-22.0,-18.0,233.0
1449618408001836029,-22.0,-18.0,235.0
1449618408018706878,-22.0,-18.0,239.0
1449618408034821843,-22.0,-18.0,238.0
1449618408046699683,-22.0,-18.0,241.0
1449618408063530964,-22.0,-18.0,245.0
1449618408075393672,-22.0,-18.0,242.0
1449618408093784470,-22.0,-18.0,244.0
1449618408110095194,-22.0,-18.0,245.0
1449618408121411537,-22.0,-18.0,248.0
1449618408136805916,-22.0,-18.0,242.0
1449618408154559916,-22.0,-18.0,243.0
1449618408165945923,-22.0,-18.0,242.0
1449618408182607497,-22.0,-18.0,240.0
1449618408198698044,-22.0,-18.0,239.0
1449618408210451174,-22.0,-18.0,235.0
1449618408227381162,-22.0,-18.0,235.0
1449618408245012653,-22.0,-18.0,235.0
1449618408255692002,-22.0,-18.0,241.0
1449618408271915719,-22.0,-18.0,232.0
1449618408291847944,-22.0,-18.0,237.0
1449618408300739722,-22.0,-18.0,237.0
1449618408318311492,-22.0,-18.0,240.0
1449618408336005313,-22.0,-18.0,237.0
1449618408345969135,-22.0,-18.0,244.0
1449618408362101150,-22.0,-18.0,245.0
1449618408378239784,-22.0,-18.0,244.0
1449618408395077319,-22.0,-18.0,246.0
1449618408407229346,-22.0,-18.0,242.0
1449618408423700586,-22.0,-18.0,243.0
1449618408436679880,-22.0,-18.0,243.0
1449618408452236165,-22.0,-18.0,241.0
1449618408466054672,-22.0,-18.0,242.0
1449618408481436876,-22.0,-18.0,244.0
1449618408498593391,-22.0,-18.0,245.0
1449618408509439147,-22.0,-18.0,240.0
1449618408526733230,-22.0,-18.0,242.0
1449618408542190478,-22.0,-18.0,241.0
1449618408554913981,-22.0,-18.0,237.0
1449618408571586779,-22.0,-18.0,240.0
1449618408592811755,-22.0,-18.0,238.0
1449618408599587361,-22.0,-18.0,238.0
1449618408615900284,-22.0,-18.0,233.0
1449618408632692198,-22.0,-18.0,235.0
1449618408644591890,-22.0,-18.0,240.0
1449618408661556432,-22.0,-18.0,235.0
1449618408677573341,-22.0,-18.0,236.0
1449618408690019467,-22.0,-18.0,236.0
1449618408709184633,-22.0,-18.0,237.0
1449618408729759943,-22.0,-18.0,241.0
1449618408735784590,-22.0,-18.0,244.0
1449618408751911814,-22.0,-18.0,243.0
1449618408767746529,-22.0,-18.0,246.0
1449618408782022792,-22.0,-18.0,248.0
1449618408797484724,-22.0,-18.0,243.0
1449618408813007256,-22.0,-18.0,242.0
1449618408825323374,-22.0,-18.0,243.0
1449618408843259142,-22.0,-18.0,244.0
1449618408856125118,-22.0,-18.0,243.0
1449618408870188083,-22.0,-18.0,242.0
1449618408887225777,-22.0,-18.0,245.0
1449618408899322431,-22.0,-18.0,246.0
1449618408916461804,-22.0,-18.0,245.0
1449618408931782829,-22.0,-18.0,245.0
1449618408944329063,-22.0,-18.0,245.0
1449618408961444757,-22.0,-18.0,246.0
1449618408976398586,-22.0,-18.0,246.0
1449618408988906476,-22.0,-18.0,245.0
1449618409007972995,-22.0,-18.0,245.0
1449618409024076337,-22.0,-18.0,244.0
1449618409035846864,-22.0,-18.0,247.0
1449618409050799634,-22.0,-18.0,246.0
1449618409067028711,-22.0,-18.0,245.0
1449618409079024696,-22.0,-18.0,243.0
1449618409096377199,-22.0,-18.0,246.0
1449618409114180126,-22.0,-18.0,242.0
1449618409124586410,-22.0,-18.0,245.0
1449618409145021849,-22.0,-18.0,243.0
1449618409156961828,-22.0,-18.0,244.0
1449618409169869966,-22.0,-18.0,248.0
1449618409186088403,-22.0,-18.0,242.0
1449618409203617858,-22.0,-18.0,245.0
1449618409214291221,-22.0,-18.0,245.0
1449618409230682070,-22.0,-18.0,242.0
1449618409243086502,-22.0,-18.0,244.0
1449618409261609821,-22.0,-18.0,244.0
1449618409277406716,-22.0,-18.0,242.0
1449618409292211795,-22.0,-18.0,244.0
1449618409304349482,-22.0,-18.0,244.0
1449618409320895761,-22.0,-18.0,245.0
1449618409333677499,-22.0,-18.0,245.0
1449618409349646956,-22.0,-18.0,243.0
1449618409365738638,-22.0,-18.0,243.0
1449618409377960657,-22.0,-18.0,242.0
1449618409394831402,-22.0,-18.0,243.0
1449618409411315737,-22.0,-18.0,244.0
1449618409426307414,-22.0,-18.0,253.0
1449618409441462254,-22.0,-18.0,242.0
1449618409455711543,-22.0,-18.0,244.0
1449618409468631353,-22.0,-18.0,243.0
1449618409486197903,-22.0,-18.0,242.0
1449618409501435909,-22.0,-18.0,241.0
1449618409513118580,-22.0,-18.0,241.0
1449618409530205096,-22.0,-18.0,241.0
1449618409547367548,-22.0,-18.0,244.0
1449618409559506573,-22.0,-18.0,247.0
1449618409576103830,-22.0,-18.0,242.0
1449618409591111025,-22.0,-18.0,243.0
1449618409603895032,-22.0,-18.0,244.0
1449618409620416706,-22.0,-18.0,244.0
1449618409631843148,-22.0,-18.0,241.0
1449618409648647511,-22.0,-18.0,239.0
1449618409664819255,-22.0,-18.0,241.0
1449618409677177550,-22.0,-18.0,242.0
1449618409693491387,-22.0,-18.0,244.0
1449618409709971030,-22.0,-18.0,244.0
1449618409723844359,-22.0,-18.0,242.0
1449618409744833065,-22.0,-18.0,241.0
1449618409755223048,-22.0,-18.0,244.0
1449618409767267867,-22.0,-18.0,241.0
1449618409784391675,-22.0,-18.0,242.0
1449618409801597739,-22.0,-18.0,238.0
1449618409815647213,-22.0,-18.0,247.0
1449618409829811978,-22.0,-18.0,241.0
1449618409846567964,-22.0,-18.0,243.0
1449618409857933300,-22.0,-18.0,241.0
1449618409877724269,-22.0,-18.0,241.0
1449618409890015863,-22.0,-18.0,243.0
1449618409902549476,-22.0,-18.0,240.0
1449618409920042949,-22.0,-18.0,243.0
1449618409935141589,-22.0,-18.0,242.0
1449618409947806069,-22.0,-18.0,248.0
1449618409963806728,-22.0,-18.0,245.0
1449618409981657463,-22.0,-18.0,244.0
1449618409993155161,-22.0,-18.0,246.0
1449618410009720413,-22.0,-18.0,246.0
1449618410021237088,-22.0,-18.0,243.0
1449618410042217212,-22.0,-18.0,247.0
1449618410058015204,-22.0,-18.0,246.0
1449618410070542507,-22.0,-18.0,247.0
1449618410088916072,-22.0,-18.0,245.0
1449618410099014834,-22.0,-18.0,244.0
1449618410115752185,-22.0,-18.0,245.0
1449618410132096219,-22.0,-18.0,245.0
1449618410149357620,-22.0,-18.0,243.0
1449618410163324406,-22.0,-18.0,244.0
1449618410177812029,-22.0,-18.0,243.0
1449618410189205349,-22.0,-18.0,245.0
1449618410205428785,-22.0,-18.0,246.0
1449618410221786716,-22.0,-18.0,248.0
1449618410234154457,-22.0,-18.0,244.0
1449618410251002799,-22.0,-18.0,244.0
1449618410267131937,-22.0,-18.0,243.0
1449618410279237135,-22.0,-18.0,243.0
1449618410296364216,-22.0,-18.0,243.0
1449618410312019825,-22.0,-18.0,243.0
1449618410326198280,-22.0,-18.0,241.0
1449618410340980585,-22.0,-18.0,250.0
1449618410364821718,-22.0,-18.0,245.0
1449618410369374759,-22.0,-18.0,246.0
1449618410385599940,-22.0,-18.0,245.0
1449618410398172320,-22.0,-18.0,242.0
1449618410414348271,-22.0,-18.0,235.0
1449618410430793679,-22.0,-18.0,242.0
1449618410442950234,-22.0,-18.0,243.0
1449618410460064531,-22.0,-18.0,243.0
1449618410476341198,-22.0,-18.0,244.0
1449618410488837114,-22.0,-18.0,245.0
1449618410504679689,-22.0,-18.0,243.0
1449618410521430123,-22.0,-18.0,244.0
1449618410536012532,-22.0,-18.0,243.0
1449618410549979767,-22.0,-18.0,238.0
1449618410566460241,-22.0,-18.0,244.0
1449618410585259127,-22.0,-18.0,239.0
1449618410606939746,-22.0,-18.0,246.0
1449618410610938632,-22.0,-18.0,242.0
1449618410623337355,-22.0,-18.0,241.0
1449618410639644008,-22.0,-18.0,242.0
1449618410657920372,-22.0,-18.0,243.0
1449618410668330696,-22.0,-18.0,244.0
1449618410684839994,-22.0,-18.0,241.0
1449618410702361180,-22.0,-18.0,241.0
1449618410725117354,-22.0,-18.0,244.0
1449618410743445191,-22.0,-18.0,244.0
1449618410750288005,-22.0,-18.0,244.0
1449618410763475811,-22.0,-18.0,241.0
1449618410777751422,-22.0,-18.0,241.0
1449618410788664648,-22.0,-18.0,242.0
1449618410807297971,-22.0,-18.0,241.0
1449618410822345343,-22.0,-18.0,242.0
1449618410832307012,-22.0,-18.0,242.0
1449618410849658242,-22.0,-18.0,241.0
1449618410865906766,-22.0,-18.0,241.0
1449618410880555263,-22.0,-18.0,244.0
1449618410894386868,-22.0,-18.0,243.0
1449618410914762820,-22.0,-18.0,243.0
1449618410922647863,-22.0,-18.0,245.0
1449618410940376981,-22.0,-18.0,245.0
1449618410956277830,-22.0,-18.0,244.0
1449618410968756634,-22.0,-18.0,236.0
1449618410984173777,-22.0,-18.0,247.0
1449618411000403719,-22.0,-18.0,245.0
1449618411013628853,-22.0,-18.0,250.0
1449618411028729037,-22.0,-18.0,251.0
1449618411045327886,-22.0,-18.0,252.0
1449618411057553060,-22.0,-18.0,252.0
1449618411077124242,-22.0,-18.0,253.0
1449618411091929485,-22.0,-18.0,253.0
1449618411107181351,-22.0,-18.0,252.0
1449618411121231875,-22.0,-18.0,255.0
1449618411135958453,-22.0,-18.0,253.0
1449618411150161054,-22.0,-18.0,252.0
1449618411164096970,-22.0,-18.0,256.0
1449618411177903617,-22.0,-18.0,251.0
1449618411192966218,-22.0,-18.0,251.0
1449618411209620104,-22.0,-18.0,253.0
1449618411222139618,-22.0,-18.0,251.0
1449618411240996852,-22.0,-18.0,252.0
1449618411255071597,-22.0,-18.0,251.0
1449618411270382747,-22.0,-18.0,252.0
1449618411283174690,-22.0,-18.0,254.0
1449618411299499828,-22.0,-18.0,252.0
1449618411311712479,-22.0,-18.0,253.0
1449618411327970689,-22.0,-18.0,256.0
1449618411344677745,-22.0,-18.0,253.0
1449618411357606857,-22.0,-18.0,253.0
1449618411372974269,-22.0,-18.0,256.0
1449618411391118764,-22.0,-18.0,248.0
1449618411402921360,-22.0,-18.0,250.0
1449618411435903483,-22.0,-18.0,248.0
1449618411435912445,-22.0,-18.0,251.0
1449618411446972484,-22.0,-18.0,252.0
1449618411463378378,-22.0,-18.0,252.0
1449618411481996276,-22.0,-18.0,251.0
1449618411492303310,-22.0,-18.0,249.0
1449618411512806889,-22.0,-18.0,262.0
1449618411524839331,-22.0,-18.0,248.0
1449618411537644403,-22.0,-18.0,250.0
1449618411556170014,-22.0,-18.0,252.0
1449618411566557851,-22.0,-18.0,251.0
1449618411585615366,-22.0,-18.0,252.0
1449618411598695338,-22.0,-18.0,249.0
1449618411614053369,-22.0,-18.0,248.0
1449618411627216106,-22.0,-18.0,249.0
1449618411645007034,-22.0,-18.0,250.0
1449618411655718151,-22.0,-18.0,251.0
1449618411679688716,-22.0,-18.0,248.0
1449618411693621589,-22.0,-18.0,248.0
1449618411700881278,-22.0,-18.0,250.0
1449618411718452135,-22.0,-18.0,250.0
1449618411736453976,-22.0,-18.0,248.0
1449618411745624334,-22.0,-18.0,249.0
1449618411762905996,-22.0,-18.0,251.0
1449618411779653191,-22.0,-18.0,247.0
1449618411791029036,-22.0,-18.0,249.0
1449618411807287379,-22.0,-18.0,249.0
1449618411825624064,-22.0,-18.0,249.0
1449618411836408747,-22.0,-18.0,246.0
1449618411853756503,-22.0,-18.0,248.0
1449618411869034033,-22.0,-18.0,248.0
1449618411881234903,-22.0,-18.0,250.0
1449618411897707133,-22.0,-18.0,251.0
1449618411923197145,-22.0,-18.0,247.0
1449618411925895893,-22.0,-18.0,249.0
1449618411943490890,-22.0,-18.0,246.0
1449618411954962372,-22.0,-18.0,250.0
1449618411971419731,-22.0,-18.0,246.0
1449618411988660312,-22.0,-18.0,248.0
1449618412000588336,-22.0,-18.0,247.0
1449618412016013908,-22.0,-18.0,247.0
1449618412032504132,-22.0,-18.0,248.0
1449618412044877246,-22.0,-18.0,247.0
1449618412061781632,-22.0,-18.0,245.0
1449618412077862127,-22.0,-18.0,241.0
1449618412091338200,-22.0,-18.0,249.0
1449618412108063198,-22.0,-18.0,248.0
1449618412123646182,-22.0,-18.0,248.0
1449618412143171293,-22.0,-18.0,249.0
1449618412151929282,-22.0,-18.0,251.0
1449618412169282879,-22.0,-18.0,248.0
1449618412181311719,-22.0,-18.0,244.0
1449618412196322983,-22.0,-18.0,250.0
1449618412215092715,-22.0,-18.0,247.0
1449618412226606042,-22.0,-18.0,248.0
1449618412242068098,-22.0,-18.0,248.0
1449618412258320165,-22.0,-18.0,248.0
1449618412271372578,-22.0,-18.0,246.0
1449618412286860138,-22.0,-18.0,250.0
1449618412304939091,-22.0,-18.0,245.0
1449618412321616352,-22.0,-18.0,241.0
1449618412333519057,-22.0,-18.0,247.0
1449618412345784369,-22.0,-18.0,246.0
1449618412361535544,-22.0,-18.0,248.0
1449618412379101910,-22.0,-18.0,252.0
1449618412389464013,-22.0,-18.0,246.0
1449618412405764527,-22.0,-18.0,247.0
1449618412425830524,-22.0,-18.0,245.0
1449618412436406385,-22.0,-18.0,245.0
1449618412451003783,-22.0,-18.0,244.0
1449618412469974603,-22.0,-18.0,246.0
1449618412479157217,-22.0,-18.0,244.0
1449618412495474455,-22.0,-18.0,250.0
1449618412513759823,-22.0,-18.0,247.0
1449618412526749240,-22.0,-18.0,247.0
1449618412553497802,-22.0,-18.0,252.0
1449618412557519732,-22.0,-18.0,247.0
1449618412574491642,-22.0,-18.0,244.0
1449618412589674945,-22.0,-18.0,248.0
1449618412602477407,-22.0,-18.0,245.0
1449618412618749293,-22.0,-18.0,246.0
1449618412637312676,-22.0,-18.0,248.0
1449618412647624026,-22.0,-18.0,247.0
1449618412663466948,-22.0,-18.0,245.0
1449618412679717323,-22.0,-18.0,249.0
1449618412693257268,-22.0,-18.0,242.0
1449618412708582519,-22.0,-18.0,243.0
1449618412720861019,-22.0,-18.0,246.0
1449618412741370421,-22.0,-18.0,245.0
1449618412753654956,-22.0,-18.0,245.0
1449618412765818555,-22.0,-18.0,246.0
1449618412782671321,-22.0,-18.0,247.0
1449618412801410684,-22.0,-18.0,247.0
1449618412810731717,-22.0,-18.0,244.0
1449618412831214708,-22.0,-18.0,245.0
1449618412845615977,-22.0,-18.0,242.0
1449618412856047031,-22.0,-18.0,247.0
1449618412872740437,-22.0,-18.0,244.0
1449618412889377167,-22.0,-18.0,247.0
1449618412901020163,-22.0,-18.0,243.0
1449618412919342321,-22.0,-18.0,246.0
1449618412933884045,-22.0,-18.0,247.0
1449618412945943605,-22.0,-18.0,243.0
1449618412962506449,-22.0,-18.0,245.0
1449618412979226211,-22.0,-18.0,247.0
1449618412993761467,-22.0,-18.0,240.0
1449618413008254464,-22.0,-18.0,243.0
1449618413025869790,-22.0,-18.0,248.0
1449618413036293712,-22.0,-18.0,247.0
1449618413057817550,-22.0,-18.0,247.0
1449618413069263521,-22.0,-18.0,249.0
1449618413081435993,-22.0,-18.0,246.0
1449618413097459749,-22.0,-18.0,245.0
1449618413110656779,-22.0,-18.0,243.0
1449618413129975283,-22.0,-18.0,246.0
1449618413145612423,-22.0,-18.0,249.0
1449618413155276713,-22.0,-18.0,245.0
1449618413171815222,-22.0,-18.0,244.0
1449618413188295301,-22.0,-18.0,247.0
1449618413200483054,-22.0,-18.0,246.0
1449618413217664022,-22.0,-18.0,244.0
