%time,field.header.seq,field.header.stamp,field.header.frame_id,field.ns,field.id,field.type,field.action,field.pose.position.x,field.pose.position.y,field.pose.position.z,field.pose.orientation.x,field.pose.orientation.y,field.pose.orientation.z,field.pose.orientation.w,field.scale.x,field.scale.y,field.scale.z,field.color.r,field.color.g,field.color.b,field.color.a,field.lifetime,field.frame_locked,field.text,field.mesh_resource,field.mesh_use_embedded_materials
1449618393844759357,0,1449618393843964902,/odom,doorways,20,0,0,0.0,0.0,0.0,0.0,0.0,0.0,1.0,0.25,0.15,0.0,1.0,0.0,0.0,1.0,2000000000,0,,,0
1449618394639810502,1,1449618394639728734,/odom,doorways,20,0,0,0.0,0.0,0.0,0.0,0.0,0.0,1.0,0.25,0.15,0.0,1.0,0.0,0.0,1.0,2000000000,0,,,0
1449618396952561192,2,1449618396949990294,/odom,doorways,20,0,0,0.00575958653158,0.0,0.0,0.0,0.0,0.0,1.0,0.25,0.15,0.0,1.0,0.0,0.0,1.0,2000000000,0,,,0
1449618397354474629,3,1449618397353302394,/odom,doorways,20,0,0,0.0115190122517,-3.04332289367e-05,0.0,0.0,0.0,0.0,1.0,0.25,0.15,0.0,1.0,0.0,0.0,1.0,2000000000,0,,,0
1449618400356970395,4,1449618400352600142,/odom,doorways,20,0,0,0.0489553598385,0.000152166144683,0.0,0.0,0.0,0.0052839997518,0.999986039576,0.25,0.15,0.0,1.0,0.0,0.0,1.0,2000000000,0,,,0
1449618401380433384,5,1449618401370450559,/odom,doorways,20,0,0,0.0489553598385,0.000152166144683,0.0,0.0,0.0,0.0052839997518,0.999986039576,0.25,0.15,0.0,1.0,0.0,0.0,1.0,2000000000,0,,,0
1449618401549376968,6,1449618401547067088,/odom,doorways,20,0,0,0.054714142331,0.000243462432631,0.0,0.0,0.0,0.0052839997518,0.999986039576,0.25,0.15,0.0,1.0,0.0,0.0,1.0,2000000000,0,,,0
1449618401733957584,7,1449618401728401219,/odom,doorways,20,0,0,0.054714142331,0.000243462432631,0.0,0.0,0.0,0.0052839997518,0.999986039576,0.25,0.15,0.0,1.0,0.0,0.0,1.0,2000000000,0,,,0
1449618402977740012,8,1449618402970779848,/odom,doorways,20,0,0,0.057593292369,0.000304325491641,0.0,0.0,0.0,0.0105678519699,0.999944158693,0.25,0.15,0.0,1.0,0.0,0.0,1.0,2000000000,0,,,0
1449618403767965512,9,1449618403765413794,/odom,doorways,20,0,0,0.057593292369,0.000304325491641,0.0,0.0,0.0,0.0105678519699,0.999944158693,0.25,0.15,0.0,1.0,0.0,0.0,1.0,2000000000,0,,,0
1449618404944173607,10,1449618404942147859,/odom,doorways,20,0,0,0.057593292369,0.000304325491641,0.0,0.0,0.0,0.0105678519699,0.999944158693,0.25,0.15,0.0,1.0,0.0,0.0,1.0,2000000000,0,,,0
1449618405089774821,11,1449618405089539200,/odom,doorways,20,0,0,0.057593292369,0.000304325491641,0.0,0.0,0.0,0.0105678519699,0.999944158693,0.25,0.15,0.0,1.0,0.0,0.0,1.0,2000000000,0,,,0
1449618405840736140,12,1449618405840296334,/odom,doorways,20,0,0,0.057593292369,0.000304325491641,0.0,0.0,0.0,0.0105678519699,0.999944158693,0.25,0.15,0.0,1.0,0.0,0.0,1.0,2000000000,0,,,0
1449618406758734660,13,1449618406757984828,/odom,doorways,20,0,0,0.057593292369,0.000304325491641,0.0,0.0,0.0,0.0105678519699,0.999944158693,0.25,0.15,0.0,1.0,0.0,0.0,1.0,2000000000,0,,,0
1449618406926756987,14,1449618406924253944,/odom,doorways,20,0,0,0.057593292369,0.000304325491641,0.0,0.0,0.0,0.0105678519699,0.999944158693,0.25,0.15,0.0,1.0,0.0,0.0,1.0,2000000000,0,,,0
1449618407249418853,15,1449618407249010181,/odom,doorways,20,0,0,0.057593292369,0.000304325491641,0.0,0.0,0.0,0.0105678519699,0.999944158693,0.25,0.15,0.0,1.0,0.0,0.0,1.0,2000000000,0,,,0
1449618407504741724,16,1449618407504579234,/odom,doorways,20,0,0,0.057593292369,0.000304325491641,0.0,0.0,0.0,0.0105678519699,0.999944158693,0.25,0.15,0.0,1.0,0.0,0.0,1.0,2000000000,0,,,0
1449618407635008183,17,1449618407633766510,/odom,doorways,20,0,0,0.057593292369,0.000304325491641,0.0,0.0,0.0,0.0105678519699,0.999944158693,0.25,0.15,0.0,1.0,0.0,0.0,1.0,2000000000,0,,,0
1449618408153712086,18,1449618408153440823,/odom,doorways,20,0,0,0.057593292369,0.000304325491641,0.0,0.0,0.0,0.0105678519699,0.999944158693,0.25,0.15,0.0,1.0,0.0,0.0,1.0,2000000000,0,,,0
1449618408510295636,19,1449618408509450200,/odom,doorways,20,0,0,0.057593292369,0.000304325491641,0.0,0.0,0.0,0.0105678519699,0.999944158693,0.25,0.15,0.0,1.0,0.0,0.0,1.0,2000000000,0,,,0
1449618409722866763,20,1449618409720783044,/odom,doorways,20,0,0,0.057593292369,0.000304325491641,0.0,0.0,0.0,0.0105678519699,0.999944158693,0.25,0.15,0.0,1.0,0.0,0.0,1.0,2000000000,0,,,0
1449618409824472990,21,1449618409824384834,/odom,doorways,20,0,0,0.057593292369,0.000304325491641,0.0,0.0,0.0,0.0105678519699,0.999944158693,0.25,0.15,0.0,1.0,0.0,0.0,1.0,2000000000,0,,,0
1449618409964066469,22,1449618409963935668,/odom,doorways,20,0,0,0.057593292369,0.000304325491641,0.0,0.0,0.0,0.0105678519699,0.999944158693,0.25,0.15,0.0,1.0,0.0,0.0,1.0,2000000000,0,,,0
1449618410157949555,23,1449618410144311305,/odom,doorways,20,0,0,0.057593292369,0.000304325491641,0.0,0.0,0.0,0.0105678519699,0.999944158693,0.25,0.15,0.0,1.0,0.0,0.0,1.0,2000000000,0,,,0
1449618411177945987,24,1449618411171710451,/odom,doorways,20,0,0,0.057593292369,0.000304325491641,0.0,0.0,0.0,0.0105678519699,0.999944158693,0.25,0.15,0.0,1.0,0.0,0.0,1.0,2000000000,0,,,0
1449618411320855882,25,1449618411318826064,/odom,doorways,20,0,0,0.057593292369,0.000304325491641,0.0,0.0,0.0,0.0105678519699,0.999944158693,0.25,0.15,0.0,1.0,0.0,0.0,1.0,2000000000,0,,,0
1449618411923465809,26,1449618411908216393,/odom,doorways,20,0,0,0.057593292369,0.000304325491641,0.0,0.0,0.0,0.0105678519699,0.999944158693,0.25,0.15,0.0,1.0,0.0,0.0,1.0,2000000000,0,,,0
1449618412532334185,27,1449618412531994391,/odom,doorways,20,0,0,0.057593292369,0.000304325491641,0.0,0.0,0.0,0.0105678519699,0.999944158693,0.25,0.15,0.0,1.0,0.0,0.0,1.0,2000000000,0,,,0
1449618412918836095,28,1449618412916266763,/odom,doorways,20,0,0,0.057593292369,0.000304325491641,0.0,0.0,0.0,0.0105678519699,0.999944158693,0.25,0.15,0.0,1.0,0.0,0.0,1.0,2000000000,0,,,0
1449618413383513779,29,1449618413383026537,/odom,doorways,20,0,0,0.057593292369,0.000304325491641,0.0,0.0,0.0,0.0105678519699,0.999944158693,0.25,0.15,0.0,1.0,0.0,0.0,1.0,2000000000,0,,,0
1449618415917766477,30,1449618415917251854,/odom,doorways,20,0,0,0.057593292369,0.000304325491641,0.0,0.0,0.0,0.0105678519699,0.999944158693,0.25,0.15,0.0,1.0,0.0,0.0,1.0,2000000000,0,,,0
1449618417295461760,31,1449618417294738199,/odom,doorways,20,0,0,0.0921455049074,0.0008825330494,0.0,0.0,0.0,0.0105678519699,0.999944158693,0.25,0.15,0.0,1.0,0.0,0.0,1.0,2000000000,0,,,0
1449618417430429201,32,1449618417412902455,/odom,doorways,20,0,0,0.115177901245,0.00139986055421,0.0,0.0,0.0,0.0105678519699,0.999944158693,0.25,0.15,0.0,1.0,0.0,0.0,1.0,2000000000,0,,,0
1449618418208292883,33,1449618418208020178,/odom,doorways,20,0,0,0.181383559248,0.00334731530551,0.0,0.0,0.0,0.0158514091245,0.999874358521,0.25,0.15,0.0,1.0,0.0,0.0,1.0,2000000000,0,,,0
1449618418904591307,34,1449618418891451254,/odom,doorways,20,0,0,0.221665452333,0.00502067388778,0.0,0.0,0.0,0.0264170481704,0.999651008886,0.25,0.15,0.0,1.0,0.0,0.0,1.0,2000000000,0,,,0
1449618420093076551,35,1449618420092877332,/odom,doorways,20,0,0,0.238924435894,0.00584206520218,0.0,0.0,0.0,0.0264170481704,0.999651008886,0.25,0.15,0.0,1.0,0.0,0.0,1.0,2000000000,0,,,0
1449618421058942545,36,1449618421058347327,/odom,doorways,20,0,0,0.267687961732,0.0072414499722,0.0,0.0,0.0,0.0264170481704,0.999651008886,0.25,0.15,0.0,1.0,0.0,0.0,1.0,2000000000,0,,,0
1449618421058945564,37,1449618421058361985,/odom,doorways,20,0,0,0.267687961732,0.0072414499722,0.0,0.0,0.0,0.0264170481704,0.999651008886,0.25,0.15,0.0,1.0,0.0,0.0,1.0,2000000000,0,,,0
1449618433265335868,38,1449618433261281562,/odom,doorways,20,0,0,0.874793279715,0.0341136606546,0.0,0.0,0.0,0.042259606217,0.999106663816,0.25,0.15,0.0,1.0,0.0,0.0,1.0,2000000000,0,,,0
1449618433265341586,39,1449618433261464432,/odom,doorways,20,0,0,0.874793279715,0.0341136606546,0.0,0.0,0.0,0.042259606217,0.999106663816,0.25,0.15,0.0,1.0,0.0,0.0,1.0,2000000000,0,,,0
1449618433395890559,40,1449618433394789727,/odom,doorways,20,0,0,0.837467997011,0.0312253581372,0.0,0.0,0.0,0.0369797368913,0.999316015612,0.25,0.15,0.0,1.0,0.0,0.0,1.0,2000000000,0,,,0
1449618433558605950,41,1449618433555247217,/odom,doorways,20,0,0,0.782903177237,0.0271814730236,0.0,0.0,0.0,0.0316988350601,0.999497465658,0.25,0.15,0.0,1.0,0.0,0.0,1.0,2000000000,0,,,0
1449618433696887568,42,1449618433693420858,/odom,doorways,20,0,0,0.742677538645,0.024474937541,0.0,0.0,0.0,0.0316988350601,0.999497465658,0.25,0.15,0.0,1.0,0.0,0.0,1.0,2000000000,0,,,0
1449618433696908234,43,1449618433693586597,/odom,doorways,20,0,0,0.742677538645,0.024474937541,0.0,0.0,0.0,0.0316988350601,0.999497465658,0.25,0.15,0.0,1.0,0.0,0.0,1.0,2000000000,0,,,0
1449618433883637857,44,1449618433882848124,/odom,doorways,20,0,0,0.676561258516,0.0205209456175,0.0,0.0,0.0,0.0264170481704,0.999651008886,0.25,0.15,0.0,1.0,0.0,0.0,1.0,2000000000,0,,,0
1449618433953987393,45,1449618433952413519,/odom,doorways,20,0,0,0.642051971977,0.0186957675127,0.0,0.0,0.0,0.0264170481704,0.999651008886,0.25,0.15,0.0,1.0,0.0,0.0,1.0,2000000000,0,,,0
1449618434046078490,46,1449618434045339124,/odom,doorways,20,0,0,0.598902342927,0.0166878880957,0.0,0.0,0.0,0.0211345236944,0.999776641009,0.25,0.15,0.0,1.0,0.0,0.0,1.0,2000000000,0,,,0
1449618434046081523,47,1449618434045346418,/odom,doorways,20,0,0,0.598902342927,0.0166878880957,0.0,0.0,0.0,0.0211345236944,0.999776641009,0.25,0.15,0.0,1.0,0.0,0.0,1.0,2000000000,0,,,0
1449618434197926517,48,1449618434197613042,/odom,doorways,20,0,0,0.598902342927,0.0166878880957,0.0,0.0,0.0,0.0211345236944,0.999776641009,0.25,0.15,0.0,1.0,0.0,0.0,1.0,2000000000,0,,,0
1449618434394210695,49,1449618434391472377,/odom,doorways,20,0,0,0.4895599191,0.0123066722548,0.0,0.0,0.0,0.0211345236944,0.999776641009,0.25,0.15,0.0,1.0,0.0,0.0,1.0,2000000000,0,,,0
1449618434394217866,50,1449618434391482619,/odom,doorways,20,0,0,0.4895599191,0.0123066722548,0.0,0.0,0.0,0.0211345236944,0.999776641009,0.25,0.15,0.0,1.0,0.0,0.0,1.0,2000000000,0,,,0
1449618434566329829,51,1449618434560073366,/odom,doorways,20,0,0,0.437739238251,0.0110590220289,0.0,0.0,0.0,0.0105678519699,0.999944158693,0.25,0.15,0.0,1.0,0.0,0.0,1.0,2000000000,0,,,0
1449618434739336840,52,1449618434730711311,/odom,doorways,20,0,0,0.391672837641,0.0100852130847,0.0,0.0,0.0,0.0105678519699,0.999944158693,0.25,0.15,0.0,1.0,0.0,0.0,1.0,2000000000,0,,,0
1449618434739339227,53,1449618434730720173,/odom,doorways,20,0,0,0.391672837641,0.0100852130847,0.0,0.0,0.0,0.0105678519699,0.999944158693,0.25,0.15,0.0,1.0,0.0,0.0,1.0,2000000000,0,,,0
1449618434879969944,54,1449618434879547619,/odom,doorways,20,0,0,0.354242439898,0.00938528280783,0.0,0.0,0.0,0.0052839997518,0.999986039576,0.25,0.15,0.0,1.0,0.0,0.0,1.0,2000000000,0,,,0
1449618434993949584,55,1449618434984290519,/odom,doorways,20,0,0,0.339845724875,0.00914182717293,0.0,0.0,0.0,0.0105678519699,0.999944158693,0.25,0.15,0.0,1.0,0.0,0.0,1.0,2000000000,0,,,0
1449618435179480731,56,1449618435178148161,/odom,doorways,20,0,0,0.308170732709,0.00874620199447,0.0,0.0,0.0,0.0052839997518,0.999986039576,0.25,0.15,0.0,1.0,0.0,0.0,1.0,2000000000,0,,,0
1449618435179483843,57,1449618435178330241,/odom,doorways,20,0,0,0.308170732709,0.00874620199447,0.0,0.0,0.0,0.0052839997518,0.999986039576,0.25,0.15,0.0,1.0,0.0,0.0,1.0,2000000000,0,,,0
1449618435397780219,58,1449618435395088059,/odom,doorways,20,0,0,0.290892937983,0.00856360262085,0.0,0.0,0.0,0.0052839997518,0.999986039576,0.25,0.15,0.0,1.0,0.0,0.0,1.0,2000000000,0,,,0
1449618435570235445,59,1449618435563000031,/odom,doorways,20,0,0,0.285133673074,0.00850273616298,0.0,0.0,0.0,0.0052839997518,0.999986039576,0.25,0.15,0.0,1.0,0.0,0.0,1.0,2000000000,0,,,0
1449618435570240156,60,1449618435563017693,/odom,doorways,20,0,0,0.285133673074,0.00850273616298,0.0,0.0,0.0,0.0052839997518,0.999986039576,0.25,0.15,0.0,1.0,0.0,0.0,1.0,2000000000,0,,,0
1449618435782165697,61,1449618435781925000,/odom,doorways,20,0,0,0.28801346634,0.00850273616298,0.0,0.0,0.0,8.881784197e-16,1.0,0.25,0.15,0.0,1.0,0.0,0.0,1.0,2000000000,0,,,0
1449618435900321991,62,1449618435885351567,/odom,doorways,20,0,0,0.28801346634,0.00850273616298,0.0,0.0,0.0,8.881784197e-16,1.0,0.25,0.15,0.0,1.0,0.0,0.0,1.0,2000000000,0,,,0
1449618435900339454,63,1449618435885462245,/odom,doorways,20,0,0,0.28801346634,0.00850273616298,0.0,0.0,0.0,8.881784197e-16,1.0,0.25,0.15,0.0,1.0,0.0,0.0,1.0,2000000000,0,,,0
1449618436105784094,64,1449618436100206140,/odom,doorways,20,0,0,0.285133833886,0.00847230293404,0.0,0.0,0.0,0.0052839997518,0.999986039576,0.25,0.15,0.0,1.0,0.0,0.0,1.0,2000000000,0,,,0
1449618436301758702,65,1449618436301575140,/odom,doorways,20,0,0,0.273615304068,0.0083505700183,0.0,0.0,0.0,0.0052839997518,0.999986039576,0.25,0.15,0.0,1.0,0.0,0.0,1.0,2000000000,0,,,0
1449618436301813084,66,1449618436301712206,/odom,doorways,20,0,0,0.273615304068,0.0083505700183,0.0,0.0,0.0,0.0052839997518,0.999986039576,0.25,0.15,0.0,1.0,0.0,0.0,1.0,2000000000,0,,,0
1449618436508711019,67,1449618436504678831,/odom,doorways,20,0,0,0.256337509342,0.00816797064468,0.0,0.0,0.0,0.0052839997518,0.999986039576,0.25,0.15,0.0,1.0,0.0,0.0,1.0,2000000000,0,,,0
1449618436700493426,68,1449618436676195321,/odom,doorways,20,0,0,0.221781919889,0.00780277189744,0.0,0.0,0.0,0.0052839997518,0.999986039576,0.25,0.15,0.0,1.0,0.0,0.0,1.0,2000000000,0,,,0
1449618436818243830,69,1449618436808566358,/odom,doorways,20,0,0,0.192986077762,0.007468009778,0.0,0.0,0.0,0.0052839997518,0.999986039576,0.25,0.15,0.0,1.0,0.0,0.0,1.0,2000000000,0,,,0
1449618437007811120,70,1449618437006441976,/odom,doorways,20,0,0,0.167073727419,0.0069202422469,0.0,0.0,0.0,0.0105678519699,0.999944158693,0.25,0.15,0.0,1.0,0.0,0.0,1.0,2000000000,0,,,0
1449618437212138354,71,1449618437174639533,/odom,doorways,20,0,0,0.121004432312,0.00612901228317,0.0,0.0,0.0,0.0105678519699,0.999944158693,0.25,0.15,0.0,1.0,0.0,0.0,1.0,2000000000,0,,,0
1449618437375144819,72,1449618437374863391,/odom,doorways,20,0,0,0.0806963317794,0.00527692945702,0.0,0.0,0.0,0.0105678519699,0.999944158693,0.25,0.15,0.0,1.0,0.0,0.0,1.0,2000000000,0,,,0
1449618437598641853,73,1449618437598393772,/odom,doorways,20,0,0,0.0519048313986,0.00466829886691,0.0,0.0,0.0,0.0105678519699,0.999944158693,0.25,0.15,0.0,1.0,0.0,0.0,1.0,2000000000,0,,,0
1449618437807400936,74,1449618437775125116,/odom,doorways,20,0,0,0.0317515850994,0.00421183442111,0.0,0.0,0.0,0.0158514091245,0.999874358521,0.25,0.15,0.0,1.0,0.0,0.0,1.0,2000000000,0,,,0
1449618438228697875,75,1449618438226555270,/odom,doorways,20,0,0,0.0231149389525,0.00399882221135,0.0,0.0,0.0,0.0105678519699,0.999944158693,0.25,0.15,0.0,1.0,0.0,0.0,1.0,2000000000,0,,,0
1449618438630345566,76,1449618438624610664,/odom,doorways,20,0,0,0.0288724350613,0.0041509713621,0.0,0.0,0.0,0.0105678519699,0.999944158693,0.25,0.15,0.0,1.0,0.0,0.0,1.0,2000000000,0,,,0
1449618440185114233,77,1449618440184178605,/odom,doorways,20,0,0,0.0576623275075,0.00482044801766,0.0,0.0,0.0,0.0105678519699,0.999944158693,0.25,0.15,0.0,1.0,0.0,0.0,1.0,2000000000,0,,,0
1449618440453361658,78,1449618440376533610,/odom,doorways,20,0,0,0.0691781236925,0.00509432328644,0.0,0.0,0.0,0.0105678519699,0.999944158693,0.25,0.15,0.0,1.0,0.0,0.0,1.0,2000000000,0,,,0
1449618440555974589,79,1449618440555534161,/odom,doorways,20,0,0,0.0691781236925,0.00509432328644,0.0,0.0,0.0,0.0105678519699,0.999944158693,0.25,0.15,0.0,1.0,0.0,0.0,1.0,2000000000,0,,,0
1449618440637412383,80,1449618440636452297,/odom,doorways,20,0,0,0.0979696240732,0.00570295387654,0.0,0.0,0.0,0.0105678519699,0.999944158693,0.25,0.15,0.0,1.0,0.0,0.0,1.0,2000000000,0,,,0
1449618440995320689,81,1449618440992694576,/odom,doorways,20,0,0,0.129641239325,0.00631158786551,0.0,0.0,0.0,0.0052839997518,0.999986039576,0.25,0.15,0.0,1.0,0.0,0.0,1.0,2000000000,0,,,0
1449618441394670942,82,1449618441390262106,/odom,doorways,20,0,0,0.175709087183,0.00719410731946,0.0,0.0,0.0,0.0052839997518,0.999986039576,0.25,0.15,0.0,1.0,0.0,0.0,1.0,2000000000,0,,,0
1449618441550444996,83,1449618441549037218,/odom,doorways,20,0,0,0.198742769904,0.00765058196148,0.0,0.0,0.0,0.0052839997518,0.999986039576,0.25,0.15,0.0,1.0,0.0,0.0,1.0,2000000000,0,,,0
1449618441633282016,84,1449618441632266931,/odom,doorways,20,0,0,0.207380220018,0.00783317113851,0.0,0.0,0.0,0.0105678519699,0.999944158693,0.25,0.15,0.0,1.0,0.0,0.0,1.0,2000000000,0,,,0
1449618442268051835,85,1449618442227748832,/odom,doorways,20,0,0,0.230414867571,0.00822878612037,0.0,0.0,0.0,0.0105678519699,0.999944158693,0.25,0.15,0.0,1.0,0.0,0.0,1.0,2000000000,0,,,0
1449618442268055927,86,1449618442227816076,/odom,doorways,20,0,0,0.230414867571,0.00822878612037,0.0,0.0,0.0,0.0105678519699,0.999944158693,0.25,0.15,0.0,1.0,0.0,0.0,1.0,2000000000,0,,,0
1449618442373237639,87,1449618442373130353,/odom,doorways,20,0,0,0.282239568257,0.00932432118257,0.0,0.0,0.0,0.0105678519699,0.999944158693,0.25,0.15,0.0,1.0,0.0,0.0,1.0,2000000000,0,,,0
1449618442548419527,88,1449618442545467057,/odom,doorways,20,0,0,0.299515433318,0.00962863987648,0.0,0.0,0.0,0.0105678519699,0.999944158693,0.25,0.15,0.0,1.0,0.0,0.0,1.0,2000000000,0,,,0
1449618442548429392,89,1449618442545476788,/odom,doorways,20,0,0,0.299515433318,0.00962863987648,0.0,0.0,0.0,0.0105678519699,0.999944158693,0.25,0.15,0.0,1.0,0.0,0.0,1.0,2000000000,0,,,0
1449618442796460981,90,1449618442796289679,/odom,doorways,20,0,0,0.319671413249,0.00993296196926,0.0,0.0,0.0,0.0052839997518,0.999986039576,0.25,0.15,0.0,1.0,0.0,0.0,1.0,2000000000,0,,,0
1449618443012059537,91,1449618443001480158,/odom,doorways,20,0,0,0.342707508052,0.0102372874609,0.0,0.0,0.0,0.0052839997518,0.999986039576,0.25,0.15,0.0,1.0,0.0,0.0,1.0,2000000000,0,,,0
1449618443012082543,92,1449618443001485395,/odom,doorways,20,0,0,0.342707508052,0.0102372874609,0.0,0.0,0.0,0.0052839997518,0.999986039576,0.25,0.15,0.0,1.0,0.0,0.0,1.0,2000000000,0,,,0
1449618443252100058,93,1449618443251282649,/odom,doorways,20,0,0,0.362862040735,0.0106328990439,0.0,0.0,0.0,0.0105678519699,0.999944158693,0.25,0.15,0.0,1.0,0.0,0.0,1.0,2000000000,0,,,0
1449618443405557386,94,1449618443405462597,/odom,doorways,20,0,0,0.37725972059,0.0108154950187,0.0,0.0,0.0,0.0052839997518,0.999986039576,0.25,0.15,0.0,1.0,0.0,0.0,1.0,2000000000,0,,,0
1449618443405748442,95,1449618443405547613,/odom,doorways,20,0,0,0.37725972059,0.0108154950187,0.0,0.0,0.0,0.0052839997518,0.999986039576,0.25,0.15,0.0,1.0,0.0,0.0,1.0,2000000000,0,,,0
1449618443579308461,96,1449618443578928902,/odom,doorways,20,0,0,0.391656918029,0.0110285208235,0.0,0.0,0.0,0.0105678519699,0.999944158693,0.25,0.15,0.0,1.0,0.0,0.0,1.0,2000000000,0,,,0
1449618443751833905,97,1449618443749913000,/odom,doorways,20,0,0,0.408932300674,0.0113632693475,0.0,0.0,0.0,0.0105678519699,0.999944158693,0.25,0.15,0.0,1.0,0.0,0.0,1.0,2000000000,0,,,0
1449618443751859394,98,1449618443750058440,/odom,doorways,20,0,0,0.408932300674,0.0113632693475,0.0,0.0,0.0,0.0105678519699,0.999944158693,0.25,0.15,0.0,1.0,0.0,0.0,1.0,2000000000,0,,,0
1449618443968874006,99,1449618443968810312,/odom,doorways,20,0,0,0.408932300674,0.0113632693475,0.0,0.0,0.0,0.0105678519699,0.999944158693,0.25,0.15,0.0,1.0,0.0,0.0,1.0,2000000000,0,,,0
1449618444168198480,100,1449618444168024471,/odom,doorways,20,0,0,0.446363180834,0.0120327697943,0.0,0.0,0.0,0.0052839997518,0.999986039576,0.25,0.15,0.0,1.0,0.0,0.0,1.0,2000000000,0,,,0
1449618444169262743,101,1449618444168125398,/odom,doorways,20,0,0,0.446363180834,0.0120327697943,0.0,0.0,0.0,0.0052839997518,0.999986039576,0.25,0.15,0.0,1.0,0.0,0.0,1.0,2000000000,0,,,0
1449618445062296295,102,1449618445061377036,/odom,doorways,20,0,0,0.446363180834,0.0120327697943,0.0,0.0,0.0,0.0052839997518,0.999986039576,0.25,0.15,0.0,1.0,0.0,0.0,1.0,2000000000,0,,,0
1449618445062306714,103,1449618445061387883,/odom,doorways,20,0,0,0.446363180834,0.0120327697943,0.0,0.0,0.0,0.0052839997518,0.999986039576,0.25,0.15,0.0,1.0,0.0,0.0,1.0,2000000000,0,,,0
1449618445205621806,104,1449618445204586522,/odom,doorways,20,0,0,0.550021748115,0.0136456731473,0.0,0.0,0.0,0.0052839997518,0.999986039576,0.25,0.15,0.0,1.0,0.0,0.0,1.0,2000000000,0,,,0
1449618445603433645,105,1449618445601875399,/odom,doorways,20,0,0,0.587454075524,0.0142238841039,0.0,0.0,0.0,0.0105678519699,0.999944158693,0.25,0.15,0.0,1.0,0.0,0.0,1.0,2000000000,0,,,0
1449618445603438706,106,1449618445601882830,/odom,doorways,20,0,0,0.587454075524,0.0142238841039,0.0,0.0,0.0,0.0105678519699,0.999944158693,0.25,0.15,0.0,1.0,0.0,0.0,1.0,2000000000,0,,,0
1449618445782168240,107,1449618445779882717,/odom,doorways,20,0,0,0.604730905417,0.0144673431377,0.0,0.0,0.0,0.0105678519699,0.999944158693,0.25,0.15,0.0,1.0,0.0,0.0,1.0,2000000000,0,,,0
1449618446029234023,108,1449618446020078196,/odom,doorways,20,0,0,0.622007252895,0.0147412320015,0.0,0.0,0.0,0.0105678519699,0.999944158693,0.25,0.15,0.0,1.0,0.0,0.0,1.0,2000000000,0,,,0
1449618446029260746,109,1449618446020187044,/odom,doorways,20,0,0,0.622007252895,0.0147412320015,0.0,0.0,0.0,0.0105678519699,0.999944158693,0.25,0.15,0.0,1.0,0.0,0.0,1.0,2000000000,0,,,0
1449618446395320752,110,1449618446382782526,/odom,doorways,20,0,0,0.633524817879,0.0149238245774,0.0,0.0,0.0,0.0105678519699,0.999944158693,0.25,0.15,0.0,1.0,0.0,0.0,1.0,2000000000,0,,,0
1449618446395338935,111,1449618446383034716,/odom,doorways,20,0,0,0.633524817879,0.0149238245774,0.0,0.0,0.0,0.0105678519699,0.999944158693,0.25,0.15,0.0,1.0,0.0,0.0,1.0,2000000000,0,,,0
1449618465214830186,112,1449618465208740310,/odom,doorways,20,0,0,1.78785763415,-0.131784276013,0.0,0.0,0.0,-0.266235292001,0.963908070976,0.25,0.15,0.0,1.0,0.0,0.0,1.0,2000000000,0,,,0
1449618465214833802,113,1449618465208748222,/odom,doorways,20,0,0,1.78785763415,-0.131784276013,0.0,0.0,0.0,-0.266235292001,0.963908070976,0.25,0.15,0.0,1.0,0.0,0.0,1.0,2000000000,0,,,0
1449618465449757983,114,1449618465448043311,/odom,doorways,20,0,0,1.78785763415,-0.131784276013,0.0,0.0,0.0,-0.266235292001,0.963908070976,0.25,0.15,0.0,1.0,0.0,0.0,1.0,2000000000,0,,,0
1449618465557574062,115,1449618465557167502,/odom,doorways,20,0,0,1.78785763415,-0.131784276013,0.0,0.0,0.0,-0.266235292001,0.963908070976,0.25,0.15,0.0,1.0,0.0,0.0,1.0,2000000000,0,,,0
1449618465557577358,116,1449618465557182288,/odom,doorways,20,0,0,1.78785763415,-0.131784276013,0.0,0.0,0.0,-0.266235292001,0.963908070976,0.25,0.15,0.0,1.0,0.0,0.0,1.0,2000000000,0,,,0
1449618465781264923,117,1449618465779264108,/odom,doorways,20,0,0,1.78785763415,-0.131784276013,0.0,0.0,0.0,-0.266235292001,0.963908070976,0.25,0.15,0.0,1.0,0.0,0.0,1.0,2000000000,0,,,0
1449618466044085363,118,1449618466041132032,/odom,doorways,20,0,0,1.78785763415,-0.131784276013,0.0,0.0,0.0,-0.266235292001,0.963908070976,0.25,0.15,0.0,1.0,0.0,0.0,1.0,2000000000,0,,,0
1449618466044089638,119,1449618466041141170,/odom,doorways,20,0,0,1.78785763415,-0.131784276013,0.0,0.0,0.0,-0.266235292001,0.963908070976,0.25,0.15,0.0,1.0,0.0,0.0,1.0,2000000000,0,,,0
1449618466389316450,120,1449618466387300933,/odom,doorways,20,0,0,1.78785763415,-0.131784276013,0.0,0.0,0.0,-0.266235292001,0.963908070976,0.25,0.15,0.0,1.0,0.0,0.0,1.0,2000000000,0,,,0
1449618466389562045,121,1449618466387313097,/odom,doorways,20,0,0,1.78785763415,-0.131784276013,0.0,0.0,0.0,-0.266235292001,0.963908070976,0.25,0.15,0.0,1.0,0.0,0.0,1.0,2000000000,0,,,0
1449618466675974004,122,1449618466673261783,/odom,doorways,20,0,0,1.78785763415,-0.131784276013,0.0,0.0,0.0,-0.266235292001,0.963908070976,0.25,0.15,0.0,1.0,0.0,0.0,1.0,2000000000,0,,,0
1449618466953358758,123,1449618466952551604,/odom,doorways,20,0,0,1.78785763415,-0.131784276013,0.0,0.0,0.0,-0.266235292001,0.963908070976,0.25,0.15,0.0,1.0,0.0,0.0,1.0,2000000000,0,,,0
1449618466953361699,124,1449618466952561433,/odom,doorways,20,0,0,1.78785763415,-0.131784276013,0.0,0.0,0.0,-0.266235292001,0.963908070976,0.25,0.15,0.0,1.0,0.0,0.0,1.0,2000000000,0,,,0
1449618467190910516,125,1449618467189754302,/odom,doorways,20,0,0,1.78785763415,-0.131784276013,0.0,0.0,0.0,-0.266235292001,0.963908070976,0.25,0.15,0.0,1.0,0.0,0.0,1.0,2000000000,0,,,0
1449618467553471345,126,1449618467530403788,/odom,doorways,20,0,0,1.78785763415,-0.131784276013,0.0,0.0,0.0,-0.266235292001,0.963908070976,0.25,0.15,0.0,1.0,0.0,0.0,1.0,2000000000,0,,,0
1449618467553514667,127,1449618467530416294,/odom,doorways,20,0,0,1.78785763415,-0.131784276013,0.0,0.0,0.0,-0.266235292001,0.963908070976,0.25,0.15,0.0,1.0,0.0,0.0,1.0,2000000000,0,,,0
1449618467729274527,128,1449618467728562345,/odom,doorways,20,0,0,1.78785763415,-0.131784276013,0.0,0.0,0.0,-0.266235292001,0.963908070976,0.25,0.15,0.0,1.0,0.0,0.0,1.0,2000000000,0,,,0
1449618467965781158,129,1449618467964309067,/odom,doorways,20,0,0,1.78785763415,-0.131784276013,0.0,0.0,0.0,-0.266235292001,0.963908070976,0.25,0.15,0.0,1.0,0.0,0.0,1.0,2000000000,0,,,0
1449618467965786375,130,1449618467964329024,/odom,doorways,20,0,0,1.78785763415,-0.131784276013,0.0,0.0,0.0,-0.266235292001,0.963908070976,0.25,0.15,0.0,1.0,0.0,0.0,1.0,2000000000,0,,,0
1449618468208285685,131,1449618468207252782,/odom,doorways,20,0,0,1.78785763415,-0.131784276013,0.0,0.0,0.0,-0.266235292001,0.963908070976,0.25,0.15,0.0,1.0,0.0,0.0,1.0,2000000000,0,,,0
1449618468404894134,132,1449618468396471968,/odom,doorways,20,0,0,1.78785763415,-0.131784276013,0.0,0.0,0.0,-0.266235292001,0.963908070976,0.25,0.15,0.0,1.0,0.0,0.0,1.0,2000000000,0,,,0
1449618468404907719,133,1449618468396573948,/odom,doorways,20,0,0,1.78785763415,-0.131784276013,0.0,0.0,0.0,-0.266235292001,0.963908070976,0.25,0.15,0.0,1.0,0.0,0.0,1.0,2000000000,0,,,0
1449618468554378956,134,1449618468553257369,/odom,doorways,20,0,0,1.78785763415,-0.131784276013,0.0,0.0,0.0,-0.266235292001,0.963908070976,0.25,0.15,0.0,1.0,0.0,0.0,1.0,2000000000,0,,,0
1449618468721906969,135,1449618468719628512,/odom,doorways,20,0,0,1.78785763415,-0.131784276013,0.0,0.0,0.0,-0.266235292001,0.963908070976,0.25,0.15,0.0,1.0,0.0,0.0,1.0,2000000000,0,,,0
1449618468721921239,136,1449618468719638921,/odom,doorways,20,0,0,1.78785763415,-0.131784276013,0.0,0.0,0.0,-0.266235292001,0.963908070976,0.25,0.15,0.0,1.0,0.0,0.0,1.0,2000000000,0,,,0
1449618468978788681,137,1449618468977320479,/odom,doorways,20,0,0,1.78785763415,-0.131784276013,0.0,0.0,0.0,-0.266235292001,0.963908070976,0.25,0.15,0.0,1.0,0.0,0.0,1.0,2000000000,0,,,0
1449618469293553636,138,1449618469292868616,/odom,doorways,20,0,0,1.78785763415,-0.131784276013,0.0,0.0,0.0,-0.266235292001,0.963908070976,0.25,0.15,0.0,1.0,0.0,0.0,1.0,2000000000,0,,,0
1449618469293558099,139,1449618469292977471,/odom,doorways,20,0,0,1.78785763415,-0.131784276013,0.0,0.0,0.0,-0.266235292001,0.963908070976,0.25,0.15,0.0,1.0,0.0,0.0,1.0,2000000000,0,,,0
1449618469539508115,140,1449618469539227959,/odom,doorways,20,0,0,1.78785763415,-0.131784276013,0.0,0.0,0.0,-0.266235292001,0.963908070976,0.25,0.15,0.0,1.0,0.0,0.0,1.0,2000000000,0,,,0
1449618469879592845,141,1449618469879284926,/odom,doorways,20,0,0,1.80280993636,-0.140442547662,0.0,0.0,0.0,-0.256033987268,0.966667780245,0.25,0.15,0.0,1.0,0.0,0.0,1.0,2000000000,0,,,0
1449618469879595916,142,1449618469879294947,/odom,doorways,20,0,0,1.80280993636,-0.140442547662,0.0,0.0,0.0,-0.256033987268,0.966667780245,0.25,0.15,0.0,1.0,0.0,0.0,1.0,2000000000,0,,,0
1449618470064450371,143,1449618470063496424,/odom,doorways,20,0,0,1.80280993636,-0.140442547662,0.0,0.0,0.0,-0.256033987268,0.966667780245,0.25,0.15,0.0,1.0,0.0,0.0,1.0,2000000000,0,,,0
1449618482481442856,144,1449618482479395223,/odom,doorways,20,0,0,1.80771756152,-0.143483341453,0.0,0.0,0.0,-0.235546736669,0.971863022676,0.25,0.15,0.0,1.0,0.0,0.0,1.0,2000000000,0,,,0
1449618482481448769,145,1449618482479413455,/odom,doorways,20,0,0,1.80771756152,-0.143483341453,0.0,0.0,0.0,-0.235546736669,0.971863022676,0.25,0.15,0.0,1.0,0.0,0.0,1.0,2000000000,0,,,0
1449618482585968886,146,1449618482584501034,/odom,doorways,20,0,0,1.79235613137,-0.135572463068,0.0,0.0,0.0,-0.235546736669,0.971863022676,0.25,0.15,0.0,1.0,0.0,0.0,1.0,2000000000,0,,,0
1449618482778276924,147,1449618482777448576,/odom,doorways,20,0,0,1.75139231763,-0.114476787376,0.0,0.0,0.0,-0.235546736669,0.971863022676,0.25,0.15,0.0,1.0,0.0,0.0,1.0,2000000000,0,,,0
1449618482913553988,148,1449618482912160014,/odom,doorways,20,0,0,1.72583216344,-0.101211042284,0.0,0.0,0.0,-0.235546736669,0.971863022676,0.25,0.15,0.0,1.0,0.0,0.0,1.0,2000000000,0,,,0
1449618482913616520,149,1449618482912167823,/odom,doorways,20,0,0,1.72583216344,-0.101211042284,0.0,0.0,0.0,-0.235546736669,0.971863022676,0.25,0.15,0.0,1.0,0.0,0.0,1.0,2000000000,0,,,0
1449618482985988520,150,1449618482980777415,/odom,doorways,20,0,0,1.70795272433,-0.0919007363858,0.0,0.0,0.0,-0.240678772307,0.970604826158,0.25,0.15,0.0,1.0,0.0,0.0,1.0,2000000000,0,,,0
1449618483102955988,151,1449618483101351480,/odom,doorways,20,0,0,1.67492442386,-0.0742755645108,0.0,0.0,0.0,-0.24580408799,0.96931952953,0.25,0.15,0.0,1.0,0.0,0.0,1.0,2000000000,0,,,0
1449618483183440186,152,1449618483183348130,/odom,doorways,20,0,0,1.67492442386,-0.0742755645108,0.0,0.0,0.0,-0.24580408799,0.96931952953,0.25,0.15,0.0,1.0,0.0,0.0,1.0,2000000000,0,,,0
1449618483309329434,153,1449618483307460644,/odom,doorways,20,0,0,1.62664787369,-0.0485239540257,0.0,0.0,0.0,-0.240678772307,0.970604826158,0.25,0.15,0.0,1.0,0.0,0.0,1.0,2000000000,0,,,0
1449618483309332995,154,1449618483307473916,/odom,doorways,20,0,0,1.62664787369,-0.0485239540257,0.0,0.0,0.0,-0.240678772307,0.970604826158,0.25,0.15,0.0,1.0,0.0,0.0,1.0,2000000000,0,,,0
1449618483516996953,155,1449618483515685117,/odom,doorways,20,0,0,1.62664787369,-0.0485239540257,0.0,0.0,0.0,-0.240678772307,0.970604826158,0.25,0.15,0.0,1.0,0.0,0.0,1.0,2000000000,0,,,0
1449618483641159811,156,1449618483640488829,/odom,doorways,20,0,0,1.53304757983,-0.00398313557568,0.0,0.0,0.0,-0.209790780666,0.977746300606,0.25,0.15,0.0,1.0,0.0,0.0,1.0,2000000000,0,,,0
1449618483641163856,157,1449618483640626033,/odom,doorways,20,0,0,1.53304757983,-0.00398313557568,0.0,0.0,0.0,-0.209790780666,0.977746300606,0.25,0.15,0.0,1.0,0.0,0.0,1.0,2000000000,0,,,0
1449618483784100096,158,1449618483783043190,/odom,doorways,20,0,0,1.47740938661,0.0197105184732,0.0,0.0,0.0,-0.194265765611,0.98094893461,0.25,0.15,0.0,1.0,0.0,0.0,1.0,2000000000,0,,,0
1449618483894584355,159,1449618483892533385,/odom,doorways,20,0,0,1.43730116443,0.0357511729193,0.0,0.0,0.0,-0.189079719651,0.981961740404,0.25,0.15,0.0,1.0,0.0,0.0,1.0,2000000000,0,,,0
1449618483986140343,160,1449618483985347889,/odom,doorways,20,0,0,1.43730116443,0.0357511729193,0.0,0.0,0.0,-0.189079719651,0.981961740404,0.25,0.15,0.0,1.0,0.0,0.0,1.0,2000000000,0,,,0
1449618483986144501,161,1449618483985526294,/odom,doorways,20,0,0,1.43730116443,0.0357511729193,0.0,0.0,0.0,-0.189079719651,0.981961740404,0.25,0.15,0.0,1.0,0.0,0.0,1.0,2000000000,0,,,0
1449618484110974310,162,1449618484110608049,/odom,doorways,20,0,0,1.37017533484,0.0617776745195,0.0,0.0,0.0,-0.183888394426,0.982947128993,0.25,0.15,0.0,1.0,0.0,0.0,1.0,2000000000,0,,,0
1449618484300443582,163,1449618484296813489,/odom,doorways,20,0,0,1.29710308047,0.0883473021801,0.0,0.0,0.0,-0.168284193326,0.985738520236,0.25,0.15,0.0,1.0,0.0,0.0,1.0,2000000000,0,,,0
1449618484300447907,164,1449618484296823238,/odom,doorways,20,0,0,1.29710308047,0.0883473021801,0.0,0.0,0.0,-0.168284193326,0.985738520236,0.25,0.15,0.0,1.0,0.0,0.0,1.0,2000000000,0,,,0
1449618484381447287,165,1449618484380868792,/odom,doorways,20,0,0,1.26993623794,0.0979015468957,0.0,0.0,0.0,-0.168284193326,0.985738520236,0.25,0.15,0.0,1.0,0.0,0.0,1.0,2000000000,0,,,0
1449618484472862024,166,1449618484470901868,/odom,doorways,20,0,0,1.24825400635,0.105688223493,0.0,0.0,0.0,-0.168284193326,0.985738520236,0.25,0.15,0.0,1.0,0.0,0.0,1.0,2000000000,0,,,0
1449618484575053165,167,1449618484574514343,/odom,doorways,20,0,0,1.20741423681,0.119760724743,0.0,0.0,0.0,-0.163073201911,0.986613972544,0.25,0.15,0.0,1.0,0.0,0.0,1.0,2000000000,0,,,0
1449618484688493525,168,1449618484688373098,/odom,doorways,20,0,0,1.17464648198,0.130736332166,0.0,0.0,0.0,-0.163073201911,0.986613972544,0.25,0.15,0.0,1.0,0.0,0.0,1.0,2000000000,0,,,0
1449618484688859416,169,1449618484688748522,/odom,doorways,20,0,0,1.17464648198,0.130736332166,0.0,0.0,0.0,-0.163073201911,0.986613972544,0.25,0.15,0.0,1.0,0.0,0.0,1.0,2000000000,0,,,0
1449618484891773122,170,1449618484891319994,/odom,doorways,20,0,0,1.12536561889,0.146809746619,0.0,0.0,0.0,-0.152637705278,0.988282212188,0.25,0.15,0.0,1.0,0.0,0.0,1.0,2000000000,0,,,0
1449618485196572814,171,1449618485195169913,/odom,doorways,20,0,0,1.12536561889,0.146809746619,0.0,0.0,0.0,-0.152637705278,0.988282212188,0.25,0.15,0.0,1.0,0.0,0.0,1.0,2000000000,0,,,0
1449618485287574053,172,1449618485283620151,/odom,doorways,20,0,0,1.05926406564,0.166992981496,0.0,0.0,0.0,-0.142185161666,0.989840077892,0.25,0.15,0.0,1.0,0.0,0.0,1.0,2000000000,0,,,0
1449618485421893515,173,1449618485412790655,/odom,doorways,20,0,0,1.04821065007,0.170235411497,0.0,0.0,0.0,-0.142185161666,0.989840077892,0.25,0.15,0.0,1.0,0.0,0.0,1.0,2000000000,0,,,0
1449618485542467787,174,1449618485538592392,/odom,doorways,20,0,0,1.03443748406,0.174434236244,0.0,0.0,0.0,-0.147413491427,0.989074952946,0.25,0.15,0.0,1.0,0.0,0.0,1.0,2000000000,0,,,0
1449618485771406921,175,1449618485770428648,/odom,doorways,20,0,0,1.00139091395,0.184540479301,0.0,0.0,0.0,-0.147413491427,0.989074952946,0.25,0.15,0.0,1.0,0.0,0.0,1.0,2000000000,0,,,0
1449618485968173943,176,1449618485968018168,/odom,doorways,20,0,0,0.979380933331,0.191345789885,0.0,0.0,0.0,-0.147413491427,0.989074952946,0.25,0.15,0.0,1.0,0.0,0.0,1.0,2000000000,0,,,0
1449618486243207466,177,1449618486241654887,/odom,doorways,20,0,0,0.949179279772,0.200902904615,0.0,0.0,0.0,-0.152637705278,0.988282212188,0.25,0.15,0.0,1.0,0.0,0.0,1.0,2000000000,0,,,0
1449618486421921167,178,1449618486414266098,/odom,doorways,20,0,0,0.935488595308,0.205362914192,0.0,0.0,0.0,-0.157857657354,0.987461877753,0.25,0.15,0.0,1.0,0.0,0.0,1.0,2000000000,0,,,0
1449618486601427559,179,1449618486598092178,/odom,doorways,20,0,0,0.91908061648,0.210778552,0.0,0.0,0.0,-0.157857657354,0.987461877753,0.25,0.15,0.0,1.0,0.0,0.0,1.0,2000000000,0,,,0
1449618487657143730,180,1449618487655338197,/odom,doorways,20,0,0,0.891775760877,0.219929702579,0.0,0.0,0.0,-0.157857657354,0.987461877753,0.25,0.15,0.0,1.0,0.0,0.0,1.0,2000000000,0,,,0
1449618487657156104,181,1449618487655501556,/odom,doorways,20,0,0,0.891775760877,0.219929702579,0.0,0.0,0.0,-0.157857657354,0.987461877753,0.25,0.15,0.0,1.0,0.0,0.0,1.0,2000000000,0,,,0
1449618487978728035,182,1449618487978558954,/odom,doorways,20,0,0,0.891775760877,0.219929702579,0.0,0.0,0.0,-0.157857657354,0.987461877753,0.25,0.15,0.0,1.0,0.0,0.0,1.0,2000000000,0,,,0
1449618487979361419,183,1449618487978795194,/odom,doorways,20,0,0,0.891775760877,0.219929702579,0.0,0.0,0.0,-0.157857657354,0.987461877753,0.25,0.15,0.0,1.0,0.0,0.0,1.0,2000000000,0,,,0
1449618488288165471,184,1449618488287317394,/odom,doorways,20,0,0,0.891775760877,0.219929702579,0.0,0.0,0.0,-0.157857657354,0.987461877753,0.25,0.15,0.0,1.0,0.0,0.0,1.0,2000000000,0,,,0
1449618488288177206,185,1449618488287327415,/odom,doorways,20,0,0,0.891775760877,0.219929702579,0.0,0.0,0.0,-0.157857657354,0.987461877753,0.25,0.15,0.0,1.0,0.0,0.0,1.0,2000000000,0,,,0
1449618488607462976,186,1449618488594324167,/odom,doorways,20,0,0,0.897238660111,0.218105245736,0.0,0.0,0.0,-0.157857657354,0.987461877753,0.25,0.15,0.0,1.0,0.0,0.0,1.0,2000000000,0,,,0
1449618488607476763,187,1449618488594419348,/odom,doorways,20,0,0,0.897238660111,0.218105245736,0.0,0.0,0.0,-0.157857657354,0.987461877753,0.25,0.15,0.0,1.0,0.0,0.0,1.0,2000000000,0,,,0
1449618488843827023,188,1449618488842993542,/odom,doorways,20,0,0,0.897238660111,0.218105245736,0.0,0.0,0.0,-0.157857657354,0.987461877753,0.25,0.15,0.0,1.0,0.0,0.0,1.0,2000000000,0,,,0
1449618488991651943,189,1449618488989844373,/odom,doorways,20,0,0,0.924693788892,0.209417250716,0.0,0.0,0.0,-0.147413491427,0.989074952946,0.25,0.15,0.0,1.0,0.0,0.0,1.0,2000000000,0,,,0
1449618488991657008,190,1449618488989851030,/odom,doorways,20,0,0,0.924693788892,0.209417250716,0.0,0.0,0.0,-0.147413491427,0.989074952946,0.25,0.15,0.0,1.0,0.0,0.0,1.0,2000000000,0,,,0
1449618489160635259,191,1449618489157392879,/odom,doorways,20,0,0,0.944002383381,0.203626368418,0.0,0.0,0.0,-0.142185161666,0.989840077892,0.25,0.15,0.0,1.0,0.0,0.0,1.0,2000000000,0,,,0
1449618489325708565,192,1449618489322557290,/odom,doorways,20,0,0,0.957844389055,0.199661074858,0.0,0.0,0.0,-0.136952861975,0.990577565664,0.25,0.15,0.0,1.0,0.0,0.0,1.0,2000000000,0,,,0
1449618489325713547,193,1449618489322572328,/odom,doorways,20,0,0,0.957844389055,0.199661074858,0.0,0.0,0.0,-0.136952861975,0.990577565664,0.25,0.15,0.0,1.0,0.0,0.0,1.0,2000000000,0,,,0
1449618490305849652,194,1449618490288908125,/odom,doorways,20,0,0,0.898338731789,0.210344730439,0.0,0.0,0.0,-0.0686383068553,0.997641610415,0.25,0.15,0.0,1.0,0.0,0.0,1.0,2000000000,0,,,0
1449618490305884728,195,1449618490288916782,/odom,doorways,20,0,0,0.898338731789,0.210344730439,0.0,0.0,0.0,-0.0686383068553,0.997641610415,0.25,0.15,0.0,1.0,0.0,0.0,1.0,2000000000,0,,,0
1449618490369035068,196,1449618490368154560,/odom,doorways,20,0,0,0.886900994146,0.211711012642,0.0,0.0,0.0,-0.0580915451448,0.99831126027,0.25,0.15,0.0,1.0,0.0,0.0,1.0,2000000000,0,,,0
1449618490547479159,197,1449618490539124239,/odom,doorways,20,0,0,0.855351177341,0.214506894883,0.0,0.0,0.0,-0.0316988350601,0.999497465658,0.25,0.15,0.0,1.0,0.0,0.0,1.0,2000000000,0,,,0
1449618490712888422,198,1449618490710625996,/odom,doorways,20,0,0,0.832340646023,0.215632482548,0.0,0.0,0.0,-0.0211345236944,0.999776641009,0.25,0.15,0.0,1.0,0.0,0.0,1.0,2000000000,0,,,0
1449618490712891715,199,1449618490710718654,/odom,doorways,20,0,0,0.832340646023,0.215632482548,0.0,0.0,0.0,-0.0211345236944,0.999776641009,0.25,0.15,0.0,1.0,0.0,0.0,1.0,2000000000,0,,,0
1449618490951915317,200,1449618490943316839,/odom,doorways,20,0,0,0.786278586083,0.215297842779,0.0,0.0,0.0,0.0211345236944,0.999776641009,0.25,0.15,0.0,1.0,0.0,0.0,1.0,2000000000,0,,,0
1449618492270433961,201,1449618492270031285,/odom,doorways,20,0,0,0.494080365312,0.143698759315,0.0,0.0,0.0,0.183888394426,0.982947128993,0.25,0.15,0.0,1.0,0.0,0.0,1.0,2000000000,0,,,0
1449618492270437833,202,1449618492270099782,/odom,doorways,20,0,0,0.494080365312,0.143698759315,0.0,0.0,0.0,0.183888394426,0.982947128993,0.25,0.15,0.0,1.0,0.0,0.0,1.0,2000000000,0,,,0
1449618492384642783,203,1449618492382881732,/odom,doorways,20,0,0,0.494080365312,0.143698759315,0.0,0.0,0.0,0.183888394426,0.982947128993,0.25,0.15,0.0,1.0,0.0,0.0,1.0,2000000000,0,,,0
1449618492480583096,204,1449618492479507218,/odom,doorways,20,0,0,0.448844315224,0.124984579685,0.0,0.0,0.0,0.199446387505,0.979908739889,0.25,0.15,0.0,1.0,0.0,0.0,1.0,2000000000,0,,,0
1449618492601084554,205,1449618492599148321,/odom,doorways,20,0,0,0.417036113573,0.11147678785,0.0,0.0,0.0,0.199446387505,0.979908739889,0.25,0.15,0.0,1.0,0.0,0.0,1.0,2000000000,0,,,0
1449618492601091848,206,1449618492599160067,/odom,doorways,20,0,0,0.417036113573,0.11147678785,0.0,0.0,0.0,0.199446387505,0.979908739889,0.25,0.15,0.0,1.0,0.0,0.0,1.0,2000000000,0,,,0
1449618492694934520,207,1449618492690054202,/odom,doorways,20,0,0,0.393288355752,0.101094401419,0.0,0.0,0.0,0.204621440688,0.978841185285,0.25,0.15,0.0,1.0,0.0,0.0,1.0,2000000000,0,,,0
1449618492767577966,208,1449618492767074368,/odom,doorways,20,0,0,0.359047730915,0.0859585193379,0.0,0.0,0.0,0.209790780666,0.977746300606,0.25,0.15,0.0,1.0,0.0,0.0,1.0,2000000000,0,,,0
1449618492877460442,209,1449618492875759529,/odom,doorways,20,0,0,0.338075215223,0.0764241035354,0.0,0.0,0.0,0.209790780666,0.977746300606,0.25,0.15,0.0,1.0,0.0,0.0,1.0,2000000000,0,,,0
1449618492964426921,210,1449618492963566540,/odom,doorways,20,0,0,0.319779527748,0.0679603529934,0.0,0.0,0.0,0.214954263107,0.976624116419,0.25,0.15,0.0,1.0,0.0,0.0,1.0,2000000000,0,,,0
1449618492964446535,211,1449618492963574627,/odom,doorways,20,0,0,0.319779527748,0.0679603529934,0.0,0.0,0.0,0.214954263107,0.976624116419,0.25,0.15,0.0,1.0,0.0,0.0,1.0,2000000000,0,,,0
1449618493086862932,212,1449618493085325555,/odom,doorways,20,0,0,0.291119627033,0.0544673000801,0.0,0.0,0.0,0.220111743843,0.97547466406,0.25,0.15,0.0,1.0,0.0,0.0,1.0,2000000000,0,,,0
1449618493281953351,213,1449618493281638455,/odom,doorways,20,0,0,0.291119627033,0.0544673000801,0.0,0.0,0.0,0.220111743843,0.97547466406,0.25,0.15,0.0,1.0,0.0,0.0,1.0,2000000000,0,,,0
1449618493281956598,214,1449618493281644714,/odom,doorways,20,0,0,0.291119627033,0.0544673000801,0.0,0.0,0.0,0.220111743843,0.97547466406,0.25,0.15,0.0,1.0,0.0,0.0,1.0,2000000000,0,,,0
1449618493419434518,215,1449618493418824482,/odom,doorways,20,0,0,0.231212003198,0.0262169803219,0.0,0.0,0.0,0.214954263107,0.976624116419,0.25,0.15,0.0,1.0,0.0,0.0,1.0,2000000000,0,,,0
1449618493419463988,216,1449618493419279237,/odom,doorways,20,0,0,0.231212003198,0.0262169803219,0.0,0.0,0.0,0.214954263107,0.976624116419,0.25,0.15,0.0,1.0,0.0,0.0,1.0,2000000000,0,,,0
1449618493422851110,217,1449618493421943337,/odom,doorways,20,0,0,0.231212003198,0.0262169803219,0.0,0.0,0.0,0.214954263107,0.976624116419,0.25,0.15,0.0,1.0,0.0,0.0,1.0,2000000000,0,,,0
1449618493584426044,218,1449618493583119930,/odom,doorways,20,0,0,0.231212003198,0.0262169803219,0.0,0.0,0.0,0.214954263107,0.976624116419,0.25,0.15,0.0,1.0,0.0,0.0,1.0,2000000000,0,,,0
1449618493584448840,219,1449618493583188286,/odom,doorways,20,0,0,0.231212003198,0.0262169803219,0.0,0.0,0.0,0.214954263107,0.976624116419,0.25,0.15,0.0,1.0,0.0,0.0,1.0,2000000000,0,,,0
1449618493692025511,220,1449618493691703964,/odom,doorways,20,0,0,0.210264750938,0.0166271877355,0.0,0.0,0.0,0.214954263107,0.976624116419,0.25,0.15,0.0,1.0,0.0,0.0,1.0,2000000000,0,,,0
1449618493692036173,221,1449618493691834198,/odom,doorways,20,0,0,0.210264750938,0.0166271877355,0.0,0.0,0.0,0.214954263107,0.976624116419,0.25,0.15,0.0,1.0,0.0,0.0,1.0,2000000000,0,,,0
1449618493785891623,222,1449618493785143375,/odom,doorways,20,0,0,0.207638449583,0.0154457689072,0.0,0.0,0.0,0.209790780666,0.977746300606,0.25,0.15,0.0,1.0,0.0,0.0,1.0,2000000000,0,,,0
1449618493785894643,223,1449618493785290671,/odom,doorways,20,0,0,0.207638449583,0.0154457689072,0.0,0.0,0.0,0.209790780666,0.977746300606,0.25,0.15,0.0,1.0,0.0,0.0,1.0,2000000000,0,,,0
1449618493785897206,224,1449618493785410202,/odom,doorways,20,0,0,0.207638449583,0.0154457689072,0.0,0.0,0.0,0.209790780666,0.977746300606,0.25,0.15,0.0,1.0,0.0,0.0,1.0,2000000000,0,,,0
1449618493896497425,225,1449618493896332018,/odom,doorways,20,0,0,0.207638449583,0.0154457689072,0.0,0.0,0.0,0.209790780666,0.977746300606,0.25,0.15,0.0,1.0,0.0,0.0,1.0,2000000000,0,,,0
1449618493896504581,226,1449618493896410533,/odom,doorways,20,0,0,0.207638449583,0.0154457689072,0.0,0.0,0.0,0.209790780666,0.977746300606,0.25,0.15,0.0,1.0,0.0,0.0,1.0,2000000000,0,,,0
1449618494097782707,227,1449618494097397091,/odom,doorways,20,0,0,0.207638449583,0.0154457689072,0.0,0.0,0.0,0.209790780666,0.977746300606,0.25,0.15,0.0,1.0,0.0,0.0,1.0,2000000000,0,,,0
1449618494097786260,228,1449618494097530608,/odom,doorways,20,0,0,0.207638449583,0.0154457689072,0.0,0.0,0.0,0.209790780666,0.977746300606,0.25,0.15,0.0,1.0,0.0,0.0,1.0,2000000000,0,,,0
1449618494097789315,229,1449618494097684643,/odom,doorways,20,0,0,0.207638449583,0.0154457689072,0.0,0.0,0.0,0.209790780666,0.977746300606,0.25,0.15,0.0,1.0,0.0,0.0,1.0,2000000000,0,,,0
1449618494225463356,230,1449618494225282683,/odom,doorways,20,0,0,0.207638449583,0.0154457689072,0.0,0.0,0.0,0.209790780666,0.977746300606,0.25,0.15,0.0,1.0,0.0,0.0,1.0,2000000000,0,,,0
1449618494225476621,231,1449618494225366231,/odom,doorways,20,0,0,0.207638449583,0.0154457689072,0.0,0.0,0.0,0.209790780666,0.977746300606,0.25,0.15,0.0,1.0,0.0,0.0,1.0,2000000000,0,,,0
1449618494372000755,232,1449618494369941040,/odom,doorways,20,0,0,0.207638449583,0.0154457689072,0.0,0.0,0.0,0.209790780666,0.977746300606,0.25,0.15,0.0,1.0,0.0,0.0,1.0,2000000000,0,,,0
1449618494372007618,233,1449618494369951953,/odom,doorways,20,0,0,0.207638449583,0.0154457689072,0.0,0.0,0.0,0.209790780666,0.977746300606,0.25,0.15,0.0,1.0,0.0,0.0,1.0,2000000000,0,,,0
1449618494485828275,234,1449618494479794018,/odom,doorways,20,0,0,0.207638449583,0.0154457689072,0.0,0.0,0.0,0.209790780666,0.977746300606,0.25,0.15,0.0,1.0,0.0,0.0,1.0,2000000000,0,,,0
1449618494485832287,236,1449618494479804933,/odom,doorways,20,0,0,0.207638449583,0.0154457689072,0.0,0.0,0.0,0.209790780666,0.977746300606,0.25,0.15,0.0,1.0,0.0,0.0,1.0,2000000000,0,,,0
1449618494583604495,237,1449618494583405339,/odom,doorways,20,0,0,0.207638449583,0.0154457689072,0.0,0.0,0.0,0.209790780666,0.977746300606,0.25,0.15,0.0,1.0,0.0,0.0,1.0,2000000000,0,,,0
1449618494583676034,238,1449618494583417764,/odom,doorways,20,0,0,0.207638449583,0.0154457689072,0.0,0.0,0.0,0.209790780666,0.977746300606,0.25,0.15,0.0,1.0,0.0,0.0,1.0,2000000000,0,,,0
1449618494678058260,239,1449618494676999886,/odom,doorways,20,0,0,0.207638449583,0.0154457689072,0.0,0.0,0.0,0.209790780666,0.977746300606,0.25,0.15,0.0,1.0,0.0,0.0,1.0,2000000000,0,,,0
1449618494678064442,240,1449618494677007390,/odom,doorways,20,0,0,0.207638449583,0.0154457689072,0.0,0.0,0.0,0.209790780666,0.977746300606,0.25,0.15,0.0,1.0,0.0,0.0,1.0,2000000000,0,,,0
1449618494816788726,241,1449618494794425898,/odom,doorways,20,0,0,0.207638449583,0.0154457689072,0.0,0.0,0.0,0.209790780666,0.977746300606,0.25,0.15,0.0,1.0,0.0,0.0,1.0,2000000000,0,,,0
1449618494816793225,242,1449618494794642903,/odom,doorways,20,0,0,0.207638449583,0.0154457689072,0.0,0.0,0.0,0.209790780666,0.977746300606,0.25,0.15,0.0,1.0,0.0,0.0,1.0,2000000000,0,,,0
1449618494816796407,243,1449618494794803533,/odom,doorways,20,0,0,0.207638449583,0.0154457689072,0.0,0.0,0.0,0.209790780666,0.977746300606,0.25,0.15,0.0,1.0,0.0,0.0,1.0,2000000000,0,,,0
1449618494988799334,244,1449618494986428808,/odom,doorways,20,0,0,0.207638449583,0.0154457689072,0.0,0.0,0.0,0.209790780666,0.977746300606,0.25,0.15,0.0,1.0,0.0,0.0,1.0,2000000000,0,,,0
1449618494988804060,245,1449618494986539926,/odom,doorways,20,0,0,0.207638449583,0.0154457689072,0.0,0.0,0.0,0.209790780666,0.977746300606,0.25,0.15,0.0,1.0,0.0,0.0,1.0,2000000000,0,,,0
1449618495069732254,246,1449618495069336857,/odom,doorways,20,0,0,0.207638449583,0.0154457689072,0.0,0.0,0.0,0.209790780666,0.977746300606,0.25,0.15,0.0,1.0,0.0,0.0,1.0,2000000000,0,,,0
1449618495069755955,247,1449618495069460329,/odom,doorways,20,0,0,0.207638449583,0.0154457689072,0.0,0.0,0.0,0.209790780666,0.977746300606,0.25,0.15,0.0,1.0,0.0,0.0,1.0,2000000000,0,,,0
1449618495181451251,248,1449618495181297910,/odom,doorways,20,0,0,0.207638449583,0.0154457689072,0.0,0.0,0.0,0.209790780666,0.977746300606,0.25,0.15,0.0,1.0,0.0,0.0,1.0,2000000000,0,,,0
1449618495181499542,249,1449618495181392793,/odom,doorways,20,0,0,0.207638449583,0.0154457689072,0.0,0.0,0.0,0.209790780666,0.977746300606,0.25,0.15,0.0,1.0,0.0,0.0,1.0,2000000000,0,,,0
1449618495181508855,250,1449618495181461037,/odom,doorways,20,0,0,0.207638449583,0.0154457689072,0.0,0.0,0.0,0.209790780666,0.977746300606,0.25,0.15,0.0,1.0,0.0,0.0,1.0,2000000000,0,,,0
1449618495310281239,251,1449618495310155279,/odom,doorways,20,0,0,0.210252119222,0.0166548761275,0.0,0.0,0.0,0.214954263107,0.976624116419,0.25,0.15,0.0,1.0,0.0,0.0,1.0,2000000000,0,,,0
1449618495310285028,252,1449618495310220177,/odom,doorways,20,0,0,0.210252119222,0.0166548761275,0.0,0.0,0.0,0.214954263107,0.976624116419,0.25,0.15,0.0,1.0,0.0,0.0,1.0,2000000000,0,,,0
1449618495444416056,253,1449618495441080208,/odom,doorways,20,0,0,0.210252119222,0.0166548761275,0.0,0.0,0.0,0.214954263107,0.976624116419,0.25,0.15,0.0,1.0,0.0,0.0,1.0,2000000000,0,,,0
1449618495444861481,254,1449618495441089715,/odom,doorways,20,0,0,0.210252119222,0.0166548761275,0.0,0.0,0.0,0.214954263107,0.976624116419,0.25,0.15,0.0,1.0,0.0,0.0,1.0,2000000000,0,,,0
1449618495614609615,255,1449618495613272729,/odom,doorways,20,0,0,0.210252119222,0.0166548761275,0.0,0.0,0.0,0.214954263107,0.976624116419,0.25,0.15,0.0,1.0,0.0,0.0,1.0,2000000000,0,,,0
1449618495614614058,256,1449618495613393887,/odom,doorways,20,0,0,0.210252119222,0.0166548761275,0.0,0.0,0.0,0.214954263107,0.976624116419,0.25,0.15,0.0,1.0,0.0,0.0,1.0,2000000000,0,,,0
1449618495614627487,257,1449618495613494389,/odom,doorways,20,0,0,0.210252119222,0.0166548761275,0.0,0.0,0.0,0.214954263107,0.976624116419,0.25,0.15,0.0,1.0,0.0,0.0,1.0,2000000000,0,,,0
1449618495731457412,258,1449618495730683306,/odom,doorways,20,0,0,0.210252119222,0.0166548761275,0.0,0.0,0.0,0.214954263107,0.976624116419,0.25,0.15,0.0,1.0,0.0,0.0,1.0,2000000000,0,,,0
1449618495731462939,259,1449618495730786832,/odom,doorways,20,0,0,0.210252119222,0.0166548761275,0.0,0.0,0.0,0.214954263107,0.976624116419,0.25,0.15,0.0,1.0,0.0,0.0,1.0,2000000000,0,,,0
1449618495924074656,260,1449618495919436262,/odom,doorways,20,0,0,0.210252119222,0.0166548761275,0.0,0.0,0.0,0.214954263107,0.976624116419,0.25,0.15,0.0,1.0,0.0,0.0,1.0,2000000000,0,,,0
1449618495924084595,261,1449618495919628267,/odom,doorways,20,0,0,0.210252119222,0.0166548761275,0.0,0.0,0.0,0.214954263107,0.976624116419,0.25,0.15,0.0,1.0,0.0,0.0,1.0,2000000000,0,,,0
1449618495924116639,262,1449618495919902314,/odom,doorways,20,0,0,0.210252119222,0.0166548761275,0.0,0.0,0.0,0.214954263107,0.976624116419,0.25,0.15,0.0,1.0,0.0,0.0,1.0,2000000000,0,,,0
1449618496082332549,263,1449618496081996117,/odom,doorways,20,0,0,0.210252119222,0.0166548761275,0.0,0.0,0.0,0.214954263107,0.976624116419,0.25,0.15,0.0,1.0,0.0,0.0,1.0,2000000000,0,,,0
1449618496082351866,264,1449618496082070609,/odom,doorways,20,0,0,0.210252119222,0.0166548761275,0.0,0.0,0.0,0.214954263107,0.976624116419,0.25,0.15,0.0,1.0,0.0,0.0,1.0,2000000000,0,,,0
1449618496223264280,265,1449618496219555756,/odom,doorways,20,0,0,0.210252119222,0.0166548761275,0.0,0.0,0.0,0.214954263107,0.976624116419,0.25,0.15,0.0,1.0,0.0,0.0,1.0,2000000000,0,,,0
1449618496223280958,266,1449618496219566768,/odom,doorways,20,0,0,0.210252119222,0.0166548761275,0.0,0.0,0.0,0.214954263107,0.976624116419,0.25,0.15,0.0,1.0,0.0,0.0,1.0,2000000000,0,,,0
1449618496346289907,267,1449618496345440683,/odom,doorways,20,0,0,0.210252119222,0.0166548761275,0.0,0.0,0.0,0.214954263107,0.976624116419,0.25,0.15,0.0,1.0,0.0,0.0,1.0,2000000000,0,,,0
1449618496346310326,268,1449618496345544370,/odom,doorways,20,0,0,0.210252119222,0.0166548761275,0.0,0.0,0.0,0.214954263107,0.976624116419,0.25,0.15,0.0,1.0,0.0,0.0,1.0,2000000000,0,,,0
1449618496346314934,269,1449618496345682916,/odom,doorways,20,0,0,0.210252119222,0.0166548761275,0.0,0.0,0.0,0.214954263107,0.976624116419,0.25,0.15,0.0,1.0,0.0,0.0,1.0,2000000000,0,,,0
1449618496498879999,270,1449618496497861659,/odom,doorways,20,0,0,0.210252119222,0.0166548761275,0.0,0.0,0.0,0.214954263107,0.976624116419,0.25,0.15,0.0,1.0,0.0,0.0,1.0,2000000000,0,,,0
1449618496498886082,271,1449618496497865540,/odom,doorways,20,0,0,0.210252119222,0.0166548761275,0.0,0.0,0.0,0.214954263107,0.976624116419,0.25,0.15,0.0,1.0,0.0,0.0,1.0,2000000000,0,,,0
1449618496673529140,272,1449618496673166706,/odom,doorways,20,0,0,0.210252119222,0.0166548761275,0.0,0.0,0.0,0.214954263107,0.976624116419,0.25,0.15,0.0,1.0,0.0,0.0,1.0,2000000000,0,,,0
1449618496674406601,273,1449618496673174640,/odom,doorways,20,0,0,0.210252119222,0.0166548761275,0.0,0.0,0.0,0.214954263107,0.976624116419,0.25,0.15,0.0,1.0,0.0,0.0,1.0,2000000000,0,,,0
1449618496674415288,274,1449618496673440428,/odom,doorways,20,0,0,0.210252119222,0.0166548761275,0.0,0.0,0.0,0.214954263107,0.976624116419,0.25,0.15,0.0,1.0,0.0,0.0,1.0,2000000000,0,,,0
1449618496791957506,275,1449618496791805935,/odom,doorways,20,0,0,0.210252119222,0.0166548761275,0.0,0.0,0.0,0.214954263107,0.976624116419,0.25,0.15,0.0,1.0,0.0,0.0,1.0,2000000000,0,,,0
1449618496791964717,276,1449618496791874595,/odom,doorways,20,0,0,0.210252119222,0.0166548761275,0.0,0.0,0.0,0.214954263107,0.976624116419,0.25,0.15,0.0,1.0,0.0,0.0,1.0,2000000000,0,,,0
1449618496900115141,277,1449618496899316116,/odom,doorways,20,0,0,0.210252119222,0.0166548761275,0.0,0.0,0.0,0.214954263107,0.976624116419,0.25,0.15,0.0,1.0,0.0,0.0,1.0,2000000000,0,,,0
1449618496900119563,278,1449618496899405104,/odom,doorways,20,0,0,0.210252119222,0.0166548761275,0.0,0.0,0.0,0.214954263107,0.976624116419,0.25,0.15,0.0,1.0,0.0,0.0,1.0,2000000000,0,,,0
1449618497036063640,279,1449618497035013443,/odom,doorways,20,0,0,0.210252119222,0.0166548761275,0.0,0.0,0.0,0.214954263107,0.976624116419,0.25,0.15,0.0,1.0,0.0,0.0,1.0,2000000000,0,,,0
1449618497036073538,280,1449618497035088586,/odom,doorways,20,0,0,0.210252119222,0.0166548761275,0.0,0.0,0.0,0.214954263107,0.976624116419,0.25,0.15,0.0,1.0,0.0,0.0,1.0,2000000000,0,,,0
1449618497036088781,281,1449618497035146968,/odom,doorways,20,0,0,0.210252119222,0.0166548761275,0.0,0.0,0.0,0.214954263107,0.976624116419,0.25,0.15,0.0,1.0,0.0,0.0,1.0,2000000000,0,,,0
1449618497200080800,282,1449618497197723273,/odom,doorways,20,0,0,0.210252119222,0.0166548761275,0.0,0.0,0.0,0.214954263107,0.976624116419,0.25,0.15,0.0,1.0,0.0,0.0,1.0,2000000000,0,,,0
1449618497200085303,283,1449618497198925543,/odom,doorways,20,0,0,0.210252119222,0.0166548761275,0.0,0.0,0.0,0.214954263107,0.976624116419,0.25,0.15,0.0,1.0,0.0,0.0,1.0,2000000000,0,,,0
1449618497421776682,284,1449618497420966445,/odom,doorways,20,0,0,0.210252119222,0.0166548761275,0.0,0.0,0.0,0.214954263107,0.976624116419,0.25,0.15,0.0,1.0,0.0,0.0,1.0,2000000000,0,,,0
1449618497421779678,286,1449618497420980341,/odom,doorways,20,0,0,0.210252119222,0.0166548761275,0.0,0.0,0.0,0.214954263107,0.976624116419,0.25,0.15,0.0,1.0,0.0,0.0,1.0,2000000000,0,,,0
1449618497619838830,287,1449618497618290157,/odom,doorways,20,0,0,0.210252119222,0.0166548761275,0.0,0.0,0.0,0.214954263107,0.976624116419,0.25,0.15,0.0,1.0,0.0,0.0,1.0,2000000000,0,,,0
1449618497619851548,288,1449618497618367375,/odom,doorways,20,0,0,0.210252119222,0.0166548761275,0.0,0.0,0.0,0.214954263107,0.976624116419,0.25,0.15,0.0,1.0,0.0,0.0,1.0,2000000000,0,,,0
1449618497786175609,289,1449618497785937752,/odom,doorways,20,0,0,0.210252119222,0.0166548761275,0.0,0.0,0.0,0.214954263107,0.976624116419,0.25,0.15,0.0,1.0,0.0,0.0,1.0,2000000000,0,,,0
1449618497786191859,290,1449618497786005546,/odom,doorways,20,0,0,0.210252119222,0.0166548761275,0.0,0.0,0.0,0.214954263107,0.976624116419,0.25,0.15,0.0,1.0,0.0,0.0,1.0,2000000000,0,,,0
1449618497786196082,291,1449618497786067141,/odom,doorways,20,0,0,0.210252119222,0.0166548761275,0.0,0.0,0.0,0.214954263107,0.976624116419,0.25,0.15,0.0,1.0,0.0,0.0,1.0,2000000000,0,,,0
1449618498001430522,292,1449618497999641700,/odom,doorways,20,0,0,0.212878420577,0.0178362949558,0.0,0.0,0.0,0.209790780666,0.977746300606,0.25,0.15,0.0,1.0,0.0,0.0,1.0,2000000000,0,,,0
1449618498001434805,293,1449618497999645994,/odom,doorways,20,0,0,0.212878420577,0.0178362949558,0.0,0.0,0.0,0.209790780666,0.977746300606,0.25,0.15,0.0,1.0,0.0,0.0,1.0,2000000000,0,,,0
1449618498122298390,294,1449618498122126540,/odom,doorways,20,0,0,0.212878420577,0.0178362949558,0.0,0.0,0.0,0.209790780666,0.977746300606,0.25,0.15,0.0,1.0,0.0,0.0,1.0,2000000000,0,,,0
1449618498122303944,296,1449618498122136192,/odom,doorways,20,0,0,0.212878420577,0.0178362949558,0.0,0.0,0.0,0.209790780666,0.977746300606,0.25,0.15,0.0,1.0,0.0,0.0,1.0,2000000000,0,,,0
1449618498263664461,297,1449618498263401885,/odom,doorways,20,0,0,0.210239780819,0.0166826964634,0.0,0.0,0.0,0.204621440688,0.978841185285,0.25,0.15,0.0,1.0,0.0,0.0,1.0,2000000000,0,,,0
1449618498263668377,298,1449618498263531078,/odom,doorways,20,0,0,0.210239780819,0.0166826964634,0.0,0.0,0.0,0.204621440688,0.978841185285,0.25,0.15,0.0,1.0,0.0,0.0,1.0,2000000000,0,,,0
1449618498384164046,299,1449618498383924047,/odom,doorways,20,0,0,0.21289046429,0.017808345783,0.0,0.0,0.0,0.199446387505,0.979908739889,0.25,0.15,0.0,1.0,0.0,0.0,1.0,2000000000,0,,,0
1449618498384167299,300,1449618498384035821,/odom,doorways,20,0,0,0.21289046429,0.017808345783,0.0,0.0,0.0,0.199446387505,0.979908739889,0.25,0.15,0.0,1.0,0.0,0.0,1.0,2000000000,0,,,0
1449618498543466921,301,1449618498543203774,/odom,doorways,20,0,0,0.212901914621,0.0177801483147,0.0,0.0,0.0,0.189079719651,0.981961740404,0.25,0.15,0.0,1.0,0.0,0.0,1.0,2000000000,0,,,0
1449618498544177371,302,1449618498543912964,/odom,doorways,20,0,0,0.212901914621,0.0177801483147,0.0,0.0,0.0,0.189079719651,0.981961740404,0.25,0.15,0.0,1.0,0.0,0.0,1.0,2000000000,0,,,0
1449618498544180758,303,1449618498543923684,/odom,doorways,20,0,0,0.212901914621,0.0177801483147,0.0,0.0,0.0,0.189079719651,0.981961740404,0.25,0.15,0.0,1.0,0.0,0.0,1.0,2000000000,0,,,0
1449618498704921132,304,1449618498697225157,/odom,doorways,20,0,0,0.210216881437,0.0167390882507,0.0,0.0,0.0,0.183888394426,0.982947128993,0.25,0.15,0.0,1.0,0.0,0.0,1.0,2000000000,0,,,0
1449618498704923902,305,1449618498697230400,/odom,doorways,20,0,0,0.210216881437,0.0167390882507,0.0,0.0,0.0,0.183888394426,0.982947128993,0.25,0.15,0.0,1.0,0.0,0.0,1.0,2000000000,0,,,0
1449618498889837744,306,1449618498887373649,/odom,doorways,20,0,0,0.207520996421,0.0157264613541,0.0,0.0,0.0,0.17869193488,0.983905072865,0.25,0.15,0.0,1.0,0.0,0.0,1.0,2000000000,0,,,0
1449618498889841239,308,1449618498887384306,/odom,doorways,20,0,0,0.207520996421,0.0157264613541,0.0,0.0,0.0,0.17869193488,0.983905072865,0.25,0.15,0.0,1.0,0.0,0.0,1.0,2000000000,0,,,0
1449618498966437751,309,1449618498964118440,/odom,doorways,20,0,0,0.202097876401,0.0137869562461,0.0,0.0,0.0,0.168284193326,0.985738520236,0.25,0.15,0.0,1.0,0.0,0.0,1.0,2000000000,0,,,0
1449618498966441886,310,1449618498964130424,/odom,doorways,20,0,0,0.202097876401,0.0137869562461,0.0,0.0,0.0,0.168284193326,0.985738520236,0.25,0.15,0.0,1.0,0.0,0.0,1.0,2000000000,0,,,0
1449618499078186260,311,1449618499077603573,/odom,doorways,20,0,0,0.202088235837,0.0138158226072,0.0,0.0,0.0,0.147413491427,0.989074952946,0.25,0.15,0.0,1.0,0.0,0.0,1.0,2000000000,0,,,0
1449618499078189853,312,1449618499077773462,/odom,doorways,20,0,0,0.202088235837,0.0138158226072,0.0,0.0,0.0,0.147413491427,0.989074952946,0.25,0.15,0.0,1.0,0.0,0.0,1.0,2000000000,0,,,0
1449618499170528399,313,1449618499169632027,/odom,doorways,20,0,0,0.199324881945,0.0130052151072,0.0,0.0,0.0,0.131716738444,0.99128739567,0.25,0.15,0.0,1.0,0.0,0.0,1.0,2000000000,0,,,0
1449618499170595408,314,1449618499169638999,/odom,doorways,20,0,0,0.199324881945,0.0130052151072,0.0,0.0,0.0,0.131716738444,0.99128739567,0.25,0.15,0.0,1.0,0.0,0.0,1.0,2000000000,0,,,0
1449618499288387903,315,1449618499287961815,/odom,doorways,20,0,0,0.193728056051,0.0116487337469,0.0,0.0,0.0,0.110736931374,0.993849753247,0.25,0.15,0.0,1.0,0.0,0.0,1.0,2000000000,0,,,0
1449618499288392812,317,1449618499287994616,/odom,doorways,20,0,0,0.193728056051,0.0116487337469,0.0,0.0,0.0,0.110736931374,0.993849753247,0.25,0.15,0.0,1.0,0.0,0.0,1.0,2000000000,0,,,0
1449618500708039134,318,1449618500706431060,/odom,doorways,20,0,0,0.182309038736,0.0112242026988,0.0,0.0,0.0,-0.0791774028604,0.996860541338,0.25,0.15,0.0,1.0,0.0,0.0,1.0,2000000000,0,,,0
1449618501495514663,319,1449618501494324850,/odom,doorways,20,0,0,0.18514807771,0.0107395181997,0.0,0.0,0.0,-0.0949690991753,0.995480220899,0.25,0.15,0.0,1.0,0.0,0.0,1.0,2000000000,0,,,0
1449618501717074260,320,1449618501716539137,/odom,doorways,20,0,0,0.18514807771,0.0107395181997,0.0,0.0,0.0,-0.0949690991753,0.995480220899,0.25,0.15,0.0,1.0,0.0,0.0,1.0,2000000000,0,,,0
1449618504906383283,321,1449618504906140791,/odom,doorways,20,0,0,0.266886679321,-0.00636303020417,0.0,0.0,0.0,-0.110736931374,0.993849753247,0.25,0.15,0.0,1.0,0.0,0.0,1.0,2000000000,0,,,0
1449618505348907010,322,1449618505348369411,/odom,doorways,20,0,0,0.372908796096,-0.0334369316858,0.0,0.0,0.0,-0.131716738444,0.99128739567,0.25,0.15,0.0,1.0,0.0,0.0,1.0,2000000000,0,,,0
1449618505348920269,323,1449618505348448674,/odom,doorways,20,0,0,0.372908796096,-0.0334369316858,0.0,0.0,0.0,-0.131716738444,0.99128739567,0.25,0.15,0.0,1.0,0.0,0.0,1.0,2000000000,0,,,0
1449618506179877101,324,1449618506164598809,/odom,doorways,20,0,0,0.618329364681,-0.107204933489,0.0,0.0,0.0,-0.157857657354,0.987461877753,0.25,0.15,0.0,1.0,0.0,0.0,1.0,2000000000,0,,,0
