%time,field.linear.x,field.linear.y,field.linear.z,field.angular.x,field.angular.y,field.angular.z
1449618392359200209,0.0,0.0,0.0,0.0,0.0,0.0
1449618392409289463,0.0,0.0,0.0,0.0,0.0,0.0
1449618392612338388,0.0,0.0,0.0,0.0,0.0,0.0
1449618392757360692,0.0,0.0,0.0,0.0,0.0,0.0
1449618392807631858,0.0,0.0,0.0,0.0,0.0,0.0
1449618392861434223,0.0,0.0,0.0,0.0,0.0,0.0
1449618392961935220,0.0,0.0,0.0,0.0,0.0,0.0
1449618393061992053,0.0,0.0,0.0,0.0,0.0,0.0
1449618393112120628,0.0,0.0,0.0,0.0,0.0,0.0
1449618393312931302,0.0,0.0,0.0,0.0,0.0,0.0
1449618393413155161,0.0,0.0,0.0,0.0,0.0,0.0
1449618393513644133,0.0,0.0,0.0,0.0,0.0,0.0
1449618393613543682,0.0,0.0,0.0,0.0,0.0,0.0
1449618393664062653,0.0,0.0,0.0,0.0,0.0,0.0
1449618393738594940,0.0,0.0,0.0,0.0,0.0,0.0
1449618393793956605,0.0,0.0,0.0,0.0,0.0,0.0
1449618394088668604,0.0,0.0,0.0,0.0,0.0,0.0
1449618394188763830,0.0,0.0,0.0,0.0,0.0,0.0
1449618394238985551,0.0,0.0,0.0,0.0,0.0,0.0
1449618394296821080,0.0,0.0,0.0,0.0,0.0,0.0
1449618394350180359,0.0,0.0,0.0,0.0,0.0,0.0
1449618394485756964,0.352,0.0,0.0,0.0,0.0,-0.147368421053
1449618394537943169,0.352,0.0,0.0,0.0,0.0,-0.147368421053
1449618394606170712,0.352,0.0,0.0,0.0,0.0,-0.147368421053
1449618394663553173,0.352,0.0,0.0,0.0,0.0,-0.147368421053
1449618394733486288,0.352,0.0,0.0,0.0,0.0,-0.147368421053
1449618394796750004,0.352,0.0,0.0,0.0,0.0,-0.147368421053
1449618394870956159,0.352,0.0,0.0,0.0,0.0,-0.147368421053
1449618394965691037,0.352,0.0,0.0,0.0,0.0,-0.147368421053
1449618395016290609,0.352,0.0,0.0,0.0,0.0,-0.147368421053
1449618395061858885,0.352,0.0,0.0,0.0,0.0,-0.147368421053
1449618395195872087,0.352,0.0,0.0,0.0,0.0,-0.147368421053
1449618395283784246,0.352,0.0,0.0,0.0,0.0,-0.147368421053
1449618395377405215,0.352,0.0,0.0,0.0,0.0,-0.147368421053
1449618395496734972,0.352,0.0,0.0,0.0,0.0,-0.147368421053
1449618395601170772,0.352,0.0,0.0,0.0,0.0,-0.147368421053
1449618395698840663,0.352,0.0,0.0,0.0,0.0,-0.147368421053
1449618395761654101,0.352,0.0,0.0,0.0,0.0,-0.147368421053
1449618395855936550,0.352,0.0,0.0,0.0,0.0,-0.147368421053
1449618395992633342,0.352,0.0,0.0,0.0,0.0,-0.147368421053
1449618396069135011,0.352,0.0,0.0,0.0,0.0,-0.147368421053
1449618396187867640,0.352,0.0,0.0,0.0,0.0,-0.147368421053
1449618396247721181,0.352,0.0,0.0,0.0,0.0,-0.147368421053
1449618396357100869,0.352,0.0,0.0,0.0,0.0,-0.147368421053
1449618396450513394,0.352,0.0,0.0,0.0,0.0,-0.147368421053
1449618396495091887,0.352,0.0,0.0,0.0,0.0,-0.105263157895
1449618396596091758,0.352,0.0,0.0,0.0,0.0,-0.105263157895
1449618396689349100,0.352,0.0,0.0,0.0,0.0,-0.105263157895
1449618396829799192,0.352,0.0,0.0,0.0,0.0,-0.147368421053
1449618396886718340,0.352,0.0,0.0,0.0,0.0,-0.147368421053
1449618396932757991,0.352,0.0,0.0,0.0,0.0,-0.147368421053
1449618397009846754,0.352,0.0,0.0,0.0,0.0,-0.147368421053
1449618397121238072,0.352,0.0,0.0,0.0,0.0,-0.147368421053
1449618397219684035,0.352,0.0,0.0,0.0,0.0,-0.147368421053
1449618397310308334,0.352,0.0,0.0,0.0,0.0,-0.105263157895
1449618397448289073,0.352,0.0,0.0,0.0,0.0,-0.105263157895
1449618397579580933,0.352,0.0,0.0,0.0,0.0,-0.105263157895
1449618397643520224,0.352,0.0,0.0,0.0,0.0,-0.105263157895
1449618397753617472,0.352,0.0,0.0,0.0,0.0,-0.105263157895
1449618397908580184,0.352,0.0,0.0,0.0,0.0,-0.105263157895
1449618398018576889,0.352,0.0,0.0,0.0,0.0,-0.105263157895
1449618398158468124,0.352,0.0,0.0,0.0,0.0,-0.105263157895
1449618398231603480,0.352,0.0,0.0,0.0,0.0,-0.105263157895
1449618398369667136,0.352,0.0,0.0,0.0,0.0,-0.105263157895
1449618398453009160,0.352,0.0,0.0,0.0,0.0,-0.105263157895
1449618398551011847,0.352,0.0,0.0,0.0,0.0,-0.105263157895
1449618398681702061,0.352,0.0,0.0,0.0,0.0,-0.105263157895
1449618398786662237,0.352,0.0,0.0,0.0,0.0,-0.105263157895
1449618398903290790,0.352,0.0,0.0,0.0,0.0,-0.105263157895
1449618399054821643,0.352,0.0,0.0,0.0,0.0,-0.105263157895
1449618399145490602,0.352,0.0,0.0,0.0,0.0,-0.105263157895
1449618399280833365,0.352,0.0,0.0,0.0,0.0,-0.105263157895
1449618399329800930,0.352,0.0,0.0,0.0,0.0,-0.147368421053
1449618399405650852,0.352,0.0,0.0,0.0,0.0,-0.147368421053
1449618399493828036,0.352,0.0,0.0,0.0,0.0,-0.105263157895
1449618399606773881,0.352,0.0,0.0,0.0,0.0,-0.105263157895
1449618399697773411,0.352,0.0,0.0,0.0,0.0,-0.105263157895
1449618399802876212,0.352,0.0,0.0,0.0,0.0,-0.105263157895
1449618399876966283,0.352,0.0,0.0,0.0,0.0,-0.105263157895
1449618399999121221,0.352,0.0,0.0,0.0,0.0,-0.147368421053
1449618400057905495,0.352,0.0,0.0,0.0,0.0,-0.147368421053
1449618400154293897,0.352,0.0,0.0,0.0,0.0,-0.105263157895
1449618400213869523,0.352,0.0,0.0,0.0,0.0,-0.105263157895
1449618400287645219,0.352,0.0,0.0,0.0,0.0,-0.105263157895
1449618400371172471,0.352,0.0,0.0,0.0,0.0,-0.105263157895
1449618400465352461,0.352,0.0,0.0,0.0,0.0,-0.105263157895
1449618400536233269,0.352,0.0,0.0,0.0,0.0,-0.105263157895
1449618400653538161,0.352,0.0,0.0,0.0,0.0,-0.105263157895
1449618400743482826,0.352,0.0,0.0,0.0,0.0,-0.105263157895
1449618400864652996,0.352,0.0,0.0,0.0,0.0,-0.147368421053
1449618400951402063,0.352,0.0,0.0,0.0,0.0,-0.147368421053
1449618401095059462,0.352,0.0,0.0,0.0,0.0,-0.147368421053
1449618401223043797,0.352,0.0,0.0,0.0,0.0,-0.105263157895
1449618401269512748,0.352,0.0,0.0,0.0,0.0,-0.105263157895
1449618401380978919,0.352,0.0,0.0,0.0,0.0,-0.105263157895
1449618401439787215,0.352,0.0,0.0,0.0,0.0,-0.147368421053
1449618401544411953,0.352,0.0,0.0,0.0,0.0,-0.147368421053
1449618401635368585,0.352,0.0,0.0,0.0,0.0,-0.147368421053
1449618401758200118,0.352,0.0,0.0,0.0,0.0,-0.147368421053
1449618401848106125,0.352,0.0,0.0,0.0,0.0,-0.105263157895
1449618401939330212,0.352,0.0,0.0,0.0,0.0,-0.105263157895
1449618402018662911,0.352,0.0,0.0,0.0,0.0,-0.105263157895
1449618402070367586,0.352,0.0,0.0,0.0,0.0,-0.105263157895
1449618402136670401,0.352,0.0,0.0,0.0,0.0,-0.105263157895
1449618402243059371,0.352,0.0,0.0,0.0,0.0,-0.105263157895
1449618402377603906,0.352,0.0,0.0,0.0,0.0,-0.105263157895
1449618402465127490,0.352,0.0,0.0,0.0,0.0,-0.105263157895
1449618402618220991,0.352,0.0,0.0,0.0,0.0,-0.105263157895
1449618402708975691,0.352,0.0,0.0,0.0,0.0,0.0631578947368
1449618402804436224,0.352,0.0,0.0,0.0,0.0,0.0631578947368
1449618402909238102,0.352,0.0,0.0,0.0,0.0,-0.105263157895
1449618403036265494,0.352,0.0,0.0,0.0,0.0,-0.105263157895
1449618403138972967,0.352,0.0,0.0,0.0,0.0,-0.105263157895
1449618403221744237,0.352,0.0,0.0,0.0,0.0,-0.105263157895
1449618403303454190,0.352,0.0,0.0,0.0,0.0,-0.105263157895
1449618403359888539,0.352,0.0,0.0,0.0,0.0,-0.105263157895
1449618403409658228,0.352,0.0,0.0,0.0,0.0,-0.105263157895
1449618403502068874,0.352,0.0,0.0,0.0,0.0,-0.105263157895
1449618403638771339,0.352,0.0,0.0,0.0,0.0,-0.105263157895
1449618403735334901,0.352,0.0,0.0,0.0,0.0,-0.105263157895
1449618403862457405,0.352,0.0,0.0,0.0,0.0,-0.105263157895
1449618404009062789,0.352,0.0,0.0,0.0,0.0,-0.105263157895
1449618404107449101,0.352,0.0,0.0,0.0,0.0,-0.105263157895
1449618404186148157,0.352,0.0,0.0,0.0,0.0,-0.105263157895
1449618404831775472,0.352,0.0,0.0,0.0,0.0,-0.105263157895
1449618404960317926,0.352,0.0,0.0,0.0,0.0,-0.105263157895
1449618405041816554,0.352,0.0,0.0,0.0,0.0,-0.105263157895
1449618405133395066,0.352,0.0,0.0,0.0,0.0,-0.105263157895
1449618405209409362,0.352,0.0,0.0,0.0,0.0,-0.105263157895
1449618405325185059,0.352,0.0,0.0,0.0,0.0,-0.105263157895
1449618405430108547,0.352,0.0,0.0,0.0,0.0,-0.105263157895
1449618405554045293,0.352,0.0,0.0,0.0,0.0,-0.105263157895
1449618405625107521,0.352,0.0,0.0,0.0,0.0,-0.105263157895
1449618405693067416,0.352,0.0,0.0,0.0,0.0,-0.105263157895
1449618405806475990,0.352,0.0,0.0,0.0,0.0,-0.105263157895
1449618405864190335,0.352,0.0,0.0,0.0,0.0,-0.105263157895
1449618405959176148,0.352,0.0,0.0,0.0,0.0,-0.105263157895
1449618406090457152,0.352,0.0,0.0,0.0,0.0,-0.105263157895
1449618406175640011,0.352,0.0,0.0,0.0,0.0,-0.105263157895
1449618406297411795,0.352,0.0,0.0,0.0,0.0,-0.105263157895
1449618406448988446,0.352,0.0,0.0,0.0,0.0,-0.105263157895
1449618406501633240,0.352,0.0,0.0,0.0,0.0,-0.105263157895
1449618406589773133,0.352,0.0,0.0,0.0,0.0,-0.105263157895
1449618406718979925,0.352,0.0,0.0,0.0,0.0,-0.105263157895
1449618406833313264,0.352,0.0,0.0,0.0,0.0,-0.105263157895
1449618406892043868,0.352,0.0,0.0,0.0,0.0,-0.105263157895
1449618407041980110,0.352,0.0,0.0,0.0,0.0,-0.105263157895
1449618407100325234,0.352,0.0,0.0,0.0,0.0,-0.105263157895
1449618407237055726,0.352,0.0,0.0,0.0,0.0,-0.105263157895
1449618407334560062,0.352,0.0,0.0,0.0,0.0,-0.105263157895
1449618407465620901,0.352,0.0,0.0,0.0,0.0,-0.105263157895
1449618407564913930,0.352,0.0,0.0,0.0,0.0,-0.105263157895
1449618407656945476,0.352,0.0,0.0,0.0,0.0,-0.105263157895
1449618407764695681,0.352,0.0,0.0,0.0,0.0,-0.105263157895
1449618407855018689,0.352,0.0,0.0,0.0,0.0,-0.105263157895
1449618407938583763,0.352,0.0,0.0,0.0,0.0,-0.105263157895
1449618408028071642,0.352,0.0,0.0,0.0,0.0,-0.105263157895
1449618408097501234,0.352,0.0,0.0,0.0,0.0,-0.105263157895
1449618408241964201,0.352,0.0,0.0,0.0,0.0,-0.105263157895
1449618408349379926,0.352,0.0,0.0,0.0,0.0,-0.105263157895
1449618408427182458,0.352,0.0,0.0,0.0,0.0,-0.105263157895
1449618408491873072,0.352,0.0,0.0,0.0,0.0,-0.105263157895
1449618408570492264,0.352,0.0,0.0,0.0,0.0,-0.105263157895
1449618408630478270,0.352,0.0,0.0,0.0,0.0,-0.105263157895
1449618408729671302,0.352,0.0,0.0,0.0,0.0,-0.105263157895
1449618408807687238,0.352,0.0,0.0,0.0,0.0,-0.105263157895
1449618408944084996,0.352,0.0,0.0,0.0,0.0,-0.105263157895
1449618409015837649,0.352,0.0,0.0,0.0,0.0,-0.105263157895
1449618409186040654,0.352,0.0,0.0,0.0,0.0,-0.105263157895
1449618409283828034,0.352,0.0,0.0,0.0,0.0,-0.105263157895
1449618409418748254,0.352,0.0,0.0,0.0,0.0,-0.105263157895
1449618409487501368,0.352,0.0,0.0,0.0,0.0,-0.105263157895
1449618409564307904,0.352,0.0,0.0,0.0,0.0,-0.105263157895
1449618409659814804,0.352,0.0,0.0,0.0,0.0,-0.105263157895
1449618409744728916,0.352,0.0,0.0,0.0,0.0,-0.105263157895
1449618409881162780,0.352,0.0,0.0,0.0,0.0,-0.105263157895
1449618410005482036,0.352,0.0,0.0,0.0,0.0,-0.105263157895
1449618410080530956,0.352,0.0,0.0,0.0,0.0,-0.105263157895
1449618410149247349,0.352,0.0,0.0,0.0,0.0,-0.105263157895
1449618410250988888,0.352,0.0,0.0,0.0,0.0,-0.105263157895
1449618410351850151,0.352,0.0,0.0,0.0,0.0,-0.105263157895
1449618410464448778,0.352,0.0,0.0,0.0,0.0,-0.105263157895
1449618410533858188,0.352,0.0,0.0,0.0,0.0,-0.105263157895
1449618410594326353,0.352,0.0,0.0,0.0,0.0,-0.105263157895
1449618410655629473,0.352,0.0,0.0,0.0,0.0,-0.105263157895
1449618410743192591,0.352,0.0,0.0,0.0,0.0,-0.105263157895
1449618410807269349,0.352,0.0,0.0,0.0,0.0,-0.105263157895
1449618410873883153,0.352,0.0,0.0,0.0,0.0,-0.105263157895
1449618410962222372,0.352,0.0,0.0,0.0,0.0,-0.105263157895
1449618411027709352,0.352,0.0,0.0,0.0,0.0,-0.105263157895
1449618411102237974,0.352,0.0,0.0,0.0,0.0,-0.105263157895
1449618411217288336,0.352,0.0,0.0,0.0,0.0,-0.105263157895
1449618411285717128,0.352,0.0,0.0,0.0,0.0,-0.105263157895
1449618411433489453,0.352,0.0,0.0,0.0,0.0,-0.105263157895
1449618411564695996,0.352,0.0,0.0,0.0,0.0,-0.105263157895
1449618411679437104,0.352,0.0,0.0,0.0,0.0,-0.105263157895
1449618411789130797,0.352,0.0,0.0,0.0,0.0,-0.105263157895
1449618411881486809,0.352,0.0,0.0,0.0,0.0,-0.105263157895
1449618411993754743,0.352,0.0,0.0,0.0,0.0,-0.105263157895
1449618412109899159,0.352,0.0,0.0,0.0,0.0,-0.105263157895
1449618412234770190,0.352,0.0,0.0,0.0,0.0,-0.105263157895
1449618412356169974,0.352,0.0,0.0,0.0,0.0,-0.105263157895
1449618412416039404,0.352,0.0,0.0,0.0,0.0,-0.105263157895
1449618412462668481,0.352,0.0,0.0,0.0,0.0,-0.105263157895
1449618412566492172,0.352,0.0,0.0,0.0,0.0,-0.105263157895
1449618412630562982,0.352,0.0,0.0,0.0,0.0,-0.105263157895
1449618412781649404,0.352,0.0,0.0,0.0,0.0,-0.105263157895
1449618412872886426,0.352,0.0,0.0,0.0,0.0,-0.105263157895
1449618412990188626,0.352,0.0,0.0,0.0,0.0,-0.105263157895
1449618413125478045,0.352,0.0,0.0,0.0,0.0,-0.105263157895
1449618413199072878,0.352,0.0,0.0,0.0,0.0,-0.105263157895
1449618413296833319,0.352,0.0,0.0,0.0,0.0,-0.105263157895
1449618413377544036,0.352,0.0,0.0,0.0,0.0,-0.105263157895
1449618413430890571,0.352,0.0,0.0,0.0,0.0,-0.105263157895
1449618413473958942,0.352,0.0,0.0,0.0,0.0,-0.105263157895
1449618413560640674,0.352,0.0,0.0,0.0,0.0,-0.105263157895
1449618413626401777,0.352,0.0,0.0,0.0,0.0,-0.105263157895
1449618413723304868,0.352,0.0,0.0,0.0,0.0,-0.105263157895
1449618413801744311,0.352,0.0,0.0,0.0,0.0,-0.105263157895
1449618413864261191,0.352,0.0,0.0,0.0,0.0,-0.105263157895
1449618413953604780,0.352,0.0,0.0,0.0,0.0,-0.105263157895
1449618414053747610,0.352,0.0,0.0,0.0,0.0,-0.105263157895
1449618414143348916,0.352,0.0,0.0,0.0,0.0,-0.105263157895
1449618414208632532,0.352,0.0,0.0,0.0,0.0,-0.105263157895
1449618414285965805,0.352,0.0,0.0,0.0,0.0,-0.105263157895
1449618414392249517,0.352,0.0,0.0,0.0,0.0,-0.105263157895
1449618414531806709,0.352,0.0,0.0,0.0,0.0,-0.105263157895
1449618414609195139,0.352,0.0,0.0,0.0,0.0,-0.105263157895
1449618414690221507,0.352,0.0,0.0,0.0,0.0,-0.105263157895
1449618414799594095,0.352,0.0,0.0,0.0,0.0,-0.105263157895
1449618414894789736,0.352,0.0,0.0,0.0,0.0,-0.105263157895
1449618414997072933,0.352,0.0,0.0,0.0,0.0,-0.105263157895
1449618415176647388,0.352,0.0,0.0,0.0,0.0,-0.105263157895
1449618415343906214,0.352,0.0,0.0,0.0,0.0,-0.105263157895
1449618415421639483,0.352,0.0,0.0,0.0,0.0,-0.105263157895
1449618415492007189,0.352,0.0,0.0,0.0,0.0,-0.105263157895
1449618415601140336,0.352,0.0,0.0,0.0,0.0,-0.105263157895
1449618415755604213,0.352,0.0,0.0,0.0,0.0,-0.105263157895
1449618415888635620,0.352,0.0,0.0,0.0,0.0,-0.105263157895
1449618416073193249,0.352,0.0,0.0,0.0,0.0,-0.105263157895
1449618416182846415,0.352,0.0,0.0,0.0,0.0,-0.105263157895
1449618416273160655,0.352,0.0,0.0,0.0,0.0,-0.105263157895
1449618416428576032,0.352,0.0,0.0,0.0,0.0,-0.105263157895
1449618416586405977,0.352,0.0,0.0,0.0,0.0,-0.105263157895
1449618416672446155,0.352,0.0,0.0,0.0,0.0,-0.105263157895
1449618416756701861,0.352,0.0,0.0,0.0,0.0,-0.105263157895
1449618416801417435,0.352,0.0,0.0,0.0,0.0,-0.105263157895
1449618416872885817,0.352,0.0,0.0,0.0,0.0,-0.147368421053
1449618416996365207,0.352,0.0,0.0,0.0,0.0,-0.147368421053
1449618417162170835,0.352,0.0,0.0,0.0,0.0,-0.105263157895
1449618417248707063,0.352,0.0,0.0,0.0,0.0,-0.147368421053
1449618417406011526,0.352,0.0,0.0,0.0,0.0,-0.105263157895
1449618417527908611,0.352,0.0,0.0,0.0,0.0,-0.147368421053
1449618417597919265,0.352,0.0,0.0,0.0,0.0,-0.105263157895
1449618417668512494,0.352,0.0,0.0,0.0,0.0,-0.189473684211
1449618417784089775,0.352,0.0,0.0,0.0,0.0,-0.147368421053
1449618417885491785,0.352,0.0,0.0,0.0,0.0,-0.147368421053
1449618418014596400,0.352,0.0,0.0,0.0,0.0,-0.189473684211
1449618418098070342,0.352,0.0,0.0,0.0,0.0,-0.147368421053
1449618418199601476,0.352,0.0,0.0,0.0,0.0,-0.147368421053
1449618418290206607,0.352,0.0,0.0,0.0,0.0,-0.147368421053
1449618418357653539,0.352,0.0,0.0,0.0,0.0,-0.147368421053
1449618418422519295,0.352,0.0,0.0,0.0,0.0,-0.147368421053
1449618418527969210,0.352,0.0,0.0,0.0,0.0,-0.147368421053
1449618418608385592,0.352,0.0,0.0,0.0,0.0,-0.147368421053
1449618418716777916,0.352,0.0,0.0,0.0,0.0,-0.147368421053
1449618418824980443,0.352,0.0,0.0,0.0,0.0,-0.147368421053
1449618418937429162,0.352,0.0,0.0,0.0,0.0,-0.147368421053
1449618419043592811,0.352,0.0,0.0,0.0,0.0,-0.147368421053
1449618419124048397,0.352,0.0,0.0,0.0,0.0,-0.147368421053
1449618419242995309,0.352,0.0,0.0,0.0,0.0,-0.147368421053
1449618419331822885,0.352,0.0,0.0,0.0,0.0,-0.189473684211
1449618419394014554,0.352,0.0,0.0,0.0,0.0,-0.147368421053
1449618419479086009,0.352,0.0,0.0,0.0,0.0,-0.147368421053
1449618419545703615,0.352,0.0,0.0,0.0,0.0,-0.147368421053
1449618419644285937,0.352,0.0,0.0,0.0,0.0,-0.147368421053
1449618419733184562,0.352,0.0,0.0,0.0,0.0,-0.147368421053
1449618419846398397,0.352,0.0,0.0,0.0,0.0,-0.147368421053
1449618419984258290,0.352,0.0,0.0,0.0,0.0,-0.147368421053
1449618420064461426,0.352,0.0,0.0,0.0,0.0,-0.147368421053
1449618420168761526,0.352,0.0,0.0,0.0,0.0,-0.147368421053
1449618420265787597,0.352,0.0,0.0,0.0,0.0,-0.147368421053
1449618420357616395,0.352,0.0,0.0,0.0,0.0,-0.147368421053
1449618420468008443,0.352,0.0,0.0,0.0,0.0,-0.147368421053
1449618420671760840,0.352,0.0,0.0,0.0,0.0,-0.147368421053
1449618420757144737,0.352,0.0,0.0,0.0,0.0,-0.147368421053
1449618420857324005,0.352,0.0,0.0,0.0,0.0,-0.147368421053
1449618420933644339,0.352,0.0,0.0,0.0,0.0,-0.147368421053
1449618421006541814,0.352,0.0,0.0,0.0,0.0,-0.189473684211
1449618421073846377,0.352,0.0,0.0,0.0,0.0,-0.147368421053
1449618421215733750,0.352,0.0,0.0,0.0,0.0,-0.147368421053
1449618421372932860,0.352,0.0,0.0,0.0,0.0,-0.189473684211
1449618421517243082,0.352,0.0,0.0,0.0,0.0,-0.189473684211
1449618421675529658,0.352,0.0,0.0,0.0,0.0,-0.189473684211
1449618421789861116,0.352,0.0,0.0,0.0,0.0,-0.189473684211
1449618421888860148,0.352,0.0,0.0,0.0,0.0,-0.189473684211
1449618421995515099,0.352,0.0,0.0,0.0,0.0,-0.189473684211
1449618422099031275,0.352,0.0,0.0,0.0,0.0,-0.231578947368
1449618422174390871,0.352,0.0,0.0,0.0,0.0,-0.231578947368
1449618422253786576,0.352,0.0,0.0,0.0,0.0,-0.231578947368
1449618422372412219,0.352,0.0,0.0,0.0,0.0,-0.231578947368
1449618422454722108,0.352,0.0,0.0,0.0,0.0,-0.231578947368
1449618422533771985,0.352,0.0,0.0,0.0,0.0,-0.231578947368
1449618422649483339,0.352,0.0,0.0,0.0,0.0,-0.273684210526
1449618422815737122,0.352,0.0,0.0,0.0,0.0,-0.231578947368
1449618422889348274,0.352,0.0,0.0,0.0,0.0,-0.231578947368
1449618422997881991,0.352,0.0,0.0,0.0,0.0,-0.273684210526
1449618423067817323,0.352,0.0,0.0,0.0,0.0,-0.273684210526
1449618423138062742,0.352,0.0,0.0,0.0,0.0,-0.273684210526
1449618423221605320,0.352,0.0,0.0,0.0,0.0,-0.273684210526
1449618423285820726,0.352,0.0,0.0,0.0,0.0,-0.231578947368
1449618423379780302,0.352,0.0,0.0,0.0,0.0,-0.231578947368
1449618423462272742,0.352,0.0,0.0,0.0,0.0,-0.231578947368
1449618423521644599,0.352,0.0,0.0,0.0,0.0,-0.231578947368
1449618423573748367,0.352,0.0,0.0,0.0,0.0,-0.231578947368
1449618423708539257,0.352,0.0,0.0,0.0,0.0,-0.231578947368
1449618423848062254,0.352,0.0,0.0,0.0,0.0,-0.231578947368
1449618424007641106,0.352,0.0,0.0,0.0,0.0,-0.231578947368
1449618424103214388,0.352,0.0,0.0,0.0,0.0,-0.273684210526
1449618424260077565,0.352,0.0,0.0,0.0,0.0,-0.273684210526
1449618424305619094,0.352,0.0,0.0,0.0,0.0,-0.273684210526
1449618424454001632,0.352,0.0,0.0,0.0,0.0,-0.273684210526
1449618424585731760,0.3056,0.0,0.0,0.0,0.0,-0.273684210526
1449618424690974136,0.3056,0.0,0.0,0.0,0.0,-0.315789473684
1449618424773504901,0.3056,0.0,0.0,0.0,0.0,-0.357894736842
1449618424848518459,0.3056,0.0,0.0,0.0,0.0,-0.357894736842
1449618424887424936,0.3056,0.0,0.0,0.0,0.0,-0.357894736842
1449618424960513317,0.3056,0.0,0.0,0.0,0.0,-0.4
1449618425053609055,0.3056,0.0,0.0,0.0,0.0,-0.357894736842
1449618425150623459,0.2592,0.0,0.0,0.0,0.0,-0.357894736842
1449618425270714289,0.2592,0.0,0.0,0.0,0.0,-0.4
1449618425334507990,0.2592,0.0,0.0,0.0,0.0,-0.4
1449618425398009896,0.2128,0.0,0.0,0.0,0.0,-0.4
1449618425445652989,0.2128,0.0,0.0,0.0,0.0,-0.357894736842
1449618425521377421,0.2128,0.0,0.0,0.0,0.0,-0.4
1449618425602250224,0.12,0.0,0.0,0.0,0.0,-0.357894736842
1449618425675008696,0.12,0.0,0.0,0.0,0.0,-0.357894736842
1449618425742397804,0.12,0.0,0.0,0.0,0.0,-0.357894736842
1449618425822030795,0.12,0.0,0.0,0.0,0.0,-0.357894736842
1449618425908384971,0.12,0.0,0.0,0.0,0.0,-0.357894736842
1449618426019136556,0.12,0.0,0.0,0.0,0.0,-0.315789473684
1449618426102631269,0.12,0.0,0.0,0.0,0.0,-0.357894736842
1449618426157672659,0.12,0.0,0.0,0.0,0.0,-0.357894736842
1449618426239079811,0.12,0.0,0.0,0.0,0.0,-0.357894736842
1449618426295593654,0.0,0.0,0.0,0.0,0.0,-0.357894736842
1449618426415372427,0.0,0.0,0.0,0.0,0.0,-0.357894736842
1449618426468694678,0.0,0.0,0.0,0.0,0.0,-0.357894736842
1449618426562190055,0.12,0.0,0.0,0.0,0.0,-0.315789473684
1449618426608568709,0.12,0.0,0.0,0.0,0.0,-0.315789473684
1449618426656487963,0.1664,0.0,0.0,0.0,0.0,-0.4
1449618426719246341,0.1664,0.0,0.0,0.0,0.0,-0.4
1449618426793216365,0.12,0.0,0.0,0.0,0.0,-0.357894736842
1449618426831113240,0.12,0.0,0.0,0.0,0.0,-0.357894736842
1449618426881104648,0.12,0.0,0.0,0.0,0.0,-0.357894736842
1449618426954950425,0.12,0.0,0.0,0.0,0.0,-0.4
1449618427006626501,0.12,0.0,0.0,0.0,0.0,-0.4
1449618427076213475,0.1664,0.0,0.0,0.0,0.0,-0.357894736842
1449618427173340438,0.1664,0.0,0.0,0.0,0.0,-0.357894736842
1449618427236832479,0.1664,0.0,0.0,0.0,0.0,-0.357894736842
1449618427383281413,0.1664,0.0,0.0,0.0,0.0,-0.4
1449618427464142578,0.1664,0.0,0.0,0.0,0.0,-0.4
1449618427577721876,0.1664,0.0,0.0,0.0,0.0,-0.4
1449618427629790590,0.1664,0.0,0.0,0.0,0.0,-0.4
1449618427690150903,0.1664,0.0,0.0,0.0,0.0,-0.357894736842
1449618427787703649,0.1664,0.0,0.0,0.0,0.0,-0.357894736842
1449618427849856054,0.1664,0.0,0.0,0.0,0.0,-0.357894736842
1449618427949881964,0.1664,0.0,0.0,0.0,0.0,-0.357894736842
1449618428046350799,0.1664,0.0,0.0,0.0,0.0,-0.357894736842
1449618428131835969,0.1664,0.0,0.0,0.0,0.0,-0.357894736842
1449618428224879956,0.1664,0.0,0.0,0.0,0.0,-0.357894736842
1449618428288471816,0.1664,0.0,0.0,0.0,0.0,-0.357894736842
1449618428369956039,0.1664,0.0,0.0,0.0,0.0,-0.357894736842
1449618428471911662,0.1664,0.0,0.0,0.0,0.0,-0.357894736842
1449618428607169372,0.1664,0.0,0.0,0.0,0.0,-0.4
1449618428699680470,0.1664,0.0,0.0,0.0,0.0,-0.4
1449618428799168985,0.1664,0.0,0.0,0.0,0.0,-0.4
1449618428897939909,0.1664,0.0,0.0,0.0,0.0,-0.4
1449618428980501087,0.1664,0.0,0.0,0.0,0.0,-0.4
1449618429069725961,0.1664,0.0,0.0,0.0,0.0,-0.4
1449618429174252664,0.1664,0.0,0.0,0.0,0.0,-0.4
1449618429220614697,0.1664,0.0,0.0,0.0,0.0,-0.4
1449618429250126737,0.1664,0.0,0.0,0.0,0.0,-0.4
1449618429312374969,0.1664,0.0,0.0,0.0,0.0,-0.4
1449618429356816870,0.1664,0.0,0.0,0.0,0.0,-0.4
1449618429473791941,0.1664,0.0,0.0,0.0,0.0,-0.4
1449618429535435514,0.1664,0.0,0.0,0.0,0.0,-0.4
1449618429620935813,0.1664,0.0,0.0,0.0,0.0,-0.4
1449618429668063869,0.1664,0.0,0.0,0.0,0.0,-0.4
1449618429773992554,0.1664,0.0,0.0,0.0,0.0,-0.4
1449618429885075517,0.1664,0.0,0.0,0.0,0.0,-0.4
1449618430014922235,0.1664,0.0,0.0,0.0,0.0,-0.4
1449618430126803355,0.1664,0.0,0.0,0.0,0.0,-0.4
1449618430200803483,0.2128,0.0,0.0,0.0,0.0,-0.357894736842
1449618430286520860,0.2128,0.0,0.0,0.0,0.0,-0.357894736842
1449618430433997997,0.2128,0.0,0.0,0.0,0.0,-0.357894736842
1449618430497317592,0.2128,0.0,0.0,0.0,0.0,-0.4
1449618430612239574,0.2128,0.0,0.0,0.0,0.0,-0.4
1449618430712879555,0.2128,0.0,0.0,0.0,0.0,-0.4
1449618430801255831,0.2592,0.0,0.0,0.0,0.0,-0.4
1449618430907726839,0.2592,0.0,0.0,0.0,0.0,-0.357894736842
1449618431016722820,0.2592,0.0,0.0,0.0,0.0,-0.357894736842
1449618431103131191,0.2592,0.0,0.0,0.0,0.0,-0.357894736842
1449618431197636288,0.2592,0.0,0.0,0.0,0.0,-0.357894736842
1449618431366496724,0.3056,0.0,0.0,0.0,0.0,-0.357894736842
1449618431441912435,0.3056,0.0,0.0,0.0,0.0,-0.357894736842
1449618431533740644,0.3056,0.0,0.0,0.0,0.0,-0.357894736842
1449618431597033334,0.3056,0.0,0.0,0.0,0.0,-0.315789473684
1449618431680274819,0.3056,0.0,0.0,0.0,0.0,-0.315789473684
1449618431754871658,0.3056,0.0,0.0,0.0,0.0,-0.315789473684
1449618431895917968,0.352,0.0,0.0,0.0,0.0,-0.357894736842
1449618432010784944,0.352,0.0,0.0,0.0,0.0,-0.357894736842
1449618432093291755,0.352,0.0,0.0,0.0,0.0,-0.357894736842
1449618432220075127,0.3056,0.0,0.0,0.0,0.0,-0.315789473684
1449618432331434143,0.3056,0.0,0.0,0.0,0.0,-0.315789473684
1449618432399763982,0.3056,0.0,0.0,0.0,0.0,-0.315789473684
1449618433558719360,0.0,0.0,0.0,0.0,0.0,0.0
1449618433656349365,0.1664,0.0,0.0,0.0,0.0,0.357894736842
1449618433749805581,0.1664,0.0,0.0,0.0,0.0,0.357894736842
1449618433853712533,0.1664,0.0,0.0,0.0,0.0,0.357894736842
1449618433923945607,0.2128,0.0,0.0,0.0,0.0,0.357894736842
1449618434077647485,0.2128,0.0,0.0,0.0,0.0,0.357894736842
1449618434126348361,0.2128,0.0,0.0,0.0,0.0,0.357894736842
1449618434237652308,0.2592,0.0,0.0,0.0,0.0,0.357894736842
1449618434275906077,0.2592,0.0,0.0,0.0,0.0,0.357894736842
1449618434420584260,0.2592,0.0,0.0,0.0,0.0,0.357894736842
1449618434529101427,0.3056,0.0,0.0,0.0,0.0,0.357894736842
1449618434585567504,0.3056,0.0,0.0,0.0,0.0,0.357894736842
1449618434634013034,0.3056,0.0,0.0,0.0,0.0,0.357894736842
1449618434716560895,0.3056,0.0,0.0,0.0,0.0,0.357894736842
1449618434792055955,0.3056,0.0,0.0,0.0,0.0,0.357894736842
1449618434846100034,0.352,0.0,0.0,0.0,0.0,0.357894736842
1449618434920413904,0.352,0.0,0.0,0.0,0.0,0.357894736842
1449618434994010570,0.352,0.0,0.0,0.0,0.0,0.357894736842
1449618435042620264,0.352,0.0,0.0,0.0,0.0,0.357894736842
1449618435137909194,0.352,0.0,0.0,0.0,0.0,0.357894736842
1449618435234823696,0.352,0.0,0.0,0.0,0.0,0.357894736842
1449618435322081270,0.352,0.0,0.0,0.0,0.0,0.357894736842
1449618435483743810,0.352,0.0,0.0,0.0,0.0,0.357894736842
1449618435533909184,0.352,0.0,0.0,0.0,0.0,0.357894736842
1449618435658090216,0.352,0.0,0.0,0.0,0.0,0.357894736842
1449618435796490522,0.352,0.0,0.0,0.0,0.0,0.357894736842
1449618435889738715,0.352,0.0,0.0,0.0,0.0,0.357894736842
1449618436033972611,0.1664,0.0,0.0,0.0,0.0,0.357894736842
1449618436146374803,0.2128,0.0,0.0,0.0,0.0,0.357894736842
1449618436228243241,0.2128,0.0,0.0,0.0,0.0,0.357894736842
1449618436298063365,0.352,0.0,0.0,0.0,0.0,0.357894736842
1449618436402039610,0.352,0.0,0.0,0.0,0.0,0.357894736842
1449618436546841320,0.352,0.0,0.0,0.0,0.0,0.357894736842
1449618436640364752,0.352,0.0,0.0,0.0,0.0,0.357894736842
1449618436751468510,0.352,0.0,0.0,0.0,0.0,0.357894736842
1449618436824210672,0.352,0.0,0.0,0.0,0.0,0.357894736842
1449618436878867183,0.352,0.0,0.0,0.0,0.0,0.357894736842
1449618436986937125,0.352,0.0,0.0,0.0,0.0,0.357894736842
1449618437064221554,0.352,0.0,0.0,0.0,0.0,0.357894736842
1449618437152243754,0.352,0.0,0.0,0.0,0.0,0.357894736842
1449618437202145518,0.352,0.0,0.0,0.0,0.0,0.357894736842
1449618437292634422,0.352,0.0,0.0,0.0,0.0,0.357894736842
1449618437356719557,0.352,0.0,0.0,0.0,0.0,0.357894736842
1449618437438206911,0.352,0.0,0.0,0.0,0.0,0.357894736842
1449618437524946528,0.352,0.0,0.0,0.0,0.0,0.357894736842
1449618437620317093,0.352,0.0,0.0,0.0,0.0,0.357894736842
1449618437715105355,0.352,0.0,0.0,0.0,0.0,0.357894736842
1449618437759408133,0.352,0.0,0.0,0.0,0.0,0.357894736842
1449618437835772815,0.2592,0.0,0.0,0.0,0.0,-0.147368421053
1449618437922233841,0.2592,0.0,0.0,0.0,0.0,-0.147368421053
1449618438061296560,0.2592,0.0,0.0,0.0,0.0,-0.147368421053
1449618438135172654,0.2592,0.0,0.0,0.0,0.0,-0.147368421053
1449618438238189211,0.2592,0.0,0.0,0.0,0.0,-0.147368421053
1449618438305996794,0.2592,0.0,0.0,0.0,0.0,-0.147368421053
1449618438393246324,0.2592,0.0,0.0,0.0,0.0,-0.147368421053
1449618438445430949,0.352,0.0,0.0,0.0,0.0,0.357894736842
1449618438577797389,0.352,0.0,0.0,0.0,0.0,0.357894736842
1449618438651331829,0.352,0.0,0.0,0.0,0.0,0.357894736842
1449618438778773157,0.352,0.0,0.0,0.0,0.0,0.357894736842
1449618438877370859,0.352,0.0,0.0,0.0,0.0,0.357894736842
1449618438986298079,0.352,0.0,0.0,0.0,0.0,0.357894736842
1449618439031869564,0.0,0.0,0.0,0.0,0.0,0.0
1449618439214169859,0.12,0.0,0.0,0.0,0.0,0.0
1449618439279215235,0.12,0.0,0.0,0.0,0.0,0.0
1449618439361891820,0.12,0.0,0.0,0.0,0.0,0.0
1449618439421671010,0.12,0.0,0.0,0.0,0.0,0.0
1449618439474218920,0.12,0.0,0.0,0.0,0.0,0.0
1449618439558336404,0.12,0.0,0.0,0.0,0.0,0.0
1449618439636093929,0.12,0.0,0.0,0.0,0.0,0.0
1449618439709280804,0.12,0.0,0.0,0.0,0.0,0.0
1449618439796872538,0.12,0.0,0.0,0.0,0.0,0.0
1449618439853855676,0.12,0.0,0.0,0.0,0.0,0.0
1449618439963445823,0.12,0.0,0.0,0.0,0.0,0.0
1449618440040704557,0.12,0.0,0.0,0.0,0.0,0.0
1449618440109939309,0.12,0.0,0.0,0.0,0.0,0.0
1449618440168481182,0.12,0.0,0.0,0.0,0.0,0.0
1449618440245932653,0.12,0.0,0.0,0.0,0.0,0.0
1449618440317642338,0.0,0.0,0.0,0.0,0.0,-0.315789473684
1449618440434993862,0.0,0.0,0.0,0.0,0.0,-0.315789473684
1449618440434997769,0.0,0.0,0.0,0.0,0.0,-0.315789473684
1449618440560262911,0.0,0.0,0.0,0.0,0.0,-0.315789473684
1449618440662917083,0.0,0.0,0.0,0.0,0.0,-0.357894736842
1449618440750880430,0.0,0.0,0.0,0.0,0.0,-0.357894736842
1449618440870658360,0.0,0.0,0.0,0.0,0.0,-0.357894736842
1449618440959815536,0.0,0.0,0.0,0.0,0.0,-0.357894736842
1449618441075105709,0.0,0.0,0.0,0.0,0.0,-0.4
1449618441079474029,0.0,0.0,0.0,0.0,0.0,0.0
1449618441129733341,0.0,0.0,0.0,0.0,0.0,0.0
1449618446838612411,0.162671420633,0.0,0.0,0.0,0.0,0.0
1449618446906919482,0.162671420633,0.0,0.0,0.0,0.0,0.0
1449618447044262408,0.214399309278,0.0,0.0,0.0,0.0,0.0210526315789
1449618447136525232,0.214399309278,0.0,0.0,0.0,0.0,0.0210526315789
1449618447262250491,0.214399309278,0.0,0.0,0.0,0.0,0.0210526315789
1449618447302937984,0.214399309278,0.0,0.0,0.0,0.0,0.0210526315789
1449618447410108613,0.214399309278,0.0,0.0,0.0,0.0,0.0210526315789
1449618447562965354,0.12,0.0,0.0,0.0,0.0,0.0
1449618447597609504,0.12,0.0,0.0,0.0,0.0,0.0
1449618447675188059,0.12,0.0,0.0,0.0,0.0,0.0
1449618447762669018,0.12,0.0,0.0,0.0,0.0,0.0
1449618447923535008,0.352,0.0,0.0,0.0,0.0,-0.189473684211
1449618448007454206,0.352,0.0,0.0,0.0,0.0,-0.189473684211
1449618448108125803,0.352,0.0,0.0,0.0,0.0,-0.189473684211
1449618448154956547,0.352,0.0,0.0,0.0,0.0,-0.189473684211
1449618448208921488,0.352,0.0,0.0,0.0,0.0,-0.189473684211
1449618448279171365,0.352,0.0,0.0,0.0,0.0,-0.189473684211
1449618448378678890,0.352,0.0,0.0,0.0,0.0,-0.189473684211
1449618448481360814,0.352,0.0,0.0,0.0,0.0,-0.189473684211
1449618448561266128,0.352,0.0,0.0,0.0,0.0,-0.189473684211
1449618448630423547,0.352,0.0,0.0,0.0,0.0,-0.189473684211
1449618448730264215,0.352,0.0,0.0,0.0,0.0,-0.189473684211
1449618448832917863,0.352,0.0,0.0,0.0,0.0,-0.189473684211
1449618448892744442,0.352,0.0,0.0,0.0,0.0,-0.189473684211
1449618449007260682,0.352,0.0,0.0,0.0,0.0,-0.189473684211
1449618449158762880,0.352,0.0,0.0,0.0,0.0,-0.189473684211
1449618449214888030,0.352,0.0,0.0,0.0,0.0,-0.189473684211
1449618449280691087,0.352,0.0,0.0,0.0,0.0,-0.189473684211
1449618449338174271,0.352,0.0,0.0,0.0,0.0,-0.189473684211
1449618449458152049,0.352,0.0,0.0,0.0,0.0,-0.189473684211
1449618449587477259,0.352,0.0,0.0,0.0,0.0,-0.189473684211
1449618449662884042,0.352,0.0,0.0,0.0,0.0,-0.189473684211
1449618449775000256,0.352,0.0,0.0,0.0,0.0,-0.189473684211
1449618449874034914,0.352,0.0,0.0,0.0,0.0,-0.189473684211
1449618450015472479,0.352,0.0,0.0,0.0,0.0,-0.231578947368
1449618450099790485,0.352,0.0,0.0,0.0,0.0,-0.231578947368
1449618450334046741,0.352,0.0,0.0,0.0,0.0,-0.231578947368
1449618450418358863,0.352,0.0,0.0,0.0,0.0,-0.231578947368
1449618450627512407,0.352,0.0,0.0,0.0,0.0,-0.189473684211
1449618450731563048,0.352,0.0,0.0,0.0,0.0,-0.147368421053
1449618450852598778,0.352,0.0,0.0,0.0,0.0,-0.189473684211
1449618451013934420,0.352,0.0,0.0,0.0,0.0,-0.189473684211
1449618451150271859,0.352,0.0,0.0,0.0,0.0,-0.189473684211
1449618451313867304,0.352,0.0,0.0,0.0,0.0,-0.189473684211
1449618451391380516,0.3056,0.0,0.0,0.0,0.0,-0.147368421053
1449618451517224506,0.3056,0.0,0.0,0.0,0.0,-0.189473684211
1449618451571190081,0.3056,0.0,0.0,0.0,0.0,-0.189473684211
1449618451649412640,0.3056,0.0,0.0,0.0,0.0,-0.189473684211
1449618451721542797,0.3056,0.0,0.0,0.0,0.0,-0.189473684211
1449618451775775326,0.3056,0.0,0.0,0.0,0.0,-0.147368421053
1449618451854843586,0.3056,0.0,0.0,0.0,0.0,-0.189473684211
1449618451956578928,0.2592,0.0,0.0,0.0,0.0,-0.147368421053
1449618452020817990,0.2592,0.0,0.0,0.0,0.0,-0.147368421053
1449618452119104469,0.2592,0.0,0.0,0.0,0.0,-0.147368421053
1449618452224289044,0.2592,0.0,0.0,0.0,0.0,-0.147368421053
1449618452278940927,0.2592,0.0,0.0,0.0,0.0,-0.147368421053
1449618452444499836,0.2592,0.0,0.0,0.0,0.0,-0.147368421053
1449618452537784998,0.2592,0.0,0.0,0.0,0.0,-0.147368421053
1449618452616061346,0.2592,0.0,0.0,0.0,0.0,-0.147368421053
1449618452705473190,0.2592,0.0,0.0,0.0,0.0,-0.147368421053
1449618452771734031,0.2592,0.0,0.0,0.0,0.0,-0.147368421053
1449618452896453161,0.2592,0.0,0.0,0.0,0.0,-0.189473684211
1449618452975400075,0.2592,0.0,0.0,0.0,0.0,-0.189473684211
1449618453044636437,0.2592,0.0,0.0,0.0,0.0,-0.231578947368
1449618453137628941,0.2592,0.0,0.0,0.0,0.0,-0.189473684211
1449618453222368749,0.2592,0.0,0.0,0.0,0.0,-0.189473684211
1449618453272910137,0.2592,0.0,0.0,0.0,0.0,-0.147368421053
1449618453393037101,0.2592,0.0,0.0,0.0,0.0,-0.147368421053
1449618453495357999,0.2592,0.0,0.0,0.0,0.0,-0.147368421053
1449618453587147431,0.2592,0.0,0.0,0.0,0.0,-0.147368421053
1449618453682472440,0.2592,0.0,0.0,0.0,0.0,-0.189473684211
1449618453766343867,0.2592,0.0,0.0,0.0,0.0,-0.189473684211
1449618453876576233,0.2592,0.0,0.0,0.0,0.0,-0.189473684211
1449618453962601672,0.2592,0.0,0.0,0.0,0.0,-0.189473684211
1449618454031307811,0.2592,0.0,0.0,0.0,0.0,-0.189473684211
1449618454121405952,0.2592,0.0,0.0,0.0,0.0,-0.189473684211
1449618454204589098,0.2592,0.0,0.0,0.0,0.0,-0.189473684211
1449618454254817370,0.2592,0.0,0.0,0.0,0.0,-0.189473684211
1449618454434357457,0.2592,0.0,0.0,0.0,0.0,-0.189473684211
1449618454540044319,0.2592,0.0,0.0,0.0,0.0,-0.189473684211
1449618454615527223,0.2592,0.0,0.0,0.0,0.0,-0.189473684211
1449618454714974700,0.2592,0.0,0.0,0.0,0.0,-0.231578947368
1449618454787024618,0.2592,0.0,0.0,0.0,0.0,-0.231578947368
1449618454890573921,0.2592,0.0,0.0,0.0,0.0,-0.231578947368
1449618455003148048,0.2128,0.0,0.0,0.0,0.0,-0.189473684211
1449618455118151113,0.2592,0.0,0.0,0.0,0.0,-0.189473684211
1449618455275479327,0.2592,0.0,0.0,0.0,0.0,-0.189473684211
1449618455406177021,0.2592,0.0,0.0,0.0,0.0,-0.189473684211
1449618455478037516,0.2592,0.0,0.0,0.0,0.0,-0.231578947368
1449618455583266499,0.2592,0.0,0.0,0.0,0.0,-0.231578947368
1449618455643392411,0.2128,0.0,0.0,0.0,0.0,-0.189473684211
1449618455758355236,0.2128,0.0,0.0,0.0,0.0,-0.189473684211
1449618455944447717,0.2128,0.0,0.0,0.0,0.0,-0.189473684211
1449618456046149355,0.2128,0.0,0.0,0.0,0.0,-0.189473684211
1449618456239683904,0.2128,0.0,0.0,0.0,0.0,-0.189473684211
1449618456330028082,0.2128,0.0,0.0,0.0,0.0,-0.147368421053
1449618456437801083,0.2128,0.0,0.0,0.0,0.0,-0.189473684211
1449618456544144470,0.2128,0.0,0.0,0.0,0.0,-0.189473684211
1449618456642091092,0.2128,0.0,0.0,0.0,0.0,-0.189473684211
1449618456737802561,0.2128,0.0,0.0,0.0,0.0,-0.189473684211
1449618456817977065,0.2128,0.0,0.0,0.0,0.0,-0.189473684211
1449618456908447967,0.2128,0.0,0.0,0.0,0.0,-0.147368421053
1449618456983002984,0.2128,0.0,0.0,0.0,0.0,-0.147368421053
1449618457086354412,0.2128,0.0,0.0,0.0,0.0,-0.189473684211
1449618457170668941,0.2128,0.0,0.0,0.0,0.0,-0.189473684211
1449618457254824485,0.2128,0.0,0.0,0.0,0.0,-0.189473684211
1449618457335129853,0.2128,0.0,0.0,0.0,0.0,-0.147368421053
1449618457405712684,0.2128,0.0,0.0,0.0,0.0,-0.147368421053
1449618457489687566,0.2128,0.0,0.0,0.0,0.0,-0.147368421053
1449618457541264133,0.2128,0.0,0.0,0.0,0.0,-0.147368421053
1449618457661826184,0.2128,0.0,0.0,0.0,0.0,-0.147368421053
1449618457794962262,0.2128,0.0,0.0,0.0,0.0,-0.147368421053
1449618457890080120,0.2128,0.0,0.0,0.0,0.0,-0.147368421053
1449618457985874069,0.2128,0.0,0.0,0.0,0.0,-0.147368421053
1449618458110134615,0.2128,0.0,0.0,0.0,0.0,-0.231578947368
1449618458212261218,0.2128,0.0,0.0,0.0,0.0,-0.231578947368
1449618458303629530,0.2128,0.0,0.0,0.0,0.0,-0.231578947368
1449618458371377288,0.2128,0.0,0.0,0.0,0.0,-0.231578947368
1449618458487574055,0.2128,0.0,0.0,0.0,0.0,-0.231578947368
1449618458559099700,0.2128,0.0,0.0,0.0,0.0,-0.231578947368
1449618458645653971,0.2128,0.0,0.0,0.0,0.0,-0.231578947368
1449618458761933795,0.2128,0.0,0.0,0.0,0.0,-0.231578947368
1449618458847540319,0.2128,0.0,0.0,0.0,0.0,-0.231578947368
1449618458926253130,0.2128,0.0,0.0,0.0,0.0,-0.231578947368
1449618458993753691,0.2128,0.0,0.0,0.0,0.0,-0.231578947368
1449618459051275500,0.2128,0.0,0.0,0.0,0.0,-0.231578947368
1449618459211627256,0.2128,0.0,0.0,0.0,0.0,-0.231578947368
1449618459345539534,0.2128,0.0,0.0,0.0,0.0,-0.231578947368
1449618459466616643,0.2128,0.0,0.0,0.0,0.0,-0.231578947368
1449618459526113508,0.2128,0.0,0.0,0.0,0.0,-0.231578947368
1449618459594542724,0.2128,0.0,0.0,0.0,0.0,-0.231578947368
1449618459676214912,0.2128,0.0,0.0,0.0,0.0,-0.231578947368
1449618459805797460,0.2128,0.0,0.0,0.0,0.0,-0.231578947368
1449618459929763215,0.2128,0.0,0.0,0.0,0.0,-0.231578947368
1449618460002218968,0.2128,0.0,0.0,0.0,0.0,-0.231578947368
1449618460083771980,0.2128,0.0,0.0,0.0,0.0,-0.231578947368
1449618460192126406,0.2128,0.0,0.0,0.0,0.0,-0.231578947368
1449618460321609856,0.2128,0.0,0.0,0.0,0.0,-0.231578947368
1449618460479919021,0.2592,0.0,0.0,0.0,0.0,-0.147368421053
1449618460584340745,0.2128,0.0,0.0,0.0,0.0,-0.189473684211
1449618460710383521,0.2128,0.0,0.0,0.0,0.0,-0.189473684211
1449618460821422371,0.2128,0.0,0.0,0.0,0.0,-0.189473684211
1449618460916744373,0.2128,0.0,0.0,0.0,0.0,-0.147368421053
1449618461084768132,0.2128,0.0,0.0,0.0,0.0,-0.147368421053
1449618461175034033,0.2128,0.0,0.0,0.0,0.0,-0.105263157895
1449618461325234293,0.2128,0.0,0.0,0.0,0.0,-0.0631578947368
1449618461444922650,0.2128,0.0,0.0,0.0,0.0,-0.0631578947368
1449618461538954677,0.2128,0.0,0.0,0.0,0.0,0.0
1449618461621855689,0.350059719101,0.0,0.0,0.0,0.0,0.147368421053
1449618461751291731,0.346299495092,0.0,0.0,0.0,0.0,0.147368421053
1449618461855891474,0.341610766629,0.0,0.0,0.0,0.0,0.189473684211
1449618461952020265,0.336953334655,0.0,0.0,0.0,0.0,0.189473684211
1449618462035117293,0.334171089159,0.0,0.0,0.0,0.0,0.231578947368
1449618462084077103,0.332320701257,0.0,0.0,0.0,0.0,0.231578947368
1449618462174572845,0.330471066963,0.0,0.0,0.0,0.0,0.231578947368
1449618462352990432,0.327706530685,0.0,0.0,0.0,0.0,0.231578947368
1449618462416378338,0.324041455047,0.0,0.0,0.0,0.0,0.231578947368
1449618462498128565,0.323130482939,0.0,0.0,0.0,0.0,0.273684210526
1449618462599251358,0.322216640753,0.0,0.0,0.0,0.0,0.231578947368
1449618462695274219,0.322216640753,0.0,0.0,0.0,0.0,0.273684210526
1449618462809187581,0.322216640753,0.0,0.0,0.0,0.0,0.273684210526
1449618462969461238,0.322216640753,0.0,0.0,0.0,0.0,0.273684210526
1449618463073993211,0.32312733759,0.0,0.0,0.0,0.0,0.273684210526
1449618463178114600,0.32312733759,0.0,0.0,0.0,0.0,0.273684210526
1449618463263821122,0.322213486626,0.0,0.0,0.0,0.0,0.231578947368
1449618463329496756,0.322213486626,0.0,0.0,0.0,0.0,0.231578947368
1449618463440221822,0.322213486626,0.0,0.0,0.0,0.0,0.231578947368
1449618464088006446,0.12,0.0,0.0,0.0,0.0,0.0
1449618464091016935,0.0,0.0,0.0,0.0,0.0,0.0
1449618464138171328,0.0,0.0,0.0,0.0,0.0,0.0
1449618464227679365,0.0,0.0,0.0,0.0,0.0,0.0
1449618464278174334,0.0,0.0,0.0,0.0,0.0,0.0
1449618464419444805,0.0,0.0,0.0,0.0,0.0,0.0
1449618464460940604,0.0,0.0,0.0,0.0,0.0,0.0
1449618464792587804,0.12,0.0,0.0,0.0,0.0,0.105263157895
1449618464898563351,0.12,0.0,0.0,0.0,0.0,0.105263157895
1449618465084258113,0.12,0.0,0.0,0.0,0.0,0.105263157895
1449618465150609456,0.12,0.0,0.0,0.0,0.0,0.105263157895
1449618465237655496,0.12,0.0,0.0,0.0,0.0,0.105263157895
1449618465281876954,0.12,0.0,0.0,0.0,0.0,0.105263157895
1449618465337411184,0.0,0.0,0.0,0.0,0.0,-0.315789473684
1449618465404001251,0.0,0.0,0.0,0.0,0.0,-0.315789473684
1449618465473401381,0.0,0.0,0.0,0.0,0.0,-0.315789473684
1449618465564340744,0.0,0.0,0.0,0.0,0.0,-0.315789473684
1449618465648231449,0.0,0.0,0.0,0.0,0.0,-0.315789473684
1449618465668140986,0.0,0.0,0.0,0.0,0.0,0.0
1449618465718002825,0.0,0.0,0.0,0.0,0.0,0.0
1449618466024177233,0.266908050231,0.0,0.0,0.0,0.0,0.273684210526
1449618466105774705,0.266908050231,0.0,0.0,0.0,0.0,0.273684210526
1449618466243216800,0.266908050231,0.0,0.0,0.0,0.0,0.273684210526
1449618466368463715,0.266908050231,0.0,0.0,0.0,0.0,0.273684210526
1449618466458181959,0.266908050231,0.0,0.0,0.0,0.0,0.273684210526
1449618466561829779,0.266908050231,0.0,0.0,0.0,0.0,0.273684210526
1449618466627226715,0.266908050231,0.0,0.0,0.0,0.0,0.273684210526
1449618466757193061,0.266908050231,0.0,0.0,0.0,0.0,0.273684210526
1449618466886252175,0.266908050231,0.0,0.0,0.0,0.0,0.273684210526
1449618467011433080,0.266908050231,0.0,0.0,0.0,0.0,0.189473684211
1449618467144633254,0.266908050231,0.0,0.0,0.0,0.0,0.189473684211
1449618467279175573,0.266908050231,0.0,0.0,0.0,0.0,0.189473684211
1449618467430011652,0.266908050231,0.0,0.0,0.0,0.0,0.189473684211
1449618467537579578,0.266908050231,0.0,0.0,0.0,0.0,0.189473684211
1449618467612699456,0.266908050231,0.0,0.0,0.0,0.0,0.189473684211
1449618467711661764,0.266908050231,0.0,0.0,0.0,0.0,0.189473684211
1449618467825768355,0.266908050231,0.0,0.0,0.0,0.0,0.189473684211
1449618467902229945,0.266908050231,0.0,0.0,0.0,0.0,0.273684210526
1449618468008394507,0.266908050231,0.0,0.0,0.0,0.0,0.273684210526
1449618468168327436,0.266908050231,0.0,0.0,0.0,0.0,0.273684210526
1449618468279981735,0.266908050231,0.0,0.0,0.0,0.0,0.273684210526
1449618468359639820,0.266908050231,0.0,0.0,0.0,0.0,0.273684210526
1449618468444783241,0.266908050231,0.0,0.0,0.0,0.0,0.273684210526
1449618468565559016,0.266908050231,0.0,0.0,0.0,0.0,0.273684210526
1449618468653944092,0.266908050231,0.0,0.0,0.0,0.0,0.273684210526
1449618468755572471,0.266908050231,0.0,0.0,0.0,0.0,0.273684210526
1449618468844040351,0.266908050231,0.0,0.0,0.0,0.0,0.273684210526
1449618468901750239,0.266908050231,0.0,0.0,0.0,0.0,0.189473684211
1449618468989044503,0.266908050231,0.0,0.0,0.0,0.0,0.189473684211
1449618469041572025,0.266908050231,0.0,0.0,0.0,0.0,0.273684210526
1449618469117849366,0.266908050231,0.0,0.0,0.0,0.0,0.273684210526
1449618469204670668,0.266908050231,0.0,0.0,0.0,0.0,0.273684210526
1449618473411264836,0.352,0.0,0.0,0.0,0.0,0.231578947368
1449618473488086381,0.352,0.0,0.0,0.0,0.0,0.231578947368
1449618473579523574,0.352,0.0,0.0,0.0,0.0,0.231578947368
1449618473656982400,0.352,0.0,0.0,0.0,0.0,0.231578947368
1449618473739072509,0.352,0.0,0.0,0.0,0.0,0.231578947368
1449618473805702718,0.352,0.0,0.0,0.0,0.0,0.231578947368
1449618473893634320,0.352,0.0,0.0,0.0,0.0,0.231578947368
1449618473982266035,0.352,0.0,0.0,0.0,0.0,0.231578947368
1449618474071018423,0.352,0.0,0.0,0.0,0.0,0.231578947368
1449618474658978069,0.172184182361,0.0,0.0,0.0,0.0,0.105263157895
1449618474761988822,0.172184182361,0.0,0.0,0.0,0.0,0.105263157895
1449618474844386906,0.172184182361,0.0,0.0,0.0,0.0,0.105263157895
1449618474893339154,0.161747345889,0.0,0.0,0.0,0.0,0.0
1449618475203042353,0.172184182361,0.0,0.0,0.0,0.0,0.105263157895
1449618475323077978,0.172184182361,0.0,0.0,0.0,0.0,0.105263157895
1449618475410567359,0.172184182361,0.0,0.0,0.0,0.0,0.105263157895
1449618475475133540,0.172184182361,0.0,0.0,0.0,0.0,0.105263157895
1449618475622372778,0.172184182361,0.0,0.0,0.0,0.0,0.105263157895
1449618475677432494,0.172184182361,0.0,0.0,0.0,0.0,0.105263157895
1449618475757864871,0.172184182361,0.0,0.0,0.0,0.0,0.105263157895
1449618475833215615,0.172184182361,0.0,0.0,0.0,0.0,0.105263157895
1449618475900270998,0.172184182361,0.0,0.0,0.0,0.0,0.105263157895
1449618476110308468,0.161747345889,0.0,0.0,0.0,0.0,0.0
1449618476203403800,0.161747345889,0.0,0.0,0.0,0.0,0.0
1449618476298980235,0.161747345889,0.0,0.0,0.0,0.0,0.0
1449618476408294481,0.161747345889,0.0,0.0,0.0,0.0,0.0
1449618476515146155,0.172184182361,0.0,0.0,0.0,0.0,0.105263157895
1449618476636585158,0.172184182361,0.0,0.0,0.0,0.0,0.105263157895
1449618476781400665,0.0,0.0,0.0,0.0,0.0,-0.31
1449618476884496557,0.0,0.0,0.0,0.0,0.0,-0.31
1449618476975008753,0.0,0.0,0.0,0.0,0.0,-0.31
1449618477065286420,0.0,0.0,0.0,0.0,0.0,-0.31
1449618477179200096,0.0,0.0,0.0,0.0,0.0,-0.31
1449618477245643301,0.0,0.0,0.0,0.0,0.0,-0.31
1449618477329897759,0.0,0.0,0.0,0.0,0.0,-0.31
1449618477472307914,0.0,0.0,0.0,0.0,0.0,-0.31
1449618477597916370,0.0,0.0,0.0,0.0,0.0,-0.31
1449618477646942596,0.0,0.0,0.0,0.0,0.0,-0.31
1449618477771782400,0.0,0.0,0.0,0.0,0.0,-0.31
1449618477869933487,0.0,0.0,0.0,0.0,0.0,-0.31
1449618478018868023,0.0,0.0,0.0,0.0,0.0,-0.31
1449618478080606628,0.0,0.0,0.0,0.0,0.0,-0.31
1449618478139195857,0.0,0.0,0.0,0.0,0.0,-0.31
1449618478256867562,0.0,0.0,0.0,0.0,0.0,-0.31
1449618478309808354,0.0,0.0,0.0,0.0,0.0,0.0
1449618478362863229,0.0,0.0,0.0,0.0,0.0,0.0
1449618478604784781,0.0,0.0,0.0,0.0,0.0,-0.31
1449618478697029057,0.0,0.0,0.0,0.0,0.0,-0.31
1449618478795209923,0.0,0.0,0.0,0.0,0.0,-0.31
1449618478849959708,0.0,0.0,0.0,0.0,0.0,-0.31
1449618478936232235,0.0,0.0,0.0,0.0,0.0,-0.31
1449618479048683929,0.0,0.0,0.0,0.0,0.0,-0.31
1449618479108544750,0.0,0.0,0.0,0.0,0.0,-0.31
1449618479217618742,0.0,0.0,0.0,0.0,0.0,-0.31
1449618479317870159,0.0,0.0,0.0,0.0,0.0,-0.31
1449618479499866845,0.0,0.0,0.0,0.0,0.0,-0.31
1449618479560866249,0.0,0.0,0.0,0.0,0.0,0.0
1449618479612368922,0.0,0.0,0.0,0.0,0.0,0.0
1449618479790614605,0.0,0.0,0.0,0.0,0.0,-0.31
1449618479889900070,0.0,0.0,0.0,0.0,0.0,-0.31
1449618480019937876,0.0,0.0,0.0,0.0,0.0,-0.31
1449618480085756893,0.0,0.0,0.0,0.0,0.0,-0.31
1449618480157533608,0.0,0.0,0.0,0.0,0.0,-0.31
1449618480255942657,0.0,0.0,0.0,0.0,0.0,-0.31
1449618480382209725,0.0,0.0,0.0,0.0,0.0,-0.31
1449618480507949008,0.0,0.0,0.0,0.0,0.0,-0.31
1449618480594029579,0.0,0.0,0.0,0.0,0.0,-0.31
1449618480661339777,0.0,0.0,0.0,0.0,0.0,-0.31
1449618480825795263,0.0,0.0,0.0,0.0,0.0,-0.31
1449618481030568376,0.0,0.0,0.0,0.0,0.0,-0.31
1449618481160193823,0.0,0.0,0.0,0.0,0.0,-0.31
1449618481296753856,0.0,0.0,0.0,0.0,0.0,-0.31
1449618481420541688,0.0,0.0,0.0,0.0,0.0,-0.31
1449618481534019131,0.0,0.0,0.0,0.0,0.0,-0.31
1449618481662781323,0.0,0.0,0.0,0.0,0.0,-0.315789473684
1449618481762049802,0.0,0.0,0.0,0.0,0.0,-0.315789473684
1449618481864565124,0.0,0.0,0.0,0.0,0.0,-0.315789473684
1449618481931347730,0.0,0.0,0.0,0.0,0.0,-0.315789473684
1449618482013058062,0.0,0.0,0.0,0.0,0.0,-0.315789473684
1449618482120914223,0.0,0.0,0.0,0.0,0.0,-0.315789473684
1449618482176414708,0.0,0.0,0.0,0.0,0.0,-0.315789473684
1449618482245655786,0.0,0.0,0.0,0.0,0.0,-0.315789473684
1449618482312684763,0.0,0.0,0.0,0.0,0.0,-0.315789473684
1449618482365752152,0.0,0.0,0.0,0.0,0.0,-0.315789473684
1449618482426946576,0.0,0.0,0.0,0.0,0.0,-0.315789473684
1449618482486023458,0.0,0.0,0.0,0.0,0.0,-0.315789473684
1449618482577358893,0.0,0.0,0.0,0.0,0.0,-0.315789473684
1449618482643251847,0.0,0.0,0.0,0.0,0.0,-0.357894736842
1449618482724744735,0.0,0.0,0.0,0.0,0.0,-0.315789473684
1449618482808474263,0.12,0.0,0.0,0.0,0.0,0.0
1449618482859849105,0.12,0.0,0.0,0.0,0.0,0.0631578947368
1449618482961250246,0.12,0.0,0.0,0.0,0.0,0.0
1449618482964499667,0.0,0.0,0.0,0.0,0.0,0.0
1449618483011070975,0.0,0.0,0.0,0.0,0.0,0.0
1449618484828519073,0.0,0.0,0.0,0.0,0.0,-0.4
1449618484981233125,0.0,0.0,0.0,0.0,0.0,0.31
1449618485030617744,0.0,0.0,0.0,0.0,0.0,0.0
1449618485080344721,0.0,0.0,0.0,0.0,0.0,0.0
1449618485306539779,0.0,0.0,0.0,0.0,0.0,0.31
1449618485369937743,0.0,0.0,0.0,0.0,0.0,0.315789473684
1449618485453324477,0.0,0.0,0.0,0.0,0.0,0.31
1449618485510978247,0.0,0.0,0.0,0.0,0.0,0.31
1449618485581743646,0.0,0.0,0.0,0.0,0.0,0.31
1449618485637511244,0.0,0.0,0.0,0.0,0.0,0.31
1449618485710547727,0.0,0.0,0.0,0.0,0.0,0.31
1449618485824107926,0.352,0.0,0.0,0.0,0.0,-0.147368421053
1449618485888406863,0.352,0.0,0.0,0.0,0.0,-0.147368421053
1449618486017097097,0.352,0.0,0.0,0.0,0.0,-0.147368421053
1449618486109126058,0.352,0.0,0.0,0.0,0.0,-0.147368421053
1449618486224417048,0.352,0.0,0.0,0.0,0.0,-0.147368421053
1449618486316613981,0.352,0.0,0.0,0.0,0.0,-0.147368421053
1449618486402450675,0.352,0.0,0.0,0.0,0.0,-0.147368421053
1449618486516139776,0.352,0.0,0.0,0.0,0.0,-0.147368421053
1449618486612955723,0.352,0.0,0.0,0.0,0.0,-0.147368421053
1449618486701304373,0.352,0.0,0.0,0.0,0.0,-0.147368421053
1449618486772191572,0.352,0.0,0.0,0.0,0.0,-0.147368421053
1449618486903788467,0.352,0.0,0.0,0.0,0.0,-0.147368421053
1449618487030051927,0.352,0.0,0.0,0.0,0.0,-0.147368421053
1449618487190144897,0.352,0.0,0.0,0.0,0.0,-0.105263157895
1449618487253898536,0.352,0.0,0.0,0.0,0.0,-0.105263157895
1449618487345689179,0.352,0.0,0.0,0.0,0.0,-0.105263157895
1449618487445197911,0.352,0.0,0.0,0.0,0.0,-0.105263157895
1449618487577776921,0.352,0.0,0.0,0.0,0.0,-0.147368421053
1449618487682234855,0.352,0.0,0.0,0.0,0.0,-0.147368421053
1449618487756783131,0.352,0.0,0.0,0.0,0.0,-0.147368421053
1449618487853423227,0.352,0.0,0.0,0.0,0.0,-0.147368421053
1449618487899689472,0.352,0.0,0.0,0.0,0.0,-0.147368421053
1449618488104858833,0.352,0.0,0.0,0.0,0.0,-0.147368421053
1449618488240190671,0.352,0.0,0.0,0.0,0.0,-0.147368421053
1449618488353631336,0.352,0.0,0.0,0.0,0.0,-0.147368421053
1449618488465351928,0.352,0.0,0.0,0.0,0.0,-0.147368421053
1449618488603840842,0.352,0.0,0.0,0.0,0.0,-0.105263157895
1449618488697421637,0.352,0.0,0.0,0.0,0.0,-0.147368421053
1449618488796308375,0.352,0.0,0.0,0.0,0.0,-0.105263157895
1449618488886007764,0.352,0.0,0.0,0.0,0.0,-0.105263157895
1449618488976932599,0.352,0.0,0.0,0.0,0.0,-0.105263157895
1449618489066053973,0.352,0.0,0.0,0.0,0.0,-0.105263157895
1449618489178235466,0.352,0.0,0.0,0.0,0.0,-0.105263157895
1449618489287153955,0.352,0.0,0.0,0.0,0.0,-0.147368421053
1449618489352930109,0.352,0.0,0.0,0.0,0.0,-0.147368421053
1449618489463599757,0.352,0.0,0.0,0.0,0.0,-0.147368421053
1449618489552513821,0.352,0.0,0.0,0.0,0.0,-0.147368421053
1449618489644525974,0.352,0.0,0.0,0.0,0.0,-0.147368421053
1449618489775994310,0.352,0.0,0.0,0.0,0.0,-0.147368421053
1449618489876288128,0.352,0.0,0.0,0.0,0.0,-0.147368421053
1449618490015941294,0.352,0.0,0.0,0.0,0.0,-0.189473684211
1449618490106795155,0.352,0.0,0.0,0.0,0.0,-0.189473684211
1449618490266582412,0.352,0.0,0.0,0.0,0.0,-0.231578947368
1449618490406900419,0.352,0.0,0.0,0.0,0.0,-0.231578947368
1449618490478980784,0.352,0.0,0.0,0.0,0.0,-0.273684210526
1449618490583545205,0.352,0.0,0.0,0.0,0.0,-0.273684210526
1449618490668077732,0.352,0.0,0.0,0.0,0.0,-0.315789473684
1449618490811557569,0.352,0.0,0.0,0.0,0.0,-0.315789473684
1449618490898520584,0.352,0.0,0.0,0.0,0.0,-0.357894736842
1449618491107979889,0.352,0.0,0.0,0.0,0.0,-0.357894736842
1449618491234820231,0.352,0.0,0.0,0.0,0.0,-0.392901620865
1449618491347213694,0.352,0.0,0.0,0.0,0.0,-0.366501680613
1449618491464877312,0.352,0.0,0.0,0.0,0.0,-0.366515747309
1449618491601455709,0.352,0.0,0.0,0.0,0.0,-0.366521350145
1449618491649513645,0.0,0.0,0.0,0.0,0.0,0.0
1449618491750191929,0.0,0.0,0.0,0.0,0.0,0.0
1449618491992070046,0.0,0.0,0.0,0.0,0.0,-0.315789473684
1449618492062886988,0.0,0.0,0.0,0.0,0.0,-0.4
1449618492129857174,0.0,0.0,0.0,0.0,0.0,-0.31
1449618492237733518,0.0,0.0,0.0,0.0,0.0,-0.4
1449618492333611221,0.0,0.0,0.0,0.0,0.0,-0.357894736842
1449618492333620250,0.0,0.0,0.0,0.0,0.0,0.0
1449618492350866451,0.0,0.0,0.0,0.0,0.0,0.0
1449618492789562039,0.0,0.0,0.0,0.0,0.0,-0.4
1449618492857012155,0.0,0.0,0.0,0.0,0.0,-0.315789473684
1449618492924299697,0.0,0.0,0.0,0.0,0.0,-0.315789473684
1449618493008118267,0.0,0.0,0.0,0.0,0.0,-0.31
1449618493057406851,0.0,0.0,0.0,0.0,0.0,-0.31
1449618493157845230,0.0,0.0,0.0,0.0,0.0,-0.357894736842
1449618493220641679,0.0,0.0,0.0,0.0,0.0,-0.315789473684
1449618493326300170,0.0,0.0,0.0,0.0,0.0,-0.31
1449618493461794278,0.0,0.0,0.0,0.0,0.0,-0.31
1449618493524738947,0.0,0.0,0.0,0.0,0.0,-0.315789473684
1449618493578471136,0.0,0.0,0.0,0.0,0.0,-0.315789473684
1449618493632909116,0.0,0.0,0.0,0.0,0.0,-0.315789473684
1449618493736782272,-0.0,0.0,0.0,0.0,0.0,-0.0
1449618493811392925,-0.0,0.0,0.0,0.0,0.0,-0.0
1449618493870080825,-0.0,0.0,0.0,0.0,0.0,-0.0
1449618494013075253,-0.0,0.0,0.0,0.0,0.0,-0.0
1449618494100090337,-0.0,0.0,0.0,0.0,0.0,0.0
1449618494154209027,0.0,0.0,0.0,0.0,0.0,-0.554872992996
1449618494295208085,0.0,0.0,0.0,0.0,0.0,-0.52453929428
1449618494450151106,0.0,0.0,0.0,0.0,0.0,-0.52453929428
1449618494526862610,0.0,0.0,0.0,0.0,0.0,-0.52453929428
1449618494647228467,0.0,0.0,0.0,0.0,0.0,-0.52453929428
1449618494803576196,0.0,0.0,0.0,0.0,0.0,-0.52453929428
1449618494898125374,0.12,0.0,0.0,0.0,0.0,-0.231578947368
1449618495061046468,0.12,0.0,0.0,0.0,0.0,-0.231578947368
1449618495227261046,0.12,0.0,0.0,0.0,0.0,-0.147368421053
1449618495321663220,0.12,0.0,0.0,0.0,0.0,-0.189473684211
1449618495447144077,0.12,0.0,0.0,0.0,0.0,-0.189473684211
1449618495488022766,0.12,0.0,0.0,0.0,0.0,-0.189473684211
1449618495631679886,0.12,0.0,0.0,0.0,0.0,-0.189473684211
1449618495702323437,0.12,0.0,0.0,0.0,0.0,-0.189473684211
1449618495816077614,0.0,0.0,0.0,0.0,0.0,-0.47503774344
1449618495903313380,0.0,0.0,0.0,0.0,0.0,-0.47503774344
1449618495997441452,0.0,0.0,0.0,0.0,0.0,-0.47503774344
1449618496062575315,0.0,0.0,0.0,0.0,0.0,-0.481768175057
1449618496119954244,0.0,0.0,0.0,0.0,0.0,-0.481768175057
1449618496207060506,0.0,0.0,0.0,0.0,0.0,-0.481768175057
1449618496220713899,0.0,0.0,0.0,0.0,0.0,0.0
1449618496220735119,0.0,0.0,0.0,0.0,0.0,0.0
1449618496271116423,0.0,0.0,0.0,0.0,0.0,0.0
1449618496313579027,0.0,0.0,0.0,0.0,0.0,0.0
1449618496621834474,0.0,0.0,0.0,0.0,0.0,-0.419065115173
1449618496658710450,0.0,0.0,0.0,0.0,0.0,-0.419065115173
1449618496719389982,0.0,0.0,0.0,0.0,0.0,-0.419065115173
1449618496830054463,0.0,0.0,0.0,0.0,0.0,-0.419065115173
1449618496977428335,0.0,0.0,0.0,0.0,0.0,-0.419065115173
1449618497053701372,0.0,0.0,0.0,0.0,0.0,-0.419065115173
1449618497192588547,0.0,0.0,0.0,0.0,0.0,-0.419065115173
1449618497308692954,0.0,0.0,0.0,0.0,0.0,-0.419065115173
1449618497410191909,0.0,0.0,0.0,0.0,0.0,-0.444794470906
1449618497462447493,0.0,0.0,0.0,0.0,0.0,-0.444794470906
1449618497537897387,0.0,0.0,0.0,0.0,0.0,-0.444794470906
1449618497691070271,0.0,0.0,0.0,0.0,0.0,-0.444794470906
1449618497824799431,0.0,0.0,0.0,0.0,0.0,-0.444794470906
1449618497901222480,0.0,0.0,0.0,0.0,0.0,-0.444794470906
1449618498024877512,0.0,0.0,0.0,0.0,0.0,-0.434226422224
1449618498189391155,0.0,0.0,0.0,0.0,0.0,-0.434226422224
1449618498254378946,0.0,0.0,0.0,0.0,0.0,-0.423658373543
1449618498331530828,0.0,0.0,0.0,0.0,0.0,-0.413090324861
1449618498418012889,0.0,0.0,0.0,0.0,0.0,-0.413090324861
1449618498503542934,0.0,0.0,0.0,0.0,0.0,-0.4
1449618498615715724,0.0,0.0,0.0,0.0,0.0,-0.4
1449618498701921497,0.0,0.0,0.0,0.0,0.0,-0.4
1449618498848501381,0.0,0.0,0.0,0.0,0.0,-0.4
1449618498964688025,0.0,0.0,0.0,0.0,0.0,-0.4
1449618499051575692,0.0,0.0,0.0,0.0,0.0,-0.4
1449618499051582486,0.0,0.0,0.0,0.0,0.0,0.0
1449618499063811028,0.0,0.0,0.0,0.0,0.0,0.0
1449618499513284060,0.352,0.0,0.0,0.0,0.0,-0.244802621038
1449618499627922026,0.352,0.0,0.0,0.0,0.0,-0.233676993721
1449618499738418207,0.352,0.0,0.0,0.0,0.0,-0.231578947368
1449618499820153759,0.352,0.0,0.0,0.0,0.0,-0.189473684211
1449618499903606139,0.352,0.0,0.0,0.0,0.0,-0.189473684211
1449618500001866238,0.352,0.0,0.0,0.0,0.0,-0.189473684211
1449618500064547606,0.352,0.0,0.0,0.0,0.0,-0.189473684211
1449618500121743176,0.352,0.0,0.0,0.0,0.0,-0.147368421053
1449618500185546829,0.352,0.0,0.0,0.0,0.0,-0.147368421053
1449618500309833341,0.352,0.0,0.0,0.0,0.0,-0.147368421053
1449618500406766716,0.352,0.0,0.0,0.0,0.0,-0.105263157895
1449618500490126581,0.352,0.0,0.0,0.0,0.0,-0.105263157895
1449618500595968882,0.352,0.0,0.0,0.0,0.0,-0.0373228420082
1449618500677845048,0.352,0.0,0.0,0.0,0.0,-0.0367361864291
1449618500736606441,0.352,0.0,0.0,0.0,0.0,0.0
1449618500827041583,0.352,0.0,0.0,0.0,0.0,0.0210526315789
1449618501005321237,0.352,0.0,0.0,0.0,0.0,0.0210526315789
1449618501091067374,0.352,0.0,0.0,0.0,0.0,0.0
1449618501180665215,0.352,0.0,0.0,0.0,0.0,0.0
1449618501236558023,0.352,0.0,0.0,0.0,0.0,0.0210526315789
1449618501332829831,0.352,0.0,0.0,0.0,0.0,0.0210526315789
1449618501446204338,0.352,0.0,0.0,0.0,0.0,0.0210526315789
1449618501545105544,0.352,0.0,0.0,0.0,0.0,0.0210526315789
1449618501675861052,0.352,0.0,0.0,0.0,0.0,0.0210526315789
1449618501786111640,0.352,0.0,0.0,0.0,0.0,0.0210526315789
1449618501869964909,0.352,0.0,0.0,0.0,0.0,0.0210526315789
1449618501996947761,0.352,0.0,0.0,0.0,0.0,0.0210526315789
1449618502109504315,0.352,0.0,0.0,0.0,0.0,0.0210526315789
1449618502207713300,0.352,0.0,0.0,0.0,0.0,0.0210526315789
1449618502328204446,0.352,0.0,0.0,0.0,0.0,0.0210526315789
1449618502332174584,0.0,0.0,0.0,0.0,0.0,0.0
1449618502510194076,0.352,0.0,0.0,0.0,0.0,-0.0210526315789
1449618502607768252,0.352,0.0,0.0,0.0,0.0,-0.0210526315789
1449618502713220748,0.352,0.0,0.0,0.0,0.0,-0.0210526315789
1449618502838417692,0.352,0.0,0.0,0.0,0.0,-0.0210526315789
1449618502922517020,0.352,0.0,0.0,0.0,0.0,-0.0210526315789
1449618502992188089,0.352,0.0,0.0,0.0,0.0,-0.0210526315789
1449618503066225795,0.352,0.0,0.0,0.0,0.0,-0.0210526315789
1449618503160704902,0.352,0.0,0.0,0.0,0.0,-0.0210526315789
1449618503237947245,0.352,0.0,0.0,0.0,0.0,-0.0631578947368
1449618503309707845,0.352,0.0,0.0,0.0,0.0,-0.0631578947368
1449618503389387345,0.352,0.0,0.0,0.0,0.0,-0.0631578947368
1449618503474485354,0.352,0.0,0.0,0.0,0.0,-0.0631578947368
1449618503549501909,0.352,0.0,0.0,0.0,0.0,-0.0631578947368
1449618503661950163,0.352,0.0,0.0,0.0,0.0,-0.0631578947368
1449618503759615134,0.352,0.0,0.0,0.0,0.0,-0.0631578947368
1449618503867360158,0.352,0.0,0.0,0.0,0.0,-0.0631578947368
1449618503927053579,0.352,0.0,0.0,0.0,0.0,-0.0631578947368
1449618504048300437,0.352,0.0,0.0,0.0,0.0,-0.0631578947368
1449618504116918232,0.352,0.0,0.0,0.0,0.0,-0.0631578947368
1449618504208030507,0.352,0.0,0.0,0.0,0.0,-0.0631578947368
1449618504276409550,0.352,0.0,0.0,0.0,0.0,-0.0210526315789
1449618504358986005,0.352,0.0,0.0,0.0,0.0,-0.0631578947368
1449618504484841789,0.352,0.0,0.0,0.0,0.0,-0.0210526315789
1449618504633770241,0.352,0.0,0.0,0.0,0.0,-0.0210526315789
1449618504765958780,0.352,0.0,0.0,0.0,0.0,-0.0210526315789
1449618504850727700,0.352,0.0,0.0,0.0,0.0,-0.0210526315789
1449618504946908291,0.352,0.0,0.0,0.0,0.0,-0.0210526315789
1449618505019796711,0.352,0.0,0.0,0.0,0.0,-0.0210526315789
1449618505093164544,0.352,0.0,0.0,0.0,0.0,-0.0210526315789
1449618505174422410,0.352,0.0,0.0,0.0,0.0,-0.0210526315789
1449618505464300728,0.352,0.0,0.0,0.0,0.0,0.0210526315789
1449618505534910343,0.352,0.0,0.0,0.0,0.0,0.0210526315789
1449618505651759664,0.352,0.0,0.0,0.0,0.0,0.0210526315789
1449618505729904891,0.352,0.0,0.0,0.0,0.0,0.0631578947368
1449618505854245499,0.352,0.0,0.0,0.0,0.0,0.0631578947368
1449618505936258786,0.352,0.0,0.0,0.0,0.0,0.0631578947368
1449618506089689788,0.352,0.0,0.0,0.0,0.0,0.105263157895
1449618506192069765,0.352,0.0,0.0,0.0,0.0,0.105263157895
1449618506311819393,0.352,0.0,0.0,0.0,0.0,0.105263157895
1449618506450082483,0.352,0.0,0.0,0.0,0.0,0.147368421053
1449618506608422504,0.352,0.0,0.0,0.0,0.0,0.147368421053
1449618506673149374,0.352,0.0,0.0,0.0,0.0,0.147368421053
1449618506838346758,0.352,0.0,0.0,0.0,0.0,0.147368421053
1449618506956759579,0.352,0.0,0.0,0.0,0.0,0.147368421053
1449618507082410628,0.352,0.0,0.0,0.0,0.0,0.147368421053
1449618507164386469,0.352,0.0,0.0,0.0,0.0,0.147368421053
1449618507261172603,0.352,0.0,0.0,0.0,0.0,0.147368421053
1449618507346178017,0.352,0.0,0.0,0.0,0.0,0.189473684211
1449618507420335332,0.352,0.0,0.0,0.0,0.0,0.189473684211
1449618507474460588,0.352,0.0,0.0,0.0,0.0,0.189473684211
1449618507587808326,0.352,0.0,0.0,0.0,0.0,0.189473684211
1449618507698092635,0.352,0.0,0.0,0.0,0.0,0.189473684211
1449618507781324946,0.352,0.0,0.0,0.0,0.0,0.189473684211
1449618507859228774,0.352,0.0,0.0,0.0,0.0,0.189473684211
1449618507948037096,0.352,0.0,0.0,0.0,0.0,0.189473684211
1449618508050998514,0.352,0.0,0.0,0.0,0.0,0.189473684211
1449618508152405674,0.352,0.0,0.0,0.0,0.0,0.231578947368
1449618508237808632,0.352,0.0,0.0,0.0,0.0,0.189473684211
1449618508332080458,0.352,0.0,0.0,0.0,0.0,0.189473684211
1449618508433875335,0.352,0.0,0.0,0.0,0.0,0.189473684211
1449618508557469123,0.352,0.0,0.0,0.0,0.0,0.189473684211
1449618508679952818,0.352,0.0,0.0,0.0,0.0,0.189473684211
1449618508792903706,0.352,0.0,0.0,0.0,0.0,0.189473684211
1449618508883821641,0.352,0.0,0.0,0.0,0.0,0.147368421053
1449618508954463153,0.352,0.0,0.0,0.0,0.0,0.189473684211
1449618509058765914,0.352,0.0,0.0,0.0,0.0,0.189473684211
1449618509143912414,0.352,0.0,0.0,0.0,0.0,0.189473684211
1449618509219059205,0.352,0.0,0.0,0.0,0.0,0.189473684211
1449618509284608317,0.352,0.0,0.0,0.0,0.0,0.147368421053
1449618509423605843,0.352,0.0,0.0,0.0,0.0,0.147368421053
1449618509554550453,0.352,0.0,0.0,0.0,0.0,0.147368421053
1449618509619118491,0.352,0.0,0.0,0.0,0.0,0.147368421053
1449618509697359080,0.352,0.0,0.0,0.0,0.0,0.147368421053
1449618509801141352,0.352,0.0,0.0,0.0,0.0,0.105263157895
1449618509902335778,0.352,0.0,0.0,0.0,0.0,0.105263157895
