%time,field.header.seq,field.header.stamp,field.header.frame_id,field.polygon.points0.x,field.polygon.points0.y,field.polygon.points0.z,field.polygon.points1.x,field.polygon.points1.y,field.polygon.points1.z,field.polygon.points2.x,field.polygon.points2.y,field.polygon.points2.z,field.polygon.points3.x,field.polygon.points3.y,field.polygon.points3.z,field.polygon.points4.x,field.polygon.points4.y,field.polygon.points4.z
1449618390114201609,1,1449618390114060965,odom,0.479999989271,0.0,0.0,0.329999983311,-0.264999985695,0.0,-0.539999961853,-0.264999985695,0.0,-0.539999961853,0.264999985695,0.0,0.329999983311,0.264999985695,0.0
1449618390392348769,2,1449618390392026168,odom,0.479999989271,0.0,0.0,0.329999983311,-0.264999985695,0.0,-0.539999961853,-0.264999985695,0.0,-0.539999961853,0.264999985695,0.0,0.329999983311,0.264999985695,0.0
1449618390624424699,3,1449618390624045022,odom,0.479999989271,0.0,0.0,0.329999983311,-0.264999985695,0.0,-0.539999961853,-0.264999985695,0.0,-0.539999961853,0.264999985695,0.0,0.329999983311,0.264999985695,0.0
1449618390808455813,4,1449618390808291264,odom,0.479999989271,0.0,0.0,0.329999983311,-0.264999985695,0.0,-0.539999961853,-0.264999985695,0.0,-0.539999961853,0.264999985695,0.0,0.329999983311,0.264999985695,0.0
1449618391013358852,5,1449618391012920146,odom,0.479999989271,0.0,0.0,0.329999983311,-0.264999985695,0.0,-0.539999961853,-0.264999985695,0.0,-0.539999961853,0.264999985695,0.0,0.329999983311,0.264999985695,0.0
1449618391231208856,6,1449618391230542131,odom,0.479999989271,0.0,0.0,0.329999983311,-0.264999985695,0.0,-0.539999961853,-0.264999985695,0.0,-0.539999961853,0.264999985695,0.0,0.329999983311,0.264999985695,0.0
1449618391417983215,7,1449618391417078913,odom,0.479999989271,0.0,0.0,0.329999983311,-0.264999985695,0.0,-0.539999961853,-0.264999985695,0.0,-0.539999961853,0.264999985695,0.0,0.329999983311,0.264999985695,0.0
1449618391656048110,8,1449618391655342951,odom,0.479999989271,0.0,0.0,0.329999983311,-0.264999985695,0.0,-0.539999961853,-0.264999985695,0.0,-0.539999961853,0.264999985695,0.0,0.329999983311,0.264999985695,0.0
1449618391823545352,9,1449618391821278802,odom,0.479999989271,0.0,0.0,0.329999983311,-0.264999985695,0.0,-0.539999961853,-0.264999985695,0.0,-0.539999961853,0.264999985695,0.0,0.329999983311,0.264999985695,0.0
1449618392029098820,10,1449618392028499801,odom,0.479999989271,0.0,0.0,0.329999983311,-0.264999985695,0.0,-0.539999961853,-0.264999985695,0.0,-0.539999961853,0.264999985695,0.0,0.329999983311,0.264999985695,0.0
1449618392262716929,11,1449618392262117145,odom,0.479999989271,0.0,0.0,0.329999983311,-0.264999985695,0.0,-0.539999961853,-0.264999985695,0.0,-0.539999961853,0.264999985695,0.0,0.329999983311,0.264999985695,0.0
1449618392405686473,12,1449618392404897578,odom,0.479999989271,0.0,0.0,0.329999983311,-0.264999985695,0.0,-0.539999961853,-0.264999985695,0.0,-0.539999961853,0.264999985695,0.0,0.329999983311,0.264999985695,0.0
1449618392603835535,13,1449618392603232911,odom,0.479999989271,0.0,0.0,0.329999983311,-0.264999985695,0.0,-0.539999961853,-0.264999985695,0.0,-0.539999961853,0.264999985695,0.0,0.329999983311,0.264999985695,0.0
1449618392829951679,14,1449618392829631213,odom,0.479999989271,0.0,0.0,0.329999983311,-0.264999985695,0.0,-0.539999961853,-0.264999985695,0.0,-0.539999961853,0.264999985695,0.0,0.329999983311,0.264999985695,0.0
1449618393042950474,15,1449618393042575487,odom,0.479999989271,0.0,0.0,0.329999983311,-0.264999985695,0.0,-0.539999961853,-0.264999985695,0.0,-0.539999961853,0.264999985695,0.0,0.329999983311,0.264999985695,0.0
1449618393210507750,16,1449618393209763911,odom,0.479999989271,0.0,0.0,0.329999983311,-0.264999985695,0.0,-0.539999961853,-0.264999985695,0.0,-0.539999961853,0.264999985695,0.0,0.329999983311,0.264999985695,0.0
1449618393423948475,17,1449618393421447795,odom,0.479999989271,0.0,0.0,0.329999983311,-0.264999985695,0.0,-0.539999961853,-0.264999985695,0.0,-0.539999961853,0.264999985695,0.0,0.329999983311,0.264999985695,0.0
1449618393636616918,18,1449618393636300613,odom,0.479999989271,0.0,0.0,0.329999983311,-0.264999985695,0.0,-0.539999961853,-0.264999985695,0.0,-0.539999961853,0.264999985695,0.0,0.329999983311,0.264999985695,0.0
1449618393856382698,19,1449618393855635687,odom,0.479999989271,0.0,0.0,0.329999983311,-0.264999985695,0.0,-0.539999961853,-0.264999985695,0.0,-0.539999961853,0.264999985695,0.0,0.329999983311,0.264999985695,0.0
1449618393994450765,20,1449618393994206129,odom,0.479999989271,0.0,0.0,0.329999983311,-0.264999985695,0.0,-0.539999961853,-0.264999985695,0.0,-0.539999961853,0.264999985695,0.0,0.329999983311,0.264999985695,0.0
1449618394213549100,21,1449618394212994013,odom,0.479999989271,0.0,0.0,0.329999983311,-0.264999985695,0.0,-0.539999961853,-0.264999985695,0.0,-0.539999961853,0.264999985695,0.0,0.329999983311,0.264999985695,0.0
1449618394429649869,22,1449618394405709457,odom,0.479999989271,0.0,0.0,0.329999983311,-0.264999985695,0.0,-0.539999961853,-0.264999985695,0.0,-0.539999961853,0.264999985695,0.0,0.329999983311,0.264999985695,0.0
1449618394606203797,23,1449618394598384305,odom,0.479999989271,0.0,0.0,0.329999983311,-0.264999985695,0.0,-0.539999961853,-0.264999985695,0.0,-0.539999961853,0.264999985695,0.0,0.329999983311,0.264999985695,0.0
1449618394846703365,24,1449618394845359379,odom,0.479999989271,0.0,0.0,0.329999983311,-0.264999985695,0.0,-0.539999961853,-0.264999985695,0.0,-0.539999961853,0.264999985695,0.0,0.329999983311,0.264999985695,0.0
1449618395024465717,25,1449618395023998964,odom,0.479999989271,0.0,0.0,0.329999983311,-0.264999985695,0.0,-0.539999961853,-0.264999985695,0.0,-0.539999961853,0.264999985695,0.0,0.329999983311,0.264999985695,0.0
1449618395318081368,26,1449618395314772118,odom,0.479999989271,0.0,0.0,0.329999983311,-0.264999985695,0.0,-0.539999961853,-0.264999985695,0.0,-0.539999961853,0.264999985695,0.0,0.329999983311,0.264999985695,0.0
1449618395490612351,27,1449618395484265683,odom,0.479999989271,0.0,0.0,0.329999983311,-0.264999985695,0.0,-0.539999961853,-0.264999985695,0.0,-0.539999961853,0.264999985695,0.0,0.329999983311,0.264999985695,0.0
1449618395634228792,28,1449618395632854946,odom,0.479999989271,0.0,0.0,0.329999983311,-0.264999985695,0.0,-0.539999961853,-0.264999985695,0.0,-0.539999961853,0.264999985695,0.0,0.329999983311,0.264999985695,0.0
1449618395893615526,29,1449618395893414982,odom,0.479999989271,0.0,0.0,0.329999983311,-0.264999985695,0.0,-0.539999961853,-0.264999985695,0.0,-0.539999961853,0.264999985695,0.0,0.329999983311,0.264999985695,0.0
1449618396113121490,30,1449618396111568420,odom,0.479999989271,0.0,0.0,0.329999983311,-0.264999985695,0.0,-0.539999961853,-0.264999985695,0.0,-0.539999961853,0.264999985695,0.0,0.329999983311,0.264999985695,0.0
1449618396207950880,31,1449618396206317191,odom,0.485759586096,0.0,0.0,0.335759580135,-0.264999985695,0.0,-0.534240365028,-0.264999985695,0.0,-0.534240365028,0.264999985695,0.0,0.335759580135,0.264999985695,0.0
1449618396454942324,32,1449618396442356524,odom,0.485759586096,0.0,0.0,0.335759580135,-0.264999985695,0.0,-0.534240365028,-0.264999985695,0.0,-0.534240365028,0.264999985695,0.0,0.335759580135,0.264999985695,0.0
1449618396691137258,33,1449618396679922093,odom,0.491519004107,-3.04332297674e-05,0.0,0.341518998146,-0.265030413866,0.0,-0.528480947018,-0.265030413866,0.0,-0.528480947018,0.264969557524,0.0,0.341518998146,0.264969557524,0.0
1449618396910025302,34,1449618396908550957,odom,0.488612562418,-0.00507256900892,0.0,0.33582046628,-0.268472582102,0.0,-0.534130930901,-0.259278565645,0.0,-0.528529942036,0.270691841841,0.0,0.341421425343,0.261497795582,0.0
1449618397048115973,35,1449618397047727607,odom,0.485759586096,0.0,0.0,0.335759580135,-0.264999985695,0.0,-0.534240365028,-0.264999985695,0.0,-0.534240365028,0.264999985695,0.0,0.335759580135,0.264999985695,0.0
1449618397320767379,36,1449618397311136841,odom,0.488612413406,-0.00510300230235,0.0,0.335820317268,-0.268503010273,0.0,-0.53413105011,-0.259308993816,0.0,-0.52853012085,0.27066141367,0.0,0.341421276331,0.261467367411,0.0
1449618397465854410,37,1449618397462358611,odom,0.491519004107,-3.04332297674e-05,0.0,0.341518998146,-0.265030413866,0.0,-0.528480947018,-0.265030413866,0.0,-0.528480947018,0.264969557524,0.0,0.341518998146,0.264969557524,0.0
1449618397659334912,38,1449618397651096914,odom,0.497278600931,-3.04332297674e-05,0.0,0.347278594971,-0.265030413866,0.0,-0.522721350193,-0.265030413866,0.0,-0.522721350193,0.264969557524,0.0,0.347278594971,0.264969557524,0.0
1449618397939001463,39,1449618397935836866,odom,0.497278600931,-3.04332297674e-05,0.0,0.347278594971,-0.265030413866,0.0,-0.522721350193,-0.265030413866,0.0,-0.522721350193,0.264969557524,0.0,0.347278594971,0.264969557524,0.0
1449618398059878191,40,1449618398058698491,odom,0.497278600931,-3.04332297674e-05,0.0,0.347278594971,-0.265030413866,0.0,-0.522721350193,-0.265030413866,0.0,-0.522721350193,0.264969557524,0.0,0.347278594971,0.264969557524,0.0
1449618398264926219,41,1449618398263073969,odom,0.497278600931,-3.04332297674e-05,0.0,0.347278594971,-0.265030413866,0.0,-0.522721350193,-0.265030413866,0.0,-0.522721350193,0.264969557524,0.0,0.347278594971,0.264969557524,0.0
1449618398548313123,42,1449618398547908616,odom,0.497278600931,-3.04332297674e-05,0.0,0.347278594971,-0.265030413866,0.0,-0.522721350193,-0.265030413866,0.0,-0.522721350193,0.264969557524,0.0,0.347278594971,0.264969557524,0.0
1449618398709242893,43,1449618398707617034,odom,0.497278600931,-3.04332297674e-05,0.0,0.347278594971,-0.265030413866,0.0,-0.522721350193,-0.265030413866,0.0,-0.522721350193,0.264969557524,0.0,0.347278594971,0.264969557524,0.0
1449618398881841838,44,1449618398881188748,odom,0.497278600931,-3.04332297674e-05,0.0,0.347278594971,-0.265030413866,0.0,-0.522721350193,-0.265030413866,0.0,-0.522721350193,0.264969557524,0.0,0.347278594971,0.264969557524,0.0
1449618399116257358,45,1449618399114968227,odom,0.497278600931,-3.04332297674e-05,0.0,0.347278594971,-0.265030413866,0.0,-0.522721350193,-0.265030413866,0.0,-0.522721350193,0.264969557524,0.0,0.347278594971,0.264969557524,0.0
1449618399265532916,46,1449618399261414817,odom,0.503038048744,1.01643953671e-20,0.0,0.353038012981,-0.264999985695,0.0,-0.516961932182,-0.264999985695,0.0,-0.516961932182,0.264999985695,0.0,0.353038012981,0.264999985695,0.0
1449618399419690415,47,1449618399418059670,odom,0.51455706358,3.04332297674e-05,0.0,0.364557027817,-0.264969557524,0.0,-0.505442917347,-0.264969557524,0.0,-0.505442917347,0.265030413866,0.0,0.364557027817,0.265030413866,0.0
1449618399729560370,48,1449618399727305826,odom,0.523169279099,0.00516386842355,0.0,0.375978142023,-0.261406511068,0.0,-0.493973255157,-0.270600527525,0.0,-0.49957421422,0.259369850159,0.0,0.370377182961,0.268563896418,0.0
1449618399913771565,49,1449618399912993432,odom,0.5289285779,0.00522473501042,0.0,0.381737411022,-0.261345654726,0.0,-0.488213986158,-0.270539671183,0.0,-0.493814945221,0.259430736303,0.0,0.37613645196,0.26862475276,0.0
1449618400076006509,50,1449618400075535009,odom,0.5289285779,0.00522473501042,0.0,0.381737411022,-0.261345654726,0.0,-0.488213986158,-0.270539671183,0.0,-0.493814945221,0.259430736303,0.0,0.37613645196,0.26862475276,0.0
1449618400262627797,51,1449618400259927226,odom,0.5289285779,0.00522473501042,0.0,0.381737411022,-0.261345654726,0.0,-0.488213986158,-0.270539671183,0.0,-0.493814945221,0.259430736303,0.0,0.37613645196,0.26862475276,0.0
1449618400491973050,52,1449618400491250233,odom,0.5289285779,0.00522473501042,0.0,0.381737411022,-0.261345654726,0.0,-0.488213986158,-0.270539671183,0.0,-0.493814945221,0.259430736303,0.0,0.37613645196,0.26862475276,0.0
1449618400709914425,53,1449618400708571288,odom,0.5289285779,0.00522473501042,0.0,0.381737411022,-0.261345654726,0.0,-0.488213986158,-0.270539671183,0.0,-0.493814945221,0.259430736303,0.0,0.37613645196,0.26862475276,0.0
1449618400864763078,54,1449618400857702213,odom,0.5289285779,0.00522473501042,0.0,0.381737411022,-0.261345654726,0.0,-0.488213986158,-0.270539671183,0.0,-0.493814945221,0.259430736303,0.0,0.37613645196,0.26862475276,0.0
1449618401124633891,55,1449618401121661423,odom,0.5289285779,0.00522473501042,0.0,0.381737411022,-0.261345654726,0.0,-0.488213986158,-0.270539671183,0.0,-0.493814945221,0.259430736303,0.0,0.37613645196,0.26862475276,0.0
1449618401337137764,56,1449618401331761302,odom,0.5289285779,0.00522473501042,0.0,0.381737411022,-0.261345654726,0.0,-0.488213986158,-0.270539671183,0.0,-0.493814945221,0.259430736303,0.0,0.37613645196,0.26862475276,0.0
1449618401443004357,57,1449618401434572429,odom,0.5289285779,0.00522473501042,0.0,0.381737411022,-0.261345654726,0.0,-0.488213986158,-0.270539671183,0.0,-0.493814945221,0.259430736303,0.0,0.37613645196,0.26862475276,0.0
1449618401626112389,58,1449618401621243461,odom,0.53468734026,0.00531603116542,0.0,0.387496173382,-0.26125434041,0.0,-0.482455193996,-0.270448386669,0.0,-0.488056153059,0.259522020817,0.0,0.381895214319,0.268716037273,0.0
1449618401844107550,59,1449618401841312769,odom,0.53468734026,0.00531603116542,0.0,0.387496173382,-0.26125434041,0.0,-0.482455193996,-0.270448386669,0.0,-0.488056153059,0.259522020817,0.0,0.381895214319,0.268716037273,0.0
1449618402105361468,60,1449618402097891134,odom,0.537486076355,0.0104488972574,0.0,0.393120229244,-0.257662087679,0.0,-0.476685404778,-0.276049107313,0.0,-0.487886726856,0.253832489252,0.0,0.381918936968,0.272219508886,0.0
1449618402294391850,61,1449618402293918030,odom,0.537486076355,0.0104488972574,0.0,0.393120229244,-0.257662087679,0.0,-0.476685404778,-0.276049107313,0.0,-0.487886726856,0.253832489252,0.0,0.381918936968,0.272219508886,0.0
1449618402514858363,62,1449618402512457785,odom,0.537486076355,0.0104488972574,0.0,0.393120229244,-0.257662087679,0.0,-0.476685404778,-0.276049107313,0.0,-0.487886726856,0.253832489252,0.0,0.381918936968,0.272219508886,0.0
1449618402789794516,63,1449618402785036109,odom,0.537486076355,0.0104488972574,0.0,0.393120229244,-0.257662087679,0.0,-0.476685404778,-0.276049107313,0.0,-0.487886726856,0.253832489252,0.0,0.381918936968,0.272219508886,0.0
1449618402928735630,64,1449618402927523153,odom,0.537486076355,0.0104488972574,0.0,0.393120229244,-0.257662087679,0.0,-0.476685404778,-0.276049107313,0.0,-0.487886726856,0.253832489252,0.0,0.381918936968,0.272219508886,0.0
1449618403112649506,65,1449618403111792480,odom,0.537486076355,0.0104488972574,0.0,0.393120229244,-0.257662087679,0.0,-0.476685404778,-0.276049107313,0.0,-0.487886726856,0.253832489252,0.0,0.381918936968,0.272219508886,0.0
1449618403241524594,66,1449618403240310785,odom,0.537486076355,0.0104488972574,0.0,0.393120229244,-0.257662087679,0.0,-0.476685404778,-0.276049107313,0.0,-0.487886726856,0.253832489252,0.0,0.381918936968,0.272219508886,0.0
1449618403431223311,67,1449618403429243080,odom,0.537486076355,0.0104488972574,0.0,0.393120229244,-0.257662087679,0.0,-0.476685404778,-0.276049107313,0.0,-0.487886726856,0.253832489252,0.0,0.381918936968,0.272219508886,0.0
1449618403677123913,68,1449618403674800460,odom,0.537486076355,0.0104488972574,0.0,0.393120229244,-0.257662087679,0.0,-0.476685404778,-0.276049107313,0.0,-0.487886726856,0.253832489252,0.0,0.381918936968,0.272219508886,0.0
1449618403980903334,69,1449618403976122823,odom,0.537486076355,0.0104488972574,0.0,0.393120229244,-0.257662087679,0.0,-0.476685404778,-0.276049107313,0.0,-0.487886726856,0.253832489252,0.0,0.381918936968,0.272219508886,0.0
1449618404127560817,70,1449618404127351695,odom,0.537486076355,0.0104488972574,0.0,0.393120229244,-0.257662087679,0.0,-0.476685404778,-0.276049107313,0.0,-0.487886726856,0.253832489252,0.0,0.381918936968,0.272219508886,0.0
1449618404244029155,71,1449618404241761653,odom,0.537486076355,0.0104488972574,0.0,0.393120229244,-0.257662087679,0.0,-0.476685404778,-0.276049107313,0.0,-0.487886726856,0.253832489252,0.0,0.381918936968,0.272219508886,0.0
1449618404449812126,72,1449618404449345842,odom,0.537486076355,0.0104488972574,0.0,0.393120229244,-0.257662087679,0.0,-0.476685404778,-0.276049107313,0.0,-0.487886726856,0.253832489252,0.0,0.381918936968,0.272219508886,0.0
1449618404607882462,73,1449618404607293475,odom,0.537486076355,0.0104488972574,0.0,0.393120229244,-0.257662087679,0.0,-0.476685404778,-0.276049107313,0.0,-0.487886726856,0.253832489252,0.0,0.381918936968,0.272219508886,0.0
1449618404863072683,74,1449618404862031622,odom,0.537486076355,0.0104488972574,0.0,0.393120229244,-0.257662087679,0.0,-0.476685404778,-0.276049107313,0.0,-0.487886726856,0.253832489252,0.0,0.381918936968,0.272219508886,0.0
1449618405043289823,75,1449618405039383172,odom,0.537486076355,0.0104488972574,0.0,0.393120229244,-0.257662087679,0.0,-0.476685404778,-0.276049107313,0.0,-0.487886726856,0.253832489252,0.0,0.381918936968,0.272219508886,0.0
1449618405252198689,76,1449618405251731904,odom,0.537486076355,0.0104488972574,0.0,0.393120229244,-0.257662087679,0.0,-0.476685404778,-0.276049107313,0.0,-0.487886726856,0.253832489252,0.0,0.381918936968,0.272219508886,0.0
1449618405501832479,77,1449618405501433465,odom,0.537486076355,0.0104488972574,0.0,0.393120229244,-0.257662087679,0.0,-0.476685404778,-0.276049107313,0.0,-0.487886726856,0.253832489252,0.0,0.381918936968,0.272219508886,0.0
1449618405693379737,78,1449618405686999146,odom,0.537486076355,0.0104488972574,0.0,0.393120229244,-0.257662087679,0.0,-0.476685404778,-0.276049107313,0.0,-0.487886726856,0.253832489252,0.0,0.381918936968,0.272219508886,0.0
1449618405822959288,79,1449618405822769216,odom,0.537486076355,0.0104488972574,0.0,0.393120229244,-0.257662087679,0.0,-0.476685404778,-0.276049107313,0.0,-0.487886726856,0.253832489252,0.0,0.381918936968,0.272219508886,0.0
1449618406138298777,80,1449618406134577755,odom,0.537486076355,0.0104488972574,0.0,0.393120229244,-0.257662087679,0.0,-0.476685404778,-0.276049107313,0.0,-0.487886726856,0.253832489252,0.0,0.381918936968,0.272219508886,0.0
1449618406304101677,81,1449618406300268974,odom,0.537486076355,0.0104488972574,0.0,0.393120229244,-0.257662087679,0.0,-0.476685404778,-0.276049107313,0.0,-0.487886726856,0.253832489252,0.0,0.381918936968,0.272219508886,0.0
1449618406448974756,82,1449618406441330127,odom,0.537486076355,0.0104488972574,0.0,0.393120229244,-0.257662087679,0.0,-0.476685404778,-0.276049107313,0.0,-0.487886726856,0.253832489252,0.0,0.381918936968,0.272219508886,0.0
1449618406682814355,83,1449618406681278191,odom,0.537486076355,0.0104488972574,0.0,0.393120229244,-0.257662087679,0.0,-0.476685404778,-0.276049107313,0.0,-0.487886726856,0.253832489252,0.0,0.381918936968,0.272219508886,0.0
1449618406917214924,84,1449618406889860354,odom,0.537486076355,0.0104488972574,0.0,0.393120229244,-0.257662087679,0.0,-0.476685404778,-0.276049107313,0.0,-0.487886726856,0.253832489252,0.0,0.381918936968,0.272219508886,0.0
1449618407077023861,85,1449618407075905671,odom,0.537486076355,0.0104488972574,0.0,0.393120229244,-0.257662087679,0.0,-0.476685404778,-0.276049107313,0.0,-0.487886726856,0.253832489252,0.0,0.381918936968,0.272219508886,0.0
1449618407260589381,86,1449618407259059037,odom,0.537486076355,0.0104488972574,0.0,0.393120229244,-0.257662087679,0.0,-0.476685404778,-0.276049107313,0.0,-0.487886726856,0.253832489252,0.0,0.381918936968,0.272219508886,0.0
1449618407480755281,87,1449618407480275452,odom,0.537486076355,0.0104488972574,0.0,0.393120229244,-0.257662087679,0.0,-0.476685404778,-0.276049107313,0.0,-0.487886726856,0.253832489252,0.0,0.381918936968,0.272219508886,0.0
1449618407618266320,88,1449618407617258087,odom,0.537486076355,0.0104488972574,0.0,0.393120229244,-0.257662087679,0.0,-0.476685404778,-0.276049107313,0.0,-0.487886726856,0.253832489252,0.0,0.381918936968,0.272219508886,0.0
1449618407875809870,89,1449618407874475333,odom,0.537486076355,0.0104488972574,0.0,0.393120229244,-0.257662087679,0.0,-0.476685404778,-0.276049107313,0.0,-0.487886726856,0.253832489252,0.0,0.381918936968,0.272219508886,0.0
1449618408073632628,90,1449618408072596372,odom,0.537486076355,0.0104488972574,0.0,0.393120229244,-0.257662087679,0.0,-0.476685404778,-0.276049107313,0.0,-0.487886726856,0.253832489252,0.0,0.381918936968,0.272219508886,0.0
1449618408273611572,91,1449618408271687929,odom,0.537486076355,0.0104488972574,0.0,0.393120229244,-0.257662087679,0.0,-0.476685404778,-0.276049107313,0.0,-0.487886726856,0.253832489252,0.0,0.381918936968,0.272219508886,0.0
1449618408458318705,92,1449618408456517356,odom,0.537486076355,0.0104488972574,0.0,0.393120229244,-0.257662087679,0.0,-0.476685404778,-0.276049107313,0.0,-0.487886726856,0.253832489252,0.0,0.381918936968,0.272219508886,0.0
1449618408692566199,93,1449618408691930567,odom,0.537486076355,0.0104488972574,0.0,0.393120229244,-0.257662087679,0.0,-0.476685404778,-0.276049107313,0.0,-0.487886726856,0.253832489252,0.0,0.381918936968,0.272219508886,0.0
1449618408898689493,94,1449618408897160730,odom,0.537486076355,0.0104488972574,0.0,0.393120229244,-0.257662087679,0.0,-0.476685404778,-0.276049107313,0.0,-0.487886726856,0.253832489252,0.0,0.381918936968,0.272219508886,0.0
1449618409047699313,95,1449618409046565280,odom,0.537486076355,0.0104488972574,0.0,0.393120229244,-0.257662087679,0.0,-0.476685404778,-0.276049107313,0.0,-0.487886726856,0.253832489252,0.0,0.381918936968,0.272219508886,0.0
1449618409284364242,96,1449618409280795550,odom,0.537486076355,0.0104488972574,0.0,0.393120229244,-0.257662087679,0.0,-0.476685404778,-0.276049107313,0.0,-0.487886726856,0.253832489252,0.0,0.381918936968,0.272219508886,0.0
1449618409487563672,97,1449618409479910049,odom,0.537486076355,0.0104488972574,0.0,0.393120229244,-0.257662087679,0.0,-0.476685404778,-0.276049107313,0.0,-0.487886726856,0.253832489252,0.0,0.381918936968,0.272219508886,0.0
1449618409701140428,98,1449618409700188634,odom,0.537486076355,0.0104488972574,0.0,0.393120229244,-0.257662087679,0.0,-0.476685404778,-0.276049107313,0.0,-0.487886726856,0.253832489252,0.0,0.381918936968,0.272219508886,0.0
1449618409902565895,99,1449618409902113605,odom,0.537486076355,0.0104488972574,0.0,0.393120229244,-0.257662087679,0.0,-0.476685404778,-0.276049107313,0.0,-0.487886726856,0.253832489252,0.0,0.381918936968,0.272219508886,0.0
1449618410089452733,100,1449618410089106456,odom,0.537486076355,0.0104488972574,0.0,0.393120229244,-0.257662087679,0.0,-0.476685404778,-0.276049107313,0.0,-0.487886726856,0.253832489252,0.0,0.381918936968,0.272219508886,0.0
1449618410296985257,101,1449618410296391661,odom,0.537486076355,0.0104488972574,0.0,0.393120229244,-0.257662087679,0.0,-0.476685404778,-0.276049107313,0.0,-0.487886726856,0.253832489252,0.0,0.381918936968,0.272219508886,0.0
1449618410427225584,102,1449618410426389205,odom,0.537486076355,0.0104488972574,0.0,0.393120229244,-0.257662087679,0.0,-0.476685404778,-0.276049107313,0.0,-0.487886726856,0.253832489252,0.0,0.381918936968,0.272219508886,0.0
1449618410705276457,103,1449618410704888405,odom,0.537486076355,0.0104488972574,0.0,0.393120229244,-0.257662087679,0.0,-0.476685404778,-0.276049107313,0.0,-0.487886726856,0.253832489252,0.0,0.381918936968,0.272219508886,0.0
1449618410887481217,104,1449618410886850603,odom,0.537486076355,0.0104488972574,0.0,0.393120229244,-0.257662087679,0.0,-0.476685404778,-0.276049107313,0.0,-0.487886726856,0.253832489252,0.0,0.381918936968,0.272219508886,0.0
1449618411071729434,105,1449618411071448771,odom,0.537486076355,0.0104488972574,0.0,0.393120229244,-0.257662087679,0.0,-0.476685404778,-0.276049107313,0.0,-0.487886726856,0.253832489252,0.0,0.381918936968,0.272219508886,0.0
1449618411270402544,106,1449618411265560679,odom,0.537486076355,0.0104488972574,0.0,0.393120229244,-0.257662087679,0.0,-0.476685404778,-0.276049107313,0.0,-0.487886726856,0.253832489252,0.0,0.381918936968,0.272219508886,0.0
1449618411511681458,107,1449618411510655996,odom,0.537486076355,0.0104488972574,0.0,0.393120229244,-0.257662087679,0.0,-0.476685404778,-0.276049107313,0.0,-0.487886726856,0.253832489252,0.0,0.381918936968,0.272219508886,0.0
1449618411685908411,108,1449618411683260052,odom,0.537486076355,0.0104488972574,0.0,0.393120229244,-0.257662087679,0.0,-0.476685404778,-0.276049107313,0.0,-0.487886726856,0.253832489252,0.0,0.381918936968,0.272219508886,0.0
1449618411845923539,109,1449618411845281891,odom,0.537486076355,0.0104488972574,0.0,0.393120229244,-0.257662087679,0.0,-0.476685404778,-0.276049107313,0.0,-0.487886726856,0.253832489252,0.0,0.381918936968,0.272219508886,0.0
1449618412028014873,110,1449618412027160927,odom,0.537486076355,0.0104488972574,0.0,0.393120229244,-0.257662087679,0.0,-0.476685404778,-0.276049107313,0.0,-0.487886726856,0.253832489252,0.0,0.381918936968,0.272219508886,0.0
1449618412265625826,111,1449618412264033709,odom,0.537486076355,0.0104488972574,0.0,0.393120229244,-0.257662087679,0.0,-0.476685404778,-0.276049107313,0.0,-0.487886726856,0.253832489252,0.0,0.381918936968,0.272219508886,0.0
1449618412440610099,112,1449618412439070834,odom,0.537486076355,0.0104488972574,0.0,0.393120229244,-0.257662087679,0.0,-0.476685404778,-0.276049107313,0.0,-0.487886726856,0.253832489252,0.0,0.381918936968,0.272219508886,0.0
1449618412645167213,113,1449618412644086760,odom,0.537486076355,0.0104488972574,0.0,0.393120229244,-0.257662087679,0.0,-0.476685404778,-0.276049107313,0.0,-0.487886726856,0.253832489252,0.0,0.381918936968,0.272219508886,0.0
1449618412889186243,114,1449618412882400778,odom,0.537486076355,0.0104488972574,0.0,0.393120229244,-0.257662087679,0.0,-0.476685404778,-0.276049107313,0.0,-0.487886726856,0.253832489252,0.0,0.381918936968,0.272219508886,0.0
1449618413074027448,115,1449618413070338718,odom,0.537486076355,0.0104488972574,0.0,0.393120229244,-0.257662087679,0.0,-0.476685404778,-0.276049107313,0.0,-0.487886726856,0.253832489252,0.0,0.381918936968,0.272219508886,0.0
1449618413238019770,116,1449618413236897859,odom,0.537486076355,0.0104488972574,0.0,0.393120229244,-0.257662087679,0.0,-0.476685404778,-0.276049107313,0.0,-0.487886726856,0.253832489252,0.0,0.381918936968,0.272219508886,0.0
1449618413448690613,117,1449618413448310489,odom,0.537486076355,0.0104488972574,0.0,0.393120229244,-0.257662087679,0.0,-0.476685404778,-0.276049107313,0.0,-0.487886726856,0.253832489252,0.0,0.381918936968,0.272219508886,0.0
1449618413630356719,118,1449618413629793306,odom,0.537486076355,0.0104488972574,0.0,0.393120229244,-0.257662087679,0.0,-0.476685404778,-0.276049107313,0.0,-0.487886726856,0.253832489252,0.0,0.381918936968,0.272219508886,0.0
1449618413867819190,119,1449618413865088354,odom,0.537486076355,0.0104488972574,0.0,0.393120229244,-0.257662087679,0.0,-0.476685404778,-0.276049107313,0.0,-0.487886726856,0.253832489252,0.0,0.381918936968,0.272219508886,0.0
1449618414017891588,120,1449618414017482652,odom,0.537486076355,0.0104488972574,0.0,0.393120229244,-0.257662087679,0.0,-0.476685404778,-0.276049107313,0.0,-0.487886726856,0.253832489252,0.0,0.381918936968,0.272219508886,0.0
1449618414389285951,121,1449618414386715077,odom,0.537486076355,0.0104488972574,0.0,0.393120229244,-0.257662087679,0.0,-0.476685404778,-0.276049107313,0.0,-0.487886726856,0.253832489252,0.0,0.381918936968,0.272219508886,0.0
1449618414534621639,122,1449618414530004200,odom,0.537486076355,0.0104488972574,0.0,0.393120229244,-0.257662087679,0.0,-0.476685404778,-0.276049107313,0.0,-0.487886726856,0.253832489252,0.0,0.381918936968,0.272219508886,0.0
1449618414701101147,123,1449618414686186051,odom,0.537486076355,0.0104488972574,0.0,0.393120229244,-0.257662087679,0.0,-0.476685404778,-0.276049107313,0.0,-0.487886726856,0.253832489252,0.0,0.381918936968,0.272219508886,0.0
1449618414844283415,124,1449618414844016582,odom,0.537486076355,0.0104488972574,0.0,0.393120229244,-0.257662087679,0.0,-0.476685404778,-0.276049107313,0.0,-0.487886726856,0.253832489252,0.0,0.381918936968,0.272219508886,0.0
1449618415057381054,125,1449618415056550682,odom,0.537486076355,0.0104488972574,0.0,0.393120229244,-0.257662087679,0.0,-0.476685404778,-0.276049107313,0.0,-0.487886726856,0.253832489252,0.0,0.381918936968,0.272219508886,0.0
1449618415281729120,126,1449618415278315636,odom,0.537486076355,0.0104488972574,0.0,0.393120229244,-0.257662087679,0.0,-0.476685404778,-0.276049107313,0.0,-0.487886726856,0.253832489252,0.0,0.381918936968,0.272219508886,0.0
1449618415433729833,127,1449618415431408554,odom,0.537486076355,0.0104488972574,0.0,0.393120229244,-0.257662087679,0.0,-0.476685404778,-0.276049107313,0.0,-0.487886726856,0.253832489252,0.0,0.381918936968,0.272219508886,0.0
1449618415651113800,128,1449618415644347863,odom,0.537486076355,0.0104488972574,0.0,0.393120229244,-0.257662087679,0.0,-0.476685404778,-0.276049107313,0.0,-0.487886726856,0.253832489252,0.0,0.381918936968,0.272219508886,0.0
1449618415924729304,129,1449618415924519642,odom,0.537486076355,0.0104488972574,0.0,0.393120229244,-0.257662087679,0.0,-0.476685404778,-0.276049107313,0.0,-0.487886726856,0.253832489252,0.0,0.381918936968,0.272219508886,0.0
1449618416074221550,130,1449618416061770250,odom,0.537486076355,0.0104488972574,0.0,0.393120229244,-0.257662087679,0.0,-0.476685404778,-0.276049107313,0.0,-0.487886726856,0.253832489252,0.0,0.381918936968,0.272219508886,0.0
1449618416259885575,131,1449618416256915889,odom,0.537486076355,0.0104488972574,0.0,0.393120229244,-0.257662087679,0.0,-0.476685404778,-0.276049107313,0.0,-0.487886726856,0.253832489252,0.0,0.381918936968,0.272219508886,0.0
1449618416478163485,132,1449618416475377314,odom,0.537486076355,0.0104488972574,0.0,0.393120229244,-0.257662087679,0.0,-0.476685404778,-0.276049107313,0.0,-0.487886726856,0.253832489252,0.0,0.381918936968,0.272219508886,0.0
1449618416687595858,133,1449618416687311910,odom,0.540446102619,0.00540732778609,0.0,0.393254965544,-0.261163055897,0.0,-0.476696401834,-0.270357072353,0.0,-0.482297360897,0.25961330533,0.0,0.387654006481,0.268807351589,0.0
1449618416864701753,134,1449618416863398447,odom,0.549003660679,0.0106314895675,0.0,0.404637783766,-0.25747948885,0.0,-0.465167850256,-0.275866538286,0.0,-0.476369142532,0.254015088081,0.0,0.393436491489,0.272402107716,0.0
1449618417075434133,135,1449618417072691533,odom,0.557722449303,0.00568121671677,0.0,0.410531312227,-0.260889172554,0.0,-0.459420055151,-0.270083189011,0.0,-0.465021014214,0.259887218475,0.0,0.404930353165,0.269081234932,0.0
1449618417309410816,136,1449618417308279343,odom,0.572038292885,0.0110271042213,0.0,0.427672445774,-0.257083892822,0.0,-0.44213321805,-0.275470912457,0.0,-0.453334510326,0.254410684109,0.0,0.416471153498,0.272797733545,0.0
1449618417430400493,137,1449618417422010037,odom,0.592057526112,0.0165544375777,0.0,0.450533092022,-0.253067225218,0.0,-0.419029653072,-0.280645191669,0.0,-0.435830056667,0.249088451266,0.0,0.433732718229,0.276666432619,0.0
1449618417656723249,138,1449618417655624641,odom,0.612344801426,0.0119400331751,0.0,0.467978924513,-0.256170958281,0.0,-0.401826709509,-0.274557977915,0.0,-0.413028001785,0.25532361865,0.0,0.456777632236,0.273710668087,0.0
1449618417843443002,139,1449618417843031949,odom,0.632359981537,0.0176194831729,0.0,0.49083557725,-0.252002179623,0.0,-0.378727197647,-0.279580146074,0.0,-0.39552757144,0.25015348196,0.0,0.474035203457,0.277731478214,0.0
1449618418086046717,140,1449618418081895953,odom,0.649630069733,0.018167199567,0.0,0.508105635643,-0.251454442739,0.0,-0.361457109451,-0.279032438993,0.0,-0.378257483244,0.250701218843,0.0,0.49130526185,0.278279185295,0.0
1449618418237114024,141,1449618418236540127,odom,0.661142349243,0.0185627564788,0.0,0.519617915154,-0.251058906317,0.0,-0.349944859743,-0.278636872768,0.0,-0.366745233536,0.251096755266,0.0,0.502817511559,0.27867475152,0.0
1449618418505091113,142,1449618418500754123,odom,0.669587552547,0.0239666104317,0.0,0.53092032671,-0.247135594487,0.0,-0.338302433491,-0.283901453018,0.0,-0.360700011253,0.245625078678,0.0,0.508522748947,0.282390922308,0.0
1449618418652688702,143,1449618418652151121,odom,0.681097567081,0.0244229938835,0.0,0.542430341244,-0.246679201722,0.0,-0.326792418957,-0.283445060253,0.0,-0.349189996719,0.246081456542,0.0,0.520032763481,0.282847315073,0.0
1449618418853748585,144,1449618418850775797,odom,0.692606449127,0.0249097887427,0.0,0.553939223289,-0.246192410588,0.0,-0.315283536911,-0.282958269119,0.0,-0.337681114674,0.246568247676,0.0,0.531541645527,0.283334106207,0.0
1449618419087386363,145,1449618419087073710,odom,0.704113841057,0.0254269838333,0.0,0.565446674824,-0.245675221086,0.0,-0.303776115179,-0.282441079617,0.0,-0.326173692942,0.24708545208,0.0,0.543049097061,0.28385129571,0.0
1449618419258677520,146,1449618419252545861,odom,0.712501466274,0.0309197828174,0.0,0.576707005501,-0.241632699966,0.0,-0.292078703642,-0.287582308054,0.0,-0.320070981979,0.241677939892,0.0,0.548714697361,0.287627577782,0.0
1449618419508169947,147,1449618419507594396,odom,0.718254506588,0.0311935804784,0.0,0.58245998621,-0.241358891129,0.0,-0.28632569313,-0.287308514118,0.0,-0.31431800127,0.241951733828,0.0,0.55446767807,0.287901371717,0.0
1449618419612660268,148,1449618419612313690,odom,0.718254506588,0.0311935804784,0.0,0.58245998621,-0.241358891129,0.0,-0.28632569313,-0.287308514118,0.0,-0.31431800127,0.241951733828,0.0,0.55446767807,0.287901371717,0.0
1449618419914932114,149,1449618419911718934,odom,0.718254506588,0.0311935804784,0.0,0.58245998621,-0.241358891129,0.0,-0.28632569313,-0.287308514118,0.0,-0.31431800127,0.241951733828,0.0,0.55446767807,0.287901371717,0.0
1449618420063824688,150,1449618420060693078,odom,0.718254506588,0.0311935804784,0.0,0.58245998621,-0.241358891129,0.0,-0.28632569313,-0.287308514118,0.0,-0.31431800127,0.241951733828,0.0,0.55446767807,0.287901371717,0.0
1449618420272466126,151,1449618420270503917,odom,0.718254506588,0.0311935804784,0.0,0.58245998621,-0.241358891129,0.0,-0.28632569313,-0.287308514118,0.0,-0.31431800127,0.241951733828,0.0,0.55446767807,0.287901371717,0.0
1449618420439718814,152,1449618420439513186,odom,0.721372842789,0.0262483749539,0.0,0.582705616951,-0.244853824377,0.0,-0.286517113447,-0.281619697809,0.0,-0.308914721012,0.247906833887,0.0,0.560308039188,0.284672707319,0.0
1449618420699890242,153,1449618420694542349,odom,0.724007487297,0.0314673781395,0.0,0.588212966919,-0.241085097194,0.0,-0.280572712421,-0.287034720182,0.0,-0.308564990759,0.242225542665,0.0,0.560220658779,0.288175165653,0.0
1449618420857596531,154,1449618420856892506,odom,0.729760468006,0.0317411758006,0.0,0.593966007233,-0.240811303258,0.0,-0.27481970191,-0.286760926247,0.0,-0.30281201005,0.2424993366,0.0,0.565973699093,0.288448959589,0.0
1449618421055494508,155,1449618421052430095,odom,0.738631844521,0.0270697660744,0.0,0.599964618683,-0.24403244257,0.0,-0.269258141518,-0.2807982862,0.0,-0.29165571928,0.248728230596,0.0,0.57756704092,0.285494089127,0.0
1449618421236199695,156,1449618421231560939,odom,0.752769589424,0.0328971631825,0.0,0.616975069046,-0.239655315876,0.0,-0.251810610294,-0.285604923964,0.0,-0.279802918434,0.243655323982,0.0,0.588982760906,0.28960493207,0.0
1449618421496987942,157,1449618421491405466,odom,0.775770425797,0.0342050939798,0.0,0.639975965023,-0.238347381353,0.0,-0.228809729218,-0.284296989441,0.0,-0.256802022457,0.244963258505,0.0,0.611983656883,0.290912866592,0.0
1449618421710114378,158,1449618421705959624,odom,0.807095170021,0.0411853045225,0.0,0.674188494682,-0.232787013054,0.0,-0.194063067436,-0.2879152596,0.0,-0.227646946907,0.241019621491,0.0,0.640604615211,0.296147882938,0.0
1449618421843504110,159,1449618421842625420,odom,0.847331225872,0.0437400303781,0.0,0.714424610138,-0.230232283473,0.0,-0.153826981783,-0.28536054492,0.0,-0.187410861254,0.243574351072,0.0,0.680840730667,0.298702597618,0.0
1449618422085710535,160,1449618422083583098,odom,0.887561023235,0.0463858433068,0.0,0.754654407501,-0.227586477995,0.0,-0.113597162068,-0.282714724541,0.0,-0.147181048989,0.24622015655,0.0,0.72107052803,0.301348417997,0.0
1449618422294079246,161,1449618422291385308,odom,0.941787660122,0.0553690753877,0.0,0.811783730984,-0.219992473722,0.0,-0.0558367706835,-0.284293204546,0.0,-0.0950084775686,0.244257226586,0.0,0.772612035275,0.308557957411,0.0
1449618422446479495,162,1449618422445504558,odom,0.999225974083,0.0596259236336,0.0,0.869222104549,-0.215735629201,0.0,0.00160156947095,-0.280036360025,0.0,-0.0375701412559,0.248514086008,0.0,0.830050349236,0.312814801931,0.0
1449618422686062931,163,1449618422685228542,odom,1.05666434765,0.0638827681541,0.0,0.92666041851,-0.21147878468,0.0,0.0590399093926,-0.275779515505,0.0,0.0198682006449,0.252770930529,0.0,0.887488722801,0.317071646452,0.0
1449618422881925798,164,1449618422876097634,odom,1.11654162407,0.0738035663962,0.0,0.989454984665,-0.20291647315,0.0,0.122562415898,-0.276382505894,0.0,0.0778072476387,0.251724481583,0.0,0.944699764252,0.325190484524,0.0
1449618423077981836,165,1449618423073585336,odom,1.17723667622,0.0734289065003,0.0,1.04723274708,-0.201932638884,0.0,0.179612234235,-0.266233384609,0.0,0.140440523624,0.262317061424,0.0,1.00806105137,0.32661780715,0.0
1449618423328210784,166,1449618423327184010,odom,1.2346508503,0.0779891386628,0.0,1.10464704037,-0.197372421622,0.0,0.237026482821,-0.261673152447,0.0,0.19785477221,0.266877293587,0.0,1.06547522545,0.33117800951,0.0
1449618423475745748,167,1449618423474931819,odom,1.30357694626,0.0830973535776,0.0,1.17357301712,-0.192264199257,0.0,0.305952489376,-0.256564944983,0.0,0.266780763865,0.271985501051,0.0,1.13440132141,0.336286246777,0.0
1449618423722539423,168,1449618423717787473,odom,1.35276854038,0.08135137707,0.0,1.21986198425,-0.192620933056,0.0,0.35161036253,-0.247749194503,0.0,0.318026483059,0.281185686588,0.0,1.18627810478,0.336313933134,0.0
1449618423929619783,169,1449618423928689136,odom,1.42173838615,0.085821993649,0.0,1.28883183002,-0.188150316477,0.0,0.420580238104,-0.243278577924,0.0,0.386996358633,0.285656303167,0.0,1.25524795055,0.340784549713,0.0
1449618424050119300,170,1449618424049340615,odom,1.48240494728,0.0842861831188,0.0,1.3466104269,-0.188266292214,0.0,0.47782471776,-0.234215915203,0.0,0.449832439423,0.295044332743,0.0,1.31861805916,0.340993970633,0.0
1449618424288751625,171,1449618424288411994,odom,1.53098070621,0.0922397524118,0.0,1.39807403088,-0.181732565165,0.0,0.529822528362,-0.23686081171,0.0,0.496238619089,0.29207405448,0.0,1.36449015141,0.347202330828,0.0
1449618424454031325,172,1449618424450780080,odom,1.59166669846,0.0903697386384,0.0,1.45587217808,-0.182182744145,0.0,0.587086439133,-0.228132367134,0.0,0.559094130993,0.301127910614,0.0,1.42787981033,0.347077518702,0.0
1449618424658702421,173,1449618424658376644,odom,1.6523193121,0.0880713015795,0.0,1.51365208626,-0.183030903339,0.0,0.644429326057,-0.219796746969,0.0,0.622031748295,0.309729754925,0.0,1.49125444889,0.346495628357,0.0
1449618424883381009,174,1449618424881883330,odom,1.70987379551,0.0902315676212,0.0,1.57120656967,-0.180870637298,0.0,0.701983869076,-0.217636495829,0.0,0.679586291313,0.311890035868,0.0,1.54880905151,0.348655879498,0.0
1449618425092740494,175,1449618425092529496,odom,1.76475000381,0.0868968367577,0.0,1.62322556973,-0.182724818587,0.0,0.753662824631,-0.21030279994,0.0,0.736862421036,0.319430857897,0.0,1.60642516613,0.347008824348,0.0
1449618425225753716,176,1449618425225394354,odom,1.82534372807,0.0831953585148,0.0,1.68097794056,-0.18491563201,0.0,0.811172246933,-0.203302666545,0.0,0.799970924854,0.326578944921,0.0,1.66977655888,0.344965994358,0.0
1449618425411918972,177,1449618425411024240,odom,1.87728583813,0.0733246877789,0.0,1.72728574276,-0.191675305367,0.0,0.857285797596,-0.191675305367,0.0,0.857285797596,0.338324666023,0.0,1.72728574276,0.338324666023,0.0
1449618425649133474,178,1449618425648712183,odom,1.92900919914,0.0625410377979,0.0,1.77344202995,-0.199229583144,0.0,0.903636395931,-0.180842548609,0.0,0.91483771801,0.349039047956,0.0,1.78464341164,0.330652028322,0.0
1449618425835183204,179,1449618425832489828,odom,1.9747377634,0.0508491843939,0.0,1.81367301941,-0.207575142384,0.0,0.944450199604,-0.170809283853,0.0,0.966847836971,0.358717232943,0.0,1.83607053757,0.321951389313,0.0
1449618425997795488,180,1449618425997488537,odom,2.01446628571,0.0386800803244,0.0,1.8479757309,-0.216282486916,0.0,0.979724109173,-0.16115424037,0.0,1.01330792904,0.367780655622,0.0,1.88155961037,0.312652409077,0.0
1449618426266089736,181,1449618426264641103,odom,2.04320001602,0.0367641896009,0.0,1.87670946121,-0.218198373914,0.0,1.00845789909,-0.163070127368,0.0,1.04204177856,0.365864753723,0.0,1.91029334068,0.310736507177,0.0
1449618426402245948,182,1449618426401222130,odom,2.05146765709,0.0310649871826,0.0,1.88229191303,-0.222123906016,0.0,1.01467144489,-0.157823175192,0.0,1.0538431406,0.370727270842,0.0,1.92146360874,0.306426554918,0.0
1449618426647701296,183,1449618426646933955,odom,2.05146765709,0.0310649871826,0.0,1.88229191303,-0.222123906016,0.0,1.01467144489,-0.157823175192,0.0,1.0538431406,0.370727270842,0.0,1.92146360874,0.306426554918,0.0
1449618426865430351,184,1449618426864747201,odom,2.03997778893,0.0318859964609,0.0,1.87080216408,-0.221302896738,0.0,1.00318169594,-0.157002165914,0.0,1.04235339165,0.371548265219,0.0,1.90997385979,0.307247549295,0.0
1449618427037623785,185,1449618427032456870,odom,2.03170394897,0.0374941118062,0.0,1.86521339417,-0.217468455434,0.0,0.996961891651,-0.162340208888,0.0,1.03054571152,0.366594672203,0.0,1.89879727364,0.311466425657,0.0
1449618427246278863,186,1449618427245123316,odom,2.03170394897,0.0374941118062,0.0,1.86521339417,-0.217468455434,0.0,0.996961891651,-0.162340208888,0.0,1.03054571152,0.366594672203,0.0,1.89879727364,0.311466425657,0.0
1449618427423828161,187,1449618427422960032,odom,2.03170394897,0.0374941118062,0.0,1.86521339417,-0.217468455434,0.0,0.996961891651,-0.162340208888,0.0,1.03054571152,0.366594672203,0.0,1.89879727364,0.311466425657,0.0
1449618427658654050,188,1449618427657967504,odom,2.03170394897,0.0374941118062,0.0,1.86521339417,-0.217468455434,0.0,0.996961891651,-0.162340208888,0.0,1.03054571152,0.366594672203,0.0,1.89879727364,0.311466425657,0.0
1449618427831012331,189,1449618427830118487,odom,2.03170394897,0.0374941118062,0.0,1.86521339417,-0.217468455434,0.0,0.996961891651,-0.162340208888,0.0,1.03054571152,0.366594672203,0.0,1.89879727364,0.311466425657,0.0
1449618428038913762,190,1449618428035428743,odom,2.03170394897,0.0374941118062,0.0,1.86521339417,-0.217468455434,0.0,0.996961891651,-0.162340208888,0.0,1.03054571152,0.366594672203,0.0,1.89879727364,0.311466425657,0.0
1449618428321510519,191,1449618428297425682,odom,2.03170394897,0.0374941118062,0.0,1.86521339417,-0.217468455434,0.0,0.996961891651,-0.162340208888,0.0,1.03054571152,0.366594672203,0.0,1.89879727364,0.311466425657,0.0
1449618428488905991,192,1449618428488107747,odom,2.03170394897,0.0374941118062,0.0,1.86521339417,-0.217468455434,0.0,0.996961891651,-0.162340208888,0.0,1.03054571152,0.366594672203,0.0,1.89879727364,0.311466425657,0.0
1449618428636895191,193,1449618428636394147,odom,2.03170394897,0.0374941118062,0.0,1.86521339417,-0.217468455434,0.0,0.996961891651,-0.162340208888,0.0,1.03054571152,0.366594672203,0.0,1.89879727364,0.311466425657,0.0
1449618428830073775,194,1449618428829804892,odom,2.03170394897,0.0374941118062,0.0,1.86521339417,-0.217468455434,0.0,0.996961891651,-0.162340208888,0.0,1.03054571152,0.366594672203,0.0,1.89879727364,0.311466425657,0.0
1449618429085149594,195,1449618429082223467,odom,2.03170394897,0.0374941118062,0.0,1.86521339417,-0.217468455434,0.0,0.996961891651,-0.162340208888,0.0,1.03054571152,0.366594672203,0.0,1.89879727364,0.311466425657,0.0
1449618429267540836,196,1449618429267227294,odom,2.03170394897,0.0374941118062,0.0,1.86521339417,-0.217468455434,0.0,0.996961891651,-0.162340208888,0.0,1.03054571152,0.366594672203,0.0,1.89879727364,0.311466425657,0.0
1449618429457259508,197,1449618429456811067,odom,2.03170394897,0.0374941118062,0.0,1.86521339417,-0.217468455434,0.0,0.996961891651,-0.162340208888,0.0,1.03054571152,0.366594672203,0.0,1.89879727364,0.311466425657,0.0
1449618429635159600,198,1449618429634739579,odom,2.03170394897,0.0374941118062,0.0,1.86521339417,-0.217468455434,0.0,0.996961891651,-0.162340208888,0.0,1.03054571152,0.366594672203,0.0,1.89879727364,0.311466425657,0.0
1449618429900612836,199,1449618429899741520,odom,2.03170394897,0.0374941118062,0.0,1.86521339417,-0.217468455434,0.0,0.996961891651,-0.162340208888,0.0,1.03054571152,0.366594672203,0.0,1.89879727364,0.311466425657,0.0
1449618430048614944,200,1449618430047639715,odom,2.02021002769,0.0382543951273,0.0,1.85371947289,-0.216708168387,0.0,0.985467910767,-0.161579921842,0.0,1.01905179024,0.367354959249,0.0,1.88730335236,0.312226712704,0.0
1449618430270201589,201,1449618430267194745,odom,2.00037956238,0.0444743037224,0.0,1.83659279346,-0.212233483791,0.0,0.967807114124,-0.166283860803,0.0,0.995799362659,0.362976402044,0.0,1.864585042,0.317026793957,0.0
1449618430452317034,202,1449618430451751918,odom,1.96897995472,0.0510622933507,0.0,1.80791521072,-0.207362025976,0.0,0.938692390919,-0.170596167445,0.0,0.961090028286,0.35893034935,0.0,1.83031272888,0.32216450572,0.0
1449618430657239629,203,1449618430656076345,odom,1.94051742554,0.0620543174446,0.0,1.78495025635,-0.199716314673,0.0,0.915144681931,-0.181329280138,0.0,0.926345944405,0.34855234623,0.0,1.79615163803,0.330165296793,0.0
1449618430824732402,204,1449618430804965660,odom,1.91172599792,0.0626629441977,0.0,1.75615882874,-0.199107676744,0.0,0.886353194714,-0.180720642209,0.0,0.897554457188,0.349160969257,0.0,1.76736009121,0.330773919821,0.0
1449618431098812310,205,1449618431097843243,odom,1.88303554058,0.0728683844209,0.0,1.73303556442,-0.192131608725,0.0,0.863035619259,-0.192131608725,0.0,0.863035619259,0.337868392467,0.0,1.73303556442,0.337868392467,0.0
1449618431258097253,206,1449618431256444140,odom,1.85709106922,0.0778496563435,0.0,1.70989990234,-0.188720718026,0.0,0.83994859457,-0.197914749384,0.0,0.834347605705,0.3320556283,0.0,1.70429897308,0.341249674559,0.0
1449618431505929119,207,1449618431505112315,odom,1.82232832909,0.0872317627072,0.0,1.680803895,-0.182389885187,0.0,0.811241149902,-0.209967881441,0.0,0.794440746307,0.319765776396,0.0,1.6640034914,0.347343742847,0.0
1449618431617821595,208,1449618431617314647,odom,1.78472316265,0.0911142379045,0.0,1.64605605602,-0.179987967014,0.0,0.776833236217,-0.216753810644,0.0,0.754435658455,0.31277269125,0.0,1.62365841866,0.349538564682,0.0
1449618431896575591,209,1449618431890358845,odom,1.74708974361,0.094355866313,0.0,1.61129522324,-0.17819660902,0.0,0.7425096035,-0.224146232009,0.0,0.714517295361,0.305114030838,0.0,1.5833029747,0.351063638926,0.0
1449618432079745610,210,1449618432079277886,odom,1.70622122288,0.101774081588,0.0,1.57621741295,-0.173587471247,0.0,0.708596885204,-0.237888202071,0.0,0.66942512989,0.290662229061,0.0,1.53704571724,0.354962974787,0.0
1449618432281324431,211,1449618432270840478,odom,1.66519486904,0.108448199928,0.0,1.54103958607,-0.169599413872,0.0,0.674971878529,-0.252222537994,0.0,0.624638259411,0.275381982327,0.0,1.49070596695,0.358005076647,0.0
1449618432492107175,212,1449618432491598775,odom,1.62504637241,0.104770876467,0.0,1.50089108944,-0.173276737332,0.0,0.634823322296,-0.255899846554,0.0,0.584489703178,0.271704643965,0.0,1.45055747032,0.354327768087,0.0
1449618432684929070,213,1449618432684684918,odom,1.56435394287,0.103892967105,0.0,1.44314396381,-0.175451174378,0.0,0.577997684479,-0.267222166061,0.0,0.522091269493,0.259820967913,0.0,1.38723754883,0.351591944695,0.0
1449618432839051402,214,1449618432838570779,odom,1.51613926888,0.094075396657,0.0,1.39198410511,-0.183972224593,0.0,0.525916278362,-0.266595333815,0.0,0.475582689047,0.261009186506,0.0,1.34165048599,0.343632280827,0.0
1449618433028749004,215,1449618433027950394,odom,1.45878732204,0.0887874364853,0.0,1.33463215828,-0.189260184765,0.0,0.468564391136,-0.271883308887,0.0,0.418230772018,0.255721211433,0.0,1.28429853916,0.338344335556,0.0
1449618433387769701,216,1449618433387500500,odom,1.38177394867,0.0770784467459,0.0,1.25468730927,-0.199641600251,0.0,0.387794703245,-0.273107618093,0.0,0.343039542437,0.254999339581,0.0,1.20993208885,0.328465372324,0.0
1449618433532063770,217,1449618433530810078,odom,1.28744804859,0.0644215121865,0.0,1.15744411945,-0.210940048099,0.0,0.289823651314,-0.275240778923,0.0,0.250651955605,0.25330966711,0.0,1.11827242374,0.317610383034,0.0
1449618433678342607,218,1449618433666782928,odom,1.2472307682,0.0615935251117,0.0,1.11722683907,-0.213768020272,0.0,0.249606370926,-0.278068751097,0.0,0.210434660316,0.250481694937,0.0,1.07805514336,0.31478241086,0.0
1449618433896174812,219,1449618433895725941,odom,1.1903847456,0.0479710809886,0.0,1.05459022522,-0.22458140552,0.0,0.185804501176,-0.270531028509,0.0,0.157812207937,0.258729249239,0.0,1.02659785748,0.304678857327,0.0
1449618434086548966,220,1449618434086180221,odom,1.12138199806,0.0440472848713,0.0,0.985587537289,-0.228505194187,0.0,0.116801835597,-0.274454802275,0.0,0.0888095423579,0.254805445671,0.0,0.957595229149,0.300755053759,0.0
1449618434338080760,221,1449618434335230511,odom,1.0523416996,0.0408529154956,0.0,0.916547238827,-0.231699556112,0.0,0.0477615632117,-0.277649194002,0.0,0.0197692662477,0.251611083746,0.0,0.888554930687,0.297560691833,0.0
1449618434489814035,222,1449618434489356890,odom,0.969131112099,0.0325912833214,0.0,0.830463886261,-0.238510921597,0.0,-0.0387588553131,-0.275276780128,0.0,-0.0611564442515,0.254249751568,0.0,0.808066308498,0.291015595198,0.0
1449618434645337661,223,1449618434638539934,odom,0.917632043362,0.0212035942823,0.0,0.773266196251,-0.246907383204,0.0,-0.0965394675732,-0.26529443264,0.0,-0.1077407673,0.264587193727,0.0,0.762064874172,0.282974213362,0.0
1449618434889961973,224,1449618434889674805,odom,0.860049009323,0.0199863314629,0.0,0.715683162212,-0.24812464416,0.0,-0.154122471809,-0.266511678696,0.0,-0.165323764086,0.26336991787,0.0,0.704481899738,0.281756967306,0.0
1449618435087512329,225,1449618435085140249,odom,0.819738507271,0.0192863978446,0.0,0.67537266016,-0.248824581504,0.0,-0.194432988763,-0.267211616039,0.0,-0.205634281039,0.262669980526,0.0,0.664171338081,0.281057029963,0.0
1449618435293958099,226,1449618435293344518,odom,0.788143932819,0.013818770647,0.0,0.640952765942,-0.252751618624,0.0,-0.228998601437,-0.26194563508,0.0,-0.234599560499,0.268024772406,0.0,0.635351836681,0.277218788862,0.0
1449618435490999693,227,1449618435490778629,odom,0.770866155624,0.0136361718178,0.0,0.623674988747,-0.252934217453,0.0,-0.246276393533,-0.26212823391,0.0,-0.251877367496,0.267842173576,0.0,0.618073999882,0.277036190033,0.0
1449618435666158478,228,1449618435653519287,odom,0.765106856823,0.0135753052309,0.0,0.617915689945,-0.252995073795,0.0,-0.252035677433,-0.262189090252,0.0,-0.257636636496,0.267781287432,0.0,0.612314760685,0.276975333691,0.0
1449618435932896859,229,1449618435932562366,odom,0.768013477325,0.00850273575634,0.0,0.618013441563,-0.256497263908,0.0,-0.251986503601,-0.256497263908,0.0,-0.251986503601,0.273502737284,0.0,0.618013441563,0.273502737284,0.0
1449618436063039399,230,1449618436061789929,odom,0.765107035637,0.0135448714718,0.0,0.617915868759,-0.253025501966,0.0,-0.252035498619,-0.262219548225,0.0,-0.257636457682,0.267750859261,0.0,0.612314939499,0.276944905519,0.0
1449618436255112808,231,1449618436254624975,odom,0.765107035637,0.0135448714718,0.0,0.617915868759,-0.253025501966,0.0,-0.252035498619,-0.262219548225,0.0,-0.257636457682,0.267750859261,0.0,0.612314939499,0.276944905519,0.0
1449618436467796786,232,1449618436465941899,odom,0.747829258442,0.0133622726426,0.0,0.600638091564,-0.253208100796,0.0,-0.269313305616,-0.262402147055,0.0,-0.274914264679,0.267568260431,0.0,0.595037102699,0.276762276888,0.0
1449618436636500909,233,1449618436636211581,odom,0.724792182446,0.0131188062951,0.0,0.577601015568,-0.253451555967,0.0,-0.29235035181,-0.262645602226,0.0,-0.297951310873,0.26732480526,0.0,0.572000086308,0.276518821716,0.0
1449618436887002056,234,1449618436884017614,odom,0.690237045288,0.0127231776714,0.0,0.543045938015,-0.253847211599,0.0,-0.326905459166,-0.263041228056,0.0,-0.332506418228,0.26692917943,0.0,0.53744494915,0.276123195887,0.0
1449618437115142024,235,1449618437114160967,odom,0.646966516972,0.0170648135245,0.0,0.502600669861,-0.251046180725,0.0,-0.367204993963,-0.269433200359,0.0,-0.37840628624,0.260448396206,0.0,0.491399377584,0.278835445642,0.0
1449618437271197038,236,1449618437269806818,odom,0.595138907433,0.016151856631,0.0,0.450773060322,-0.251959115267,0.0,-0.4190325737,-0.270346164703,0.0,-0.430233865976,0.259535461664,0.0,0.439571768045,0.277922481298,0.0
1449618437489134946,237,1449618437487980428,odom,0.560589134693,0.0154215004295,0.0,0.41622325778,-0.252689480782,0.0,-0.453582376242,-0.271076530218,0.0,-0.464783668518,0.258805096149,0.0,0.405021965504,0.277192115784,0.0
1449618437722367027,238,1449618437717774342,odom,0.531797587872,0.0148128699511,0.0,0.387431770563,-0.253298103809,0.0,-0.482373863459,-0.271685153246,0.0,-0.493575185537,0.258196473122,0.0,0.376230478287,0.276583492756,0.0
1449618437886146802,239,1449618437883172315,odom,0.511510372162,0.0194272752851,0.0,0.369985938072,-0.250194370747,0.0,-0.499576836824,-0.277772367001,0.0,-0.516377210617,0.251961290836,0.0,0.35318556428,0.27953928709,0.0
1449618438075938557,240,1449618438068388483,odom,0.50300770998,0.014143393375,0.0,0.358641862869,-0.253967583179,0.0,-0.511163771152,-0.272354632616,0.0,-0.522365093231,0.257526993752,0.0,0.347440570593,0.275914013386,0.0
1449618438305705415,241,1449618438302490733,odom,0.50300770998,0.014143393375,0.0,0.358641862869,-0.253967583179,0.0,-0.511163771152,-0.272354632616,0.0,-0.522365093231,0.257526993752,0.0,0.347440570593,0.275914013386,0.0
1449618438445499548,242,1449618438441258381,odom,0.505752086639,0.019305549562,0.0,0.364227622747,-0.250316113234,0.0,-0.505335152149,-0.277894079685,0.0,-0.52213549614,0.251839548349,0.0,0.347427248955,0.279417544603,0.0
1449618438737083313,243,1449618438736813531,odom,0.508765220642,0.0142955426127,0.0,0.364399373531,-0.253815442324,0.0,-0.50540626049,-0.272202461958,0.0,-0.516607582569,0.257679134607,0.0,0.353198081255,0.276066154242,0.0
1449618438986874260,244,1449618438977988144,odom,0.508765220642,0.0142955426127,0.0,0.364399373531,-0.253815442324,0.0,-0.50540626049,-0.272202461958,0.0,-0.516607582569,0.257679134607,0.0,0.353198081255,0.276066154242,0.0
1449618439146354669,245,1449618439145845595,odom,0.508765220642,0.0142955426127,0.0,0.364399373531,-0.253815442324,0.0,-0.50540626049,-0.272202461958,0.0,-0.516607582569,0.257679134607,0.0,0.353198081255,0.276066154242,0.0
1449618439290622876,246,1449618439282917168,odom,0.508765220642,0.0142955426127,0.0,0.364399373531,-0.253815442324,0.0,-0.50540626049,-0.272202461958,0.0,-0.516607582569,0.257679134607,0.0,0.353198081255,0.276066154242,0.0
1449618439492065161,247,1449618439491448284,odom,0.508765220642,0.0142955426127,0.0,0.364399373531,-0.253815442324,0.0,-0.50540626049,-0.272202461958,0.0,-0.516607582569,0.257679134607,0.0,0.353198081255,0.276066154242,0.0
1449618439643379771,248,1449618439643049674,odom,0.508765220642,0.0142955426127,0.0,0.364399373531,-0.253815442324,0.0,-0.50540626049,-0.272202461958,0.0,-0.516607582569,0.257679134607,0.0,0.353198081255,0.276066154242,0.0
1449618439910165517,249,1449618439907165783,odom,0.514522731304,0.0144476918504,0.0,0.370156854391,-0.253663301468,0.0,-0.499648779631,-0.272050321102,0.0,-0.510850071907,0.257831275463,0.0,0.358955562115,0.2762183249,0.0
1449618440046008348,250,1449618440042729849,odom,0.523025333881,0.0197315737605,0.0,0.381500929594,-0.249890074134,0.0,-0.488061845303,-0.277468055487,0.0,-0.504862189293,0.252265572548,0.0,0.364700555801,0.279843568802,0.0
1449618440345607655,251,1449618440345328932,odom,0.537555098534,0.0149650191888,0.0,0.393189251423,-0.253145962954,0.0,-0.476616382599,-0.27153301239,0.0,-0.487817674875,0.258348613977,0.0,0.381987959146,0.276735633612,0.0
1449618440506992705,252,1449618440506527212,odom,0.554829180241,0.0153606208041,0.0,0.410463362932,-0.252750366926,0.0,-0.45934227109,-0.27113738656,0.0,-0.470543593168,0.258744210005,0.0,0.399262070656,0.277131259441,0.0
1449618440637209863,253,1449618440633241997,odom,0.56634581089,0.0156040731817,0.0,0.421979963779,-0.252506911755,0.0,-0.447825670242,-0.270893931389,0.0,-0.459026992321,0.258987665176,0.0,0.410778671503,0.277374684811,0.0
1449618440883548025,254,1449618440873722307,odom,0.589379012585,0.016090977937,0.0,0.445013165474,-0.252020001411,0.0,-0.42479249835,-0.270407050848,0.0,-0.435993790627,0.25947457552,0.0,0.433811873198,0.277861595154,0.0
1449618441097820403,255,1449618441096491656,odom,0.609614431858,0.0113841565326,0.0,0.462423294783,-0.255186229944,0.0,-0.407528102398,-0.264380246401,0.0,-0.41312906146,0.265590131283,0.0,0.45682233572,0.274784177542,0.0
1449618441241699825,256,1449618441240976809,odom,0.635447323322,0.0169430673122,0.0,0.491081476212,-0.251167923212,0.0,-0.37872415781,-0.269554942846,0.0,-0.389925450087,0.260326653719,0.0,0.479880183935,0.278713703156,0.0
1449618441436392172,257,1449618441436218581,odom,0.655682265759,0.0122666759416,0.0,0.508491158485,-0.254303693771,0.0,-0.361460238695,-0.26349774003,0.0,-0.367061197758,0.266472667456,0.0,0.502890169621,0.275666683912,0.0
1449618441669934299,258,1449618441669652724,odom,0.67871594429,0.0127231506631,0.0,0.531524837017,-0.253847211599,0.0,-0.338426560163,-0.263041257858,0.0,-0.344027519226,0.266929149628,0.0,0.525923848152,0.276123166084,0.0
1449618441867009465,259,1449618441864326837,odom,0.698791027069,0.0181299056858,0.0,0.554425179958,-0.249981075525,0.0,-0.315380454063,-0.268368124962,0.0,-0.32658174634,0.261513501406,0.0,0.543223917484,0.27990052104,0.0
1449618442038755380,260,1449618442038252950,odom,0.721824228764,0.018616810441,0.0,0.577458381653,-0.249494180083,0.0,-0.292347252369,-0.267881214619,0.0,-0.303548544645,0.262000411749,0.0,0.566257119179,0.280387431383,0.0
1449618442275319835,261,1449618442274987984,odom,0.739099144936,0.0189819876105,0.0,0.594733297825,-0.249128997326,0.0,-0.275072336197,-0.26751601696,0.0,-0.286273628473,0.262365579605,0.0,0.583531975746,0.280752629042,0.0
1449618442429821574,262,1449618442428832714,odom,0.76213234663,0.0194688923657,0.0,0.617766499519,-0.248642086983,0.0,-0.252039134502,-0.267029136419,0.0,-0.263240426779,0.262852489948,0.0,0.606565177441,0.281239509583,0.0
1449618442641277825,263,1449618442639421516,odom,0.779408216476,0.0197732113302,0.0,0.635042369366,-0.248337775469,0.0,-0.234763279557,-0.266724795103,0.0,-0.245964571834,0.263156801462,0.0,0.623841047287,0.281543850899,0.0
1449618442875356299,264,1449618442872568628,odom,0.799644589424,0.0150055307895,0.0,0.652453482151,-0.251564830542,0.0,-0.217497929931,-0.260758876801,0.0,-0.223098888993,0.269211530685,0.0,0.646852493286,0.278405547142,0.0
1449618443100837636,265,1449618443100439239,odom,0.816921412945,0.0152489896864,0.0,0.669730305672,-0.25132137537,0.0,-0.200221091509,-0.260515421629,0.0,-0.205822050571,0.269454985857,0.0,0.664129316807,0.278649002314,0.0
1449618443252053835,266,1449618443250305870,odom,0.836996555328,0.0206557437778,0.0,0.692630648613,-0.247455239296,0.0,-0.177174970508,-0.265842288733,0.0,-0.188376262784,0.264039337635,0.0,0.681429386139,0.282426357269,0.0
1449618443509437743,267,1449618443508808197,odom,0.851473629475,0.0158271975815,0.0,0.704282522202,-0.250743180513,0.0,-0.165668874979,-0.25993719697,0.0,-0.171269848943,0.270033180714,0.0,0.698681533337,0.279227226973,0.0
1449618443637292107,268,1449618443636832529,odom,0.871549725533,0.0211730916053,0.0,0.727183878422,-0.24693788588,0.0,-0.142621785402,-0.265324920416,0.0,-0.15382309258,0.264556676149,0.0,0.715982556343,0.282943725586,0.0
1449618443886980015,269,1449618443884240974,odom,0.888825058937,0.0215078406036,0.0,0.744459211826,-0.246603146195,0.0,-0.125346407294,-0.264990180731,0.0,-0.136547699571,0.264891445637,0.0,0.733257949352,0.283278465271,0.0
1449618444025707785,270,1449618444022474060,odom,0.906100928783,0.0218121595681,0.0,0.761735081673,-0.24629881978,0.0,-0.108070544899,-0.264685869217,0.0,-0.119271837175,0.265195757151,0.0,0.750533819199,0.283582776785,0.0
