%time,field.header.seq,field.header.stamp,field.header.frame_id,field.polygon.points0.x,field.polygon.points0.y,field.polygon.points0.z,field.polygon.points1.x,field.polygon.points1.y,field.polygon.points1.z,field.polygon.points2.x,field.polygon.points2.y,field.polygon.points2.z,field.polygon.points3.x,field.polygon.points3.y,field.polygon.points3.z,field.polygon.points4.x,field.polygon.points4.y,field.polygon.points4.z
1449618390143682231,1,1449618390143369798,odom,0.479999989271,0.0,0.0,0.329999983311,-0.264999985695,0.0,-0.539999961853,-0.264999985695,0.0,-0.539999961853,0.264999985695,0.0,0.329999983311,0.264999985695,0.0
1449618390343958271,2,1449618390343631733,odom,0.479999989271,0.0,0.0,0.329999983311,-0.264999985695,0.0,-0.539999961853,-0.264999985695,0.0,-0.539999961853,0.264999985695,0.0,0.329999983311,0.264999985695,0.0
1449618390635822730,3,1449618390634999113,odom,0.479999989271,0.0,0.0,0.329999983311,-0.264999985695,0.0,-0.539999961853,-0.264999985695,0.0,-0.539999961853,0.264999985695,0.0,0.329999983311,0.264999985695,0.0
1449618390852776976,4,1449618390852504878,odom,0.479999989271,0.0,0.0,0.329999983311,-0.264999985695,0.0,-0.539999961853,-0.264999985695,0.0,-0.539999961853,0.264999985695,0.0,0.329999983311,0.264999985695,0.0
1449618391051389295,5,1449618391051064528,odom,0.479999989271,0.0,0.0,0.329999983311,-0.264999985695,0.0,-0.539999961853,-0.264999985695,0.0,-0.539999961853,0.264999985695,0.0,0.329999983311,0.264999985695,0.0
1449618391243650823,6,1449618391243324620,odom,0.479999989271,0.0,0.0,0.329999983311,-0.264999985695,0.0,-0.539999961853,-0.264999985695,0.0,-0.539999961853,0.264999985695,0.0,0.329999983311,0.264999985695,0.0
1449618391448179927,7,1449618391447984651,odom,0.479999989271,0.0,0.0,0.329999983311,-0.264999985695,0.0,-0.539999961853,-0.264999985695,0.0,-0.539999961853,0.264999985695,0.0,0.329999983311,0.264999985695,0.0
1449618391657249512,8,1449618391656851989,odom,0.479999989271,0.0,0.0,0.329999983311,-0.264999985695,0.0,-0.539999961853,-0.264999985695,0.0,-0.539999961853,0.264999985695,0.0,0.329999983311,0.264999985695,0.0
1449618391866224798,9,1449618391865796372,odom,0.479999989271,0.0,0.0,0.329999983311,-0.264999985695,0.0,-0.539999961853,-0.264999985695,0.0,-0.539999961853,0.264999985695,0.0,0.329999983311,0.264999985695,0.0
1449618392080126900,10,1449618392078261838,odom,0.479999989271,0.0,0.0,0.329999983311,-0.264999985695,0.0,-0.539999961853,-0.264999985695,0.0,-0.539999961853,0.264999985695,0.0,0.329999983311,0.264999985695,0.0
1449618392261003085,11,1449618392259004410,odom,0.479999989271,0.0,0.0,0.329999983311,-0.264999985695,0.0,-0.539999961853,-0.264999985695,0.0,-0.539999961853,0.264999985695,0.0,0.329999983311,0.264999985695,0.0
1449618392453655322,12,1449618392450739647,odom,0.479999989271,0.0,0.0,0.329999983311,-0.264999985695,0.0,-0.539999961853,-0.264999985695,0.0,-0.539999961853,0.264999985695,0.0,0.329999983311,0.264999985695,0.0
1449618392647603969,13,1449618392646552260,odom,0.479999989271,0.0,0.0,0.329999983311,-0.264999985695,0.0,-0.539999961853,-0.264999985695,0.0,-0.539999961853,0.264999985695,0.0,0.329999983311,0.264999985695,0.0
1449618392852125591,14,1449618392851967024,odom,0.479999989271,0.0,0.0,0.329999983311,-0.264999985695,0.0,-0.539999961853,-0.264999985695,0.0,-0.539999961853,0.264999985695,0.0,0.329999983311,0.264999985695,0.0
1449618393027720055,15,1449618393027450972,odom,0.479999989271,0.0,0.0,0.329999983311,-0.264999985695,0.0,-0.539999961853,-0.264999985695,0.0,-0.539999961853,0.264999985695,0.0,0.329999983311,0.264999985695,0.0
1449618393255463489,16,1449618393248857857,odom,0.479999989271,0.0,0.0,0.329999983311,-0.264999985695,0.0,-0.539999961853,-0.264999985695,0.0,-0.539999961853,0.264999985695,0.0,0.329999983311,0.264999985695,0.0
1449618393447388145,17,1449618393447120684,odom,0.479999989271,0.0,0.0,0.329999983311,-0.264999985695,0.0,-0.539999961853,-0.264999985695,0.0,-0.539999961853,0.264999985695,0.0,0.329999983311,0.264999985695,0.0
1449618393649750907,18,1449618393649574553,odom,0.479999989271,0.0,0.0,0.329999983311,-0.264999985695,0.0,-0.539999961853,-0.264999985695,0.0,-0.539999961853,0.264999985695,0.0,0.329999983311,0.264999985695,0.0
1449618393862695875,19,1449618393859397578,odom,0.479999989271,0.0,0.0,0.329999983311,-0.264999985695,0.0,-0.539999961853,-0.264999985695,0.0,-0.539999961853,0.264999985695,0.0,0.329999983311,0.264999985695,0.0
1449618394044692726,20,1449618394044333205,odom,0.479999989271,0.0,0.0,0.329999983311,-0.264999985695,0.0,-0.539999961853,-0.264999985695,0.0,-0.539999961853,0.264999985695,0.0,0.329999983311,0.264999985695,0.0
1449618394236334886,21,1449618394235915542,odom,0.479999989271,0.0,0.0,0.329999983311,-0.264999985695,0.0,-0.539999961853,-0.264999985695,0.0,-0.539999961853,0.264999985695,0.0,0.329999983311,0.264999985695,0.0
1449618394450509102,22,1449618394450349985,odom,0.479999989271,0.0,0.0,0.329999983311,-0.264999985695,0.0,-0.539999961853,-0.264999985695,0.0,-0.539999961853,0.264999985695,0.0,0.329999983311,0.264999985695,0.0
1449618394872239525,23,1449618394866792993,odom,0.479999989271,0.0,0.0,0.329999983311,-0.264999985695,0.0,-0.539999961853,-0.264999985695,0.0,-0.539999961853,0.264999985695,0.0,0.329999983311,0.264999985695,0.0
1449618395072212438,24,1449618395064851934,odom,0.479999989271,0.0,0.0,0.329999983311,-0.264999985695,0.0,-0.539999961853,-0.264999985695,0.0,-0.539999961853,0.264999985695,0.0,0.329999983311,0.264999985695,0.0
1449618395486738924,25,1449618395481213746,odom,0.479999989271,0.0,0.0,0.329999983311,-0.264999985695,0.0,-0.539999961853,-0.264999985695,0.0,-0.539999961853,0.264999985695,0.0,0.329999983311,0.264999985695,0.0
1449618395687350893,26,1449618395682254411,odom,0.479999989271,0.0,0.0,0.329999983311,-0.264999985695,0.0,-0.539999961853,-0.264999985695,0.0,-0.539999961853,0.264999985695,0.0,0.329999983311,0.264999985695,0.0
1449618396005622750,27,1449618396005304764,odom,0.479999989271,0.0,0.0,0.329999983311,-0.264999985695,0.0,-0.539999961853,-0.264999985695,0.0,-0.539999961853,0.264999985695,0.0,0.329999983311,0.264999985695,0.0
1449618396218084432,28,1449618396215480583,odom,0.485759586096,0.0,0.0,0.335759580135,-0.264999985695,0.0,-0.534240365028,-0.264999985695,0.0,-0.534240365028,0.264999985695,0.0,0.335759580135,0.264999985695,0.0
1449618396554585932,29,1449618396550580963,odom,0.485759586096,0.0,0.0,0.335759580135,-0.264999985695,0.0,-0.534240365028,-0.264999985695,0.0,-0.534240365028,0.264999985695,0.0,0.335759580135,0.264999985695,0.0
1449618396894235423,30,1449618396883352640,odom,0.491519004107,-3.04332297674e-05,0.0,0.341518998146,-0.265030413866,0.0,-0.528480947018,-0.265030413866,0.0,-0.528480947018,0.264969557524,0.0,0.341518998146,0.264969557524,0.0
1449618397226240713,31,1449618397224858327,odom,0.485759586096,0.0,0.0,0.335759580135,-0.264999985695,0.0,-0.534240365028,-0.264999985695,0.0,-0.534240365028,0.264999985695,0.0,0.335759580135,0.264999985695,0.0
1449618397454158880,32,1449618397448220654,odom,0.491519004107,-3.04332297674e-05,0.0,0.341518998146,-0.265030413866,0.0,-0.528480947018,-0.265030413866,0.0,-0.528480947018,0.264969557524,0.0,0.341518998146,0.264969557524,0.0
1449618397929890230,33,1449618397927718751,odom,0.497278600931,-3.04332297674e-05,0.0,0.347278594971,-0.265030413866,0.0,-0.522721350193,-0.265030413866,0.0,-0.522721350193,0.264969557524,0.0,0.347278594971,0.264969557524,0.0
1449618398212655356,34,1449618398208067526,odom,0.497278600931,-3.04332297674e-05,0.0,0.347278594971,-0.265030413866,0.0,-0.522721350193,-0.265030413866,0.0,-0.522721350193,0.264969557524,0.0,0.347278594971,0.264969557524,0.0
1449618398547801414,35,1449618398546091349,odom,0.497278600931,-3.04332297674e-05,0.0,0.347278594971,-0.265030413866,0.0,-0.522721350193,-0.265030413866,0.0,-0.522721350193,0.264969557524,0.0,0.347278594971,0.264969557524,0.0
1449618398790109492,36,1449618398789217654,odom,0.497278600931,-3.04332297674e-05,0.0,0.347278594971,-0.265030413866,0.0,-0.522721350193,-0.265030413866,0.0,-0.522721350193,0.264969557524,0.0,0.347278594971,0.264969557524,0.0
1449618399056099009,37,1449618399043262273,odom,0.497278600931,-3.04332297674e-05,0.0,0.347278594971,-0.265030413866,0.0,-0.522721350193,-0.265030413866,0.0,-0.522721350193,0.264969557524,0.0,0.347278594971,0.264969557524,0.0
1449618399292937900,38,1449618399292688215,odom,0.503038048744,1.01643953671e-20,0.0,0.353038012981,-0.264999985695,0.0,-0.516961932182,-0.264999985695,0.0,-0.516961932182,0.264999985695,0.0,0.353038012981,0.264999985695,0.0
1449618399481060472,39,1449618399479133505,odom,0.51455706358,3.04332297674e-05,0.0,0.364557027817,-0.264969557524,0.0,-0.505442917347,-0.264969557524,0.0,-0.505442917347,0.265030413866,0.0,0.364557027817,0.265030413866,0.0
1449618400021323087,40,1449618400019201305,odom,0.5289285779,0.00522473501042,0.0,0.381737411022,-0.261345654726,0.0,-0.488213986158,-0.270539671183,0.0,-0.493814945221,0.259430736303,0.0,0.37613645196,0.26862475276,0.0
1449618400358796453,41,1449618400356641450,odom,0.5289285779,0.00522473501042,0.0,0.381737411022,-0.261345654726,0.0,-0.488213986158,-0.270539671183,0.0,-0.493814945221,0.259430736303,0.0,0.37613645196,0.26862475276,0.0
1449618400664286009,42,1449618400661729954,odom,0.5289285779,0.00522473501042,0.0,0.381737411022,-0.261345654726,0.0,-0.488213986158,-0.270539671183,0.0,-0.493814945221,0.259430736303,0.0,0.37613645196,0.26862475276,0.0
1449618400943873531,43,1449618400943241929,odom,0.5289285779,0.00522473501042,0.0,0.381737411022,-0.261345654726,0.0,-0.488213986158,-0.270539671183,0.0,-0.493814945221,0.259430736303,0.0,0.37613645196,0.26862475276,0.0
1449618401295978705,44,1449618401291023321,odom,0.5289285779,0.00522473501042,0.0,0.381737411022,-0.261345654726,0.0,-0.488213986158,-0.270539671183,0.0,-0.493814945221,0.259430736303,0.0,0.37613645196,0.26862475276,0.0
1449618401569488417,45,1449618401568846807,odom,0.531727313995,0.0103576006368,0.0,0.387361437082,-0.257753372192,0.0,-0.482444196939,-0.276140421629,0.0,-0.493645489216,0.253741204739,0.0,0.376160144806,0.272128224373,0.0
1449618401919382547,46,1449618401918408435,odom,0.537486076355,0.0104488972574,0.0,0.393120229244,-0.257662087679,0.0,-0.476685404778,-0.276049107313,0.0,-0.487886726856,0.253832489252,0.0,0.381918936968,0.272219508886,0.0
1449618402158011787,47,1449618402155241961,odom,0.537486076355,0.0104488972574,0.0,0.393120229244,-0.257662087679,0.0,-0.476685404778,-0.276049107313,0.0,-0.487886726856,0.253832489252,0.0,0.381918936968,0.272219508886,0.0
1449618402590027200,48,1449618402589189625,odom,0.537486076355,0.0104488972574,0.0,0.393120229244,-0.257662087679,0.0,-0.476685404778,-0.276049107313,0.0,-0.487886726856,0.253832489252,0.0,0.381918936968,0.272219508886,0.0
1449618402729612324,49,1449618402728145562,odom,0.537486076355,0.0104488972574,0.0,0.393120229244,-0.257662087679,0.0,-0.476685404778,-0.276049107313,0.0,-0.487886726856,0.253832489252,0.0,0.381918936968,0.272219508886,0.0
1449618403076651208,50,1449618403076207288,odom,0.537486076355,0.0104488972574,0.0,0.393120229244,-0.257662087679,0.0,-0.476685404778,-0.276049107313,0.0,-0.487886726856,0.253832489252,0.0,0.381918936968,0.272219508886,0.0
1449618403274045990,51,1449618403273434310,odom,0.537486076355,0.0104488972574,0.0,0.393120229244,-0.257662087679,0.0,-0.476685404778,-0.276049107313,0.0,-0.487886726856,0.253832489252,0.0,0.381918936968,0.272219508886,0.0
1449618403548161940,52,1449618403547777069,odom,0.537486076355,0.0104488972574,0.0,0.393120229244,-0.257662087679,0.0,-0.476685404778,-0.276049107313,0.0,-0.487886726856,0.253832489252,0.0,0.381918936968,0.272219508886,0.0
1449618403821405192,53,1449618403817826060,odom,0.537486076355,0.0104488972574,0.0,0.393120229244,-0.257662087679,0.0,-0.476685404778,-0.276049107313,0.0,-0.487886726856,0.253832489252,0.0,0.381918936968,0.272219508886,0.0
1449618404069982195,54,1449618404069092217,odom,0.537486076355,0.0104488972574,0.0,0.393120229244,-0.257662087679,0.0,-0.476685404778,-0.276049107313,0.0,-0.487886726856,0.253832489252,0.0,0.381918936968,0.272219508886,0.0
1449618404323924733,55,1449618404323690244,odom,0.537486076355,0.0104488972574,0.0,0.393120229244,-0.257662087679,0.0,-0.476685404778,-0.276049107313,0.0,-0.487886726856,0.253832489252,0.0,0.381918936968,0.272219508886,0.0
1449618405009922771,56,1449618405009403747,odom,0.537486076355,0.0104488972574,0.0,0.393120229244,-0.257662087679,0.0,-0.476685404778,-0.276049107313,0.0,-0.487886726856,0.253832489252,0.0,0.381918936968,0.272219508886,0.0
1449618405276193194,57,1449618405274848499,odom,0.537486076355,0.0104488972574,0.0,0.393120229244,-0.257662087679,0.0,-0.476685404778,-0.276049107313,0.0,-0.487886726856,0.253832489252,0.0,0.381918936968,0.272219508886,0.0
1449618405463515272,58,1449618405463098955,odom,0.537486076355,0.0104488972574,0.0,0.393120229244,-0.257662087679,0.0,-0.476685404778,-0.276049107313,0.0,-0.487886726856,0.253832489252,0.0,0.381918936968,0.272219508886,0.0
1449618405812190528,59,1449618405811932646,odom,0.537486076355,0.0104488972574,0.0,0.393120229244,-0.257662087679,0.0,-0.476685404778,-0.276049107313,0.0,-0.487886726856,0.253832489252,0.0,0.381918936968,0.272219508886,0.0
1449618406125027989,60,1449618406124545691,odom,0.537486076355,0.0104488972574,0.0,0.393120229244,-0.257662087679,0.0,-0.476685404778,-0.276049107313,0.0,-0.487886726856,0.253832489252,0.0,0.381918936968,0.272219508886,0.0
1449618406430665397,61,1449618406430284568,odom,0.537486076355,0.0104488972574,0.0,0.393120229244,-0.257662087679,0.0,-0.476685404778,-0.276049107313,0.0,-0.487886726856,0.253832489252,0.0,0.381918936968,0.272219508886,0.0
1449618406784549227,62,1449618406784127501,odom,0.537486076355,0.0104488972574,0.0,0.393120229244,-0.257662087679,0.0,-0.476685404778,-0.276049107313,0.0,-0.487886726856,0.253832489252,0.0,0.381918936968,0.272219508886,0.0
1449618406978013578,63,1449618406974567151,odom,0.537486076355,0.0104488972574,0.0,0.393120229244,-0.257662087679,0.0,-0.476685404778,-0.276049107313,0.0,-0.487886726856,0.253832489252,0.0,0.381918936968,0.272219508886,0.0
1449618407372585134,64,1449618407368944252,odom,0.537486076355,0.0104488972574,0.0,0.393120229244,-0.257662087679,0.0,-0.476685404778,-0.276049107313,0.0,-0.487886726856,0.253832489252,0.0,0.381918936968,0.272219508886,0.0
1449618407603072456,65,1449618407602915278,odom,0.537486076355,0.0104488972574,0.0,0.393120229244,-0.257662087679,0.0,-0.476685404778,-0.276049107313,0.0,-0.487886726856,0.253832489252,0.0,0.381918936968,0.272219508886,0.0
1449618407768831972,66,1449618407760681473,odom,0.537486076355,0.0104488972574,0.0,0.393120229244,-0.257662087679,0.0,-0.476685404778,-0.276049107313,0.0,-0.487886726856,0.253832489252,0.0,0.381918936968,0.272219508886,0.0
1449618408054121206,67,1449618408052535862,odom,0.537486076355,0.0104488972574,0.0,0.393120229244,-0.257662087679,0.0,-0.476685404778,-0.276049107313,0.0,-0.487886726856,0.253832489252,0.0,0.381918936968,0.272219508886,0.0
1449618408204915176,68,1449618408204474673,odom,0.537486076355,0.0104488972574,0.0,0.393120229244,-0.257662087679,0.0,-0.476685404778,-0.276049107313,0.0,-0.487886726856,0.253832489252,0.0,0.381918936968,0.272219508886,0.0
1449618408458330733,69,1449618408458150021,odom,0.537486076355,0.0104488972574,0.0,0.393120229244,-0.257662087679,0.0,-0.476685404778,-0.276049107313,0.0,-0.487886726856,0.253832489252,0.0,0.381918936968,0.272219508886,0.0
1449618408635269928,70,1449618408634746348,odom,0.537486076355,0.0104488972574,0.0,0.393120229244,-0.257662087679,0.0,-0.476685404778,-0.276049107313,0.0,-0.487886726856,0.253832489252,0.0,0.381918936968,0.272219508886,0.0
1449618409186135237,71,1449618409171546729,odom,0.537486076355,0.0104488972574,0.0,0.393120229244,-0.257662087679,0.0,-0.476685404778,-0.276049107313,0.0,-0.487886726856,0.253832489252,0.0,0.381918936968,0.272219508886,0.0
1449618409528264579,72,1449618409526712491,odom,0.537486076355,0.0104488972574,0.0,0.393120229244,-0.257662087679,0.0,-0.476685404778,-0.276049107313,0.0,-0.487886726856,0.253832489252,0.0,0.381918936968,0.272219508886,0.0
1449618409668493874,73,1449618409668060959,odom,0.537486076355,0.0104488972574,0.0,0.393120229244,-0.257662087679,0.0,-0.476685404778,-0.276049107313,0.0,-0.487886726856,0.253832489252,0.0,0.381918936968,0.272219508886,0.0
1449618409885604148,74,1449618409884198561,odom,0.537486076355,0.0104488972574,0.0,0.393120229244,-0.257662087679,0.0,-0.476685404778,-0.276049107313,0.0,-0.487886726856,0.253832489252,0.0,0.381918936968,0.272219508886,0.0
1449618410470867450,75,1449618410469074238,odom,0.537486076355,0.0104488972574,0.0,0.393120229244,-0.257662087679,0.0,-0.476685404778,-0.276049107313,0.0,-0.487886726856,0.253832489252,0.0,0.381918936968,0.272219508886,0.0
1449618410707592373,76,1449618410707086281,odom,0.537486076355,0.0104488972574,0.0,0.393120229244,-0.257662087679,0.0,-0.476685404778,-0.276049107313,0.0,-0.487886726856,0.253832489252,0.0,0.381918936968,0.272219508886,0.0
1449618411071202291,77,1449618411069561364,odom,0.537486076355,0.0104488972574,0.0,0.393120229244,-0.257662087679,0.0,-0.476685404778,-0.276049107313,0.0,-0.487886726856,0.253832489252,0.0,0.381918936968,0.272219508886,0.0
1449618411598707232,78,1449618411598401896,odom,0.537486076355,0.0104488972574,0.0,0.393120229244,-0.257662087679,0.0,-0.476685404778,-0.276049107313,0.0,-0.487886726856,0.253832489252,0.0,0.381918936968,0.272219508886,0.0
1449618411845241831,79,1449618411844420087,odom,0.537486076355,0.0104488972574,0.0,0.393120229244,-0.257662087679,0.0,-0.476685404778,-0.276049107313,0.0,-0.487886726856,0.253832489252,0.0,0.381918936968,0.272219508886,0.0
1449618412231116439,80,1449618412225515650,odom,0.537486076355,0.0104488972574,0.0,0.393120229244,-0.257662087679,0.0,-0.476685404778,-0.276049107313,0.0,-0.487886726856,0.253832489252,0.0,0.381918936968,0.272219508886,0.0
1449618412501934640,81,1449618412501368735,odom,0.537486076355,0.0104488972574,0.0,0.393120229244,-0.257662087679,0.0,-0.476685404778,-0.276049107313,0.0,-0.487886726856,0.253832489252,0.0,0.381918936968,0.272219508886,0.0
1449618412766986848,82,1449618412766078834,odom,0.537486076355,0.0104488972574,0.0,0.393120229244,-0.257662087679,0.0,-0.476685404778,-0.276049107313,0.0,-0.487886726856,0.253832489252,0.0,0.381918936968,0.272219508886,0.0
1449618412933893691,83,1449618412933425262,odom,0.537486076355,0.0104488972574,0.0,0.393120229244,-0.257662087679,0.0,-0.476685404778,-0.276049107313,0.0,-0.487886726856,0.253832489252,0.0,0.381918936968,0.272219508886,0.0
1449618413129984832,84,1449618413128864293,odom,0.537486076355,0.0104488972574,0.0,0.393120229244,-0.257662087679,0.0,-0.476685404778,-0.276049107313,0.0,-0.487886726856,0.253832489252,0.0,0.381918936968,0.272219508886,0.0
1449618413440863672,85,1449618413440586299,odom,0.537486076355,0.0104488972574,0.0,0.393120229244,-0.257662087679,0.0,-0.476685404778,-0.276049107313,0.0,-0.487886726856,0.253832489252,0.0,0.381918936968,0.272219508886,0.0
1449618413598933407,86,1449618413592590931,odom,0.537486076355,0.0104488972574,0.0,0.393120229244,-0.257662087679,0.0,-0.476685404778,-0.276049107313,0.0,-0.487886726856,0.253832489252,0.0,0.381918936968,0.272219508886,0.0
1449618413809739020,87,1449618413809303731,odom,0.537486076355,0.0104488972574,0.0,0.393120229244,-0.257662087679,0.0,-0.476685404778,-0.276049107313,0.0,-0.487886726856,0.253832489252,0.0,0.381918936968,0.272219508886,0.0
1449618414000658065,88,1449618414000374312,odom,0.537486076355,0.0104488972574,0.0,0.393120229244,-0.257662087679,0.0,-0.476685404778,-0.276049107313,0.0,-0.487886726856,0.253832489252,0.0,0.381918936968,0.272219508886,0.0
1449618414186186418,89,1449618414184297885,odom,0.537486076355,0.0104488972574,0.0,0.393120229244,-0.257662087679,0.0,-0.476685404778,-0.276049107313,0.0,-0.487886726856,0.253832489252,0.0,0.381918936968,0.272219508886,0.0
1449618414463056646,90,1449618414462050242,odom,0.537486076355,0.0104488972574,0.0,0.393120229244,-0.257662087679,0.0,-0.476685404778,-0.276049107313,0.0,-0.487886726856,0.253832489252,0.0,0.381918936968,0.272219508886,0.0
1449618414715381767,91,1449618414713459896,odom,0.537486076355,0.0104488972574,0.0,0.393120229244,-0.257662087679,0.0,-0.476685404778,-0.276049107313,0.0,-0.487886726856,0.253832489252,0.0,0.381918936968,0.272219508886,0.0
1449618414919224166,92,1449618414918771590,odom,0.537486076355,0.0104488972574,0.0,0.393120229244,-0.257662087679,0.0,-0.476685404778,-0.276049107313,0.0,-0.487886726856,0.253832489252,0.0,0.381918936968,0.272219508886,0.0
1449618415129919512,93,1449618415123941091,odom,0.537486076355,0.0104488972574,0.0,0.393120229244,-0.257662087679,0.0,-0.476685404778,-0.276049107313,0.0,-0.487886726856,0.253832489252,0.0,0.381918936968,0.272219508886,0.0
1449618415781889263,94,1449618415778866746,odom,0.537486076355,0.0104488972574,0.0,0.393120229244,-0.257662087679,0.0,-0.476685404778,-0.276049107313,0.0,-0.487886726856,0.253832489252,0.0,0.381918936968,0.272219508886,0.0
1449618416045034640,95,1449618416029015551,odom,0.537486076355,0.0104488972574,0.0,0.393120229244,-0.257662087679,0.0,-0.476685404778,-0.276049107313,0.0,-0.487886726856,0.253832489252,0.0,0.381918936968,0.272219508886,0.0
1449618416296725475,96,1449618416292920127,odom,0.537486076355,0.0104488972574,0.0,0.393120229244,-0.257662087679,0.0,-0.476685404778,-0.276049107313,0.0,-0.487886726856,0.253832489252,0.0,0.381918936968,0.272219508886,0.0
1449618416600382995,97,1449618416586077735,odom,0.540446102619,0.00540732778609,0.0,0.393254965544,-0.261163055897,0.0,-0.476696401834,-0.270357072353,0.0,-0.482297360897,0.25961330533,0.0,0.387654006481,0.268807351589,0.0
1449618416974433501,98,1449618416971007321,odom,0.551963686943,0.0055899200961,0.0,0.404772549868,-0.260980457067,0.0,-0.465178847313,-0.270174473524,0.0,-0.470779806376,0.25979590416,0.0,0.399171561003,0.268989950418,0.0
1449618417112446240,99,1449618417110839699,odom,0.563481271267,0.00577251287177,0.0,0.416290104389,-0.260797858238,0.0,-0.453661292791,-0.269991904497,0.0,-0.459262251854,0.259978502989,0.0,0.410689145327,0.269172519445,0.0
1449618417312821649,100,1449618417312289641,odom,0.577796578407,0.0111488308758,0.0,0.433430731297,-0.256962150335,0.0,-0.436374902725,-0.275349199772,0.0,-0.447576195002,0.254532426596,0.0,0.42222943902,0.27291944623,0.0
1449618417757876382,101,1449618417754316174,odom,0.603573322296,0.0168283134699,0.0,0.462048888206,-0.252793341875,0.0,-0.407513856888,-0.280371308327,0.0,-0.424314260483,0.249362319708,0.0,0.445248514414,0.276940315962,0.0
1449618417910900659,102,1449618417905828535,odom,0.638116717339,0.0178020540625,0.0,0.496592253447,-0.251819580793,0.0,-0.372970491648,-0.279397577047,0.0,-0.38977086544,0.25033608079,0.0,0.479791879654,0.277914047241,0.0
1449618418149635164,103,1449618418148247287,odom,0.65538674593,0.0183497704566,0.0,0.51386231184,-0.251271873713,0.0,-0.355700433254,-0.278849869967,0.0,-0.372500807047,0.25088378787,0.0,0.49706196785,0.278461754322,0.0
1449618418395745698,104,1449618418395326660,odom,0.666897892952,0.0187757406384,0.0,0.525373458862,-0.250845909119,0.0,-0.344189286232,-0.278423905373,0.0,-0.360989660025,0.251309752464,0.0,0.508573114872,0.278887748718,0.0
1449618418692223290,105,1449618418691912774,odom,0.675343096256,0.0241795945913,0.0,0.536675930023,-0.24692261219,0.0,-0.33254685998,-0.28368845582,0.0,-0.354944437742,0.245838060975,0.0,0.514278292656,0.282603919506,0.0
1449618418937449178,106,1449618418923595023,odom,0.692606449127,0.0249097887427,0.0,0.553939223289,-0.246192410588,0.0,-0.315283536911,-0.282958269119,0.0,-0.337681114674,0.246568247676,0.0,0.531541645527,0.283334106207,0.0
1449618419444907461,107,1449618419443856040,odom,0.709866881371,0.0257007814944,0.0,0.571199655533,-0.24540142715,0.0,-0.298023104668,-0.282167285681,0.0,-0.320420712233,0.247359246016,0.0,0.54880207777,0.284125089645,0.0
1449618419775588447,108,1449618419770943866,odom,0.718254506588,0.0311935804784,0.0,0.58245998621,-0.241358891129,0.0,-0.28632569313,-0.287308514118,0.0,-0.31431800127,0.241951733828,0.0,0.55446767807,0.287901371717,0.0
1449618420278273010,109,1449618420276903813,odom,0.721372842789,0.0262483749539,0.0,0.582705616951,-0.244853824377,0.0,-0.286517113447,-0.281619697809,0.0,-0.308914721012,0.247906833887,0.0,0.560308039188,0.284672707319,0.0
1449618420747896797,110,1449618420744796761,odom,0.724007487297,0.0314673781395,0.0,0.588212966919,-0.241085097194,0.0,-0.280572712421,-0.287034720182,0.0,-0.308564990759,0.242225542665,0.0,0.560220658779,0.288175165653,0.0
1449618421008922279,111,1449618421007282044,odom,0.735513448715,0.0320149734616,0.0,0.599718987942,-0.240537509322,0.0,-0.269066721201,-0.286487132311,0.0,-0.297058999538,0.242773130536,0.0,0.571726679802,0.288722753525,0.0
1449618421183134953,112,1449618421179230025,odom,0.752769589424,0.0328971631825,0.0,0.616975069046,-0.239655315876,0.0,-0.251810610294,-0.285604923964,0.0,-0.279802918434,0.243655323982,0.0,0.588982760906,0.28960493207,0.0
1449618421659512307,113,1449618421657424422,odom,0.772599995136,0.0391170680523,0.0,0.639693379402,-0.234855249524,0.0,-0.228558212519,-0.289983510971,0.0,-0.26214209199,0.238951385021,0.0,0.606109499931,0.294079631567,0.0
1449618422028849859,114,1449618422026065664,odom,0.887561023235,0.0463858433068,0.0,0.754654407501,-0.227586477995,0.0,-0.113597162068,-0.282714724541,0.0,-0.147181048989,0.24622015655,0.0,0.72107052803,0.301348417997,0.0
1449618422393836568,115,1449618422391582636,odom,0.987738311291,0.0587745532393,0.0,0.857734441757,-0.216587007046,0.0,-0.00988609902561,-0.280887722969,0.0,-0.0490578077734,0.247662708163,0.0,0.818562686443,0.311963438988,0.0
1449618422820492456,116,1449618422811182175,odom,1.10833477974,0.0680173113942,0.0,0.978330850601,-0.20734423399,0.0,0.110710322857,-0.271644979715,0.0,0.0715386122465,0.256905466318,0.0,0.939159095287,0.321206212044,0.0
1449618423091369411,117,1449618423084004708,odom,1.17723667622,0.0734289065003,0.0,1.04723274708,-0.201932638884,0.0,0.179612234235,-0.266233384609,0.0,0.140440523624,0.262317061424,0.0,1.00806105137,0.32661780715,0.0
1449618423505564492,118,1449618423496668386,odom,1.25762617588,0.0796918720007,0.0,1.12762236595,-0.195669680834,0.0,0.260001808405,-0.259970396757,0.0,0.220830097795,0.268580019474,0.0,1.08845067024,0.3328807652,0.0
1449618423773817190,119,1449618423765574139,odom,1.35276854038,0.08135137707,0.0,1.21986198425,-0.192620933056,0.0,0.35161036253,-0.247749194503,0.0,0.318026483059,0.281185686588,0.0,1.18627810478,0.336313933134,0.0
1449618424014986678,120,1449618424014730919,odom,1.44473052025,0.0872818380594,0.0,1.31182384491,-0.186690479517,0.0,0.443572282791,-0.241818726063,0.0,0.40998840332,0.287116140127,0.0,1.27823996544,0.342244416475,0.0
1449618424237696471,121,1449618424237273726,odom,1.53098070621,0.0922397524118,0.0,1.39807403088,-0.181732565165,0.0,0.529822528362,-0.23686081171,0.0,0.496238619089,0.29207405448,0.0,1.36449015141,0.347202330828,0.0
1449618424593415667,122,1449618424590467835,odom,1.59166669846,0.0903697386384,0.0,1.45587217808,-0.182182744145,0.0,0.587086439133,-0.228132367134,0.0,0.559094130993,0.301127910614,0.0,1.42787981033,0.347077518702,0.0
1449618425099984146,123,1449618425099312200,odom,1.72445309162,0.0856188312173,0.0,1.58292865753,-0.184002816677,0.0,0.713365972042,-0.211580812931,0.0,0.696565568447,0.318152844906,0.0,1.56612837315,0.34573084116,0.0
1449618425280543011,124,1449618425279385786,odom,1.83406305313,0.0782146528363,0.0,1.68687188625,-0.188355714083,0.0,0.816920518875,-0.19754974544,0.0,0.81131953001,0.332420647144,0.0,1.68127095699,0.341614663601,0.0
1449618425560035291,125,1449618425559732975,odom,1.89741706848,0.0681608170271,0.0,1.74462497234,-0.195239201188,0.0,0.874673545361,-0.18604516983,0.0,0.880274534225,0.343925207853,0.0,1.7502259016,0.334731191397,0.0
1449618425721205298,126,1449618425718323257,odom,1.94902360439,0.0568311661482,0.0,1.79069876671,-0.203280836344,0.0,0.921136081219,-0.17570284009,0.0,0.937936425209,0.354030787945,0.0,1.8074991703,0.326452821493,0.0
1449618425972367673,127,1449618425969133042,odom,1.99200105667,0.0501189902425,0.0,1.83093631268,-0.208305329084,0.0,0.961713552475,-0.171539470553,0.0,0.984111130238,0.357987046242,0.0,1.85333395004,0.321221202612,0.0
1449618426157922250,128,1449618426151833469,odom,2.03171014786,0.0375851988792,0.0,1.86521971226,-0.217377379537,0.0,0.996968150139,-0.16224911809,0.0,1.03055202961,0.366685777903,0.0,1.89880359173,0.311557501554,0.0
1449618426426380287,129,1449618426426053268,odom,2.05146765709,0.0310649871826,0.0,1.88229191303,-0.222123906016,0.0,1.01467144489,-0.157823175192,0.0,1.0538431406,0.370727270842,0.0,1.92146360874,0.306426554918,0.0
1449618426612333730,130,1449618426611234332,odom,2.05146765709,0.0310649871826,0.0,1.88229191303,-0.222123906016,0.0,1.01467144489,-0.157823175192,0.0,1.0538431406,0.370727270842,0.0,1.92146360874,0.306426554918,0.0
1449618426835994478,131,1449618426835044038,odom,2.03997778893,0.0318859964609,0.0,1.87080216408,-0.221302896738,0.0,1.00318169594,-0.157002165914,0.0,1.04235339165,0.371548265219,0.0,1.90997385979,0.307247549295,0.0
1449618426977165072,132,1449618426976669483,odom,2.0374519825,0.0371291525662,0.0,1.87096142769,-0.217833414674,0.0,1.00270986557,-0.162705168128,0.0,1.03629374504,0.366229712963,0.0,1.90454530716,0.311101466417,0.0
1449618427186120287,133,1449618427182808705,odom,2.03170394897,0.0374941118062,0.0,1.86521339417,-0.217468455434,0.0,0.996961891651,-0.162340208888,0.0,1.03054571152,0.366594672203,0.0,1.89879727364,0.311466425657,0.0
1449618427315855152,134,1449618427315570712,odom,2.03170394897,0.0374941118062,0.0,1.86521339417,-0.217468455434,0.0,0.996961891651,-0.162340208888,0.0,1.03054571152,0.366594672203,0.0,1.89879727364,0.311466425657,0.0
1449618427587361434,135,1449618427586643213,odom,2.03170394897,0.0374941118062,0.0,1.86521339417,-0.217468455434,0.0,0.996961891651,-0.162340208888,0.0,1.03054571152,0.366594672203,0.0,1.89879727364,0.311466425657,0.0
1449618427746627192,136,1449618427743773190,odom,2.03170394897,0.0374941118062,0.0,1.86521339417,-0.217468455434,0.0,0.996961891651,-0.162340208888,0.0,1.03054571152,0.366594672203,0.0,1.89879727364,0.311466425657,0.0
1449618427960089135,137,1449618427956326332,odom,2.03170394897,0.0374941118062,0.0,1.86521339417,-0.217468455434,0.0,0.996961891651,-0.162340208888,0.0,1.03054571152,0.366594672203,0.0,1.89879727364,0.311466425657,0.0
1449618428472031586,138,1449618428467103346,odom,2.03170394897,0.0374941118062,0.0,1.86521339417,-0.217468455434,0.0,0.996961891651,-0.162340208888,0.0,1.03054571152,0.366594672203,0.0,1.89879727364,0.311466425657,0.0
1449618428898363548,139,1449618428894810124,odom,2.03170394897,0.0374941118062,0.0,1.86521339417,-0.217468455434,0.0,0.996961891651,-0.162340208888,0.0,1.03054571152,0.366594672203,0.0,1.89879727364,0.311466425657,0.0
1449618429274171955,140,1449618429274043285,odom,2.03170394897,0.0374941118062,0.0,1.86521339417,-0.217468455434,0.0,0.996961891651,-0.162340208888,0.0,1.03054571152,0.366594672203,0.0,1.89879727364,0.311466425657,0.0
1449618429514667894,141,1449618429514286007,odom,2.03170394897,0.0374941118062,0.0,1.86521339417,-0.217468455434,0.0,0.996961891651,-0.162340208888,0.0,1.03054571152,0.366594672203,0.0,1.89879727364,0.311466425657,0.0
1449618429760912984,142,1449618429760467066,odom,2.03170394897,0.0374941118062,0.0,1.86521339417,-0.217468455434,0.0,0.996961891651,-0.162340208888,0.0,1.03054571152,0.366594672203,0.0,1.89879727364,0.311466425657,0.0
1449618429888361446,143,1449618429887991486,odom,2.02595806122,0.0378894358873,0.0,1.85946750641,-0.217073142529,0.0,0.99121594429,-0.161944881082,0.0,1.02479982376,0.36699000001,0.0,1.89305138588,0.311861753464,0.0
1449618430209689728,144,1449618430200754283,odom,2.00871229172,0.0389539338648,0.0,1.84222173691,-0.216008633375,0.0,0.973970115185,-0.160880386829,0.0,1.00755405426,0.368054509163,0.0,1.87580561638,0.312926262617,0.0
1449618430452267596,145,1449618430449808263,odom,1.96897995472,0.0510622933507,0.0,1.80791521072,-0.207362025976,0.0,0.938692390919,-0.170596167445,0.0,0.961090028286,0.35893034935,0.0,1.83031272888,0.32216450572,0.0
1449618431133688135,146,1449618431133526661,odom,1.88303554058,0.0728683844209,0.0,1.73303556442,-0.192131608725,0.0,0.863035619259,-0.192131608725,0.0,0.863035619259,0.337868392467,0.0,1.73303556442,0.337868392467,0.0
1449618431360434454,147,1449618431347485601,odom,1.83685564995,0.0825564712286,0.0,1.69248986244,-0.185554504395,0.0,0.822684168816,-0.20394153893,0.0,0.811482906342,0.325940072536,0.0,1.68128848076,0.344327092171,0.0
1449618431562996923,148,1449618431562595504,odom,1.79354250431,0.0864101648331,0.0,1.65201807022,-0.183211475611,0.0,0.782455265522,-0.210789471865,0.0,0.765654861927,0.318944185972,0.0,1.63521766663,0.346522152424,0.0
1449618431918421793,149,1449618431909120355,odom,1.73817312717,0.0988724976778,0.0,1.60526645184,-0.175099819899,0.0,0.737014889717,-0.230228066444,0.0,0.703431010246,0.298706829548,0.0,1.57168257236,0.353835076094,0.0
1449618432241770512,150,1449618432226714222,odom,1.66519486904,0.108448199928,0.0,1.54103958607,-0.169599413872,0.0,0.674971878529,-0.252222537994,0.0,0.624638259411,0.275381982327,0.0,1.49070596695,0.358005076647,0.0
1449618432551010456,151,1449618432550810879,odom,1.60447967052,0.107812687755,0.0,1.48326969147,-0.171531453729,0.0,0.618123412132,-0.263302445412,0.0,0.562216997147,0.263740688562,0.0,1.42736327648,0.355511665344,0.0
1449618432739591175,152,1449618432739160643,odom,1.55289900303,0.102677881718,0.0,1.43168902397,-0.176666259766,0.0,0.566542804241,-0.268437236547,0.0,0.510636329651,0.258605897427,0.0,1.37578260899,0.350376874208,0.0
1449618432907491515,153,1449618432900825850,odom,1.49651873112,0.0871997028589,0.0,1.36943209171,-0.189520329237,0.0,0.502539515495,-0.26298636198,0.0,0.457784354687,0.265120595694,0.0,1.3246768713,0.338586628437,0.0
1449618433104321175,154,1449618433104055016,odom,1.43583953381,0.0867510586977,0.0,1.31168425083,-0.191296562552,0.0,0.445616513491,-0.273919671774,0.0,0.395282894373,0.253684848547,0.0,1.26135063171,0.336307942867,0.0
1449618433352615951,155,1449618433349940720,odom,1.36455690861,0.0756193622947,0.0,1.23747014999,-0.201100677252,0.0,0.370577663183,-0.274566709995,0.0,0.325822502375,0.253540277481,0.0,1.19271504879,0.327006280422,0.0
1449618433571843243,156,1449618433570210090,odom,1.30140602589,0.0705424323678,0.0,1.17431938648,-0.206177607179,0.0,0.307426810265,-0.279643625021,0.0,0.262671649456,0.248463332653,0.0,1.12956416607,0.321929365396,0.0
1449618433853819984,157,1449618433837767793,odom,1.23320889473,0.0556204468012,0.0,1.1003023386,-0.218351870775,0.0,0.232050731778,-0.273480117321,0.0,0.198466852307,0.255454778671,0.0,1.06671845913,0.310583025217,0.0
1449618434084753240,158,1449618434082575694,odom,1.12138199806,0.0440472848713,0.0,0.985587537289,-0.228505194187,0.0,0.116801835597,-0.274454802275,0.0,0.0888095423579,0.254805445671,0.0,0.957595229149,0.300755053759,0.0
1449618434283278894,159,1449618434278243004,odom,1.0523416996,0.0408529154956,0.0,0.916547238827,-0.231699556112,0.0,0.0477615632117,-0.277649194002,0.0,0.0197692662477,0.251611083746,0.0,0.888554930687,0.297560691833,0.0
1449618434466181236,160,1449618434465873978,odom,0.977950334549,0.0278872102499,0.0,0.836425900459,-0.241734445095,0.0,-0.0331368297338,-0.269312411547,0.0,-0.0499372109771,0.260421216488,0.0,0.819625556469,0.287999212742,0.0
1449618434645269350,161,1449618434635434955,odom,0.906115412712,0.0209601409733,0.0,0.761749565601,-0.247150838375,0.0,-0.10805606842,-0.265537887812,0.0,-0.119257368147,0.264343738556,0.0,0.750548303127,0.28273075819,0.0
1449618435095866169,162,1449618435093562070,odom,0.854290723801,0.0198646057397,0.0,0.70992487669,-0.248246371746,0.0,-0.159880772233,-0.266633421183,0.0,-0.171082064509,0.263248205185,0.0,0.698723554611,0.281635224819,0.0
1449618435489642276,163,1449618435489198996,odom,0.776625394821,0.0136970384046,0.0,0.629434227943,-0.252873331308,0.0,-0.240517139435,-0.262067377567,0.0,-0.246118098497,0.267903029919,0.0,0.623833298683,0.277097046375,0.0
1449618435700192500,164,1449618435699830702,odom,0.765106856823,0.0135753052309,0.0,0.617915689945,-0.252995073795,0.0,-0.252035677433,-0.262189090252,0.0,-0.257636636496,0.267781287432,0.0,0.612314760685,0.276975333691,0.0
1449618436148807615,165,1449618436142387320,odom,0.768013477325,0.00850273575634,0.0,0.618013441563,-0.256497263908,0.0,-0.251986503601,-0.256497263908,0.0,-0.251986503601,0.273502737284,0.0,0.618013441563,0.273502737284,0.0
1449618436473947230,166,1449618436473600609,odom,0.753588497639,0.0134231392294,0.0,0.606397330761,-0.253147244453,0.0,-0.263554036617,-0.26234126091,0.0,-0.26915499568,0.267629116774,0.0,0.600796401501,0.276823163033,0.0
1449618436765796617,167,1449618436762526941,odom,0.719032883644,0.0130579406396,0.0,0.571841776371,-0.253512442112,0.0,-0.29810962081,-0.262706458569,0.0,-0.303710579872,0.267263919115,0.0,0.566240787506,0.276457965374,0.0
1449618437007696690,168,1449618437004765656,odom,0.664241433144,0.0174299925566,0.0,0.519875586033,-0.250680983067,0.0,-0.349930077791,-0.269068032503,0.0,-0.361131370068,0.260813593864,0.0,0.508674263954,0.279200613499,0.0
1449618437356775469,169,1449618437345877432,odom,0.609615087509,0.0113841705024,0.0,0.462423920631,-0.255186200142,0.0,-0.407527446747,-0.264380246401,0.0,-0.413128405809,0.265590161085,0.0,0.456822961569,0.274784177542,0.0
1449618437718455540,170,1449618437715823234,odom,0.526039302349,0.014691144228,0.0,0.381673455238,-0.253419846296,0.0,-0.488132178783,-0.271806865931,0.0,-0.49933347106,0.258074730635,0.0,0.370472162962,0.276461780071,0.0
1449618438097541674,171,1449618438096784515,odom,0.508765220642,0.0142955426127,0.0,0.364399373531,-0.253815442324,0.0,-0.50540626049,-0.272202461958,0.0,-0.516607582569,0.257679134607,0.0,0.353198081255,0.276066154242,0.0
1449618438327877582,172,1449618438324747294,odom,0.50300770998,0.014143393375,0.0,0.358641862869,-0.253967583179,0.0,-0.511163771152,-0.272354632616,0.0,-0.522365093231,0.257526993752,0.0,0.347440570593,0.275914013386,0.0
1449618438631891907,173,1449618438631420744,odom,0.508765220642,0.0142955426127,0.0,0.364399373531,-0.253815442324,0.0,-0.50540626049,-0.272202461958,0.0,-0.516607582569,0.257679134607,0.0,0.353198081255,0.276066154242,0.0
1449618438831890788,174,1449618438830750825,odom,0.508765220642,0.0142955426127,0.0,0.364399373531,-0.253815442324,0.0,-0.50540626049,-0.272202461958,0.0,-0.516607582569,0.257679134607,0.0,0.353198081255,0.276066154242,0.0
1449618439082989705,175,1449618439082466398,odom,0.508765220642,0.0142955426127,0.0,0.364399373531,-0.253815442324,0.0,-0.50540626049,-0.272202461958,0.0,-0.516607582569,0.257679134607,0.0,0.353198081255,0.276066154242,0.0
1449618439221235794,176,1449618439221050065,odom,0.508765220642,0.0142955426127,0.0,0.364399373531,-0.253815442324,0.0,-0.50540626049,-0.272202461958,0.0,-0.516607582569,0.257679134607,0.0,0.353198081255,0.276066154242,0.0
1449618439506146700,177,1449618439503076165,odom,0.508765220642,0.0142955426127,0.0,0.364399373531,-0.253815442324,0.0,-0.50540626049,-0.272202461958,0.0,-0.516607582569,0.257679134607,0.0,0.353198081255,0.276066154242,0.0
1449618439753277111,178,1449618439752019344,odom,0.508765220642,0.0142955426127,0.0,0.364399373531,-0.253815442324,0.0,-0.50540626049,-0.272202461958,0.0,-0.516607582569,0.257679134607,0.0,0.353198081255,0.276066154242,0.0
1449618440058174772,179,1449618440055468075,odom,0.514522731304,0.0144476918504,0.0,0.370156854391,-0.253663301468,0.0,-0.499648779631,-0.272050321102,0.0,-0.510850071907,0.257831275463,0.0,0.358955562115,0.2762183249,0.0
1449618440300297995,180,1449618440298321808,odom,0.537555098534,0.0149650191888,0.0,0.393189251423,-0.253145962954,0.0,-0.476616382599,-0.27153301239,0.0,-0.487817674875,0.258348613977,0.0,0.381987959146,0.276735633612,0.0
1449618440689104451,181,1449618440688657632,odom,0.572104096413,0.0157257989049,0.0,0.427738249302,-0.25238519907,0.0,-0.44206738472,-0.270772218704,0.0,-0.453268676996,0.259109377861,0.0,0.416536957026,0.277496427298,0.0
1449618441013906587,182,1449618441013708770,odom,0.595137774944,0.0161822736263,0.0,0.450771927834,-0.251928716898,0.0,-0.419033706188,-0.270315736532,0.0,-0.430234998465,0.259565860033,0.0,0.439570635557,0.27795290947,0.0
1449618441188650916,183,1449618441185971382,odom,0.6296890378,0.0168213415891,0.0,0.485323190689,-0.251289635897,0.0,-0.384482443333,-0.269676685333,0.0,-0.395683765411,0.260204941034,0.0,0.474121898413,0.278591960669,0.0
1449618441303862926,184,1449618441303411256,odom,0.641205668449,0.0170647930354,0.0,0.496839791536,-0.251046180725,0.0,-0.372965842485,-0.269433230162,0.0,-0.384167164564,0.260448396206,0.0,0.48563849926,0.27883541584,0.0
1449618441491558464,185,1449618441491032388,odom,0.658481001854,0.0173995420337,0.0,0.514115154743,-0.25071144104,0.0,-0.355690479279,-0.269098490477,0.0,-0.366891771555,0.260783135891,0.0,0.502913892269,0.279170155525,0.0
1449618441723139964,186,1449618441722580559,odom,0.681514680386,0.0178560167551,0.0,0.537148833275,-0.250254958868,0.0,-0.332656800747,-0.268642008305,0.0,-0.343858093023,0.261239618063,0.0,0.525947570801,0.279626637697,0.0
1449618441923306868,187,1449618441922474517,odom,0.704549372196,0.0182516314089,0.0,0.560183525085,-0.249859347939,0.0,-0.309622138739,-0.268246382475,0.0,-0.320823431015,0.26163521409,0.0,0.548982203007,0.280022263527,0.0
1449618442090234479,188,1449618442086256766,odom,0.721824228764,0.018616810441,0.0,0.577458381653,-0.249494180083,0.0,-0.292347252369,-0.267881214619,0.0,-0.303548544645,0.262000411749,0.0,0.566257119179,0.280387431383,0.0
1449618442321026767,189,1449618442320682160,odom,0.744857430458,0.0191037133336,0.0,0.600491583347,-0.24900726974,0.0,-0.269314050674,-0.267394304276,0.0,-0.280515342951,0.26248729229,0.0,0.589290320873,0.280874341726,0.0
1449618442482632470,190,1449618442481750586,odom,0.765092372894,0.0144273228943,0.0,0.617901265621,-0.252143055201,0.0,-0.252050131559,-0.261337071657,0.0,-0.257651090622,0.268633306026,0.0,0.612300276756,0.277827352285,0.0
1449618442708621063,191,1449618442707485389,odom,0.785166501999,0.0198949370533,0.0,0.640800654888,-0.248216047883,0.0,-0.229004979134,-0.266603082418,0.0,-0.24020627141,0.263278514147,0.0,0.629599392414,0.281665563583,0.0
1449618442972998669,192,1449618442968459927,odom,0.80244332552,0.0201383959502,0.0,0.658077478409,-0.247972592711,0.0,-0.211728140712,-0.266359627247,0.0,-0.222929447889,0.263521999121,0.0,0.646876215935,0.281909018755,0.0
1449618443129600926,193,1449618443129116324,odom,0.825479447842,0.0204427223653,0.0,0.681113600731,-0.247668266296,0.0,-0.188692048192,-0.266055285931,0.0,-0.199893340468,0.263826310635,0.0,0.669912278652,0.282213360071,0.0
1449618443285085551,194,1449618443283426925,odom,0.836996555328,0.0206557437778,0.0,0.692630648613,-0.247455239296,0.0,-0.177174970508,-0.265842288733,0.0,-0.188376262784,0.264039337635,0.0,0.681429386139,0.282426357269,0.0
1449618443526216045,195,1449618443523276644,odom,0.857232928276,0.0158880632371,0.0,0.710041761398,-0.250682324171,0.0,-0.159909620881,-0.259876340628,0.0,-0.165510579944,0.270094066858,0.0,0.704440832138,0.279288083315,0.0
1449618443677299290,196,1449618443676856524,odom,0.871549725533,0.0211730916053,0.0,0.727183878422,-0.24693788588,0.0,-0.142621785402,-0.265324920416,0.0,-0.15382309258,0.264556676149,0.0,0.715982556343,0.282943725586,0.0
1449618443916722724,197,1449618443916465219,odom,0.891785144806,0.0164662711322,0.0,0.744593977928,-0.250104099512,0.0,-0.125357404351,-0.259298145771,0.0,-0.130958363414,0.270672261715,0.0,0.738992989063,0.279866278172,0.0
1449618444112515750,198,1449618444109988554,odom,0.911859273911,0.0219338852912,0.0,0.7674934268,-0.246177092195,0.0,-0.102312244475,-0.26456412673,0.0,-0.113513536751,0.265317469835,0.0,0.756292104721,0.283704519272,0.0
1449618444306886124,199,1449618444306054512,odom,0.932095646858,0.0171662047505,0.0,0.78490447998,-0.24940417707,0.0,-0.0850468873978,-0.258598208427,0.0,-0.0906478539109,0.271372199059,0.0,0.77930355072,0.280566215515,0.0
1449618444524704373,200,1449618444524279735,odom,0.952171683311,0.022512100637,0.0,0.807805836201,-0.245598882437,0.0,-0.0619998015463,-0.263985931873,0.0,-0.073201097548,0.265895694494,0.0,0.796604514122,0.284282714128,0.0
1449618444699243401,201,1449618444698810469,odom,0.972407102585,0.0178052783012,0.0,0.825215995312,-0.248765096068,0.0,-0.0447354130447,-0.257959127426,0.0,-0.0503363758326,0.27201128006,0.0,0.819615006447,0.281205296516,0.0
1449618444908792426,202,1449618444908557428,odom,0.995441794395,0.0182008948177,0.0,0.848250627518,-0.24836948514,0.0,-0.0217007659376,-0.257563501596,0.0,-0.0273017268628,0.272406876087,0.0,0.842649638653,0.281600922346,0.0
1449618445123547982,203,1449618445122683298,odom,1.01847791672,0.0185052193701,0.0,0.871286690235,-0.248065158725,0.0,0.00133532937616,-0.257259190083,0.0,-0.00426563201472,0.272711217403,0.0,0.865685760975,0.28190523386,0.0
1449618445325715359,204,1449618445325401125,odom,1.03279364109,0.023851107806,0.0,0.888427853584,-0.244259878993,0.0,0.0186221897602,-0.262646913528,0.0,0.00742089236155,0.267234712839,0.0,0.877226531506,0.285621732473,0.0
1449618445532220509,205,1449618445528808886,odom,1.05303001404,0.0190834272653,0.0,0.905838906765,-0.247486948967,0.0,0.035887543112,-0.256680965424,0.0,0.0302865803242,0.27328941226,0.0,0.900237977505,0.282483458519,0.0
1449618445755504006,206,1449618445755263228,odom,1.07606613636,0.0193877518177,0.0,0.928875029087,-0.247182622552,0.0,0.0589236356318,-0.25637665391,0.0,0.0533226765692,0.273593753576,0.0,0.923274040222,0.282787770033,0.0
1449618445964665050,207,1449618445960467445,odom,1.09038197994,0.0247336402535,0.0,0.946016132832,-0.24337734282,0.0,0.0762104988098,-0.261764377356,0.0,0.0650091990829,0.26811721921,0.0,0.934814870358,0.286504268646,0.0
1449618446101201238,208,1449618446097210151,odom,1.10486006737,0.0198442339897,0.0,0.957668960094,-0.24672614038,0.0,0.0877175480127,-0.255920171738,0.0,0.0821165889502,0.274050235748,0.0,0.95206797123,0.283244252205,0.0
1449618446304586795,209,1449618446302051048,odom,1.11061882973,0.0199355296791,0.0,0.963427722454,-0.246634840965,0.0,0.0934763327241,-0.255828887224,0.0,0.0878753736615,0.274141520262,0.0,0.957826733589,0.283335536718,0.0
1449618446565992087,210,1449618446565111341,odom,1.11637759209,0.020026827231,0.0,0.969186484814,-0.246543541551,0.0,0.0992351174355,-0.255737572908,0.0,0.0936341509223,0.274232804775,0.0,0.963585555553,0.283426851034,0.0
1449618446774085256,211,1449618446769955242,odom,1.11637759209,0.020026827231,0.0,0.969186484814,-0.246543541551,0.0,0.0992351174355,-0.255737572908,0.0,0.0936341509223,0.274232804775,0.0,0.963585555553,0.283426851034,0.0
1449618447077534831,212,1449618447072418024,odom,1.11637759209,0.020026827231,0.0,0.969186484814,-0.246543541551,0.0,0.0992351174355,-0.255737572908,0.0,0.0936341509223,0.274232804775,0.0,0.963585555553,0.283426851034,0.0
1449618447333341915,213,1449618447329883880,odom,1.11637759209,0.020026827231,0.0,0.969186484814,-0.246543541551,0.0,0.0992351174355,-0.255737572908,0.0,0.0936341509223,0.274232804775,0.0,0.963585555553,0.283426851034,0.0
1449618447726552965,214,1449618447725724677,odom,1.11637759209,0.020026827231,0.0,0.969186484814,-0.246543541551,0.0,0.0992351174355,-0.255737572908,0.0,0.0936341509223,0.274232804775,0.0,0.963585555553,0.283426851034,0.0
1449618447954478365,215,1449618447954306710,odom,1.11637759209,0.020026827231,0.0,0.969186484814,-0.246543541551,0.0,0.0992351174355,-0.255737572908,0.0,0.0936341509223,0.274232804775,0.0,0.963585555553,0.283426851034,0.0
1449618448168282410,216,1449618448168104610,odom,1.11637759209,0.020026827231,0.0,0.969186484814,-0.246543541551,0.0,0.0992351174355,-0.255737572908,0.0,0.0936341509223,0.274232804775,0.0,0.963585555553,0.283426851034,0.0
1449618448393754360,217,1449618448392692319,odom,1.11637759209,0.020026827231,0.0,0.969186484814,-0.246543541551,0.0,0.0992351174355,-0.255737572908,0.0,0.0936341509223,0.274232804775,0.0,0.963585555553,0.283426851034,0.0
1449618448656927292,218,1449618448653445149,odom,1.11637759209,0.020026827231,0.0,0.969186484814,-0.246543541551,0.0,0.0992351174355,-0.255737572908,0.0,0.0936341509223,0.274232804775,0.0,0.963585555553,0.283426851034,0.0
1449618449113637734,219,1449618449108291860,odom,1.13941514492,0.0201789923012,0.0,0.992224037647,-0.246391385794,0.0,0.122272655368,-0.25558540225,0.0,0.116671696305,0.274384975433,0.0,0.986623048782,0.283579021692,0.0
1449618449340451057,220,1449618449332501430,odom,1.17687928677,0.015106423758,0.0,1.02687931061,-0.249893575907,0.0,0.156879335642,-0.249893575907,0.0,0.156879335642,0.280106425285,0.0,1.02687931061,0.280106425285,0.0
1449618449624371848,221,1449618449621453931,odom,1.23447418213,0.0149238249287,0.0,1.08447420597,-0.250076174736,0.0,0.214474231005,-0.250076174736,0.0,0.214474231005,0.279923826456,0.0,1.08447420597,0.279923826456,0.0
1449618449807322455,222,1449618449801018114,odom,1.27479088306,0.0148325245827,0.0,1.1247907877,-0.250167459249,0.0,0.254790842533,-0.250167459249,0.0,0.254790842533,0.27983251214,0.0,1.1247907877,0.27983251214,0.0
1449618449982096384,223,1449618449981372024,odom,1.32371842861,0.020300725475,0.0,1.17652726173,-0.246269643307,0.0,0.306575894356,-0.255463689566,0.0,0.300974935293,0.27450671792,0.0,1.17092633247,0.283700734377,0.0
1449618450122202411,224,1449618450121963203,odom,1.36106693745,0.0261639486998,0.0,1.21670114994,-0.241947039962,0.0,0.346895456314,-0.260334074497,0.0,0.335694164038,0.26954755187,0.0,1.20549976826,0.287934571505,0.0
1449618450270319254,225,1449618450267519965,odom,1.38684284687,0.0318738557398,0.0,1.24531841278,-0.237747788429,0.0,0.375755697489,-0.265325784683,0.0,0.358955323696,0.264407873154,0.0,1.2285181284,0.291985839605,0.0
1449618450553846039,226,1449618450551283546,odom,1.45318770409,0.028567912057,0.0,1.30882179737,-0.239543065429,0.0,0.439016193151,-0.257930099964,0.0,0.427814900875,0.271951496601,0.0,1.2976205349,0.290338546038,0.0
1449618450868828195,227,1449618450859264118,odom,1.53957378864,0.00840049795806,0.0,1.38400661945,-0.253370136023,0.0,0.514200985432,-0.234983086586,0.0,0.52540230751,0.294898509979,0.0,1.39520788193,0.276511490345,0.0
1449618451204587293,228,1449618451197225466,odom,1.60832881927,-0.00396073888987,0.0,1.44726395607,-0.262385070324,0.0,0.578041255474,-0.225619196892,0.0,0.600438833237,0.303907305002,0.0,1.46966159344,0.267141461372,0.0
1449618451521849506,229,1449618451521249896,odom,1.71619534492,-0.0319323688745,0.0,1.54435348511,-0.283319294453,0.0,0.67746090889,-0.20985327661,0.0,0.722216069698,0.318253695965,0.0,1.58910858631,0.244787663221,0.0
1449618451756543957,230,1449618451756331063,odom,1.76448369026,-0.0415429770947,0.0,1.58999478817,-0.291099876165,0.0,0.723927021027,-0.208476752043,0.0,0.774260640144,0.319127768278,0.0,1.64032840729,0.236504644156,0.0
1449618452064714974,231,1449618452063322131,odom,1.80119287968,-0.0506297796965,0.0,1.62407648563,-0.298328757286,0.0,0.758930325508,-0.206557780504,0.0,0.814836740494,0.32048535347,0.0,1.67998301983,0.228714361787,0.0
1449618452309907513,232,1449618452309419437,odom,1.84575247765,-0.0662924125791,0.0,1.66344058514,-0.310192793608,0.0,0.800427138805,-0.200157865882,0.0,0.867459893227,0.325585991144,0.0,1.73047339916,0.215551063418,0.0
1449618452930348641,233,1449618452922821377,odom,1.91482508183,-0.0917569696903,0.0,1.72487354279,-0.329755723476,0.0,0.865781724453,-0.192419558764,0.0,0.949446260929,0.330935239792,0.0,1.80853807926,0.193599075079,0.0
1449618453222181593,234,1449618453198154777,odom,1.93389379978,-0.100003942847,0.0,1.74143767357,-0.33598202467,0.0,0.883845150471,-0.18957477808,0.0,0.973035812378,0.332866638899,0.0,1.83062827587,0.186459392309,0.0
1449618453513672367,235,1449618453513280812,odom,1.93957614899,-0.100943163037,0.0,1.74712002277,-0.33692124486,0.0,0.88952755928,-0.19051399827,0.0,0.978718221188,0.331927418709,0.0,1.83631074429,0.185520172119,0.0
1449618453718913570,236,1449618453710919301,odom,1.95093071461,-0.102881602943,0.0,1.75847458839,-0.338859677315,0.0,0.900882184505,-0.192452430725,0.0,0.990072786808,0.329988986254,0.0,1.84766530991,0.183581724763,0.0
1449618454169481810,237,1449618454168672328,odom,1.95093071461,-0.102881602943,0.0,1.75847458839,-0.338859677315,0.0,0.900882184505,-0.192452430725,0.0,0.990072786808,0.329988986254,0.0,1.84766530991,0.183581724763,0.0
1449618454395293836,238,1449618454394892567,odom,1.95093071461,-0.102881602943,0.0,1.75847458839,-0.338859677315,0.0,0.900882184505,-0.192452430725,0.0,0.990072786808,0.329988986254,0.0,1.84766530991,0.183581724763,0.0
1449618454548081177,239,1449618454547344861,odom,1.95093071461,-0.102881602943,0.0,1.75847458839,-0.338859677315,0.0,0.900882184505,-0.192452430725,0.0,0.990072786808,0.329988986254,0.0,1.84766530991,0.183581724763,0.0
1449618454835086888,240,1449618454834810936,odom,1.95093071461,-0.102881602943,0.0,1.75847458839,-0.338859677315,0.0,0.900882184505,-0.192452430725,0.0,0.990072786808,0.329988986254,0.0,1.84766530991,0.183581724763,0.0
1449618455289907558,241,1449618455283607557,odom,1.95855629444,-0.109391130507,0.0,1.76361715794,-0.343322187662,0.0,0.907619774342,-0.18786020577,0.0,1.00232648849,0.333609461784,0.0,1.85832393169,0.178147494793,0.0
1449618455529832923,242,1449618455526215362,odom,1.98121261597,-0.113567732275,0.0,1.78627347946,-0.347498774529,0.0,0.930276155472,-0.192036807537,0.0,1.02498281002,0.329432874918,0.0,1.88098025322,0.173970907927,0.0
1449618455882077609,243,1449618455880575421,odom,1.98310768604,-0.119098372757,0.0,1.78570735455,-0.350956261158,0.0,0.931400597095,-0.186456918716,0.0,1.03161287308,0.333982795477,0.0,1.88591957092,0.169483438134,0.0
1449618456136598435,244,1449618456135335234,odom,1.98310768604,-0.119098372757,0.0,1.78570735455,-0.350956261158,0.0,0.931400597095,-0.186456918716,0.0,1.03161287308,0.333982795477,0.0,1.88591957092,0.169483438134,0.0
1449618456334020766,245,1449618456326387059,odom,1.98310768604,-0.119098372757,0.0,1.78570735455,-0.350956261158,0.0,0.931400597095,-0.186456918716,0.0,1.03161287308,0.333982795477,0.0,1.88591957092,0.169483438134,0.0
1449618456695223066,246,1449618456693127285,odom,1.98310768604,-0.119098372757,0.0,1.78570735455,-0.350956261158,0.0,0.931400597095,-0.186456918716,0.0,1.03161287308,0.333982795477,0.0,1.88591957092,0.169483438134,0.0
1449618456929211809,247,1449618456928754972,odom,1.98310768604,-0.119098372757,0.0,1.78570735455,-0.350956261158,0.0,0.931400597095,-0.186456918716,0.0,1.03161287308,0.333982795477,0.0,1.88591957092,0.169483438134,0.0
1449618457192126146,248,1449618457191910292,odom,1.98876333237,-0.120187394321,0.0,1.79136300087,-0.352045297623,0.0,0.937056303024,-0.18754594028,0.0,1.0372685194,0.332893759012,0.0,1.89157521725,0.168394416571,0.0
1449618457437636417,249,1449618457436022085,odom,1.98876333237,-0.120187394321,0.0,1.79136300087,-0.352045297623,0.0,0.937056303024,-0.18754594028,0.0,1.0372685194,0.332893759012,0.0,1.89157521725,0.168394416571,0.0
1449618457757898292,250,1449618457753546054,odom,1.98876333237,-0.120187394321,0.0,1.79136300087,-0.352045297623,0.0,0.937056303024,-0.18754594028,0.0,1.0372685194,0.332893759012,0.0,1.89157521725,0.168394416571,0.0
1449618458028807142,251,1449618458026729504,odom,1.99441313744,-0.121306270361,0.0,1.79701280594,-0.353164166212,0.0,0.942706108093,-0.188664823771,0.0,1.04291832447,0.331774890423,0.0,1.89722502232,0.167275547981,0.0
1449618458487817875,252,1449618458475083632,odom,2.0000629425,-0.122425146401,0.0,1.80266261101,-0.354283034801,0.0,0.948355853558,-0.18978369236,0.0,1.04856812954,0.330656021833,0.0,1.90287482738,0.166156664491,0.0
1449618458659943833,253,1449618458653405579,odom,2.01319313049,-0.130243122578,0.0,1.81335353851,-0.360001981258,0.0,0.960832893848,-0.186483621597,0.0,1.06653952599,0.332868009806,0.0,1.91906011105,0.159349650145,0.0
1449618458944033429,254,1449618458943556074,odom,2.00933933258,-0.134604275227,0.0,1.80708289146,-0.362238407135,0.0,0.956443667412,-0.179720446467,0.0,1.06763279438,0.338485091925,0.0,1.91827201843,0.155967116356,0.0
1449618459140977799,255,1449618459140775447,odom,2.01319932938,-0.130213320255,0.0,1.8133597374,-0.359972178936,0.0,0.960839152336,-0.186453834176,0.0,1.06654572487,0.332897782326,0.0,1.91906630993,0.159379437566,0.0
1449618459298458129,256,1449618459298039496,odom,2.01319932938,-0.130213320255,0.0,1.8133597374,-0.359972178936,0.0,0.960839152336,-0.186453834176,0.0,1.06654572487,0.332897782326,0.0,1.91906630993,0.159379437566,0.0
1449618459564082617,257,1449618459563406061,odom,2.01319932938,-0.130213320255,0.0,1.8133597374,-0.359972178936,0.0,0.960839152336,-0.186453834176,0.0,1.06654572487,0.332897782326,0.0,1.91906630993,0.159379437566,0.0
1449618459772230245,258,1449618459769738998,odom,2.01319932938,-0.130213320255,0.0,1.8133597374,-0.359972178936,0.0,0.960839152336,-0.186453834176,0.0,1.06654572487,0.332897782326,0.0,1.91906630993,0.159379437566,0.0
1449618460236991098,259,1449618460234292281,odom,2.01319932938,-0.130213320255,0.0,1.8133597374,-0.359972178936,0.0,0.960839152336,-0.186453834176,0.0,1.06654572487,0.332897782326,0.0,1.91906630993,0.159379437566,0.0
1449618460397804449,260,1449618460397262887,odom,2.02232074738,-0.142608761787,0.0,1.81766986847,-0.368092775345,0.0,0.969006955624,-0.176595568657,0.0,1.08566617966,0.340406000614,0.0,1.93432915211,0.148908779025,0.0
1449618461080913164,261,1449618461068746992,odom,2.03678917885,-0.156491532922,0.0,1.82741868496,-0.377599984407,0.0,0.982992470264,-0.168209463358,0.0,1.11055219173,0.346211075783,0.0,1.95497834682,0.136820569634,0.0
1449618461258802723,262,1449618461254297336,odom,2.09915018082,-0.228318601847,0.0,1.86762440205,-0.426108270884,0.0,1.04999661446,-0.128812581301,0.0,1.23110771179,0.369282513857,0.0,2.04873561859,0.0719868391752,0.0
1449618461546164585,263,1449618461545670699,odom,2.13650536537,-0.281721383333,0.0,1.89099419117,-0.461858272552,0.0,1.0975754261,-0.104945726693,0.0,1.31500482559,0.378401368856,0.0,2.10842370987,0.0214888174087,0.0
1449618461897288779,264,1449618461896259561,odom,2.16414666176,-0.317465782166,0.0,1.91124236584,-0.487066566944,0.0,1.13361537457,-0.0969432890415,0.0,1.37127661705,0.376783519983,0.0,2.14890360832,-0.0133397402242,0.0
1449618462129625650,265,1449618462129357255,odom,2.17497849464,-0.34627494216,0.0,1.915132761,-0.505036592484,0.0,1.1546869278,-0.0823996067047,0.0,1.41215538979,0.380860537291,0.0,2.17260122299,-0.0417764298618,0.0
1449618462497625997,266,1449618462495611218,odom,2.19486856461,-0.375189453363,0.0,1.93012094498,-0.525634467602,0.0,1.18345427513,-0.0791046544909,0.0,1.45547831059,0.375761240721,0.0,2.20214486122,-0.0707685947418,0.0
1449618462746654885,267,1449618462745248129,odom,2.19979596138,-0.378171592951,0.0,1.93504834175,-0.528616666794,0.0,1.18838167191,-0.0820868164301,0.0,1.46040558815,0.372779071331,0.0,2.207072258,-0.073750756681,0.0
1449618463214708121,268,1449618463214401491,odom,2.19471359253,-0.381007224321,0.0,1.92839086056,-0.528646051884,0.0,1.18648481369,-0.0742504894733,0.0,1.46330046654,0.377715289593,0.0,2.20520663261,-0.076680265367,0.0
1449618463522968410,269,1449618463522842347,odom,2.19981169701,-0.378145575523,0.0,1.93506407738,-0.528590619564,0.0,1.18839740753,-0.0820607766509,0.0,1.46042132378,0.372805118561,0.0,2.20708799362,-0.0737247169018,0.0
1449618463639906987,270,1449618463639595353,odom,2.19981169701,-0.378145575523,0.0,1.93506407738,-0.528590619564,0.0,1.18839740753,-0.0820607766509,0.0,1.46042132378,0.372805118561,0.0,2.20708799362,-0.0737247169018,0.0
