%time,field.header.seq,field.header.stamp,field.header.frame_id,field.pose.position.x,field.pose.position.y,field.pose.position.z,field.pose.orientation.x,field.pose.orientation.y,field.pose.orientation.z,field.pose.orientation.w
1449618392212724282,0,1449618392110536944,/odom,nan,nan,0.0,nan,nan,nan,nan
1449618392307134451,1,1449618392202309241,/odom,0.0,0.0,0.0,0.0,0.0,0.0,1.0
1449618392378640229,2,1449618392271220248,/odom,0.0,0.0,0.0,0.0,0.0,0.0,1.0
1449618392432883048,3,1449618392387952928,/odom,0.0,0.0,0.0,0.0,0.0,0.0,1.0
1449618392539012987,4,1449618392481164694,/odom,0.0,0.0,0.0,0.0,0.0,0.0,1.0
1449618392613528078,5,1449618392581057472,/odom,0.0,0.0,0.0,0.0,0.0,0.0,1.0
1449618392691789365,6,1449618392676816340,/odom,0.0,0.0,0.0,0.0,0.0,0.0,1.0
1449618392809966931,7,1449618392791480465,/odom,0.0,0.0,0.0,0.0,0.0,0.0,1.0
1449618392893370600,8,1449618392877617430,/odom,0.0,0.0,0.0,0.0,0.0,0.0,1.0
1449618393009480745,9,1449618392978894269,/odom,0.0,0.0,0.0,0.0,0.0,0.0,1.0
1449618393143924409,10,1449618393079030886,/odom,0.0,0.0,0.0,0.0,0.0,0.0,1.0
1449618393212739301,11,1449618393179369693,/odom,0.0,0.0,0.0,0.0,0.0,0.0,1.0
1449618393335267028,12,1449618393278698624,/odom,0.0,0.0,0.0,0.0,0.0,0.0,1.0
1449618393409568420,13,1449618393381751851,/odom,0.0,0.0,0.0,0.0,0.0,0.0,1.0
1449618393535763411,14,1449618393480334489,/odom,0.0,0.0,0.0,0.0,0.0,0.0,1.0
1449618393610842943,15,1449618393581618150,/odom,0.0,0.0,0.0,0.0,0.0,0.0,1.0
1449618393735194740,16,1449618393679828713,/odom,0.0,0.0,0.0,0.0,0.0,0.0,1.0
1449618393811369513,17,1449618393777939236,/odom,0.0,0.0,0.0,0.0,0.0,0.0,1.0
1449618393933939252,18,1449618393879076833,/odom,0.0,0.0,0.0,0.0,0.0,0.0,1.0
1449618394007322832,19,1449618393978397290,/odom,0.0,0.0,0.0,0.0,0.0,0.0,1.0
1449618394131726069,20,1449618394089060943,/odom,0.0,0.0,0.0,0.0,0.0,0.0,1.0
1449618394211824282,21,1449618394177004478,/odom,0.0,0.0,0.0,0.0,0.0,0.0,1.0
1449618394336306289,22,1449618394089741120,/odom,3.33246599418,0.414392872129,0.0,0.0,0.0,0.319261184153,0.947666764371
1449618409692498933,23,1449618409392585830,/odom,3.2885825527,0.484175545378,0.0,0.0,0.0,0.350502798248,0.936561684258
1449618432053736624,24,1449618431761860948,/odom,3.64517991522,-1.18529930667,0.0,0.0,0.0,-0.462877014331,0.886422511901
1449618432287480049,25,1449618431921823160,/odom,3.32169912503,0.204586280172,0.0,0.0,0.0,0.263750321329,0.964590984822
1449618438936900111,26,1449618438855545106,/odom,0.0435499300513,0.00446124400533,0.0,0.0,0.0,0.0105679440891,0.99994415772
1449618438974688056,27,1449618438919957919,/odom,0.250394920819,0.00883380038125,0.0,0.0,0.0,0.0105678968264,0.999944158219
1449618439056398829,28,1449618439017162482,/odom,0.287889140233,0.0096263984887,0.0,0.0,0.0,0.0105678853974,0.99994415834
1449618446645156331,29,1449618446599020453,/odom,1.1243501043,0.0231373417148,0.0,0.0,0.0,0.010967927531,0.999939850474
1449618446783016606,30,1449618446736697498,/odom,1.27950540676,0.0261229568536,0.0,0.0,0.0,0.0115144914372,0.999933706046
1449618447175354919,31,1449618447120177616,/odom,0.808438926279,0.01707188186,0.0,0.0,0.0,0.00687954769822,0.999976335632
1449618447316658221,32,1449618447250184621,/odom,0.75687785595,0.0163743412417,0.0,0.0,0.0,0.0064013346863,0.999979511247
1449618447398377610,33,1449618447331660748,/odom,0.920772993518,0.0188554519051,0.0,0.0,0.0,0.00817132981788,0.999966614127
1449618447601652897,34,1449618447121348892,/odom,3.27423931317,0.422865542083,0.0,0.0,0.0,0.326015586064,0.945364394106
1449618449725621748,35,1449618449243756717,/odom,3.32124919748,-0.734100347464,0.0,0.0,0.0,-0.459970839345,0.887934021734
1449618450079542491,36,1449618449556110521,/odom,3.82094855946,-1.03323384273,0.0,0.0,0.0,-0.474100623368,0.880470668973
1449618450382276924,37,1449618449720584831,/odom,2.85610915665,0.0312746367751,0.0,0.0,0.0,0.290332762047,0.956925748051
1449618457875596204,38,1449618457190068214,/odom,2.72961492759,-0.349699423785,0.0,0.0,0.0,0.0831659092004,0.996535715139
1449618463425365042,39,1449618463287949718,/odom,2.63914764224,-0.931392133999,0.0,0.0,0.0,-0.454858311283,0.89056381953
1449618463789806231,40,1449618463699806971,/odom,2.05527266567,-0.313945062206,0.0,0.0,0.0,-0.317969633782,0.94810089758
1449618463886182261,41,1449618463725238884,/odom,1.78785763415,-0.131784276013,0.0,0.0,0.0,-0.266235292001,0.963908070976
1449618464135002396,42,1449618464106115846,/odom,1.80178199169,-0.139923599481,0.0,0.0,0.0,-0.257390804136,0.966307391023
1449618464274442853,43,1449618464200873046,/odom,1.78785763415,-0.131784276013,0.0,0.0,0.0,-0.266235292001,0.963908070976
1449618464337688998,44,1449618464320070890,/odom,1.78785763415,-0.131784276013,0.0,0.0,0.0,-0.266235292001,0.963908070976
1449618464602597575,45,1449618464542674448,/odom,1.98958783023,-0.228015486185,0.0,0.0,0.0,-0.17770273737,0.984084212418
1449618464820336721,46,1449618464795272382,/odom,1.9992482397,-0.232564661074,0.0,0.0,0.0,-0.177485742459,0.984123371953
1449618464997478975,47,1449618464936261519,/odom,1.98220864811,-0.226187969855,0.0,0.0,0.0,-0.184431486602,0.982845372757
1449618465241666146,48,1449618465199557188,/odom,1.9349157454,-0.206976203838,0.0,0.0,0.0,-0.203871637989,0.978997627793
1449618465470920152,49,1449618465431574319,/odom,1.92312645746,-0.201831156943,0.0,0.0,0.0,-0.208757988919,0.977967331797
1449618465519057766,50,1449618465441637839,/odom,1.83167186063,-0.156731943672,0.0,0.0,0.0,-0.247314302854,0.96893531033
1449618465592629498,51,1449618465541407389,/odom,1.80208615986,-0.140158844881,0.0,0.0,0.0,-0.260050684041,0.965594967743
1449618465818358812,52,1449618465770547255,/odom,2.58687484191,-0.184040330046,0.0,0.0,0.0,0.187741431269,0.982218486379
1449618469050229267,53,1449618468966346868,/odom,2.92123692821,-0.644335745593,0.0,0.0,0.0,-0.158249234325,0.987399199835
1449618473183646879,54,1449618473142354254,/odom,3.32331102272,-0.87432201867,0.0,0.0,0.0,-0.209784161603,0.977747720805
1449618473464627159,55,1449618473386242051,/odom,3.12799091214,-0.786027429703,0.0,0.0,0.0,-0.213202806373,0.977007964837
1449618474016988831,56,1449618473980906363,/odom,2.69358063287,-0.58349947612,0.0,0.0,0.0,-0.220837768172,0.975310555745
1449618474438253212,57,1449618474266377712,/odom,2.32529083031,-0.405032125955,0.0,0.0,0.0,-0.227346260796,0.973813985165
1449618476536454604,58,1449618476495573197,/odom,2.04317822929,-0.26406814507,0.0,0.0,0.0,-0.232462167278,0.972605439418
1449618476899229306,59,1449618476846273046,/odom,2.01765349889,-0.251119423155,0.0,0.0,0.0,-0.232901127716,0.972500418873
1449618477232915269,60,1449618477178951239,/odom,2.01471042729,-0.249626910554,0.0,0.0,0.0,-0.232963809873,0.972485405181
1449618477485347253,61,1449618477435312316,/odom,2.01020241809,-0.247345893518,0.0,0.0,0.0,-0.233090817138,0.972454971176
1449618477814823382,62,1449618477694310680,/odom,2.00236779957,-0.243361435857,0.0,0.0,0.0,-0.233222308712,0.972423444143
1449618478150761390,63,1449618478027841009,/odom,1.98802231462,-0.23605859693,0.0,0.0,0.0,-0.233463112218,0.972365659222
1449618478376359206,64,1449618478297136165,/odom,2.01213983607,-0.248422531921,0.0,0.0,0.0,-0.233520110817,0.972351972202
1449618478693419998,65,1449618478634417598,/odom,2.00184090787,-0.243172836735,0.0,0.0,0.0,-0.233660907662,0.97231814764
1449618478968488720,66,1449618478944419692,/odom,2.04575132785,-0.26569797829,0.0,0.0,0.0,-0.233756339298,0.972295209202
1449618479257869871,67,1449618479200700602,/odom,2.03832104428,-0.261906495287,0.0,0.0,0.0,-0.233829486707,0.972277620408
1449618479404647571,68,1449618479375562911,/odom,1.9381069011,-0.21062881582,0.0,0.0,0.0,-0.234831009637,0.972036211729
1449618479577692096,69,1449618479514033901,/odom,1.61805562704,-0.0450415753401,0.0,0.0,0.0,-0.238025738116,0.971258847061
1449618480019701115,70,1449618479963176564,/odom,1.19189070554,0.186650304613,0.0,0.0,0.0,-0.249098546909,0.968478143237
1449618480246134528,71,1449618480196036282,/odom,1.39296484199,0.0764232326021,0.0,0.0,0.0,-0.245026076576,0.969516488667
1449618480711951784,72,1449618480663627852,/odom,1.4079190281,0.0692740354647,0.0,0.0,0.0,-0.24617448883,0.969225526412
1449618481181483601,73,1449618481070483240,/odom,1.41906103911,0.0613638456662,0.0,0.0,0.0,-0.24304582517,0.970014807551
1449618481340973125,74,1449618481273153838,/odom,1.57628160311,-0.022226925521,0.0,0.0,0.0,-0.240762578235,0.970584041143
1449618484617151936,75,1449618484562884709,/odom,0.986468354137,0.23547093376,0.0,0.0,0.0,-0.277305019121,0.960781934869
1449618484731625219,76,1449618484663907552,/odom,0.865030637575,0.323540629464,0.0,0.0,0.0,-0.348176291936,0.937429074508
1449618484894647307,77,1449618484864378760,/odom,1.00856506962,0.198154249994,0.0,0.0,0.0,-0.229912415688,0.973211323975
1449618485047890864,78,1449618484988613091,/odom,0.801302984316,0.336240855279,0.0,0.0,0.0,-0.349655433054,0.936878368912
1449618485620722935,79,1449618457190068214,/odom,2.72961492759,-0.349699423785,0.0,0.0,0.0,0.0831659092004,0.996535715139
1449618487741312467,80,1449618487407113267,/odom,3.32194341564,0.244829387477,0.0,0.0,0.0,0.310752070361,0.950491005095
1449618491234927540,81,1449618491136296108,/odom,0.184267466093,-0.101834592139,0.0,0.0,0.0,0.414188383517,0.910191179346
1449618491277760470,82,1449618491246890954,/odom,0.525680169281,0.157072906971,0.0,0.0,0.0,0.183902559857,0.982944478838
1449618491405313302,83,1449618491342543856,/odom,0.562329540194,0.169686699615,0.0,0.0,0.0,0.16730309664,0.985905509598
1449618491497923528,84,1449618491436813423,/odom,0.580132110593,0.175831794566,0.0,0.0,0.0,0.1544291652,0.988003862814
1449618491617877565,85,1449618491566695618,/odom,0.339169275434,0.113427848101,0.0,0.0,0.0,0.143748848196,0.98961420192
1449618492615259439,86,1449618492538896033,/odom,-0.00431556864838,-0.0654572715236,0.0,0.0,0.0,0.196083323143,0.980587237519
1449618493584293519,87,1449618493538915301,/odom,0.199146177355,0.0186679060121,0.0,0.0,0.0,-0.06602745268,0.997817806763
1449618494003877834,88,1449618493938866622,/odom,0.19825124601,0.0141553493818,0.0,0.0,0.0,-0.0508866864107,0.998704433327
1449618494666923361,89,1449618494637239303,/odom,0.570346257337,0.0685439086823,0.0,0.0,0.0,-0.0428732727585,0.999080518518
1449618494904548010,90,1449618494844958037,/odom,0.347742751918,0.0606845159001,0.0,0.0,0.0,0.10994137707,0.993938073327
1449618494996716073,91,1449618494938405098,/odom,0.304547132665,0.050333094602,0.0,0.0,0.0,0.140163764945,0.990128334609
1449618495068936185,92,1449618495035484520,/odom,0.549751735741,0.0850869901552,0.0,0.0,0.0,0.00794901145295,0.999968406109
1449618495597510149,93,1449618495551585918,/odom,0.261455521866,0.031818732709,0.0,0.0,0.0,0.0832929170621,0.996525107545
1449618495654794117,94,1449618495637266949,/odom,0.248170986018,0.0233271390193,0.0,0.0,0.0,-0.0208723579202,0.999782148608
1449618495900820489,95,1449618495852921500,/odom,0.229481372749,0.019965753087,0.0,0.0,0.0,-0.0242367160753,0.999706247652
1449618496061771738,96,1449618496037121160,/odom,0.219383653948,0.019532605034,0.0,0.0,0.0,0.0991483914033,0.995072658896
1449618496176369908,97,1449618496142703492,/odom,0.213199547085,0.0178690466584,0.0,0.0,0.0,0.176725147514,0.984260241113
1449618496258496843,98,1449618496235786304,/odom,0.212295283959,0.0175275197651,0.0,0.0,0.0,0.188344509768,0.982103021908
1449618496403060533,99,1449618496339233011,/odom,0.216810297158,0.0180164671942,0.0,0.0,0.0,0.00711238042479,0.999974706702
1449618496981759130,100,1449618496937111526,/odom,0.212809391976,0.0176121763395,0.0,0.0,0.0,0.147270847336,0.989096202361
1449618497076689196,101,1449618497043185419,/odom,0.212028317255,0.0173657469328,0.0,0.0,0.0,0.167638933395,0.985848460977
1449618497192661198,102,1449618497152346927,/odom,0.211272299061,0.0168517909526,0.0,0.0,0.0,-0.0057522057543,0.999983455928
1449618499306129490,103,1449618492021397535,/odom,3.31875898968,0.243411482551,0.0,0.0,0.0,0.279634049606,0.960106659857
1449618501974934581,104,1449618501939084799,/odom,0.19601734446,0.00860687982747,0.0,0.0,0.0,-0.0981825053145,0.99516842577
1449618502124307604,105,1449618502038060474,/odom,0.259370735759,-0.00395028647118,0.0,0.0,0.0,-0.0996815919381,0.995019386861
1449618502179824662,106,1449618501914424725,/odom,3.27013756599,0.246639047875,0.0,0.0,0.0,0.308536365134,0.951212547957
1449618514143524749,107,1449618514094583550,/odom,2.74123979066,-0.340118344582,0.0,0.0,0.0,-0.780169182611,0.625568578578
1449618514266620425,108,1449618514208243371,/odom,2.77132311276,-0.255909782346,0.0,0.0,0.0,-0.575695237367,0.817664352698
1449618514470768565,109,1449618514357475552,/odom,2.75273630308,-0.194427530928,0.0,0.0,0.0,-0.352533382072,0.935799238365
1449618515844664205,110,1449618515735258953,/odom,3.06486993791,-0.202820012935,0.0,0.0,0.0,-0.33491818725,0.942247211643
1449618518928884616,111,1449618518842903251,/odom,3.04300006875,-0.074173722087,0.0,0.0,0.0,0.00402210496535,0.999991911303
1449618519058418725,112,1449618519001960749,/odom,3.33518182855,-0.132299594813,0.0,0.0,0.0,-0.168012537979,0.985784858416
1449618523609855971,113,1449618523571281323,/odom,3.44359930527,0.0449064486491,0.0,0.0,0.0,0.380294044111,0.924865633492
1449618525217060546,114,1449618525185832315,/odom,3.43551270504,-0.0404797069424,0.0,0.0,0.0,0.197196306332,0.98036402258
1449618525293415882,115,1449618525273387100,/odom,3.4356651556,-0.040464168165,0.0,0.0,0.0,0.331566708846,0.943431776858
1449618527327676517,116,1449618527271056213,/odom,3.43297080497,-0.0407846657632,0.0,0.0,0.0,0.456825886715,0.889556130453
1449618527819311646,117,1449618527773159532,/odom,3.73910193038,0.0992091929642,0.0,0.0,0.0,0.256616566361,0.966513289029
1449618528112660420,118,1449618528074418373,/odom,3.59373712639,0.0187528175947,0.0,0.0,0.0,0.194253413713,0.980951380681
1449618528233854339,119,1449618528169627335,/odom,3.97498385525,0.155426172352,0.0,0.0,0.0,0.182601496094,0.98318700847
1449618529328492482,120,1449618529278628914,/odom,3.89670220035,0.119936735692,0.0,0.0,0.0,0.170176559717,0.985413587547
1449618530343155719,121,1449618530309641441,/odom,3.92256565677,0.402128474729,0.0,0.0,0.0,0.518017439055,0.855370056078
1449618530587647689,122,1449618530520981406,/odom,3.80552031246,0.214002670243,0.0,0.0,0.0,0.408682479921,0.912676629812
1449618531470947397,123,1449618531407272119,/odom,3.8042665313,0.244256270547,0.0,0.0,0.0,0.43931314557,0.898333991414
1449618531540519310,124,1449618531508433566,/odom,3.66512617116,0.0973258477949,0.0,0.0,0.0,0.339967674912,0.940437121776
1449618531657472632,125,1449618531610372987,/odom,3.78807823989,0.250623842815,0.0,0.0,0.0,0.454785285632,0.89060111384
1449618532038226123,126,1449618532010669112,/odom,3.91071947993,0.35495496165,0.0,0.0,0.0,0.405403352865,0.914137911634
1449618532773208048,127,1449618532707947608,/odom,3.91234048215,0.312890182151,0.0,0.0,0.0,0.330312936381,0.943871476452
1449618533057500797,128,1449618533007171796,/odom,3.88992552476,0.299787203807,0.0,0.0,0.0,0.333483086053,0.94275608262
1449618533341077340,129,1449618533310103040,/odom,3.64435178815,0.102015175522,0.0,0.0,0.0,0.34084206733,0.940120569469
1449618533447697594,130,1449618533414494514,/odom,3.86585927937,0.285688559097,0.0,0.0,0.0,0.338294094222,0.941040437927
1449618534586270867,131,1449618534508978202,/odom,3.80404288367,0.239051030164,0.0,0.0,0.0,0.343670371755,0.939090344737
1449618536139516491,132,1449618536101365592,/odom,3.94167027674,0.397273196933,0.0,0.0,0.0,0.37212536637,0.928182477589
1449618536257893654,133,1449618536203177370,/odom,3.78590708946,0.251946924124,0.0,0.0,0.0,0.378880923352,0.925445431087
1449618536446955340,134,1449618536400135996,/odom,3.91937295584,0.382682286735,0.0,0.0,0.0,0.377363229365,0.926065328756
1449618536735451089,135,1449618536704713426,/odom,3.88214935856,0.352233552728,0.0,0.0,0.0,0.38278606893,0.923837012374
1449618536849145248,136,1449618536802716237,/odom,4.06344906518,0.532464577898,0.0,0.0,0.0,0.380623334792,0.924730164433
1449618537450765473,137,1449618537400152832,/odom,3.97692595998,0.444904105717,0.0,0.0,0.0,0.379582830234,0.925157756813
1449618537724231227,138,1449618537701930426,/odom,3.70357482424,0.172789819223,0.0,0.0,0.0,0.384415632281,0.923160127853
1449618537870946731,139,1449618537801124868,/odom,3.6602813547,0.129118326717,0.0,0.0,0.0,0.385185172904,0.922839304849
1449618537933327155,140,1449618537907236250,/odom,3.79318318019,0.262293261644,0.0,0.0,0.0,0.38192206252,0.924194534804
1449618538048554216,141,1449618538001033053,/odom,3.93929567255,0.406365145607,0.0,0.0,0.0,0.378357794768,0.925659429347
1449618538327328429,142,1449618538300361203,/odom,3.84145329675,0.311056029085,0.0,0.0,0.0,0.382408572525,0.92399333529
1449618538440043298,143,1449618538404344703,/odom,3.98669585024,0.456014095898,0.0,0.0,0.0,0.381113838517,0.924528118605
1449618538745078226,144,1449618538701950355,/odom,3.90952298484,0.377603950692,0.0,0.0,0.0,0.379656272559,0.925127620767
1449618539247460613,145,1449618539201909227,/odom,3.87554277922,0.343155458361,0.0,0.0,0.0,0.378863097206,0.925452728979
1449618539535480610,146,1449618539502128284,/odom,3.83760753043,0.308005538224,0.0,0.0,0.0,0.379774814082,0.925078964515
1449618540288808777,147,1449618540203064864,/odom,3.79483364179,0.254256991018,0.0,0.0,0.0,0.357830786155,0.933786446935
1449618540347529972,148,1449618540307564368,/odom,3.88374611586,0.346953074255,0.0,0.0,0.0,0.367319670965,0.930094758249
1449618541135056362,149,1449618541108043637,/odom,3.88252129952,0.370540501569,0.0,0.0,0.0,0.394701290195,0.918809496859
1449618542247493625,150,1449618542209359200,/odom,3.74443864787,0.226622246326,0.0,0.0,0.0,0.406865000644,0.913488298366
1449618542331163562,151,1449618542300931301,/odom,3.73438506212,0.218310652264,0.0,0.0,0.0,0.417514845829,0.908670101584
1449618542437521445,152,1449618542418731498,/odom,3.94105517676,0.461218919208,0.0,0.0,0.0,0.414836415443,0.909896009675
1449618542742109835,153,1449618542702332431,/odom,3.78045788748,0.276458286554,0.0,0.0,0.0,0.426769574653,0.904360398376
1449618542855447498,154,1449618542802240067,/odom,3.97477014523,0.510258908602,0.0,0.0,0.0,0.422249456076,0.906479672604
1449618543602235647,155,1449618543502980644,/odom,4.02619779595,0.584924345913,0.0,0.0,0.0,0.427548650235,0.9039923405
1449618543666866523,156,1449618543604677372,/odom,3.88110214914,0.406557307716,0.0,0.0,0.0,0.433358063122,0.901221831253
1449618543742716442,157,1449618543700401103,/odom,3.96624972634,0.518182177861,0.0,0.0,0.0,0.434702968774,0.900573888662
1449618545954044863,158,1449618545892846497,/odom,4.2165435767,0.923462150978,0.0,0.0,0.0,0.4656062117,0.884992008792
1449618548057650801,159,1449618547990784640,/odom,4.41352724226,1.05788452842,0.0,0.0,0.0,0.364303814611,0.931280156913
1449618548322958039,160,1449618548292522225,/odom,4.42084314686,1.08033590995,0.0,0.0,0.0,0.390105992194,0.92076995762
1449618548539494589,161,1449618548491379046,/odom,4.53329627758,1.18400835568,0.0,0.0,0.0,0.379799331855,0.925068898798
1449618548928493702,162,1449618548899733549,/odom,4.48896838591,1.12982382965,0.0,0.0,0.0,0.379512666349,0.925186541234
1449618549129902948,163,1449618549090817556,/odom,4.3207288937,0.960436345671,0.0,0.0,0.0,0.378624513534,0.925550364784
1449618549216716062,164,1449618549191528849,/odom,4.42871380363,1.16620010013,0.0,0.0,0.0,0.527721271377,0.849417600322
1449618551131376262,165,1449618551099045002,/odom,4.55947915464,1.37711613516,0.0,0.0,0.0,0.611072173681,0.791574884994
1449618551331044497,166,1449618551289168929,/odom,4.4709307585,1.14028428236,0.0,0.0,0.0,0.483407461761,0.875395468296
1449618551469800289,167,1449618551391805708,/odom,4.53499062067,1.27502114689,0.0,0.0,0.0,0.559258242916,0.828993496797
1449618551520927094,168,1449618551490999746,/odom,4.57646703502,1.40325252094,0.0,0.0,0.0,0.616641225921,0.78724430674
1449618551737342250,169,1449618551690325475,/odom,4.51906205322,1.22707243325,0.0,0.0,0.0,0.528969564104,0.848640795774
1449618551825041961,170,1449618551792017222,/odom,4.5935244694,1.47456696238,0.0,0.0,0.0,0.645534221591,0.763731345929
1449618557796309799,171,1449618557730333789,/odom,4.68797125035,2.51505247791,0.0,0.0,0.0,0.680416691231,0.732825440534
1449618557849582035,172,1449618557830291331,/odom,4.73501367692,2.71224843924,0.0,0.0,0.0,0.661331590239,0.750093679317
1449618559210585326,173,1449618559129763852,/odom,4.75391325546,2.71419371624,0.0,0.0,0.0,0.694180753493,0.71980072345
1449618559281676294,174,1449618559237727169,/odom,4.74260714801,2.86952543071,0.0,0.0,0.0,0.752996673622,0.658024322889
1449618559967379626,175,1449618559929741053,/odom,4.74416950146,2.96824687161,0.0,0.0,0.0,0.77858891957,0.627534297328
1449618560166480489,176,1449618560135027003,/odom,4.75328995838,2.95256936218,0.0,0.0,0.0,0.769406221056,0.638759788184
1449618560360525431,177,1449618560330978098,/odom,4.74226101507,3.01528658143,0.0,0.0,0.0,0.788970843633,0.614430637173
1449618560568339097,178,1449618560533421145,/odom,4.77870734335,2.8291197076,0.0,0.0,0.0,0.709886409459,0.704316183021
1449618560702487197,179,1449618560629375616,/odom,4.77774914329,2.76590572539,0.0,0.0,0.0,0.684415037394,0.729092625521
1449618560761979118,180,1449618560743024320,/odom,4.77018080419,2.95178011634,0.0,0.0,0.0,0.753377600556,0.657588162135
1449618560846219765,181,1449618560828323253,/odom,4.77977822022,2.86048061791,0.0,0.0,0.0,0.718360885379,0.695670639281
1449618560972346157,182,1449618560929428683,/odom,4.78048509955,2.78616730393,0.0,0.0,0.0,0.686003740947,0.727598012234
1449618561053954793,183,1449618561033506938,/odom,4.77817925797,2.91491734383,0.0,0.0,0.0,0.735185531475,0.677865941252
1449618561208268281,184,1449618561146808559,/odom,4.71511427219,3.14860872537,0.0,0.0,0.0,0.823163234281,0.567804798965
1449618561652987563,185,1449618561634667535,/odom,4.73133323828,3.11575037712,0.0,0.0,0.0,0.80959986176,0.586982166542
1449618562065580190,186,1449618562028268337,/odom,4.71968249804,3.1452883016,0.0,0.0,0.0,0.820003525017,0.572358470681
1449618565628126011,187,1449618565312792328,/odom,3.40960856207,5.63458119122,0.0,0.0,0.0,0.881810534185,0.471603839891
1449618609475844764,188,1449618609403304027,/odom,4.42041075335,3.16345597413,0.0,0.0,0.0,-0.999776960284,0.0211194149092
1449618611471998564,189,1449618611405637495,/odom,4.97309249743,3.14558614685,0.0,0.0,0.0,-0.985235440597,0.171204925722
1449618614136181719,190,1449618614104033877,/odom,5.29069713169,3.27020763421,0.0,0.0,0.0,-0.948243828843,0.3175431326
1449618614260714149,191,1449618614204064516,/odom,4.87889199275,3.08946673465,0.0,0.0,0.0,-0.966304072516,0.257403262294
1449618614334225224,192,1449618614303751415,/odom,4.75454514001,3.03641507391,0.0,0.0,0.0,-0.969836545123,0.243756180936
1449618620953430241,193,1449618620890589074,/odom,4.13713949827,1.49196146383,0.0,0.0,0.0,-0.746028541159,0.665913970252
1449618625013848809,194,1449618624915617864,/odom,2.19148989478,0.226251127149,0.0,0.0,0.0,0.998398668773,0.0565694103949
1449618625340901536,195,1449618624910903932,/odom,2.08764978559,-0.61079252499,0.0,0.0,0.0,-0.955679195021,0.29441004773
1449618628062405843,196,1449618628024864945,/odom,2.65748855147,-0.262538534161,0.0,0.0,0.0,-0.974693113863,0.223547162335
1449618628301911568,197,1449618628269304221,/odom,1.93388497494,0.349627297428,0.0,0.0,0.0,0.885150937687,0.465304005476
1449618629595373419,198,1449618628290137202,/odom,2.08688901629,-0.640270089459,0.0,0.0,0.0,-0.959503847527,0.281695521053
1449618633916459280,199,1449618633841702021,/odom,0.316607184813,-0.947304210655,0.0,0.0,0.0,-0.989878067072,0.141920443667
1449618634102687700,200,1449618634053783933,/odom,0.207908669019,-0.764204142499,0.0,0.0,0.0,-0.998195121138,0.0600541433694
1449618634238437440,201,1449618634188474590,/odom,0.114804406698,-0.523009528613,0.0,0.0,0.0,0.999129305637,0.0417208654906
1449618634265658246,202,1449618634198936603,/odom,1.36692673043,-0.454394617864,0.0,0.0,0.0,0.999770978619,0.0214007082029
1449618636167696464,203,1449618636110187971,/odom,-0.472320214384,-0.38693426568,0.0,0.0,0.0,-0.999672244006,0.0256008703944
1449618636216884919,204,1449618636157718999,/odom,0.799338141171,-0.304966125844,0.0,0.0,0.0,0.995952665951,0.0898792923018
1449618640361781711,205,1449618640302276857,/odom,-1.26865498837,0.795820052751,0.0,0.0,0.0,0.87379786967,0.486289299657
1449618640785615071,206,1449618640729150878,/odom,-1.61970272308,0.429674629463,0.0,0.0,0.0,0.941077487989,0.338191013482
1449618640988838229,207,1449618640946488871,/odom,-1.73869506001,-0.036999567328,0.0,0.0,0.0,0.991906266498,0.126972274462
1449618641153116500,208,1449618641100259953,/odom,-1.64450089073,-0.43072788108,0.0,0.0,0.0,-0.998028909784,0.0627558382585
1449618641426714576,209,1449618641348864258,/odom,-1.37483636231,-0.816509495272,0.0,0.0,0.0,-0.954676563037,0.29764519144
1449618641711304468,210,1449618641664337994,/odom,-1.01427995984,-1.06967374228,0.0,0.0,0.0,-0.843662117631,0.536874502351
1449618641926820593,211,1449618641845873867,/odom,-0.788925234644,-1.14058433636,0.0,0.0,0.0,-0.755401034285,0.655262754474
1449618642967874675,212,1449618642919720081,/odom,-0.283472084129,-0.852561880025,0.0,0.0,0.0,-0.580363167727,0.814357779815
1449618643101257924,213,1449618643045552515,/odom,-0.200336267319,-0.452801960526,0.0,0.0,0.0,-0.802255810967,0.596980413221
1449618644907341074,214,1449618644864786161,/odom,0.358844487484,-1.19869585924,0.0,0.0,0.0,0.0299029144539,0.999552807863
1449618645390839323,215,1449618645345687435,/odom,-0.13110911626,-0.898092793079,0.0,0.0,0.0,-0.550280839839,0.834979638857
1449618645741778231,216,1449618645688956494,/odom,-0.141805239812,-0.418706942471,0.0,0.0,0.0,-0.500844889377,0.865537056852
1449618645981999020,217,1449618645939997236,/odom,-0.442114756399,-0.173742391567,0.0,0.0,0.0,0.249191590528,0.96845420708
1449618646392646696,218,1449618646334384658,/odom,-0.781635199203,-0.0459328305514,0.0,0.0,0.0,0.242144587599,0.970240175779
1449618646756775510,219,1449618646666939977,/odom,-1.10132525841,0.190389413563,0.0,0.0,0.0,0.165122352442,0.986273090338
1449618647650035747,220,1449618647585033525,/odom,-0.983092221025,-0.10069191457,0.0,0.0,0.0,0.299048966528,0.954237766816
1449618647862237614,221,1449618647835076967,/odom,-0.273579841693,-0.241565349931,0.0,0.0,0.0,-0.249674938827,0.968329708788
1449618648101855703,222,1449618648055238538,/odom,1.54689984443,-1.16664204793,0.0,0.0,0.0,0.117076134779,0.993122942372
1449618649582981679,223,1449618649550565352,/odom,1.22202009381,-0.851535416194,0.0,0.0,0.0,0.0883629625385,0.996088342895
1449618649623031006,224,1449618649561555097,/odom,-0.144124502388,-0.420149462725,0.0,0.0,0.0,-0.15368460056,0.988119954029
1449618649837759797,225,1449618649765561715,/odom,-1.92565688821,-0.616424963601,0.0,0.0,0.0,0.448759913331,0.893652359806
1449618649955098093,226,1449618649904721187,/odom,-1.84238562253,-0.834510363781,0.0,0.0,0.0,0.501681915853,0.865052169124
1449618650242011356,227,1449618650170218765,/odom,-1.56038358915,-1.08514108856,0.0,0.0,0.0,0.611050150183,0.791591885988
1449618650394059658,228,1449618650352700549,/odom,-1.35945952472,-1.17288754226,0.0,0.0,0.0,0.669811679591,0.742531018802
1449618650830104624,229,1449618650744933093,/odom,-0.891797941809,-1.12407957754,0.0,0.0,0.0,0.749274440062,0.662259626937
1449618652898381267,230,1449618652833429513,/odom,-1.02277396623,-1.1354019161,0.0,0.0,0.0,0.611265952243,0.791425255869
1449618653275567589,231,1449618653226377002,/odom,-0.857670579972,-1.07190643074,0.0,0.0,0.0,0.637837900609,0.77017063859
1449618653451994203,232,1449618653357186134,/odom,-0.430286193308,-0.717093239992,0.0,0.0,0.0,0.627358324293,0.778730719145
1449618653502793861,233,1449618653467652959,/odom,0.180156150675,-0.400212540073,0.0,0.0,0.0,0.214000004841,0.976833659293
1449618653632262872,234,1449618653573843407,/odom,0.589759109272,-0.334923168597,0.0,0.0,0.0,0.173296422966,0.984869712087
1449618654880138855,235,1449618654814630523,/odom,0.125113655309,-0.46445860562,0.0,0.0,0.0,0.044554880882,0.999006938209
1449618654938926934,236,1449618654872228846,/odom,0.0886727046853,-0.46356302536,0.0,0.0,0.0,0.0519131540907,0.998651603129
1449618655051037538,237,1449618654974997161,/odom,0.00357858563697,-0.471027224188,0.0,0.0,0.0,0.0515718480963,0.998669286843
1449618655090271120,238,1449618655068261174,/odom,0.122958765911,-0.457565240495,0.0,0.0,0.0,0.0547653010608,0.998499254782
1449618655260803890,239,1449618655173735321,/odom,0.493624618306,-0.434260360202,0.0,0.0,0.0,0.0304854883494,0.999535209485
1449618656309937363,240,1449618656244765577,/odom,-0.0175706486019,-0.468670263448,0.0,0.0,0.0,0.0920995404816,0.995749805244
1449618656423292222,241,1449618656385701464,/odom,-0.00627590996421,-0.466408085616,0.0,0.0,0.0,0.102617334064,0.994720906963
1449618656490165872,242,1449618656442331651,/odom,0.00217514860764,-0.464614586276,0.0,0.0,0.0,0.107872006508,0.99416479027
1449618656578498457,243,1449618656544156443,/odom,0.00780069378181,-0.463379240774,0.0,0.0,0.0,0.107872006508,0.99416479027
1449618656657138004,244,1449618656640366371,/odom,0.0162189579138,-0.461437151104,0.0,0.0,0.0,0.113123667074,0.993580915652
1449618656782905263,245,1449618656744757369,/odom,0.0190180480234,-0.460760169707,0.0,0.0,0.0,0.118372169131,0.992969299412
1449618656894787410,246,1449618656848588148,/odom,0.0246162282427,-0.459406206913,0.0,0.0,0.0,0.118372169131,0.992969299412
1449618657023275067,247,1449618656980432304,/odom,0.0246162282427,-0.459406206913,0.0,0.0,0.0,0.118372169131,0.992969299412
1449618657172586531,248,1449618657139482173,/odom,0.0246162282427,-0.459406206913,0.0,0.0,0.0,0.118372169131,0.992969299412
1449618657303172533,249,1449618657274344546,/odom,0.0246162282427,-0.459406206913,0.0,0.0,0.0,0.118372169131,0.992969299412
1449618657379499177,250,1449618657341688675,/odom,0.0246092303084,-0.45937658874,0.0,0.0,0.0,0.118372169131,0.992969299412
1449618657494568723,251,1449618657461987264,/odom,0.0246092303084,-0.45937658874,0.0,0.0,0.0,0.118372169131,0.992969299412
1449618657612009985,252,1449618657576694720,/odom,0.0246092303084,-0.45937658874,0.0,0.0,0.0,0.118372169131,0.992969299412
1449618657704388106,253,1449618657641883869,/odom,0.0246092303084,-0.45937658874,0.0,0.0,0.0,0.118372169131,0.992969299412
1449618657775425101,254,1449618657737409572,/odom,0.0246092303084,-0.45937658874,0.0,0.0,0.0,0.118372169131,0.992969299412
1449618657939655766,255,1449618657875279935,/odom,0.0246092303084,-0.45937658874,0.0,0.0,0.0,0.118372169131,0.992969299412
1449618657976070609,256,1449618657945142475,/odom,0.0246092303084,-0.45937658874,0.0,0.0,0.0,0.118372169131,0.992969299412
1449618658100819475,257,1449618658043353943,/odom,0.0246092303084,-0.45937658874,0.0,0.0,0.0,0.118372169131,0.992969299412
1449618658225916047,258,1449618658144959680,/odom,0.0246092303084,-0.45937658874,0.0,0.0,0.0,0.118372169131,0.992969299412
1449618658256795124,259,1449618658238881590,/odom,0.0218031422644,-0.460023951963,0.0,0.0,0.0,0.113123667074,0.993580915652
1449618658383796591,260,1449618658338596751,/odom,0.0246022323741,-0.459346970566,0.0,0.0,0.0,0.118372169131,0.992969299412
1449618658499501443,261,1449618658443971323,/odom,0.0246022323741,-0.459346970566,0.0,0.0,0.0,0.118372169131,0.992969299412
1449618658575587279,262,1449618658537975566,/odom,0.0246022323741,-0.459346970566,0.0,0.0,0.0,0.118372169131,0.992969299412
1449618658694086037,263,1449618658640200178,/odom,0.0246022323741,-0.459346970566,0.0,0.0,0.0,0.118372169131,0.992969299412
1449618658779961591,264,1449618658740097255,/odom,0.0246022323741,-0.459346970566,0.0,0.0,0.0,0.118372169131,0.992969299412
1449618658892019914,265,1449618658838193492,/odom,0.0246022323741,-0.459346970566,0.0,0.0,0.0,0.118372169131,0.992969299412
1449618659053413321,266,1449618659030261665,/odom,0.0246022323741,-0.459346970566,0.0,0.0,0.0,0.118372169131,0.992969299412
1449618659096861127,267,1449618659043681554,/odom,0.0246022323741,-0.459346970566,0.0,0.0,0.0,0.118372169131,0.992969299412
1449618659179440286,268,1449618659145619459,/odom,0.0246022323741,-0.459346970566,0.0,0.0,0.0,0.118372169131,0.992969299412
1449618659301389297,269,1449618659014917232,/odom,3.20072280756,0.233253492956,0.0,0.0,0.0,0.262708137589,0.964875346583
