%time,field.header.seq,field.header.stamp,field.header.frame_id,field.ns,field.id,field.type,field.action,field.pose.position.x,field.pose.position.y,field.pose.position.z,field.pose.orientation.x,field.pose.orientation.y,field.pose.orientation.z,field.pose.orientation.w,field.scale.x,field.scale.y,field.scale.z,field.color.r,field.color.g,field.color.b,field.color.a,field.lifetime,field.frame_locked,field.text,field.mesh_resource,field.mesh_use_embedded_materials
1449618392584928751,0,1449618392534766332,/odom,doorways,0,1,0,2.41957998276,-0.227287396789,1.0,0.0,0.0,0.286006353084,0.958227721367,0.2,0.659117102623,1.8,0.0,1.0,0.0,1.0,2000000000,0,,,0
1449618392729092238,1,1449618392677146022,/odom,doorways,0,1,0,2.52286958694,-0.187530249357,1.0,0.0,0.0,0.305284485098,0.952261194819,0.2,0.717827856541,1.8,0.0,1.0,0.0,1.0,2000000000,0,,,0
1449618392908138622,2,1449618392857603576,/odom,doorways,0,1,0,2.40539312363,-0.21558085084,1.0,0.0,0.0,0.258837572918,0.965920861586,0.2,0.65814602375,1.8,0.0,1.0,0.0,1.0,2000000000,0,,,0
1449618393116042718,3,1449618393065216469,/odom,doorways,0,1,0,2.40960264206,-0.218650370836,1.0,0.0,0.0,0.255854495607,0.966715303012,0.2,0.658814966679,1.8,0.0,1.0,0.0,1.0,2000000000,0,,,0
1449618393270982057,4,1449618393220487446,/odom,doorways,0,1,0,2.43840813637,-0.226772174239,1.0,0.0,0.0,0.275091618198,0.961418016056,0.2,0.669334828854,1.8,0.0,1.0,0.0,1.0,2000000000,0,,,0
1449618393418618380,5,1449618393368483985,/odom,doorways,0,1,0,2.45270252228,-0.212476551533,1.0,0.0,0.0,0.308114737889,0.951349204181,0.2,0.658038377762,1.8,0.0,1.0,0.0,1.0,2000000000,0,,,0
1449618393518724071,6,1449618393468096536,/odom,doorways,0,1,0,2.4808113575,-0.182363063097,1.0,0.0,0.0,0.303991502291,0.952674743307,0.2,0.698420107365,1.8,0.0,1.0,0.0,1.0,2000000000,0,,,0
1449618393631139418,7,1449618393578078537,/odom,doorways,0,1,0,2.42272591591,-0.211899727583,1.0,0.0,0.0,0.265562477495,0.964093652373,0.2,0.658429384232,1.8,0.0,1.0,0.0,1.0,2000000000,0,,,0
1449618393936593646,8,1449618393885163888,/odom,doorways,0,1,0,2.46620368958,-0.211790397763,1.0,0.0,0.0,0.303776518608,0.952743316294,0.2,0.729657292366,1.8,0.0,1.0,0.0,1.0,2000000000,0,,,0
1449618394140233717,9,1449618394089707237,/odom,doorways,0,1,0,2.5363214016,-0.190713554621,1.0,0.0,0.0,0.319261184153,0.947666764371,0.2,0.738687872887,1.8,0.0,1.0,0.0,1.0,2000000000,0,,,0
1449618394327090795,10,1449618394275405383,/odom,doorways,0,1,0,2.46926212311,-0.20449128747,1.0,0.0,0.0,0.320999000364,0.947079532967,0.2,0.669176638126,1.8,0.0,1.0,0.0,1.0,2000000000,0,,,0
1449618394429640768,11,1449618394369357102,/odom,doorways,0,1,0,2.47292304039,-0.174286022782,1.0,0.0,0.0,0.318605179568,0.947887514187,0.2,0.658651709557,1.8,0.0,1.0,0.0,1.0,2000000000,0,,,0
1449618394514174828,12,1449618394458122609,/odom,doorways,0,1,0,2.44905209541,-0.224782526493,1.0,0.0,0.0,0.28905519893,0.957312431744,0.2,0.687484323978,1.8,0.0,1.0,0.0,1.0,2000000000,0,,,0
1449618394763988780,13,1449618394713613314,/odom,doorways,0,1,0,2.51214671135,-0.167538627982,1.0,0.0,0.0,0.321588324831,0.946879585445,0.2,0.717779815197,1.8,0.0,1.0,0.0,1.0,2000000000,0,,,0
1449618394971708481,14,1449618394919154785,/odom,doorways,0,1,0,2.43470573425,-0.208239540458,1.0,0.0,0.0,0.277413037248,0.960750751634,0.2,0.668420135975,1.8,0.0,1.0,0.0,1.0,2000000000,0,,,0
1449618395206877897,15,1449618395121563534,/odom,doorways,0,1,0,2.45262050629,-0.20308290422,1.0,0.0,0.0,0.29807235959,0.95454327741,0.2,0.679130554199,1.8,0.0,1.0,0.0,1.0,2000000000,0,,,0
1449618395343343863,16,1449618395291003853,/odom,doorways,0,1,0,2.50805640221,-0.185390993953,1.0,0.0,0.0,0.315055874714,0.949073124584,0.2,0.738145291805,1.8,0.0,1.0,0.0,1.0,2000000000,0,,,0
1449618395490634711,17,1449618395439867992,/odom,doorways,0,1,0,2.47550010681,-0.200467377901,1.0,0.0,0.0,0.318318366364,0.947983869923,0.2,0.667709946632,1.8,0.0,1.0,0.0,1.0,2000000000,0,,,0
1449618395680605275,18,1449618395629928259,/odom,doorways,0,1,0,2.49668121338,-0.174354493618,1.0,0.0,0.0,0.313250637679,0.949670489166,0.2,0.688400685787,1.8,0.0,1.0,0.0,1.0,2000000000,0,,,0
1449618395826099657,19,1449618395775650923,/odom,doorways,0,1,0,2.4648976326,-0.181474551558,1.0,0.0,0.0,0.313392908975,0.949623548889,0.2,0.658917665482,1.8,0.0,1.0,0.0,1.0,2000000000,0,,,0
1449618396039390890,20,1449618395988900292,/odom,doorways,0,1,0,2.49675393105,-0.174978941679,1.0,0.0,0.0,0.309872736207,0.95077804316,0.2,0.68886834383,1.8,0.0,1.0,0.0,1.0,2000000000,0,,,0
1449618396226197181,21,1449618396175988309,/odom,doorways,0,1,0,2.46150970459,-0.18665060401,1.0,0.0,0.0,0.317993157184,0.948093008088,0.2,0.667945027351,1.8,0.0,1.0,0.0,1.0,2000000000,0,,,0
1449618396337115251,22,1449618396284911818,/odom,doorways,0,1,0,2.45103120804,-0.200502187014,1.0,0.0,0.0,0.301337931317,0.953517409988,0.2,0.669831335545,1.8,0.0,1.0,0.0,1.0,2000000000,0,,,0
1449618396551260755,23,1449618396499659767,/odom,doorways,0,1,0,2.53298544884,-0.176307410002,1.0,0.0,0.0,0.328154470151,0.944624075344,0.2,0.717695534229,1.8,0.0,1.0,0.0,1.0,2000000000,0,,,0
1449618396737298990,24,1449618396686489397,/odom,doorways,0,1,0,2.48989605904,-0.175913572311,1.0,0.0,0.0,0.322928879347,0.946423234544,0.2,0.698064625263,1.8,0.0,1.0,0.0,1.0,2000000000,0,,,0
1449618397159897578,25,1449618397109194907,/odom,doorways,0,1,0,2.44306468964,-0.22746476531,1.0,0.0,0.0,0.29176618095,0.956489673574,0.2,0.669622182846,1.8,0.0,1.0,0.0,1.0,2000000000,0,,,0
1449618397536752912,26,1449618397485773139,/odom,doorways,0,1,0,2.47661733627,-0.196824803948,1.0,0.0,0.0,0.31152886231,0.950236690487,0.2,0.697928845882,1.8,0.0,1.0,0.0,1.0,2000000000,0,,,0
1449618397732252995,27,1449618397681287577,/odom,doorways,0,1,0,2.46267700195,-0.214367121458,1.0,0.0,0.0,0.294751708206,0.955573874962,0.2,0.687456250191,1.8,0.0,1.0,0.0,1.0,2000000000,0,,,0
1449618397982310308,28,1449618397931807336,/odom,doorways,0,1,0,2.45551586151,-0.233790069818,1.0,0.0,0.0,0.298050404425,0.954550133006,0.2,0.738978981972,1.8,0.0,1.0,0.0,1.0,2000000000,0,,,0
1449618398124135433,29,1449618398073765043,/odom,doorways,0,1,0,2.45674586296,-0.212091907859,1.0,0.0,0.0,0.292412801536,0.956292190441,0.2,0.708025336266,1.8,0.0,1.0,0.0,1.0,2000000000,0,,,0
1449618398205236816,30,1449618398154810055,/odom,doorways,0,1,0,2.46676397324,-0.225870907307,1.0,0.0,0.0,0.309874447664,0.950777485369,0.2,0.667732179165,1.8,0.0,1.0,0.0,1.0,2000000000,0,,,0
1449618398426581506,31,1449618398375648537,/odom,doorways,0,1,0,2.4424674511,-0.202596634626,1.0,0.0,0.0,0.289918068758,0.957051468526,0.2,0.65805542469,1.8,0.0,1.0,0.0,1.0,2000000000,0,,,0
1449618398671250353,32,1449618398620450742,/odom,doorways,0,1,0,2.4373421669,-0.213852360845,1.0,0.0,0.0,0.280690776682,0.959798253742,0.2,0.68833732605,1.8,0.0,1.0,0.0,1.0,2000000000,0,,,0
1449618398862346449,33,1449618398811722588,/odom,doorways,0,1,0,2.48618173599,-0.184204399586,1.0,0.0,0.0,0.313533484407,0.949577144921,0.2,0.698741018772,1.8,0.0,1.0,0.0,1.0,2000000000,0,,,0
1449618399042567905,34,1449618398986820732,/odom,doorways,0,1,0,2.52296757698,-0.179774746299,1.0,0.0,0.0,0.331356099787,0.943505768469,0.2,0.739581227303,1.8,0.0,1.0,0.0,1.0,2000000000,0,,,0
1449618399227029448,35,1449618399175148996,/odom,doorways,0,1,0,2.4719479084,-0.1932259202,1.0,0.0,0.0,0.317095489434,0.948393615848,0.2,0.698940753937,1.8,0.0,1.0,0.0,1.0,2000000000,0,,,0
1449618399434905537,36,1449618399384222663,/odom,doorways,0,1,0,2.44435954094,-0.218224823475,1.0,0.0,0.0,0.289185965901,0.957272937634,0.2,0.688033759594,1.8,0.0,1.0,0.0,1.0,2000000000,0,,,0
1449618399676659151,37,1449618399615952590,/odom,doorways,0,1,0,2.441167593,-0.217978656292,1.0,0.0,0.0,0.306576603732,0.951845988616,0.2,0.687601029873,1.8,0.0,1.0,0.0,1.0,2000000000,0,,,0
1449618399831913993,38,1449618399778235869,/odom,doorways,0,1,0,2.48146128654,-0.197774708271,1.0,0.0,0.0,0.305717516047,0.952122261257,0.2,0.708732306957,1.8,0.0,1.0,0.0,1.0,2000000000,0,,,0
1449618399916146294,39,1449618399865553910,/odom,doorways,0,1,0,2.44489002228,-0.224966928363,1.0,0.0,0.0,0.296948927133,0.954893362986,0.2,0.659076571465,1.8,0.0,1.0,0.0,1.0,2000000000,0,,,0
1449618400166263645,40,1449618400115719403,/odom,doorways,0,1,0,2.46545624733,-0.196153923869,1.0,0.0,0.0,0.32942431117,0.944181986277,0.2,0.717443823814,1.8,0.0,1.0,0.0,1.0,2000000000,0,,,0
1449618400537201787,41,1449618400486697443,/odom,doorways,0,1,0,2.44084262848,-0.218758314848,1.0,0.0,0.0,0.291592325358,0.956542688955,0.2,0.697530329227,1.8,0.0,1.0,0.0,1.0,2000000000,0,,,0
1449618400743524659,42,1449618400688395239,/odom,doorways,0,1,0,2.45643210411,-0.19546841085,1.0,0.0,0.0,0.320866957175,0.947124276847,0.2,0.689267754555,1.8,0.0,1.0,0.0,1.0,2000000000,0,,,0
1449618400937775635,43,1449618400887162875,/odom,doorways,0,1,0,2.4509909153,-0.20617672801,1.0,0.0,0.0,0.286639854812,0.958038409268,0.2,0.697777986526,1.8,0.0,1.0,0.0,1.0,2000000000,0,,,0
1449618401156374025,44,1449618401104518485,/odom,doorways,0,1,0,2.4412727356,-0.209023401141,1.0,0.0,0.0,0.29435471954,0.955696237873,0.2,0.69812220335,1.8,0.0,1.0,0.0,1.0,2000000000,0,,,0
1449618401991818317,45,1449618401941458646,/odom,doorways,0,1,0,2.47365903854,-0.196327239275,1.0,0.0,0.0,0.321525957544,0.94690076493,0.2,0.707820951939,1.8,0.0,1.0,0.0,1.0,2000000000,0,,,0
1449618402170866399,46,1449618402118817370,/odom,doorways,0,1,0,2.48777985573,-0.19281385839,1.0,0.0,0.0,0.322209631152,0.946668344032,0.2,0.699387013912,1.8,0.0,1.0,0.0,1.0,2000000000,0,,,0
1449618402384507490,47,1449618402333245252,/odom,doorways,0,1,0,2.52685260773,-0.18375980854,1.0,0.0,0.0,0.336851586147,0.941557756545,0.2,0.728552758694,1.8,0.0,1.0,0.0,1.0,2000000000,0,,,0
1449618402555989840,48,1449618402504516259,/odom,doorways,0,1,0,2.43313550949,-0.209018200636,1.0,0.0,0.0,0.279365321628,0.960184886921,0.2,0.668546974659,1.8,0.0,1.0,0.0,1.0,2000000000,0,,,0
1449618402794144320,49,1449618402742719800,/odom,doorways,0,1,0,2.4919731617,-0.178317651153,1.0,0.0,0.0,0.318893332675,0.94779061104,0.2,0.698203384876,1.8,0.0,1.0,0.0,1.0,2000000000,0,,,0
1449618403123999973,50,1449618403073800388,/odom,doorways,0,1,0,2.42952370644,-0.198027163744,1.0,0.0,0.0,0.298011445603,0.954562296705,0.2,0.69776725769,1.8,0.0,1.0,0.0,1.0,2000000000,0,,,0
1449618403211739524,51,1449618403160936198,/odom,doorways,0,1,0,2.41311740875,-0.208709284663,1.0,0.0,0.0,0.295077350562,0.955473368119,0.2,0.669583022594,1.8,0.0,1.0,0.0,1.0,2000000000,0,,,0
1449618403336121048,52,1449618403284041491,/odom,doorways,0,1,0,2.44443702698,-0.195896267891,1.0,0.0,0.0,0.287178364088,0.957877125314,0.2,0.687951266766,1.8,0.0,1.0,0.0,1.0,2000000000,0,,,0
1449618403533676961,53,1449618403483158275,/odom,doorways,0,1,0,2.53408098221,-0.167972505093,1.0,0.0,0.0,0.344613944656,0.938744496201,0.2,0.729232847691,1.8,0.0,1.0,0.0,1.0,2000000000,0,,,0
1449618403932128060,54,1449618403880441897,/odom,doorways,0,1,0,2.46532320976,-0.190633505583,1.0,0.0,0.0,0.30652047676,0.951864064521,0.2,0.667725384235,1.8,0.0,1.0,0.0,1.0,2000000000,0,,,0
1449618404822476592,55,1449618404771811174,/odom,doorways,0,1,0,2.48977279663,-0.180423289537,1.0,0.0,0.0,0.323892666794,0.946093832766,0.2,0.707584559917,1.8,0.0,1.0,0.0,1.0,2000000000,0,,,0
1449618405204142142,56,1449618405152766616,/odom,doorways,0,1,0,2.54782438278,-0.158587604761,1.0,0.0,0.0,0.333640406181,0.942700418672,0.2,0.759392261505,1.8,0.0,1.0,0.0,1.0,2000000000,0,,,0
1449618405442539638,57,1449618405386395302,/odom,doorways,0,1,0,2.45061016083,-0.189479380846,1.0,0.0,0.0,0.299878632656,0.953977361197,0.2,0.708848714828,1.8,0.0,1.0,0.0,1.0,2000000000,0,,,0
1449618405631107802,58,1449618405580892563,/odom,doorways,0,1,0,2.42953777313,-0.213101372123,1.0,0.0,0.0,0.290039218347,0.957014760503,0.2,0.667542338371,1.8,0.0,1.0,0.0,1.0,2000000000,0,,,0
1449618405950928744,59,1449618405900563648,/odom,doorways,0,1,0,2.46994590759,-0.188443154097,1.0,0.0,0.0,0.318199276321,0.9480238502,0.2,0.689478754997,1.8,0.0,1.0,0.0,1.0,2000000000,0,,,0
1449618406155810092,60,1449618406104338489,/odom,doorways,0,1,0,2.50393271446,-0.173104137182,1.0,0.0,0.0,0.328031759143,0.944666695186,0.2,0.708889007568,1.8,0.0,1.0,0.0,1.0,2000000000,0,,,0
1449618406333482017,61,1449618406283187738,/odom,doorways,0,1,0,2.48863887787,-0.167480260134,1.0,0.0,0.0,0.337382111704,0.94136778716,0.2,0.699178338051,1.8,0.0,1.0,0.0,1.0,2000000000,0,,,0
1449618406522717555,62,1449618406472236799,/odom,doorways,0,1,0,2.44794940948,-0.204985290766,1.0,0.0,0.0,0.29391611174,0.955831219023,0.2,0.687966048717,1.8,0.0,1.0,0.0,1.0,2000000000,0,,,0
1449618407026155101,63,1449618406973970592,/odom,doorways,0,1,0,2.43969678879,-0.205019682646,1.0,0.0,0.0,0.290525909721,0.956867125457,0.2,0.677991330624,1.8,0.0,1.0,0.0,1.0,2000000000,0,,,0
1449618407789876135,64,1449618407734752780,/odom,doorways,0,1,0,2.51101732254,-0.170010507107,1.0,0.0,0.0,0.345793376873,0.938310684427,0.2,0.728824913502,1.8,0.0,1.0,0.0,1.0,2000000000,0,,,0
1449618407908790727,65,1449618407858524587,/odom,doorways,0,1,0,2.51972937584,-0.166589140892,1.0,0.0,0.0,0.360831566384,0.932630999217,0.2,0.737730681896,1.8,0.0,1.0,0.0,1.0,2000000000,0,,,0
1449618408032449937,66,1449618407980326305,/odom,doorways,0,1,0,2.5242357254,-0.18629412353,1.0,0.0,0.0,0.333007247428,0.942924266927,0.2,0.769377887249,1.8,0.0,1.0,0.0,1.0,2000000000,0,,,0
1449618408360951624,67,1449618408307380639,/odom,doorways,0,1,0,2.44787192345,-0.197645872831,1.0,0.0,0.0,0.29916047885,0.954202812768,0.2,0.697979986668,1.8,0.0,1.0,0.0,1.0,2000000000,0,,,0
1449618408754367081,68,1449618408704029536,/odom,doorways,0,1,0,2.52804231644,-0.161338657141,1.0,0.0,0.0,0.340531124739,0.940233243979,0.2,0.727892637253,1.8,0.0,1.0,0.0,1.0,2000000000,0,,,0
1449618408937875012,69,1449618408887038873,/odom,doorways,0,1,0,2.42119789124,-0.224278897047,1.0,0.0,0.0,0.280429734871,0.959874556283,0.2,0.688159406185,1.8,0.0,1.0,0.0,1.0,2000000000,0,,,0
1449618409152189599,70,1449618409101809503,/odom,doorways,0,1,0,2.44286584854,-0.219446361065,1.0,0.0,0.0,0.288497370311,0.957480687703,0.2,0.688216090202,1.8,0.0,1.0,0.0,1.0,2000000000,0,,,0
1449618409297787346,71,1449618409246933113,/odom,doorways,0,1,0,2.33390927315,-0.263653516769,1.0,0.0,0.0,0.247724373157,0.968830550171,0.2,0.677672684193,1.8,0.0,1.0,0.0,1.0,2000000000,0,,,0
1449618409442709759,72,1449618409392499334,/odom,doorways,0,1,0,2.53428697586,-0.17235943675,1.0,0.0,0.0,0.350502798248,0.936561684258,0.2,0.76971834898,1.8,0.0,1.0,0.0,1.0,2000000000,0,,,0
1449618409610852857,73,1449618409559657326,/odom,doorways,0,1,0,2.45315527916,-0.20341694355,1.0,0.0,0.0,0.313394842978,0.949622910631,0.2,0.698960363865,1.8,0.0,1.0,0.0,1.0,2000000000,0,,,0
1449618410311934332,74,1449618410261425530,/odom,doorways,0,1,0,2.42102861404,-0.208555519581,1.0,0.0,0.0,0.294677707417,0.95559669775,0.2,0.699178040028,1.8,0.0,1.0,0.0,1.0,2000000000,0,,,0
1449618410558107958,75,1449618410506562708,/odom,doorways,0,1,0,2.43647003174,-0.222936078906,1.0,0.0,0.0,0.290884288399,0.956758240499,0.2,0.697901308537,1.8,0.0,1.0,0.0,1.0,2000000000,0,,,0
1449618410747755942,76,1449618410681553518,/odom,doorways,0,1,0,2.41081905365,-0.223343014717,1.0,0.0,0.0,0.301096919851,0.953593542793,0.2,0.687401294708,1.8,0.0,1.0,0.0,1.0,2000000000,0,,,0
1449618410964729985,77,1449618410914373843,/odom,doorways,0,1,0,2.47038149834,-0.182521760464,1.0,0.0,0.0,0.300671725348,0.953727693619,0.2,0.717992067337,1.8,0.0,1.0,0.0,1.0,2000000000,0,,,0
1449618411401631953,78,1449618411349619098,/odom,doorways,0,1,0,2.51942920685,-0.16526645422,1.0,0.0,0.0,0.344437597602,0.938809214568,0.2,0.749073684216,1.8,0.0,1.0,0.0,1.0,2000000000,0,,,0
1449618411542315322,79,1449618411491678108,/odom,doorways,0,1,0,2.47797966003,-0.185734301805,1.0,0.0,0.0,0.317790822916,0.948160847573,0.2,0.697444200516,1.8,0.0,1.0,0.0,1.0,2000000000,0,,,0
1449618411724029571,80,1449618411673745957,/odom,doorways,0,1,0,2.42794442177,-0.210082784295,1.0,0.0,0.0,0.284077546658,0.958801307615,0.2,0.688357770443,1.8,0.0,1.0,0.0,1.0,2000000000,0,,,0
1449618412174009909,81,1449618412123152241,/odom,doorways,0,1,0,2.49102449417,-0.183379799128,1.0,0.0,0.0,0.340252784085,0.940334006044,0.2,0.729334771633,1.8,0.0,1.0,0.0,1.0,2000000000,0,,,0
1449618412310986341,82,1449618412260651940,/odom,doorways,0,1,0,2.4592795372,-0.190699964762,1.0,0.0,0.0,0.318110371981,0.948053685842,0.2,0.718410730362,1.8,0.0,1.0,0.0,1.0,2000000000,0,,,0
1449618412400692969,83,1449618412350072995,/odom,doorways,0,1,0,2.52614498138,-0.15493644774,1.0,0.0,0.0,0.332016541081,0.943273563951,0.2,0.747469365597,1.8,0.0,1.0,0.0,1.0,2000000000,0,,,0
1449618412705496661,84,1449618412654615003,/odom,doorways,0,1,0,2.45919275284,-0.199621975422,1.0,0.0,0.0,0.325886453958,0.945408916357,0.2,0.698971807957,1.8,0.0,1.0,0.0,1.0,2000000000,0,,,0
1449618413057824936,85,1449618413002179233,/odom,doorways,0,1,0,2.49705982208,-0.184021145105,1.0,0.0,0.0,0.319325718926,0.947645020687,0.2,0.719417095184,1.8,0.0,1.0,0.0,1.0,2000000000,0,,,0
1449618413221883891,86,1449618413170522997,/odom,doorways,0,1,0,2.51136803627,-0.182414069772,1.0,0.0,0.0,0.313773057453,0.949498008643,0.2,0.708752274513,1.8,0.0,1.0,0.0,1.0,2000000000,0,,,0
1449618413506613620,87,1449618413456231823,/odom,doorways,0,1,0,2.41333866119,-0.217455148697,1.0,0.0,0.0,0.288566451183,0.957459870309,0.2,0.68818539381,1.8,0.0,1.0,0.0,1.0,2000000000,0,,,0
1449618413603451951,88,1449618413550640528,/odom,doorways,0,1,0,2.4067363739,-0.221154749393,1.0,0.0,0.0,0.290155512445,0.95697950793,0.2,0.669629275799,1.8,0.0,1.0,0.0,1.0,2000000000,0,,,0
1449618413746614717,89,1449618413696301543,/odom,doorways,0,1,0,2.39149332047,-0.21962583065,1.0,0.0,0.0,0.282183447875,0.959360464969,0.2,0.688138246536,1.8,0.0,1.0,0.0,1.0,2000000000,0,,,0
1449618413917911374,90,1449618413862107663,/odom,doorways,0,1,0,2.45445251465,-0.206430315971,1.0,0.0,0.0,0.299345358845,0.95414482975,0.2,0.707556903362,1.8,0.0,1.0,0.0,1.0,2000000000,0,,,0
1449618414900371433,91,1449618414847162964,/odom,doorways,0,1,0,2.43198108673,-0.211980104446,1.0,0.0,0.0,0.308609224637,0.951188912083,0.2,0.7086622715,1.8,0.0,1.0,0.0,1.0,2000000000,0,,,0
1449618415189412041,92,1449618415121990394,/odom,doorways,0,1,0,2.45746588707,-0.202297568321,1.0,0.0,0.0,0.30182425969,0.953363580311,0.2,0.717432558537,1.8,0.0,1.0,0.0,1.0,2000000000,0,,,0
1449618415329159377,93,1449618415269441196,/odom,doorways,0,1,0,2.48441195488,-0.196637898684,1.0,0.0,0.0,0.32236319416,0.94661606317,0.2,0.698436141014,1.8,0.0,1.0,0.0,1.0,2000000000,0,,,0
1449618415519058329,94,1449618415468475803,/odom,doorways,0,1,0,2.4621758461,-0.199289143085,1.0,0.0,0.0,0.316723971099,0.948517752143,0.2,0.719745337963,1.8,0.0,1.0,0.0,1.0,2000000000,0,,,0
1449618415696897880,95,1449618415644462824,/odom,doorways,0,1,0,2.42833280563,-0.208384305239,1.0,0.0,0.0,0.283586980377,0.958946518092,0.2,0.70821416378,1.8,0.0,1.0,0.0,1.0,2000000000,0,,,0
1449618416147767387,96,1449618416097461358,/odom,doorways,0,1,0,2.41810822487,-0.217482879758,1.0,0.0,0.0,0.296802082403,0.954939015792,0.2,0.677435815334,1.8,0.0,1.0,0.0,1.0,2000000000,0,,,0
1449618416353002770,97,1449618416297660044,/odom,doorways,0,1,0,2.52448916435,-0.191832840443,1.0,0.0,0.0,0.346376283975,0.93809566138,0.2,0.73846757412,1.8,0.0,1.0,0.0,1.0,2000000000,0,,,0
1449618416498077465,98,1449618416445018006,/odom,doorways,0,1,0,2.48918962479,-0.186175137758,1.0,0.0,0.0,0.329738481887,0.944072313736,0.2,0.708763360977,1.8,0.0,1.0,0.0,1.0,2000000000,0,,,0
1449618416601619525,99,1449618416549062128,/odom,doorways,0,1,0,2.47787976265,-0.187744498253,1.0,0.0,0.0,0.319570563989,0.947562480595,0.2,0.698214232922,1.8,0.0,1.0,0.0,1.0,2000000000,0,,,0
1449618416703196496,100,1449618416648143434,/odom,doorways,0,1,0,2.53092074394,-0.170249119401,1.0,0.0,0.0,0.340221122907,0.9403454618,0.2,0.729747414589,1.8,0.0,1.0,0.0,1.0,2000000000,0,,,0
1449618416924403875,101,1449618416873962263,/odom,doorways,0,1,0,2.47793292999,-0.180921763182,1.0,0.0,0.0,0.303684471586,0.952772660039,0.2,0.707870781422,1.8,0.0,1.0,0.0,1.0,2000000000,0,,,0
1449618417162441706,102,1449618417111528153,/odom,doorways,0,1,0,2.46773147583,-0.248373612761,1.0,0.0,0.0,0.307420530447,0.951573758287,0.2,0.697675943375,1.8,0.0,1.0,0.0,1.0,2000000000,0,,,0
1449618417541910895,103,1449618417488030609,/odom,doorways,0,1,0,2.48523187637,-0.208768382668,1.0,0.0,0.0,0.311462285066,0.950258514817,0.2,0.72847878933,1.8,0.0,1.0,0.0,1.0,2000000000,0,,,0
1449618417693010641,104,1449618417642458435,/odom,doorways,0,1,0,2.44157981873,-0.183167979121,1.0,0.0,0.0,0.307472910913,0.95155683438,0.2,0.647743105888,1.8,0.0,1.0,0.0,1.0,2000000000,0,,,0
1449618417784268706,105,1449618417733581103,/odom,doorways,0,1,0,2.4310092926,-0.248000577092,1.0,0.0,0.0,0.286544066525,0.958067063383,0.2,0.698324739933,1.8,0.0,1.0,0.0,1.0,2000000000,0,,,0
1449618417917888155,106,1449618417867415389,/odom,doorways,0,1,0,2.45005488396,-0.230230227113,1.0,0.0,0.0,0.32950314655,0.944154476987,0.2,0.677521586418,1.8,0.0,1.0,0.0,1.0,2000000000,0,,,0
1449618418460335715,107,1449618418408574657,/odom,doorways,0,1,0,2.48408031464,-0.240226730704,1.0,0.0,0.0,0.302947091425,0.95300737657,0.2,0.697519600391,1.8,0.0,1.0,0.0,1.0,2000000000,0,,,0
1449618418718073842,108,1449618418664285398,/odom,doorways,0,1,0,2.48664522171,-0.24049782753,1.0,0.0,0.0,0.320377740582,0.947289872922,0.2,0.717549860477,1.8,0.0,1.0,0.0,1.0,2000000000,0,,,0
1449618418991686168,109,1449618418932217134,/odom,doorways,0,1,0,2.49447321892,-0.199613422155,1.0,0.0,0.0,0.31737622789,0.948299704719,0.2,0.718089044094,1.8,0.0,1.0,0.0,1.0,2000000000,0,,,0
1449618419257310898,110,1449618419189469246,/odom,doorways,0,1,0,2.46077466011,-0.253676831722,1.0,0.0,0.0,0.310837808092,0.950462969852,0.2,0.718626141548,1.8,0.0,1.0,0.0,1.0,2000000000,0,,,0
1449618419402193350,111,1449618419350052499,/odom,doorways,0,1,0,2.48635458946,-0.203283146024,1.0,0.0,0.0,0.337858508454,0.941196912588,0.2,0.717272460461,1.8,0.0,1.0,0.0,1.0,2000000000,0,,,0
1449618419628038379,112,1449618419568392145,/odom,doorways,0,1,0,2.44312143326,-0.22719168663,1.0,0.0,0.0,0.292376787428,0.956303202009,0.2,0.708134710789,1.8,0.0,1.0,0.0,1.0,2000000000,0,,,0
1449618419806915803,113,1449618419754697552,/odom,doorways,0,1,0,2.51593351364,-0.224361270666,1.0,0.0,0.0,0.34241222858,0.939549820775,0.2,0.769364535809,1.8,0.0,1.0,0.0,1.0,2000000000,0,,,0
1449618420292647779,114,1449618420241001309,/odom,doorways,0,1,0,2.36502385139,-0.270163506269,1.0,0.0,0.0,0.235683415718,0.97182988612,0.2,0.689223647118,1.8,0.0,1.0,0.0,1.0,2000000000,0,,,0
1449618420523326855,115,1449618420472912616,/odom,doorways,0,1,0,2.45349597931,-0.241861104965,1.0,0.0,0.0,0.289416396037,0.957203295912,0.2,0.70838111639,1.8,0.0,1.0,0.0,1.0,2000000000,0,,,0
1449618420699880419,116,1449618420635465417,/odom,doorways,0,1,0,2.4975631237,-0.233704149723,1.0,0.0,0.0,0.323745292668,0.946144273076,0.2,0.69917935133,1.8,0.0,1.0,0.0,1.0,2000000000,0,,,0
1449618420808025727,117,1449618420757461380,/odom,doorways,0,1,0,2.4777905941,-0.2572003901,1.0,0.0,0.0,0.298773604734,0.954324018934,0.2,0.718790709972,1.8,0.0,1.0,0.0,1.0,2000000000,0,,,0
1449618421223668676,118,1449618421170598239,/odom,doorways,0,1,0,2.48335695267,-0.239075392485,1.0,0.0,0.0,0.314120206701,0.949383218591,0.2,0.747855067253,1.8,0.0,1.0,0.0,1.0,2000000000,0,,,0
1449618421514932904,119,1449618421451025379,/odom,doorways,0,1,0,2.4552283287,-0.242269963026,1.0,0.0,0.0,0.298520929161,0.954403088246,0.2,0.727650403976,1.8,0.0,1.0,0.0,1.0,2000000000,0,,,0
1449618421710146842,120,1449618421659438414,/odom,doorways,0,1,0,2.4851500988,-0.211512118578,1.0,0.0,0.0,0.315606453253,0.948890176293,0.2,0.718341827393,1.8,0.0,1.0,0.0,1.0,2000000000,0,,,0
1449618421990688451,121,1449618421932101833,/odom,doorways,0,1,0,2.46095991135,-0.264266937971,1.0,0.0,0.0,0.306142551751,0.951985681619,0.2,0.69913995266,1.8,0.0,1.0,0.0,1.0,2000000000,0,,,0
1449618422098788863,122,1449618422045853331,/odom,doorways,0,1,0,2.4604640007,-0.23662891984,1.0,0.0,0.0,0.289755548922,0.957100685335,0.2,0.717532515526,1.8,0.0,1.0,0.0,1.0,2000000000,0,,,0
1449618422314920216,123,1449618422264144399,/odom,doorways,0,1,0,2.4872841835,-0.220601767302,1.0,0.0,0.0,0.309211353929,0.95099334309,0.2,0.697917997837,1.8,0.0,1.0,0.0,1.0,2000000000,0,,,0
1449618422756132097,124,1449618422705884672,/odom,doorways,0,1,0,2.38618183136,-0.264753848314,1.0,0.0,0.0,0.263676399047,0.964611194516,0.2,0.689126133919,1.8,0.0,1.0,0.0,1.0,2000000000,0,,,0
1449618423170747519,125,1449618423119632532,/odom,doorways,0,1,0,2.46700024605,-0.265626341105,1.0,0.0,0.0,0.304143957744,0.952626082452,0.2,0.718525528908,1.8,0.0,1.0,0.0,1.0,2000000000,0,,,0
1449618423500223402,126,1449618423445679145,/odom,doorways,0,1,0,2.5263106823,-0.211836457253,1.0,0.0,0.0,0.331095275113,0.943597328736,0.2,0.737437844276,1.8,0.0,1.0,0.0,1.0,2000000000,0,,,0
1449618423933177471,127,1449618423882690244,/odom,doorways,0,1,0,2.44204878807,-0.277440011501,1.0,0.0,0.0,0.285717878856,0.958313776225,0.2,0.668231487274,1.8,0.0,1.0,0.0,1.0,2000000000,0,,,0
1449618424235111645,128,1449618424182637288,/odom,doorways,0,1,0,2.46275997162,-0.251507848501,1.0,0.0,0.0,0.303457041763,0.952845120575,0.2,0.727337837219,1.8,0.0,1.0,0.0,1.0,2000000000,0,,,0
1449618424491521184,129,1449618424434438985,/odom,doorways,0,1,0,2.36030006409,-0.317672252655,1.0,0.0,0.0,0.222918390879,0.974837109987,0.2,0.688856482506,1.8,0.0,1.0,0.0,1.0,2000000000,0,,,0
1449618424788472733,130,1449618424724275399,/odom,doorways,0,1,0,2.4843378067,-0.282281756401,1.0,0.0,0.0,0.311899973121,0.950114943976,0.2,0.737801015377,1.8,0.0,1.0,0.0,1.0,2000000000,0,,,0
1449618425025723928,131,1449618424974449863,/odom,doorways,0,1,0,2.44706678391,-0.263020068407,1.0,0.0,0.0,0.285960069518,0.958241534605,0.2,0.698009490967,1.8,0.0,1.0,0.0,1.0,2000000000,0,,,0
1449618425216088925,132,1449618425164775343,/odom,doorways,0,1,0,2.44054698944,-0.266079753637,1.0,0.0,0.0,0.279653931561,0.960100868952,0.2,0.68779194355,1.8,0.0,1.0,0.0,1.0,2000000000,0,,,0
1449618425370467823,133,1449618425313759667,/odom,doorways,0,1,0,2.42753005028,-0.305486619473,1.0,0.0,0.0,0.266937999218,0.963713704672,0.2,0.689109623432,1.8,0.0,1.0,0.0,1.0,2000000000,0,,,0
1449618425608743895,134,1449618425551398570,/odom,doorways,0,1,0,2.45454144478,-0.271469384432,1.0,0.0,0.0,0.28159498699,0.959533357055,0.2,0.697930812836,1.8,0.0,1.0,0.0,1.0,2000000000,0,,,0
1449618425807048947,135,1449618425756646970,/odom,doorways,0,1,0,2.48227739334,-0.26949390769,1.0,0.0,0.0,0.29669593954,0.954971999307,0.2,0.727574467659,1.8,0.0,1.0,0.0,1.0,2000000000,0,,,0
1449618425913555246,136,1449618425859382796,/odom,doorways,0,1,0,2.47601771355,-0.26684743166,1.0,0.0,0.0,0.293804738255,0.955865459036,0.2,0.718062877655,1.8,0.0,1.0,0.0,1.0,2000000000,0,,,0
1449618426064598447,137,1449618426013702816,/odom,doorways,0,1,0,2.46560049057,-0.273216217756,1.0,0.0,0.0,0.287364919651,0.957821174831,0.2,0.718217611313,1.8,0.0,1.0,0.0,1.0,2000000000,0,,,0
1449618426376396103,138,1449618426323755127,/odom,doorways,0,1,0,2.46388864517,-0.266968548298,1.0,0.0,0.0,0.280372050928,0.959891406909,0.2,0.699535369873,1.8,0.0,1.0,0.0,1.0,2000000000,0,,,0
1449618426549972331,139,1449618426483890900,/odom,doorways,0,1,0,2.48459362984,-0.281507790089,1.0,0.0,0.0,0.288919444957,0.957353411404,0.2,0.71811568737,1.8,0.0,1.0,0.0,1.0,2000000000,0,,,0
1449618426700297331,140,1449618426649912612,/odom,doorways,0,1,0,2.46267986298,-0.289556026459,1.0,0.0,0.0,0.267487336267,0.963561375802,0.2,0.69932538271,1.8,0.0,1.0,0.0,1.0,2000000000,0,,,0
1449618426911880571,141,1449618426855884276,/odom,doorways,0,1,0,2.46717262268,-0.281649947166,1.0,0.0,0.0,0.274136598029,0.96169076403,0.2,0.698820114136,1.8,0.0,1.0,0.0,1.0,2000000000,0,,,0
1449618427061245121,142,1449618427010765423,/odom,doorways,0,1,0,2.46286344528,-0.286676585674,1.0,0.0,0.0,0.267178410765,0.963647081053,0.2,0.698451161385,1.8,0.0,1.0,0.0,1.0,2000000000,0,,,0
1449618427299305172,143,1449618427235868774,/odom,doorways,0,1,0,2.4563806057,-0.301260113716,1.0,0.0,0.0,0.257220481913,0.966352742886,0.2,0.698751032352,1.8,0.0,1.0,0.0,1.0,2000000000,0,,,0
1449618427448078792,144,1449618427395749440,/odom,doorways,0,1,0,2.42969250679,-0.303716242313,1.0,0.0,0.0,0.235949353455,0.971765353676,0.2,0.698761820793,1.8,0.0,1.0,0.0,1.0,2000000000,0,,,0
1449618427634009532,145,1449618427582259535,/odom,doorways,0,1,0,2.43435716629,-0.295542448759,1.0,0.0,0.0,0.248725231366,0.968574085593,0.2,0.708106458187,1.8,0.0,1.0,0.0,1.0,2000000000,0,,,0
1449618427798986786,146,1449618427748711588,/odom,doorways,0,1,0,2.40148377419,-0.314088076353,1.0,0.0,0.0,0.220444072169,0.975399616078,0.2,0.698048949242,1.8,0.0,1.0,0.0,1.0,2000000000,0,,,0
1449618427979699907,147,1449618427924980593,/odom,doorways,0,1,0,2.41586852074,-0.30519977212,1.0,0.0,0.0,0.235775154031,0.971807633609,0.2,0.6980458498,1.8,0.0,1.0,0.0,1.0,2000000000,0,,,0
1449618428173899066,148,1449618428122708747,/odom,doorways,0,1,0,2.47825956345,-0.274300992489,1.0,0.0,0.0,0.286637730466,0.958039044858,0.2,0.708028435707,1.8,0.0,1.0,0.0,1.0,2000000000,0,,,0
1449618428431366388,149,1449618428375976779,/odom,doorways,0,1,0,2.47927618027,-0.269642740488,1.0,0.0,0.0,0.283252830758,0.959045272063,0.2,0.698868155479,1.8,0.0,1.0,0.0,1.0,2000000000,0,,,0
1449618428665716344,150,1449618428613813249,/odom,doorways,0,1,0,2.46935081482,-0.290079385042,1.0,0.0,0.0,0.269666610551,0.962953747152,0.2,0.698642551899,1.8,0.0,1.0,0.0,1.0,2000000000,0,,,0
1449618428839251656,151,1449618428788940897,/odom,doorways,0,1,0,2.49897074699,-0.284092545509,1.0,0.0,0.0,0.292297300843,0.956327500347,0.2,0.72816824913,1.8,0.0,1.0,0.0,1.0,2000000000,0,,,0
1449618429195686246,152,1449618429145412047,/odom,doorways,0,1,0,2.40825414658,-0.319829672575,1.0,0.0,0.0,0.222511375622,0.97493009376,0.2,0.698243558407,1.8,0.0,1.0,0.0,1.0,2000000000,0,,,0
1449618429345303561,153,1449618429284890786,/odom,doorways,0,1,0,2.4723443985,-0.290678739548,1.0,0.0,0.0,0.273666131131,0.961824749459,0.2,0.708893895149,1.8,0.0,1.0,0.0,1.0,2000000000,0,,,0
1449618429934580374,154,1449618429883284170,/odom,doorways,0,1,0,2.46505284309,-0.285776078701,1.0,0.0,0.0,0.270632756559,0.962682663746,0.2,0.708208978176,1.8,0.0,1.0,0.0,1.0,2000000000,0,,,0
1449618430033788738,155,1449618429982386352,/odom,doorways,0,1,0,2.47747612,-0.290480077267,1.0,0.0,0.0,0.278856107068,0.960332896214,0.2,0.69843429327,1.8,0.0,1.0,0.0,1.0,2000000000,0,,,0
1449618430147940334,156,1449618430091726405,/odom,doorways,0,1,0,2.47213697433,-0.285513758659,1.0,0.0,0.0,0.275453601899,0.96131436752,0.2,0.697988688946,1.8,0.0,1.0,0.0,1.0,2000000000,0,,,0
1449618430282976577,157,1449618430230833575,/odom,doorways,0,1,0,2.48919892311,-0.289291769266,1.0,0.0,0.0,0.284450479097,0.958690734774,0.2,0.708890795708,1.8,0.0,1.0,0.0,1.0,2000000000,0,,,0
1449618430432802308,158,1449618430381948536,/odom,doorways,0,1,0,2.48190927505,-0.283891677856,1.0,0.0,0.0,0.281782081159,0.959478430575,0.2,0.708316981792,1.8,0.0,1.0,0.0,1.0,2000000000,0,,,0
1449618430572535858,159,1449618430518161860,/odom,doorways,0,1,0,2.49754905701,-0.305735379457,1.0,0.0,0.0,0.281722043461,0.959496060559,0.2,0.70886194706,1.8,0.0,1.0,0.0,1.0,2000000000,0,,,0
1449618430688589541,160,1449618430633342189,/odom,doorways,0,1,0,2.44832992554,-0.305025666952,1.0,0.0,0.0,0.249307274621,0.968424433201,0.2,0.708911240101,1.8,0.0,1.0,0.0,1.0,2000000000,0,,,0
1449618430846651290,161,1449618430790015228,/odom,doorways,0,1,0,2.43626832962,-0.330455452204,1.0,0.0,0.0,0.231099909254,0.972930024176,0.2,0.699840962887,1.8,0.0,1.0,0.0,1.0,2000000000,0,,,0
1449618430962390981,162,1449618430910657786,/odom,doorways,0,1,0,2.46994829178,-0.295013487339,1.0,0.0,0.0,0.27018173924,0.962809341345,0.2,0.697928369045,1.8,0.0,1.0,0.0,1.0,2000000000,0,,,0
1449618431155016380,163,1449618431104751065,/odom,doorways,0,1,0,2.46355247498,-0.28778976202,1.0,0.0,0.0,0.26536949089,0.964146790331,0.2,0.688531279564,1.8,0.0,1.0,0.0,1.0,2000000000,0,,,0
1449618431247994020,164,1449618431197462146,/odom,doorways,0,1,0,2.47471046448,-0.284037947655,1.0,0.0,0.0,0.272557090438,0.962139611726,0.2,0.698405265808,1.8,0.0,1.0,0.0,1.0,2000000000,0,,,0
1449618431465815099,165,1449618431414503330,/odom,doorways,0,1,0,2.42623209953,-0.3097833395,1.0,0.0,0.0,0.235878911624,0.971782454591,0.2,0.698120892048,1.8,0.0,1.0,0.0,1.0,2000000000,0,,,0
1449618431536010331,166,1449618431483187538,/odom,doorways,0,1,0,2.49393367767,-0.284367531538,1.0,0.0,0.0,0.285803438967,0.95828826262,0.2,0.707840025425,1.8,0.0,1.0,0.0,1.0,2000000000,0,,,0
1449618431803602441,167,1449618431746462981,/odom,doorways,0,1,0,2.50225687027,-0.28245022893,1.0,0.0,0.0,0.288959446459,0.957341338448,0.2,0.728343963623,1.8,0.0,1.0,0.0,1.0,2000000000,0,,,0
1449618431813889810,168,1449618431761845833,/odom,doorways,1,1,0,3.07369017601,-0.364690095186,1.0,0.0,0.0,-0.462877014331,0.886422511901,0.2,0.889823019505,1.8,0.0,1.0,0.0,1.0,2000000000,0,,,0
1449618431972798801,169,1449618431921719551,/odom,doorways,0,1,0,2.46082758904,-0.304236084223,1.0,0.0,0.0,0.263750321329,0.964590984822,0.2,0.68839776516,1.8,0.0,1.0,0.0,1.0,2000000000,0,,,0
1449618432148198389,170,1449618432097643462,/odom,doorways,0,1,0,2.45493412018,-0.284822523594,1.0,0.0,0.0,0.264332070457,0.964431727251,0.2,0.688060879707,1.8,0.0,1.0,0.0,1.0,2000000000,0,,,0
1449618432253019618,171,1449618432201371900,/odom,doorways,0,1,0,2.48856067657,-0.281380534172,1.0,0.0,0.0,0.284227930922,0.958756738325,0.2,0.698027551174,1.8,0.0,1.0,0.0,1.0,2000000000,0,,,0
1449618432374153695,172,1449618432317642154,/odom,doorways,0,1,0,2.46033191681,-0.282282501459,1.0,0.0,0.0,0.270006790687,0.962858417932,0.2,0.688685059547,1.8,0.0,1.0,0.0,1.0,2000000000,0,,,0
1449618432623368511,173,1449618432571356901,/odom,doorways,0,1,0,2.44330430031,-0.284802347422,1.0,0.0,0.0,0.256539939264,0.966533630849,0.2,0.678956151009,1.8,0.0,1.0,0.0,1.0,2000000000,0,,,0
1449618432761855622,174,1449618432711623379,/odom,doorways,0,1,0,2.49358892441,-0.273280292749,1.0,0.0,0.0,0.292411166896,0.956292690276,0.2,0.707605183125,1.8,0.0,1.0,0.0,1.0,2000000000,0,,,0
1449618432838798084,175,1449618432785911827,/odom,doorways,0,1,0,2.4378452301,-0.28630694747,1.0,0.0,0.0,0.254431194067,0.967090878607,0.2,0.688868463039,1.8,0.0,1.0,0.0,1.0,2000000000,0,,,0
1449618432954518099,176,1449618432903986646,/odom,doorways,0,1,0,2.4951107502,-0.278227388859,1.0,0.0,0.0,0.293492449081,0.955961391654,0.2,0.717806458473,1.8,0.0,1.0,0.0,1.0,2000000000,0,,,0
1449618433138315050,177,1449618433083963694,/odom,doorways,0,1,0,2.46035337448,-0.277737975121,1.0,0.0,0.0,0.277263047829,0.960794047811,0.2,0.679158985615,1.8,0.0,1.0,0.0,1.0,2000000000,0,,,0
1449618437572080881,178,1449618437518150491,/odom,doorways,0,1,0,2.53233742714,-0.200581014156,1.0,0.0,0.0,0.337265586107,0.941409541288,0.2,0.749035477638,1.8,0.0,1.0,0.0,1.0,2000000000,0,,,0
1449618437868780902,179,1449618437814683280,/odom,doorways,0,1,0,2.46335029602,-0.230357944965,1.0,0.0,0.0,0.309250636874,0.950980569514,0.2,0.709074139595,1.8,0.0,1.0,0.0,1.0,2000000000,0,,,0
1449618437983938943,180,1449618437928636097,/odom,doorways,0,1,0,2.47350978851,-0.221833974123,1.0,0.0,0.0,0.302874914472,0.953030317558,0.2,0.708573997021,1.8,0.0,1.0,0.0,1.0,2000000000,0,,,0
1449618438201194641,181,1449618438150137542,/odom,doorways,0,1,0,2.52160978317,-0.0260499864817,1.0,0.0,0.0,0.386141864863,0.922439407333,0.2,0.648986458778,1.8,0.0,1.0,0.0,1.0,2000000000,0,,,0
1449618438362721318,182,1449618438312498923,/odom,doorways,0,1,0,2.46203041077,-0.219278007746,1.0,0.0,0.0,0.311855657688,0.950129490527,0.2,0.727306246758,1.8,0.0,1.0,0.0,1.0,2000000000,0,,,0
1449618438854185914,183,1449618438802085628,/odom,doorways,0,1,0,2.45581769943,-0.202649697661,1.0,0.0,0.0,0.320826110186,0.947138114017,0.2,0.738078713417,1.8,0.0,1.0,0.0,1.0,2000000000,0,,,0
1449618439077365853,184,1449618439025434234,/odom,doorways,0,1,0,2.45410013199,-0.228899806738,1.0,0.0,0.0,0.292990622776,0.95611531468,0.2,0.708904922009,1.8,0.0,1.0,0.0,1.0,2000000000,0,,,0
1449618439832816365,185,1449618439781803863,/odom,doorways,0,1,0,2.49886035919,-0.203098997474,1.0,0.0,0.0,0.316709600375,0.948522550618,0.2,0.727366805077,1.8,0.0,1.0,0.0,1.0,2000000000,0,,,0
1449618439953179338,186,1449618439894706204,/odom,doorways,0,1,0,2.45979547501,-0.212615415454,1.0,0.0,0.0,0.319171218703,0.947697068241,0.2,0.737589240074,1.8,0.0,1.0,0.0,1.0,2000000000,0,,,0
1449618440184963768,187,1449618440132592625,/odom,doorways,0,1,0,2.48880147934,-0.211465209723,1.0,0.0,0.0,0.346391205162,0.938090151844,0.2,0.748418986797,1.8,0.0,1.0,0.0,1.0,2000000000,0,,,0
1449618440796117061,188,1449618440730981236,/odom,doorways,0,1,0,2.47831535339,-0.160044640303,1.0,0.0,0.0,0.329644084623,0.944105278808,0.2,0.648259222507,1.8,0.0,1.0,0.0,1.0,2000000000,0,,,0
1449618441136282623,189,1449618441083166669,/odom,doorways,0,1,0,2.47398042679,-0.167471215129,1.0,0.0,0.0,0.335202240949,0.942146197606,0.2,0.649091601372,1.8,0.0,1.0,0.0,1.0,2000000000,0,,,0
1449618441373110371,190,1449618441322229471,/odom,doorways,0,1,0,2.49872207642,-0.124921515584,1.0,0.0,0.0,0.339757691565,0.940513004175,0.2,0.647781133652,1.8,0.0,1.0,0.0,1.0,2000000000,0,,,0
1449618441903878355,191,1449618441853413657,/odom,doorways,0,1,0,2.4532957077,-0.226704388857,1.0,0.0,0.0,0.300461715191,0.9537938759,0.2,0.727238178253,1.8,0.0,1.0,0.0,1.0,2000000000,0,,,0
1449618443244446677,192,1449618443186410295,/odom,doorways,0,1,0,2.51689791679,-0.0757724493742,1.0,0.0,0.0,0.373144199308,0.92777335946,0.2,0.647654473782,1.8,0.0,1.0,0.0,1.0,2000000000,0,,,0
1449618443561927938,193,1449618443511614610,/odom,doorways,0,1,0,2.48251795769,0.059273570776,1.0,0.0,0.0,0.410866207324,0.911695650795,0.2,0.717652261257,1.8,0.0,1.0,0.0,1.0,2000000000,0,,,0
1449618445441118219,194,1449618445390448776,/odom,doorways,0,1,0,2.47039914131,-0.227189600468,1.0,0.0,0.0,0.311761546218,0.950160375042,0.2,0.738569796085,1.8,0.0,1.0,0.0,1.0,2000000000,0,,,0
1449618446177913109,195,1449618446124370725,/odom,doorways,0,1,0,2.55563497543,-0.158092081547,1.0,0.0,0.0,0.371145402442,0.928574762874,0.2,0.808986186981,1.8,0.0,1.0,0.0,1.0,2000000000,0,,,0
1449618446638198503,196,1449618446587207051,/odom,doorways,0,1,0,2.37733769417,-0.255272179842,1.0,0.0,0.0,0.247486612495,0.968891313118,0.2,0.689147770405,1.8,0.0,1.0,0.0,1.0,2000000000,0,,,0
1449618446796450451,197,1449618446746119378,/odom,doorways,0,1,0,2.46394634247,-0.243263229728,1.0,0.0,0.0,0.297534830585,0.954710963899,0.2,0.708639502525,1.8,0.0,1.0,0.0,1.0,2000000000,0,,,0
1449618447020633248,198,1449618446969739854,/odom,doorways,0,1,0,2.47233772278,-0.238898515701,1.0,0.0,0.0,0.309106953099,0.95102728223,0.2,0.727574944496,1.8,0.0,1.0,0.0,1.0,2000000000,0,,,0
1449618447173791898,199,1449618447121257838,/odom,doorways,0,1,0,2.48681163788,-0.193541511893,1.0,0.0,0.0,0.326015586064,0.945364394106,0.2,0.678474903107,1.8,0.0,1.0,0.0,1.0,2000000000,0,,,0
1449618447372084555,200,1449618447320658102,/odom,doorways,0,1,0,2.37820100784,-0.290145456791,1.0,0.0,0.0,0.234858601153,0.972029545572,0.2,0.679385304451,1.8,0.0,1.0,0.0,1.0,2000000000,0,,,0
1449618447675088357,201,1449618447621747341,/odom,doorways,0,1,0,2.49590396881,-0.20221015811,1.0,0.0,0.0,0.328672567126,0.94444393355,0.2,0.678868889809,1.8,0.0,1.0,0.0,1.0,2000000000,0,,,0
1449618447869747963,202,1449618447819007846,/odom,doorways,0,1,0,2.4710893631,-0.243759840727,1.0,0.0,0.0,0.304275089721,0.952584206134,0.2,0.717892110348,1.8,0.0,1.0,0.0,1.0,2000000000,0,,,0
1449618448091257702,203,1449618448041051422,/odom,doorways,0,1,0,2.46911287308,-0.245553582907,1.0,0.0,0.0,0.302969685929,0.953000193813,0.2,0.698137521744,1.8,0.0,1.0,0.0,1.0,2000000000,0,,,0
1449618448320200586,204,1449618448265223556,/odom,doorways,0,1,0,2.47796463966,-0.239568561316,1.0,0.0,0.0,0.311622522686,0.950205979435,0.2,0.718053936958,1.8,0.0,1.0,0.0,1.0,2000000000,0,,,0
1449618448482090886,205,1449618448430931528,/odom,doorways,0,1,0,2.50679731369,-0.230568036437,1.0,0.0,0.0,0.326506258352,0.945195039797,0.2,0.718685626984,1.8,0.0,1.0,0.0,1.0,2000000000,0,,,0
1449618448689340091,206,1449618448637829836,/odom,doorways,0,1,0,2.40596294403,-0.259228229523,1.0,0.0,0.0,0.271851246784,0.962339285087,0.2,0.687934279442,1.8,0.0,1.0,0.0,1.0,2000000000,0,,,0
1449618448873030054,207,1449618448822479465,/odom,doorways,0,1,0,2.47309422493,-0.250629961491,1.0,0.0,0.0,0.308553105977,0.951207117715,0.2,0.71741515398,1.8,0.0,1.0,0.0,1.0,2000000000,0,,,0
1449618449038711470,208,1449618448986494931,/odom,doorways,0,1,0,2.48922133446,-0.226027578115,1.0,0.0,0.0,0.325453718944,0.945557971161,0.2,0.708715200424,1.8,0.0,1.0,0.0,1.0,2000000000,0,,,0
1449618449054644130,209,1449618449002296580,/odom,doorways,1,1,0,3.00782012939,-0.399870038033,1.0,0.0,0.0,-0.485528877221,0.874220629695,0.2,0.649849712849,1.8,0.0,1.0,0.0,1.0,2000000000,0,,,0
1449618449262850147,210,1449618449212375975,/odom,doorways,0,1,0,2.46717739105,-0.226512223482,1.0,0.0,0.0,0.316354385348,0.948641082218,0.2,0.688882291317,1.8,0.0,1.0,0.0,1.0,2000000000,0,,,0
1449618449293958063,211,1449618449243617382,/odom,doorways,1,1,0,3.03282237053,-0.325676590204,1.0,0.0,0.0,-0.459970839345,0.887934021734,0.2,0.81947183609,1.8,0.0,1.0,0.0,1.0,2000000000,0,,,0
1449618449598014747,212,1449618449533252016,/odom,doorways,0,1,0,2.46376848221,-0.244642481208,1.0,0.0,0.0,0.298148806085,0.954519402333,0.2,0.7185510993,1.8,0.0,1.0,0.0,1.0,2000000000,0,,,0
1449618449613377272,213,1449618449555921203,/odom,doorways,1,1,0,3.27049136162,-0.198370456696,1.0,0.0,0.0,-0.474100623368,0.880470668973,0.2,1.07954633236,1.8,0.0,1.0,0.0,1.0,2000000000,0,,,0
1449618449770725171,214,1449618449720481616,/odom,doorways,0,1,0,2.44040226936,-0.24655225873,1.0,0.0,0.0,0.290332762047,0.956925748051,0.2,0.698473930359,1.8,0.0,1.0,0.0,1.0,2000000000,0,,,0
1449618450056583583,215,1449618450005348239,/odom,doorways,0,1,0,2.47580122948,-0.2501937747,1.0,0.0,0.0,0.315693731946,0.948861142428,0.2,0.727674901485,1.8,0.0,1.0,0.0,1.0,2000000000,0,,,0
1449618450335161355,216,1449618450277168747,/odom,doorways,0,1,0,2.48721885681,-0.236279636621,1.0,0.0,0.0,0.325686354175,0.945477867908,0.2,0.728022396564,1.8,0.0,1.0,0.0,1.0,2000000000,0,,,0
1449618450666079335,217,1449618450615167444,/odom,doorways,0,1,0,2.45527386665,-0.271829426289,1.0,0.0,0.0,0.291882121581,0.956454299536,0.2,0.718166470528,1.8,0.0,1.0,0.0,1.0,2000000000,0,,,0
1449618451100186936,218,1449618451047472518,/odom,doorways,0,1,0,2.44084429741,-0.258545249701,1.0,0.0,0.0,0.288106405426,0.957598401812,0.2,0.688707530499,1.8,0.0,1.0,0.0,1.0,2000000000,0,,,0
1449618451339205060,219,1449618451287529308,/odom,doorways,0,1,0,2.45370769501,-0.245563134551,1.0,0.0,0.0,0.302711584555,0.953082208719,0.2,0.697718203068,1.8,0.0,1.0,0.0,1.0,2000000000,0,,,0
1449618457244257908,220,1449618457190050413,/odom,doorways,0,1,0,2.23653149605,-0.432577222586,1.0,0.0,0.0,0.0831659092004,0.996535715139,0.2,0.797319591045,1.8,0.0,1.0,0.0,1.0,2000000000,0,,,0
1449618460033305283,221,1449618459982130337,/odom,doorways,0,1,0,3.25498962402,-0.455823659897,1.0,0.0,0.0,-0.541194391884,0.840897514679,0.2,0.829377472401,1.8,0.0,1.0,0.0,1.0,2000000000,0,,,0
1449618460458401884,222,1449618460396860559,/odom,doorways,0,1,0,3.2363576889,-0.442387610674,1.0,0.0,0.0,-0.530491218331,0.847690431274,0.2,0.809529185295,1.8,0.0,1.0,0.0,1.0,2000000000,0,,,0
1449618460772971544,223,1449618460721479315,/odom,doorways,0,1,0,3.26112294197,-0.377733767033,1.0,0.0,0.0,-0.507217117407,0.861818307887,0.2,0.929212808609,1.8,0.0,1.0,0.0,1.0,2000000000,0,,,0
1449618461160101155,224,1449618461108659163,/odom,doorways,0,1,0,3.2079308033,-0.43513405323,1.0,0.0,0.0,-0.519953950893,0.854194292272,0.2,0.818892836571,1.8,0.0,1.0,0.0,1.0,2000000000,0,,,0
1449618461535221581,225,1449618461480226054,/odom,doorways,0,1,0,3.23021268845,-0.447214126587,1.0,0.0,0.0,-0.529984784926,0.848007150764,0.2,0.808925867081,1.8,0.0,1.0,0.0,1.0,2000000000,0,,,0
1449618461811353734,226,1449618461760360859,/odom,doorways,0,1,0,3.23158717155,-0.439499795437,1.0,0.0,0.0,-0.523657946291,0.851928609266,0.2,0.83882856369,1.8,0.0,1.0,0.0,1.0,2000000000,0,,,0
1449618462035845577,227,1449618461985229570,/odom,doorways,0,1,0,3.21367931366,-0.433058649302,1.0,0.0,0.0,-0.513913103608,0.8578422477,0.2,0.808714032173,1.8,0.0,1.0,0.0,1.0,2000000000,0,,,0
1449618462298724709,228,1449618462247871197,/odom,doorways,0,1,0,3.25019049644,-0.348694354296,1.0,0.0,0.0,-0.486493906913,0.873683969486,0.2,0.988247931004,1.8,0.0,1.0,0.0,1.0,2000000000,0,,,0
1449618462646730055,229,1449618462589597118,/odom,doorways,0,1,0,3.22133779526,-0.482972562313,1.0,0.0,0.0,-0.533168906575,0.846008816184,0.2,0.808777153492,1.8,0.0,1.0,0.0,1.0,2000000000,0,,,0
1449618462978513622,230,1449618462927614840,/odom,doorways,0,1,0,3.20697498322,-0.418887317181,1.0,0.0,0.0,-0.500148572262,0.865939608555,0.2,0.818579614162,1.8,0.0,1.0,0.0,1.0,2000000000,0,,,0
1449618463310934995,231,1449618463258187404,/odom,doorways,0,1,0,3.21595478058,-0.452428042889,1.0,0.0,0.0,-0.51426653346,0.857630417233,0.2,0.798983573914,1.8,0.0,1.0,0.0,1.0,2000000000,0,,,0
1449618463529063786,232,1449618463477570832,/odom,doorways,0,1,0,3.22741746902,-0.46001625061,1.0,0.0,0.0,-0.521685625973,0.853137801092,0.2,0.809324085712,1.8,0.0,1.0,0.0,1.0,2000000000,0,,,0
1449618463721795691,233,1449618463656346110,/odom,doorways,0,1,0,3.22569203377,-0.468328773975,1.0,0.0,0.0,-0.524307393526,0.851529070023,0.2,0.818882703781,1.8,0.0,1.0,0.0,1.0,2000000000,0,,,0
1449618464112471843,234,1449618464061786755,/odom,doorways,0,1,0,3.23295807838,-0.479976296425,1.0,0.0,0.0,-0.531802839931,0.846868194846,0.2,0.798930346966,1.8,0.0,1.0,0.0,1.0,2000000000,0,,,0
1449618464224190560,235,1449618464166672377,/odom,doorways,0,1,0,3.23877954483,-0.478922337294,1.0,0.0,0.0,-0.531148983828,0.847278441233,0.2,0.829640686512,1.8,0.0,1.0,0.0,1.0,2000000000,0,,,0
1449618464339452582,236,1449618464289204595,/odom,doorways,0,1,0,3.21239852905,-0.390364170074,1.0,0.0,0.0,-0.489527969385,0.871987595777,0.2,0.878407359123,1.8,0.0,1.0,0.0,1.0,2000000000,0,,,0
1449618464565385834,237,1449618464514567373,/odom,doorways,0,1,0,3.25834774971,-0.47622013092,1.0,0.0,0.0,-0.534742113401,0.845015308829,0.2,0.868503391743,1.8,0.0,1.0,0.0,1.0,2000000000,0,,,0
1449618464811552781,238,1449618464760980638,/odom,doorways,0,1,0,3.24835801125,-0.344295084476,1.0,0.0,0.0,-0.481359366182,0.876523337161,0.2,0.988057613373,1.8,0.0,1.0,0.0,1.0,2000000000,0,,,0
1449618464960145347,239,1449618464907955880,/odom,doorways,0,1,0,3.31216454506,-0.389311045408,1.0,0.0,0.0,-0.51131967729,0.859390590835,0.2,1.02822566032,1.8,0.0,1.0,0.0,1.0,2000000000,0,,,0
1449618487466823115,240,1449618487406778158,/odom,doorways,0,1,0,2.51507711411,-0.345904707909,1.0,0.0,0.0,0.310752070361,0.950491005095,0.2,0.818537712097,1.8,0.0,1.0,0.0,1.0,2000000000,0,,,0
1449618491155213783,241,1449618491088813744,/odom,doorways,0,1,0,2.49550509453,-0.296635836363,1.0,0.0,0.0,0.307720886002,0.951476671452,0.2,0.717275440693,1.8,0.0,1.0,0.0,1.0,2000000000,0,,,0
1449618491376267833,242,1449618491325442568,/odom,doorways,0,1,0,2.44085264206,-0.318824976683,1.0,0.0,0.0,0.275334491434,0.961348489273,0.2,0.688756763935,1.8,0.0,1.0,0.0,1.0,2000000000,0,,,0
1449618491495130140,243,1449618491443343331,/odom,doorways,0,1,0,2.4789891243,-0.314804375172,1.0,0.0,0.0,0.29641077846,0.955060548035,0.2,0.717352211475,1.8,0.0,1.0,0.0,1.0,2000000000,0,,,0
1449618491708071810,244,1449618491656946917,/odom,doorways,0,1,0,2.40319490433,-0.329783797264,1.0,0.0,0.0,0.238085697382,0.971244150923,0.2,0.648969173431,1.8,0.0,1.0,0.0,1.0,2000000000,0,,,0
1449618491872555642,245,1449618491821612861,/odom,doorways,0,1,0,2.50581598282,-0.269801646471,1.0,0.0,0.0,0.317089281948,0.948395691299,0.2,0.707587003708,1.8,0.0,1.0,0.0,1.0,2000000000,0,,,0
1449618491992547093,246,1449618491926329505,/odom,doorways,0,1,0,2.48346948624,-0.304674863815,1.0,0.0,0.0,0.291716574162,0.956504804148,0.2,0.697858989239,1.8,0.0,1.0,0.0,1.0,2000000000,0,,,0
1449618492075006264,247,1449618492021285278,/odom,doorways,0,1,0,2.47514939308,-0.293545544147,1.0,0.0,0.0,0.279634049606,0.960106659857,0.2,0.69830262661,1.8,0.0,1.0,0.0,1.0,2000000000,0,,,0
1449618493582801406,248,1449618493532591685,/odom,doorways,0,1,0,1.97986662388,0.493819177151,1.0,0.0,0.0,0.261083597615,0.965316194341,0.2,0.78706073761,1.8,0.0,1.0,0.0,1.0,2000000000,0,,,0
1449618493785863686,249,1449618493733495175,/odom,doorways,0,1,0,1.92717957497,0.58955103159,1.0,0.0,0.0,0.270831519844,0.962626764566,0.2,0.978390753269,1.8,0.0,1.0,0.0,1.0,2000000000,0,,,0
1449618494985643700,250,1449618494933947478,/odom,doorways,0,1,0,1.71564865112,0.773076534271,1.0,0.0,0.0,0.308696413171,0.951160619714,0.2,0.907741844654,1.8,0.0,1.0,0.0,1.0,2000000000,0,,,0
1449618495444293782,251,1449618495390975341,/odom,doorways,0,1,0,1.65019869804,0.919518589973,1.0,0.0,0.0,0.227773674555,0.973714102383,0.2,0.717415034771,1.8,0.0,1.0,0.0,1.0,2000000000,0,,,0
1449618496898919552,252,1449618496848478057,/odom,doorways,0,1,0,1.60236549377,0.906247973442,1.0,0.0,0.0,0.296334458496,0.955084231211,0.2,0.689468026161,1.8,0.0,1.0,0.0,1.0,2000000000,0,,,0
1449618497785444735,253,1449618497734940200,/odom,doorways,0,1,0,1.91266202927,0.535130500793,1.0,0.0,0.0,0.264953408301,0.964261215351,0.2,0.908998966217,1.8,0.0,1.0,0.0,1.0,2000000000,0,,,0
1449618498383090756,254,1449618498332394798,/odom,doorways,0,1,0,1.63097047806,0.924201965332,1.0,0.0,0.0,0.318397109907,0.947957425417,0.2,0.677540540695,1.8,0.0,1.0,0.0,1.0,2000000000,0,,,0
1449618499380440171,255,1449618499324525142,/odom,doorways,0,1,0,2.45959639549,-0.214914441109,1.0,0.0,0.0,0.306772517229,0.951782865297,0.2,0.699739158154,1.8,0.0,1.0,0.0,1.0,2000000000,0,,,0
1449618499614928236,256,1449618499564529282,/odom,doorways,0,1,0,2.38588118553,-0.246182262897,1.0,0.0,0.0,0.275156815945,0.96139935856,0.2,0.659141838551,1.8,0.0,1.0,0.0,1.0,2000000000,0,,,0
1449618499784928885,257,1449618499734631953,/odom,doorways,0,1,0,2.50164246559,-0.200987696648,1.0,0.0,0.0,0.333002503823,0.942925942186,0.2,0.689162969589,1.8,0.0,1.0,0.0,1.0,2000000000,0,,,0
1449618499894279476,258,1449618499841181423,/odom,doorways,0,1,0,2.44111442566,-0.299278527498,1.0,0.0,0.0,0.291230965138,0.956652771357,0.2,0.667585015297,1.8,0.0,1.0,0.0,1.0,2000000000,0,,,0
1449618500089608208,259,1449618500038714613,/odom,doorways,0,1,0,2.42094802856,-0.304006665945,1.0,0.0,0.0,0.311971974977,0.95009130447,0.2,0.709457755089,1.8,0.0,1.0,0.0,1.0,2000000000,0,,,0
1449618500129314335,260,1449618500076011733,/odom,doorways,1,1,0,2.20833086967,-0.196233421564,1.0,0.0,0.0,0.19608690018,0.980586522229,0.2,1.05805277824,1.8,0.0,1.0,0.0,1.0,2000000000,0,,,0
1449618500282883531,261,1449618500231032879,/odom,doorways,0,1,0,2.47854304314,-0.275117248297,1.0,0.0,0.0,0.312186417363,0.950020863357,0.2,0.709679365158,1.8,0.0,1.0,0.0,1.0,2000000000,0,,,0
1449618500513736849,262,1449618500463411454,/odom,doorways,0,1,0,2.47466087341,-0.279581815004,1.0,0.0,0.0,0.301083020383,0.953597931435,0.2,0.727765798569,1.8,0.0,1.0,0.0,1.0,2000000000,0,,,0
1449618500899808944,263,1449618500849528615,/odom,doorways,0,1,0,2.44620776176,-0.27690833807,1.0,0.0,0.0,0.300998422192,0.95362463781,0.2,0.698237717152,1.8,0.0,1.0,0.0,1.0,2000000000,0,,,0
1449618501084923500,264,1449618501032520462,/odom,doorways,0,1,0,2.45414352417,-0.276317983866,1.0,0.0,0.0,0.31300585473,0.949751196317,0.2,0.727234840393,1.8,0.0,1.0,0.0,1.0,2000000000,0,,,0
1449618501293985334,265,1449618501242820512,/odom,doorways,0,1,0,2.48929357529,-0.254171073437,1.0,0.0,0.0,0.335995394182,0.941863628711,0.2,0.72739470005,1.8,0.0,1.0,0.0,1.0,2000000000,0,,,0
1449618501965242086,266,1449618501914256622,/odom,doorways,0,1,0,2.46052694321,-0.340328276157,1.0,0.0,0.0,0.308536365134,0.951212547957,0.2,0.718444347382,1.8,0.0,1.0,0.0,1.0,2000000000,0,,,0
1449618502135531334,267,1449618502082901578,/odom,doorways,0,1,0,2.50900888443,-0.295419692993,1.0,0.0,0.0,0.335605320183,0.942002690582,0.2,0.7574827075,1.8,0.0,1.0,0.0,1.0,2000000000,0,,,0
1449618502339039162,268,1449618502287715352,/odom,doorways,0,1,0,2.49770712852,-0.304063022137,1.0,0.0,0.0,0.329766341561,0.944062582657,0.2,0.73726785183,1.8,0.0,1.0,0.0,1.0,2000000000,0,,,0
1449618502510752909,269,1449618502456983489,/odom,doorways,0,1,0,2.48927354813,-0.300521016121,1.0,0.0,0.0,0.33651420284,0.941678390581,0.2,0.718009054661,1.8,0.0,1.0,0.0,1.0,2000000000,0,,,0
1449618502717836762,270,1449618502667087773,/odom,doorways,0,1,0,2.47004508972,-0.308534651995,1.0,0.0,0.0,0.315264774348,0.949003752392,0.2,0.727828323841,1.8,0.0,1.0,0.0,1.0,2000000000,0,,,0
1449618502931824524,271,1449618502858779977,/odom,doorways,0,1,0,2.50036048889,-0.290000796318,1.0,0.0,0.0,0.333942791128,0.942593344053,0.2,0.717382013798,1.8,0.0,1.0,0.0,1.0,2000000000,0,,,0
1449618503100033774,272,1449618503049899797,/odom,doorways,0,1,0,2.49421930313,-0.297051697969,1.0,0.0,0.0,0.330203392966,0.943909804629,0.2,0.74716591835,1.8,0.0,1.0,0.0,1.0,2000000000,0,,,0
1449618503425947531,273,1449618503374408031,/odom,doorways,0,1,0,2.47228622437,-0.346067667007,1.0,0.0,0.0,0.310715545731,0.950502945625,0.2,0.708579063416,1.8,0.0,1.0,0.0,1.0,2000000000,0,,,0
1449618503603320950,274,1449618503552564166,/odom,doorways,0,1,0,2.44803357124,-0.314028531313,1.0,0.0,0.0,0.309708974084,0.950831400077,0.2,0.708078384399,1.8,0.0,1.0,0.0,1.0,2000000000,0,,,0
1449618503824923242,275,1449618503773998402,/odom,doorways,0,1,0,2.46624469757,-0.302571058273,1.0,0.0,0.0,0.319693651421,0.94752095979,0.2,0.728808581829,1.8,0.0,1.0,0.0,1.0,2000000000,0,,,0
1449618504128256534,276,1449618504077016136,/odom,doorways,0,1,0,2.46791672707,-0.317643105984,1.0,0.0,0.0,0.308904555747,0.951093042472,0.2,0.728593766689,1.8,0.0,1.0,0.0,1.0,2000000000,0,,,0
1449618504369612346,277,1449618504294337531,/odom,doorways,0,1,0,2.44869685173,-0.322345674038,1.0,0.0,0.0,0.298105589938,0.954532900034,0.2,0.718614935875,1.8,0.0,1.0,0.0,1.0,2000000000,0,,,0
1449618504520557703,278,1449618504469663585,/odom,doorways,0,1,0,2.49936676025,-0.29066413641,1.0,0.0,0.0,0.34143790201,0.939904335063,0.2,0.727949082851,1.8,0.0,1.0,0.0,1.0,2000000000,0,,,0
1449618504714833469,279,1449618504664615200,/odom,doorways,0,1,0,2.50973343849,-0.308990448713,1.0,0.0,0.0,0.335857927933,0.941912656378,0.2,0.717361092567,1.8,0.0,1.0,0.0,1.0,2000000000,0,,,0
1449618505565629844,280,1449618505515325855,/odom,doorways,0,1,0,2.46393346786,-0.302026510239,1.0,0.0,0.0,0.317978697517,0.948097857779,0.2,0.73840379715,1.8,0.0,1.0,0.0,1.0,2000000000,0,,,0
1449618505780146721,281,1449618505728261561,/odom,doorways,0,1,0,2.43493723869,-0.31921043992,1.0,0.0,0.0,0.304910215092,0.952381100575,0.2,0.718795835972,1.8,0.0,1.0,0.0,1.0,2000000000,0,,,0
1449618505971500428,282,1449618505920380124,/odom,doorways,0,1,0,2.51119232178,-0.293806970119,1.0,0.0,0.0,0.347807299676,0.937566041563,0.2,0.788596272469,1.8,0.0,1.0,0.0,1.0,2000000000,0,,,0
1449618506331739671,283,1449618506278022770,/odom,doorways,0,1,0,2.43860220909,-0.325141400099,1.0,0.0,0.0,0.304337679243,0.95256421148,0.2,0.759103894234,1.8,0.0,1.0,0.0,1.0,2000000000,0,,,0
1449618506550517183,284,1449618506499989431,/odom,doorways,0,1,0,2.42718744278,-0.328356266022,1.0,0.0,0.0,0.299208731189,0.954187683415,0.2,0.729189693928,1.8,0.0,1.0,0.0,1.0,2000000000,0,,,0
1449618506789922357,285,1449618506739635365,/odom,doorways,0,1,0,2.43287801743,-0.317277759314,1.0,0.0,0.0,0.306248969807,0.951951452802,0.2,0.729443073273,1.8,0.0,1.0,0.0,1.0,2000000000,0,,,0
1449618506957362237,286,1449618506891804405,/odom,doorways,0,1,0,2.42517232895,-0.311501711607,1.0,0.0,0.0,0.304992243714,0.952354834751,0.2,0.749426841736,1.8,0.0,1.0,0.0,1.0,2000000000,0,,,0
1449618507243080001,287,1449618507192807410,/odom,doorways,0,1,0,2.44218397141,-0.319695919752,1.0,0.0,0.0,0.316443882647,0.94861123182,0.2,0.75942325592,1.8,0.0,1.0,0.0,1.0,2000000000,0,,,0
1449618508261786269,288,1449618508194565205,/odom,doorways,0,1,0,2.43782520294,-0.341075778008,1.0,0.0,0.0,0.313428375401,0.949611843594,0.2,0.759529471397,1.8,0.0,1.0,0.0,1.0,2000000000,0,,,0
1449618530565999057,289,1449618530511461918,/odom,doorways,0,1,0,7.92818832397,-0.237102776766,1.0,0.0,0.0,0.685182102924,0.728371804666,0.2,0.899810791016,1.8,0.0,1.0,0.0,1.0,2000000000,0,,,0
1449618555006866300,290,1449618554956141762,/odom,doorways,0,1,0,4.008872509,4.69453525543,1.0,0.0,0.0,0.881899181101,0.471438049348,0.2,0.689910054207,1.8,0.0,1.0,0.0,1.0,2000000000,0,,,0
1449618555209716177,291,1449618555159306601,/odom,doorways,0,1,0,4.01406908035,4.69177246094,1.0,0.0,0.0,0.881338445302,0.472485496955,0.2,0.749092280865,1.8,0.0,1.0,0.0,1.0,2000000000,0,,,0
1449618555318376287,292,1449618555268062596,/odom,doorways,0,1,0,4.00694608688,4.69447803497,1.0,0.0,0.0,0.882114892947,0.471034304102,0.2,0.768648266792,1.8,0.0,1.0,0.0,1.0,2000000000,0,,,0
1449618555515510057,293,1449618555463365089,/odom,doorways,0,1,0,4.00913715363,4.70973014832,1.0,0.0,0.0,0.879921531281,0.475119036441,0.2,0.758125126362,1.8,0.0,1.0,0.0,1.0,2000000000,0,,,0
1449618555566797513,294,1449618555516597310,/odom,doorways,1,1,0,5.83023929596,5.50048446655,1.0,0.0,0.0,0.811480278238,0.584379806316,0.2,0.66969949007,1.8,0.0,1.0,0.0,1.0,2000000000,0,,,0
1449618555725727211,295,1449618555673934053,/odom,doorways,0,1,0,4.00165462494,4.70181560516,1.0,0.0,0.0,0.878710848692,0.477354422197,0.2,0.739735782146,1.8,0.0,1.0,0.0,1.0,2000000000,0,,,0
1449618555828017609,296,1449618555777818146,/odom,doorways,0,1,0,4.10733509064,4.76918125153,1.0,0.0,0.0,0.874053391549,0.485829876317,0.2,0.979409039021,1.8,0.0,1.0,0.0,1.0,2000000000,0,,,0
1449618555865008506,297,1449618555812256739,/odom,doorways,1,1,0,3.92780828476,4.8814239502,1.0,0.0,0.0,0.824023346593,0.566555843911,0.2,0.669338643551,1.8,0.0,1.0,0.0,1.0,2000000000,0,,,0
1449618555872660154,298,1449618555822169128,/odom,doorways,2,1,0,6.74483060837,5.96160411835,1.0,0.0,0.0,0.824023346593,0.566555843911,0.2,0.849160969257,1.8,0.0,1.0,0.0,1.0,2000000000,0,,,0
1449618555915683847,299,1449618555865412568,/odom,doorways,0,1,0,4.14635038376,4.7733707428,1.0,0.0,0.0,0.871581981345,0.490249783064,0.2,1.02964758873,1.8,0.0,1.0,0.0,1.0,2000000000,0,,,0
1449618555977832813,300,1449618555926636301,/odom,doorways,0,1,0,4.12503099442,4.77869606018,1.0,0.0,0.0,0.871225576068,0.490882873611,0.2,0.98702275753,1.8,0.0,1.0,0.0,1.0,2000000000,0,,,0
1449618556163290854,301,1449618556111792704,/odom,doorways,0,1,0,3.96607923508,4.7194852829,1.0,0.0,0.0,0.885750221266,0.464162197435,0.2,0.698766171932,1.8,0.0,1.0,0.0,1.0,2000000000,0,,,0
1449618556367815549,302,1449618556314956889,/odom,doorways,0,1,0,4.11316347122,4.75901222229,1.0,0.0,0.0,0.869838216614,0.493337082447,0.2,1.00771403313,1.8,0.0,1.0,0.0,1.0,2000000000,0,,,0
1449618556413641647,303,1449618556357654607,/odom,doorways,1,1,0,5.66094732285,5.68206262589,1.0,0.0,0.0,0.839017334989,0.544104688078,0.2,0.737466514111,1.8,0.0,1.0,0.0,1.0,2000000000,0,,,0
1449618556522252963,304,1449618556469917336,/odom,doorways,0,1,0,3.98740339279,4.75031375885,1.0,0.0,0.0,0.885128794463,0.465346126246,0.2,0.747862696648,1.8,0.0,1.0,0.0,1.0,2000000000,0,,,0
1449618556552077102,305,1449618556499305812,/odom,doorways,1,1,0,3.923787117,4.81419610977,1.0,0.0,0.0,0.851447040298,0.524440594889,0.2,0.687397181988,1.8,0.0,1.0,0.0,1.0,2000000000,0,,,0
1449618556604939480,306,1449618556553084553,/odom,doorways,0,1,0,3.97029972076,4.6896982193,1.0,0.0,0.0,0.868423971846,0.495822352383,0.2,0.638724148273,1.8,0.0,1.0,0.0,1.0,2000000000,0,,,0
1449618556726822245,307,1449618556675348892,/odom,doorways,0,1,0,3.92625665665,4.87867689133,1.0,0.0,0.0,0.842128364183,0.539277125641,0.2,0.677546739578,1.8,0.0,1.0,0.0,1.0,2000000000,0,,,0
1449618556958348619,308,1449618556907646264,/odom,doorways,0,1,0,4.00563383102,4.74934577942,1.0,0.0,0.0,0.879292388943,0.476282368713,0.2,0.768053948879,1.8,0.0,1.0,0.0,1.0,2000000000,0,,,0
1449618557157321805,309,1449618557102405950,/odom,doorways,0,1,0,3.97698736191,4.79737854004,1.0,0.0,0.0,0.863969870219,0.503543506912,0.2,0.759587705135,1.8,0.0,1.0,0.0,1.0,2000000000,0,,,0
