%time,field.header.seq,field.header.stamp,field.header.frame_id,field.ns,field.id,field.type,field.action,field.pose.position.x,field.pose.position.y,field.pose.position.z,field.pose.orientation.x,field.pose.orientation.y,field.pose.orientation.z,field.pose.orientation.w,field.scale.x,field.scale.y,field.scale.z,field.color.r,field.color.g,field.color.b,field.color.a,field.lifetime,field.frame_locked,field.text,field.mesh_resource,field.mesh_use_embedded_materials
1449618394971812960,0,0,/odom,ucmd_vector,0,0,0,0.0,0.0,0.0,0.0,0.0,0.0,1.0,0.00559730190992,0.05,0.05,0.0,0.0,1.0,1.0,0,0,,,0
1449618395008923456,1,0,/odom,ucmd_vector,0,0,0,0.0,0.0,0.0,0.0,0.0,0.0,1.0,0.00559730190992,0.05,0.05,0.0,0.0,1.0,1.0,0,0,,,0
1449618395055149502,2,0,/odom,ucmd_vector,0,0,0,0.0,0.0,0.0,0.0,0.0,0.00317459802558,0.999994960951,0.0111846038198,0.05,0.05,0.0,0.0,1.0,1.0,0,0,,,0
1449618395112967485,3,0,/odom,ucmd_vector,0,0,0,0.0,0.0,0.0,0.0,0.0,0.00317459802558,0.999994960951,0.0111846038198,0.05,0.05,0.0,0.0,1.0,1.0,0,0,,,0
1449618395170889409,4,0,/odom,ucmd_vector,0,0,0,0.0,0.0,0.0,0.0,0.0,0.00317459802558,0.999994960951,0.0111846038198,0.05,0.05,0.0,0.0,1.0,1.0,0,0,,,0
1449618395254619440,5,0,/odom,ucmd_vector,0,0,0,0.0,0.0,0.0,0.0,0.0,0.00952366572892,0.999954648867,0.346422698746,0.05,0.05,0.0,0.0,1.0,1.0,0,0,,,0
1449618395363239550,6,0,/odom,ucmd_vector,0,0,0,0.0,0.0,0.0,0.0,0.0,0.015872349884,0.99987402632,0.340835397491,0.05,0.05,0.0,0.0,1.0,1.0,0,0,,,0
1449618395456747228,7,0,/odom,ucmd_vector,0,0,0,0.0,0.0,0.0,0.0,0.0,0.015872349884,0.99987402632,0.340835397491,0.05,0.05,0.0,0.0,1.0,1.0,0,0,,,0
1449618395504946039,8,0,/odom,ucmd_vector,0,0,0,0.0,0.0,0.0,0.0,0.0,0.015872349884,0.99987402632,0.340835397491,0.05,0.05,0.0,0.0,1.0,1.0,0,0,,,0
1449618395539193934,9,0,/odom,ucmd_vector,0,0,0,0.0,0.0,0.0,0.0,0.0,0.015872349884,0.99987402632,0.340835397491,0.05,0.05,0.0,0.0,1.0,1.0,0,0,,,0
1449618395651306469,10,0,/odom,ucmd_vector,0,0,0,0.0,0.0,0.0,0.0,0.0,0.015872349884,0.99987402632,0.340835397491,0.05,0.05,0.0,0.0,1.0,1.0,0,0,,,0
1449618395682496343,11,0,/odom,ucmd_vector,0,0,0,0.0,0.0,0.0,0.0,0.0,0.015872349884,0.99987402632,0.340835397491,0.05,0.05,0.0,0.0,1.0,1.0,0,0,,,0
1449618395781420517,12,0,/odom,ucmd_vector,0,0,0,0.0,0.0,0.0,0.0,0.0,0.0126980721652,0.999919376232,0.346422698746,0.05,0.05,0.0,0.0,1.0,1.0,0,0,,,0
1449618395820263686,13,0,/odom,ucmd_vector,0,0,0,0.0,0.0,0.0,0.0,0.0,0.00952366572892,0.999954648867,0.340835397491,0.05,0.05,0.0,0.0,1.0,1.0,0,0,,,0
1449618395984486008,14,0,/odom,ucmd_vector,0,0,0,0.0,0.0,0.0,0.0,0.0,0.00952366572892,0.999954648867,0.340835397491,0.05,0.05,0.0,0.0,1.0,1.0,0,0,,,0
1449618396060193698,15,0,/odom,ucmd_vector,0,0,0,0.0,0.0,0.0,0.0,0.0,0.00952366572892,0.999954648867,0.340835397491,0.05,0.05,0.0,0.0,1.0,1.0,0,0,,,0
1449618396305669728,16,0,/odom,ucmd_vector,0,0,0,0.00575958653158,0.0,0.0,0.0,0.0,0.00634916405725,0.999979843855,0.296136987457,0.05,0.05,0.0,0.0,1.0,1.0,0,0,,,0
1449618396337261081,17,0,/odom,ucmd_vector,0,0,0,0.00575958653158,0.0,0.0,0.0,0.0,0.00634916405725,0.999979843855,0.296136987457,0.05,0.05,0.0,0.0,1.0,1.0,0,0,,,0
1449618396410747043,18,0,/odom,ucmd_vector,0,0,0,0.00575958653158,0.0,0.0,0.0,0.0,0.00634916405725,0.999979843855,0.346422698746,0.05,0.05,0.0,0.0,1.0,1.0,0,0,,,0
1449618396457669314,19,0,/odom,ucmd_vector,0,0,0,0.0115190122517,-3.04332289367e-05,0.0,0.0,0.0,0.00634916405725,0.999979843855,0.346422698746,0.05,0.05,0.0,0.0,1.0,1.0,0,0,,,0
1449618396607092757,20,0,/odom,ucmd_vector,0,0,0,0.0115190122517,-3.04332289367e-05,0.0,0.0,0.0,0.00634916405725,0.999979843855,0.340835397491,0.05,0.05,0.0,0.0,1.0,1.0,0,0,,,0
1449618396627748488,21,0,/odom,ucmd_vector,0,0,0,0.0115190122517,-3.04332289367e-05,0.0,0.0,0.0,0.00634916405725,0.999979843855,0.340835397491,0.05,0.05,0.0,0.0,1.0,1.0,0,0,,,0
1449618396689658585,22,0,/odom,ucmd_vector,0,0,0,0.0115190122517,-3.04332289367e-05,0.0,0.0,0.0,0.00317459802558,0.999994960951,0.301724288712,0.05,0.05,0.0,0.0,1.0,1.0,0,0,,,0
1449618396724590678,23,0,/odom,ucmd_vector,0,0,0,0.00863937979737,0.0,0.0,0.0,0.0,-0.00210941941862,0.999997775172,0.301724288712,0.05,0.05,0.0,0.0,1.0,1.0,0,0,,,0
1449618396820358059,24,0,/odom,ucmd_vector,0,0,0,0.00575958653158,0.0,0.0,0.0,0.0,0.00317459802558,0.999994960951,0.346422698746,0.05,0.05,0.0,0.0,1.0,1.0,0,0,,,0
1449618396851230908,25,0,/odom,ucmd_vector,0,0,0,0.00575958653158,0.0,0.0,0.0,0.0,0.00317459802558,0.999994960951,0.346422698746,0.05,0.05,0.0,0.0,1.0,1.0,0,0,,,0
1449618396895652104,26,0,/odom,ucmd_vector,0,0,0,0.00575958653158,0.0,0.0,0.0,0.0,0.00317459802558,0.999994960951,0.340835397491,0.05,0.05,0.0,0.0,1.0,1.0,0,0,,,0
1449618397016390043,27,0,/odom,ucmd_vector,0,0,0,0.00575958653158,0.0,0.0,0.0,0.0,0.00317459802558,0.999994960951,0.340835397491,0.05,0.05,0.0,0.0,1.0,1.0,0,0,,,0
1449618397040697637,28,0,/odom,ucmd_vector,0,0,0,0.00575958653158,0.0,0.0,0.0,0.0,0.00317459802558,0.999994960951,0.346422698746,0.05,0.05,0.0,0.0,1.0,1.0,0,0,,,0
1449618397206489125,29,0,/odom,ucmd_vector,0,0,0,0.00863921898595,-3.04332289367e-05,0.0,0.0,0.0,0.00106518217349,0.999999432693,0.346422698746,0.05,0.05,0.0,0.0,1.0,1.0,0,0,,,0
1449618397232958694,30,0,/odom,ucmd_vector,0,0,0,0.0115190122517,-3.04332289367e-05,0.0,0.0,0.0,0.00634916405725,0.999979843855,0.346422698746,0.05,0.05,0.0,0.0,1.0,1.0,0,0,,,0
1449618397507014062,31,0,/odom,ucmd_vector,0,0,0,0.0172785987833,-3.04332289367e-05,0.0,0.0,0.0,0.00634916405725,0.999979843855,0.346422698746,0.05,0.05,0.0,0.0,1.0,1.0,0,0,,,0
1449618397552467980,32,0,/odom,ucmd_vector,0,0,0,0.0172785987833,-3.04332289367e-05,0.0,0.0,0.0,0.00634916405725,0.999979843855,0.346422698746,0.05,0.05,0.0,0.0,1.0,1.0,0,0,,,0
1449618397674752102,33,0,/odom,ucmd_vector,0,0,0,0.0172785987833,-3.04332289367e-05,0.0,0.0,0.0,0.00317459802558,0.999994960951,0.346422698746,0.05,0.05,0.0,0.0,1.0,1.0,0,0,,,0
1449618397782201442,34,0,/odom,ucmd_vector,0,0,0,0.0172785987833,-3.04332289367e-05,0.0,0.0,0.0,0.00317459802558,0.999994960951,0.346422698746,0.05,0.05,0.0,0.0,1.0,1.0,0,0,,,0
1449618397944664955,35,0,/odom,ucmd_vector,0,0,0,0.0172785987833,-3.04332289367e-05,0.0,0.0,0.0,0.00634916405725,0.999979843855,0.340835397491,0.05,0.05,0.0,0.0,1.0,1.0,0,0,,,0
1449618397985712671,36,0,/odom,ucmd_vector,0,0,0,0.0172785987833,-3.04332289367e-05,0.0,0.0,0.0,0.00634916405725,0.999979843855,0.340835397491,0.05,0.05,0.0,0.0,1.0,1.0,0,0,,,0
1449618398174913373,37,0,/odom,ucmd_vector,0,0,0,0.0172785987833,-3.04332289367e-05,0.0,0.0,0.0,0.00317459802558,0.999994960951,0.346422698746,0.05,0.05,0.0,0.0,1.0,1.0,0,0,,,0
1449618398259375157,38,0,/odom,ucmd_vector,0,0,0,0.0172785987833,-3.04332289367e-05,0.0,0.0,0.0,0.00317459802558,0.999994960951,0.346422698746,0.05,0.05,0.0,0.0,1.0,1.0,0,0,,,0
1449618398361840731,39,0,/odom,ucmd_vector,0,0,0,0.0172785987833,-3.04332289367e-05,0.0,0.0,0.0,0.00317459802558,0.999994960951,0.346422698746,0.05,0.05,0.0,0.0,1.0,1.0,0,0,,,0
1449618398432812998,40,0,/odom,ucmd_vector,0,0,0,0.0172785987833,-3.04332289367e-05,0.0,0.0,0.0,0.00317459802558,0.999994960951,0.31289889122,0.05,0.05,0.0,0.0,1.0,1.0,0,0,,,0
1449618398484604740,41,0,/odom,ucmd_vector,0,0,0,0.0172785987833,-3.04332289367e-05,0.0,0.0,0.0,0.00317459802558,0.999994960951,0.346422698746,0.05,0.05,0.0,0.0,1.0,1.0,0,0,,,0
1449618398526132212,42,0,/odom,ucmd_vector,0,0,0,0.0172785987833,-3.04332289367e-05,0.0,0.0,0.0,0.00317459802558,0.999994960951,0.346422698746,0.05,0.05,0.0,0.0,1.0,1.0,0,0,,,0
1449618398570770220,43,0,/odom,ucmd_vector,0,0,0,0.0172785987833,-3.04332289367e-05,0.0,0.0,0.0,0.00317459802558,0.999994960951,0.301724288712,0.05,0.05,0.0,0.0,1.0,1.0,0,0,,,0
1449618398603317286,44,0,/odom,ucmd_vector,0,0,0,0.0172785987833,-3.04332289367e-05,0.0,0.0,0.0,0.00317459802558,0.999994960951,0.301724288712,0.05,0.05,0.0,0.0,1.0,1.0,0,0,,,0
1449618398624740750,45,0,/odom,ucmd_vector,0,0,0,0.0172785987833,-3.04332289367e-05,0.0,0.0,0.0,0.00317459802558,0.999994960951,0.346422698746,0.05,0.05,0.0,0.0,1.0,1.0,0,0,,,0
1449618398689803192,46,0,/odom,ucmd_vector,0,0,0,0.0172785987833,-3.04332289367e-05,0.0,0.0,0.0,0.00317459802558,0.999994960951,0.346422698746,0.05,0.05,0.0,0.0,1.0,1.0,0,0,,,0
1449618398720376588,47,0,/odom,ucmd_vector,0,0,0,0.0172785987833,-3.04332289367e-05,0.0,0.0,0.0,0.00317459802558,0.999994960951,0.346422698746,0.05,0.05,0.0,0.0,1.0,1.0,0,0,,,0
1449618398760299893,48,0,/odom,ucmd_vector,0,0,0,0.0172785987833,-3.04332289367e-05,0.0,0.0,0.0,0.00317459802558,0.999994960951,0.301724288712,0.05,0.05,0.0,0.0,1.0,1.0,0,0,,,0
1449618398839907703,49,0,/odom,ucmd_vector,0,0,0,0.0172785987833,-3.04332289367e-05,0.0,0.0,0.0,0.00317459802558,0.999994960951,0.301724288712,0.05,0.05,0.0,0.0,1.0,1.0,0,0,,,0
1449618398880154125,50,0,/odom,ucmd_vector,0,0,0,0.0172785987833,-3.04332289367e-05,0.0,0.0,0.0,0.00634916405725,0.999979843855,0.340835397491,0.05,0.05,0.0,0.0,1.0,1.0,0,0,,,0
1449618398957548967,51,0,/odom,ucmd_vector,0,0,0,0.0172785987833,-3.04332289367e-05,0.0,0.0,0.0,0.00634916405725,0.999979843855,0.340835397491,0.05,0.05,0.0,0.0,1.0,1.0,0,0,,,0
1449618399083615410,52,0,/odom,ucmd_vector,0,0,0,0.0172785987833,-3.04332289367e-05,0.0,0.0,0.0,0.00317459802558,0.999994960951,0.346422698746,0.05,0.05,0.0,0.0,1.0,1.0,0,0,,,0
1449618399125868494,53,0,/odom,ucmd_vector,0,0,0,0.0230380245035,1.01643953671e-20,0.0,0.0,0.0,0.00317459802558,0.999994960951,0.346422698746,0.05,0.05,0.0,0.0,1.0,1.0,0,0,,,0
1449618399462123946,54,0,/odom,ucmd_vector,0,0,0,0.0374366692096,6.08664578733e-05,0.0,0.0,0.0,0.00845852683232,0.999964226022,0.346422698746,0.05,0.05,0.0,0.0,1.0,1.0,0,0,,,0
1449618399629139140,55,0,/odom,ucmd_vector,0,0,0,0.0431960949298,9.129968681e-05,0.0,0.0,0.0,0.00845852683232,0.999964226022,0.346422698746,0.05,0.05,0.0,0.0,1.0,1.0,0,0,,,0
1449618399780176223,56,0,/odom,ucmd_vector,0,0,0,0.0489553598385,0.000152166144683,0.0,0.0,0.0,0.011632968667,0.999932334731,0.346422698746,0.05,0.05,0.0,0.0,1.0,1.0,0,0,,,0
1449618400145390031,57,0,/odom,ucmd_vector,0,0,0,0.0489553598385,0.000152166144683,0.0,0.0,0.0,0.00845852683232,0.999964226022,0.346422698746,0.05,0.05,0.0,0.0,1.0,1.0,0,0,,,0
1449618400190024489,58,0,/odom,ucmd_vector,0,0,0,0.0489553598385,0.000152166144683,0.0,0.0,0.0,0.00845852683232,0.999964226022,0.346422698746,0.05,0.05,0.0,0.0,1.0,1.0,0,0,,,0
1449618400225564352,59,0,/odom,ucmd_vector,0,0,0,0.0489553598385,0.000152166144683,0.0,0.0,0.0,0.00845852683232,0.999964226022,0.346422698746,0.05,0.05,0.0,0.0,1.0,1.0,0,0,,,0
1449618400305652003,60,0,/odom,ucmd_vector,0,0,0,0.0489553598385,0.000152166144683,0.0,0.0,0.0,0.011632968667,0.999932334731,0.340835397491,0.05,0.05,0.0,0.0,1.0,1.0,0,0,,,0
1449618400334526544,61,0,/odom,ucmd_vector,0,0,0,0.0489553598385,0.000152166144683,0.0,0.0,0.0,0.011632968667,0.999932334731,0.340835397491,0.05,0.05,0.0,0.0,1.0,1.0,0,0,,,0
1449618400373136382,62,0,/odom,ucmd_vector,0,0,0,0.0489553598385,0.000152166144683,0.0,0.0,0.0,0.00845852683232,0.999964226022,0.346422698746,0.05,0.05,0.0,0.0,1.0,1.0,0,0,,,0
1449618400476819386,63,0,/odom,ucmd_vector,0,0,0,0.0489553598385,0.000152166144683,0.0,0.0,0.0,0.00845852683232,0.999964226022,0.346422698746,0.05,0.05,0.0,0.0,1.0,1.0,0,0,,,0
1449618400795697950,64,0,/odom,ucmd_vector,0,0,0,0.0489553598385,0.000152166144683,0.0,0.0,0.0,0.00845852683232,0.999964226022,0.346422698746,0.05,0.05,0.0,0.0,1.0,1.0,0,0,,,0
1449618400886903156,65,0,/odom,ucmd_vector,0,0,0,0.0489553598385,0.000152166144683,0.0,0.0,0.0,0.00845852683232,0.999964226022,0.346422698746,0.05,0.05,0.0,0.0,1.0,1.0,0,0,,,0
1449618400939553379,66,0,/odom,ucmd_vector,0,0,0,0.0489553598385,0.000152166144683,0.0,0.0,0.0,0.011632968667,0.999932334731,0.346422698746,0.05,0.05,0.0,0.0,1.0,1.0,0,0,,,0
1449618401037080791,67,0,/odom,ucmd_vector,0,0,0,0.0489553598385,0.000152166144683,0.0,0.0,0.0,0.00845852683232,0.999964226022,0.346422698746,0.05,0.05,0.0,0.0,1.0,1.0,0,0,,,0
1449618401071089523,68,0,/odom,ucmd_vector,0,0,0,0.0489553598385,0.000152166144683,0.0,0.0,0.0,0.00845852683232,0.999964226022,0.346422698746,0.05,0.05,0.0,0.0,1.0,1.0,0,0,,,0
1449618401166313264,69,0,/odom,ucmd_vector,0,0,0,0.0489553598385,0.000152166144683,0.0,0.0,0.0,0.00845852683232,0.999964226022,0.346422698746,0.05,0.05,0.0,0.0,1.0,1.0,0,0,,,0
1449618401212556259,70,0,/odom,ucmd_vector,0,0,0,0.0489553598385,0.000152166144683,0.0,0.0,0.0,0.00845852683232,0.999964226022,0.346422698746,0.05,0.05,0.0,0.0,1.0,1.0,0,0,,,0
1449618401244732769,71,0,/odom,ucmd_vector,0,0,0,0.0489553598385,0.000152166144683,0.0,0.0,0.0,0.00845852683232,0.999964226022,0.346422698746,0.05,0.05,0.0,0.0,1.0,1.0,0,0,,,0
1449618415190169183,72,0,/odom,ucmd_vector,0,0,0,0.057593292369,0.000304325491641,0.0,0.0,0.0,0.00739337796605,0.999972668608,0.346422698746,0.05,0.05,0.0,0.0,1.0,1.0,0,0,,,0
1449618415234456561,73,0,/odom,ucmd_vector,0,0,0,0.057593292369,0.000304325491641,0.0,0.0,0.0,0.00739337796605,0.999972668608,0.346422698746,0.05,0.05,0.0,0.0,1.0,1.0,0,0,,,0
1449618415362862174,74,0,/odom,ucmd_vector,0,0,0,0.057593292369,0.000304325491641,0.0,0.0,0.0,0.0105678519699,0.999944158693,0.189978263626,0.05,0.05,0.0,0.0,1.0,1.0,0,0,,,0
1449618415444650125,75,0,/odom,ucmd_vector,0,0,0,0.057593292369,0.000304325491641,0.0,0.0,0.0,0.0105678519699,0.999944158693,0.189978263626,0.05,0.05,0.0,0.0,1.0,1.0,0,0,,,0
1449618415474681335,76,0,/odom,ucmd_vector,0,0,0,0.057593292369,0.000304325491641,0.0,0.0,0.0,0.0105678519699,0.999944158693,0.173216349373,0.05,0.05,0.0,0.0,1.0,1.0,0,0,,,0
1449618415494351779,77,0,/odom,ucmd_vector,0,0,0,0.057593292369,0.000304325491641,0.0,0.0,0.0,0.0105678519699,0.999944158693,0.173216349373,0.05,0.05,0.0,0.0,1.0,1.0,0,0,,,0
1449618415652643420,78,0,/odom,ucmd_vector,0,0,0,0.057593292369,0.000304325491641,0.0,0.0,0.0,0.0105678519699,0.999944158693,0.184390962372,0.05,0.05,0.0,0.0,1.0,1.0,0,0,,,0
1449618415725714338,79,0,/odom,ucmd_vector,0,0,0,0.057593292369,0.000304325491641,0.0,0.0,0.0,0.0105678519699,0.999944158693,0.184390962372,0.05,0.05,0.0,0.0,1.0,1.0,0,0,,,0
1449618415734568827,80,0,/odom,ucmd_vector,0,0,0,0.057593292369,0.000304325491641,0.0,0.0,0.0,0.0105678519699,0.999944158693,0.184390962372,0.05,0.05,0.0,0.0,1.0,1.0,0,0,,,0
1449618415775270901,81,0,/odom,ucmd_vector,0,0,0,0.057593292369,0.000304325491641,0.0,0.0,0.0,0.0105678519699,0.999944158693,0.167629048119,0.05,0.05,0.0,0.0,1.0,1.0,0,0,,,0
1449618415815054194,82,0,/odom,ucmd_vector,0,0,0,0.057593292369,0.000304325491641,0.0,0.0,0.0,0.0105678519699,0.999944158693,0.167629048119,0.05,0.05,0.0,0.0,1.0,1.0,0,0,,,0
1449618415850240276,83,0,/odom,ucmd_vector,0,0,0,0.057593292369,0.000304325491641,0.0,0.0,0.0,0.0105678519699,0.999944158693,0.189978263626,0.05,0.05,0.0,0.0,1.0,1.0,0,0,,,0
1449618415906813444,84,0,/odom,ucmd_vector,0,0,0,0.057593292369,0.000304325491641,0.0,0.0,0.0,0.0105678519699,0.999944158693,0.189978263626,0.05,0.05,0.0,0.0,1.0,1.0,0,0,,,0
1449618415924942450,85,0,/odom,ucmd_vector,0,0,0,0.057593292369,0.000304325491641,0.0,0.0,0.0,0.0105678519699,0.999944158693,0.189978263626,0.05,0.05,0.0,0.0,1.0,1.0,0,0,,,0
1449618415990413278,86,0,/odom,ucmd_vector,0,0,0,0.057593292369,0.000304325491641,0.0,0.0,0.0,0.0105678519699,0.999944158693,0.189978263626,0.05,0.05,0.0,0.0,1.0,1.0,0,0,,,0
1449618416007894026,87,0,/odom,ucmd_vector,0,0,0,0.057593292369,0.000304325491641,0.0,0.0,0.0,0.0105678519699,0.999944158693,0.189978263626,0.05,0.05,0.0,0.0,1.0,1.0,0,0,,,0
1449618416100444139,88,0,/odom,ucmd_vector,0,0,0,0.057593292369,0.000304325491641,0.0,0.0,0.0,0.0105678519699,0.999944158693,0.173216349373,0.05,0.05,0.0,0.0,1.0,1.0,0,0,,,0
1449618416125695735,89,0,/odom,ucmd_vector,0,0,0,0.057593292369,0.000304325491641,0.0,0.0,0.0,0.0105678519699,0.999944158693,0.173216349373,0.05,0.05,0.0,0.0,1.0,1.0,0,0,,,0
1449618416133373818,90,0,/odom,ucmd_vector,0,0,0,0.057593292369,0.000304325491641,0.0,0.0,0.0,0.0105678519699,0.999944158693,0.184390962372,0.05,0.05,0.0,0.0,1.0,1.0,0,0,,,0
1449618416184753022,91,0,/odom,ucmd_vector,0,0,0,0.057593292369,0.000304325491641,0.0,0.0,0.0,0.0105678519699,0.999944158693,0.184390962372,0.05,0.05,0.0,0.0,1.0,1.0,0,0,,,0
1449618416204323053,92,0,/odom,ucmd_vector,0,0,0,0.057593292369,0.000304325491641,0.0,0.0,0.0,0.0105678519699,0.999944158693,0.184390962372,0.05,0.05,0.0,0.0,1.0,1.0,0,0,,,0
1449618416293748313,93,0,/odom,ucmd_vector,0,0,0,0.057593292369,0.000304325491641,0.0,0.0,0.0,0.0105678519699,0.999944158693,0.184390962372,0.05,0.05,0.0,0.0,1.0,1.0,0,0,,,0
1449618416304188081,94,0,/odom,ucmd_vector,0,0,0,0.057593292369,0.000304325491641,0.0,0.0,0.0,0.0105678519699,0.999944158693,0.184390962372,0.05,0.05,0.0,0.0,1.0,1.0,0,0,,,0
1449618416367521776,95,0,/odom,ucmd_vector,0,0,0,0.057593292369,0.000304325491641,0.0,0.0,0.0,0.0105678519699,0.999944158693,0.167629048119,0.05,0.05,0.0,0.0,1.0,1.0,0,0,,,0
1449618416377703786,96,0,/odom,ucmd_vector,0,0,0,0.057593292369,0.000304325491641,0.0,0.0,0.0,0.0105678519699,0.999944158693,0.167629048119,0.05,0.05,0.0,0.0,1.0,1.0,0,0,,,0
1449618416411148477,97,0,/odom,ucmd_vector,0,0,0,0.057593292369,0.000304325491641,0.0,0.0,0.0,0.0105678519699,0.999944158693,0.189978263626,0.05,0.05,0.0,0.0,1.0,1.0,0,0,,,0
1449618416445342508,98,0,/odom,ucmd_vector,0,0,0,0.0604729248234,0.000334758720578,0.0,0.0,0.0,0.0052839997518,0.999986039576,0.189978263626,0.05,0.05,0.0,0.0,1.0,1.0,0,0,,,0
1449618416531092678,99,0,/odom,ucmd_vector,0,0,0,0.0604729248234,0.000334758720578,0.0,0.0,0.0,0.0052839997518,0.999986039576,0.189978263626,0.05,0.05,0.0,0.0,1.0,1.0,0,0,,,0
1449618416540753718,100,0,/odom,ucmd_vector,0,0,0,0.0604729248234,0.000334758720578,0.0,0.0,0.0,0.0052839997518,0.999986039576,0.189978263626,0.05,0.05,0.0,0.0,1.0,1.0,0,0,,,0
1449618416563495671,101,0,/odom,ucmd_vector,0,0,0,0.0604729248234,0.000334758720578,0.0,0.0,0.0,0.0052839997518,0.999986039576,0.189978263626,0.05,0.05,0.0,0.0,1.0,1.0,0,0,,,0
1449618416602969294,102,0,/odom,ucmd_vector,0,0,0,0.0604729248234,0.000334758720578,0.0,0.0,0.0,0.0052839997518,0.999986039576,0.189978263626,0.05,0.05,0.0,0.0,1.0,1.0,0,0,,,0
1449618416643010087,103,0,/odom,ucmd_vector,0,0,0,0.0633520748615,0.000395621779589,0.0,0.0,0.0,0.0105678519699,0.999944158693,0.189978263626,0.05,0.05,0.0,0.0,1.0,1.0,0,0,,,0
1449618416690105412,104,0,/odom,ucmd_vector,0,0,0,0.0662317073158,0.000426055008525,0.0,0.0,0.0,0.0052839997518,0.999986039576,0.173216349373,0.05,0.05,0.0,0.0,1.0,1.0,0,0,,,0
1449618416766173587,105,0,/odom,ucmd_vector,0,0,0,0.0691108573539,0.000486918067536,0.0,0.0,0.0,0.0105678519699,0.999944158693,0.173216349373,0.05,0.05,0.0,0.0,1.0,1.0,0,0,,,0
1449618416773975942,106,0,/odom,ucmd_vector,0,0,0,0.0691108573539,0.000486918067536,0.0,0.0,0.0,0.0105678519699,0.999944158693,0.184390962372,0.05,0.05,0.0,0.0,1.0,1.0,0,0,,,0
1449618416806230265,107,0,/odom,ucmd_vector,0,0,0,0.0719904898083,0.000517351296473,0.0,0.0,0.0,0.0052839997518,0.999986039576,0.189978263626,0.05,0.05,0.0,0.0,1.0,1.0,0,0,,,0
1449618416847337661,108,0,/odom,ucmd_vector,0,0,0,0.0719904898083,0.000517351296473,0.0,0.0,0.0,0.0052839997518,0.999986039576,0.189978263626,0.05,0.05,0.0,0.0,1.0,1.0,0,0,,,0
1449618416894891719,109,0,/odom,ucmd_vector,0,0,0,0.0777492723007,0.00060864758442,0.0,0.0,0.0,0.0052839997518,0.999986039576,0.189978263626,0.05,0.05,0.0,0.0,1.0,1.0,0,0,,,0
1449618416925383374,110,0,/odom,ucmd_vector,0,0,0,0.0777492723007,0.00060864758442,0.0,0.0,0.0,0.0052839997518,0.999986039576,0.189978263626,0.05,0.05,0.0,0.0,1.0,1.0,0,0,,,0
1449618416982534593,111,0,/odom,ucmd_vector,0,0,0,0.0777492723007,0.00060864758442,0.0,0.0,0.0,0.0052839997518,0.999986039576,0.173216349373,0.05,0.05,0.0,0.0,1.0,1.0,0,0,,,0
1449618417004890139,112,0,/odom,ucmd_vector,0,0,0,0.0835080547932,0.000699943872368,0.0,0.0,0.0,0.0052839997518,0.999986039576,0.173216349373,0.05,0.05,0.0,0.0,1.0,1.0,0,0,,,0
1449618417106427535,113,0,/odom,ucmd_vector,0,0,0,0.0835080547932,0.000699943872368,0.0,0.0,0.0,0.0052839997518,0.999986039576,0.189978263626,0.05,0.05,0.0,0.0,1.0,1.0,0,0,,,0
1449618417127621985,114,0,/odom,ucmd_vector,0,0,0,0.0921455049074,0.0008825330494,0.0,0.0,0.0,0.0105678519699,0.999944158693,0.189978263626,0.05,0.05,0.0,0.0,1.0,1.0,0,0,,,0
1449618417179080965,115,0,/odom,ucmd_vector,0,0,0,0.0979038049835,0.00100425916742,0.0,0.0,0.0,0.0105678519699,0.999944158693,0.184390962372,0.05,0.05,0.0,0.0,1.0,1.0,0,0,,,0
1449618417204160072,116,0,/odom,ucmd_vector,0,0,0,0.10366210506,0.00112598528544,0.0,0.0,0.0,0.0105678519699,0.999944158693,0.184390962372,0.05,0.05,0.0,0.0,1.0,1.0,0,0,,,0
1449618417227222713,117,0,/odom,ucmd_vector,0,0,0,0.10366210506,0.00112598528544,0.0,0.0,0.0,0.0105678519699,0.999944158693,0.167629048119,0.05,0.05,0.0,0.0,1.0,1.0,0,0,,,0
1449618417242299176,118,0,/odom,ucmd_vector,0,0,0,0.10366210506,0.00112598528544,0.0,0.0,0.0,0.0105678519699,0.999944158693,0.167629048119,0.05,0.05,0.0,0.0,1.0,1.0,0,0,,,0
1449618417320661358,119,0,/odom,ucmd_vector,0,0,0,0.10366210506,0.00112598528544,0.0,0.0,0.0,0.0105678519699,0.999944158693,0.167629048119,0.05,0.05,0.0,0.0,1.0,1.0,0,0,,,0
1449618417337353969,120,0,/odom,ucmd_vector,0,0,0,0.112298751207,0.0013389974952,0.0,0.0,0.0,0.0158514091245,0.999874358521,0.167629048119,0.05,0.05,0.0,0.0,1.0,1.0,0,0,,,0
1449618417643488822,121,0,/odom,ucmd_vector,0,0,0,0.141087035718,0.00206932021623,0.0,0.0,0.0,0.0158514091245,0.999874358521,0.189978263626,0.05,0.05,0.0,0.0,1.0,1.0,0,0,,,0
1449618417691502644,122,0,/odom,ucmd_vector,0,0,0,0.143966185756,0.00213018327524,0.0,0.0,0.0,0.0105678519699,0.999944158693,0.189978263626,0.05,0.05,0.0,0.0,1.0,1.0,0,0,,,0
1449618417723520446,123,0,/odom,ucmd_vector,0,0,0,0.152601223969,0.00240404155045,0.0,0.0,0.0,0.0158514091245,0.999874358521,0.189978263626,0.05,0.05,0.0,0.0,1.0,1.0,0,0,,,0
1449618417860327109,124,0,/odom,ucmd_vector,0,0,0,0.15835791611,0.00258661373393,0.0,0.0,0.0,0.0158514091245,0.999874358521,0.184390962372,0.05,0.05,0.0,0.0,1.0,1.0,0,0,,,0
1449618418013756167,125,0,/odom,ucmd_vector,0,0,0,0.164114608252,0.00276918591741,0.0,0.0,0.0,0.0158514091245,0.999874358521,0.184390962372,0.05,0.05,0.0,0.0,1.0,1.0,0,0,,,0
1449618418061701716,126,0,/odom,ucmd_vector,0,0,0,0.175627992535,0.00313433028437,0.0,0.0,0.0,0.0158514091245,0.999874358521,0.346422698746,0.05,0.05,0.0,0.0,1.0,1.0,0,0,,,0
1449618418097859686,127,0,/odom,ucmd_vector,0,0,0,0.178505213177,0.00325602921377,0.0,0.0,0.0,0.0211345236944,0.999776641009,0.206740167389,0.05,0.05,0.0,0.0,1.0,1.0,0,0,,,0
1449618418110903191,128,0,/odom,ucmd_vector,0,0,0,0.181383559248,0.00334731530551,0.0,0.0,0.0,0.0158514091245,0.999874358521,0.189978263626,0.05,0.05,0.0,0.0,1.0,1.0,0,0,,,0
1449618418132091011,129,0,/odom,ucmd_vector,0,0,0,0.181383559248,0.00334731530551,0.0,0.0,0.0,0.0158514091245,0.999874358521,0.189978263626,0.05,0.05,0.0,0.0,1.0,1.0,0,0,,,0
1449618418172222889,130,0,/odom,ucmd_vector,0,0,0,0.181383559248,0.00334731530551,0.0,0.0,0.0,0.0158514091245,0.999874358521,0.189978263626,0.05,0.05,0.0,0.0,1.0,1.0,0,0,,,0
1449618418213277365,131,0,/odom,ucmd_vector,0,0,0,0.18426077989,0.00346901423491,0.0,0.0,0.0,0.0211345236944,0.999776641009,0.189978263626,0.05,0.05,0.0,0.0,1.0,1.0,0,0,,,0
1449618418314663311,132,0,/odom,ucmd_vector,0,0,0,0.187139125961,0.00356030032665,0.0,0.0,0.0,0.0158514091245,0.999874358521,0.35201,0.05,0.05,0.0,0.0,1.0,1.0,0,0,,,0
1449618418357849944,133,0,/odom,ucmd_vector,0,0,0,0.190016346603,0.00368199925604,0.0,0.0,0.0,0.0211345236944,0.999776641009,0.35201,0.05,0.05,0.0,0.0,1.0,1.0,0,0,,,0
1449618418594115457,134,0,/odom,ucmd_vector,0,0,0,0.201526354601,0.00413838213598,0.0,0.0,0.0,0.0211345236944,0.999776641009,0.31289889122,0.05,0.05,0.0,0.0,1.0,1.0,0,0,,,0
1449618418682641013,135,0,/odom,ucmd_vector,0,0,0,0.207280795885,0.00438177999478,0.0,0.0,0.0,0.0211345236944,0.999776641009,0.31289889122,0.05,0.05,0.0,0.0,1.0,1.0,0,0,,,0
1449618418823846115,136,0,/odom,ucmd_vector,0,0,0,0.21303523717,0.00462517785357,0.0,0.0,0.0,0.0211345236944,0.999776641009,0.31289889122,0.05,0.05,0.0,0.0,1.0,1.0,0,0,,,0
1449618418853814746,137,0,/odom,ucmd_vector,0,0,0,0.218789678454,0.00486857571237,0.0,0.0,0.0,0.0211345236944,0.999776641009,0.31289889122,0.05,0.05,0.0,0.0,1.0,1.0,0,0,,,0
1449618418972990299,138,0,/odom,ucmd_vector,0,0,0,0.221665452333,0.00502067388778,0.0,0.0,0.0,0.0264170481704,0.999651008886,0.346422698746,0.05,0.05,0.0,0.0,1.0,1.0,0,0,,,0
1449618419064905259,139,0,/odom,ucmd_vector,0,0,0,0.227418446853,0.00529447099258,0.0,0.0,0.0,0.0264170481704,0.999651008886,0.346422698746,0.05,0.05,0.0,0.0,1.0,1.0,0,0,,,0
1449618419337804007,140,0,/odom,ucmd_vector,0,0,0,0.236048662016,0.00568996702678,0.0,0.0,0.0,0.0211345236944,0.999776641009,0.35201,0.05,0.05,0.0,0.0,1.0,1.0,0,0,,,0
1449618419348312103,141,0,/odom,ucmd_vector,0,0,0,0.238924435894,0.00584206520218,0.0,0.0,0.0,0.0264170481704,0.999651008886,0.35201,0.05,0.05,0.0,0.0,1.0,1.0,0,0,,,0
1449618419497633663,142,0,/odom,ucmd_vector,0,0,0,0.238924435894,0.00584206520218,0.0,0.0,0.0,0.0264170481704,0.999651008886,0.184390962372,0.05,0.05,0.0,0.0,1.0,1.0,0,0,,,0
1449618419516872453,143,0,/odom,ucmd_vector,0,0,0,0.238924435894,0.00584206520218,0.0,0.0,0.0,0.0264170481704,0.999651008886,0.184390962372,0.05,0.05,0.0,0.0,1.0,1.0,0,0,,,0
1449618419630779928,144,0,/odom,ucmd_vector,0,0,0,0.238924435894,0.00584206520218,0.0,0.0,0.0,0.0264170481704,0.999651008886,0.346422698746,0.05,0.05,0.0,0.0,1.0,1.0,0,0,,,0
1449618419667160773,145,0,/odom,ucmd_vector,0,0,0,0.238924435894,0.00584206520218,0.0,0.0,0.0,0.0264170481704,0.999651008886,0.346422698746,0.05,0.05,0.0,0.0,1.0,1.0,0,0,,,0
1449618419779724913,146,0,/odom,ucmd_vector,0,0,0,0.238924435894,0.00584206520218,0.0,0.0,0.0,0.0264170481704,0.999651008886,0.346422698746,0.05,0.05,0.0,0.0,1.0,1.0,0,0,,,0
1449618419822836422,147,0,/odom,ucmd_vector,0,0,0,0.238924435894,0.00584206520218,0.0,0.0,0.0,0.0264170481704,0.999651008886,0.346422698746,0.05,0.05,0.0,0.0,1.0,1.0,0,0,,,0
1449618419954290901,148,0,/odom,ucmd_vector,0,0,0,0.238924435894,0.00584206520218,0.0,0.0,0.0,0.0264170481704,0.999651008886,0.35201,0.05,0.05,0.0,0.0,1.0,1.0,0,0,,,0
1449618420022030000,149,0,/odom,ucmd_vector,0,0,0,0.238924435894,0.00584206520218,0.0,0.0,0.0,0.0264170481704,0.999651008886,0.35201,0.05,0.05,0.0,0.0,1.0,1.0,0,0,,,0
1449618420029173861,150,0,/odom,ucmd_vector,0,0,0,0.238924435894,0.00584206520218,0.0,0.0,0.0,0.0264170481704,0.999651008886,0.189978263626,0.05,0.05,0.0,0.0,1.0,1.0,0,0,,,0
1449618420187251234,151,0,/odom,ucmd_vector,0,0,0,0.238924435894,0.00584206520218,0.0,0.0,0.0,0.0264170481704,0.999651008886,0.35201,0.05,0.05,0.0,0.0,1.0,1.0,0,0,,,0
1449618420265868100,152,0,/odom,ucmd_vector,0,0,0,0.241801656536,0.00596376413158,0.0,0.0,0.0,0.0211345236944,0.999776641009,0.35201,0.05,0.05,0.0,0.0,1.0,1.0,0,0,,,0
1449618420296325115,153,0,/odom,ucmd_vector,0,0,0,0.241801656536,0.00596376413158,0.0,0.0,0.0,0.0211345236944,0.999776641009,0.340835397491,0.05,0.05,0.0,0.0,1.0,1.0,0,0,,,0
1449618420334202706,154,0,/odom,ucmd_vector,0,0,0,0.241801656536,0.00596376413158,0.0,0.0,0.0,0.0211345236944,0.999776641009,0.346422698746,0.05,0.05,0.0,0.0,1.0,1.0,0,0,,,0
1449618420399183263,155,0,/odom,ucmd_vector,0,0,0,0.244677430415,0.00611586230698,0.0,0.0,0.0,0.0264170481704,0.999651008886,0.346422698746,0.05,0.05,0.0,0.0,1.0,1.0,0,0,,,0
1449618420429028423,156,0,/odom,ucmd_vector,0,0,0,0.244677430415,0.00611586230698,0.0,0.0,0.0,0.0264170481704,0.999651008886,0.346422698746,0.05,0.05,0.0,0.0,1.0,1.0,0,0,,,0
1449618420531691989,157,0,/odom,ucmd_vector,0,0,0,0.244677430415,0.00611586230698,0.0,0.0,0.0,0.0264170481704,0.999651008886,0.346422698746,0.05,0.05,0.0,0.0,1.0,1.0,0,0,,,0
1449618420561363085,158,0,/odom,ucmd_vector,0,0,0,0.244677430415,0.00611586230698,0.0,0.0,0.0,0.0264170481704,0.999651008886,0.346422698746,0.05,0.05,0.0,0.0,1.0,1.0,0,0,,,0
1449618420602300409,159,0,/odom,ucmd_vector,0,0,0,0.244677430415,0.00611586230698,0.0,0.0,0.0,0.0264170481704,0.999651008886,0.324073493729,0.05,0.05,0.0,0.0,1.0,1.0,0,0,,,0
1449618420665670937,160,0,/odom,ucmd_vector,0,0,0,0.247554651057,0.00623756123638,0.0,0.0,0.0,0.0211345236944,0.999776641009,0.346422698746,0.05,0.05,0.0,0.0,1.0,1.0,0,0,,,0
1449618420713226371,161,0,/odom,ucmd_vector,0,0,0,0.250430424935,0.00638965941179,0.0,0.0,0.0,0.0264170481704,0.999651008886,0.346422698746,0.05,0.05,0.0,0.0,1.0,1.0,0,0,,,0
1449618420763273262,162,0,/odom,ucmd_vector,0,0,0,0.250430424935,0.00638965941179,0.0,0.0,0.0,0.0264170481704,0.999651008886,0.31289889122,0.05,0.05,0.0,0.0,1.0,1.0,0,0,,,0
1449618420863140332,163,0,/odom,ucmd_vector,0,0,0,0.250430424935,0.00638965941179,0.0,0.0,0.0,0.0264170481704,0.999651008886,0.31289889122,0.05,0.05,0.0,0.0,1.0,1.0,0,0,,,0
1449618420918631616,164,0,/odom,ucmd_vector,0,0,0,0.256183419456,0.00666345651659,0.0,0.0,0.0,0.0264170481704,0.999651008886,0.346422698746,0.05,0.05,0.0,0.0,1.0,1.0,0,0,,,0
1449618421041582920,165,0,/odom,ucmd_vector,0,0,0,0.259060640098,0.00678515544599,0.0,0.0,0.0,0.0211345236944,0.999776641009,0.346422698746,0.05,0.05,0.0,0.0,1.0,1.0,0,0,,,0
1449618421079920953,166,0,/odom,ucmd_vector,0,0,0,0.267687961732,0.0072414499722,0.0,0.0,0.0,0.0264170481704,0.999651008886,0.346422698746,0.05,0.05,0.0,0.0,1.0,1.0,0,0,,,0
1449618421111104371,167,0,/odom,ucmd_vector,0,0,0,0.273439509489,0.007545646323,0.0,0.0,0.0,0.0264170481704,0.999651008886,0.346422698746,0.05,0.05,0.0,0.0,1.0,1.0,0,0,,,0
1449618421201954246,168,0,/odom,ucmd_vector,0,0,0,0.273439509489,0.007545646323,0.0,0.0,0.0,0.0264170481704,0.999651008886,0.35201,0.05,0.05,0.0,0.0,1.0,1.0,0,0,,,0
1449618421255608311,169,0,/odom,ucmd_vector,0,0,0,0.284942605002,0.00815403902462,0.0,0.0,0.0,0.0264170481704,0.999651008886,0.35201,0.05,0.05,0.0,0.0,1.0,1.0,0,0,,,0
1449618421418938993,170,0,/odom,ucmd_vector,0,0,0,0.293564622823,0.00870148032868,0.0,0.0,0.0,0.0316988350601,0.999497465658,0.346422698746,0.05,0.05,0.0,0.0,1.0,1.0,0,0,,,0
1449618421459856557,171,0,/odom,ucmd_vector,0,0,0,0.313689736156,0.00985731433435,0.0,0.0,0.0,0.0264170481704,0.999651008886,0.35201,0.05,0.05,0.0,0.0,1.0,1.0,0,0,,,0
1449618421500097465,172,0,/odom,ucmd_vector,0,0,0,0.322311753977,0.0104047556384,0.0,0.0,0.0,0.0316988350601,0.999497465658,0.346422698746,0.05,0.05,0.0,0.0,1.0,1.0,0,0,,,0
1449618421600399795,173,0,/odom,ucmd_vector,0,0,0,0.328059765858,0.0107697165078,0.0,0.0,0.0,0.0316988350601,0.999497465658,0.346422698746,0.05,0.05,0.0,0.0,1.0,1.0,0,0,,,0
1449618421715843505,174,0,/odom,ucmd_vector,0,0,0,0.345303801499,0.0118645991159,0.0,0.0,0.0,0.0316988350601,0.999497465658,0.346422698746,0.05,0.05,0.0,0.0,1.0,1.0,0,0,,,0
1449618421899606657,175,0,/odom,ucmd_vector,0,0,0,0.368295849021,0.0133244425934,0.0,0.0,0.0,0.0316988350601,0.999497465658,0.346422698746,0.05,0.05,0.0,0.0,1.0,1.0,0,0,,,0
1449618421925644792,176,0,/odom,ucmd_vector,0,0,0,0.402777653561,0.0156052934478,0.0,0.0,0.0,0.0316988350601,0.999497465658,0.346422698746,0.05,0.05,0.0,0.0,1.0,1.0,0,0,,,0
1449618422011403804,177,0,/odom,ucmd_vector,0,0,0,0.408525665442,0.0159702543172,0.0,0.0,0.0,0.0316988350601,0.999497465658,0.346422698746,0.05,0.05,0.0,0.0,1.0,1.0,0,0,,,0
1449618422043838433,178,0,/odom,ucmd_vector,0,0,0,0.440125108383,0.0181900722545,0.0,0.0,0.0,0.0369797368913,0.999316015612,0.346422698746,0.05,0.05,0.0,0.0,1.0,1.0,0,0,,,0
1449618422098906969,179,0,/odom,ucmd_vector,0,0,0,0.440125108383,0.0181900722545,0.0,0.0,0.0,0.0369797368913,0.999316015612,0.346422698746,0.05,0.05,0.0,0.0,1.0,1.0,0,0,,,0
1449618422129535038,180,0,/odom,ucmd_vector,0,0,0,0.463100444589,0.0198928107671,0.0,0.0,0.0,0.0369797368913,0.999316015612,0.346422698746,0.05,0.05,0.0,0.0,1.0,1.0,0,0,,,0
1449618422227855102,181,0,/odom,ucmd_vector,0,0,0,0.463100444589,0.0198928107671,0.0,0.0,0.0,0.0369797368913,0.999316015612,0.346422698746,0.05,0.05,0.0,0.0,1.0,1.0,0,0,,,0
1449618422253918263,182,0,/odom,ucmd_vector,0,0,0,0.497563448899,0.022446918536,0.0,0.0,0.0,0.0369797368913,0.999316015612,0.346422698746,0.05,0.05,0.0,0.0,1.0,1.0,0,0,,,0
1449618422288483404,183,0,/odom,ucmd_vector,0,0,0,0.509051117002,0.0232982877923,0.0,0.0,0.0,0.0369797368913,0.999316015612,0.346422698746,0.05,0.05,0.0,0.0,1.0,1.0,0,0,,,0
1449618422418073324,184,0,/odom,ucmd_vector,0,0,0,0.509051117002,0.0232982877923,0.0,0.0,0.0,0.0369797368913,0.999316015612,0.346422698746,0.05,0.05,0.0,0.0,1.0,1.0,0,0,,,0
1449618422468861237,185,0,/odom,ucmd_vector,0,0,0,0.555001789415,0.0267037648176,0.0,0.0,0.0,0.0369797368913,0.999316015612,0.346422698746,0.05,0.05,0.0,0.0,1.0,1.0,0,0,,,0
1449618422518587809,186,0,/odom,ucmd_vector,0,0,0,0.566489457518,0.0275551340739,0.0,0.0,0.0,0.0369797368913,0.999316015612,0.31289889122,0.05,0.05,0.0,0.0,1.0,1.0,0,0,,,0
1449618422545609146,187,0,/odom,ucmd_vector,0,0,0,0.577977125621,0.0284065033302,0.0,0.0,0.0,0.0369797368913,0.999316015612,0.346422698746,0.05,0.05,0.0,0.0,1.0,1.0,0,0,,,0
1449618422636725940,188,0,/odom,ucmd_vector,0,0,0,0.592324662462,0.0296224054436,0.0,0.0,0.0,0.042259606217,0.999106663816,0.346422698746,0.05,0.05,0.0,0.0,1.0,1.0,0,0,,,0
1449618422686075955,189,0,/odom,ucmd_vector,0,0,0,0.61528795038,0.0314768344993,0.0,0.0,0.0,0.042259606217,0.999106663816,0.346422698746,0.05,0.05,0.0,0.0,1.0,1.0,0,0,,,0
1449618422724660354,190,0,/odom,ucmd_vector,0,0,0,0.629647535509,0.0325410460697,0.0,0.0,0.0,0.0369797368913,0.999316015612,0.31289889122,0.05,0.05,0.0,0.0,1.0,1.0,0,0,,,0
1449618422869539151,191,0,/odom,ucmd_vector,0,0,0,0.638256057613,0.0332705873377,0.0,0.0,0.0,0.042259606217,0.999106663816,0.346422698746,0.05,0.05,0.0,0.0,1.0,1.0,0,0,,,0
1449618422920372038,192,0,/odom,ucmd_vector,0,0,0,0.687061779448,0.0371012734373,0.0,0.0,0.0,0.0369797368913,0.999316015612,0.346422698746,0.05,0.05,0.0,0.0,1.0,1.0,0,0,,,0
1449618423065233484,193,0,/odom,ucmd_vector,0,0,0,0.698549447551,0.0379526426936,0.0,0.0,0.0,0.0369797368913,0.999316015612,0.346422698746,0.05,0.05,0.0,0.0,1.0,1.0,0,0,,,0
1449618423097728068,194,0,/odom,ucmd_vector,0,0,0,0.747347940413,0.041874343119,0.0,0.0,0.0,0.042259606217,0.999106663816,0.346422698746,0.05,0.05,0.0,0.0,1.0,1.0,0,0,,,0
1449618423249189398,195,0,/odom,ucmd_vector,0,0,0,0.75596369149,0.0425128700612,0.0,0.0,0.0,0.0338071238985,0.99942837581,0.346422698746,0.05,0.05,0.0,0.0,1.0,1.0,0,0,,,0
1449618423277229023,196,0,/odom,ucmd_vector,0,0,0,0.7904266958,0.0450669778301,0.0,0.0,0.0,0.0338071238985,0.99942837581,0.346422698746,0.05,0.05,0.0,0.0,1.0,1.0,0,0,,,0
1449618423326436166,197,0,/odom,ucmd_vector,0,0,0,0.801914363903,0.0459183470864,0.0,0.0,0.0,0.0338071238985,0.99942837581,0.346422698746,0.05,0.05,0.0,0.0,1.0,1.0,0,0,,,0
1449618423433713349,198,0,/odom,ucmd_vector,0,0,0,0.819145866058,0.0471954009709,0.0,0.0,0.0,0.0338071238985,0.99942837581,0.346422698746,0.05,0.05,0.0,0.0,1.0,1.0,0,0,,,0
1449618423456433761,199,0,/odom,ucmd_vector,0,0,0,0.850747397914,0.0493848570288,0.0,0.0,0.0,0.028525672647,0.9995930602,0.346422698746,0.05,0.05,0.0,0.0,1.0,1.0,0,0,,,0
1449618423521813989,200,0,/odom,ucmd_vector,0,0,0,0.859363148991,0.050023383971,0.0,0.0,0.0,0.0338071238985,0.99942837581,0.346422698746,0.05,0.05,0.0,0.0,1.0,1.0,0,0,,,0
1449618423573583552,201,0,/odom,ucmd_vector,0,0,0,0.873733178692,0.0509357861445,0.0,0.0,0.0,0.028525672647,0.9995930602,0.346422698746,0.05,0.05,0.0,0.0,1.0,1.0,0,0,,,0
1449618423776276749,202,0,/odom,ucmd_vector,0,0,0,0.885229202453,0.0516657078832,0.0,0.0,0.0,0.028525672647,0.9995930602,0.346422698746,0.05,0.05,0.0,0.0,1.0,1.0,0,0,,,0
1449618423830581991,203,0,/odom,ucmd_vector,0,0,0,0.954199078276,0.0561363239539,0.0,0.0,0.0,0.028525672647,0.9995930602,0.346422698746,0.05,0.05,0.0,0.0,1.0,1.0,0,0,,,0
1449618423910565350,204,0,/odom,ucmd_vector,0,0,0,0.965695102037,0.0568662456926,0.0,0.0,0.0,0.028525672647,0.9995930602,0.346422698746,0.05,0.05,0.0,0.0,1.0,1.0,0,0,,,0
1449618423967920569,205,0,/odom,ucmd_vector,0,0,0,0.988695989249,0.0581741778737,0.0,0.0,0.0,0.028525672647,0.9995930602,0.346422698746,0.05,0.05,0.0,0.0,1.0,1.0,0,0,,,0
1449618424010024401,206,0,/odom,ucmd_vector,0,0,0,1.00307485864,0.0589346687507,0.0,0.0,0.0,0.0232434249345,0.999729835104,0.346422698746,0.05,0.05,0.0,0.0,1.0,1.0,0,0,,,0
1449618424126865385,207,0,/odom,ucmd_vector,0,0,0,1.01744488834,0.0598470709241,0.0,0.0,0.0,0.028525672647,0.9995930602,0.346422698746,0.05,0.05,0.0,0.0,1.0,1.0,0,0,,,0
1449618424204431530,208,0,/odom,ucmd_vector,0,0,0,1.05194533519,0.0618241603254,0.0,0.0,0.0,0.028525672647,0.9995930602,0.346422698746,0.05,0.05,0.0,0.0,1.0,1.0,0,0,,,0
1449618424239078731,209,0,/odom,ucmd_vector,0,0,0,1.07782730009,0.063193043904,0.0,0.0,0.0,0.0232434249345,0.999729835104,0.307311589966,0.05,0.05,0.0,0.0,1.0,1.0,0,0,,,0
1449618424290237582,210,0,/odom,ucmd_vector,0,0,0,1.08933039561,0.0638014366056,0.0,0.0,0.0,0.0200695674491,0.999798585947,0.346422698746,0.05,0.05,0.0,0.0,1.0,1.0,0,0,,,0
1449618424398157314,211,0,/odom,ucmd_vector,0,0,0,1.10083349112,0.0644098293073,0.0,0.0,0.0,0.0200695674491,0.999798585947,0.346422698746,0.05,0.05,0.0,0.0,1.0,1.0,0,0,,,0
1449618424446892376,212,0,/odom,ucmd_vector,0,0,0,1.13822578536,0.0662351093575,0.0,0.0,0.0,0.0179605282459,0.999838696703,0.301724288712,0.05,0.05,0.0,0.0,1.0,1.0,0,0,,,0
1449618424537105354,213,0,/odom,ucmd_vector,0,0,0,1.14685310699,0.0666914038837,0.0,0.0,0.0,0.0232434249345,0.999729835104,0.346422698746,0.05,0.05,0.0,0.0,1.0,1.0,0,0,,,0
1449618424644705531,214,0,/odom,ucmd_vector,0,0,0,1.18425697534,0.0682734899659,0.0,0.0,0.0,0.0179605282459,0.999838696703,0.346422698746,0.05,0.05,0.0,0.0,1.0,1.0,0,0,,,0
1449618424697820765,215,0,/odom,ucmd_vector,0,0,0,1.21015758826,0.0692167161422,0.0,0.0,0.0,0.0126771300841,0.999919641958,0.324073493729,0.05,0.05,0.0,0.0,1.0,1.0,0,0,,,0
1449618424748211827,216,0,/odom,ucmd_vector,0,0,0,1.23030263447,0.0699469572973,0.0,0.0,0.0,0.0179605282459,0.999838696703,0.346422698746,0.05,0.05,0.0,0.0,1.0,1.0,0,0,,,0
1449618424789050854,217,0,/odom,ucmd_vector,0,0,0,1.24469436483,0.070403387756,0.0,0.0,0.0,0.0126771300841,0.999919641958,0.346422698746,0.05,0.05,0.0,0.0,1.0,1.0,0,0,,,0
1449618424848481345,218,0,/odom,ucmd_vector,0,0,0,1.25045105697,0.0705859599395,0.0,0.0,0.0,0.0126771300841,0.999919641958,0.346422698746,0.05,0.05,0.0,0.0,1.0,1.0,0,0,,,0
1449618424899432670,219,0,/odom,ucmd_vector,0,0,0,1.26772113339,0.0711336764899,0.0,0.0,0.0,0.0126771300841,0.999919641958,0.346422698746,0.05,0.05,0.0,0.0,1.0,1.0,0,0,,,0
1449618424996123160,220,0,/odom,ucmd_vector,0,0,0,1.28499120982,0.0716813930404,0.0,0.0,0.0,0.0126771300841,0.999919641958,0.346422698746,0.05,0.05,0.0,0.0,1.0,1.0,0,0,,,0
1449618425016801727,221,0,/odom,ucmd_vector,0,0,0,1.30802199822,0.0722595666106,0.0,0.0,0.0,0.0126771300841,0.999919641958,0.346422698746,0.05,0.05,0.0,0.0,1.0,1.0,0,0,,,0
1449618425060976978,222,0,/odom,ucmd_vector,0,0,0,1.32241774841,0.0725638819057,0.0,0.0,0.0,0.00739337796605,0.999972668608,0.346422698746,0.05,0.05,0.0,0.0,1.0,1.0,0,0,,,0
1449618425102106000,223,0,/odom,ucmd_vector,0,0,0,1.33393434856,0.0728073341417,0.0,0.0,0.0,0.00739337796605,0.999972668608,0.346422698746,0.05,0.05,0.0,0.0,1.0,1.0,0,0,,,0
1449618425198280892,224,0,/odom,ucmd_vector,0,0,0,1.34545094872,0.0730507863778,0.0,0.0,0.0,0.00421882945106,0.999991100699,0.189978263626,0.05,0.05,0.0,0.0,1.0,1.0,0,0,,,0
1449618425249081461,225,0,/odom,ucmd_vector,0,0,0,1.3656083759,0.0732638189803,0.0,0.0,0.0,-0.00106518217349,0.999999432693,0.189978263626,0.05,0.05,0.0,0.0,1.0,1.0,0,0,,,0
1449618425280822525,226,0,/odom,ucmd_vector,0,0,0,1.37136764081,0.0733246854382,0.0,0.0,0.0,-0.00106518217349,0.999999432693,0.078232222805,0.05,0.05,0.0,0.0,1.0,1.0,0,0,,,0
1449618425328879665,227,0,/odom,ucmd_vector,0,0,0,1.38576660714,0.0733246854382,0.0,0.0,0.0,-0.00634916405725,0.999979843855,0.078232222805,0.05,0.05,0.0,0.0,1.0,1.0,0,0,,,0
1449618425350166998,228,0,/odom,ucmd_vector,0,0,0,1.3972857802,0.0733246854382,0.0,0.0,0.0,8.881784197e-16,1.0,0.00559730190992,0.05,0.05,0.0,0.0,1.0,1.0,0,0,,,0
1449618425398260494,229,0,/odom,ucmd_vector,0,0,0,1.40880495326,0.0733246854382,0.0,0.0,0.0,8.881784197e-16,1.0,0.00559730190992,0.05,0.05,0.0,0.0,1.0,1.0,0,0,,,0
1449618425508339105,230,0,/odom,ucmd_vector,0,0,0,1.41744385062,0.0732333857514,0.0,0.0,0.0,-0.0052839997518,0.999986039576,0.00559730190992,0.05,0.05,0.0,0.0,1.0,1.0,0,0,,,0
1449618425545818204,231,0,/odom,ucmd_vector,0,0,0,1.44911643071,0.0726856114226,0.0,0.0,0.0,-0.0105678519699,0.999944158693,0.00559730190992,0.05,0.05,0.0,0.0,1.0,1.0,0,0,,,0
1449618428932361557,232,0,/odom,ucmd_vector,0,0,0,1.55266857152,0.067909701438,0.0,0.0,0.0,-0.0316988350601,0.999497465658,-0.00557730190992,0.05,0.05,0.0,0.0,1.0,1.0,0,0,,,0
1449618428969206051,233,0,/odom,ucmd_vector,0,0,0,1.55266857152,0.067909701438,0.0,0.0,0.0,-0.0316988350601,0.999497465658,-0.00557730190992,0.05,0.05,0.0,0.0,1.0,1.0,0,0,,,0
1449618434182550897,234,0,/odom,ucmd_vector,0,0,0,0.573011697439,0.0155013999931,0.0,0.0,0.0,0.0264170481704,0.999651008886,-0.00557730190992,0.05,0.05,0.0,0.0,1.0,1.0,0,0,,,0
1449618434194467268,235,0,/odom,ucmd_vector,0,0,0,0.558625594227,0.0148929053461,0.0,0.0,0.0,0.0211345236944,0.999776641009,-0.00557730190992,0.05,0.05,0.0,0.0,1.0,1.0,0,0,,,0
1449618434246997315,236,0,/odom,ucmd_vector,0,0,0,0.541362270374,0.0141627117697,0.0,0.0,0.0,0.0211345236944,0.999776641009,-0.00557730190992,0.05,0.05,0.0,0.0,1.0,1.0,0,0,,,0
1449618434278572572,237,0,/odom,ucmd_vector,0,0,0,0.529853387805,0.0136759160521,0.0,0.0,0.0,0.0211345236944,0.999776641009,-0.00557730190992,0.05,0.05,0.0,0.0,1.0,1.0,0,0,,,0
1449618434363390268,238,0,/odom,ucmd_vector,0,0,0,0.515461657451,0.0132194855934,0.0,0.0,0.0,0.0158514091245,0.999874358521,-0.00557730190992,0.05,0.05,0.0,0.0,1.0,1.0,0,0,,,0
1449618434368138637,239,0,/odom,ucmd_vector,0,0,0,0.4895599191,0.0123066722548,0.0,0.0,0.0,0.0211345236944,0.999776641009,-0.00557730190992,0.05,0.05,0.0,0.0,1.0,1.0,0,0,,,0
1449618436776215305,240,0,/odom,ucmd_vector,0,0,0,0.210263872488,0.00765060915162,0.0,0.0,0.0,0.00845852683232,0.999964226022,-0.00557730190992,0.05,0.05,0.0,0.0,1.0,1.0,0,0,,,0
1449618436793872665,241,0,/odom,ucmd_vector,0,0,0,0.20450460758,0.00758974269374,0.0,0.0,0.0,0.00845852683232,0.999964226022,-0.00557730190992,0.05,0.05,0.0,0.0,1.0,1.0,0,0,,,0
1449618438713164885,242,0,/odom,ucmd_vector,0,0,0,0.0288724350613,0.0041509713621,0.0,0.0,0.0,0.0105678519699,0.999944158693,0.00559730190992,0.05,0.05,0.0,0.0,1.0,1.0,0,0,,,0
1449618438723322241,243,0,/odom,ucmd_vector,0,0,0,0.0288724350613,0.0041509713621,0.0,0.0,0.0,0.0105678519699,0.999944158693,0.00559730190992,0.05,0.05,0.0,0.0,1.0,1.0,0,0,,,0
1449618438763463577,244,0,/odom,ucmd_vector,0,0,0,0.0288724350613,0.0041509713621,0.0,0.0,0.0,0.0105678519699,0.999944158693,0.0335338101482,0.05,0.05,0.0,0.0,1.0,1.0,0,0,,,0
1449618438795485183,245,0,/odom,ucmd_vector,0,0,0,0.0288724350613,0.0041509713621,0.0,0.0,0.0,0.0105678519699,0.999944158693,0.0335338101482,0.05,0.05,0.0,0.0,1.0,1.0,0,0,,,0
1449618438885876742,246,0,/odom,ucmd_vector,0,0,0,0.0288724350613,0.0041509713621,0.0,0.0,0.0,0.0105678519699,0.999944158693,0.189978263626,0.05,0.05,0.0,0.0,1.0,1.0,0,0,,,0
1449618438906426499,247,0,/odom,ucmd_vector,0,0,0,0.0288724350613,0.0041509713621,0.0,0.0,0.0,0.0105678519699,0.999944158693,0.189978263626,0.05,0.05,0.0,0.0,1.0,1.0,0,0,,,0
1449618438925527572,248,0,/odom,ucmd_vector,0,0,0,0.0288724350613,0.0041509713621,0.0,0.0,0.0,0.0105678519699,0.999944158693,0.167629048119,0.05,0.05,0.0,0.0,1.0,1.0,0,0,,,0
1449618438962577388,249,0,/odom,ucmd_vector,0,0,0,0.0288724350613,0.0041509713621,0.0,0.0,0.0,0.0105678519699,0.999944158693,0.167629048119,0.05,0.05,0.0,0.0,1.0,1.0,0,0,,,0
1449618439005997008,250,0,/odom,ucmd_vector,0,0,0,0.0288724350613,0.0041509713621,0.0,0.0,0.0,0.0105678519699,0.999944158693,0.167629048119,0.05,0.05,0.0,0.0,1.0,1.0,0,0,,,0
1449618439044580022,251,0,/odom,ucmd_vector,0,0,0,0.0288724350613,0.0041509713621,0.0,0.0,0.0,0.0105678519699,0.999944158693,0.184390962372,0.05,0.05,0.0,0.0,1.0,1.0,0,0,,,0
1449618439079555380,252,0,/odom,ucmd_vector,0,0,0,0.0288724350613,0.0041509713621,0.0,0.0,0.0,0.0105678519699,0.999944158693,0.184390962372,0.05,0.05,0.0,0.0,1.0,1.0,0,0,,,0
1449618439161637442,253,0,/odom,ucmd_vector,0,0,0,0.0288724350613,0.0041509713621,0.0,0.0,0.0,0.0105678519699,0.999944158693,0.184390962372,0.05,0.05,0.0,0.0,1.0,1.0,0,0,,,0
1449618439166484403,254,0,/odom,ucmd_vector,0,0,0,0.0288724350613,0.0041509713621,0.0,0.0,0.0,0.0105678519699,0.999944158693,0.184390962372,0.05,0.05,0.0,0.0,1.0,1.0,0,0,,,0
1449618439199173318,255,0,/odom,ucmd_vector,0,0,0,0.0288724350613,0.0041509713621,0.0,0.0,0.0,0.0105678519699,0.999944158693,0.189978263626,0.05,0.05,0.0,0.0,1.0,1.0,0,0,,,0
1449618439238807936,256,0,/odom,ucmd_vector,0,0,0,0.0288724350613,0.0041509713621,0.0,0.0,0.0,0.0105678519699,0.999944158693,0.189978263626,0.05,0.05,0.0,0.0,1.0,1.0,0,0,,,0
1449618439329229574,257,0,/odom,ucmd_vector,0,0,0,0.0288724350613,0.0041509713621,0.0,0.0,0.0,0.0105678519699,0.999944158693,0.189978263626,0.05,0.05,0.0,0.0,1.0,1.0,0,0,,,0
1449618439338931687,258,0,/odom,ucmd_vector,0,0,0,0.0288724350613,0.0041509713621,0.0,0.0,0.0,0.0105678519699,0.999944158693,0.189978263626,0.05,0.05,0.0,0.0,1.0,1.0,0,0,,,0
1449618439366880470,259,0,/odom,ucmd_vector,0,0,0,0.0288724350613,0.0041509713621,0.0,0.0,0.0,0.0105678519699,0.999944158693,0.189978263626,0.05,0.05,0.0,0.0,1.0,1.0,0,0,,,0
1449618439398697568,260,0,/odom,ucmd_vector,0,0,0,0.0288724350613,0.0041509713621,0.0,0.0,0.0,0.0105678519699,0.999944158693,0.189978263626,0.05,0.05,0.0,0.0,1.0,1.0,0,0,,,0
1449618439440591952,261,0,/odom,ucmd_vector,0,0,0,0.0288724350613,0.0041509713621,0.0,0.0,0.0,0.0105678519699,0.999944158693,0.189978263626,0.05,0.05,0.0,0.0,1.0,1.0,0,0,,,0
1449618439515707339,262,0,/odom,ucmd_vector,0,0,0,0.0288724350613,0.0041509713621,0.0,0.0,0.0,0.0105678519699,0.999944158693,0.189978263626,0.05,0.05,0.0,0.0,1.0,1.0,0,0,,,0
1449618439522574379,263,0,/odom,ucmd_vector,0,0,0,0.0288724350613,0.0041509713621,0.0,0.0,0.0,0.0105678519699,0.999944158693,0.189978263626,0.05,0.05,0.0,0.0,1.0,1.0,0,0,,,0
1449618439558653087,264,0,/odom,ucmd_vector,0,0,0,0.0288724350613,0.0041509713621,0.0,0.0,0.0,0.0105678519699,0.999944158693,0.167629048119,0.05,0.05,0.0,0.0,1.0,1.0,0,0,,,0
1449618439599237916,265,0,/odom,ucmd_vector,0,0,0,0.0288724350613,0.0041509713621,0.0,0.0,0.0,0.0105678519699,0.999944158693,0.167629048119,0.05,0.05,0.0,0.0,1.0,1.0,0,0,,,0
1449618439634241837,266,0,/odom,ucmd_vector,0,0,0,0.0288724350613,0.0041509713621,0.0,0.0,0.0,0.0105678519699,0.999944158693,0.189978263626,0.05,0.05,0.0,0.0,1.0,1.0,0,0,,,0
1449618439691247104,267,0,/odom,ucmd_vector,0,0,0,0.0317507811321,0.00424225745384,0.0,0.0,0.0,0.0158514091245,0.999874358521,0.189978263626,0.05,0.05,0.0,0.0,1.0,1.0,0,0,,,0
1449618439763449598,268,0,/odom,ucmd_vector,0,0,0,0.0317507811321,0.00424225745384,0.0,0.0,0.0,0.0158514091245,0.999874358521,0.189978263626,0.05,0.05,0.0,0.0,1.0,1.0,0,0,,,0
1449618439769991704,269,0,/odom,ucmd_vector,0,0,0,0.0346299311702,0.00430312051285,0.0,0.0,0.0,0.0105678519699,0.999944158693,0.189978263626,0.05,0.05,0.0,0.0,1.0,1.0,0,0,,,0
1449618439811133752,270,0,/odom,ucmd_vector,0,0,0,0.0346299311702,0.00430312051285,0.0,0.0,0.0,0.0105678519699,0.999944158693,0.173216349373,0.05,0.05,0.0,0.0,1.0,1.0,0,0,,,0
1449618439866741156,271,0,/odom,ucmd_vector,0,0,0,0.0346299311702,0.00430312051285,0.0,0.0,0.0,0.0105678519699,0.999944158693,0.173216349373,0.05,0.05,0.0,0.0,1.0,1.0,0,0,,,0
1449618439882449433,272,0,/odom,ucmd_vector,0,0,0,0.0403882312463,0.00442484663087,0.0,0.0,0.0,0.0105678519699,0.999944158693,0.173216349373,0.05,0.05,0.0,0.0,1.0,1.0,0,0,,,0
1449618439996835678,273,0,/odom,ucmd_vector,0,0,0,0.0403882312463,0.00442484663087,0.0,0.0,0.0,0.0105678519699,0.999944158693,0.189978263626,0.05,0.05,0.0,0.0,1.0,1.0,0,0,,,0
1449618440018613687,274,0,/odom,ucmd_vector,0,0,0,0.0461457273552,0.00457699578162,0.0,0.0,0.0,0.0105678519699,0.999944158693,0.189978263626,0.05,0.05,0.0,0.0,1.0,1.0,0,0,,,0
1449618440046042498,275,0,/odom,ucmd_vector,0,0,0,0.0519040274313,0.00469872189964,0.0,0.0,0.0,0.0105678519699,0.999944158693,0.184390962372,0.05,0.05,0.0,0.0,1.0,1.0,0,0,,,0
1449618440087928707,276,0,/odom,ucmd_vector,0,0,0,0.0519040274313,0.00469872189964,0.0,0.0,0.0,0.0105678519699,0.999944158693,0.184390962372,0.05,0.05,0.0,0.0,1.0,1.0,0,0,,,0
1449618440181818180,277,0,/odom,ucmd_vector,0,0,0,0.0519040274313,0.00469872189964,0.0,0.0,0.0,0.0105678519699,0.999944158693,0.184390962372,0.05,0.05,0.0,0.0,1.0,1.0,0,0,,,0
1449618440191206972,278,0,/odom,ucmd_vector,0,0,0,0.0605406735783,0.0049117341094,0.0,0.0,0.0,0.0158514091245,0.999874358521,0.184390962372,0.05,0.05,0.0,0.0,1.0,1.0,0,0,,,0
1449618440206213016,279,0,/odom,ucmd_vector,0,0,0,0.0605406735783,0.0049117341094,0.0,0.0,0.0,0.0158514091245,0.999874358521,0.189978263626,0.05,0.05,0.0,0.0,1.0,1.0,0,0,,,0
1449618440250639085,280,0,/odom,ucmd_vector,0,0,0,0.0605406735783,0.0049117341094,0.0,0.0,0.0,0.0158514091245,0.999874358521,0.189978263626,0.05,0.05,0.0,0.0,1.0,1.0,0,0,,,0
1449618440289345317,281,0,/odom,ucmd_vector,0,0,0,0.0634198236163,0.00497259716841,0.0,0.0,0.0,0.0105678519699,0.999944158693,0.189978263626,0.05,0.05,0.0,0.0,1.0,1.0,0,0,,,0
1449618440361943560,282,0,/odom,ucmd_vector,0,0,0,0.0691781236925,0.00509432328644,0.0,0.0,0.0,0.0105678519699,0.999944158693,0.189978263626,0.05,0.05,0.0,0.0,1.0,1.0,0,0,,,0
1449618440453500047,283,0,/odom,ucmd_vector,0,0,0,0.0749364237686,0.00521604940446,0.0,0.0,0.0,0.0105678519699,0.999944158693,0.189978263626,0.05,0.05,0.0,0.0,1.0,1.0,0,0,,,0
1449618440453531671,284,0,/odom,ucmd_vector,0,0,0,0.0749364237686,0.00521604940446,0.0,0.0,0.0,0.0105678519699,0.999944158693,0.167629048119,0.05,0.05,0.0,0.0,1.0,1.0,0,0,,,0
1449618440467183314,285,0,/odom,ucmd_vector,0,0,0,0.0749364237686,0.00521604940446,0.0,0.0,0.0,0.0105678519699,0.999944158693,0.167629048119,0.05,0.05,0.0,0.0,1.0,1.0,0,0,,,0
1449618440521971641,286,0,/odom,ucmd_vector,0,0,0,0.0864530239209,0.0054595016405,0.0,0.0,0.0,0.0105678519699,0.999944158693,0.167629048119,0.05,0.05,0.0,0.0,1.0,1.0,0,0,,,0
1449618440527251384,287,0,/odom,ucmd_vector,0,0,0,0.0864530239209,0.0054595016405,0.0,0.0,0.0,0.0105678519699,0.999944158693,0.184390962372,0.05,0.05,0.0,0.0,1.0,1.0,0,0,,,0
1449618440562240308,288,0,/odom,ucmd_vector,0,0,0,0.0864530239209,0.0054595016405,0.0,0.0,0.0,0.0105678519699,0.999944158693,0.184390962372,0.05,0.05,0.0,0.0,1.0,1.0,0,0,,,0
1449618440603427631,289,0,/odom,ucmd_vector,0,0,0,0.0922113239971,0.00558122775852,0.0,0.0,0.0,0.0105678519699,0.999944158693,0.184390962372,0.05,0.05,0.0,0.0,1.0,1.0,0,0,,,0
1449618440640483462,290,0,/odom,ucmd_vector,0,0,0,0.0979696240732,0.00570295387654,0.0,0.0,0.0,0.0105678519699,0.999944158693,0.189978263626,0.05,0.05,0.0,0.0,1.0,1.0,0,0,,,0
1449618440688859083,291,0,/odom,ucmd_vector,0,0,0,0.103727924149,0.00582467999456,0.0,0.0,0.0,0.0105678519699,0.999944158693,0.189978263626,0.05,0.05,0.0,0.0,1.0,1.0,0,0,,,0
1449618440723110843,292,0,/odom,ucmd_vector,0,0,0,0.103727924149,0.00582467999456,0.0,0.0,0.0,0.0105678519699,0.999944158693,0.189978263626,0.05,0.05,0.0,0.0,1.0,1.0,0,0,,,0
1449618440776126817,293,0,/odom,ucmd_vector,0,0,0,0.109486224226,0.00594640611259,0.0,0.0,0.0,0.0105678519699,0.999944158693,0.189978263626,0.05,0.05,0.0,0.0,1.0,1.0,0,0,,,0
1449618440822319580,294,0,/odom,ucmd_vector,0,0,0,0.11236585668,0.00597683934152,0.0,0.0,0.0,0.0052839997518,0.999986039576,0.189978263626,0.05,0.05,0.0,0.0,1.0,1.0,0,0,,,0
1449618440846519631,295,0,/odom,ucmd_vector,0,0,0,0.121003306794,0.00615942851856,0.0,0.0,0.0,0.0105678519699,0.999944158693,0.189978263626,0.05,0.05,0.0,0.0,1.0,1.0,0,0,,,0
1449618440883649866,296,0,/odom,ucmd_vector,0,0,0,0.121003306794,0.00615942851856,0.0,0.0,0.0,0.0105678519699,0.999944158693,0.189978263626,0.05,0.05,0.0,0.0,1.0,1.0,0,0,,,0
1449618440952602854,297,0,/odom,ucmd_vector,0,0,0,0.12676160687,0.00628115463658,0.0,0.0,0.0,0.0105678519699,0.999944158693,0.189978263626,0.05,0.05,0.0,0.0,1.0,1.0,0,0,,,0
1449618441004862592,298,0,/odom,ucmd_vector,0,0,0,0.135400504233,0.00637245432339,0.0,0.0,0.0,0.0052839997518,0.999986039576,0.189978263626,0.05,0.05,0.0,0.0,1.0,1.0,0,0,,,0
1449618441020311024,299,0,/odom,ucmd_vector,0,0,0,0.138279654271,0.0064333173824,0.0,0.0,0.0,0.0105678519699,0.999944158693,0.189978263626,0.05,0.05,0.0,0.0,1.0,1.0,0,0,,,0
1449618441041695664,300,0,/odom,ucmd_vector,0,0,0,0.144037954348,0.00655504350042,0.0,0.0,0.0,0.0105678519699,0.999944158693,0.167629048119,0.05,0.05,0.0,0.0,1.0,1.0,0,0,,,0
1449618441082168155,301,0,/odom,ucmd_vector,0,0,0,0.144037954348,0.00655504350042,0.0,0.0,0.0,0.0105678519699,0.999944158693,0.167629048119,0.05,0.05,0.0,0.0,1.0,1.0,0,0,,,0
1449618441122374109,302,0,/odom,ucmd_vector,0,0,0,0.149796254424,0.00667676961844,0.0,0.0,0.0,0.0105678519699,0.999944158693,0.167629048119,0.05,0.05,0.0,0.0,1.0,1.0,0,0,,,0
1449618441211323797,303,0,/odom,ucmd_vector,0,0,0,0.1555545545,0.00679849573646,0.0,0.0,0.0,0.0105678519699,0.999944158693,0.189978263626,0.05,0.05,0.0,0.0,1.0,1.0,0,0,,,0
1449618441233620643,304,0,/odom,ucmd_vector,0,0,0,0.161312854576,0.00692022185448,0.0,0.0,0.0,0.0105678519699,0.999944158693,0.189978263626,0.05,0.05,0.0,0.0,1.0,1.0,0,0,,,0
1449618441245330434,305,0,/odom,ucmd_vector,0,0,0,0.167071154652,0.00704194797251,0.0,0.0,0.0,0.0105678519699,0.999944158693,0.189978263626,0.05,0.05,0.0,0.0,1.0,1.0,0,0,,,0
1449618441308519214,306,0,/odom,ucmd_vector,0,0,0,0.167071154652,0.00704194797251,0.0,0.0,0.0,0.0105678519699,0.999944158693,0.189978263626,0.05,0.05,0.0,0.0,1.0,1.0,0,0,,,0
1449618441325489074,307,0,/odom,ucmd_vector,0,0,0,0.175709087183,0.00719410731946,0.0,0.0,0.0,0.0052839997518,0.999986039576,0.189978263626,0.05,0.05,0.0,0.0,1.0,1.0,0,0,,,0
1449618441367181145,308,0,/odom,ucmd_vector,0,0,0,0.175709087183,0.00719410731946,0.0,0.0,0.0,0.0052839997518,0.999986039576,0.173216349373,0.05,0.05,0.0,0.0,1.0,1.0,0,0,,,0
1449618441406889699,309,0,/odom,ucmd_vector,0,0,0,0.178588237221,0.00725497037847,0.0,0.0,0.0,0.0105678519699,0.999944158693,0.173216349373,0.05,0.05,0.0,0.0,1.0,1.0,0,0,,,0
1449618441443345472,310,0,/odom,ucmd_vector,0,0,0,0.184346537297,0.0073766964965,0.0,0.0,0.0,0.0105678519699,0.999944158693,0.184390962372,0.05,0.05,0.0,0.0,1.0,1.0,0,0,,,0
1449618441501299660,311,0,/odom,ucmd_vector,0,0,0,0.190104837373,0.00749842261452,0.0,0.0,0.0,0.0105678519699,0.999944158693,0.184390962372,0.05,0.05,0.0,0.0,1.0,1.0,0,0,,,0
1449618441525989909,312,0,/odom,ucmd_vector,0,0,0,0.198742769904,0.00765058196148,0.0,0.0,0.0,0.0052839997518,0.999986039576,0.184390962372,0.05,0.05,0.0,0.0,1.0,1.0,0,0,,,0
1449618441576394099,313,0,/odom,ucmd_vector,0,0,0,0.198742769904,0.00765058196148,0.0,0.0,0.0,0.0052839997518,0.999986039576,0.346422698746,0.05,0.05,0.0,0.0,1.0,1.0,0,0,,,0
1449618441612485629,314,0,/odom,ucmd_vector,0,0,0,0.207380220018,0.00783317113851,0.0,0.0,0.0,0.0105678519699,0.999944158693,0.346422698746,0.05,0.05,0.0,0.0,1.0,1.0,0,0,,,0
1449618441724017727,315,0,/odom,ucmd_vector,0,0,0,0.207380220018,0.00783317113851,0.0,0.0,0.0,0.0105678519699,0.999944158693,0.346422698746,0.05,0.05,0.0,0.0,1.0,1.0,0,0,,,0
1449618441762007678,316,0,/odom,ucmd_vector,0,0,0,0.218898267419,0.00798533388433,0.0,0.0,0.0,0.0105678519699,0.999944158693,0.346422698746,0.05,0.05,0.0,0.0,1.0,1.0,0,0,,,0
1449618441797688612,317,0,/odom,ucmd_vector,0,0,0,0.224656567495,0.00810706000235,0.0,0.0,0.0,0.0105678519699,0.999944158693,0.35201,0.05,0.05,0.0,0.0,1.0,1.0,0,0,,,0
1449618441851826913,318,0,/odom,ucmd_vector,0,0,0,0.230414867571,0.00822878612037,0.0,0.0,0.0,0.0105678519699,0.999944158693,0.346422698746,0.05,0.05,0.0,0.0,1.0,1.0,0,0,,,0
1449618441872218751,319,0,/odom,ucmd_vector,0,0,0,0.230414867571,0.00822878612037,0.0,0.0,0.0,0.0105678519699,0.999944158693,0.346422698746,0.05,0.05,0.0,0.0,1.0,1.0,0,0,,,0
1449618441911123571,320,0,/odom,ucmd_vector,0,0,0,0.236173167647,0.00835051223839,0.0,0.0,0.0,0.0105678519699,0.999944158693,0.346422698746,0.05,0.05,0.0,0.0,1.0,1.0,0,0,,,0
1449618441947425452,321,0,/odom,ucmd_vector,0,0,0,0.241931467724,0.00847223835641,0.0,0.0,0.0,0.0105678519699,0.999944158693,0.346422698746,0.05,0.05,0.0,0.0,1.0,1.0,0,0,,,0
1449618442022435784,322,0,/odom,ucmd_vector,0,0,0,0.241931467724,0.00847223835641,0.0,0.0,0.0,0.0105678519699,0.999944158693,0.346422698746,0.05,0.05,0.0,0.0,1.0,1.0,0,0,,,0
1449618442051871554,323,0,/odom,ucmd_vector,0,0,0,0.253448067876,0.00871569059246,0.0,0.0,0.0,0.0105678519699,0.999944158693,0.346422698746,0.05,0.05,0.0,0.0,1.0,1.0,0,0,,,0
1449618442064083208,324,0,/odom,ucmd_vector,0,0,0,0.253448067876,0.00871569059246,0.0,0.0,0.0,0.0105678519699,0.999944158693,0.35201,0.05,0.05,0.0,0.0,1.0,1.0,0,0,,,0
1449618442169083729,325,0,/odom,ucmd_vector,0,0,0,0.259206367952,0.00883741671048,0.0,0.0,0.0,0.0105678519699,0.999944158693,0.35201,0.05,0.05,0.0,0.0,1.0,1.0,0,0,,,0
1449618442188900626,326,0,/odom,ucmd_vector,0,0,0,0.264964668028,0.0089591428285,0.0,0.0,0.0,0.0137422194698,0.999905571244,0.340835397491,0.05,0.05,0.0,0.0,1.0,1.0,0,0,,,0
1449618442268145403,327,0,/odom,ucmd_vector,0,0,0,0.270722968104,0.00908086894652,0.0,0.0,0.0,0.0137422194698,0.999905571244,0.346422698746,0.05,0.05,0.0,0.0,1.0,1.0,0,0,,,0
1449618442305540405,328,0,/odom,ucmd_vector,0,0,0,0.270722968104,0.00908086894652,0.0,0.0,0.0,0.0137422194698,0.999905571244,0.346422698746,0.05,0.05,0.0,0.0,1.0,1.0,0,0,,,0
1449618442331774572,329,0,/odom,ucmd_vector,0,0,0,0.282239568257,0.00932432118257,0.0,0.0,0.0,0.0137422194698,0.999905571244,0.346422698746,0.05,0.05,0.0,0.0,1.0,1.0,0,0,,,0
1449618442361255935,330,0,/odom,ucmd_vector,0,0,0,0.282239568257,0.00932432118257,0.0,0.0,0.0,0.0137422194698,0.999905571244,0.346422698746,0.05,0.05,0.0,0.0,1.0,1.0,0,0,,,0
1449618442445525431,331,0,/odom,ucmd_vector,0,0,0,0.285119200711,0.0093547544115,0.0,0.0,0.0,0.00845852683232,0.999964226022,0.346422698746,0.05,0.05,0.0,0.0,1.0,1.0,0,0,,,0
1449618442464684459,332,0,/odom,ucmd_vector,0,0,0,0.293756650825,0.00953734358853,0.0,0.0,0.0,0.0137422194698,0.999905571244,0.301724288712,0.05,0.05,0.0,0.0,1.0,1.0,0,0,,,0
1449618442484968965,333,0,/odom,ucmd_vector,0,0,0,0.29663628328,0.00956777681747,0.0,0.0,0.0,0.00845852683232,0.999964226022,0.301724288712,0.05,0.05,0.0,0.0,1.0,1.0,0,0,,,0
1449618442511382135,334,0,/odom,ucmd_vector,0,0,0,0.29663628328,0.00956777681747,0.0,0.0,0.0,0.011632968667,0.999932334731,0.346422698746,0.05,0.05,0.0,0.0,1.0,1.0,0,0,,,0
1449618442692053102,335,0,/odom,ucmd_vector,0,0,0,0.299515433318,0.00962863987648,0.0,0.0,0.0,0.0169164484743,0.999856906648,0.346422698746,0.05,0.05,0.0,0.0,1.0,1.0,0,0,,,0
1449618442735281941,336,0,/odom,ucmd_vector,0,0,0,0.311032515886,0.00984166228245,0.0,0.0,0.0,0.0169164484743,0.999856906648,0.346422698746,0.05,0.05,0.0,0.0,1.0,1.0,0,0,,,0
1449618442833109034,337,0,/odom,ucmd_vector,0,0,0,0.319671413249,0.00993296196926,0.0,0.0,0.0,0.00845852683232,0.999964226022,0.346422698746,0.05,0.05,0.0,0.0,1.0,1.0,0,0,,,0
1449618442918217257,338,0,/odom,ucmd_vector,0,0,0,0.32830934578,0.0100851213162,0.0,0.0,0.0,0.0137422194698,0.999905571244,0.346422698746,0.05,0.05,0.0,0.0,1.0,1.0,0,0,,,0
1449618442945376440,339,0,/odom,ucmd_vector,0,0,0,0.336948243143,0.010176421003,0.0,0.0,0.0,0.00845852683232,0.999964226022,0.296136987457,0.05,0.05,0.0,0.0,1.0,1.0,0,0,,,0
1449618443017604973,340,0,/odom,ucmd_vector,0,0,0,0.342707508052,0.0102372874609,0.0,0.0,0.0,0.00845852683232,0.999964226022,0.346422698746,0.05,0.05,0.0,0.0,1.0,1.0,0,0,,,0
1449618443104542569,341,0,/odom,ucmd_vector,0,0,0,0.348466290544,0.0103285837488,0.0,0.0,0.0,0.00845852683232,0.999964226022,0.346422698746,0.05,0.05,0.0,0.0,1.0,1.0,0,0,,,0
1449618443117253530,342,0,/odom,ucmd_vector,0,0,0,0.357103740658,0.0105111729259,0.0,0.0,0.0,0.0137422194698,0.999905571244,0.346422698746,0.05,0.05,0.0,0.0,1.0,1.0,0,0,,,0
1449618443182699879,343,0,/odom,ucmd_vector,0,0,0,0.357103740658,0.0105111729259,0.0,0.0,0.0,0.0137422194698,0.999905571244,0.346422698746,0.05,0.05,0.0,0.0,1.0,1.0,0,0,,,0
1449618443212034444,344,0,/odom,ucmd_vector,0,0,0,0.362862040735,0.0106328990439,0.0,0.0,0.0,0.0137422194698,0.999905571244,0.346422698746,0.05,0.05,0.0,0.0,1.0,1.0,0,0,,,0
