%time,field.header.seq,field.header.stamp,field.header.frame_id,field.ns,field.id,field.type,field.action,field.pose.position.x,field.pose.position.y,field.pose.position.z,field.pose.orientation.x,field.pose.orientation.y,field.pose.orientation.z,field.pose.orientation.w,field.scale.x,field.scale.y,field.scale.z,field.color.r,field.color.g,field.color.b,field.color.a,field.lifetime,field.frame_locked,field.text,field.mesh_resource,field.mesh_use_embedded_materials
1449618392165789417,0,1449618392165565403,/odom,ga,1,0,0,nan,nan,0.0,nan,nan,nan,nan,0.25,0.15,0.0,1.0,0.0,0.0,1.0,2000000000,0,,,0
1449618392166259497,1,1449618392165818235,/odom,ga,2,2,0,nan,nan,0.0,0.0,0.0,0.0,0.0,0.15,0.15,0.01,0.0,1.0,0.0,1.0,2000000000,0,,,0
1449618392259011241,2,1449618392256916577,/odom,ga,1,0,0,0.0,0.0,0.0,0.0,0.0,0.0,1.0,0.25,0.15,0.0,1.0,0.0,0.0,1.0,2000000000,0,,,0
1449618392259546110,3,1449618392257300427,/odom,ga,2,2,0,0.0,0.0,0.0,0.0,0.0,0.0,0.0,0.15,0.15,0.01,0.0,1.0,0.0,1.0,2000000000,0,,,0
1449618392325835465,4,1449618392325075025,/odom,ga,1,0,0,0.0,0.0,0.0,0.0,0.0,0.0,1.0,0.25,0.15,0.0,1.0,0.0,0.0,1.0,2000000000,0,,,0
1449618392325839335,5,1449618392325354377,/odom,ga,2,2,0,0.0,0.0,0.0,0.0,0.0,0.0,0.0,0.15,0.15,0.01,0.0,1.0,0.0,1.0,2000000000,0,,,0
1449618392382751651,6,1449618392381538666,/odom,ga,1,0,0,0.0,0.0,0.0,0.0,0.0,0.0,1.0,0.25,0.15,0.0,1.0,0.0,0.0,1.0,2000000000,0,,,0
1449618392382756269,7,1449618392381798562,/odom,ga,2,2,0,0.0,0.0,0.0,0.0,0.0,0.0,0.0,0.15,0.15,0.01,0.0,1.0,0.0,1.0,2000000000,0,,,0
1449618392402868288,8,1449618392402523651,/odom,ga,1,0,0,0.0,0.0,0.0,0.0,0.0,0.0,1.0,0.25,0.15,0.0,1.0,0.0,0.0,1.0,2000000000,0,,,0
1449618392402872312,9,1449618392402609073,/odom,ga,2,2,0,0.0,0.0,0.0,0.0,0.0,0.0,0.0,0.15,0.15,0.01,0.0,1.0,0.0,1.0,2000000000,0,,,0
1449618392492947680,10,1449618392492521159,/odom,ga,1,0,0,0.0,0.0,0.0,0.0,0.0,0.0,1.0,0.25,0.15,0.0,1.0,0.0,0.0,1.0,2000000000,0,,,0
1449618392493142461,11,1449618392492861662,/odom,ga,2,2,0,0.0,0.0,0.0,0.0,0.0,0.0,0.0,0.15,0.15,0.01,0.0,1.0,0.0,1.0,2000000000,0,,,0
1449618392582904090,12,1449618392582579633,/odom,ga,1,0,0,0.0,0.0,0.0,0.0,0.0,0.0,1.0,0.25,0.15,0.0,1.0,0.0,0.0,1.0,2000000000,0,,,0
1449618392582910836,13,1449618392582746486,/odom,ga,2,2,0,0.0,0.0,0.0,0.0,0.0,0.0,0.0,0.15,0.15,0.01,0.0,1.0,0.0,1.0,2000000000,0,,,0
1449618392678814605,14,1449618392678601681,/odom,ga,1,0,0,0.0,0.0,0.0,0.0,0.0,0.0,1.0,0.25,0.15,0.0,1.0,0.0,0.0,1.0,2000000000,0,,,0
1449618392679772096,15,1449618392678791007,/odom,ga,2,2,0,0.0,0.0,0.0,0.0,0.0,0.0,0.0,0.15,0.15,0.01,0.0,1.0,0.0,1.0,2000000000,0,,,0
1449618392793790559,16,1449618392793137677,/odom,ga,1,0,0,0.0,0.0,0.0,0.0,0.0,0.0,1.0,0.25,0.15,0.0,1.0,0.0,0.0,1.0,2000000000,0,,,0
1449618392793793829,17,1449618392793561955,/odom,ga,2,2,0,0.0,0.0,0.0,0.0,0.0,0.0,0.0,0.15,0.15,0.01,0.0,1.0,0.0,1.0,2000000000,0,,,0
1449618392879378178,18,1449618392879124052,/odom,ga,1,0,0,0.0,0.0,0.0,0.0,0.0,0.0,1.0,0.25,0.15,0.0,1.0,0.0,0.0,1.0,2000000000,0,,,0
1449618392879909169,19,1449618392879626529,/odom,ga,2,2,0,0.0,0.0,0.0,0.0,0.0,0.0,0.0,0.15,0.15,0.01,0.0,1.0,0.0,1.0,2000000000,0,,,0
1449618392980538057,20,1449618392980429822,/odom,ga,1,0,0,0.0,0.0,0.0,0.0,0.0,0.0,1.0,0.25,0.15,0.0,1.0,0.0,0.0,1.0,2000000000,0,,,0
1449618392981136063,21,1449618392980608897,/odom,ga,2,2,0,0.0,0.0,0.0,0.0,0.0,0.0,0.0,0.15,0.15,0.01,0.0,1.0,0.0,1.0,2000000000,0,,,0
1449618393082571796,22,1449618393082009364,/odom,ga,1,0,0,0.0,0.0,0.0,0.0,0.0,0.0,1.0,0.25,0.15,0.0,1.0,0.0,0.0,1.0,2000000000,0,,,0
1449618393082598371,23,1449618393082353758,/odom,ga,2,2,0,0.0,0.0,0.0,0.0,0.0,0.0,0.0,0.15,0.15,0.01,0.0,1.0,0.0,1.0,2000000000,0,,,0
1449618393193365712,24,1449618393191411538,/odom,ga,1,0,0,0.0,0.0,0.0,0.0,0.0,0.0,1.0,0.25,0.15,0.0,1.0,0.0,0.0,1.0,2000000000,0,,,0
1449618393193371881,25,1449618393191614483,/odom,ga,2,2,0,0.0,0.0,0.0,0.0,0.0,0.0,0.0,0.15,0.15,0.01,0.0,1.0,0.0,1.0,2000000000,0,,,0
1449618393283905353,26,1449618393283502059,/odom,ga,1,0,0,0.0,0.0,0.0,0.0,0.0,0.0,1.0,0.25,0.15,0.0,1.0,0.0,0.0,1.0,2000000000,0,,,0
1449618393284459337,27,1449618393283925214,/odom,ga,2,2,0,0.0,0.0,0.0,0.0,0.0,0.0,0.0,0.15,0.15,0.01,0.0,1.0,0.0,1.0,2000000000,0,,,0
1449618393384340979,28,1449618393383492827,/odom,ga,1,0,0,0.0,0.0,0.0,0.0,0.0,0.0,1.0,0.25,0.15,0.0,1.0,0.0,0.0,1.0,2000000000,0,,,0
1449618393384347242,29,1449618393384101895,/odom,ga,2,2,0,0.0,0.0,0.0,0.0,0.0,0.0,0.0,0.15,0.15,0.01,0.0,1.0,0.0,1.0,2000000000,0,,,0
1449618393485469782,30,1449618393485240415,/odom,ga,1,0,0,0.0,0.0,0.0,0.0,0.0,0.0,1.0,0.25,0.15,0.0,1.0,0.0,0.0,1.0,2000000000,0,,,0
1449618393487339920,31,1449618393485611571,/odom,ga,2,2,0,0.0,0.0,0.0,0.0,0.0,0.0,0.0,0.15,0.15,0.01,0.0,1.0,0.0,1.0,2000000000,0,,,0
1449618393588263344,32,1449618393587456296,/odom,ga,1,0,0,0.0,0.0,0.0,0.0,0.0,0.0,1.0,0.25,0.15,0.0,1.0,0.0,0.0,1.0,2000000000,0,,,0
1449618393588266525,33,1449618393587993707,/odom,ga,2,2,0,0.0,0.0,0.0,0.0,0.0,0.0,0.0,0.15,0.15,0.01,0.0,1.0,0.0,1.0,2000000000,0,,,0
1449618393684149177,34,1449618393683701950,/odom,ga,1,0,0,0.0,0.0,0.0,0.0,0.0,0.0,1.0,0.25,0.15,0.0,1.0,0.0,0.0,1.0,2000000000,0,,,0
1449618393684179161,35,1449618393684113550,/odom,ga,2,2,0,0.0,0.0,0.0,0.0,0.0,0.0,0.0,0.15,0.15,0.01,0.0,1.0,0.0,1.0,2000000000,0,,,0
1449618393789886775,36,1449618393788281874,/odom,ga,1,0,0,0.0,0.0,0.0,0.0,0.0,0.0,1.0,0.25,0.15,0.0,1.0,0.0,0.0,1.0,2000000000,0,,,0
1449618393789890805,37,1449618393789637637,/odom,ga,2,2,0,0.0,0.0,0.0,0.0,0.0,0.0,0.0,0.15,0.15,0.01,0.0,1.0,0.0,1.0,2000000000,0,,,0
1449618393883829014,38,1449618393883461681,/odom,ga,1,0,0,0.0,0.0,0.0,0.0,0.0,0.0,1.0,0.25,0.15,0.0,1.0,0.0,0.0,1.0,2000000000,0,,,0
1449618393884509463,39,1449618393884023900,/odom,ga,2,2,0,0.0,0.0,0.0,0.0,0.0,0.0,0.0,0.15,0.15,0.01,0.0,1.0,0.0,1.0,2000000000,0,,,0
1449618393981493954,40,1449618393981219759,/odom,ga,1,0,0,0.0,0.0,0.0,0.0,0.0,0.0,1.0,0.25,0.15,0.0,1.0,0.0,0.0,1.0,2000000000,0,,,0
1449618393981737614,41,1449618393981620501,/odom,ga,2,2,0,0.0,0.0,0.0,0.0,0.0,0.0,0.0,0.15,0.15,0.01,0.0,1.0,0.0,1.0,2000000000,0,,,0
1449618394099667987,42,1449618394096194301,/odom,ga,1,0,0,0.0,0.0,0.0,0.0,0.0,0.0,1.0,0.25,0.15,0.0,1.0,0.0,0.0,1.0,2000000000,0,,,0
1449618394099675135,43,1449618394097311121,/odom,ga,2,2,0,0.0,0.0,0.0,0.0,0.0,0.0,0.0,0.15,0.15,0.01,0.0,1.0,0.0,1.0,2000000000,0,,,0
1449618394178862552,44,1449618394178607946,/odom,ga,1,0,0,0.0,0.0,0.0,0.0,0.0,0.0,1.0,0.25,0.15,0.0,1.0,0.0,0.0,1.0,2000000000,0,,,0
1449618394179215096,45,1449618394179044473,/odom,ga,2,2,0,0.0,0.0,0.0,0.0,0.0,0.0,0.0,0.15,0.15,0.01,0.0,1.0,0.0,1.0,2000000000,0,,,0
1449618394322528663,46,1449618394320239874,/odom,ga,1,0,0,0.0,0.0,0.0,0.0,0.0,0.0,1.0,0.25,0.15,0.0,1.0,0.0,0.0,1.0,2000000000,0,,,0
1449618394322536742,47,1449618394321293505,/odom,ga,2,2,0,2.5363214016,-0.190713554621,0.738687872887,0.0,0.0,0.0,0.0,0.15,0.15,0.01,0.0,1.0,0.0,1.0,2000000000,0,,,0
1449618394389656765,48,1449618394382805897,/odom,ga,1,0,0,0.0,0.0,0.0,0.0,0.0,0.0,1.0,0.25,0.15,0.0,1.0,0.0,0.0,1.0,2000000000,0,,,0
1449618394389661662,49,1449618394382974169,/odom,ga,2,2,0,2.5363214016,-0.190713554621,0.738687872887,0.0,0.0,0.0,0.0,0.15,0.15,0.01,0.0,1.0,0.0,1.0,2000000000,0,,,0
1449618394485928859,50,1449618394478818534,/odom,ga,1,0,0,0.0,0.0,0.0,0.0,0.0,0.0,1.0,0.25,0.15,0.0,1.0,0.0,0.0,1.0,2000000000,0,,,0
1449618394485932599,51,1449618394479003986,/odom,ga,2,2,0,2.46926212311,-0.20449128747,0.669176638126,0.0,0.0,0.0,0.0,0.15,0.15,0.01,0.0,1.0,0.0,1.0,2000000000,0,,,0
1449618394581632941,52,1449618394580012226,/odom,ga,1,0,0,0.0,0.0,0.0,0.0,0.0,0.0,1.0,0.25,0.15,0.0,1.0,0.0,0.0,1.0,2000000000,0,,,0
1449618394581637964,53,1449618394580624917,/odom,ga,2,2,0,2.47292304039,-0.174286022782,0.658651709557,0.0,0.0,0.0,0.0,0.15,0.15,0.01,0.0,1.0,0.0,1.0,2000000000,0,,,0
1449618394682897568,54,1449618394680711591,/odom,ga,1,0,0,0.0,0.0,0.0,0.0,0.0,0.0,1.0,0.25,0.15,0.0,1.0,0.0,0.0,1.0,2000000000,0,,,0
1449618394682927516,55,1449618394682130039,/odom,ga,2,2,0,2.44905209541,-0.224782526493,0.687484323978,0.0,0.0,0.0,0.0,0.15,0.15,0.01,0.0,1.0,0.0,1.0,2000000000,0,,,0
1449618394779262712,56,1449618394778558736,/odom,ga,1,0,0,0.0,0.0,0.0,0.0,0.0,0.0,1.0,0.25,0.15,0.0,1.0,0.0,0.0,1.0,2000000000,0,,,0
1449618394779267545,57,1449618394778727694,/odom,ga,2,2,0,2.44905209541,-0.224782526493,0.687484323978,0.0,0.0,0.0,0.0,0.15,0.15,0.01,0.0,1.0,0.0,1.0,2000000000,0,,,0
1449618394933629727,58,1449618394927115265,/odom,ga,1,0,0,0.0,0.0,0.0,0.0,0.0,0.0,1.0,0.25,0.15,0.0,1.0,0.0,0.0,1.0,2000000000,0,,,0
1449618394933654559,59,1449618394927455416,/odom,ga,2,2,0,2.44905209541,-0.224782526493,0.687484323978,0.0,0.0,0.0,0.0,0.15,0.15,0.01,0.0,1.0,0.0,1.0,2000000000,0,,,0
1449618394984774519,60,1449618394983959123,/odom,ga,1,0,0,0.00248058714313,0.0,0.0,0.0,0.0,0.0,1.0,0.25,0.15,0.0,1.0,0.0,0.0,1.0,2000000000,0,,,0
1449618394984792347,61,1449618394984183245,/odom,ga,2,2,0,2.51214671135,-0.167538627982,0.717779815197,0.0,0.0,0.0,0.0,0.15,0.15,0.01,0.0,1.0,0.0,1.0,2000000000,0,,,0
1449618395106742276,62,1449618395106344824,/odom,ga,1,0,0,0.00904656213904,0.0,0.0,0.0,0.0,0.0,1.0,0.25,0.15,0.0,1.0,0.0,0.0,1.0,2000000000,0,,,0
1449618395107163743,63,1449618395106619917,/odom,ga,2,2,0,2.51214671135,-0.167538627982,0.717779815197,0.0,0.0,0.0,0.0,0.15,0.15,0.01,0.0,1.0,0.0,1.0,2000000000,0,,,0
1449618395226509249,64,1449618395225153420,/odom,ga,1,0,0,0.01566269355,5.08155595745e-05,0.0,0.0,0.0,0.0029739902247,0.999995577681,0.25,0.15,0.0,1.0,0.0,0.0,1.0,2000000000,0,,,0
1449618395226512655,65,1449618395225534022,/odom,ga,2,2,0,2.43470573425,-0.208239540458,0.668420135975,0.0,0.0,0.0,0.0,0.15,0.15,0.01,0.0,1.0,0.0,1.0,2000000000,0,,,0
1449618395294701307,66,1449618395293318354,/odom,ga,1,0,0,0.282628680213,0.00289969223406,0.0,0.0,0.0,0.00940427834531,0.999955778797,0.25,0.15,0.0,1.0,0.0,0.0,1.0,2000000000,0,,,0
1449618395294705532,67,1449618395293818230,/odom,ga,2,2,0,2.43470573425,-0.208239540458,0.668420135975,0.0,0.0,0.0,0.0,0.15,0.15,0.01,0.0,1.0,0.0,1.0,2000000000,0,,,0
1449618395395224381,68,1449618395394514880,/odom,ga,1,0,0,0.125347279438,0.000570313388846,0.0,0.0,0.0,0.00417067009705,0.999991302718,0.25,0.15,0.0,1.0,0.0,0.0,1.0,2000000000,0,,,0
1449618395395230012,69,1449618395394873516,/odom,ga,2,2,0,2.45262050629,-0.20308290422,0.679130554199,0.0,0.0,0.0,0.0,0.15,0.15,0.01,0.0,1.0,0.0,1.0,2000000000,0,,,0
1449618395502062276,70,1449618395501303745,/odom,ga,1,0,0,0.30009218714,0.00418318847047,0.0,0.0,0.0,0.0127768629859,0.999918372555,0.25,0.15,0.0,1.0,0.0,0.0,1.0,2000000000,0,,,0
1449618395502070279,71,1449618395501565824,/odom,ga,2,2,0,2.50805640221,-0.185390993953,0.738145291805,0.0,0.0,0.0,0.0,0.15,0.15,0.01,0.0,1.0,0.0,1.0,2000000000,0,,,0
1449618395634233728,72,1449618395633291284,/odom,ga,1,0,0,0.536115949856,0.0142794240546,0.0,0.0,0.0,0.0244071801154,0.999702100407,0.25,0.15,0.0,1.0,0.0,0.0,1.0,2000000000,0,,,0
1449618395634248559,73,1449618395633748392,/odom,ga,2,2,0,2.50805640221,-0.185390993953,0.738145291805,0.0,0.0,0.0,0.0,0.15,0.15,0.01,0.0,1.0,0.0,1.0,2000000000,0,,,0
1449618395713707113,74,1449618395712794586,/odom,ga,1,0,0,0.587211800623,0.0172559545763,0.0,0.0,0.0,0.026926393906,0.999637418923,0.25,0.15,0.0,1.0,0.0,0.0,1.0,2000000000,0,,,0
1449618395713833160,75,1449618395713225577,/odom,ga,2,2,0,2.47550010681,-0.200467377901,0.667709946632,0.0,0.0,0.0,0.0,0.15,0.15,0.01,0.0,1.0,0.0,1.0,2000000000,0,,,0
1449618395796041451,76,1449618395791885215,/odom,ga,1,0,0,0.627560021257,0.0186012047744,0.0,0.0,0.0,0.0271591830597,0.999631121352,0.25,0.15,0.0,1.0,0.0,0.0,1.0,2000000000,0,,,0
1449618395796045503,77,1449618395792169914,/odom,ga,2,2,0,2.47550010681,-0.200467377901,0.667709946632,0.0,0.0,0.0,0.0,0.15,0.15,0.01,0.0,1.0,0.0,1.0,2000000000,0,,,0
1449618395886725135,78,1449618395883825376,/odom,ga,1,0,0,0.714923463643,0.0177199092834,0.0,0.0,0.0,0.0227136601014,0.999742011543,0.25,0.15,0.0,1.0,0.0,0.0,1.0,2000000000,0,,,0
1449618395886747012,79,1449618395884087569,/odom,ga,2,2,0,2.49668121338,-0.174354493618,0.688400685787,0.0,0.0,0.0,0.0,0.15,0.15,0.01,0.0,1.0,0.0,1.0,2000000000,0,,,0
1449618395986303071,80,1449618395985268251,/odom,ga,1,0,0,0.529309274643,0.00971055771095,0.0,0.0,0.0,0.0168142278118,0.999858630879,0.25,0.15,0.0,1.0,0.0,0.0,1.0,2000000000,0,,,0
1449618395986352757,81,1449618395985644091,/odom,ga,2,2,0,2.49668121338,-0.174354493618,0.688400685787,0.0,0.0,0.0,0.0,0.15,0.15,0.01,0.0,1.0,0.0,1.0,2000000000,0,,,0
1449618396084982587,82,1449618396083721511,/odom,ga,1,0,0,0.626699127561,0.0127483130415,0.0,0.0,0.0,0.0186431809451,0.999826200799,0.25,0.15,0.0,1.0,0.0,0.0,1.0,2000000000,0,,,0
1449618396085012452,83,1449618396084221635,/odom,ga,2,2,0,2.4648976326,-0.181474551558,0.658917665482,0.0,0.0,0.0,0.0,0.15,0.15,0.01,0.0,1.0,0.0,1.0,2000000000,0,,,0
1449618396189711914,84,1449618396188077014,/odom,ga,1,0,0,0.359691319169,0.00406494387179,0.0,0.0,0.0,0.0105273575527,0.999944585836,0.25,0.15,0.0,1.0,0.0,0.0,1.0,2000000000,0,,,0
1449618396189714542,85,1449618396188406802,/odom,ga,2,2,0,2.4648976326,-0.181474551558,0.658917665482,0.0,0.0,0.0,0.0,0.15,0.15,0.01,0.0,1.0,0.0,1.0,2000000000,0,,,0
1449618396298115353,86,1449618396293070959,/odom,ga,1,0,0,0.285747258496,0.00254373886737,0.0,0.0,0.0,0.00832775782113,0.999965323624,0.25,0.15,0.0,1.0,0.0,0.0,1.0,2000000000,0,,,0
1449618396298119877,87,1449618396293420045,/odom,ga,2,2,0,2.49675393105,-0.174978941679,0.68886834383,0.0,0.0,0.0,0.0,0.15,0.15,0.01,0.0,1.0,0.0,1.0,2000000000,0,,,0
1449618396404284231,88,1449618396402770174,/odom,ga,1,0,0,0.535393892074,0.00700261178962,0.0,0.0,0.0,0.0121187952121,0.999926564705,0.25,0.15,0.0,1.0,0.0,0.0,1.0,2000000000,0,,,0
1449618396404308713,89,1449618396402989713,/odom,ga,2,2,0,2.46150970459,-0.18665060401,0.667945027351,0.0,0.0,0.0,0.0,0.15,0.15,0.01,0.0,1.0,0.0,1.0,2000000000,0,,,0
1449618396495174423,90,1449618396485448363,/odom,ga,1,0,0,0.607516567622,0.00819303770563,0.0,0.0,0.0,0.0126468680289,0.999920025167,0.25,0.15,0.0,1.0,0.0,0.0,1.0,2000000000,0,,,0
1449618396495186468,91,1449618396486391340,/odom,ga,2,2,0,2.46150970459,-0.18665060401,0.667945027351,0.0,0.0,0.0,0.0,0.15,0.15,0.01,0.0,1.0,0.0,1.0,2000000000,0,,,0
1449618396580870221,92,1449618396580290147,/odom,ga,1,0,0,0.466385235617,0.00475917529907,0.0,0.0,0.0,0.00965172580286,0.99995342101,0.25,0.15,0.0,1.0,0.0,0.0,1.0,2000000000,0,,,0
1449618396580890350,93,1449618396580536385,/odom,ga,2,2,0,2.45103120804,-0.200502187014,0.669831335545,0.0,0.0,0.0,0.0,0.15,0.15,0.01,0.0,1.0,0.0,1.0,2000000000,0,,,0
1449618396683974187,94,1449618396683148354,/odom,ga,1,0,0,0.690929941367,0.00956033481032,0.0,0.0,0.0,0.0129387205958,0.999916291251,0.25,0.15,0.0,1.0,0.0,0.0,1.0,2000000000,0,,,0
1449618396683977260,95,1449618396683494704,/odom,ga,2,2,0,2.45103120804,-0.200502187014,0.669831335545,0.0,0.0,0.0,0.0,0.15,0.15,0.01,0.0,1.0,0.0,1.0,2000000000,0,,,0
1449618396820702525,96,1449618396820269706,/odom,ga,1,0,0,0.683503505733,0.00110642060847,0.0,0.0,0.0,0.0059061669543,0.999982558444,0.25,0.15,0.0,1.0,0.0,0.0,1.0,2000000000,0,,,0
1449618396821160468,97,1449618396820832458,/odom,ga,2,2,0,2.53298544884,-0.176307410002,0.717695534229,0.0,0.0,0.0,0.0,0.15,0.15,0.01,0.0,1.0,0.0,1.0,2000000000,0,,,0
1449618396894249638,98,1449618396885737417,/odom,ga,1,0,0,0.716658613681,0.00732979310358,0.0,0.0,0.0,0.00945090463474,0.999955339203,0.25,0.15,0.0,1.0,0.0,0.0,1.0,2000000000,0,,,0
1449618396894253391,99,1449618396886219518,/odom,ga,2,2,0,2.53298544884,-0.176307410002,0.717695534229,0.0,0.0,0.0,0.0,0.15,0.15,0.01,0.0,1.0,0.0,1.0,2000000000,0,,,0
1449618397009495449,100,1449618397000425210,/odom,ga,1,0,0,0.726511412333,0.00693992421039,0.0,0.0,0.0,0.00882594782997,0.999961050564,0.25,0.15,0.0,1.0,0.0,0.0,1.0,2000000000,0,,,0
1449618397009543699,101,1449618397001169905,/odom,ga,2,2,0,2.48989605904,-0.175913572311,0.698064625263,0.0,0.0,0.0,0.0,0.15,0.15,0.01,0.0,1.0,0.0,1.0,2000000000,0,,,0
1449618397120904442,102,1449618397106175734,/odom,ga,1,0,0,0.747305449913,0.00607298700982,0.0,0.0,0.0,0.00750692343598,0.999971822653,0.25,0.15,0.0,1.0,0.0,0.0,1.0,2000000000,0,,,0
1449618397120914336,103,1449618397106564111,/odom,ga,2,2,0,2.48989605904,-0.175913572311,0.698064625263,0.0,0.0,0.0,0.0,0.15,0.15,0.01,0.0,1.0,0.0,1.0,2000000000,0,,,0
1449618397193261058,104,1449618397192415152,/odom,ga,1,0,0,0.629881777501,-0.00233363997746,0.0,0.0,0.0,0.00100490118381,0.999999495087,0.25,0.15,0.0,1.0,0.0,0.0,1.0,2000000000,0,,,0
1449618397193266518,105,1449618397192735296,/odom,ga,2,2,0,2.48989605904,-0.175913572311,0.698064625263,0.0,0.0,0.0,0.0,0.15,0.15,0.01,0.0,1.0,0.0,1.0,2000000000,0,,,0
1449618397320549472,106,1449618397305878905,/odom,ga,1,0,0,0.725135219287,0.00878902751484,0.0,0.0,0.0,0.0113281076336,0.99993583493,0.25,0.15,0.0,1.0,0.0,0.0,1.0,2000000000,0,,,0
1449618397320557185,107,1449618397306494123,/odom,ga,2,2,0,2.48989605904,-0.175913572311,0.698064625263,0.0,0.0,0.0,0.0,0.15,0.15,0.01,0.0,1.0,0.0,1.0,2000000000,0,,,0
1449618397381330548,108,1449618397380221849,/odom,ga,1,0,0,0.616781060366,0.00631383313868,0.0,0.0,0.0,0.00960786336895,0.999953843416,0.25,0.15,0.0,1.0,0.0,0.0,1.0,2000000000,0,,,0
1449618397381337077,109,1449618397380749262,/odom,ga,2,2,0,2.44306468964,-0.22746476531,0.669622182846,0.0,0.0,0.0,0.0,0.15,0.15,0.01,0.0,1.0,0.0,1.0,2000000000,0,,,0
1449618397497013621,110,1449618397495817351,/odom,ga,1,0,0,0.31179987037,0.00147164465257,0.0,0.0,0.0,0.00467500280673,0.999989072115,0.25,0.15,0.0,1.0,0.0,0.0,1.0,2000000000,0,,,0
1449618397497059439,111,1449618397496384969,/odom,ga,2,2,0,2.44306468964,-0.22746476531,0.669622182846,0.0,0.0,0.0,0.0,0.15,0.15,0.01,0.0,1.0,0.0,1.0,2000000000,0,,,0
1449618397611923889,112,1449618397611490188,/odom,ga,1,0,0,0.646799521172,0.00775379280427,0.0,0.0,0.0,0.01133405398,0.999935767547,0.25,0.15,0.0,1.0,0.0,0.0,1.0,2000000000,0,,,0
1449618397611933287,113,1449618397611698797,/odom,ga,2,2,0,2.44306468964,-0.22746476531,0.669622182846,0.0,0.0,0.0,0.0,0.15,0.15,0.01,0.0,1.0,0.0,1.0,2000000000,0,,,0
1449618397678260224,114,1449618397677977695,/odom,ga,1,0,0,0.664249451875,0.0075653401098,0.0,0.0,0.0,0.0107614398913,0.999942094029,0.25,0.15,0.0,1.0,0.0,0.0,1.0,2000000000,0,,,0
1449618397679683833,115,1449618397678959300,/odom,ga,2,2,0,2.44306468964,-0.22746476531,0.669622182846,0.0,0.0,0.0,0.0,0.15,0.15,0.01,0.0,1.0,0.0,1.0,2000000000,0,,,0
1449618397787684766,116,1449618397787072694,/odom,ga,1,0,0,0.746765747518,0.00637892215824,0.0,0.0,0.0,0.00805364119459,0.999967568906,0.25,0.15,0.0,1.0,0.0,0.0,1.0,2000000000,0,,,0
1449618397787689444,117,1449618397787337979,/odom,ga,2,2,0,2.47661733627,-0.196824803948,0.697928845882,0.0,0.0,0.0,0.0,0.15,0.15,0.01,0.0,1.0,0.0,1.0,2000000000,0,,,0
1449618397912744555,118,1449618397911845211,/odom,ga,1,0,0,0.372044029741,0.0014853488443,0.0,0.0,0.0,0.00391654533385,0.999992330307,0.25,0.15,0.0,1.0,0.0,0.0,1.0,2000000000,0,,,0
1449618397912753007,119,1449618397912259890,/odom,ga,2,2,0,2.47661733627,-0.196824803948,0.697928845882,0.0,0.0,0.0,0.0,0.15,0.15,0.01,0.0,1.0,0.0,1.0,2000000000,0,,,0
1449618397990251084,120,1449618397989343248,/odom,ga,1,0,0,0.514250709012,0.00405496115731,0.0,0.0,0.0,0.00753528212613,0.999971609359,0.25,0.15,0.0,1.0,0.0,0.0,1.0,2000000000,0,,,0
1449618397990417673,121,1449618397989686186,/odom,ga,2,2,0,2.46267700195,-0.214367121458,0.687456250191,0.0,0.0,0.0,0.0,0.15,0.15,0.01,0.0,1.0,0.0,1.0,2000000000,0,,,0
1449618398090570246,122,1449618398089763100,/odom,ga,1,0,0,0.420960412458,0.00266506229596,0.0,0.0,0.0,0.00612070860099,0.999981268288,0.25,0.15,0.0,1.0,0.0,0.0,1.0,2000000000,0,,,0
1449618398090580660,123,1449618398090036485,/odom,ga,2,2,0,2.46267700195,-0.214367121458,0.687456250191,0.0,0.0,0.0,0.0,0.15,0.15,0.01,0.0,1.0,0.0,1.0,2000000000,0,,,0
1449618398180295287,124,1449618398180118181,/odom,ga,1,0,0,0.237817049073,0.00077404755805,0.0,0.0,0.0,0.00334379821449,0.999994409491,0.25,0.15,0.0,1.0,0.0,0.0,1.0,2000000000,0,,,0
1449618398180583446,125,1449618398180482029,/odom,ga,2,2,0,2.45551586151,-0.233790069818,0.738978981972,0.0,0.0,0.0,0.0,0.15,0.15,0.01,0.0,1.0,0.0,1.0,2000000000,0,,,0
1449618398288546730,126,1449618398288084605,/odom,ga,1,0,0,0.480144443615,0.00248054578765,0.0,0.0,0.0,0.00497271234407,0.99998763599,0.25,0.15,0.0,1.0,0.0,0.0,1.0,2000000000,0,,,0
1449618398288845044,127,1449618398288630509,/odom,ga,2,2,0,2.45674586296,-0.212091907859,0.708025336266,0.0,0.0,0.0,0.0,0.15,0.15,0.01,0.0,1.0,0.0,1.0,2000000000,0,,,0
1449618398384650484,128,1449618398383282718,/odom,ga,1,0,0,0.625322951148,0.00391548654083,0.0,0.0,0.0,0.00594861378201,0.999982306841,0.25,0.15,0.0,1.0,0.0,0.0,1.0,2000000000,0,,,0
1449618398384662248,129,1449618398383834816,/odom,ga,2,2,0,2.45674586296,-0.212091907859,0.708025336266,0.0,0.0,0.0,0.0,0.15,0.15,0.01,0.0,1.0,0.0,1.0,2000000000,0,,,0
1449618398484550710,130,1449618398483536073,/odom,ga,1,0,0,0.660075197202,0.0044553260251,0.0,0.0,0.0,0.006396815419,0.999979540167,0.25,0.15,0.0,1.0,0.0,0.0,1.0,2000000000,0,,,0
1449618398484555485,131,1449618398484064981,/odom,ga,2,2,0,2.46676397324,-0.225870907307,0.667732179165,0.0,0.0,0.0,0.0,0.15,0.15,0.01,0.0,1.0,0.0,1.0,2000000000,0,,,0
1449618398592185091,132,1449618398589488593,/odom,ga,1,0,0,0.70516265749,0.0049365546706,0.0,0.0,0.0,0.0066187896243,0.999978095572,0.25,0.15,0.0,1.0,0.0,0.0,1.0,2000000000,0,,,0
1449618398592189110,133,1449618398589873297,/odom,ga,2,2,0,2.46676397324,-0.225870907307,0.667732179165,0.0,0.0,0.0,0.0,0.15,0.15,0.01,0.0,1.0,0.0,1.0,2000000000,0,,,0
1449618398684375406,134,1449618398683653135,/odom,ga,1,0,0,0.700680747118,0.00495476308474,0.0,0.0,0.0,0.00668661664673,0.999977644329,0.25,0.15,0.0,1.0,0.0,0.0,1.0,2000000000,0,,,0
1449618398684379888,135,1449618398684250806,/odom,ga,2,2,0,2.4424674511,-0.202596634626,0.65805542469,0.0,0.0,0.0,0.0,0.15,0.15,0.01,0.0,1.0,0.0,1.0,2000000000,0,,,0
1449618398819550686,136,1449618398819014057,/odom,ga,1,0,0,0.736101696242,0.00531816754839,0.0,0.0,0.0,0.00682053146327,0.999976739905,0.25,0.15,0.0,1.0,0.0,0.0,1.0,2000000000,0,,,0
1449618398819675814,137,1449618398819543648,/odom,ga,2,2,0,2.4424674511,-0.202596634626,0.65805542469,0.0,0.0,0.0,0.0,0.15,0.15,0.01,0.0,1.0,0.0,1.0,2000000000,0,,,0
1449618398887638555,138,1449618398887446660,/odom,ga,1,0,0,0.718445226449,0.00522689512553,0.0,0.0,0.0,0.00687295889241,0.999976380939,0.25,0.15,0.0,1.0,0.0,0.0,1.0,2000000000,0,,,0
1449618398888380105,139,1449618398887902289,/odom,ga,2,2,0,2.4373421669,-0.213852360845,0.68833732605,0.0,0.0,0.0,0.0,0.15,0.15,0.01,0.0,1.0,0.0,1.0,2000000000,0,,,0
1449618398990331020,140,1449618398982249216,/odom,ga,1,0,0,0.732917200874,0.00698630891766,0.0,0.0,0.0,0.00898738682413,0.999959612623,0.25,0.15,0.0,1.0,0.0,0.0,1.0,2000000000,0,,,0
1449618398990358173,141,1449618398983490161,/odom,ga,2,2,0,2.4373421669,-0.213852360845,0.68833732605,0.0,0.0,0.0,0.0,0.15,0.15,0.01,0.0,1.0,0.0,1.0,2000000000,0,,,0
1449618399087252486,142,1449618399086531334,/odom,ga,1,0,0,0.254486345118,0.000740416287178,0.0,0.0,0.0,0.00297885939631,0.999995563189,0.25,0.15,0.0,1.0,0.0,0.0,1.0,2000000000,0,,,0
1449618399087255961,143,1449618399086977270,/odom,ga,2,2,0,2.48618173599,-0.184204399586,0.698741018772,0.0,0.0,0.0,0.0,0.15,0.15,0.01,0.0,1.0,0.0,1.0,2000000000,0,,,0
1449618399183545424,144,1449618399182911984,/odom,ga,1,0,0,0.423412217479,0.00184491215603,0.0,0.0,0.0,0.00422392978265,0.999991079169,0.25,0.15,0.0,1.0,0.0,0.0,1.0,2000000000,0,,,0
1449618399183549319,145,1449618399183190903,/odom,ga,2,2,0,2.48618173599,-0.184204399586,0.698741018772,0.0,0.0,0.0,0.0,0.15,0.15,0.01,0.0,1.0,0.0,1.0,2000000000,0,,,0
1449618399285693242,146,1449618399284648216,/odom,ga,1,0,0,0.317685570026,0.000960501667688,0.0,0.0,0.0,0.00304773953804,0.999995355631,0.25,0.15,0.0,1.0,0.0,0.0,1.0,2000000000,0,,,0
1449618399285697093,147,1449618399284937413,/odom,ga,2,2,0,2.52296757698,-0.179774746299,0.739581227303,0.0,0.0,0.0,0.0,0.15,0.15,0.01,0.0,1.0,0.0,1.0,2000000000,0,,,0
1449618399383010755,148,1449618399381029867,/odom,ga,1,0,0,0.227731980427,0.000459908586699,0.0,0.0,0.0,0.00203797043228,0.999997923336,0.25,0.15,0.0,1.0,0.0,0.0,1.0,2000000000,0,,,0
1449618399383029868,149,1449618399381315489,/odom,ga,2,2,0,2.52296757698,-0.179774746299,0.739581227303,0.0,0.0,0.0,0.0,0.15,0.15,0.01,0.0,1.0,0.0,1.0,2000000000,0,,,0
1449618399516520367,150,1449618399516288428,/odom,ga,1,0,0,0.146266595545,0.00134736699849,0.0,0.0,0.0,0.0064321991366,0.999979313193,0.25,0.15,0.0,1.0,0.0,0.0,1.0,2000000000,0,,,0
1449618399516954897,151,1449618399516787819,/odom,ga,2,2,0,2.4719479084,-0.1932259202,0.698940753937,0.0,0.0,0.0,0.0,0.15,0.15,0.01,0.0,1.0,0.0,1.0,2000000000,0,,,0
1449618399632889804,152,1449618399632381239,/odom,ga,1,0,0,0.453078875459,0.00613953103808,0.0,0.0,0.0,0.00912187392654,0.999958394843,0.25,0.15,0.0,1.0,0.0,0.0,1.0,2000000000,0,,,0
1449618399632897416,153,1449618399632563208,/odom,ga,2,2,0,2.4719479084,-0.1932259202,0.698940753937,0.0,0.0,0.0,0.0,0.15,0.15,0.01,0.0,1.0,0.0,1.0,2000000000,0,,,0
1449618399699966860,154,1449618399697905059,/odom,ga,1,0,0,0.248182021664,0.00266316297481,0.0,0.0,0.0,0.00714938269916,0.999974442837,0.25,0.15,0.0,1.0,0.0,0.0,1.0,2000000000,0,,,0
1449618399699972921,155,1449618399698222650,/odom,ga,2,2,0,2.44435954094,-0.218224823475,0.688033759594,0.0,0.0,0.0,0.0,0.15,0.15,0.01,0.0,1.0,0.0,1.0,2000000000,0,,,0
1449618399787700744,156,1449618399783381689,/odom,ga,1,0,0,0.3521846057,0.00471401321777,0.0,0.0,0.0,0.00938600206247,0.999955950512,0.25,0.15,0.0,1.0,0.0,0.0,1.0,2000000000,0,,,0
1449618399787705034,157,1449618399784216456,/odom,ga,2,2,0,2.44435954094,-0.218224823475,0.688033759594,0.0,0.0,0.0,0.0,0.15,0.15,0.01,0.0,1.0,0.0,1.0,2000000000,0,,,0
1449618399888294943,158,1449618399887437461,/odom,ga,1,0,0,0.147209769977,0.00133304618397,0.0,0.0,0.0,0.0066131139008,0.999978133123,0.25,0.15,0.0,1.0,0.0,0.0,1.0,2000000000,0,,,0
1449618399888301806,159,1449618399887913065,/odom,ga,2,2,0,2.441167593,-0.217978656292,0.687601029873,0.0,0.0,0.0,0.0,0.15,0.15,0.01,0.0,1.0,0.0,1.0,2000000000,0,,,0
1449618400003714693,160,1449618400001723529,/odom,ga,1,0,0,0.130541991096,0.00111265179034,0.0,0.0,0.0,0.00638764174823,0.999979598808,0.25,0.15,0.0,1.0,0.0,0.0,1.0,2000000000,0,,,0
1449618400003718955,161,1449618400002450640,/odom,ga,2,2,0,2.48146128654,-0.197774708271,0.708732306957,0.0,0.0,0.0,0.0,0.15,0.15,0.01,0.0,1.0,0.0,1.0,2000000000,0,,,0
1449618400120739989,162,1449618400119841288,/odom,ga,1,0,0,0.101458955492,0.000747732254637,0.0,0.0,0.0,0.00599422574204,0.999982034467,0.25,0.15,0.0,1.0,0.0,0.0,1.0,2000000000,0,,,0
1449618400121152305,163,1449618400120450955,/odom,ga,2,2,0,2.48146128654,-0.197774708271,0.708732306957,0.0,0.0,0.0,0.0,0.15,0.15,0.01,0.0,1.0,0.0,1.0,2000000000,0,,,0
1449618400179054349,164,1449618400178612567,/odom,ga,1,0,0,0.577752066891,0.00858054096621,0.0,0.0,0.0,0.010205781251,0.999947919658,0.25,0.15,0.0,1.0,0.0,0.0,1.0,2000000000,0,,,0
1449618400179072035,165,1449618400178981035,/odom,ga,2,2,0,2.44489002228,-0.224966928363,0.659076571465,0.0,0.0,0.0,0.0,0.15,0.15,0.01,0.0,1.0,0.0,1.0,2000000000,0,,,0
1449618400287678960,166,1449618400285117677,/odom,ga,1,0,0,0.735293627987,0.0121350209257,0.0,0.0,0.0,0.0115989438973,0.999932729988,0.25,0.15,0.0,1.0,0.0,0.0,1.0,2000000000,0,,,0
1449618400287687825,167,1449618400285434921,/odom,ga,2,2,0,2.44489002228,-0.224966928363,0.659076571465,0.0,0.0,0.0,0.0,0.15,0.15,0.01,0.0,1.0,0.0,1.0,2000000000,0,,,0
1449618400398774035,168,1449618400395962865,/odom,ga,1,0,0,0.747999158038,0.0135298055406,0.0,0.0,0.0,0.0131364276516,0.999913713412,0.25,0.15,0.0,1.0,0.0,0.0,1.0,2000000000,0,,,0
1449618400398780892,169,1449618400396336597,/odom,ga,2,2,0,2.46545624733,-0.196153923869,0.717443823814,0.0,0.0,0.0,0.0,0.15,0.15,0.01,0.0,1.0,0.0,1.0,2000000000,0,,,0
1449618400484292584,170,1449618400483745260,/odom,ga,1,0,0,0.762550200878,0.0136518571329,0.0,0.0,0.0,0.0129355937103,0.999916331707,0.25,0.15,0.0,1.0,0.0,0.0,1.0,2000000000,0,,,0
1449618400484934770,171,1449618400484356097,/odom,ga,2,2,0,2.46545624733,-0.196153923869,0.717443823814,0.0,0.0,0.0,0.0,0.15,0.15,0.01,0.0,1.0,0.0,1.0,2000000000,0,,,0
1449618400644555579,172,1449618400622398022,/odom,ga,1,0,0,0.248774747057,0.0027310327061,0.0,0.0,0.0,0.00742641009752,0.999972423836,0.25,0.15,0.0,1.0,0.0,0.0,1.0,2000000000,0,,,0
1449618400644580330,173,1449618400622717878,/odom,ga,2,2,0,2.46545624733,-0.196153923869,0.717443823814,0.0,0.0,0.0,0.0,0.15,0.15,0.01,0.0,1.0,0.0,1.0,2000000000,0,,,0
1449618400687801136,174,1449618400687383770,/odom,ga,1,0,0,0.218713051213,0.00228335505087,0.0,0.0,0.0,0.0071040899928,0.999974765634,0.25,0.15,0.0,1.0,0.0,0.0,1.0,2000000000,0,,,0
1449618400688380052,175,1449618400687841415,/odom,ga,2,2,0,2.46545624733,-0.196153923869,0.717443823814,0.0,0.0,0.0,0.0,0.15,0.15,0.01,0.0,1.0,0.0,1.0,2000000000,0,,,0
1449618400792350366,176,1449618400788922020,/odom,ga,1,0,0,0.141054491523,0.00122473527114,0.0,0.0,0.0,0.00627144990096,0.999980334265,0.25,0.15,0.0,1.0,0.0,0.0,1.0,2000000000,0,,,0
1449618400792354986,177,1449618400789906671,/odom,ga,2,2,0,2.44084262848,-0.218758314848,0.697530329227,0.0,0.0,0.0,0.0,0.15,0.15,0.01,0.0,1.0,0.0,1.0,2000000000,0,,,0
1449618400886630097,178,1449618400886250714,/odom,ga,1,0,0,0.587116697669,0.00876413243585,0.0,0.0,0.0,0.0102642397612,0.999947321304,0.25,0.15,0.0,1.0,0.0,0.0,1.0,2000000000,0,,,0
1449618400887084081,179,1449618400886743717,/odom,ga,2,2,0,2.44084262848,-0.218758314848,0.697530329227,0.0,0.0,0.0,0.0,0.15,0.15,0.01,0.0,1.0,0.0,1.0,2000000000,0,,,0
1449618401021095735,180,1449618401019277154,/odom,ga,1,0,0,0.738282196151,0.0122011337608,0.0,0.0,0.0,0.0116174678845,0.999932514943,0.25,0.15,0.0,1.0,0.0,0.0,1.0,2000000000,0,,,0
1449618401021125556,181,1449618401019566267,/odom,ga,2,2,0,2.45643210411,-0.19546841085,0.689267754555,0.0,0.0,0.0,0.0,0.15,0.15,0.01,0.0,1.0,0.0,1.0,2000000000,0,,,0
1449618401088182037,182,1449618401087902089,/odom,ga,1,0,0,0.751501427193,0.0125229296228,0.0,0.0,0.0,0.0117358093306,0.999931133018,0.25,0.15,0.0,1.0,0.0,0.0,1.0,2000000000,0,,,0
1449618401090140062,183,1449618401088403984,/odom,ga,2,2,0,2.45643210411,-0.19546841085,0.689267754555,0.0,0.0,0.0,0.0,0.15,0.15,0.01,0.0,1.0,0.0,1.0,2000000000,0,,,0
1449618401191569699,184,1449618401180477231,/odom,ga,1,0,0,0.761016558473,0.0127566705528,0.0,0.0,0.0,0.0118209912168,0.999930129642,0.25,0.15,0.0,1.0,0.0,0.0,1.0,2000000000,0,,,0
1449618401191614040,185,1449618401180908511,/odom,ga,2,2,0,2.4509909153,-0.20617672801,0.697777986526,0.0,0.0,0.0,0.0,0.15,0.15,0.01,0.0,1.0,0.0,1.0,2000000000,0,,,0
1449618401307448649,186,1449618401306129782,/odom,ga,1,0,0,0.797136029535,0.0136600604487,0.0,0.0,0.0,0.0121443446648,0.999926254727,0.25,0.15,0.0,1.0,0.0,0.0,1.0,2000000000,0,,,0
1449618401307460893,187,1449618401306498900,/odom,ga,2,2,0,2.4509909153,-0.20617672801,0.697777986526,0.0,0.0,0.0,0.0,0.15,0.15,0.01,0.0,1.0,0.0,1.0,2000000000,0,,,0
1449618401387046500,188,1449618401385209035,/odom,ga,1,0,0,0.615686054855,0.00935501390623,0.0,0.0,0.0,0.0104804240702,0.999945078847,0.25,0.15,0.0,1.0,0.0,0.0,1.0,2000000000,0,,,0
1449618401387064205,189,1449618401385728599,/odom,ga,2,2,0,2.4412727356,-0.209023401141,0.69812220335,0.0,0.0,0.0,0.0,0.15,0.15,0.01,0.0,1.0,0.0,1.0,2000000000,0,,,0
1449618401494117224,190,1449618401486005660,/odom,ga,1,0,0,0.344702388073,0.0072625803477,0.0,0.0,0.0,0.0132535041156,0.999912168457,0.25,0.15,0.0,1.0,0.0,0.0,1.0,2000000000,0,,,0
1449618401494121854,191,1449618401487193529,/odom,ga,2,2,0,2.4412727356,-0.209023401141,0.69812220335,0.0,0.0,0.0,0.0,0.15,0.15,0.01,0.0,1.0,0.0,1.0,2000000000,0,,,0
1449618401581226898,192,1449618401579226331,/odom,ga,1,0,0,0.258427523292,0.00281154408339,0.0,0.0,0.0,0.00715179177407,0.99997442561,0.25,0.15,0.0,1.0,0.0,0.0,1.0,2000000000,0,,,0
1449618401581230205,193,1449618401579631399,/odom,ga,2,2,0,2.4412727356,-0.209023401141,0.69812220335,0.0,0.0,0.0,0.0,0.15,0.15,0.01,0.0,1.0,0.0,1.0,2000000000,0,,,0
1449618401686642828,194,1449618401686301449,/odom,ga,1,0,0,0.167713258021,0.00156542059734,0.0,0.0,0.0,0.00632004845414,0.999980028294,0.25,0.15,0.0,1.0,0.0,0.0,1.0,2000000000,0,,,0
1449618401687605759,195,1449618401687054063,/odom,ga,2,2,0,2.4412727356,-0.209023401141,0.69812220335,0.0,0.0,0.0,0.0,0.15,0.15,0.01,0.0,1.0,0.0,1.0,2000000000,0,,,0
1449618401788405652,196,1449618401787929701,/odom,ga,1,0,0,0.134367683617,0.00114874528583,0.0,0.0,0.0,0.00601431252359,0.999981913859,0.25,0.15,0.0,1.0,0.0,0.0,1.0,2000000000,0,,,0
1449618401790412041,197,1449618401788877322,/odom,ga,2,2,0,0.0,0.0,0.0,0.0,0.0,0.0,0.0,0.15,0.15,0.01,0.0,1.0,0.0,1.0,2000000000,0,,,0
1449618401937835215,198,1449618401927402555,/odom,ga,1,0,0,0.100561687656,0.00123112351748,0.0,0.0,0.0,0.0109618623291,0.999939916982,0.25,0.15,0.0,1.0,0.0,0.0,1.0,2000000000,0,,,0
1449618401937848503,199,1449618401928167605,/odom,ga,2,2,0,0.0,0.0,0.0,0.0,0.0,0.0,0.0,0.15,0.15,0.01,0.0,1.0,0.0,1.0,2000000000,0,,,0
1449618401985725501,200,1449618401984917995,/odom,ga,1,0,0,0.0918440030296,0.00104010073998,0.0,0.0,0.0,0.0108819226976,0.999940790126,0.25,0.15,0.0,1.0,0.0,0.0,1.0,2000000000,0,,,0
1449618401985733169,201,1449618401985438073,/odom,ga,2,2,0,0.0,0.0,0.0,0.0,0.0,0.0,0.0,0.15,0.15,0.01,0.0,1.0,0.0,1.0,2000000000,0,,,0
1449618402122677480,202,1449618402122183652,/odom,ga,1,0,0,0.0689044255601,0.000544714802334,0.0,0.0,0.0,0.0106715719305,0.999943057155,0.25,0.15,0.0,1.0,0.0,0.0,1.0,2000000000,0,,,0
1449618402123701135,203,1449618402122849287,/odom,ga,2,2,0,0.0,0.0,0.0,0.0,0.0,0.0,0.0,0.15,0.15,0.01,0.0,1.0,0.0,1.0,2000000000,0,,,0
1449618402190633447,204,1449618402189220083,/odom,ga,1,0,0,0.0666157115899,0.00049586734798,0.0,0.0,0.0,0.0106505850258,0.999943280911,0.25,0.15,0.0,1.0,0.0,0.0,1.0,2000000000,0,,,0
1449618402190642733,205,1449618402189585608,/odom,ga,2,2,0,0.0,0.0,0.0,0.0,0.0,0.0,0.0,0.15,0.15,0.01,0.0,1.0,0.0,1.0,2000000000,0,,,0
1449618402303886949,206,1449618402301790864,/odom,ga,1,0,0,0.0606284636166,0.000368578920917,0.0,0.0,0.0,0.0105956836124,0.999943864169,0.25,0.15,0.0,1.0,0.0,0.0,1.0,2000000000,0,,,0
1449618402304018456,207,1449618402302152521,/odom,ga,2,2,0,0.0,0.0,0.0,0.0,0.0,0.0,0.0,0.15,0.15,0.01,0.0,1.0,0.0,1.0,2000000000,0,,,0
1449618402380399571,208,1449618402379316027,/odom,ga,1,0,0,0.0597084490194,0.000349083083247,0.0,0.0,0.0,0.0105872473417,0.999943953526,0.25,0.15,0.0,1.0,0.0,0.0,1.0,2000000000,0,,,0
1449618402380405873,209,1449618402379993398,/odom,ga,2,2,0,2.48777985573,-0.19281385839,0.699387013912,0.0,0.0,0.0,0.0,0.15,0.15,0.01,0.0,1.0,0.0,1.0,2000000000,0,,,0
1449618402498924305,210,1449618402498542629,/odom,ga,1,0,0,0.0587732913709,0.00032928371564,0.0,0.0,0.0,0.0105786722162,0.999944044282,0.25,0.15,0.0,1.0,0.0,0.0,1.0,2000000000,0,,,0
1449618402499410352,211,1449618402499144253,/odom,ga,2,2,0,2.48777985573,-0.19281385839,0.699387013912,0.0,0.0,0.0,0.0,0.15,0.15,0.01,0.0,1.0,0.0,1.0,2000000000,0,,,0
1449618402608685454,212,1449618402607694663,/odom,ga,1,0,0,0.0579695450092,0.000312280605351,0.0,0.0,0.0,0.0105713020963,0.999944122225,0.25,0.15,0.0,1.0,0.0,0.0,1.0,2000000000,0,,,0
1449618402608695582,213,1449618402608360096,/odom,ga,2,2,0,2.52685260773,-0.18375980854,0.728552758694,0.0,0.0,0.0,0.0,0.15,0.15,0.01,0.0,1.0,0.0,1.0,2000000000,0,,,0
1449618402732465390,214,1449618402732214470,/odom,ga,1,0,0,0.057593292369,0.000304325491641,0.0,0.0,0.0,0.0105678519699,0.999944158693,0.25,0.15,0.0,1.0,0.0,0.0,1.0,2000000000,0,,,0
1449618402732688696,215,1449618402732461475,/odom,ga,2,2,0,2.52685260773,-0.18375980854,0.728552758694,0.0,0.0,0.0,0.0,0.15,0.15,0.01,0.0,1.0,0.0,1.0,2000000000,0,,,0
1449618402790073122,216,1449618402787982887,/odom,ga,1,0,0,0.057593292369,0.000304325491641,0.0,0.0,0.0,0.0105678519699,0.999944158693,0.25,0.15,0.0,1.0,0.0,0.0,1.0,2000000000,0,,,0
1449618402790112584,217,1449618402788275919,/odom,ga,2,2,0,2.43313550949,-0.209018200636,0.668546974659,0.0,0.0,0.0,0.0,0.15,0.15,0.01,0.0,1.0,0.0,1.0,2000000000,0,,,0
1449618402923909947,218,1449618402919038641,/odom,ga,1,0,0,0.057593292369,0.000304325491641,0.0,0.0,0.0,0.0105678519699,0.999944158693,0.25,0.15,0.0,1.0,0.0,0.0,1.0,2000000000,0,,,0
1449618402923944572,219,1449618402919975138,/odom,ga,2,2,0,2.43313550949,-0.209018200636,0.668546974659,0.0,0.0,0.0,0.0,0.15,0.15,0.01,0.0,1.0,0.0,1.0,2000000000,0,,,0
1449618402992269679,220,1449618402991166033,/odom,ga,1,0,0,0.057593292369,0.000304325491641,0.0,0.0,0.0,0.0105678519699,0.999944158693,0.25,0.15,0.0,1.0,0.0,0.0,1.0,2000000000,0,,,0
1449618402992292258,221,1449618402991525993,/odom,ga,2,2,0,2.4919731617,-0.178317651153,0.698203384876,0.0,0.0,0.0,0.0,0.15,0.15,0.01,0.0,1.0,0.0,1.0,2000000000,0,,,0
1449618403089191270,222,1449618403088262052,/odom,ga,1,0,0,0.057593292369,0.000304325491641,0.0,0.0,0.0,0.0105678519699,0.999944158693,0.25,0.15,0.0,1.0,0.0,0.0,1.0,2000000000,0,,,0
1449618403089196013,223,1449618403088660221,/odom,ga,2,2,0,2.4919731617,-0.178317651153,0.698203384876,0.0,0.0,0.0,0.0,0.15,0.15,0.01,0.0,1.0,0.0,1.0,2000000000,0,,,0
1449618403185253125,224,1449618403185120385,/odom,ga,1,0,0,0.057593292369,0.000304325491641,0.0,0.0,0.0,0.0105678519699,0.999944158693,0.25,0.15,0.0,1.0,0.0,0.0,1.0,2000000000,0,,,0
1449618403188740262,225,1449618403185283128,/odom,ga,2,2,0,2.4919731617,-0.178317651153,0.698203384876,0.0,0.0,0.0,0.0,0.15,0.15,0.01,0.0,1.0,0.0,1.0,2000000000,0,,,0
1449618403291859020,226,1449618403287639281,/odom,ga,1,0,0,0.057593292369,0.000304325491641,0.0,0.0,0.0,0.0105678519699,0.999944158693,0.25,0.15,0.0,1.0,0.0,0.0,1.0,2000000000,0,,,0
1449618403291872237,227,1449618403288566083,/odom,ga,2,2,0,2.42952370644,-0.198027163744,0.69776725769,0.0,0.0,0.0,0.0,0.15,0.15,0.01,0.0,1.0,0.0,1.0,2000000000,0,,,0
1449618403387762351,228,1449618403386529643,/odom,ga,1,0,0,0.057593292369,0.000304325491641,0.0,0.0,0.0,0.0105678519699,0.999944158693,0.25,0.15,0.0,1.0,0.0,0.0,1.0,2000000000,0,,,0
1449618403387795332,229,1449618403387296250,/odom,ga,2,2,0,2.41311740875,-0.208709284663,0.669583022594,0.0,0.0,0.0,0.0,0.15,0.15,0.01,0.0,1.0,0.0,1.0,2000000000,0,,,0
1449618403488511773,230,1449618403487726633,/odom,ga,1,0,0,0.057593292369,0.000304325491641,0.0,0.0,0.0,0.0105678519699,0.999944158693,0.25,0.15,0.0,1.0,0.0,0.0,1.0,2000000000,0,,,0
1449618403488522482,231,1449618403487986582,/odom,ga,2,2,0,2.41311740875,-0.208709284663,0.669583022594,0.0,0.0,0.0,0.0,0.15,0.15,0.01,0.0,1.0,0.0,1.0,2000000000,0,,,0
1449618403610532173,232,1449618403609784549,/odom,ga,1,0,0,0.057593292369,0.000304325491641,0.0,0.0,0.0,0.0105678519699,0.999944158693,0.25,0.15,0.0,1.0,0.0,0.0,1.0,2000000000,0,,,0
1449618403610537158,233,1449618403610100755,/odom,ga,2,2,0,2.44443702698,-0.195896267891,0.687951266766,0.0,0.0,0.0,0.0,0.15,0.15,0.01,0.0,1.0,0.0,1.0,2000000000,0,,,0
1449618403712019623,234,1449618403711402085,/odom,ga,1,0,0,0.057593292369,0.000304325491641,0.0,0.0,0.0,0.0105678519699,0.999944158693,0.25,0.15,0.0,1.0,0.0,0.0,1.0,2000000000,0,,,0
1449618403713042913,235,1449618403712550295,/odom,ga,2,2,0,2.44443702698,-0.195896267891,0.687951266766,0.0,0.0,0.0,0.0,0.15,0.15,0.01,0.0,1.0,0.0,1.0,2000000000,0,,,0
1449618403834587435,236,1449618403833418071,/odom,ga,1,0,0,0.057593292369,0.000304325491641,0.0,0.0,0.0,0.0105678519699,0.999944158693,0.25,0.15,0.0,1.0,0.0,0.0,1.0,2000000000,0,,,0
1449618403834592076,237,1449618403834271322,/odom,ga,2,2,0,2.53408098221,-0.167972505093,0.729232847691,0.0,0.0,0.0,0.0,0.15,0.15,0.01,0.0,1.0,0.0,1.0,2000000000,0,,,0
1449618403886088928,238,1449618403884845601,/odom,ga,1,0,0,0.057593292369,0.000304325491641,0.0,0.0,0.0,0.0105678519699,0.999944158693,0.25,0.15,0.0,1.0,0.0,0.0,1.0,2000000000,0,,,0
1449618403886103455,239,1449618403885265623,/odom,ga,2,2,0,2.53408098221,-0.167972505093,0.729232847691,0.0,0.0,0.0,0.0,0.15,0.15,0.01,0.0,1.0,0.0,1.0,2000000000,0,,,0
1449618403986053754,240,1449618403985774538,/odom,ga,1,0,0,0.057593292369,0.000304325491641,0.0,0.0,0.0,0.0105678519699,0.999944158693,0.25,0.15,0.0,1.0,0.0,0.0,1.0,2000000000,0,,,0
1449618403987219098,241,1449618403986421948,/odom,ga,2,2,0,2.53408098221,-0.167972505093,0.729232847691,0.0,0.0,0.0,0.0,0.15,0.15,0.01,0.0,1.0,0.0,1.0,2000000000,0,,,0
1449618404763451233,242,1449618404762548079,/odom,ga,1,0,0,0.057593292369,0.000304325491641,0.0,0.0,0.0,0.0105678519699,0.999944158693,0.25,0.15,0.0,1.0,0.0,0.0,1.0,2000000000,0,,,0
1449618404763455393,243,1449618404762809848,/odom,ga,2,2,0,2.53408098221,-0.167972505093,0.729232847691,0.0,0.0,0.0,0.0,0.15,0.15,0.01,0.0,1.0,0.0,1.0,2000000000,0,,,0
1449618404818789183,244,1449618404818580621,/odom,ga,1,0,0,0.057593292369,0.000304325491641,0.0,0.0,0.0,0.0105678519699,0.999944158693,0.25,0.15,0.0,1.0,0.0,0.0,1.0,2000000000,0,,,0
1449618404819663467,245,1449618404819180197,/odom,ga,2,2,0,2.46532320976,-0.190633505583,0.667725384235,0.0,0.0,0.0,0.0,0.15,0.15,0.01,0.0,1.0,0.0,1.0,2000000000,0,,,0
1449618404870458950,246,1449618404869112085,/odom,ga,1,0,0,0.057593292369,0.000304325491641,0.0,0.0,0.0,0.0105678519699,0.999944158693,0.25,0.15,0.0,1.0,0.0,0.0,1.0,2000000000,0,,,0
1449618404870463959,247,1449618404869426351,/odom,ga,2,2,0,2.46532320976,-0.190633505583,0.667725384235,0.0,0.0,0.0,0.0,0.15,0.15,0.01,0.0,1.0,0.0,1.0,2000000000,0,,,0
1449618404971927899,248,1449618404970914305,/odom,ga,1,0,0,0.057593292369,0.000304325491641,0.0,0.0,0.0,0.0105678519699,0.999944158693,0.25,0.15,0.0,1.0,0.0,0.0,1.0,2000000000,0,,,0
1449618404971940824,249,1449618404971079649,/odom,ga,2,2,0,2.48977279663,-0.180423289537,0.707584559917,0.0,0.0,0.0,0.0,0.15,0.15,0.01,0.0,1.0,0.0,1.0,2000000000,0,,,0
1449618405082122183,250,1449618405081248281,/odom,ga,1,0,0,0.057593292369,0.000304325491641,0.0,0.0,0.0,0.0105678519699,0.999944158693,0.25,0.15,0.0,1.0,0.0,0.0,1.0,2000000000,0,,,0
1449618405082126944,251,1449618405081555725,/odom,ga,2,2,0,2.48977279663,-0.180423289537,0.707584559917,0.0,0.0,0.0,0.0,0.15,0.15,0.01,0.0,1.0,0.0,1.0,2000000000,0,,,0
1449618405165851551,252,1449618405165558992,/odom,ga,1,0,0,0.057593292369,0.000304325491641,0.0,0.0,0.0,0.0105678519699,0.999944158693,0.25,0.15,0.0,1.0,0.0,0.0,1.0,2000000000,0,,,0
1449618405166110237,253,1449618405165982108,/odom,ga,2,2,0,2.48977279663,-0.180423289537,0.707584559917,0.0,0.0,0.0,0.0,0.15,0.15,0.01,0.0,1.0,0.0,1.0,2000000000,0,,,0
1449618405280143290,254,1449618405279836712,/odom,ga,1,0,0,0.057593292369,0.000304325491641,0.0,0.0,0.0,0.0105678519699,0.999944158693,0.25,0.15,0.0,1.0,0.0,0.0,1.0,2000000000,0,,,0
1449618405280490013,255,1449618405280211010,/odom,ga,2,2,0,0.0,0.0,0.0,0.0,0.0,0.0,0.0,0.15,0.15,0.01,0.0,1.0,0.0,1.0,2000000000,0,,,0
1449618405389392561,256,1449618405387632273,/odom,ga,1,0,0,0.057593292369,0.000304325491641,0.0,0.0,0.0,0.0105678519699,0.999944158693,0.25,0.15,0.0,1.0,0.0,0.0,1.0,2000000000,0,,,0
1449618405389397878,257,1449618405388408967,/odom,ga,2,2,0,0.0,0.0,0.0,0.0,0.0,0.0,0.0,0.15,0.15,0.01,0.0,1.0,0.0,1.0,2000000000,0,,,0
1449618405480003401,258,1449618405479288747,/odom,ga,1,0,0,0.057593292369,0.000304325491641,0.0,0.0,0.0,0.0105678519699,0.999944158693,0.25,0.15,0.0,1.0,0.0,0.0,1.0,2000000000,0,,,0
1449618405480007575,259,1449618405479566657,/odom,ga,2,2,0,2.54782438278,-0.158587604761,0.759392261505,0.0,0.0,0.0,0.0,0.15,0.15,0.01,0.0,1.0,0.0,1.0,2000000000,0,,,0
1449618405569839158,260,1449618405567884140,/odom,ga,1,0,0,0.057593292369,0.000304325491641,0.0,0.0,0.0,0.0105678519699,0.999944158693,0.25,0.15,0.0,1.0,0.0,0.0,1.0,2000000000,0,,,0
1449618405569844145,261,1449618405569023195,/odom,ga,2,2,0,2.54782438278,-0.158587604761,0.759392261505,0.0,0.0,0.0,0.0,0.15,0.15,0.01,0.0,1.0,0.0,1.0,2000000000,0,,,0
1449618405668465768,262,1449618405668195612,/odom,ga,1,0,0,0.057593292369,0.000304325491641,0.0,0.0,0.0,0.0105678519699,0.999944158693,0.25,0.15,0.0,1.0,0.0,0.0,1.0,2000000000,0,,,0
1449618405668837851,263,1449618405668689545,/odom,ga,2,2,0,2.45061016083,-0.189479380846,0.708848714828,0.0,0.0,0.0,0.0,0.15,0.15,0.01,0.0,1.0,0.0,1.0,2000000000,0,,,0
1449618405788894318,264,1449618405787914352,/odom,ga,1,0,0,0.057593292369,0.000304325491641,0.0,0.0,0.0,0.0105678519699,0.999944158693,0.25,0.15,0.0,1.0,0.0,0.0,1.0,2000000000,0,,,0
1449618405788920916,265,1449618405788299664,/odom,ga,2,2,0,2.45061016083,-0.189479380846,0.708848714828,0.0,0.0,0.0,0.0,0.15,0.15,0.01,0.0,1.0,0.0,1.0,2000000000,0,,,0
1449618405904969266,266,1449618405904649405,/odom,ga,1,0,0,0.057593292369,0.000304325491641,0.0,0.0,0.0,0.0105678519699,0.999944158693,0.25,0.15,0.0,1.0,0.0,0.0,1.0,2000000000,0,,,0
1449618405905524058,267,1449618405905248764,/odom,ga,2,2,0,2.42953777313,-0.213101372123,0.667542338371,0.0,0.0,0.0,0.0,0.15,0.15,0.01,0.0,1.0,0.0,1.0,2000000000,0,,,0
1449618405967843201,268,1449618405967671431,/odom,ga,1,0,0,0.057593292369,0.000304325491641,0.0,0.0,0.0,0.0105678519699,0.999944158693,0.25,0.15,0.0,1.0,0.0,0.0,1.0,2000000000,0,,,0
1449618405968181538,269,1449618405968042778,/odom,ga,2,2,0,2.42953777313,-0.213101372123,0.667542338371,0.0,0.0,0.0,0.0,0.15,0.15,0.01,0.0,1.0,0.0,1.0,2000000000,0,,,0
1449618406118989573,270,1449618406118847430,/odom,ga,1,0,0,0.057593292369,0.000304325491641,0.0,0.0,0.0,0.0105678519699,0.999944158693,0.25,0.15,0.0,1.0,0.0,0.0,1.0,2000000000,0,,,0
1449618406119611800,271,1449618406119257519,/odom,ga,2,2,0,2.42953777313,-0.213101372123,0.667542338371,0.0,0.0,0.0,0.0,0.15,0.15,0.01,0.0,1.0,0.0,1.0,2000000000,0,,,0
1449618406184758676,272,1449618406183973622,/odom,ga,1,0,0,0.057593292369,0.000304325491641,0.0,0.0,0.0,0.0105678519699,0.999944158693,0.25,0.15,0.0,1.0,0.0,0.0,1.0,2000000000,0,,,0
1449618406184762371,273,1449618406184274006,/odom,ga,2,2,0,2.46994590759,-0.188443154097,0.689478754997,0.0,0.0,0.0,0.0,0.15,0.15,0.01,0.0,1.0,0.0,1.0,2000000000,0,,,0
1449618406292806605,274,1449618406290894925,/odom,ga,1,0,0,0.057593292369,0.000304325491641,0.0,0.0,0.0,0.0105678519699,0.999944158693,0.25,0.15,0.0,1.0,0.0,0.0,1.0,2000000000,0,,,0
1449618406292821827,275,1449618406291343399,/odom,ga,2,2,0,2.46994590759,-0.188443154097,0.689478754997,0.0,0.0,0.0,0.0,0.15,0.15,0.01,0.0,1.0,0.0,1.0,2000000000,0,,,0
1449618406392984118,276,1449618406392406512,/odom,ga,1,0,0,0.057593292369,0.000304325491641,0.0,0.0,0.0,0.0105678519699,0.999944158693,0.25,0.15,0.0,1.0,0.0,0.0,1.0,2000000000,0,,,0
1449618406392988903,277,1449618406392656113,/odom,ga,2,2,0,2.50393271446,-0.173104137182,0.708889007568,0.0,0.0,0.0,0.0,0.15,0.15,0.01,0.0,1.0,0.0,1.0,2000000000,0,,,0
1449618406483419996,278,1449618406476947089,/odom,ga,1,0,0,0.057593292369,0.000304325491641,0.0,0.0,0.0,0.0105678519699,0.999944158693,0.25,0.15,0.0,1.0,0.0,0.0,1.0,2000000000,0,,,0
1449618406483423554,279,1449618406477218758,/odom,ga,2,2,0,2.50393271446,-0.173104137182,0.708889007568,0.0,0.0,0.0,0.0,0.15,0.15,0.01,0.0,1.0,0.0,1.0,2000000000,0,,,0
1449618406576996428,280,1449618406575945249,/odom,ga,1,0,0,0.057593292369,0.000304325491641,0.0,0.0,0.0,0.0105678519699,0.999944158693,0.25,0.15,0.0,1.0,0.0,0.0,1.0,2000000000,0,,,0
1449618406576999691,281,1449618406576249186,/odom,ga,2,2,0,2.48863887787,-0.167480260134,0.699178338051,0.0,0.0,0.0,0.0,0.15,0.15,0.01,0.0,1.0,0.0,1.0,2000000000,0,,,0
1449618406693260171,282,1449618406692386939,/odom,ga,1,0,0,0.057593292369,0.000304325491641,0.0,0.0,0.0,0.0105678519699,0.999944158693,0.25,0.15,0.0,1.0,0.0,0.0,1.0,2000000000,0,,,0
1449618406693284408,283,1449618406692647625,/odom,ga,2,2,0,2.48863887787,-0.167480260134,0.699178338051,0.0,0.0,0.0,0.0,0.15,0.15,0.01,0.0,1.0,0.0,1.0,2000000000,0,,,0
1449618406818414954,284,1449618406817308283,/odom,ga,1,0,0,0.057593292369,0.000304325491641,0.0,0.0,0.0,0.0105678519699,0.999944158693,0.25,0.15,0.0,1.0,0.0,0.0,1.0,2000000000,0,,,0
1449618406818421469,285,1449618406818064384,/odom,ga,2,2,0,2.44794940948,-0.204985290766,0.687966048717,0.0,0.0,0.0,0.0,0.15,0.15,0.01,0.0,1.0,0.0,1.0,2000000000,0,,,0
1449618406873849469,286,1449618406866306128,/odom,ga,1,0,0,0.057593292369,0.000304325491641,0.0,0.0,0.0,0.0105678519699,0.999944158693,0.25,0.15,0.0,1.0,0.0,0.0,1.0,2000000000,0,,,0
1449618406873853535,287,1449618406866477138,/odom,ga,2,2,0,2.44794940948,-0.204985290766,0.687966048717,0.0,0.0,0.0,0.0,0.15,0.15,0.01,0.0,1.0,0.0,1.0,2000000000,0,,,0
1449618406981212952,288,1449618406980912575,/odom,ga,1,0,0,0.057593292369,0.000304325491641,0.0,0.0,0.0,0.0105678519699,0.999944158693,0.25,0.15,0.0,1.0,0.0,0.0,1.0,2000000000,0,,,0
1449618406981819082,289,1449618406981500459,/odom,ga,2,2,0,2.44794940948,-0.204985290766,0.687966048717,0.0,0.0,0.0,0.0,0.15,0.15,0.01,0.0,1.0,0.0,1.0,2000000000,0,,,0
1449618407067941913,290,1449618407067456409,/odom,ga,1,0,0,0.057593292369,0.000304325491641,0.0,0.0,0.0,0.0105678519699,0.999944158693,0.25,0.15,0.0,1.0,0.0,0.0,1.0,2000000000,0,,,0
1449618407067946672,291,1449618407067639773,/odom,ga,2,2,0,0.0,0.0,0.0,0.0,0.0,0.0,0.0,0.15,0.15,0.01,0.0,1.0,0.0,1.0,2000000000,0,,,0
1449618407196143401,292,1449618407194679483,/odom,ga,1,0,0,0.057593292369,0.000304325491641,0.0,0.0,0.0,0.0105678519699,0.999944158693,0.25,0.15,0.0,1.0,0.0,0.0,1.0,2000000000,0,,,0
1449618407196149029,293,1449618407195144203,/odom,ga,2,2,0,0.0,0.0,0.0,0.0,0.0,0.0,0.0,0.15,0.15,0.01,0.0,1.0,0.0,1.0,2000000000,0,,,0
1449618407314112925,294,1449618407312983808,/odom,ga,1,0,0,0.057593292369,0.000304325491641,0.0,0.0,0.0,0.0105678519699,0.999944158693,0.25,0.15,0.0,1.0,0.0,0.0,1.0,2000000000,0,,,0
1449618407314140925,295,1449618407313535599,/odom,ga,2,2,0,2.43969678879,-0.205019682646,0.677991330624,0.0,0.0,0.0,0.0,0.15,0.15,0.01,0.0,1.0,0.0,1.0,2000000000,0,,,0
1449618407466038050,296,1449618407455481272,/odom,ga,1,0,0,0.057593292369,0.000304325491641,0.0,0.0,0.0,0.0105678519699,0.999944158693,0.25,0.15,0.0,1.0,0.0,0.0,1.0,2000000000,0,,,0
1449618407466089212,297,1449618407455774741,/odom,ga,2,2,0,2.43969678879,-0.205019682646,0.677991330624,0.0,0.0,0.0,0.0,0.15,0.15,0.01,0.0,1.0,0.0,1.0,2000000000,0,,,0
1449618407474791683,298,1449618407473897014,/odom,ga,1,0,0,0.057593292369,0.000304325491641,0.0,0.0,0.0,0.0105678519699,0.999944158693,0.25,0.15,0.0,1.0,0.0,0.0,1.0,2000000000,0,,,0
1449618407474796830,299,1449618407474472385,/odom,ga,2,2,0,0.0,0.0,0.0,0.0,0.0,0.0,0.0,0.15,0.15,0.01,0.0,1.0,0.0,1.0,2000000000,0,,,0
1449618407596404014,300,1449618407593743111,/odom,ga,1,0,0,0.057593292369,0.000304325491641,0.0,0.0,0.0,0.0105678519699,0.999944158693,0.25,0.15,0.0,1.0,0.0,0.0,1.0,2000000000,0,,,0
1449618407596411266,301,1449618407594039070,/odom,ga,2,2,0,0.0,0.0,0.0,0.0,0.0,0.0,0.0,0.15,0.15,0.01,0.0,1.0,0.0,1.0,2000000000,0,,,0
1449618407711992315,302,1449618407709949489,/odom,ga,1,0,0,0.057593292369,0.000304325491641,0.0,0.0,0.0,0.0105678519699,0.999944158693,0.25,0.15,0.0,1.0,0.0,0.0,1.0,2000000000,0,,,0
1449618407711999212,303,1449618407710938803,/odom,ga,2,2,0,0.0,0.0,0.0,0.0,0.0,0.0,0.0,0.15,0.15,0.01,0.0,1.0,0.0,1.0,2000000000,0,,,0
1449618407784473782,304,1449618407783235454,/odom,ga,1,0,0,0.057593292369,0.000304325491641,0.0,0.0,0.0,0.0105678519699,0.999944158693,0.25,0.15,0.0,1.0,0.0,0.0,1.0,2000000000,0,,,0
1449618407784477299,305,1449618407783914467,/odom,ga,2,2,0,0.0,0.0,0.0,0.0,0.0,0.0,0.0,0.15,0.15,0.01,0.0,1.0,0.0,1.0,2000000000,0,,,0
1449618407868901730,306,1449618407868491481,/odom,ga,1,0,0,0.057593292369,0.000304325491641,0.0,0.0,0.0,0.0105678519699,0.999944158693,0.25,0.15,0.0,1.0,0.0,0.0,1.0,2000000000,0,,,0
1449618407869642367,307,1449618407868726136,/odom,ga,2,2,0,0.0,0.0,0.0,0.0,0.0,0.0,0.0,0.15,0.15,0.01,0.0,1.0,0.0,1.0,2000000000,0,,,0
1449618407983092775,308,1449618407982520485,/odom,ga,1,0,0,0.057593292369,0.000304325491641,0.0,0.0,0.0,0.0105678519699,0.999944158693,0.25,0.15,0.0,1.0,0.0,0.0,1.0,2000000000,0,,,0
1449618407983096965,309,1449618407982717387,/odom,ga,2,2,0,0.0,0.0,0.0,0.0,0.0,0.0,0.0,0.15,0.15,0.01,0.0,1.0,0.0,1.0,2000000000,0,,,0
1449618408072799533,310,1449618408071877617,/odom,ga,1,0,0,0.057593292369,0.000304325491641,0.0,0.0,0.0,0.0105678519699,0.999944158693,0.25,0.15,0.0,1.0,0.0,0.0,1.0,2000000000,0,,,0
1449618408073051273,311,1449618408072426305,/odom,ga,2,2,0,0.0,0.0,0.0,0.0,0.0,0.0,0.0,0.15,0.15,0.01,0.0,1.0,0.0,1.0,2000000000,0,,,0
1449618408175146091,312,1449618408170171264,/odom,ga,1,0,0,0.057593292369,0.000304325491641,0.0,0.0,0.0,0.0105678519699,0.999944158693,0.25,0.15,0.0,1.0,0.0,0.0,1.0,2000000000,0,,,0
1449618408175150119,313,1449618408170545498,/odom,ga,2,2,0,2.5242357254,-0.18629412353,0.769377887249,0.0,0.0,0.0,0.0,0.15,0.15,0.01,0.0,1.0,0.0,1.0,2000000000,0,,,0
1449618408303464762,314,1449618408302944582,/odom,ga,1,0,0,0.057593292369,0.000304325491641,0.0,0.0,0.0,0.0105678519699,0.999944158693,0.25,0.15,0.0,1.0,0.0,0.0,1.0,2000000000,0,,,0
1449618408303486108,315,1449618408303273084,/odom,ga,2,2,0,2.5242357254,-0.18629412353,0.769377887249,0.0,0.0,0.0,0.0,0.15,0.15,0.01,0.0,1.0,0.0,1.0,2000000000,0,,,0
1449618408404864223,316,1449618408404263491,/odom,ga,1,0,0,0.057593292369,0.000304325491641,0.0,0.0,0.0,0.0105678519699,0.999944158693,0.25,0.15,0.0,1.0,0.0,0.0,1.0,2000000000,0,,,0
1449618408404868781,317,1449618408404634175,/odom,ga,2,2,0,0.0,0.0,0.0,0.0,0.0,0.0,0.0,0.15,0.15,0.01,0.0,1.0,0.0,1.0,2000000000,0,,,0
1449618408474341860,318,1449618408473560473,/odom,ga,1,0,0,0.057593292369,0.000304325491641,0.0,0.0,0.0,0.0105678519699,0.999944158693,0.25,0.15,0.0,1.0,0.0,0.0,1.0,2000000000,0,,,0
1449618408474358217,319,1449618408473820387,/odom,ga,2,2,0,0.0,0.0,0.0,0.0,0.0,0.0,0.0,0.15,0.15,0.01,0.0,1.0,0.0,1.0,2000000000,0,,,0
1449618408584886969,320,1449618408583869498,/odom,ga,1,0,0,0.057593292369,0.000304325491641,0.0,0.0,0.0,0.0105678519699,0.999944158693,0.25,0.15,0.0,1.0,0.0,0.0,1.0,2000000000,0,,,0
1449618408584893081,321,1449618408584238721,/odom,ga,2,2,0,2.44787192345,-0.197645872831,0.697979986668,0.0,0.0,0.0,0.0,0.15,0.15,0.01,0.0,1.0,0.0,1.0,2000000000,0,,,0
1449618408692049678,322,1449618408691269136,/odom,ga,1,0,0,0.057593292369,0.000304325491641,0.0,0.0,0.0,0.0105678519699,0.999944158693,0.25,0.15,0.0,1.0,0.0,0.0,1.0,2000000000,0,,,0
1449618408692565562,323,1449618408692066746,/odom,ga,2,2,0,2.44787192345,-0.197645872831,0.697979986668,0.0,0.0,0.0,0.0,0.15,0.15,0.01,0.0,1.0,0.0,1.0,2000000000,0,,,0
1449618408812461983,324,1449618408811501608,/odom,ga,1,0,0,0.057593292369,0.000304325491641,0.0,0.0,0.0,0.0105678519699,0.999944158693,0.25,0.15,0.0,1.0,0.0,0.0,1.0,2000000000,0,,,0
1449618408812465134,325,1449618408811976285,/odom,ga,2,2,0,0.0,0.0,0.0,0.0,0.0,0.0,0.0,0.15,0.15,0.01,0.0,1.0,0.0,1.0,2000000000,0,,,0
1449618408877973691,326,1449618408874137293,/odom,ga,1,0,0,0.057593292369,0.000304325491641,0.0,0.0,0.0,0.0105678519699,0.999944158693,0.25,0.15,0.0,1.0,0.0,0.0,1.0,2000000000,0,,,0
1449618408878020125,327,1449618408874865416,/odom,ga,2,2,0,0.0,0.0,0.0,0.0,0.0,0.0,0.0,0.15,0.15,0.01,0.0,1.0,0.0,1.0,2000000000,0,,,0
1449618408975336396,328,1449618408973587837,/odom,ga,1,0,0,0.057593292369,0.000304325491641,0.0,0.0,0.0,0.0105678519699,0.999944158693,0.25,0.15,0.0,1.0,0.0,0.0,1.0,2000000000,0,,,0
1449618408975339850,329,1449618408974152057,/odom,ga,2,2,0,2.52804231644,-0.161338657141,0.727892637253,0.0,0.0,0.0,0.0,0.15,0.15,0.01,0.0,1.0,0.0,1.0,2000000000,0,,,0
1449618409084484405,330,1449618409082545822,/odom,ga,1,0,0,0.057593292369,0.000304325491641,0.0,0.0,0.0,0.0105678519699,0.999944158693,0.25,0.15,0.0,1.0,0.0,0.0,1.0,2000000000,0,,,0
1449618409084515005,331,1449618409083648786,/odom,ga,2,2,0,2.52804231644,-0.161338657141,0.727892637253,0.0,0.0,0.0,0.0,0.15,0.15,0.01,0.0,1.0,0.0,1.0,2000000000,0,,,0
1449618409186143934,332,1449618409185048065,/odom,ga,1,0,0,0.057593292369,0.000304325491641,0.0,0.0,0.0,0.0105678519699,0.999944158693,0.25,0.15,0.0,1.0,0.0,0.0,1.0,2000000000,0,,,0
1449618409186148842,333,1449618409185672826,/odom,ga,2,2,0,2.42119789124,-0.224278897047,0.688159406185,0.0,0.0,0.0,0.0,0.15,0.15,0.01,0.0,1.0,0.0,1.0,2000000000,0,,,0
1449618409266943639,334,1449618409266693514,/odom,ga,1,0,0,0.057593292369,0.000304325491641,0.0,0.0,0.0,0.0105678519699,0.999944158693,0.25,0.15,0.0,1.0,0.0,0.0,1.0,2000000000,0,,,0
1449618409267345326,335,1449618409267136539,/odom,ga,2,2,0,2.42119789124,-0.224278897047,0.688159406185,0.0,0.0,0.0,0.0,0.15,0.15,0.01,0.0,1.0,0.0,1.0,2000000000,0,,,0
1449618409366954165,336,1449618409366825905,/odom,ga,1,0,0,0.057593292369,0.000304325491641,0.0,0.0,0.0,0.0105678519699,0.999944158693,0.25,0.15,0.0,1.0,0.0,0.0,1.0,2000000000,0,,,0
1449618409367395202,337,1449618409367233628,/odom,ga,2,2,0,2.44286584854,-0.219446361065,0.688216090202,0.0,0.0,0.0,0.0,0.15,0.15,0.01,0.0,1.0,0.0,1.0,2000000000,0,,,0
1449618409487383448,338,1449618409486801496,/odom,ga,1,0,0,0.057593292369,0.000304325491641,0.0,0.0,0.0,0.0105678519699,0.999944158693,0.25,0.15,0.0,1.0,0.0,0.0,1.0,2000000000,0,,,0
1449618409487389799,339,1449618409486976610,/odom,ga,2,2,0,2.33390927315,-0.263653516769,0.677672684193,0.0,0.0,0.0,0.0,0.15,0.15,0.01,0.0,1.0,0.0,1.0,2000000000,0,,,0
1449618409582924647,340,1449618409582625264,/odom,ga,1,0,0,0.057593292369,0.000304325491641,0.0,0.0,0.0,0.0105678519699,0.999944158693,0.25,0.15,0.0,1.0,0.0,0.0,1.0,2000000000,0,,,0
1449618409583616155,341,1449618409583133943,/odom,ga,2,2,0,2.33390927315,-0.263653516769,0.677672684193,0.0,0.0,0.0,0.0,0.15,0.15,0.01,0.0,1.0,0.0,1.0,2000000000,0,,,0
1449618409673942818,342,1449618409671393178,/odom,ga,1,0,0,0.057593292369,0.000304325491641,0.0,0.0,0.0,0.0105678519699,0.999944158693,0.25,0.15,0.0,1.0,0.0,0.0,1.0,2000000000,0,,,0
1449618409673975887,343,1449618409672849262,/odom,ga,2,2,0,2.53428697586,-0.17235943675,0.76971834898,0.0,0.0,0.0,0.0,0.15,0.15,0.01,0.0,1.0,0.0,1.0,2000000000,0,,,0
1449618409778255592,344,1449618409772335186,/odom,ga,1,0,0,0.057593292369,0.000304325491641,0.0,0.0,0.0,0.0105678519699,0.999944158693,0.25,0.15,0.0,1.0,0.0,0.0,1.0,2000000000,0,,,0
1449618409778281477,345,1449618409773566102,/odom,ga,2,2,0,2.45315527916,-0.20341694355,0.698960363865,0.0,0.0,0.0,0.0,0.15,0.15,0.01,0.0,1.0,0.0,1.0,2000000000,0,,,0
1449618409869964185,346,1449618409869201359,/odom,ga,1,0,0,0.057593292369,0.000304325491641,0.0,0.0,0.0,0.0105678519699,0.999944158693,0.25,0.15,0.0,1.0,0.0,0.0,1.0,2000000000,0,,,0
1449618409869967564,347,1449618409869576454,/odom,ga,2,2,0,2.45315527916,-0.20341694355,0.698960363865,0.0,0.0,0.0,0.0,0.15,0.15,0.01,0.0,1.0,0.0,1.0,2000000000,0,,,0
1449618409967458007,348,1449618409967314069,/odom,ga,1,0,0,0.057593292369,0.000304325491641,0.0,0.0,0.0,0.0105678519699,0.999944158693,0.25,0.15,0.0,1.0,0.0,0.0,1.0,2000000000,0,,,0
1449618409967914618,349,1449618409967779686,/odom,ga,2,2,0,0.0,0.0,0.0,0.0,0.0,0.0,0.0,0.15,0.15,0.01,0.0,1.0,0.0,1.0,2000000000,0,,,0
1449618410088980362,350,1449618410086112927,/odom,ga,1,0,0,0.057593292369,0.000304325491641,0.0,0.0,0.0,0.0105678519699,0.999944158693,0.25,0.15,0.0,1.0,0.0,0.0,1.0,2000000000,0,,,0
1449618410089009949,351,1449618410087276752,/odom,ga,2,2,0,0.0,0.0,0.0,0.0,0.0,0.0,0.0,0.15,0.15,0.01,0.0,1.0,0.0,1.0,2000000000,0,,,0
1449618410200416765,352,1449618410199632677,/odom,ga,1,0,0,0.057593292369,0.000304325491641,0.0,0.0,0.0,0.0105678519699,0.999944158693,0.25,0.15,0.0,1.0,0.0,0.0,1.0,2000000000,0,,,0
1449618410200424278,353,1449618410200079710,/odom,ga,2,2,0,0.0,0.0,0.0,0.0,0.0,0.0,0.0,0.15,0.15,0.01,0.0,1.0,0.0,1.0,2000000000,0,,,0
1449618410272104609,354,1449618410270669382,/odom,ga,1,0,0,0.057593292369,0.000304325491641,0.0,0.0,0.0,0.0105678519699,0.999944158693,0.25,0.15,0.0,1.0,0.0,0.0,1.0,2000000000,0,,,0
1449618410272114713,355,1449618410271259592,/odom,ga,2,2,0,0.0,0.0,0.0,0.0,0.0,0.0,0.0,0.15,0.15,0.01,0.0,1.0,0.0,1.0,2000000000,0,,,0
1449618410371221546,356,1449618410370143076,/odom,ga,1,0,0,0.057593292369,0.000304325491641,0.0,0.0,0.0,0.0105678519699,0.999944158693,0.25,0.15,0.0,1.0,0.0,0.0,1.0,2000000000,0,,,0
1449618410371227148,357,1449618410370774380,/odom,ga,2,2,0,0.0,0.0,0.0,0.0,0.0,0.0,0.0,0.15,0.15,0.01,0.0,1.0,0.0,1.0,2000000000,0,,,0
1449618410501159317,358,1449618410500422225,/odom,ga,1,0,0,0.057593292369,0.000304325491641,0.0,0.0,0.0,0.0105678519699,0.999944158693,0.25,0.15,0.0,1.0,0.0,0.0,1.0,2000000000,0,,,0
