%time,field.x,field.y,field.z
1449618386004734172,6.0,6.0,0.0
1449618386038146770,6.0,6.0,0.0
1449618386071465157,6.0,6.0,0.0
1449618386104799463,6.0,6.0,0.0
1449618386138180715,6.0,6.0,0.0
1449618386171452985,6.0,6.0,0.0
1449618386204800482,6.0,6.0,0.0
1449618386238136516,6.0,6.0,0.0
1449618386271466452,6.0,6.0,0.0
1449618386304785879,6.0,6.0,0.0
1449618386338133492,6.0,6.0,0.0
1449618386371456128,6.0,6.0,0.0
1449618386404824447,6.0,6.0,0.0
1449618386438118631,6.0,6.0,0.0
1449618386471535795,6.0,6.0,0.0
1449618386504821034,6.0,6.0,0.0
1449618386538108622,6.0,6.0,0.0
1449618386571527627,6.0,6.0,0.0
1449618386604808577,6.0,6.0,0.0
1449618386638099274,6.0,6.0,0.0
1449618386671467191,6.0,6.0,0.0
1449618386704735580,6.0,6.0,0.0
1449618386738074033,6.0,6.0,0.0
1449618386771476827,6.0,6.0,0.0
1449618386804729914,6.0,6.0,0.0
1449618386838094899,6.0,6.0,0.0
1449618386871562862,6.0,6.0,0.0
1449618386904774744,6.0,6.0,0.0
1449618386938050199,6.0,6.0,0.0
1449618386971468694,6.0,6.0,0.0
1449618387004799122,6.0,6.0,0.0
1449618387038198511,6.0,6.0,0.0
1449618387071549528,6.0,6.0,0.0
1449618387104777136,6.0,6.0,0.0
1449618387138061444,6.0,6.0,0.0
1449618387171470506,6.0,6.0,0.0
1449618387204830104,6.0,6.0,0.0
1449618387238176901,6.0,6.0,0.0
1449618387271488020,6.0,6.0,0.0
1449618387304784796,6.0,6.0,0.0
1449618387338096278,6.0,6.0,0.0
1449618387371506908,6.0,6.0,0.0
1449618387405017999,6.0,6.0,0.0
1449618387438056537,6.0,6.0,0.0
1449618387471550754,6.0,6.0,0.0
1449618387504836305,6.0,6.0,0.0
1449618387538163573,6.0,6.0,0.0
1449618387571549084,6.0,6.0,0.0
1449618387604954681,6.0,6.0,0.0
1449618387638140917,6.0,6.0,0.0
1449618387671557751,6.0,6.0,0.0
1449618387704802046,6.0,6.0,0.0
1449618387738105389,6.0,6.0,0.0
1449618387771603753,6.0,6.0,0.0
1449618387804849525,6.0,6.0,0.0
1449618387838182483,6.0,6.0,0.0
1449618387871444833,6.0,6.0,0.0
1449618387904782714,6.0,6.0,0.0
1449618387938105888,6.0,6.0,0.0
1449618387971515274,6.0,6.0,0.0
1449618388005081347,6.0,6.0,0.0
1449618388038118934,6.0,6.0,0.0
1449618388071584130,6.0,6.0,0.0
1449618388104738787,6.0,6.0,0.0
1449618388138144808,6.0,6.0,0.0
1449618388171479387,6.0,6.0,0.0
1449618388204773611,6.0,6.0,0.0
1449618388238116181,6.0,6.0,0.0
1449618388271455344,6.0,6.0,0.0
1449618388304814668,6.0,6.0,0.0
1449618388338148075,6.0,6.0,0.0
1449618388371478906,6.0,6.0,0.0
1449618388404910504,6.0,6.0,0.0
1449618388438096255,6.0,6.0,0.0
1449618388471419097,6.0,6.0,0.0
1449618388504822729,6.0,6.0,0.0
1449618388538071991,6.0,6.0,0.0
1449618388571444013,6.0,6.0,0.0
1449618388604740593,6.0,6.0,0.0
1449618388638160882,6.0,6.0,0.0
1449618388671425354,6.0,6.0,0.0
1449618388704776209,6.0,6.0,0.0
1449618388738129258,6.0,6.0,0.0
1449618388771448418,6.0,6.0,0.0
1449618388804709114,6.0,6.0,0.0
1449618388838122356,6.0,6.0,0.0
1449618388871430217,6.0,6.0,0.0
1449618388904796065,6.0,6.0,0.0
1449618388938047418,6.0,6.0,0.0
1449618388971440502,6.0,6.0,0.0
1449618389004754805,6.0,6.0,0.0
1449618389038124814,6.0,6.0,0.0
1449618389071444556,6.0,6.0,0.0
1449618389104754793,6.0,6.0,0.0
1449618389138086317,6.0,6.0,0.0
1449618389171463796,6.0,6.0,0.0
1449618389204775697,6.0,6.0,0.0
1449618389238100683,6.0,6.0,0.0
1449618389271417587,6.0,6.0,0.0
1449618389304786321,6.0,6.0,0.0
1449618389338110469,6.0,6.0,0.0
1449618389371403261,6.0,6.0,0.0
1449618389404734951,6.0,6.0,0.0
1449618389438094082,6.0,6.0,0.0
1449618389471412534,6.0,6.0,0.0
1449618389504727574,6.0,6.0,0.0
1449618389538577657,6.0,6.0,0.0
1449618389571656079,6.0,6.0,0.0
1449618389605049056,6.0,6.0,0.0
1449618389638139780,6.0,6.0,0.0
1449618389671580960,6.0,6.0,0.0
1449618389704742302,6.0,6.0,0.0
1449618389738211082,6.0,6.0,0.0
1449618389771881606,6.0,6.0,0.0
1449618389805115407,6.0,6.0,0.0
1449618389838115363,6.0,6.0,0.0
1449618389871607036,6.0,6.0,0.0
1449618389905308652,6.0,6.0,0.0
1449618389938682606,6.0,6.0,0.0
1449618389971501523,6.0,6.0,0.0
1449618390005017553,6.0,6.0,0.0
1449618390038133110,6.0,6.0,0.0
1449618390071732420,6.0,6.0,0.0
1449618390104787180,6.0,6.0,0.0
1449618390138242998,6.0,6.0,0.0
1449618390171505511,6.0,6.0,0.0
1449618390204964784,6.0,6.0,0.0
1449618390238500851,6.0,6.0,0.0
1449618390271657405,6.0,6.0,0.0
1449618390307723309,6.0,6.0,0.0
1449618390338428416,6.0,6.0,0.0
1449618390372050431,6.0,6.0,0.0
1449618390405830877,6.0,6.0,0.0
1449618390438432671,6.0,6.0,0.0
1449618390471795789,6.0,6.0,0.0
1449618390505479803,6.0,6.0,0.0
1449618390538361294,6.0,6.0,0.0
1449618390571606166,6.0,6.0,0.0
1449618390609690418,6.0,6.0,0.0
1449618390639111784,6.0,6.0,0.0
1449618390671853424,6.0,6.0,0.0
1449618390705139014,6.0,6.0,0.0
1449618390739636140,6.0,6.0,0.0
1449618390771784865,6.0,6.0,0.0
1449618390805125225,6.0,6.0,0.0
1449618390839757243,6.0,6.0,0.0
1449618390874390063,6.0,6.0,0.0
1449618390905543887,6.0,6.0,0.0
1449618390938528863,6.0,6.0,0.0
1449618390971909292,6.0,6.0,0.0
1449618391005127029,6.0,6.0,0.0
1449618391038565215,6.0,6.0,0.0
1449618391072344198,6.0,6.0,0.0
1449618391105046392,6.0,6.0,0.0
1449618391139384566,6.0,6.0,0.0
1449618391171744476,6.0,6.0,0.0
1449618391206315579,6.0,6.0,0.0
1449618391238287750,6.0,6.0,0.0
1449618391272101735,6.0,6.0,0.0
1449618391305611022,6.0,6.0,0.0
1449618391338634063,6.0,6.0,0.0
1449618391371571905,6.0,6.0,0.0
1449618391406664142,6.0,6.0,0.0
1449618391438684815,6.0,6.0,0.0
1449618391472133538,6.0,6.0,0.0
1449618391505217803,6.0,6.0,0.0
1449618391538721473,6.0,6.0,0.0
1449618391572219333,6.0,6.0,0.0
1449618391605609840,6.0,6.0,0.0
1449618391638689153,6.0,6.0,0.0
1449618391672504558,6.0,6.0,0.0
1449618391705472461,6.0,6.0,0.0
1449618391738754467,6.0,6.0,0.0
1449618391771879945,6.0,6.0,0.0
1449618391805006410,6.0,6.0,0.0
1449618391838352474,6.0,6.0,0.0
1449618391871584229,6.0,6.0,0.0
1449618391905295567,6.0,6.0,0.0
1449618391938236004,6.0,6.0,0.0
1449618391972025754,6.0,6.0,0.0
1449618392006088048,6.0,6.0,0.0
1449618392038318609,6.0,6.0,0.0
1449618392071867407,6.0,6.0,0.0
1449618392105074060,6.0,6.0,0.0
1449618392138371550,6.0,6.0,0.0
1449618392172015357,6.0,6.0,0.0
1449618392205076264,6.0,6.0,0.0
1449618392238512220,6.0,6.0,0.0
1449618392272462717,6.0,6.0,0.0
1449618392305676343,6.0,6.0,0.0
1449618392339358704,6.0,6.0,0.0
1449618392372003931,6.0,6.0,0.0
1449618392405661214,6.0,6.0,0.0
1449618392438668608,6.0,6.0,0.0
1449618392471885242,6.0,6.0,0.0
1449618392505192867,6.0,6.0,0.0
1449618392538882294,6.0,6.0,0.0
1449618392571514571,6.0,6.0,0.0
1449618392605192271,6.0,6.0,0.0
1449618392638548479,6.0,6.0,0.0
1449618392672097527,6.0,6.0,0.0
1449618392706572391,6.0,6.0,0.0
1449618392738594392,6.0,6.0,0.0
1449618392771864910,6.0,6.0,0.0
1449618392805171540,6.0,6.0,0.0
1449618392838299870,6.0,6.0,0.0
1449618392871984484,6.0,6.0,0.0
1449618392904979461,6.0,6.0,0.0
1449618392938310266,6.0,6.0,0.0
1449618392971684102,6.0,6.0,0.0
1449618393005173633,6.0,6.0,0.0
1449618393039186944,6.0,6.0,0.0
1449618393072111203,6.0,6.0,0.0
1449618393105047672,6.0,6.0,0.0
1449618393138293990,6.0,6.0,0.0
1449618393172764040,6.0,6.0,0.0
1449618393205140358,6.0,6.0,0.0
1449618393238294769,6.0,6.0,0.0
1449618393272143240,6.0,6.0,0.0
1449618393305795422,6.0,6.0,0.0
1449618393338568647,6.0,6.0,0.0
1449618393371871872,6.0,6.0,0.0
1449618393405033083,6.0,6.0,0.0
1449618393438498086,6.0,6.0,0.0
1449618393471714001,6.0,6.0,0.0
1449618393505339393,6.0,6.0,0.0
1449618393538593577,6.0,6.0,0.0
1449618393571513955,6.0,6.0,0.0
1449618393604809107,6.0,6.0,0.0
1449618393638320337,6.0,6.0,0.0
1449618393672162838,6.0,6.0,0.0
1449618393704985769,6.0,6.0,0.0
1449618393738513772,6.0,6.0,0.0
1449618393771660790,6.0,6.0,0.0
1449618393805041365,6.0,6.0,0.0
1449618393838681677,6.0,6.0,0.0
1449618393871783487,6.0,6.0,0.0
1449618393905335727,6.0,6.0,0.0
1449618393938632841,6.0,6.0,0.0
1449618393971776609,6.0,6.0,0.0
1449618394004796177,6.0,6.0,0.0
1449618394038675751,6.0,6.0,0.0
1449618394071836968,6.0,6.0,0.0
1449618394105638660,6.0,6.0,0.0
1449618394138423729,6.0,6.0,0.0
1449618394172158053,6.0,6.0,0.0
1449618394205767929,6.0,6.0,0.0
1449618394238581092,6.0,6.0,0.0
1449618394271910851,6.0,6.0,0.0
1449618394305667284,6.0,6.0,0.0
1449618394339992839,6.0,6.0,0.0
1449618394371607467,6.0,6.0,0.0
1449618394405169995,6.0,6.0,0.0
1449618394438362637,6.0,6.0,0.0
1449618394472207766,6.0,6.0,0.0
1449618394506816655,6.0,6.0,0.0
1449618394538802997,6.0,6.0,0.0
1449618394572352329,6.0,6.0,0.0
1449618394605835722,6.0,6.0,0.0
1449618394639009464,6.0,6.0,0.0
1449618394671838156,6.0,6.0,0.0
1449618394705204391,6.0,6.0,0.0
1449618394739340004,6.0,6.0,0.0
1449618394771683219,6.0,6.0,0.0
1449618394804879959,6.0,6.0,0.0
1449618394841042715,6.0,6.0,0.0
1449618394872612771,6.0,6.0,0.0
1449618394905221157,6.0,6.0,0.0
1449618394938168327,6.0,6.0,0.0
1449618394971702531,6.0,6.0,0.0
1449618395004921679,6.0,6.0,0.0
1449618395039057520,6.03933205578,6.00484960142,0.0
1449618395072003752,6.03933205578,6.00484960142,0.0
1449618395105540982,6.06187136714,5.99564147379,0.0
1449618395138545518,6.06187136714,5.99564147379,0.0
1449618395195881528,6.06187136714,5.99564147379,0.0
1449618395209231687,6.06187136714,5.99564147379,0.0
1449618395239100667,6.06187136714,5.99564147379,0.0
1449618395271748926,6.06187136714,5.99564147379,0.0
1449618395305343506,6.0,6.0,0.0
1449618395338371361,6.0,6.0,0.0
1449618395371761865,6.0,6.0,0.0
1449618395405216627,6.6003085737,5.95374507728,0.0
1449618395438494244,6.6003085737,5.95374507728,0.0
1449618395472162699,6.6003085737,5.95374507728,0.0
1449618395504822428,6.60024202436,5.95272913643,0.0
1449618395539181227,6.60024202436,5.95272913643,0.0
1449618395571718123,6.60024202436,5.95272913643,0.0
1449618395605513832,6.60024202436,5.95272913643,0.0
1449618395638673141,6.60024202436,5.95272913643,0.0
1449618395672794246,6.60024202436,5.95272913643,0.0
1449618395704984421,6.60027942305,5.95330006405,0.0
1449618395739019298,6.60027942305,5.95330006405,0.0
1449618395773892895,6.60027942305,5.95330006405,0.0
1449618395811202647,6.60027942305,5.95330006405,0.0
1449618395838161014,6.60989971152,5.96371200139,0.0
1449618395872639279,6.0,6.0,0.0
1449618395905949594,6.0,6.0,0.0
1449618395941870506,6.0,6.0,0.0
1449618395972873569,6.0,6.0,0.0
1449618396005387878,6.0,6.0,0.0
1449618396038222315,6.6002947199,5.974340907,0.0
1449618396076622564,6.6002947199,5.974340907,0.0
1449618396105126561,6.0,6.0,0.0
1449618396138338688,6.0,6.0,0.0
1449618396171654054,6.0,6.0,0.0
1449618396204835026,6.0,6.0,0.0
1449618396238369420,6.0,6.0,0.0
1449618396271903858,6.0,6.0,0.0
1449618396305274074,6.0,6.0,0.0
1449618396339625408,6.0,6.0,0.0
1449618396374833979,6.52323422456,5.98430971056,0.0
1449618396405067454,6.52345078246,5.98490059076,0.0
1449618396439194713,6.52345078246,5.98490059076,0.0
1449618396472142599,6.60991307825,5.98490059076,0.0
1449618396504858868,6.0,6.0,0.0
1449618396538912459,6.0,6.0,0.0
1449618396572012003,6.0,6.0,0.0
1449618396607144593,6.0,6.0,0.0
1449618396638627640,6.60032660544,5.98517956643,0.0
1449618396671727610,6.60022775441,5.9824850484,0.0
1449618396704958766,6.60022775441,5.9824850484,0.0
1449618396738355523,6.53270489483,5.99292494718,0.0
1449618396772452172,6.53269070987,5.99289496094,0.0
1449618396804965043,6.53269070987,5.99289496094,0.0
1449618396844264822,6.53269070987,5.99289496094,0.0
1449618396872030281,6.60987073847,5.99286523118,0.0
1449618396905654608,6.60989553358,5.99333697082,0.0
1449618396941345877,6.60027106716,5.99333697082,0.0
1449618396972193001,6.60027106716,5.99333697082,0.0
1449618397011927564,6.60027106716,5.99333697082,0.0
1449618397038430259,6.60027106716,5.99483834328,0.0
1449618397071754596,6.60027106716,5.99483834328,0.0
1449618397105328478,6.0,6.0,0.0
1449618397139147730,6.0,6.0,0.0
1449618397179071629,6.0,6.0,0.0
1449618397204974559,6.0,6.0,0.0
1449618397239105913,6.0,6.0,0.0
1449618397272105864,6.60992719111,5.98528566162,0.0
1449618397310320768,6.0,6.0,0.0
1449618397338859655,6.0,6.0,0.0
1449618397371605280,6.0,6.0,0.0
1449618397404804487,6.0,6.0,0.0
1449618397438711204,6.0,6.0,0.0
1449618397474105968,6.0,6.0,0.0
1449618397505006414,6.0,6.0,0.0
1449618397538358698,6.0,6.0,0.0
1449618397575557567,6.60993125476,5.98363878493,0.0
1449618397605524854,6.0,6.0,0.0
1449618397639059725,6.0,6.0,0.0
1449618397671701144,6.0,6.0,0.0
1449618397705273823,6.0,6.0,0.0
1449618397738450130,6.6099102021,5.99361604692,0.0
1449618397772081084,6.6099102021,5.99361604692,0.0
1449618397805055167,6.6099102021,5.99361604692,0.0
1449618397838653537,6.0,6.0,0.0
1449618397871946585,6.0,6.0,0.0
1449618397905173104,6.0,6.0,0.0
1449618397939019194,6.0,6.0,0.0
1449618397972710634,6.0,6.0,0.0
1449618398005508045,6.60031696358,5.98338194855,0.0
1449618398038689093,6.0,6.0,0.0
1449618398072070814,6.0,6.0,0.0
1449618398105425659,6.0,6.0,0.0
1449618398138298356,6.0,6.0,0.0
1449618398172029581,6.0,6.0,0.0
1449618398205230608,6.0,6.0,0.0
1449618398242052969,6.60992214159,5.99384320189,0.0
1449618398272457061,6.60992214159,5.99384320189,0.0
1449618398305231314,6.60992265856,5.99385303746,0.0
1449618398338620563,6.60992265856,5.99385303746,0.0
1449618398373930968,6.60992265856,5.99385303746,0.0
1449618398408732446,6.60991504765,5.99370823593,0.0
1449618398439067760,6.60991504765,5.99370823593,0.0
1449618398471879372,6.55228533353,5.99370823593,0.0
1449618398505198581,6.55228533353,5.99370823593,0.0
1449618398538466984,6.60991504765,5.99370823593,0.0
1449618398573160648,6.60993325581,5.99405465561,0.0
1449618398605668051,6.53323930232,5.99405465561,0.0
1449618398639080470,6.53323930232,5.99405465561,0.0
1449618398672670377,6.60993325581,5.99405465561,0.0
1449618398704969590,6.60993325581,5.99405465561,0.0
1449618398738526253,6.60993325581,5.99405465561,0.0
1449618398772428169,6.60993325581,5.99405465561,0.0
1449618398805183251,6.53326631125,5.99411175102,0.0
1449618398838911947,6.53326631125,5.99411175102,0.0
1449618398871769628,6.53326631125,5.99411175102,0.0
1449618398905576843,6.53326631125,5.99411175102,0.0
1449618398940512053,6.60035251361,5.98373936503,0.0
1449618398972576945,6.60035251361,5.98373936503,0.0
1449618399005384823,6.0,6.0,0.0
1449618399042331966,6.0,6.0,0.0
1449618399077753971,6.0,6.0,0.0
1449618399105053046,6.0,6.0,0.0
1449618399141854052,6.60990466492,5.99351069921,0.0
1449618399172231968,6.0,6.0,0.0
1449618399205008571,6.0,6.0,0.0
1449618399238154463,6.0,6.0,0.0
1449618399271987807,6.0,6.0,0.0
1449618399304996025,6.0,6.0,0.0
1449618399346081930,6.0,6.0,0.0
1449618399371711618,6.0,6.0,0.0
1449618399405705661,6.0,6.0,0.0
1449618399438794780,6.0,6.0,0.0
1449618399473639325,6.0,6.0,0.0
1449618399505724429,6.60992718174,5.99566761358,0.0
1449618399538395025,6.60992718174,5.99566761358,0.0
1449618399572080970,6.60992718174,5.99566761358,0.0
1449618399605829285,6.60992718174,5.99566761358,0.0
1449618399638224096,6.60992718174,5.99566761358,0.0
1449618399672346835,6.0,6.0,0.0
1449618399705058476,6.0,6.0,0.0
1449618399738590809,6.0,6.0,0.0
1449618399772098389,6.0,6.0,0.0
1449618399804850346,6.0,6.0,0.0
1449618399839212581,6.0,6.0,0.0
1449618399873042516,6.0,6.0,0.0
1449618399904931949,6.0,6.0,0.0
1449618399938740115,6.0,6.0,0.0
1449618399971823285,6.0,6.0,0.0
1449618400005374318,6.0,6.0,0.0
1449618400038422827,6.0,6.0,0.0
1449618400071904862,6.0,6.0,0.0
1449618400105481282,6.0,6.0,0.0
1449618400138346360,6.0,6.0,0.0
1449618400171627987,6.0,6.0,0.0
1449618400205906375,6.60995357288,5.9944411982,0.0
1449618400239391128,6.60995357288,5.99635913548,0.0
1449618400271701076,6.60993994709,5.99600210155,0.0
1449618400305771166,6.60993994709,5.99600210155,0.0
1449618400338583476,6.60035989418,5.9838135685,0.0
1449618400373648807,6.60035989418,5.9838135685,0.0
1449618400405343859,6.60993994709,5.99418196053,0.0
1449618400440863250,6.60993994709,5.99418196053,0.0
1449618400471611939,6.60993994709,5.99418196053,0.0
1449618400505448117,6.60993994709,5.99418196053,0.0
1449618400539012673,6.0,6.0,0.0
1449618400573915427,6.0,6.0,0.0
1449618400605613870,6.0,6.0,0.0
1449618400643865260,6.0,6.0,0.0
1449618400675953421,6.0,6.0,0.0
1449618400705422806,6.0,6.0,0.0
1449618400740048799,6.0,6.0,0.0
1449618400772529996,6.0,6.0,0.0
1449618400805047314,6.0,6.0,0.0
1449618400838309688,6.60995717524,5.99450973499,0.0
1449618400877779261,6.60995717524,5.99450973499,0.0
1449618400906708794,6.60995717524,5.99450973499,0.0
1449618400939153353,6.60994672159,5.99431084895,0.0
1449618400972707388,6.60994672159,5.99431084895,0.0
1449618401006743252,6.60994672159,5.98394978889,0.0
1449618401038651252,6.60994672159,5.98394978889,0.0
1449618401071681686,6.60994672159,5.99617961255,0.0
1449618401105929722,6.60994672159,5.99617961255,0.0
1449618401139300549,6.0,6.0,0.0
1449618401173727893,6.0,6.0,0.0
1449618401206711518,6.60995017801,5.99627018032,0.0
1449618401238282760,6.60995017801,5.99627018032,0.0
1449618401272611700,6.60995017801,5.99627018032,0.0
1449618401305033620,6.0,6.0,0.0
1449618401338917632,6.0,6.0,0.0
1449618401380987590,6.0,6.0,0.0
1449618401405115811,6.0,6.0,0.0
1449618401438656819,6.0,6.0,0.0
1449618401472801558,6.0,6.0,0.0
1449618401505427548,6.0,6.0,0.0
1449618401538498736,6.0,6.0,0.0
1449618401571533191,6.0,6.0,0.0
1449618401605998884,6.0,6.0,0.0
1449618401638708185,6.0,6.0,0.0
1449618401672658354,6.0,6.0,0.0
1449618401704947068,6.0,6.0,0.0
1449618401739941564,6.0,6.0,0.0
1449618401777387128,6.0,6.0,0.0
1449618401809644911,6.0,6.0,0.0
1449618401838243102,6.0,6.0,0.0
1449618401874978568,6.0,6.0,0.0
1449618401905598407,6.0,6.0,0.0
1449618401942656474,6.0,6.0,0.0
1449618401979360254,6.0,6.0,0.0
1449618402005001579,6.0,6.0,0.0
1449618402038290980,6.0,6.0,0.0
1449618402072365211,6.0,6.0,0.0
1449618402105347472,6.0,6.0,0.0
1449618402140622826,6.0,6.0,0.0
1449618402172086254,6.0,6.0,0.0
1449618402205085394,6.0,6.0,0.0
1449618402238418476,6.0,6.0,0.0
1449618402271914834,6.0,6.0,0.0
1449618402306412903,6.0,6.0,0.0
1449618402339039389,6.0,6.0,0.0
1449618402371563548,6.0,6.0,0.0
1449618402406535944,6.0,6.0,0.0
1449618402438663411,6.0,6.0,0.0
1449618402471861392,6.0,6.0,0.0
1449618402505090423,6.0,6.0,0.0
1449618402539016489,6.0,6.0,0.0
1449618402572285555,6.0,6.0,0.0
1449618402605484315,6.0,6.0,0.0
1449618402638679799,6.0,6.0,0.0
1449618402673835352,6.0,6.0,0.0
1449618402707265230,6.0,6.0,0.0
1449618402738699044,6.0,6.0,0.0
1449618402772097676,6.0,6.0,0.0
1449618402810513531,6.0,6.0,0.0
1449618402838677877,6.0,6.0,0.0
1449618402871942842,6.0,6.0,0.0
1449618402909245977,6.0,6.0,0.0
1449618402939343784,6.0,6.0,0.0
1449618402973770363,6.0,6.0,0.0
1449618403005020644,6.0,6.0,0.0
1449618403045727698,6.0,6.0,0.0
1449618403071932868,6.0,6.0,0.0
1449618403105073776,6.0,6.0,0.0
1449618403138215460,6.0,6.0,0.0
1449618403171769338,6.0,6.0,0.0
1449618403204866884,6.0,6.0,0.0
1449618403240189635,6.0,6.0,0.0
1449618403271993867,6.0,6.0,0.0
1449618403306240061,6.0,6.0,0.0
1449618403338818847,6.0,6.0,0.0
1449618403372313982,6.0,6.0,0.0
1449618403409681710,6.0,6.0,0.0
1449618403438151004,6.0,6.0,0.0
1449618403472337238,6.0,6.0,0.0
1449618403504859786,6.0,6.0,0.0
1449618403540561741,6.0,6.0,0.0
1449618403571984012,6.0,6.0,0.0
1449618403605185977,6.0,6.0,0.0
1449618403638776502,6.0,6.0,0.0
1449618403671748726,6.0,6.0,0.0
1449618403705421808,6.0,6.0,0.0
1449618403741622418,6.0,6.0,0.0
1449618403772096020,6.0,6.0,0.0
1449618403805108869,6.0,6.0,0.0
1449618403838401685,6.0,6.0,0.0
1449618403872693678,6.0,6.0,0.0
1449618403904936338,6.0,6.0,0.0
1449618403938782762,6.0,6.0,0.0
1449618403971812536,6.0,6.0,0.0
1449618404005933369,6.0,6.0,0.0
1449618404038324092,6.0,6.0,0.0
1449618404071693085,6.0,6.0,0.0
1449618404105286685,6.0,6.0,0.0
1449618404141077734,6.0,6.0,0.0
1449618404172320307,6.0,6.0,0.0
1449618404206015237,6.0,6.0,0.0
1449618404238274272,6.0,6.0,0.0
1449618404271704092,6.0,6.0,0.0
1449618404305348542,6.0,6.0,0.0
1449618404340700254,6.0,6.0,0.0
1449618404371564006,6.0,6.0,0.0
1449618404405531210,6.0,6.0,0.0
1449618404440696672,6.0,6.0,0.0
1449618404472100033,6.0,6.0,0.0
1449618404504880350,6.0,6.0,0.0
1449618404538234836,6.0,6.0,0.0
1449618404571637780,6.0,6.0,0.0
1449618404605113574,6.0,6.0,0.0
1449618404638308235,6.0,6.0,0.0
1449618404671933108,6.0,6.0,0.0
1449618404704980395,6.0,6.0,0.0
1449618404740207301,6.0,6.0,0.0
1449618404771949832,6.0,6.0,0.0
1449618404805023127,6.0,6.0,0.0
1449618404845616848,6.0,6.0,0.0
1449618404871852719,6.0,6.0,0.0
1449618404905402196,6.0,6.0,0.0
1449618404938547374,6.0,6.0,0.0
1449618404971821265,6.0,6.0,0.0
1449618405005674254,6.0,6.0,0.0
1449618405041822272,6.0,6.0,0.0
1449618405071730649,6.0,6.0,0.0
1449618405104982120,6.0,6.0,0.0
1449618405138554516,6.0,6.0,0.0
1449618405171468374,6.0,6.0,0.0
1449618405205138159,6.0,6.0,0.0
1449618405238734078,6.0,6.0,0.0
1449618405271661789,6.0,6.0,0.0
1449618405305371587,6.0,6.0,0.0
1449618405347114043,6.0,6.0,0.0
1449618405371747467,6.0,6.0,0.0
1449618405405233503,6.0,6.0,0.0
1449618405442340920,6.0,6.0,0.0
1449618405471582670,6.0,6.0,0.0
1449618405505167945,6.0,6.0,0.0
1449618405538390065,6.0,6.0,0.0
1449618405571736227,6.0,6.0,0.0
1449618405604894234,6.0,6.0,0.0
1449618405641595383,6.0,6.0,0.0
1449618405671651531,6.0,6.0,0.0
1449618405705503954,6.0,6.0,0.0
1449618405738680578,6.0,6.0,0.0
1449618405771521285,6.0,6.0,0.0
1449618405805131256,6.0,6.0,0.0
1449618405838170564,6.0,6.0,0.0
1449618405875072334,6.0,6.0,0.0
1449618405904946999,6.0,6.0,0.0
1449618405939003935,6.0,6.0,0.0
1449618405971598419,6.0,6.0,0.0
1449618406005109572,6.0,6.0,0.0
1449618406038954384,6.0,6.0,0.0
1449618406072092576,6.0,6.0,0.0
1449618406105407978,6.0,6.0,0.0
1449618406148671513,6.0,6.0,0.0
1449618406171660613,6.0,6.0,0.0
1449618406205229972,6.0,6.0,0.0
1449618406240420159,6.0,6.0,0.0
1449618406272138341,6.0,6.0,0.0
1449618406305043842,6.0,6.0,0.0
1449618406339147969,6.0,6.0,0.0
1449618406372092922,6.0,6.0,0.0
1449618406404918719,6.0,6.0,0.0
1449618406438668689,6.0,6.0,0.0
1449618406471734301,6.0,6.0,0.0
1449618406505462221,6.0,6.0,0.0
1449618406538560612,6.0,6.0,0.0
1449618406571903230,6.0,6.0,0.0
1449618406605025879,6.0,6.0,0.0
1449618406640912317,6.0,6.0,0.0
1449618406672230906,6.0,6.0,0.0
1449618406709387405,6.0,6.0,0.0
1449618406741831805,6.0,6.0,0.0
1449618406771813710,6.0,6.0,0.0
1449618406805114237,6.0,6.0,0.0
1449618406840782250,6.0,6.0,0.0
1449618406873787867,6.0,6.0,0.0
1449618406906696946,6.0,6.0,0.0
1449618406939219616,6.0,6.0,0.0
1449618406971670625,6.0,6.0,0.0
1449618407005880060,6.0,6.0,0.0
1449618407040247254,6.0,6.0,0.0
1449618407071585814,6.0,6.0,0.0
1449618407107967119,6.0,6.0,0.0
1449618407148688736,6.0,6.0,0.0
1449618407172070347,6.0,6.0,0.0
1449618407204891949,6.0,6.0,0.0
1449618407242307968,6.0,6.0,0.0
1449618407271707978,6.0,6.0,0.0
1449618407305400618,6.0,6.0,0.0
1449618407339467191,6.0,6.0,0.0
1449618407372575610,6.0,6.0,0.0
1449618407405387840,6.0,6.0,0.0
1449618407439558831,6.0,6.0,0.0
1449618407472079926,6.0,6.0,0.0
1449618407504890955,6.0,6.0,0.0
1449618407538610099,6.0,6.0,0.0
1449618407572020011,6.0,6.0,0.0
1449618407604997343,6.0,6.0,0.0
1449618407638180679,6.0,6.0,0.0
1449618407671866198,6.0,6.0,0.0
1449618407704937270,6.0,6.0,0.0
1449618407738820624,6.0,6.0,0.0
1449618407779063409,6.0,6.0,0.0
1449618407804929905,6.0,6.0,0.0
1449618407838924196,6.0,6.0,0.0
1449618407871929582,6.0,6.0,0.0
1449618407905175149,6.0,6.0,0.0
1449618407938589932,6.0,6.0,0.0
1449618407972120944,6.0,6.0,0.0
1449618408004956250,6.0,6.0,0.0
1449618408038713767,6.0,6.0,0.0
1449618408071667940,6.0,6.0,0.0
1449618408109984843,6.0,6.0,0.0
1449618408139369360,6.0,6.0,0.0
1449618408175065078,6.0,6.0,0.0
1449618408205023982,6.0,6.0,0.0
1449618408239858173,6.0,6.0,0.0
1449618408271743622,6.0,6.0,0.0
1449618408305165011,6.0,6.0,0.0
1449618408339986877,6.0,6.0,0.0
1449618408373643216,6.0,6.0,0.0
1449618408405329301,6.0,6.0,0.0
1449618408439532663,6.0,6.0,0.0
1449618408471688618,6.0,6.0,0.0
1449618408505492859,6.0,6.0,0.0
1449618408538554478,6.0,6.0,0.0
1449618408574832215,6.0,6.0,0.0
1449618408605252020,6.0,6.0,0.0
1449618408638982468,6.0,6.0,0.0
1449618408672401996,6.0,6.0,0.0
1449618408705546305,6.0,6.0,0.0
1449618408738536092,6.0,6.0,0.0
1449618408771789233,6.0,6.0,0.0
1449618408805225752,6.0,6.0,0.0
1449618408838503124,6.0,6.0,0.0
1449618408873276631,6.0,6.0,0.0
1449618408906084200,6.0,6.0,0.0
1449618408938829293,6.0,6.0,0.0
1449618408971568305,6.0,6.0,0.0
1449618409005206709,6.0,6.0,0.0
1449618409042191946,6.0,6.0,0.0
1449618409072694359,6.0,6.0,0.0
1449618409104931137,6.0,6.0,0.0
1449618409138774300,6.0,6.0,0.0
1449618409177096819,6.0,6.0,0.0
1449618409207254725,6.0,6.0,0.0
1449618409241468194,6.0,6.0,0.0
1449618409273810627,6.0,6.0,0.0
1449618409305240015,6.0,6.0,0.0
1449618409341658543,6.0,6.0,0.0
1449618409373935296,6.0,6.0,0.0
1449618409405204333,6.0,6.0,0.0
1449618409438679490,6.0,6.0,0.0
1449618409471801899,6.0,6.0,0.0
1449618409505450378,6.0,6.0,0.0
1449618409539141574,6.0,6.0,0.0
1449618409576097431,6.0,6.0,0.0
1449618409605427435,6.0,6.0,0.0
1449618409638719156,6.0,6.0,0.0
1449618409673792157,6.0,6.0,0.0
1449618409705005222,6.0,6.0,0.0
1449618409740490559,6.0,6.0,0.0
1449618409772302696,6.0,6.0,0.0
1449618409805221544,6.0,6.0,0.0
1449618409838302267,6.0,6.0,0.0
1449618409871654200,6.0,6.0,0.0
1449618409905391534,6.0,6.0,0.0
1449618409938691484,6.0,6.0,0.0
1449618409971558640,6.0,6.0,0.0
1449618410005502439,6.0,6.0,0.0
1449618410039531278,6.0,6.0,0.0
1449618410075049845,6.0,6.0,0.0
1449618410104917353,6.0,6.0,0.0
1449618410138863675,6.0,6.0,0.0
1449618410177805460,6.0,6.0,0.0
1449618410205348590,6.0,6.0,0.0
1449618410238370228,6.0,6.0,0.0
1449618410272087220,6.0,6.0,0.0
1449618410305188048,6.0,6.0,0.0
1449618410338746649,6.0,6.0,0.0
1449618410371844970,6.0,6.0,0.0
1449618410405653198,6.0,6.0,0.0
1449618410438428256,6.0,6.0,0.0
1449618410473631869,6.0,6.0,0.0
1449618410505084213,6.0,6.0,0.0
1449618410539308886,6.0,6.0,0.0
1449618410571709882,6.0,6.0,0.0
1449618410606915363,6.0,6.0,0.0
1449618410638696527,6.0,6.0,0.0
1449618410672138060,6.0,6.0,0.0
1449618410705199325,6.0,6.0,0.0
1449618410743217046,6.0,6.0,0.0
1449618410772576138,6.0,6.0,0.0
1449618410807284217,6.0,6.0,0.0
1449618410838909532,6.0,6.0,0.0
1449618410872007410,6.0,6.0,0.0
1449618410905615313,6.0,6.0,0.0
1449618410940367934,6.0,6.0,0.0
1449618410971948423,6.0,6.0,0.0
1449618411005254251,6.0,6.0,0.0
1449618411038317614,6.0,6.0,0.0
1449618411071724505,6.0,6.0,0.0
1449618411107165922,6.0,6.0,0.0
1449618411138575954,6.0,6.0,0.0
1449618411177816696,6.0,6.0,0.0
1449618411205250069,6.0,6.0,0.0
1449618411240953013,6.0,6.0,0.0
1449618411271860839,6.0,6.0,0.0
1449618411305951507,6.0,6.0,0.0
1449618411341695020,6.0,6.0,0.0
1449618411371638952,6.0,6.0,0.0
1449618411405655088,6.0,6.0,0.0
1449618411440248768,6.0,6.0,0.0
1449618411471849098,6.0,6.0,0.0
1449618411505412356,6.0,6.0,0.0
1449618411538382091,6.0,6.0,0.0
1449618411571730936,6.0,6.0,0.0
1449618411605436659,6.0,6.0,0.0
1449618411641316487,6.0,6.0,0.0
1449618411679472407,6.0,6.0,0.0
1449618411705368206,6.0,6.0,0.0
1449618411738680703,6.0,6.0,0.0
1449618411771662950,6.0,6.0,0.0
1449618411804975949,6.0,6.0,0.0
1449618411838196437,6.0,6.0,0.0
1449618411871823344,6.0,6.0,0.0
1449618411922733105,6.0,6.0,0.0
1449618411939149935,6.0,6.0,0.0
1449618411971794289,6.0,6.0,0.0
1449618412005362175,6.0,6.0,0.0
1449618412038373129,6.0,6.0,0.0
1449618412072289876,6.0,6.0,0.0
1449618412105396707,6.0,6.0,0.0
1449618412142959367,6.0,6.0,0.0
1449618412171507257,6.0,6.0,0.0
1449618412205197862,6.0,6.0,0.0
1449618412239044003,6.0,6.0,0.0
1449618412271919822,6.0,6.0,0.0
1449618412305078095,6.0,6.0,0.0
1449618412338472155,6.0,6.0,0.0
1449618412372795486,6.0,6.0,0.0
1449618412405758266,6.0,6.0,0.0
1449618412438777822,6.0,6.0,0.0
1449618412471716789,6.0,6.0,0.0
1449618412505342145,6.0,6.0,0.0
1449618412539548312,6.0,6.0,0.0
1449618412572587453,6.0,6.0,0.0
1449618412605703607,6.0,6.0,0.0
1449618412639172739,6.0,6.0,0.0
1449618412671622173,6.0,6.0,0.0
1449618412705490673,6.0,6.0,0.0
1449618412741992173,6.0,6.0,0.0
1449618412771798044,6.0,6.0,0.0
1449618412805186647,6.0,6.0,0.0
1449618412839415612,6.0,6.0,0.0
1449618412872580584,6.0,6.0,0.0
1449618412907034017,6.0,6.0,0.0
1449618412938413866,6.0,6.0,0.0
1449618412971771311,6.0,6.0,0.0
1449618413005217435,6.0,6.0,0.0
1449618413038585817,6.0,6.0,0.0
1449618413073961439,6.0,6.0,0.0
1449618413105476460,6.0,6.0,0.0
1449618413138743254,6.0,6.0,0.0
1449618413171808599,6.0,6.0,0.0
1449618413206549919,6.0,6.0,0.0
1449618413239186808,6.0,6.0,0.0
1449618413272637235,6.0,6.0,0.0
1449618413305531817,6.0,6.0,0.0
1449618413338892342,6.0,6.0,0.0
1449618413373837041,6.0,6.0,0.0
1449618413404886716,6.0,6.0,0.0
1449618413438881558,6.0,6.0,0.0
1449618413471690639,6.0,6.0,0.0
1449618413505155994,6.0,6.0,0.0
1449618413538666996,6.0,6.0,0.0
1449618413577379220,6.0,6.0,0.0
1449618413604867871,6.0,6.0,0.0
1449618413639709710,6.0,6.0,0.0
1449618413672121899,6.0,6.0,0.0
1449618413706323746,6.0,6.0,0.0
1449618413738365118,6.0,6.0,0.0
1449618413771638500,6.0,6.0,0.0
1449618413804962943,6.0,6.0,0.0
1449618413838894056,6.0,6.0,0.0
1449618413871849769,6.0,6.0,0.0
1449618413905032105,6.0,6.0,0.0
1449618413940390761,6.0,6.0,0.0
1449618413972042420,6.0,6.0,0.0
1449618414005725968,6.0,6.0,0.0
1449618414038375349,6.0,6.0,0.0
1449618414071886915,6.0,6.0,0.0
1449618414105135902,6.0,6.0,0.0
1449618414139580639,6.0,6.0,0.0
1449618414172083763,6.0,6.0,0.0
1449618414205212628,6.0,6.0,0.0
1449618414238216345,6.0,6.0,0.0
1449618414272371178,6.0,6.0,0.0
1449618414305489058,6.0,6.0,0.0
1449618414338410529,6.0,6.0,0.0
1449618414371914425,6.0,6.0,0.0
1449618414405457714,6.0,6.0,0.0
1449618414440897236,6.0,6.0,0.0
1449618414471719751,6.0,6.0,0.0
1449618414505363219,6.0,6.0,0.0
1449618414538778891,6.0,6.0,0.0
1449618414571739625,6.0,6.0,0.0
1449618414609208393,6.0,6.0,0.0
1449618414810495158,6.0,6.0,0.0
1449618414810523426,6.0,6.0,0.0
1449618414835254753,6.0,6.0,0.0
1449618414868667699,6.0,6.0,0.0
1449618414901652583,6.0,6.0,0.0
1449618414934991493,6.0,6.0,0.0
1449618414968557767,6.0,6.0,0.0
1449618415001743971,6.0,6.0,0.0
1449618415035107419,6.0,6.0,0.0
1449618415069054912,6.0,6.0,0.0
1449618415102002496,6.0,6.0,0.0
1449618415135196779,6.0,6.0,0.0
1449618415169770019,6.0,6.0,0.0
1449618415202389751,6.0,6.0,0.0
1449618415235208601,6.60997173826,6.01545477338,0.0
1449618415270209396,6.60997173826,6.01545477338,0.0
1449618415302749812,6.0,6.0,0.0
1449618415341666969,6.0,6.0,0.0
1449618415369656684,6.0,6.0,0.0
1449618415403366304,6.34205038811,6.00476809824,0.0
1449618415436530868,6.34205038811,6.00476809824,0.0
1449618415468508983,6.34205038811,6.00476809824,0.0
1449618415502052164,6.34148017973,6.00441529218,0.0
1449618415537969898,6.3127174217,6.00441529218,0.0
1449618415568398915,6.0,6.0,0.0
1449618415605108213,6.0,6.0,0.0
1449618415635925592,6.0,6.0,0.0
1449618415668361166,6.0,6.0,0.0
1449618415704933525,6.33238006161,6.00470684675,0.0
1449618415734821791,6.33238006161,6.00470684675,0.0
1449618415768482049,6.33238006161,6.00470684675,0.0
1449618415801716644,6.33317091676,6.00517986306,0.0
1449618415835142209,6.30453599051,6.00517986306,0.0
1449618415868605654,6.30453599051,6.00517986306,0.0
1449618415901579107,6.3427158862,6.00517986306,0.0
1449618415935335827,6.3427158862,6.00517986306,0.0
1449618415968278297,6.3427158862,6.00517986306,0.0
1449618416002249979,6.3427158862,6.00517986306,0.0
1449618416035437602,6.3427158862,6.00517986306,0.0
1449618416073425706,6.3427158862,6.00517986306,0.0
1449618416102539467,6.3427158862,6.00517986306,0.0
1449618416135629028,6.3427158862,6.00517986306,0.0
1449618416182858079,6.33317091676,6.00517986306,0.0
1449618416202425458,6.33317091676,6.00517986306,0.0
1449618416235191506,6.33317091676,6.00517986306,0.0
1449618416273168236,6.33340946044,6.00532253781,0.0
1449618416303676678,6.33340946044,6.00532253781,0.0
1449618416335666998,6.33340946044,6.00532253781,0.0
1449618416368162037,6.33340946044,6.00532253781,0.0
1449618416402189770,6.33340946044,6.00532253781,0.0
1449618416435182886,6.30224340197,6.0039333048,0.0
1449618416473132475,6.34070118729,6.0039333048,0.0
1449618416501899581,6.34075476438,6.00396645464,0.0
1449618416535209486,6.34075476438,6.00396645464,0.0
1449618416568324077,6.34075476438,6.00396645464,0.0
1449618416601683130,6.3414579296,6.00440152532,0.0
1449618416634945422,6.3414579296,6.00440152532,0.0
1449618416668749204,6.3414579296,6.00440152532,0.0
1449618416703188960,6.34151764289,6.00443847183,0.0
1449618416736300964,6.31308898203,6.00462363559,0.0
1449618416768510334,6.31308898203,6.00462363559,0.0
1449618416801624143,6.31315807987,6.00466238052,0.0
1449618416835012329,6.33121579399,6.00401048967,0.0
1449618416870878227,6.34088056514,6.00404429157,0.0
1449618416902713992,6.34088056514,6.00404429157,0.0
1449618416934964157,6.34099113586,6.0041127052,0.0
1449618416968755532,6.34099113586,6.0041127052,0.0
1449618417001801964,6.34099113586,6.0041127052,0.0
1449618417035198195,6.31217778705,6.00575778727,0.0
1449618417068286605,6.31352423841,6.00681477302,0.0
1449618417106191056,6.31352423841,6.00681477302,0.0
1449618417136753034,6.31352423841,6.00681477302,0.0
1449618417168321475,6.34241048662,6.00698726369,0.0
1449618417201988462,6.34241048662,6.00698726369,0.0
1449618417235082606,6.33299509497,6.00710458385,0.0
1449618417268306149,6.30461115481,6.00522073245,0.0
1449618417301597488,6.30461115481,6.00522073245,0.0
1449618417335013840,6.30461115481,6.00522073245,0.0
1449618417368526480,6.30461115481,6.00522073245,0.0
1449618417403046682,6.0,6.0,0.0
1449618417436499158,6.0,6.0,0.0
1449618417471602764,6.0,6.0,0.0
1449618417505638824,6.0,6.0,0.0
1449618417535518674,6.0,6.0,0.0
1449618417568517391,6.0,6.0,0.0
1449618417603708146,6.0,6.0,0.0
1449618417635020787,6.0,6.0,0.0
1449618417672355005,6.0,6.0,0.0
1449618417706511395,6.34337897059,6.00782618824,0.0
1449618417735240530,6.34345411789,6.00563663048,0.0
1449618417768991028,6.34368289136,6.0057781799,0.0
1449618417805059880,6.0,6.0,0.0
1449618417834854584,6.0,6.0,0.0
1449618417868784467,6.0,6.0,0.0
1449618417902644201,6.33571411671,6.01206174559,0.0
1449618417935042326,6.33571411671,6.01206174559,0.0
1449618417969662790,6.33571411671,6.01206174559,0.0
1449618418002628730,6.33571411671,6.01206174559,0.0
1449618418036257533,6.33571411671,6.01206174559,0.0
1449618418069710178,6.33604191646,6.00965584092,0.0
1449618418106669250,6.61006455214,6.00950063612,0.0
1449618418135067253,6.37375913974,6.0095786876,0.0
1449618418169048870,6.34549307266,6.01241675392,0.0
1449618418201817411,6.34549307266,6.01241675392,0.0
1449618418235537605,6.34549307266,6.00965747527,0.0
1449618418269902463,6.34558458885,6.00973674883,0.0
1449618418301889363,6.34558458885,6.00973674883,0.0
1449618418334888825,6.34558458885,6.00973674883,0.0
1449618418372197270,6.61952,6.00981677332,0.0
1449618418402130137,6.0,6.0,0.0
1449618418436185457,6.0,6.0,0.0
1449618418477947813,6.0,6.0,0.0
1449618418502566884,6.0,6.0,0.0
1449618418535281266,6.0,6.0,0.0
1449618418568775843,6.0,6.0,0.0
1449618418601758239,6.0,6.0,0.0
1449618418635422818,6.55326257489,6.00925197863,0.0
1449618418669202090,6.55326257489,6.00925197863,0.0
1449618418701824893,6.55326257489,6.00925197863,0.0
1449618418735535543,6.0,6.0,0.0
1449618418768410378,6.0,6.0,0.0
1449618418801797630,6.0,6.0,0.0
1449618418846647683,6.0,6.0,0.0
1449618418868271996,6.5533483464,6.00955978209,0.0
1449618418904193940,6.0,6.0,0.0
1449618418937414597,6.0,6.0,0.0
1449618418968534450,6.0,6.0,0.0
1449618419007855785,6.0,6.0,0.0
1449618419036346056,6.61007347013,6.0097246605,0.0
1449618419068523988,6.61007347013,6.0097246605,0.0
1449618419106421139,6.0,6.0,0.0
1449618419137832315,6.0,6.0,0.0
1449618419168463150,6.0,6.0,0.0
1449618419205875013,6.0,6.0,0.0
1449618419243023542,6.0,6.0,0.0
1449618419268793919,6.0,6.0,0.0
1449618419301905850,6.0,6.0,0.0
1449618419337860421,6.0,6.0,0.0
1449618419368837686,6.61952,6.01002214249,0.0
1449618419401726284,6.0,6.0,0.0
1449618419435122466,6.0,6.0,0.0
1449618419469438330,6.0,6.0,0.0
1449618419501630268,6.0,6.0,0.0
1449618419539489682,6.33684805204,6.01328253279,0.0
1449618419571619423,6.33684805204,6.01033085884,0.0
1449618419611877196,6.33684805204,6.01033085884,0.0
1449618419635312670,6.33684805204,6.01033085884,0.0
1449618419668761008,6.61009760173,6.01033085884,0.0
1449618419705446590,6.61014816728,6.01160109105,0.0
1449618419737656891,6.0,6.0,0.0
1449618419768739696,6.0,6.0,0.0
1449618419801710007,6.0,6.0,0.0
1449618419836468013,6.61014816728,6.01160109105,0.0
1449618419868602363,6.61014816728,6.01160109105,0.0
1449618419902104778,6.61014816728,6.01160109105,0.0
1449618419935118235,6.61014816728,6.01160109105,0.0
1449618419968866468,6.61014816728,6.01160109105,0.0
1449618420002721058,6.61952,6.01160109105,0.0
1449618420035575124,6.61952,6.01160109105,0.0
1449618420070706172,6.0,6.0,0.0
1449618420103966387,6.0,6.0,0.0
1449618420135242256,6.0,6.0,0.0
1449618420168854615,6.0,6.0,0.0
1449618420201890541,6.0,6.0,0.0
1449618420235051488,6.61952,6.00943947297,0.0
1449618420268297352,6.61952,6.00943947297,0.0
1449618420301781902,6.61952,6.00951706801,0.0
1449618420335185551,6.60061041252,6.00951706801,0.0
1449618420369632826,6.60061041252,6.00951706801,0.0
1449618420404016160,6.61006520626,6.00951706801,0.0
1449618420434985003,6.61026234447,6.0144692804,0.0
1449618420472801130,6.61026234447,6.0144692804,0.0
1449618420508596579,6.61026234447,6.0144692804,0.0
1449618420536238167,6.61026234447,6.0144692804,0.0
1449618420568412869,6.61026234447,6.0144692804,0.0
1449618420602671196,6.61026234447,6.0144692804,0.0
1449618420635638900,6.57262037867,6.01139782739,0.0
1449618420669419089,6.57262037867,6.01139782739,0.0
1449618420704686529,6.61014376426,6.011490485,0.0
1449618420736569547,6.61014376426,6.011490485,0.0
1449618420768615271,6.61014747564,6.01158371683,0.0
1449618420802984257,6.5535403753,6.01024890552,0.0
1449618420835233526,6.5535403753,6.01024890552,0.0
1449618420873940235,6.5535403753,6.01024890552,0.0
1449618420901619933,6.5535403753,6.01024890552,0.0
1449618420939441655,6.5535403753,6.01024890552,0.0
1449618420968782546,6.61012167766,6.0109356584,0.0
1449618421002100012,6.61012167766,6.0109356584,0.0
1449618421041181603,6.61012167766,6.0109356584,0.0
1449618421073863663,6.61012167766,6.0109356584,0.0
1449618421101622153,6.61012522141,6.0110246792,0.0
1449618421135313444,6.61013599685,6.01129536366,0.0
1449618421168404065,6.61014331821,6.01475907441,0.0
1449618421201902983,6.61014331821,6.01475907441,0.0
1449618421236175849,6.61014331821,6.01475907441,0.0
1449618421268804674,6.61952,6.0114792801,0.0
1449618421302576935,6.61952,6.01185559394,0.0
1449618421335383417,6.61952,6.01185559394,0.0
1449618421368936693,6.61952,6.01185559394,0.0
1449618421403117740,6.61952,6.01185559394,0.0
1449618421435251226,6.61952,6.01185559394,0.0
1449618421468793432,6.61016515277,6.01202777541,0.0
1449618421514199247,6.61952,6.01272408411,0.0
1449618421537960261,6.61020519081,6.01675742319,0.0
1449618421568709757,6.61020519081,6.01675742319,0.0
1449618421601999317,6.61020519081,6.01675742319,0.0
1449618421635396067,6.61021355901,6.0170276975,0.0
1449618421668552064,6.61021355901,6.0170276975,0.0
1449618421705739993,6.61021355901,6.0170276975,0.0
1449618421735805157,6.61021355901,6.0170276975,0.0
1449618421768448869,6.61028386603,6.01929845976,0.0
1449618421803732825,6.61028386603,6.01929845976,0.0
1449618421835273283,6.61028386603,6.01929845976,0.0
1449618421869202841,6.61028386603,6.01929845976,0.0
1449618421904871004,6.61028386603,6.01929845976,0.0
1449618421935450998,6.61032285372,6.02055767638,0.0
1449618421968584114,6.61033682475,6.02100890971,0.0
1449618422002030428,6.61033682475,6.02100890971,0.0
1449618422037280964,6.61033682475,6.02100890971,0.0
1449618422068354541,6.61034715824,6.02134265881,0.0
1449618422105236039,6.61044195911,6.02440451814,0.0
1449618422135361414,6.61044195911,6.02440451814,0.0
1449618422168198369,6.61048996032,6.02595485182,0.0
1449618422202620734,6.61048996032,6.02595485182,0.0
1449618422235039825,6.61048996032,6.02595485182,0.0
1449618422272010635,6.61049920889,6.02625356011,0.0
1449618422305107563,6.61057733256,6.03517162346,0.0
1449618422334949503,6.61060480688,6.03625617448,0.0
1449618422368347873,6.61060480688,6.03625617448,0.0
1449618422405627119,6.61060480688,6.03625617448,0.0
1449618422435154152,6.61060480688,6.03625617448,0.0
1449618422468775941,6.61060480688,6.03625617448,0.0
1449618422502093143,6.61065694735,6.03831442436,0.0
1449618422538440353,6.61065694735,6.03831442436,0.0
1449618422568456939,6.55768614887,6.03948467698,0.0
1449618422602142687,6.6107170176,6.04068570259,0.0
1449618422635778208,6.6107170176,6.04068570259,0.0
1449618422668504384,6.6107170176,6.04068570259,0.0
1449618422702185662,6.61075607504,6.0422274985,0.0
1449618422736394391,6.61082124521,6.04480009683,0.0
1449618422815749304,6.55892601805,6.04647666915,0.0
1449618422815756815,6.55892601805,6.04647666915,0.0
1449618422835126955,6.55892601805,6.04647666915,0.0
1449618422868705123,6.55892601805,6.04647666915,0.0
1449618422903426672,6.55892601805,6.04647666915,0.0
1449618422937979591,6.61088977274,6.05614254126,0.0
1449618422968276911,6.61139922863,6.07990986932,0.0
1449618423003779329,6.61139922863,6.07990986932,0.0
1449618423035416422,6.61139922863,6.07990986932,0.0
1449618423070041103,6.61139922863,6.07990986932,0.0
1449618423101699537,6.61144594915,6.06946033993,0.0
1449618423138141962,6.61165452687,6.07769396417,0.0
1449618423168232355,6.61165452687,6.07769396417,0.0
1449618423201947732,6.61165452687,6.07769396417,0.0
1449618423241875551,6.61165452687,6.07769396417,0.0
1449618423268650871,6.61165452687,6.07769396417,0.0
1449618423305659927,6.61169313124,6.10209206367,0.0
1449618423335094671,6.61148624332,6.09266416344,0.0
1449618423379843601,6.61153462787,6.09486905146,0.0
1449618423402452691,6.61153462787,6.09486905146,0.0
1449618423434877062,6.61153462787,6.09486905146,0.0
1449618423473872908,6.61160894286,6.09825559216,0.0
1449618423501813676,6.61175076611,6.08990157767,0.0
1449618423537721539,6.61175076611,6.08990157767,0.0
1449618423568253374,6.61179059958,6.09143089638,0.0
1449618423602094230,6.61179059958,6.09143089638,0.0
1449618423635098491,6.61162681576,6.08514277711,0.0
1449618423669410554,6.61162681576,6.08514277711,0.0
1449618423703357738,6.61162681576,6.08514277711,0.0
1449618423736246934,6.61162681576,6.08514277711,0.0
1449618423768491295,6.61162681576,6.08514277711,0.0
1449618423802792131,6.61162681576,6.08514277711,0.0
1449618423834950663,6.61167837069,6.08712211517,0.0
1449618423868423082,6.61200724599,6.0997485584,0.0
1449618423902056264,6.61200724599,6.0997485584,0.0
1449618423935500274,6.61200724599,6.0997485584,0.0
1449618423968110117,6.6120652765,6.10197651202,0.0
1449618424001726553,6.61218416677,6.1065410423,0.0
1449618424035211125,6.61218416677,6.1065410423,0.0
1449618424069125327,6.61265584416,6.1246500571,0.0
1449618424103221194,6.61265584416,6.1246500571,0.0
1449618424135199757,6.61265584416,6.1246500571,0.0
1449618424168707954,6.61273795645,6.12780257795,0.0
1449618424202209662,6.61273795645,6.12780257795,0.0
1449618424234939689,6.61273795645,6.12780257795,0.0
1449618424268303771,6.61293933004,6.13553387361,0.0
1449618424302172533,6.56811074889,6.16592264917,0.0
1449618424337410437,6.6131633113,6.17596807607,0.0
1449618424371968303,6.6131633113,6.17596807607,0.0
1449618424401776252,6.6131633113,6.17596807607,0.0
1449618424435197225,6.61314438629,6.17512614428,0.0
1449618424468317088,6.61314438629,6.17512614428,0.0
1449618424501783604,6.5642083077,6.17870108494,0.0
1449618424535324880,6.5642083077,6.17870108494,0.0
1449618424569641281,6.5642083077,6.17870108494,0.0
1449618424602213535,6.61342780302,6.18114120839,0.0
1449618424635884251,6.61342780302,6.18114120839,0.0
1449618424668872579,6.61342780302,6.18114120839,0.0
1449618424703011168,6.61419277812,6.21600119081,0.0
1449618424735580906,6.59368861067,6.22333542367,0.0
1449618424785567174,6.59368861067,6.22333542367,0.0
1449618424806529031,6.57468424818,6.22900671544,0.0
1449618424835167048,6.57403757357,6.26806877113,0.0
1449618424868350405,6.57403757357,6.26806877113,0.0
1449618424902574585,6.5789784293,6.23239000637,0.0
1449618424937094438,6.57818236301,6.26909367296,0.0
1449618424971637917,6.57818236301,6.26909367296,0.0
1449618425001790541,6.57818236301,6.26909367296,0.0
1449618425035083361,6.57738639092,6.27562362865,0.0
1449618425068396287,6.57632467949,6.28433364323,0.0
1449618425101996631,6.5756622578,6.32319932135,0.0
1449618425135395055,6.5756622578,6.32319932135,0.0
1449618425168896170,6.57315339236,6.34624674898,0.0
1449618425201786860,6.57315339236,6.34624674898,0.0
1449618425234927531,6.43932583348,6.31977503444,0.0
1449618425268821713,6.43932583348,6.31977503444,0.0
1449618425302031023,6.44189555456,6.32708139709,0.0
1449618425335879039,6.30824272755,6.33115162368,0.0
1449618425370339784,6.31107362927,6.33629433121,0.0
1449618425401889709,6.25597642563,6.3697449165,0.0
1449618425435256311,6.25909557313,6.37443036309,0.0
1449618425468612764,6.25909557313,6.37443036309,0.0
1449618425502809834,6.25909557313,6.37443036309,0.0
1449618425535824344,6.25909557313,6.37443036309,0.0
1449618425568319733,6.26118526499,6.37756940728,0.0
1449618425607423787,6.0,6.0,0.0
1449618425634887086,6.0,6.0,0.0
1449618425668466357,6.0,6.0,0.0
1449618425702577799,6.0,6.0,0.0
1449618425735200672,6.0,6.0,0.0
1449618425768231313,6.0,6.0,0.0
1449618425802153753,6.0,6.0,0.0
1449618425835319919,6.0,6.0,0.0
1449618425868192379,6.0,6.0,0.0
1449618425908394621,6.0,6.0,0.0
1449618425935117220,6.0,6.0,0.0
1449618425968199617,6.0,6.0,0.0
1449618426001843147,6.0,6.0,0.0
1449618426034864066,6.0,6.0,0.0
1449618426070160481,6.0,6.0,0.0
1449618426102688219,6.0,6.0,0.0
1449618426137061422,6.0,6.0,0.0
1449618426169274580,6.0,6.0,0.0
1449618426201543414,6.0,6.0,0.0
1449618426235062918,6.0,6.0,0.0
1449618426268267238,6.0,6.0,0.0
1449618426302160793,6.0,6.0,0.0
1449618426335410385,6.0,6.0,0.0
1449618426368364663,6.0,6.0,0.0
1449618426402239975,6.0,6.0,0.0
1449618426438174576,6.0,6.0,0.0
1449618426468805456,6.0,6.0,0.0
1449618426502066035,6.0,6.0,0.0
1449618426542383875,6.0,6.0,0.0
1449618426570104586,6.0,6.0,0.0
1449618426603510128,6.0,6.0,0.0
1449618426635205752,6.0,6.0,0.0
1449618426669331015,6.0,6.0,0.0
1449618426702051290,6.0,6.0,0.0
1449618426735343664,6.0,6.0,0.0
1449618426769909344,6.0,6.0,0.0
1449618426802633885,6.0,6.0,0.0
1449618426834903890,6.0,6.0,0.0
1449618426868491306,6.0,6.0,0.0
1449618426901842876,6.0,6.0,0.0
1449618426936224346,6.0,6.0,0.0
1449618426968629564,6.0,6.0,0.0
1449618427006698064,6.0,6.0,0.0
1449618427039077814,6.0,6.0,0.0
1449618427069479165,6.0,6.0,0.0
1449618427110315924,6.0,6.0,0.0
1449618427135022535,6.0,6.0,0.0
1449618427168443719,6.0,6.0,0.0
1449618427201486322,6.0,6.0,0.0
1449618427236870374,6.0,6.0,0.0
1449618427269401557,6.0,6.0,0.0
1449618427302273922,6.0,6.0,0.0
1449618427335662931,6.0,6.0,0.0
1449618427368862696,6.0,6.0,0.0
1449618427402542527,6.0,6.0,0.0
1449618427434983888,6.0,6.0,0.0
1449618427468878629,6.0,6.0,0.0
1449618427502101461,6.0,6.0,0.0
1449618427538474065,6.0,6.0,0.0
1449618427577737702,6.0,6.0,0.0
1449618427602428300,6.0,6.0,0.0
1449618427635385292,6.0,6.0,0.0
1449618427669259444,6.0,6.0,0.0
1449618427701975200,6.0,6.0,0.0
1449618427735505783,6.0,6.0,0.0
1449618427768087539,6.0,6.0,0.0
1449618427801624984,6.0,6.0,0.0
1449618427834819449,6.0,6.0,0.0
1449618427869492088,6.0,6.0,0.0
1449618427902713352,6.0,6.0,0.0
1449618427935160396,6.0,6.0,0.0
1449618427969914016,6.0,6.0,0.0
1449618428001448326,6.0,6.0,0.0
1449618428035053436,6.0,6.0,0.0
1449618428068580125,6.0,6.0,0.0
1449618428103819059,6.0,6.0,0.0
1449618428136834560,6.0,6.0,0.0
1449618428168941525,6.0,6.0,0.0
1449618428203329566,6.0,6.0,0.0
1449618428234945295,6.0,6.0,0.0
1449618428268635426,6.0,6.0,0.0
1449618428309991955,6.0,6.0,0.0
1449618428337146693,6.0,6.0,0.0
1449618428368898442,6.0,6.0,0.0
1449618428402029609,6.0,6.0,0.0
1449618428435168689,6.0,6.0,0.0
1449618428471921531,6.0,6.0,0.0
1449618428502202908,6.0,6.0,0.0
1449618428534943824,6.0,6.0,0.0
1449618428570530194,6.0,6.0,0.0
1449618428601986824,6.0,6.0,0.0
1449618428635688462,6.0,6.0,0.0
1449618428668666659,6.0,6.0,0.0
1449618428704882421,6.0,6.0,0.0
1449618428735149632,6.0,6.0,0.0
1449618428768672598,6.0,6.0,0.0
1449618428802263834,6.0,6.0,0.0
1449618428834894415,6.0,6.0,0.0
1449618428869053433,6.0,6.0,0.0
1449618428902336267,6.0,6.0,0.0
1449618428936322995,6.0,6.0,0.0
1449618428969165110,6.17799968589,6.41606617051,0.0
1449618429004215191,6.17799968589,6.41606617051,0.0
1449618429035553382,4.90013968148,6.0,0.0
1449618429069729960,4.97109840741,6.01064285776,0.0
1449618429101770514,4.97109840741,6.01064285776,0.0
1449618429135625505,4.97109840741,6.01064285776,0.0
1449618429174341397,4.97109840741,6.01064285776,0.0
1449618429201686902,4.90013968148,6.01064285776,0.0
1449618429235201144,4.90013968148,6.01064285776,0.0
1449618429269607936,4.90013968148,6.01064285776,0.0
1449618429301784832,4.90013968148,6.01064285776,0.0
1449618429911727174,4.90013968148,6.0,0.0
1449618429911734405,4.90013968148,6.0,0.0
1449618429952766948,4.90013968148,6.0,0.0
1449618429978661031,4.90013968148,6.0,0.0
1449618430014931427,4.90013968148,6.0,0.0
1449618430045476193,4.90013968148,6.0,0.0
1449618430080649238,4.90013968148,6.0,0.0
1449618430113241470,6.0,6.0,0.0
1449618430147914646,6.0,6.0,0.0
1449618430180749931,6.0,6.0,0.0
1449618430212246456,6.0,6.0,0.0
1449618430245747532,6.0,6.0,0.0
1449618430279100959,6.0,6.0,0.0
1449618430313126498,4.90013968148,6.0,0.0
1449618430345479255,4.90013968148,6.0,0.0
1449618430378968635,4.90013968148,6.0,0.0
1449618430411936942,4.97109840741,6.0,0.0
1449618430445284749,4.97109840741,6.0,0.0
1449618430478821278,4.97109840741,6.0,0.0
1449618430514711343,6.0,6.0,0.0
1449618430545557852,6.0,6.0,0.0
1449618430578599915,6.0,6.0,0.0
1449618430612243285,5.00657777038,6.0,0.0
1449618430645385730,5.00657777038,6.0,0.0
1449618430679095505,5.00657777038,6.0,0.0
1449618430712876924,4.90013968148,6.0,0.0
1449618430745378687,4.90013968148,6.0,0.0
1449618430779730170,4.90013968148,6.0,0.0
1449618430822454023,5.00657777038,6.0,0.0
1449618430846522977,5.00657777038,6.0,0.0
1449618430878770689,5.00657777038,6.0,0.0
1449618430914824894,4.90013968148,6.0,0.0
1449618430950471006,4.90013968148,6.0,0.0
1449618430978986247,4.90013968148,6.0,0.0
1449618431012764002,6.0,6.0,0.0
1449618431045337772,6.0,6.0,0.0
1449618431078773488,6.0,6.0,0.0
1449618431111890843,4.90013968148,6.0,0.0
1449618431145518224,4.90013968148,6.0,0.0
1449618431180332178,4.90013968148,6.0,0.0
1449618431214158510,4.90013968148,6.0,0.0
1449618431245258363,4.90013968148,6.0,0.0
1449618431279068090,4.90013968148,6.0,0.0
1449618431312225788,4.90013968148,6.0,0.0
1449618431345908139,4.90013968148,6.0,0.0
1449618431378756091,4.90013968148,6.0,0.0
1449618431412582403,4.90013968148,6.0,0.0
1449618431445481894,4.90013968148,6.0,0.0
1449618431478517599,4.90013968148,6.0,0.0
1449618431512293233,6.0,6.0,0.0
1449618431545965726,6.0,6.0,0.0
1449618431578774965,6.0,6.0,0.0
1449618431611981043,4.90013968148,6.0,0.0
1449618431645836676,4.90013968148,6.0,0.0
1449618431680293193,4.90013968148,6.0,0.0
1449618431712177153,4.90013968148,6.0,0.0
1449618431745710367,4.90013968148,6.0,0.0
1449618431780290783,4.90013968148,6.0,0.0
1449618431812148961,4.90013968148,6.0,0.0
1449618431846291079,4.90013968148,6.0,0.0
1449618431878556216,4.90013968148,6.0,0.0
1449618431913573297,4.91787936296,6.0,0.0
1449618431946102566,4.91787936296,6.0,0.0
1449618431979247787,4.91787936296,6.0,0.0
1449618432012288790,4.90013968148,6.0,0.0
1449618432045360694,4.90013968148,6.0,0.0
1449618432079252279,4.90013968148,6.0,0.0
1449618432113190923,4.90013968148,6.0,0.0
1449618432148176520,4.90013968148,6.0,0.0
1449618432180908013,4.90013968148,6.0,0.0
1449618432213758410,4.91787936296,6.0,0.0
1449618432245686292,4.91787936296,6.0,0.0
1449618432281483926,4.91787936296,6.0,0.0
1449618432312119952,4.90013968148,6.0,0.0
1449618432350080595,4.90013968148,6.0,0.0
1449618432378728021,4.90013968148,6.0,0.0
1449618432421558517,4.91787936296,6.0,0.0
1449618432445610977,4.91787936296,6.0,0.0
1449618432478556146,4.91787936296,6.0,0.0
1449618432512993552,4.90013968148,6.0,0.0
1449618432545640126,4.90013968148,6.0,0.0
1449618432579233984,4.90013968148,6.0,0.0
1449618432612324313,4.90013968148,6.0,0.0
1449618432645107332,4.90013968148,6.0,0.0
1449618432678586897,4.90013968148,6.0,0.0
1449618432713462926,5.00657777038,6.0,0.0
1449618432745367052,5.00657777038,6.0,0.0
1449618432783475385,5.00657777038,6.0,0.0
1449618432812119796,4.90013968148,6.0,0.0
1449618432846318448,4.90013968148,6.0,0.0
1449618432878834493,4.90013968148,6.0,0.0
1449618432912119704,5.00657777038,6.0,0.0
1449618432946087473,5.00657777038,6.0,0.0
1449618432980353320,5.00657777038,6.0,0.0
1449618433011951246,4.90013968148,6.0,0.0
1449618433045332743,4.90013968148,6.0,0.0
1449618433079078470,4.90013968148,6.0,0.0
1449618433111894926,5.00657777038,6.0,0.0
1449618433147189565,5.00657777038,6.0,0.0
1449618433179194204,5.00657777038,6.0,0.0
1449618433211949089,4.90013968148,6.0,0.0
1449618433245575548,4.90013968148,6.0,0.0
1449618433278524215,4.90013968148,6.0,0.0
1449618433312161135,4.90013968148,6.0,0.0
1449618433345696458,4.90013968148,6.0,0.0
1449618433379326933,4.90013968148,6.0,0.0
1449618433411853250,4.90013968148,6.0,0.0
1449618433445580349,4.90013968148,6.0,0.0
1449618433478597138,4.90013968148,6.0,0.0
1449618433511853791,4.90013968148,6.0,0.0
1449618433548671444,4.90013968148,6.0,0.0
1449618433580385212,4.90013968148,6.0,0.0
1449618433611852823,4.90013968148,6.0,0.0
1449618433645377117,4.90013968148,6.0,0.0
1449618433682097540,4.90013968148,6.0,0.0
1449618433714048239,4.90013968148,6.0,0.0
1449618433745646194,4.90013968148,6.0,0.0
1449618433778625007,4.90013968148,6.0,0.0
1449618433812618830,4.90013968148,6.0,0.0
1449618433845645022,4.90013968148,6.0,0.0
1449618433879131544,4.90013968148,6.0,0.0
1449618433912551671,4.90013968148,6.0,0.0
1449618433946202014,4.90013968148,6.0,0.0
1449618433981302921,4.90013968148,6.0,0.0
1449618434011870614,4.90013968148,6.0,0.0
1449618434045565536,4.90013968148,6.0,0.0
1449618434078863552,4.90013968148,6.0,0.0
1449618434112155229,5.82260316852,6.0,0.0
1449618434145361034,5.82260316852,6.0,0.0
1449618434181682244,5.82260316852,6.0,0.0
1449618434212173502,6.05797105513,5.93449409158,0.0
1449618434246955206,6.05519711749,5.93689413824,0.0
1449618434278550771,6.05519711749,5.93689413824,0.0
1449618434313195566,6.0499110592,5.9414677041,0.0
1449618434345539284,6.0499110592,5.9414677041,0.0
1449618434378647010,6.0499110592,5.9414677041,0.0
1449618434411916695,6.05598176922,5.94739256785,0.0
1449618434445836059,6.0,6.0,0.0
1449618434478642596,6.0,6.0,0.0
1449618434512451475,6.0,6.0,0.0
1449618434545354431,6.0,6.0,0.0
1449618434578573500,6.0,6.0,0.0
1449618434611852529,6.0,6.0,0.0
1449618434645616273,6.0,6.0,0.0
1449618434678814713,6.0,6.0,0.0
1449618434713157217,6.0,6.0,0.0
1449618434745434342,6.0,6.0,0.0
1449618434780000103,6.0,6.0,0.0
1449618434812325433,6.0,6.0,0.0
1449618434845866512,6.0,6.0,0.0
1449618434879088542,6.0,6.0,0.0
1449618434911842119,6.0,6.0,0.0
1449618434945746249,6.0,6.0,0.0
1449618434978652987,6.0,6.0,0.0
1449618435011833747,6.0,6.0,0.0
1449618435045633521,6.0,6.0,0.0
1449618435081460347,6.0,6.0,0.0
1449618435113765944,6.0,6.0,0.0
1449618435145656680,6.0,6.0,0.0
1449618435179491976,6.0,6.0,0.0
1449618435212174042,5.96452063287,6.0,0.0
1449618435250186523,5.96452063287,6.0,0.0
1449618435278877254,5.96452063287,6.0,0.0
1449618435312418331,4.91787936296,6.0,0.0
1449618435346181004,4.91787936296,6.0,0.0
1449618435379982512,4.91787936296,6.0,0.0
1449618435412299167,4.91787936296,5.98935714224,0.0
1449618435445393328,4.91787936296,5.98935714224,0.0
1449618435478736675,4.91787936296,5.98935714224,0.0
1449618435512105093,4.90013968148,6.0,0.0
1449618435546195845,4.90013968148,6.0,0.0
1449618435578792005,4.90013968148,6.0,0.0
1449618435612435243,4.91787936296,6.0,0.0
1449618435645102618,4.91787936296,6.0,0.0
1449618435679154548,4.91787936296,6.0,0.0
1449618435714043143,4.90013968148,6.0,0.0
1449618435745346537,4.90013968148,6.0,0.0
1449618435779436324,4.90013968148,6.0,0.0
1449618435812078915,4.90013968148,6.0,0.0
1449618435845549260,4.90013968148,6.0,0.0
1449618435889766240,4.90013968148,6.0,0.0
1449618435913516509,4.90013968148,6.0,0.0
1449618435945323022,4.90013968148,6.0,0.0
1449618435978672139,4.90013968148,6.0,0.0
1449618436012298356,4.90013968148,6.0,0.0
1449618436046294338,4.90013968148,6.0,0.0
1449618436079705278,4.90013968148,6.0,0.0
1449618436111938734,4.90013968148,6.0,0.0
1449618436145789409,4.90013968148,6.0,0.0
1449618436178931878,4.90013968148,6.0,0.0
1449618436214740575,4.90013968148,6.0,0.0
1449618436248870978,4.90013968148,6.0,0.0
1449618436278707582,4.90013968148,6.0,0.0
1449618436313057605,4.90013968148,6.0,0.0
1449618436346075712,4.90013968148,6.0,0.0
1449618436379439118,4.90013968148,6.0,0.0
1449618436418582334,4.90013968148,6.0,0.0
1449618436445121631,4.90013968148,6.0,0.0
1449618436478644006,4.90013968148,6.0,0.0
1449618436512179376,4.90013968148,6.0,0.0
1449618436545366268,4.90013968148,6.0,0.0
1449618436579009223,4.90013968148,6.0,0.0
1449618436612408821,5.00657777038,6.0,0.0
1449618436650122170,5.00657777038,6.0,0.0
1449618436699301859,5.00657777038,6.0,0.0
1449618436718310043,4.90013968148,6.0,0.0
1449618436746444176,4.90013968148,6.0,0.0
1449618436778541952,4.90013968148,6.0,0.0
1449618436816118663,6.02827241505,5.96547536765,0.0
1449618436845274364,6.02752606587,5.96586274713,0.0
1449618436882296192,6.0,6.0,0.0
1449618436911782816,6.0,6.0,0.0
1449618436945541939,6.0,6.0,0.0
1449618436987003273,6.0,6.0,0.0
1449618437011826812,6.0,6.0,0.0
1449618437045251857,6.0,6.0,0.0
1449618437078451700,6.0,6.0,0.0
1449618437112204333,6.0,6.0,0.0
1449618437151993916,6.0,6.0,0.0
1449618437202170363,6.0,6.0,0.0
1449618437214438948,6.0,6.0,0.0
1449618437245644042,6.0,6.0,0.0
1449618437278904968,6.0,6.0,0.0
1449618437312147598,6.0,6.0,0.0
1449618437345489714,6.0,6.0,0.0
1449618437378546578,6.0,6.0,0.0
1449618437412392133,6.0,6.0,0.0
1449618437448161160,6.0,6.0,0.0
1449618437478898496,6.0,6.0,0.0
1449618437512130747,6.0,6.0,0.0
1449618437546411324,6.0,6.0,0.0
1449618437580604363,6.0,6.0,0.0
1449618437611901523,6.0,6.0,0.0
1449618437645251468,6.0,6.0,0.0
1449618437678835797,6.0,6.0,0.0
1449618437715125202,6.0,6.0,0.0
1449618437745217670,6.0,6.0,0.0
1449618437778658380,6.0,6.0,0.0
1449618437812406105,6.0,6.0,0.0
1449618437845574704,6.0,6.0,0.0
1449618437879420720,6.0,6.0,0.0
1449618437912528260,6.0,6.0,0.0
1449618437945533773,6.0,6.0,0.0
1449618437979894720,6.0,6.0,0.0
1449618438011894978,6.0,6.0,0.0
1449618438045682016,6.0,6.0,0.0
1449618438081471556,6.0,6.0,0.0
1449618438111980353,6.0,6.0,0.0
1449618438145926435,6.0,6.0,0.0
1449618438180833995,6.0,6.0,0.0
1449618438212107797,6.0,6.0,0.0
1449618438245518958,6.0,6.0,0.0
1449618438278460079,6.0,6.0,0.0
1449618438313798331,6.0,6.0,0.0
1449618438345412492,6.0,6.0,0.0
1449618438382188588,6.0,6.0,0.0
1449618438414100600,6.0,6.0,0.0
1449618438445180893,6.0,6.0,0.0
1449618438478672668,6.0,6.0,0.0
1449618438512076621,6.0,6.0,0.0
1449618438545737170,6.0,6.0,0.0
1449618438578459090,6.0,6.0,0.0
1449618438611844742,6.0,6.0,0.0
1449618438645201331,6.0,6.0,0.0
1449618438678532477,6.0,6.0,0.0
1449618438713220331,6.0,6.0,0.0
1449618438745123482,6.0,6.0,0.0
1449618438782579970,6.04458000741,5.98535989062,0.0
1449618438812001880,6.13111387879,5.98535989062,0.0
1449618438845631052,6.13111387879,5.98535989062,0.0
1449618438878820789,6.13111387879,5.98535989062,0.0
1449618438913270419,6.13111387879,5.98535989062,0.0
1449618438945376370,6.34146058126,5.98502923565,0.0
1449618438981440918,6.30310753998,5.98502923565,0.0
1449618439012464764,6.30310753998,5.98502923565,0.0
1449618439045338285,6.29500952469,6.0,0.0
1449618439078676990,6.32451049377,6.0,0.0
1449618439112119075,6.32451049377,6.0,0.0
1449618439145644525,6.32451049377,6.0,0.0
1449618439178706524,6.32451049377,6.0,0.0
1449618439213365688,6.32451049377,6.0,0.0
1449618439245412601,6.33434414398,6.0,0.0
1449618439278718635,6.33434414398,6.0,0.0
1449618439312404165,6.33434414398,6.0,0.0
1449618439346211641,6.33434414398,6.0,0.0
1449618439378536125,6.33434414398,6.0,0.0
1449618439411964190,6.33434414398,6.0,0.0
