%time,field.header.seq,field.header.stamp,field.header.frame_id,field.ns,field.id,field.type,field.action,field.pose.position.x,field.pose.position.y,field.pose.position.z,field.pose.orientation.x,field.pose.orientation.y,field.pose.orientation.z,field.pose.orientation.w,field.scale.x,field.scale.y,field.scale.z,field.color.r,field.color.g,field.color.b,field.color.a,field.lifetime,field.frame_locked,field.text,field.mesh_resource,field.mesh_use_embedded_materials
1449617326789370140,0,0,/odom,fullacmd_vector,0,0,0,0.0,0.0,0.0,0.0,0.0,0.0,1.0,0.1,0.0,0.0,0.0,1.0,1.0,0.0,0,0,,,0
1449617326829805709,1,0,/odom,fullacmd_vector,0,0,0,0.0,0.0,0.0,0.0,0.0,0.0,1.0,0.1,0.0,0.0,0.0,1.0,1.0,0.0,0,0,,,0
1449617326870185495,2,0,/odom,fullacmd_vector,0,0,0,0.0,0.0,0.0,0.0,0.0,0.0,1.0,0.1,0.0,0.0,0.0,1.0,1.0,0.0,0,0,,,0
1449617326910988242,3,0,/odom,fullacmd_vector,0,0,0,0.0,0.0,0.0,0.0,0.0,0.0,1.0,0.1,0.0,0.0,0.0,1.0,1.0,0.0,0,0,,,0
1449617326949574002,4,0,/odom,fullacmd_vector,0,0,0,0.0,0.0,0.0,0.0,0.0,0.0,1.0,0.1,0.0,0.0,0.0,1.0,1.0,0.0,0,0,,,0
1449617326990489099,5,0,/odom,fullacmd_vector,0,0,0,0.0,0.0,0.0,0.0,0.0,0.0,1.0,0.1,0.0,0.0,0.0,1.0,1.0,0.0,0,0,,,0
1449617327029855564,6,0,/odom,fullacmd_vector,0,0,0,0.0,0.0,0.0,0.0,0.0,-0.0105261213988,0.99994459885,0.452,0.0,0.0,0.0,1.0,1.0,0.0,0,0,,,0
1449617327071133215,7,0,/odom,fullacmd_vector,0,0,0,0.0,0.0,0.0,0.0,0.0,-0.0105261213988,0.99994459885,0.452,0.0,0.0,0.0,1.0,1.0,0.0,0,0,,,0
1449617327109771058,8,0,/odom,fullacmd_vector,0,0,0,0.0,0.0,0.0,0.0,0.0,-0.0105261213988,0.99994459885,0.452,0.0,0.0,0.0,1.0,1.0,0.0,0,0,,,0
1449617327149673987,9,0,/odom,fullacmd_vector,0,0,0,0.0,0.0,0.0,0.0,0.0,-0.0105261213988,0.99994459885,0.452,0.0,0.0,0.0,1.0,1.0,0.0,0,0,,,0
1449617327190172401,10,0,/odom,fullacmd_vector,0,0,0,0.0,0.0,0.0,0.0,0.0,-0.0105261213988,0.99994459885,0.452,0.0,0.0,0.0,1.0,1.0,0.0,0,0,,,0
1449617327233070060,11,0,/odom,fullacmd_vector,0,0,0,0.0,0.0,0.0,0.0,0.0,-0.0105261213988,0.99994459885,0.452,0.0,0.0,0.0,1.0,1.0,0.0,0,0,,,0
1449617327269492939,12,0,/odom,fullacmd_vector,0,0,0,0.0,0.0,0.0,0.0,0.0,-0.0105261213988,0.99994459885,0.452,0.0,0.0,0.0,1.0,1.0,0.0,0,0,,,0
1449617327309266382,13,0,/odom,fullacmd_vector,0,0,0,0.0,0.0,0.0,0.0,0.0,-0.0105261213988,0.99994459885,0.452,0.0,0.0,0.0,1.0,1.0,0.0,0,0,,,0
1449617327349224001,14,0,/odom,fullacmd_vector,0,0,0,0.0,0.0,0.0,0.0,0.0,-0.0105261213988,0.99994459885,0.452,0.0,0.0,0.0,1.0,1.0,0.0,0,0,,,0
1449617327389148355,15,0,/odom,fullacmd_vector,0,0,0,0.0,0.0,0.0,0.0,0.0,-0.0105261213988,0.99994459885,0.452,0.0,0.0,0.0,1.0,1.0,0.0,0,0,,,0
1449617327430101105,16,0,/odom,fullacmd_vector,0,0,0,0.0,0.0,0.0,0.0,0.0,-0.0105261213988,0.99994459885,0.452,0.0,0.0,0.0,1.0,1.0,0.0,0,0,,,0
1449617327469771139,17,0,/odom,fullacmd_vector,0,0,0,0.0,0.0,0.0,0.0,0.0,-0.0105261213988,0.99994459885,0.452,0.0,0.0,0.0,1.0,1.0,0.0,0,0,,,0
1449617327515373132,18,0,/odom,fullacmd_vector,0,0,0,0.0,0.0,0.0,0.0,0.0,-0.0105261213988,0.99994459885,0.452,0.0,0.0,0.0,1.0,1.0,0.0,0,0,,,0
1449617327553562817,19,0,/odom,fullacmd_vector,0,0,0,0.0,0.0,0.0,0.0,0.0,-0.0105261213988,0.99994459885,0.452,0.0,0.0,0.0,1.0,1.0,0.0,0,0,,,0
1449617327595342626,20,0,/odom,fullacmd_vector,0,0,0,0.0,0.0,0.0,0.0,0.0,-0.0105261213988,0.99994459885,0.452,0.0,0.0,0.0,1.0,1.0,0.0,0,0,,,0
1449617327629698901,21,0,/odom,fullacmd_vector,0,0,0,0.0,0.0,0.0,0.0,0.0,-0.0105261213988,0.99994459885,0.452,0.0,0.0,0.0,1.0,1.0,0.0,0,0,,,0
1449617327669220509,22,0,/odom,fullacmd_vector,0,0,0,0.00287963245437,3.04332289367e-05,0.0,0.0,0.0,-0.0052422674375,0.999986259222,0.452,0.0,0.0,0.0,1.0,1.0,0.0,0,0,,,0
1449617327713904416,23,0,/odom,fullacmd_vector,0,0,0,0.00287963245437,3.04332289367e-05,0.0,0.0,0.0,-0.0052422674375,0.999986259222,0.452,0.0,0.0,0.0,1.0,1.0,0.0,0,0,,,0
1449617327749953313,24,0,/odom,fullacmd_vector,0,0,0,0.00287963245437,3.04332289367e-05,0.0,0.0,0.0,-0.0052422674375,0.999986259222,0.452,0.0,0.0,0.0,1.0,1.0,0.0,0,0,,,0
1449617327793454135,25,0,/odom,fullacmd_vector,0,0,0,0.00575942572016,3.04332289367e-05,0.0,0.0,0.0,-0.0105261213988,0.99994459885,0.452,0.0,0.0,0.0,1.0,1.0,0.0,0,0,,,0
1449617327835357274,26,0,/odom,fullacmd_vector,0,0,0,0.00575942572016,3.04332289367e-05,0.0,0.0,0.0,-0.0105261213988,0.99994459885,0.452,0.0,0.0,0.0,1.0,1.0,0.0,0,0,,,0
1449617327869836496,27,0,/odom,fullacmd_vector,0,0,0,0.00575942572016,3.04332289367e-05,0.0,0.0,0.0,-0.0315736990516,0.999501426476,0.452,0.0,0.0,0.0,1.0,1.0,0.0,0,0,,,0
1449617327910300513,28,0,/odom,fullacmd_vector,0,0,0,0.00863905817453,6.08664578733e-05,0.0,0.0,0.0,-0.0262918929799,0.99965430843,0.452,0.0,0.0,0.0,1.0,1.0,0.0,0,0,,,0
1449617327949319661,29,0,/odom,fullacmd_vector,0,0,0,0.00863905817453,6.08664578733e-05,0.0,0.0,0.0,-0.0262918929799,0.99965430843,0.452,0.0,0.0,0.0,1.0,1.0,0.0,0,0,,,0
1449617327990521711,30,0,/odom,fullacmd_vector,0,0,0,0.0115188514403,6.08664578733e-05,0.0,0.0,0.0,-0.0105261213988,0.99994459885,0.452,0.0,0.0,0.0,1.0,1.0,0.0,0,0,,,0
1449617328029058987,31,0,/odom,fullacmd_vector,0,0,0,0.0115188514403,6.08664578733e-05,0.0,0.0,0.0,-0.0526072833381,0.998615278143,0.452,0.0,0.0,0.0,1.0,1.0,0.0,0,0,,,0
1449617328069749030,32,0,/odom,fullacmd_vector,0,0,0,0.0172784379719,6.08664578733e-05,0.0,0.0,0.0,-0.0526072833381,0.998615278143,0.452,0.0,0.0,0.0,1.0,1.0,0.0,0,0,,,0
1449617328109302262,33,0,/odom,fullacmd_vector,0,0,0,0.0172784379719,6.08664578733e-05,0.0,0.0,0.0,-0.0105261213988,0.99994459885,0.452,0.0,0.0,0.0,1.0,1.0,0.0,0,0,,,0
1449617328150157257,34,0,/odom,fullacmd_vector,0,0,0,0.0230380245035,6.08664578733e-05,0.0,0.0,0.0,-0.0105261213988,0.99994459885,0.452,0.0,0.0,0.0,1.0,1.0,0.0,0,0,,,0
1449617328190103970,35,0,/odom,fullacmd_vector,0,0,0,0.0230380245035,6.08664578733e-05,0.0,0.0,0.0,-0.0105261213988,0.99994459885,0.452,0.0,0.0,0.0,1.0,1.0,0.0,0,0,,,0
1449617328230836976,36,0,/odom,fullacmd_vector,0,0,0,0.0287976110351,6.08664578733e-05,0.0,0.0,0.0,-0.0105261213988,0.99994459885,0.452,0.0,0.0,0.0,1.0,1.0,0.0,0,0,,,0
1449617328269890287,37,0,/odom,fullacmd_vector,0,0,0,0.0316772434894,3.04332289367e-05,0.0,0.0,0.0,-0.0158096814618,0.999875019176,0.452,0.0,0.0,0.0,1.0,1.0,0.0,0,0,,,0
1449617328309942082,38,0,/odom,fullacmd_vector,0,0,0,0.0374365083982,-3.04332289367e-05,0.0,0.0,0.0,-0.0158096814618,0.999875019176,0.452,0.0,0.0,0.0,1.0,1.0,0.0,0,0,,,0
1449617328349329281,39,0,/odom,fullacmd_vector,0,0,0,0.0431957733069,-9.129968681e-05,0.0,0.0,0.0,-0.0158096814618,0.999875019176,0.452,0.0,0.0,0.0,1.0,1.0,0.0,0,0,,,0
1449617328390637929,40,0,/odom,fullacmd_vector,0,0,0,0.0489550382157,-0.000152166144683,0.0,0.0,0.0,-0.0158096814618,0.999875019176,0.452,0.0,0.0,0.0,1.0,1.0,0.0,0,0,,,0
1449617328429756793,41,0,/odom,fullacmd_vector,0,0,0,0.0518341882537,-0.000213029203694,0.0,0.0,0.0,-0.0210928001051,0.999777522144,0.452,0.0,0.0,0.0,1.0,1.0,0.0,0,0,,,0
1449617328469637756,42,0,/odom,fullacmd_vector,0,0,0,0.0575924883299,-0.000334755321716,0.0,0.0,0.0,-0.0210928001051,0.999777522144,0.452,0.0,0.0,0.0,1.0,1.0,0.0,0,0,,,0
1449617328510709096,43,0,/odom,fullacmd_vector,0,0,0,0.063350788406,-0.000456481439737,0.0,0.0,0.0,-0.0210928001051,0.999777522144,0.452,0.0,0.0,0.0,1.0,1.0,0.0,0,0,,,0
1449617328549976459,44,0,/odom,fullacmd_vector,0,0,0,0.0691090884822,-0.000578207557759,0.0,0.0,0.0,-0.0210928001051,0.999777522144,0.452,0.0,0.0,0.0,1.0,1.0,0.0,0,0,,,0
1449617328590960681,45,0,/odom,fullacmd_vector,0,0,0,0.0806256886345,-0.000821659793802,0.0,0.0,0.0,-0.0210928001051,0.999777522144,0.452,0.0,0.0,0.0,1.0,1.0,0.0,0,0,,,0
1449617328629469724,46,0,/odom,fullacmd_vector,0,0,0,0.0863839887106,-0.000943385911823,0.0,0.0,0.0,-0.0210928001051,0.999777522144,0.452,0.0,0.0,0.0,1.0,1.0,0.0,0,0,,,0
1449617328670338150,47,0,/odom,fullacmd_vector,0,0,0,0.0921422887868,-0.00106511202984,0.0,0.0,0.0,-0.0210928001051,0.999777522144,0.452,0.0,0.0,0.0,1.0,1.0,0.0,0,0,,,0
1449617328709356076,48,0,/odom,fullacmd_vector,0,0,0,0.103658888939,-0.00130856426589,0.0,0.0,0.0,-0.0210928001051,0.999777522144,0.452,0.0,0.0,0.0,1.0,1.0,0.0,0,0,,,0
1449617328749542660,49,0,/odom,fullacmd_vector,0,0,0,0.115175489091,-0.00155201650193,0.0,0.0,0.0,-0.0210928001051,0.999777522144,0.452,0.0,0.0,0.0,1.0,1.0,0.0,0,0,,,0
1449617328790016108,50,0,/odom,fullacmd_vector,0,0,0,0.120933789168,-0.00167374261995,0.0,0.0,0.0,-0.0210928001051,0.999777522144,0.452,0.0,0.0,0.0,1.0,1.0,0.0,0,0,,,0
1449617328829149392,51,0,/odom,fullacmd_vector,0,0,0,0.12956882738,-0.00194760089517,0.0,0.0,0.0,-0.0263753298195,0.999652110475,0.452,0.0,0.0,0.0,1.0,1.0,0.0,0,0,,,0
1449617328869521981,52,0,/odom,fullacmd_vector,0,0,0,0.141082211663,-0.00231274526213,0.0,0.0,0.0,-0.0263753298195,0.999652110475,0.452,0.0,0.0,0.0,1.0,1.0,0.0,0,0,,,0
1449617328909528990,53,0,/odom,fullacmd_vector,0,0,0,0.146838903804,-0.00249531744561,0.0,0.0,0.0,-0.0263753298195,0.999652110475,0.452,0.0,0.0,0.0,1.0,1.0,0.0,0,0,,,0
1449617328950033601,54,0,/odom,fullacmd_vector,0,0,0,0.158352288088,-0.00286046181256,0.0,0.0,0.0,-0.0263753298195,0.999652110475,0.452,0.0,0.0,0.0,1.0,1.0,0.0,0,0,,,0
1449617328989724433,55,0,/odom,fullacmd_vector,0,0,0,0.169865672371,-0.00322560617952,0.0,0.0,0.0,-0.0263753298195,0.999652110475,0.452,0.0,0.0,0.0,1.0,1.0,0.0,0,0,,,0
1449617329029628652,56,0,/odom,fullacmd_vector,0,0,0,0.175622364512,-0.003408178363,0.0,0.0,0.0,-0.0263753298195,0.999652110475,0.452,0.0,0.0,0.0,1.0,1.0,0.0,0,0,,,0
1449617329071153580,57,0,/odom,fullacmd_vector,0,0,0,0.187135748795,-0.00377332272996,0.0,0.0,0.0,-0.0263753298195,0.999652110475,0.452,0.0,0.0,0.0,1.0,1.0,0.0,0,0,,,0
1449617329109984177,58,0,/odom,fullacmd_vector,0,0,0,0.201521852007,-0.00438181737695,0.0,0.0,0.0,-0.0316571231124,0.999498787671,0.452,0.0,0.0,0.0,1.0,1.0,0.0,0,0,,,0
1449617329149664025,59,0,/odom,fullacmd_vector,0,0,0,0.207276293291,-0.00462521523575,0.0,0.0,0.0,-0.0316571231124,0.999498787671,0.452,0.0,0.0,0.0,1.0,1.0,0.0,0,0,,,0
1449617329189865417,60,0,/odom,fullacmd_vector,0,0,0,0.21878517586,-0.00511201095334,0.0,0.0,0.0,-0.0316571231124,0.999498787671,0.452,0.0,0.0,0.0,1.0,1.0,0.0,0,0,,,0
1449617329229161668,61,0,/odom,fullacmd_vector,0,0,0,0.230294058429,-0.00559880667094,0.0,0.0,0.0,-0.0316571231124,0.999498787671,0.452,0.0,0.0,0.0,1.0,1.0,0.0,0,0,,,0
1449617329269426695,62,0,/odom,fullacmd_vector,0,0,0,0.238921380064,-0.00605510119715,0.0,0.0,0.0,-0.0369380325115,0.999317558014,0.452,0.0,0.0,0.0,1.0,1.0,0.0,0,0,,,0
1449617329309401940,63,0,/odom,fullacmd_vector,0,0,0,0.250424475577,-0.00666349389876,0.0,0.0,0.0,-0.0369380325115,0.999317558014,0.452,0.0,0.0,0.0,1.0,1.0,0.0,0,0,,,0
1449617329349504570,64,0,/odom,fullacmd_vector,0,0,0,0.264794505278,-0.0075758960722,0.0,0.0,0.0,-0.0422179105694,0.999108426562,0.452,0.0,0.0,0.0,1.0,1.0,0.0,0,0,,,0
1449617329395135451,65,0,/odom,fullacmd_vector,0,0,0,0.273421826913,-0.00803219059841,0.0,0.0,0.0,-0.0369380325115,0.999317558014,0.452,0.0,0.0,0.0,1.0,1.0,0.0,0,0,,,0
1449617329429510123,66,0,/odom,fullacmd_vector,0,0,0,0.284924922426,-0.00864058330002,0.0,0.0,0.0,-0.0369380325115,0.999317558014,0.452,0.0,0.0,0.0,1.0,1.0,0.0,0,0,,,0
1449617329469265517,67,0,/odom,fullacmd_vector,0,0,0,0.299294952127,-0.00955298547345,0.0,0.0,0.0,-0.0422179105694,0.999108426562,0.452,0.0,0.0,0.0,1.0,1.0,0.0,0,0,,,0
1449617329509632523,68,0,/odom,fullacmd_vector,0,0,0,0.307922273762,-0.0100092799997,0.0,0.0,0.0,-0.0369380325115,0.999317558014,0.452,0.0,0.0,0.0,1.0,1.0,0.0,0,0,,,0
1449617329549993098,69,0,/odom,fullacmd_vector,0,0,0,0.322292303463,-0.0109216821731,0.0,0.0,0.0,-0.0422179105694,0.999108426562,0.452,0.0,0.0,0.0,1.0,1.0,0.0,0,0,,,0
1449617329590435171,70,0,/odom,fullacmd_vector,0,0,0,0.333788327224,-0.0116516039118,0.0,0.0,0.0,-0.0422179105694,0.999108426562,0.452,0.0,0.0,0.0,1.0,1.0,0.0,0,0,,,0
1449617329630126896,71,0,/odom,fullacmd_vector,0,0,0,0.342404078302,-0.0122901308541,0.0,0.0,0.0,-0.0369797368913,0.999316015612,0.452,0.0,0.0,0.0,1.0,1.0,0.0,0,0,,,0
1449617329669405500,72,0,/odom,fullacmd_vector,0,0,0,0.356774108003,-0.0132025330275,0.0,0.0,0.0,-0.0316988350601,0.999497465658,0.452,0.0,0.0,0.0,1.0,1.0,0.0,0,0,,,0
1449617329709752159,73,0,/odom,fullacmd_vector,0,0,0,0.371133693132,-0.0142667445979,0.0,0.0,0.0,-0.0369797368913,0.999316015612,0.452,0.0,0.0,0.0,1.0,1.0,0.0,0,0,,,0
1449617329750634782,74,0,/odom,fullacmd_vector,0,0,0,0.376877527183,-0.0146924292261,0.0,0.0,0.0,-0.0474966098674,0.998871399156,0.452,0.0,0.0,0.0,1.0,1.0,0.0,0,0,,,0
1449617329789956735,75,0,/odom,fullacmd_vector,0,0,0,0.394109029338,-0.0159694831105,0.0,0.0,0.0,-0.0474966098674,0.998871399156,0.452,0.0,0.0,0.0,1.0,1.0,0.0,0,0,,,0
1449617329830095102,76,0,/odom,fullacmd_vector,0,0,0,0.408456566179,-0.0171853852239,0.0,0.0,0.0,-0.0527739830198,0.998606482412,0.452,0.0,0.0,0.0,1.0,1.0,0.0,0,0,,,0
1449617329870086096,77,0,/odom,fullacmd_vector,0,0,0,0.417072317256,-0.0178239121662,0.0,0.0,0.0,-0.0474966098674,0.998871399156,0.452,0.0,0.0,0.0,1.0,1.0,0.0,0,0,,,0
1449617329909538861,78,0,/odom,fullacmd_vector,0,0,0,0.431419854097,-0.0190398142796,0.0,0.0,0.0,-0.0527739830198,0.998606482412,0.452,0.0,0.0,0.0,1.0,1.0,0.0,0,0,,,0
1449617329949426283,79,0,/odom,fullacmd_vector,0,0,0,0.442897883569,-0.0200125359703,0.0,0.0,0.0,-0.042259606217,0.999106663816,0.452,0.0,0.0,0.0,1.0,1.0,0.0,0,0,,,0
1449617329989988235,80,0,/odom,fullacmd_vector,0,0,0,0.454375913042,-0.020985257661,0.0,0.0,0.0,-0.042259606217,0.999106663816,0.452,0.0,0.0,0.0,1.0,1.0,0.0,0,0,,,0
1449617330029672846,81,0,/odom,fullacmd_vector,0,0,0,0.465853942514,-0.0219579793518,0.0,0.0,0.0,-0.042259606217,0.999106663816,0.452,0.0,0.0,0.0,1.0,1.0,0.0,0,0,,,0
1449617330069339683,82,0,/odom,fullacmd_vector,0,0,0,0.480187828696,-0.0233254362131,0.0,0.0,0.0,-0.0475382956186,0.998869416115,0.452,0.0,0.0,0.0,1.0,1.0,0.0,0,0,,,0
1449617330109278380,83,0,/odom,fullacmd_vector,0,0,0,0.491654937642,-0.0244194017021,0.0,0.0,0.0,-0.0475382956186,0.998869416115,0.452,0.0,0.0,0.0,1.0,1.0,0.0,0,0,,,0
1449617330154739994,84,0,/odom,fullacmd_vector,0,0,0,0.503122046587,-0.0255133671912,0.0,0.0,0.0,-0.0475382956186,0.998869416115,0.452,0.0,0.0,0.0,1.0,1.0,0.0,0,0,,,0
1449617330190995543,85,0,/odom,fullacmd_vector,0,0,0,0.517440681264,-0.0270322260793,0.0,0.0,0.0,-0.0528156577107,0.998604279132,0.452,0.0,0.0,0.0,1.0,1.0,0.0,0,0,,,0
1449617330229955956,86,0,/odom,fullacmd_vector,0,0,0,0.526041012974,-0.0278527001961,0.0,0.0,0.0,-0.0475382956186,0.998869416115,0.452,0.0,0.0,0.0,1.0,1.0,0.0,0,0,,,0
1449617330269645004,87,0,/odom,fullacmd_vector,0,0,0,0.540359647651,-0.0293715590841,0.0,0.0,0.0,-0.0528156577107,0.998604279132,0.452,0.0,0.0,0.0,1.0,1.0,0.0,0,0,,,0
1449617330310672903,88,0,/odom,fullacmd_vector,0,0,0,0.551814555393,-0.0305866461946,0.0,0.0,0.0,-0.042301301791,0.999104899331,0.452,0.0,0.0,0.0,1.0,1.0,0.0,0,0,,,0
1449617330351492657,89,0,/odom,fullacmd_vector,0,0,0,0.563269463134,-0.031801733305,0.0,0.0,0.0,-0.042301301791,0.999104899331,0.452,0.0,0.0,0.0,1.0,1.0,0.0,0,0,,,0
1449617330390168339,90,0,/odom,fullacmd_vector,0,0,0,0.577571247164,-0.0334718245897,0.0,0.0,0.0,-0.047579981287,0.998867431334,0.452,0.0,0.0,0.0,1.0,1.0,0.0,0,0,,,0
1449617330430696241,91,0,/odom,fullacmd_vector,0,0,0,0.589012674389,-0.0348078976174,0.0,0.0,0.0,-0.047579981287,0.998867431334,0.452,0.0,0.0,0.0,1.0,1.0,0.0,0,0,,,0
1449617330469956474,92,0,/odom,fullacmd_vector,0,0,0,0.597582676062,-0.0359005799141,0.0,0.0,0.0,-0.0528573323095,0.998602074112,0.452,0.0,0.0,0.0,1.0,1.0,0.0,0,0,,,0
1449617330513750708,93,0,/odom,fullacmd_vector,0,0,0,0.611884460092,-0.0375706711988,0.0,0.0,0.0,-0.047579981287,0.998867431334,0.452,0.0,0.0,0.0,1.0,1.0,0.0,0,0,,,0
1449617330574979482,94,0,/odom,fullacmd_vector,0,0,0,0.626167796214,-0.0393918083599,0.0,0.0,0.0,-0.0528573323095,0.998602074112,0.452,0.0,0.0,0.0,1.0,1.0,0.0,0,0,,,0
1449617330589493635,95,0,/odom,fullacmd_vector,0,0,0,0.631881130663,-0.0401202632244,0.0,0.0,0.0,-0.0528573323095,0.998602074112,0.452,0.0,0.0,0.0,1.0,1.0,0.0,0,0,,,0
1449617330630217290,96,0,/odom,fullacmd_vector,0,0,0,0.64902113401,-0.0423056278177,0.0,0.0,0.0,-0.0528573323095,0.998602074112,0.452,0.0,0.0,0.0,1.0,1.0,0.0,0,0,,,0
1449617330669599907,97,0,/odom,fullacmd_vector,0,0,0,0.660447802908,-0.0437625375466,0.0,0.0,0.0,-0.0528573323095,0.998602074112,0.452,0.0,0.0,0.0,1.0,1.0,0.0,0,0,,,0
1449617330710257292,98,0,/odom,fullacmd_vector,0,0,0,0.669005778716,-0.0449457253356,0.0,0.0,0.0,-0.0581332075105,0.998308835073,0.452,0.0,0.0,0.0,1.0,1.0,0.0,0,0,,,0
1449617330749414552,99,0,/odom,fullacmd_vector,0,0,0,0.680416413128,-0.0465233090541,0.0,0.0,0.0,-0.0581332075105,0.998308835073,0.452,0.0,0.0,0.0,1.0,1.0,0.0,0,0,,,0
1449617330790924629,100,0,/odom,fullacmd_vector,0,0,0,0.697532364745,-0.048889684632,0.0,0.0,0.0,-0.0371048496442,0.999311377966,0.452,0.0,0.0,0.0,1.0,1.0,0.0,0,0,,,0
1449617330829759417,101,0,/odom,fullacmd_vector,0,0,0,0.70323768195,-0.0496784764913,0.0,0.0,0.0,-0.0371048496442,0.999311377966,0.452,0.0,0.0,0.0,1.0,1.0,0.0,0,0,,,0
1449617330871316160,102,0,/odom,fullacmd_vector,0,0,0,0.717479338895,-0.0518010783908,0.0,0.0,0.0,-0.0423846927179,0.999101365139,0.452,0.0,0.0,0.0,1.0,1.0,0.0,0,0,,,0
1449617330909841821,103,0,/odom,fullacmd_vector,0,0,0,0.72887266445,-0.0534991599104,0.0,0.0,0.0,-0.0423846927179,0.999101365139,0.452,0.0,0.0,0.0,1.0,1.0,0.0,0,0,,,0
1449617330950206879,104,0,/odom,fullacmd_vector,0,0,0,0.740265990006,-0.05519724143,0.0,0.0,0.0,-0.0423846927179,0.999101365139,0.452,0.0,0.0,0.0,1.0,1.0,0.0,0,0,,,0
1449617330990403277,105,0,/odom,fullacmd_vector,0,0,0,0.751659315561,-0.0568953229496,0.0,0.0,0.0,-0.0423846927179,0.999101365139,0.452,0.0,0.0,0.0,1.0,1.0,0.0,0,0,,,0
1449617331030658222,106,0,/odom,fullacmd_vector,0,0,0,0.76587774589,-0.0591683100426,0.0,0.0,0.0,-0.0476633523751,0.998863456555,0.452,0.0,0.0,0.0,1.0,1.0,0.0,0,0,,,0
1449617331070029134,107,0,/odom,fullacmd_vector,0,0,0,0.771565118021,-0.0600775048798,0.0,0.0,0.0,-0.0476633523751,0.998863456555,0.452,0.0,0.0,0.0,1.0,1.0,0.0,0,0,,,0
1449617331109754896,108,0,/odom,fullacmd_vector,0,0,0,0.788627234416,-0.0628050893914,0.0,0.0,0.0,-0.0476633523751,0.998863456555,0.452,0.0,0.0,0.0,1.0,1.0,0.0,0,0,,,0
1449617331150968086,109,0,/odom,fullacmd_vector,0,0,0,0.800001978679,-0.0646234790658,0.0,0.0,0.0,-0.0476633523751,0.998863456555,0.452,0.0,0.0,0.0,1.0,1.0,0.0,0,0,,,0
1449617331196029804,110,0,/odom,fullacmd_vector,0,0,0,0.808518148136,-0.0660773501258,0.0,0.0,0.0,-0.052940681231,0.998597658855,0.452,0.0,0.0,0.0,1.0,1.0,0.0,0,0,,,0
1449617331231063031,111,0,/odom,fullacmd_vector,0,0,0,0.822736578465,-0.0683503372188,0.0,0.0,0.0,-0.0476633523751,0.998863456555,0.452,0.0,0.0,0.0,1.0,1.0,0.0,0,0,,,0
1449617331272360696,112,0,/odom,fullacmd_vector,0,0,0,0.836930194227,-0.0707734556523,0.0,0.0,0.0,-0.052940681231,0.998597658855,0.452,0.0,0.0,0.0,1.0,1.0,0.0,0,0,,,0
1449617331309782841,113,0,/odom,fullacmd_vector,0,0,0,0.848285086837,-0.072711950399,0.0,0.0,0.0,-0.052940681231,0.998597658855,0.452,0.0,0.0,0.0,1.0,1.0,0.0,0,0,,,0
1449617331349571247,114,0,/odom,fullacmd_vector,0,0,0,0.859639979447,-0.0746504451457,0.0,0.0,0.0,-0.052940681231,0.998597658855,0.452,0.0,0.0,0.0,1.0,1.0,0.0,0,0,,,0
1449617331391463839,115,0,/odom,fullacmd_vector,0,0,0,0.870994872056,-0.0765889398924,0.0,0.0,0.0,-0.052940681231,0.998597658855,0.452,0.0,0.0,0.0,1.0,1.0,0.0,0,0,,,0
1449617331430414486,116,0,/odom,fullacmd_vector,0,0,0,0.879495201665,-0.0781327273846,0.0,0.0,0.0,-0.0582165319382,0.998303979462,0.452,0.0,0.0,0.0,1.0,1.0,0.0,0,0,,,0
1449617331475524323,117,0,/odom,fullacmd_vector,0,0,0,0.893688817427,-0.080555845818,0.0,0.0,0.0,-0.052940681231,0.998597658855,0.452,0.0,0.0,0.0,1.0,1.0,0.0,0,0,,,0
1449617331509702583,118,0,/odom,fullacmd_vector,0,0,0,0.907856033442,-0.0831288249716,0.0,0.0,0.0,-0.0582165319382,0.998303979462,0.452,0.0,0.0,0.0,1.0,1.0,0.0,0,0,,,0
1449617331553129265,119,0,/odom,fullacmd_vector,0,0,0,0.913522919848,-0.084158016633,0.0,0.0,0.0,-0.0582165319382,0.998303979462,0.452,0.0,0.0,0.0,1.0,1.0,0.0,0,0,,,0
1449617331589365195,120,0,/odom,fullacmd_vector,0,0,0,0.927662153885,-0.0868805691498,0.0,0.0,0.0,-0.0634907571904,0.997982426574,0.452,0.0,0.0,0.0,1.0,1.0,0.0,0,0,,,0
1449617331630992938,121,0,/odom,fullacmd_vector,0,0,0,0.9418293699,-0.0894535483033,0.0,0.0,0.0,-0.0582165319382,0.998303979462,0.452,0.0,0.0,0.0,1.0,1.0,0.0,0,0,,,0
1449617331669889143,122,0,/odom,fullacmd_vector,0,0,0,0.955968603936,-0.0921761008201,0.0,0.0,0.0,-0.0634907571904,0.997982426574,0.452,0.0,0.0,0.0,1.0,1.0,0.0,0,0,,,0
1449617331709307622,123,0,/odom,fullacmd_vector,0,0,0,0.961624297551,-0.0932651218268,0.0,0.0,0.0,-0.0634907571904,0.997982426574,0.452,0.0,0.0,0.0,1.0,1.0,0.0,0,0,,,0
1449617331750655827,124,0,/odom,fullacmd_vector,0,0,0,0.978591378394,-0.0965321848469,0.0,0.0,0.0,-0.0634907571904,0.997982426574,0.452,0.0,0.0,0.0,1.0,1.0,0.0,0,0,,,0
1449617331789405937,125,0,/odom,fullacmd_vector,0,0,0,0.989902765624,-0.0987102268603,0.0,0.0,0.0,-0.0634907571904,0.997982426574,0.452,0.0,0.0,0.0,1.0,1.0,0.0,0,0,,,0
1449617331831879113,126,0,/odom,fullacmd_vector,0,0,0,0.998368569394,-0.100433319951,0.0,0.0,0.0,-0.0687632097268,0.997633009171,0.452,0.0,0.0,0.0,1.0,1.0,0.0,0,0,,,0
1449617331869739650,127,0,/odom,fullacmd_vector,0,0,0,0.998368569394,-0.100433319951,0.0,0.0,0.0,-0.0687632097268,0.997633009171,0.452,0.0,0.0,0.0,1.0,1.0,0.0,0,0,,,0
1449617331909827268,128,0,/odom,fullacmd_vector,0,0,0,1.02094404612,-0.10502823486,0.0,0.0,0.0,-0.0687632097268,0.997633009171,0.452,0.0,0.0,0.0,1.0,1.0,0.0,0,0,,,0
1449617331949263849,129,0,/odom,fullacmd_vector,0,0,0,1.03502258218,-0.108049005247,0.0,0.0,0.0,-0.0740337423361,0.997255737008,0.452,0.0,0.0,0.0,1.0,1.0,0.0,0,0,,,0
1449617331994195735,130,0,/odom,fullacmd_vector,0,0,0,1.04913225513,-0.110920827065,0.0,0.0,0.0,-0.0687632097268,0.997633009171,0.452,0.0,0.0,0.0,1.0,1.0,0.0,0,0,,,0
1449617332029426463,131,0,/odom,fullacmd_vector,0,0,0,1.05757937676,-0.112733289297,0.0,0.0,0.0,-0.0740337423361,0.997255737008,0.452,0.0,0.0,0.0,1.0,1.0,0.0,0,0,,,0
1449617332069257209,132,0,/odom,fullacmd_vector,0,0,0,1.06884220561,-0.115149905607,0.0,0.0,0.0,-0.0740337423361,0.997255737008,0.452,0.0,0.0,0.0,1.0,1.0,0.0,0,0,,,0
1449617332109340772,133,0,/odom,fullacmd_vector,0,0,0,1.08573644889,-0.118774830071,0.0,0.0,0.0,-0.0530240297836,0.998593236641,0.452,0.0,0.0,0.0,1.0,1.0,0.0,0,0,,,0
1449617332150812747,134,0,/odom,fullacmd_vector,0,0,0,1.09136786331,-0.119983138226,0.0,0.0,0.0,-0.0530240297836,0.998593236641,0.452,0.0,0.0,0.0,1.0,1.0,0.0,0,0,,,0
1449617332189723205,135,0,/odom,fullacmd_vector,0,0,0,1.10541369015,-0.123152519814,0.0,0.0,0.0,-0.0582998559602,0.998299116896,0.452,0.0,0.0,0.0,1.0,1.0,0.0,0,0,,,0
1449617332229404187,136,0,/odom,fullacmd_vector,0,0,0,1.11949222621,-0.126173290201,0.0,0.0,0.0,-0.0530240297836,0.998593236641,0.452,0.0,0.0,0.0,1.0,1.0,0.0,0,0,,,0
1449617332270016777,137,0,/odom,fullacmd_vector,0,0,0,1.12791972232,-0.128074919154,0.0,0.0,0.0,-0.0582998559602,0.998299116896,0.452,0.0,0.0,0.0,1.0,1.0,0.0,0,0,,,0
1449617332309416125,138,0,/odom,fullacmd_vector,0,0,0,1.14199825838,-0.131095689541,0.0,0.0,0.0,-0.0530240297836,0.998593236641,0.452,0.0,0.0,0.0,1.0,1.0,0.0,0,0,,,0
1449617332350335985,139,0,/odom,fullacmd_vector,0,0,0,1.15326108723,-0.133512305851,0.0,0.0,0.0,-0.0530240297836,0.998593236641,0.452,0.0,0.0,0.0,1.0,1.0,0.0,0,0,,,0
1449617332389512465,140,0,/odom,fullacmd_vector,0,0,0,1.16168858333,-0.135413934803,0.0,0.0,0.0,-0.0582998559602,0.998299116896,0.452,0.0,0.0,0.0,1.0,1.0,0.0,0,0,,,0
1449617332430108760,141,0,/odom,fullacmd_vector,0,0,0,1.17576711939,-0.13843470519,0.0,0.0,0.0,-0.0530240297836,0.998593236641,0.452,0.0,0.0,0.0,1.0,1.0,0.0,0,0,,,0
1449617332470018230,142,0,/odom,fullacmd_vector,0,0,0,1.17576711939,-0.13843470519,0.0,0.0,0.0,-0.0530240297836,0.998593236641,0.452,0.0,0.0,0.0,1.0,1.0,0.0,0,0,,,0
1449617332509882753,143,0,/odom,fullacmd_vector,0,0,0,1.19543127697,-0.142871839414,0.0,0.0,0.0,-0.0582998559602,0.998299116896,0.452,0.0,0.0,0.0,1.0,1.0,0.0,0,0,,,0
1449617332551413919,144,0,/odom,fullacmd_vector,0,0,0,1.21228626918,-0.14667509732,0.0,0.0,0.0,-0.0582998559602,0.998299116896,0.452,0.0,0.0,0.0,1.0,1.0,0.0,0,0,,,0
1449617332589805266,145,0,/odom,fullacmd_vector,0,0,0,1.22352293066,-0.14921060259,0.0,0.0,0.0,-0.0582998559602,0.998299116896,0.452,0.0,0.0,0.0,1.0,1.0,0.0,0,0,,,0
1449617332629335973,146,0,/odom,fullacmd_vector,0,0,0,1.2319700523,-0.151023064822,0.0,0.0,0.0,-0.0319908171441,0.999488162821,0.452,0.0,0.0,0.0,1.0,1.0,0.0,0,0,,,0
1449617332670376298,147,0,/odom,fullacmd_vector,0,0,0,1.24601587914,-0.154192446411,0.0,0.0,0.0,-0.037271665743,0.999305170072,0.452,0.0,0.0,0.0,1.0,1.0,0.0,0,0,,,0
1449617332711734605,148,0,/odom,fullacmd_vector,0,0,0,1.25725254061,-0.156727951681,0.0,0.0,0.0,-0.037271665743,0.999305170072,0.452,0.0,0.0,0.0,1.0,1.0,0.0,0,0,,,0
1449617332750012641,149,0,/odom,fullacmd_vector,0,0,0,1.26569966225,-0.158540413913,0.0,0.0,0.0,-0.0319908171441,0.999488162821,0.452,0.0,0.0,0.0,1.0,1.0,0.0,0,0,,,0
1449617332789863061,150,0,/odom,fullacmd_vector,0,0,0,1.27974548909,-0.161709795502,0.0,0.0,0.0,-0.037271665743,0.999305170072,0.452,0.0,0.0,0.0,1.0,1.0,0.0,0,0,,,0
1449617332829454073,151,0,/odom,fullacmd_vector,0,0,0,1.29382402515,-0.164730565888,0.0,0.0,0.0,-0.0319908171441,0.999488162821,0.452,0.0,0.0,0.0,1.0,1.0,0.0,0,0,,,0
1449617332869877458,152,0,/odom,fullacmd_vector,0,0,0,1.305086854,-0.167147182198,0.0,0.0,0.0,-0.0319908171441,0.999488162821,0.452,0.0,0.0,0.0,1.0,1.0,0.0,0,0,,,0
1449617332910398842,153,0,/odom,fullacmd_vector,0,0,0,1.31634968285,-0.169563798508,0.0,0.0,0.0,-0.0319908171441,0.999488162821,0.452,0.0,0.0,0.0,1.0,1.0,0.0,0,0,,,0
1449617332949762542,154,0,/odom,fullacmd_vector,0,0,0,1.3276125117,-0.171980414817,0.0,0.0,0.0,-0.0319908171441,0.999488162821,0.452,0.0,0.0,0.0,1.0,1.0,0.0,0,0,,,0
1449617332990719158,155,0,/odom,fullacmd_vector,0,0,0,1.33607831547,-0.173703507908,0.0,0.0,0.0,-0.0267090753345,0.999643249012,0.452,0.0,0.0,0.0,1.0,1.0,0.0,0,0,,,0
1449617333030213652,156,0,/odom,fullacmd_vector,0,0,0,1.35015685153,-0.176724278295,0.0,0.0,0.0,-0.0319908171441,0.999488162821,0.452,0.0,0.0,0.0,1.0,1.0,0.0,0,0,,,0
1449617333069285853,157,0,/odom,fullacmd_vector,0,0,0,1.36426652448,-0.179596100113,0.0,0.0,0.0,-0.0267090753345,0.999643249012,0.452,0.0,0.0,0.0,1.0,1.0,0.0,0,0,,,0
1449617333110639180,158,0,/odom,fullacmd_vector,0,0,0,1.36991039366,-0.18074482884,0.0,0.0,0.0,-0.0267090753345,0.999643249012,0.452,0.0,0.0,0.0,1.0,1.0,0.0,0,0,,,0
1449617333150249548,159,0,/odom,fullacmd_vector,0,0,0,1.3868420012,-0.184191015022,0.0,0.0,0.0,-0.0477467231311,0.998859474816,0.452,0.0,0.0,0.0,1.0,1.0,0.0,0,0,,,0
1449617333189578387,160,0,/odom,fullacmd_vector,0,0,0,1.39812973956,-0.186488472476,0.0,0.0,0.0,-0.0477467231311,0.998859474816,0.452,0.0,0.0,0.0,1.0,1.0,0.0,0,0,,,0
1449617333233089244,161,0,/odom,fullacmd_vector,0,0,0,1.4122689736,-0.189211024993,0.0,0.0,0.0,-0.0214265877848,0.999770424315,0.452,0.0,0.0,0.0,1.0,1.0,0.0,0,0,,,0
1449617333270781042,162,0,/odom,fullacmd_vector,0,0,0,1.42073477737,-0.190934118084,0.0,0.0,0.0,-0.0267090753345,0.999643249012,0.452,0.0,0.0,0.0,1.0,1.0,0.0,0,0,,,0
1449617333309585728,163,0,/odom,fullacmd_vector,0,0,0,1.43487401141,-0.193656670601,0.0,0.0,0.0,-0.0214265877848,0.999770424315,0.452,0.0,0.0,0.0,1.0,1.0,0.0,0,0,,,0
1449617333350865133,164,0,/odom,fullacmd_vector,0,0,0,1.44618539863,-0.195834712614,0.0,0.0,0.0,-0.00037559602211,0.999999929464,0.452,0.0,0.0,0.0,1.0,1.0,0.0,0,0,,,0
1449617333391756050,165,0,/odom,fullacmd_vector,0,0,0,1.45468572824,-0.197378500106,0.0,0.0,0.0,0.00490840860046,0.99998795369,0.452,0.0,0.0,0.0,1.0,1.0,0.0,0,0,,,0
1449617333433841762,166,0,/odom,fullacmd_vector,0,0,0,1.46882496228,-0.200101052623,0.0,0.0,0.0,-0.0214265877848,0.999770424315,0.452,0.0,0.0,0.0,1.0,1.0,0.0,0,0,,,0
1449617333470402806,167,0,/odom,fullacmd_vector,0,0,0,1.47732529189,-0.201644840115,0.0,0.0,0.0,-0.0161435019866,0.999869685181,0.452,0.0,0.0,0.0,1.0,1.0,0.0,0,0,,,0
1449617333509375802,168,0,/odom,fullacmd_vector,0,0,0,1.4886590647,-0.203703223438,0.0,0.0,0.0,-0.0161435019866,0.999869685181,0.452,0.0,0.0,0.0,1.0,1.0,0.0,0,0,,,0
1449617333551775367,169,0,/odom,fullacmd_vector,0,0,0,1.50285268046,-0.206126341872,0.0,0.0,0.0,-0.0108599654481,0.999941028836,0.452,0.0,0.0,0.0,1.0,1.0,0.0,0,0,,,0
1449617333590227300,170,0,/odom,fullacmd_vector,0,0,0,1.51420757307,-0.208064836618,0.0,0.0,0.0,-0.0108599654481,0.999941028836,0.452,0.0,0.0,0.0,1.0,1.0,0.0,0,0,,,0
1449617333630384098,171,0,/odom,fullacmd_vector,0,0,0,1.52556246568,-0.210003331365,0.0,0.0,0.0,0.0101922761761,0.999948057404,0.452,0.0,0.0,0.0,1.0,1.0,0.0,0,0,,,0
1449617333672738181,172,0,/odom,fullacmd_vector,0,0,0,1.53978089601,-0.212276318458,0.0,0.0,0.0,0.0154758591747,0.99988024172,0.452,0.0,0.0,0.0,1.0,1.0,0.0,0,0,,,0
1449617333709950211,173,0,/odom,fullacmd_vector,0,0,0,1.55115564027,-0.214094708132,0.0,0.0,0.0,0.0154758591747,0.99988024172,0.452,0.0,0.0,0.0,1.0,1.0,0.0,0,0,,,0
1449617333750298706,174,0,/odom,fullacmd_vector,0,0,0,1.55970063444,-0.215368269272,0.0,0.0,0.0,0.0207590100743,0.999784508532,0.452,0.0,0.0,0.0,1.0,1.0,0.0,0,0,,,0
1449617333790583611,175,0,/odom,fullacmd_vector,0,0,0,1.57391906477,-0.217641256365,0.0,0.0,0.0,0.0154758591747,0.99988024172,0.452,0.0,0.0,0.0,1.0,1.0,0.0,0,0,,,0
1449617333832362986,176,0,/odom,fullacmd_vector,0,0,0,1.58816072171,-0.219763858265,0.0,0.0,0.0,0.0207590100743,0.999784508532,0.452,0.0,0.0,0.0,1.0,1.0,0.0,0,0,,,0
1449617333869544363,177,0,/odom,fullacmd_vector,0,0,0,1.59385738449,-0.220612899024,0.0,0.0,0.0,0.0207590100743,0.999784508532,0.452,0.0,0.0,0.0,1.0,1.0,0.0,0,0,,,0
1449617333913506776,178,0,/odom,fullacmd_vector,0,0,0,1.60812067751,-0.222584878673,0.0,0.0,0.0,0.0260415813646,0.999660860512,0.452,0.0,0.0,0.0,1.0,1.0,0.0,0,0,,,0
1449617333951693384,179,0,/odom,fullacmd_vector,0,0,0,1.61669067918,-0.223677560969,0.0,0.0,0.0,0.0313234255519,0.999509301113,0.452,0.0,0.0,0.0,1.0,1.0,0.0,0,0,,,0
1449617333995491511,180,0,/odom,fullacmd_vector,0,0,0,1.63095397219,-0.225649540618,0.0,0.0,0.0,0.0260415813646,0.999660860512,0.452,0.0,0.0,0.0,1.0,1.0,0.0,0,0,,,0
1449617334030119868,181,0,/odom,fullacmd_vector,0,0,0,1.64523730832,-0.227470677779,0.0,0.0,0.0,0.0313234255519,0.999509301113,0.452,0.0,0.0,0.0,1.0,1.0,0.0,0,0,,,0
1449617334069270625,182,0,/odom,fullacmd_vector,0,0,0,1.65095064276,-0.228199132643,0.0,0.0,0.0,0.0313234255519,0.999509301113,0.452,0.0,0.0,0.0,1.0,1.0,0.0,0,0,,,0
1449617334110492227,183,0,/odom,fullacmd_vector,0,0,0,1.66525242679,-0.229869223928,0.0,0.0,0.0,0.0366043951626,0.999329834567,0.452,0.0,0.0,0.0,1.0,1.0,0.0,0,0,,,0
1449617334149390462,184,0,/odom,fullacmd_vector,0,0,0,1.67957106147,-0.231388082816,0.0,0.0,0.0,0.0418843427476,0.999122465883,0.452,0.0,0.0,0.0,1.0,1.0,0.0,0,0,,,0
1449617334189470602,185,0,/odom,fullacmd_vector,0,0,0,1.69102596921,-0.232603169926,0.0,0.0,0.0,0.0418843427476,0.999122465883,0.452,0.0,0.0,0.0,1.0,1.0,0.0,0,0,,,0
1449617334230321277,186,0,/odom,fullacmd_vector,0,0,0,1.69962630092,-0.233423644043,0.0,0.0,0.0,0.0681803204701,0.99767301452,0.452,0.0,0.0,0.0,1.0,1.0,0.0,0,0,,,0
1449617334270009686,187,0,/odom,fullacmd_vector,0,0,0,1.71397383776,-0.234639546157,0.0,0.0,0.0,0.073451072605,0.997298821785,0.452,0.0,0.0,0.0,1.0,1.0,0.0,0,0,,,0
1449617334309569473,188,0,/odom,fullacmd_vector,0,0,0,1.72545186724,-0.235612267847,0.0,0.0,0.0,0.073451072605,0.997298821785,0.452,0.0,0.0,0.0,1.0,1.0,0.0,0,0,,,0
1449617334350442509,189,0,/odom,fullacmd_vector,0,0,0,1.73692989671,-0.236584989538,0.0,0.0,0.0,0.073451072605,0.997298821785,0.452,0.0,0.0,0.0,1.0,1.0,0.0,0,0,,,0
1449617334391510926,190,0,/odom,fullacmd_vector,0,0,0,1.75128948184,-0.237649201108,0.0,0.0,0.0,0.057716579309,0.998333008807,0.452,0.0,0.0,0.0,1.0,1.0,0.0,0,0,,,0
1449617334429915431,191,0,/odom,fullacmd_vector,0,0,0,1.76277714994,-0.238500570365,0.0,0.0,0.0,0.057716579309,0.998333008807,0.452,0.0,0.0,0.0,1.0,1.0,0.0,0,0,,,0
1449617334469861843,192,0,/odom,fullacmd_vector,0,0,0,1.77139916776,-0.239048011669,0.0,0.0,0.0,0.0629909649319,0.998014097264,0.452,0.0,0.0,0.0,1.0,1.0,0.0,0,0,,,0
1449617334512833094,193,0,/odom,fullacmd_vector,0,0,0,1.78577803715,-0.239808502546,0.0,0.0,0.0,0.0892504357472,0.996009216684,0.452,0.0,0.0,0.0,1.0,1.0,0.0,0,0,,,0
1449617334549696221,194,0,/odom,fullacmd_vector,0,0,0,1.80016414036,-0.240416997193,0.0,0.0,0.0,0.094512102227,0.995523712692,0.452,0.0,0.0,0.0,1.0,1.0,0.0,0,0,,,0
1449617334589417643,195,0,/odom,fullacmd_vector,0,0,0,1.80591858165,-0.240660395052,0.0,0.0,0.0,0.094512102227,0.995523712692,0.452,0.0,0.0,0.0,1.0,1.0,0.0,0,0,,,0
1449617334632555905,196,0,/odom,fullacmd_vector,0,0,0,1.820310312,-0.24111682551,0.0,0.0,0.0,0.0997711298487,0.995010412834,0.452,0.0,0.0,0.0,1.0,1.0,0.0,0,0,,,0
1449617334670322488,197,0,/odom,fullacmd_vector,0,0,0,1.83470606219,-0.241421140805,0.0,0.0,0.0,0.105027371776,0.994469331442,0.452,0.0,0.0,0.0,1.0,1.0,0.0,0,0,,,0
1449617334709451338,198,0,/odom,fullacmd_vector,0,0,0,1.84622266235,-0.241664593041,0.0,0.0,0.0,0.105027371776,0.994469331442,0.452,0.0,0.0,0.0,1.0,1.0,0.0,0,0,,,0
1449617334751210269,199,0,/odom,fullacmd_vector,0,0,0,1.8577392625,-0.241908045277,0.0,0.0,0.0,0.105027371776,0.994469331442,0.452,0.0,0.0,0.0,1.0,1.0,0.0,0,0,,,0
1449617334801274564,200,0,/odom,fullacmd_vector,0,0,0,1.87213742477,-0.242060211422,0.0,0.0,0.0,0.11028068125,0.993900483622,0.452,0.0,0.0,0.0,1.0,1.0,0.0,0,0,,,0
1449617334830582964,201,0,/odom,fullacmd_vector,0,0,0,1.88077680457,-0.242060211422,0.0,0.0,0.0,0.115530911593,0.993303885257,0.452,0.0,0.0,0.0,1.0,1.0,0.0,0,0,,,0
1449617334872481448,202,0,/odom,fullacmd_vector,0,0,0,1.89517496684,-0.241908045277,0.0,0.0,0.0,0.120777916216,0.992679553005,0.452,0.0,0.0,0.0,1.0,1.0,0.0,0,0,,,0
1449617334909938069,203,0,/odom,fullacmd_vector,0,0,0,1.90669349666,-0.241786312362,0.0,0.0,0.0,0.120777916216,0.992679553005,0.452,0.0,0.0,0.0,1.0,1.0,0.0,0,0,,,0
1449617334949271837,204,0,/odom,fullacmd_vector,0,0,0,1.91533094677,-0.241603723185,0.0,0.0,0.0,0.126021548617,0.992027504298,0.452,0.0,0.0,0.0,1.0,1.0,0.0,0,0,,,0
1449617334991171183,205,0,/odom,fullacmd_vector,0,0,0,1.92972267712,-0.241147292726,0.0,0.0,0.0,0.131261662389,0.991347757342,0.452,0.0,0.0,0.0,1.0,1.0,0.0,0,0,,,0
1449617335029794180,206,0,/odom,fullacmd_vector,0,0,0,1.93547936927,-0.240964720542,0.0,0.0,0.0,0.131261662389,0.991347757342,0.452,0.0,0.0,0.0,1.0,1.0,0.0,0,0,,,0
1449617335070651452,207,0,/odom,fullacmd_vector,0,0,0,1.94986547248,-0.240356225895,0.0,0.0,0.0,0.136498111224,0.990640331115,0.452,0.0,0.0,0.0,1.0,1.0,0.0,0,0,,,0
1449617335110499919,208,0,/odom,fullacmd_vector,0,0,0,1.96424434187,-0.239595735018,0.0,0.0,0.0,0.141730748917,0.98990524537,0.452,0.0,0.0,0.0,1.0,1.0,0.0,0,0,,,0
1449617335149496195,209,0,/odom,fullacmd_vector,0,0,0,1.97574743738,-0.238987342317,0.0,0.0,0.0,0.141730748917,0.98990524537,0.452,0.0,0.0,0.0,1.0,1.0,0.0,0,0,,,0
1449617335189584159,210,0,/odom,fullacmd_vector,0,0,0,1.9843694552,-0.238439901013,0.0,0.0,0.0,0.146959429366,0.989142520631,0.452,0.0,0.0,0.0,1.0,1.0,0.0,0,0,,,0
1449617335229473100,211,0,/odom,fullacmd_vector,0,0,0,1.99872904033,-0.237375689442,0.0,0.0,0.0,0.152184006584,0.988352178194,0.452,0.0,0.0,0.0,1.0,1.0,0.0,0,0,,,0
1449617335270038709,212,0,/odom,fullacmd_vector,0,0,0,2.00733756244,-0.236646148174,0.0,0.0,0.0,0.157404334695,0.987534240125,0.452,0.0,0.0,0.0,1.0,1.0,0.0,0,0,,,0
1449617335310807070,213,0,/odom,fullacmd_vector,0,0,0,2.01881559191,-0.235673426484,0.0,0.0,0.0,0.157404334695,0.987534240125,0.452,0.0,0.0,0.0,1.0,1.0,0.0,0,0,,,0
1449617335350224429,214,0,/odom,fullacmd_vector,0,0,0,2.03314947809,-0.234305969622,0.0,0.0,0.0,0.162620267943,0.986688729263,0.452,0.0,0.0,0.0,1.0,1.0,0.0,0,0,,,0
1449617335391026587,215,0,/odom,fullacmd_vector,0,0,0,2.04746811277,-0.232787110734,0.0,0.0,0.0,0.167831660696,0.985815669214,0.452,0.0,0.0,0.0,1.0,1.0,0.0,0,0,,,0
1449617335429398067,216,0,/odom,fullacmd_vector,0,0,0,2.05319556664,-0.232179567179,0.0,0.0,0.0,0.167831660696,0.985815669214,0.452,0.0,0.0,0.0,1.0,1.0,0.0,0,0,,,0
1449617335470524809,217,0,/odom,fullacmd_vector,0,0,0,2.06749735067,-0.230509475894,0.0,0.0,0.0,0.173038367446,0.984915084356,0.452,0.0,0.0,0.0,1.0,1.0,0.0,0,0,,,0
1449617335510675323,218,0,/odom,fullacmd_vector,0,0,0,2.08178068679,-0.228688338733,0.0,0.0,0.0,0.178240242818,0.983986999833,0.452,0.0,0.0,0.0,1.0,1.0,0.0,0,0,,,0
1449617335550357088,219,0,/odom,fullacmd_vector,0,0,0,2.0903386626,-0.227505150944,0.0,0.0,0.0,0.183437141572,0.983031441558,0.452,0.0,0.0,0.0,1.0,1.0,0.0,0,0,,,0
1449617335589358184,220,0,/odom,fullacmd_vector,0,0,0,2.10174929701,-0.225927567226,0.0,0.0,0.0,0.183437141572,0.983031441558,0.452,0.0,0.0,0.0,1.0,1.0,0.0,0,0,,,0
1449617335629571862,221,0,/odom,fullacmd_vector,0,0,0,2.11599095395,-0.223804965326,0.0,0.0,0.0,0.188628918605,0.982048436212,0.452,0.0,0.0,0.0,1.0,1.0,0.0,0,0,,,0
1449617335670077657,222,0,/odom,fullacmd_vector,0,0,0,2.12452201215,-0.22244117307,0.0,0.0,0.0,0.193815428958,0.98103801124,0.452,0.0,0.0,0.0,1.0,1.0,0.0,0,0,,,0
1449617335710232577,223,0,/odom,fullacmd_vector,0,0,0,2.13589675641,-0.220622783396,0.0,0.0,0.0,0.193815428958,0.98103801124,0.452,0.0,0.0,0.0,1.0,1.0,0.0,0,0,,,0
1449617335749214677,224,0,/odom,fullacmd_vector,0,0,0,2.14441292587,-0.219168912336,0.0,0.0,0.0,0.19899652782,0.980000194855,0.452,0.0,0.0,0.0,1.0,1.0,0.0,0,0,,,0
1449617335789384428,225,0,/odom,fullacmd_vector,0,0,0,2.15858014189,-0.216595933182,0.0,0.0,0.0,0.183519190423,0.983016127409,0.452,0.0,0.0,0.0,1.0,1.0,0.0,0,0,,,0
1449617335831279600,226,0,/odom,fullacmd_vector,0,0,0,2.17271937592,-0.213873380666,0.0,0.0,0.0,0.188710885391,0.98203268873,0.452,0.0,0.0,0.0,1.0,1.0,0.0,0,0,,,0
1449617335870428339,227,0,/odom,fullacmd_vector,0,0,0,2.17837506954,-0.212784359659,0.0,0.0,0.0,0.188710885391,0.98203268873,0.452,0.0,0.0,0.0,1.0,1.0,0.0,0,0,,,0
1449617335909298416,228,0,/odom,fullacmd_vector,0,0,0,2.19248474249,-0.209912537841,0.0,0.0,0.0,0.19389731139,0.981021830866,0.452,0.0,0.0,0.0,1.0,1.0,0.0,0,0,,,0
1449617335950273182,229,0,/odom,fullacmd_vector,0,0,0,2.19248474249,-0.209912537841,0.0,0.0,0.0,0.19389731139,0.981021830866,0.452,0.0,0.0,0.0,1.0,1.0,0.0,0,0,,,0
1449617335990434587,230,0,/odom,fullacmd_vector,0,0,0,2.21495806544,-0.2048415273,0.0,0.0,0.0,0.204253777399,0.978917971241,0.452,0.0,0.0,0.0,1.0,1.0,0.0,0,0,,,0
1449617336031971867,231,0,/odom,fullacmd_vector,0,0,0,2.22619472691,-0.202306022029,0.0,0.0,0.0,0.204253777399,0.978917971241,0.452,0.0,0.0,0.0,1.0,1.0,0.0,0,0,,,0
1449617336069309910,232,0,/odom,fullacmd_vector,0,0,0,2.24020627586,-0.198988383204,0.0,0.0,0.0,0.209423528247,0.977825028222,0.452,0.0,0.0,0.0,1.0,1.0,0.0,0,0,,,0
1449617336111812259,233,0,/odom,fullacmd_vector,0,0,0,2.24859169959,-0.196909067881,0.0,0.0,0.0,0.214587431812,0.976704783498,0.452,0.0,0.0,0.0,1.0,1.0,0.0,0,0,,,0
1449617336149370935,234,0,/odom,fullacmd_vector,0,0,0,2.26253000222,-0.193296042668,0.0,0.0,0.0,0.219745343914,0.975557268349,0.452,0.0,0.0,0.0,1.0,1.0,0.0,0,0,,,0
1449617336189760344,235,0,/odom,fullacmd_vector,0,0,0,2.27368064432,-0.190405622497,0.0,0.0,0.0,0.219745343914,0.975557268349,0.452,0.0,0.0,0.0,1.0,1.0,0.0,0,0,,,0
1449617336237128510,236,0,/odom,fullacmd_vector,0,0,0,2.2875799867,-0.186645501121,0.0,0.0,0.0,0.224897120539,0.974382514813,0.452,0.0,0.0,0.0,1.0,1.0,0.0,0,0,,,0
1449617336269435549,237,0,/odom,fullacmd_vector,0,0,0,2.29589528459,-0.184301422561,0.0,0.0,0.0,0.230042617847,0.973180555691,0.452,0.0,0.0,0.0,1.0,1.0,0.0,0,0,,,0
1449617336320429975,238,0,/odom,fullacmd_vector,0,0,0,2.30698234844,-0.181175984482,0.0,0.0,0.0,0.230042617847,0.973180555691,0.452,0.0,0.0,0.0,1.0,1.0,0.0,0,0,,,0
1449617336349891054,239,0,/odom,fullacmd_vector,0,0,0,2.31800088125,-0.177816924684,0.0,0.0,0.0,0.240314200019,0.970695155685,0.452,0.0,0.0,0.0,1.0,1.0,0.0,0,0,,,0
1449617336390038730,240,0,/odom,fullacmd_vector,0,0,0,2.32901941406,-0.174457864886,0.0,0.0,0.0,0.240314200019,0.970695155685,0.452,0.0,0.0,0.0,1.0,1.0,0.0,0,0,,,0
1449617336430233432,241,0,/odom,fullacmd_vector,0,0,0,2.33725622867,-0.17185137905,0.0,0.0,0.0,0.245439998092,0.969411784195,0.452,0.0,0.0,0.0,1.0,1.0,0.0,0,0,,,0
1449617336469963852,242,0,/odom,fullacmd_vector,0,0,0,2.34823864815,-0.168376064603,0.0,0.0,0.0,0.245439998092,0.969411784195,0.452,0.0,0.0,0.0,1.0,1.0,0.0,0,0,,,0
1449617336509785245,243,0,/odom,fullacmd_vector,0,0,0,2.35644745784,-0.165682678879,0.0,0.0,0.0,0.250558943273,0.968101345907,0.452,0.0,0.0,0.0,1.0,1.0,0.0,0,0,,,0
1449617336549651719,244,0,/odom,fullacmd_vector,0,0,0,2.37008060452,-0.161049370867,0.0,0.0,0.0,0.235262816038,0.971931791532,0.452,0.0,0.0,0.0,1.0,1.0,0.0,0,0,,,0
1449617336602800947,245,0,/odom,fullacmd_vector,0,0,0,2.38366402578,-0.156272248509,0.0,0.0,0.0,0.260775703449,0.96539941604,0.452,0.0,0.0,0.0,1.0,1.0,0.0,0,0,,,0
1449617336629511760,246,0,/odom,fullacmd_vector,0,0,0,2.38909739429,-0.154361399566,0.0,0.0,0.0,0.240395219014,0.97067509429,0.452,0.0,0.0,0.0,1.0,1.0,0.0,0,0,,,0
1449617336669118346,247,0,/odom,fullacmd_vector,0,0,0,2.40262957312,-0.149440996384,0.0,0.0,0.0,0.245520909952,0.969391294976,0.452,0.0,0.0,0.0,1.0,1.0,0.0,0,0,,,0
1449617336709440021,248,0,/odom,fullacmd_vector,0,0,0,2.41071722817,-0.146403115694,0.0,0.0,0.0,0.250639745738,0.968080429436,0.452,0.0,0.0,0.0,1.0,1.0,0.0,0,0,,,0
1449617336750112944,249,0,/odom,fullacmd_vector,0,0,0,2.42150076823,-0.142352608108,0.0,0.0,0.0,0.250639745738,0.968080429436,0.452,0.0,0.0,0.0,1.0,1.0,0.0,0,0,,,0
1449617336789632151,250,0,/odom,fullacmd_vector,0,0,0,2.43492593415,-0.137147307788,0.0,0.0,0.0,0.25575158345,0.966742534268,0.452,0.0,0.0,0.0,1.0,1.0,0.0,0,0,,,0
1449617336829427680,251,0,/odom,fullacmd_vector,0,0,0,2.44294757859,-0.133939176898,0.0,0.0,0.0,0.260856280361,0.965377646829,0.452,0.0,0.0,0.0,1.0,1.0,0.0,0,0,,,0
1449617336869618347,252,0,/odom,fullacmd_vector,0,0,0,2.45093487204,-0.130646453604,0.0,0.0,0.0,0.265953693943,0.963985805227,0.452,0.0,0.0,0.0,1.0,1.0,0.0,0,0,,,0
1449617336911437997,253,0,/odom,fullacmd_vector,0,0,0,2.46418828939,-0.125018207006,0.0,0.0,0.0,0.271043681872,0.962567048323,0.452,0.0,0.0,0.0,1.0,1.0,0.0,0,0,,,0
1449617336950219174,254,0,/odom,fullacmd_vector,0,0,0,2.47479102327,-0.120515609728,0.0,0.0,0.0,0.271043681872,0.962567048323,0.452,0.0,0.0,0.0,1.0,1.0,0.0,0,0,,,0
1449617336990529103,255,0,/odom,fullacmd_vector,0,0,0,2.48270694255,-0.117054814251,0.0,0.0,0.0,0.276126102031,0.961121415731,0.452,0.0,0.0,0.0,1.0,1.0,0.0,0,0,,,0
1449617337029467664,256,0,/odom,fullacmd_vector,0,0,0,2.49583844932,-0.111147720109,0.0,0.0,0.0,0.281200812516,0.959648947814,0.452,0.0,0.0,0.0,1.0,1.0,0.0,0,0,,,0
1449617337069596607,257,0,/odom,fullacmd_vector,0,0,0,2.50634365474,-0.106422044796,0.0,0.0,0.0,0.281200812516,0.959648947814,0.452,0.0,0.0,0.0,1.0,1.0,0.0,0,0,,,0
1449617337109963556,258,0,/odom,fullacmd_vector,0,0,0,2.51418466366,-0.102794723135,0.0,0.0,0.0,0.266034152848,0.963963603835,0.452,0.0,0.0,0.0,1.0,1.0,0.0,0,0,,,0
1449617337151574672,259,0,/odom,fullacmd_vector,0,0,0,2.52463934222,-0.0979582942539,0.0,0.0,0.0,0.266034152848,0.963963603835,0.452,0.0,0.0,0.0,1.0,1.0,0.0,0,0,,,0
1449617337189255336,260,0,/odom,fullacmd_vector,0,0,0,2.53244158028,-0.0942483125259,0.0,0.0,0.0,0.271124022342,0.962544422097,0.452,0.0,0.0,0.0,1.0,1.0,0.0,0,0,,,0
1449617337229217362,261,0,/odom,fullacmd_vector,0,0,0,2.54537924002,-0.0879279334346,0.0,0.0,0.0,0.276206321823,0.961098365301,0.448815295672,0.0,0.0,0.0,1.0,1.0,0.0,0,0,,,0
1449617337269565031,262,0,/odom,fullacmd_vector,0,0,0,2.55310132669,-0.0840538837791,0.0,0.0,0.0,0.281280909389,0.959625473825,0.448815295672,0.0,0.0,0.0,1.0,1.0,0.0,0,0,,,0
1449617337310342263,263,0,/odom,fullacmd_vector,0,0,0,2.56590251848,-0.077461485125,0.0,0.0,0.0,0.286347643354,0.958125788791,0.442182962356,0.0,0.0,0.0,1.0,1.0,0.0,0,0,,,0
1449617337351634699,264,0,/odom,fullacmd_vector,0,0,0,2.57362460515,-0.0735874354695,0.0,0.0,0.0,0.281280909389,0.959625473825,0.434582883018,0.0,0.0,0.0,1.0,1.0,0.0,0,0,,,0
1449617337389902381,265,0,/odom,fullacmd_vector,0,0,0,2.58380925273,-0.0682055861689,0.0,0.0,0.0,0.291406382249,0.956599352072,0.429823226254,0.0,0.0,0.0,1.0,1.0,0.0,0,0,,,0
1449617337430479362,266,0,/odom,fullacmd_vector,0,0,0,2.59646825805,-0.0613441128951,0.0,0.0,0.0,0.296456984832,0.955046206288,0.429823226254,0.0,0.0,0.0,1.0,1.0,0.0,0,0,,,0
1449617337470068683,267,0,/odom,fullacmd_vector,0,0,0,2.60153186018,-0.0585995235856,0.0,0.0,0.0,0.296456984832,0.955046206288,0.426972117534,0.0,0.0,0.0,1.0,1.0,0.0,0,0,,,0
1449617337509617863,268,0,/odom,fullacmd_vector,0,0,0,2.61411764758,-0.0516046549711,0.0,0.0,0.0,0.281361004302,0.95960199315,0.418391388261,0.0,0.0,0.0,1.0,1.0,0.0,0,0,,,0
1449617337550382831,269,0,/odom,fullacmd_vector,0,0,0,2.6241862775,-0.0460087600795,0.0,0.0,0.0,0.281361004302,0.95960199315,0.416483933936,0.0,0.0,0.0,1.0,1.0,0.0,0,0,,,0
1449617337590811720,270,0,/odom,fullacmd_vector,0,0,0,2.63169297581,-0.0417322704294,0.0,0.0,0.0,0.286427613077,0.958101885223,0.416483933936,0.0,0.0,0.0,1.0,1.0,0.0,0,0,,,0
1449617337629308511,271,0,/odom,fullacmd_vector,0,0,0,2.64412811884,-0.0344729695597,0.0,0.0,0.0,0.29148622455,0.956575026277,0.411710303526,0.0,0.0,0.0,1.0,1.0,0.0,0,0,,,0
1449617337670240329,272,0,/odom,fullacmd_vector,0,0,0,2.6515427589,-0.0300387846088,0.0,0.0,0.0,0.29653669748,0.955021458946,0.411710303526,0.0,0.0,0.0,1.0,1.0,0.0,0,0,,,0
1449617337709144591,273,0,/odom,fullacmd_vector,0,0,0,2.66142894563,-0.0241265380075,0.0,0.0,0.0,0.29653669748,0.955021458946,0.405025547948,0.0,0.0,0.0,1.0,1.0,0.0,0,0,,,0
1449617337749935136,274,0,/odom,fullacmd_vector,0,0,0,2.66879631183,-0.0196142438487,0.0,0.0,0.0,0.301578890854,0.953441226606,0.400243943263,0.0,0.0,0.0,1.0,1.0,0.0,0,0,,,0
1449617337790070072,275,0,/odom,fullacmd_vector,0,0,0,2.6809950944,-0.0119644114791,0.0,0.0,0.0,0.306612663889,0.951834373377,0.393544740391,0.0,0.0,0.0,1.0,1.0,0.0,0,0,,,0
1449617337829893205,276,0,/odom,fullacmd_vector,0,0,0,2.68826544984,-0.0072974194063,0.0,0.0,0.0,0.311637876039,0.950200944126,0.390671687552,0.0,0.0,0.0,1.0,1.0,0.0,0,0,,,0
1449617337871470709,277,0,/odom,fullacmd_vector,0,0,0,2.6979592571,-0.00107476330923,0.0,0.0,0.0,0.291566064819,0.956550693819,0.385880323886,0.0,0.0,0.0,1.0,1.0,0.0,0,0,,,0
1449617337910538560,278,0,/odom,fullacmd_vector,0,0,0,2.70765306435,0.00514789278783,0.0,0.0,0.0,0.291566064819,0.956550693819,0.385880323886,0.0,0.0,0.0,1.0,1.0,0.0,0,0,,,0
1449617337954402916,279,0,/odom,fullacmd_vector,0,0,0,2.70765306435,0.00514789278783,0.0,0.0,0.0,0.291566064819,0.956550693819,0.38300390874,0.0,0.0,0.0,1.0,1.0,0.0,0,0,,,0
1449617337990189053,280,0,/odom,fullacmd_vector,0,0,0,2.72199325813,0.0147871031029,0.0,0.0,0.0,0.301658469523,0.953416051766,0.38300390874,0.0,0.0,0.0,1.0,1.0,0.0,0,0,,,0
1449617338030321680,281,0,/odom,fullacmd_vector,0,0,0,2.72199325813,0.0147871031029,0.0,0.0,0.0,0.301658469523,0.953416051766,0.38300390874,0.0,0.0,0.0,1.0,1.0,0.0,0,0,,,0
1449617338070638039,282,0,/odom,fullacmd_vector,0,0,0,2.7386037066,0.026209023046,0.0,0.0,0.0,0.306692108424,0.951808778395,0.375334013702,0.0,0.0,0.0,1.0,1.0,0.0,0,0,,,0
1449617338109531514,283,0,/odom,fullacmd_vector,0,0,0,2.74567034193,0.031179088284,0.0,0.0,0.0,0.30169825807,0.953403461855,0.369576968712,0.0,0.0,0.0,1.0,1.0,0.0,0,0,,,0
1449617338149970335,284,0,/odom,fullacmd_vector,0,0,0,2.75509252236,0.0378058419347,0.0,0.0,0.0,0.311717184221,0.950174929716,0.362858766084,0.0,0.0,0.0,1.0,1.0,0.0,0,0,,,0
1449617338193540322,285,0,/odom,fullacmd_vector,0,0,0,2.76210624016,0.0428503087938,0.0,0.0,0.0,0.31673355661,0.948514551347,0.362858766084,0.0,0.0,0.0,1.0,1.0,0.0,0,0,,,0
1449617338229973966,286,0,/odom,fullacmd_vector,0,0,0,2.76906625713,0.0479686138948,0.0,0.0,0.0,0.311756837497,0.950161920029,0.359979074702,0.0,0.0,0.0,1.0,1.0,0.0,0,0,,,0
1449617338270431372,287,0,/odom,fullacmd_vector,0,0,0,2.77834627975,0.0547930206961,0.0,0.0,0.0,0.311756837497,0.950161920029,0.359979074702,0.0,0.0,0.0,1.0,1.0,0.0,0,0,,,0
1449617338309152960,288,0,/odom,fullacmd_vector,0,0,0,2.78298629106,0.0582052240967,0.0,0.0,0.0,0.311756837497,0.950161920029,0.353259742258,0.0,0.0,0.0,1.0,1.0,0.0,0,0,,,0
1449617338374201056,289,0,/odom,acmd_vector,0,0,0,2.78989182988,0.0633967958139,0.0,0.0,0.0,0.316773140589,0.948501332314,0.25039010661,0.05,0.05,1.0,0.0,0.0,1.0,0,0,,,0
1449617338396654621,290,0,/odom,acmd_vector,0,0,0,2.80134581187,0.0721221021503,0.0,0.0,0.0,0.321780599107,0.946814261637,0.244630914366,0.05,0.05,1.0,0.0,0.0,1.0,0,0,,,0
1449617338468264867,291,0,/odom,acmd_vector,0,0,0,2.80134581187,0.0721221021503,0.0,0.0,0.0,0.321780599107,0.946814261637,0.244630914366,0.05,0.05,1.0,0.0,0.0,1.0,0,0,,,0
1449617338506327814,292,0,/odom,acmd_vector,0,0,0,2.81270694651,0.0809679652404,0.0,0.0,0.0,0.326779073236,0.945100755102,0.244630914366,0.05,0.05,1.0,0.0,0.0,1.0,0,0,,,0
1449617338534669768,293,0,/odom,acmd_vector,0,0,0,2.81723646318,0.0845255368449,0.0,0.0,0.0,0.316812724018,0.948488111628,0.241751921642,0.05,0.05,1.0,0.0,0.0,1.0,0,0,,,0
1449617338586034963,294,0,/odom,acmd_vector,0,0,0,2.82397396496,0.089933397155,0.0,0.0,0.0,0.331768423417,0.943360860553,1e-05,0.05,0.05,1.0,0.0,0.0,1.0,0,0,,,0
1449617338625038545,295,0,/odom,acmd_vector,0,0,0,2.83076823997,0.0952697545617,0.0,0.0,0.0,0.326779073236,0.945100755102,1e-05,0.05,0.05,1.0,0.0,0.0,1.0,0,0,,,0
1449617338660989153,296,0,/odom,acmd_vector,0,0,0,2.83750574174,0.100677614872,0.0,0.0,0.0,0.331768423417,0.943360860553,1e-05,0.05,0.05,1.0,0.0,0.0,1.0,0,0,,,0
1449617338693667497,297,0,/odom,acmd_vector,0,0,0,2.83973240043,0.102503867955,0.0,0.0,0.0,0.336748510342,0.941594626568,1e-05,0.05,0.05,1.0,0.0,0.0,1.0,0,0,,,0
1449617338768957444,298,0,/odom,acmd_vector,0,0,0,2.84418571781,0.106156374121,0.0,0.0,0.0,0.336748510342,0.941594626568,1e-05,0.05,0.05,1.0,0.0,0.0,1.0,0,0,,,0
1449617338817669332,299,0,/odom,acmd_vector,0,0,0,2.85309235258,0.113461386454,0.0,0.0,0.0,0.336748510342,0.941594626568,1e-05,0.05,0.05,1.0,0.0,0.0,1.0,0,0,,,0
1449617338883355723,300,0,/odom,acmd_vector,0,0,0,2.85754566997,0.11711389262,0.0,0.0,0.0,0.336748510342,0.941594626568,1e-05,0.05,0.05,1.0,0.0,0.0,1.0,0,0,,,0
1449617338940870175,301,0,/odom,acmd_vector,0,0,0,2.86416737431,0.122662938927,0.0,0.0,0.0,0.341719194964,0.939802102463,1e-05,0.05,0.05,1.0,0.0,0.0,1.0,0,0,,,0
1449617338975019275,302,0,/odom,acmd_vector,0,0,0,2.87073006738,0.128281652559,0.0,0.0,0.0,0.346680338495,0.937983338285,1e-05,0.05,0.05,1.0,0.0,0.0,1.0,0,0,,,0
1449617339017350429,303,0,/odom,acmd_vector,0,0,0,2.87293730216,0.130131334661,0.0,0.0,0.0,0.341719194964,0.939802102463,1e-05,0.05,0.05,1.0,0.0,0.0,1.0,0,0,,,0
1449617339072320024,304,0,/odom,acmd_vector,0,0,0,2.87512486652,0.132004239205,0.0,0.0,0.0,0.346680338495,0.937983338285,1e-05,0.05,0.05,1.0,0.0,0.0,1.0,0,0,,,0
1449617339129890541,305,0,/odom,acmd_vector,0,0,0,2.87949999524,0.135750048293,0.0,0.0,0.0,0.346680338495,0.937983338285,1e-05,0.05,0.05,1.0,0.0,0.0,1.0,0,0,,,0
1449617339173732212,306,0,/odom,acmd_vector,0,0,0,2.88604277358,0.141391775196,0.0,0.0,0.0,0.351631802417,0.936138384818,1e-05,0.05,0.05,1.0,0.0,0.0,1.0,0,0,,,0
1449617339245937595,307,0,/odom,acmd_vector,0,0,0,2.88604277358,0.141391775196,0.0,0.0,0.0,0.351631802417,0.936138384818,1e-05,0.05,0.05,1.0,0.0,0.0,1.0,0,0,,,0
1449617339348383933,308,0,/odom,acmd_vector,0,0,0,2.89252556563,0.147102330171,0.0,0.0,0.0,0.356573448481,0.934267293572,1e-05,0.05,0.05,1.0,0.0,0.0,1.0,0,0,,,0
1449617339419316729,309,0,/odom,acmd_vector,0,0,0,2.89469321525,0.148998247986,0.0,0.0,0.0,0.351631802417,0.936138384818,1e-05,0.05,0.05,1.0,0.0,0.0,1.0,0,0,,,0
1449617339448408423,310,0,/odom,acmd_vector,0,0,0,2.89684070805,0.15091696733,0.0,0.0,0.0,0.356573448481,0.934267293572,1e-05,0.05,0.05,1.0,0.0,0.0,1.0,0,0,,,0
1449617339498687720,311,0,/odom,acmd_vector,0,0,0,2.89684070805,0.15091696733,0.0,0.0,0.0,0.356573448481,0.934267293572,1e-05,0.05,0.05,1.0,0.0,0.0,1.0,0,0,,,0
1449617339554613384,312,0,/odom,acmd_vector,0,0,0,2.89684070805,0.15091696733,0.0,0.0,0.0,0.356573448481,0.934267293572,1e-05,0.05,0.05,1.0,0.0,0.0,1.0,0,0,,,0
1449617339594458541,313,0,/odom,acmd_vector,0,0,0,2.89684070805,0.15091696733,0.0,0.0,0.0,0.356573448481,0.934267293572,1e-05,0.05,0.05,1.0,0.0,0.0,1.0,0,0,,,0
1449617339623665230,314,0,/odom,acmd_vector,0,0,0,2.89684070805,0.15091696733,0.0,0.0,0.0,0.356573448481,0.934267293572,1e-05,0.05,0.05,1.0,0.0,0.0,1.0,0,0,,,0
1449617339672615475,315,0,/odom,acmd_vector,0,0,0,2.89684070805,0.15091696733,0.0,0.0,0.0,0.356573448481,0.934267293572,1e-05,0.05,0.05,1.0,0.0,0.0,1.0,0,0,,,0
1449617339690867557,316,0,/odom,acmd_vector,0,0,0,2.89684070805,0.15091696733,0.0,0.0,0.0,0.356573448481,0.934267293572,1e-05,0.05,0.05,1.0,0.0,0.0,1.0,0,0,,,0
1449617339731619799,317,0,/odom,acmd_vector,0,0,0,2.89684070805,0.15091696733,0.0,0.0,0.0,0.356573448481,0.934267293572,1e-05,0.05,0.05,1.0,0.0,0.0,1.0,0,0,,,0
1449617339806114504,318,0,/odom,acmd_vector,0,0,0,2.89684070805,0.15091696733,0.0,0.0,0.0,0.356573448481,0.934267293572,1e-05,0.05,0.05,1.0,0.0,0.0,1.0,0,0,,,0
1449617339842546693,319,0,/odom,acmd_vector,0,0,0,2.89684070805,0.15091696733,0.0,0.0,0.0,0.356573448481,0.934267293572,1e-05,0.05,0.05,1.0,0.0,0.0,1.0,0,0,,,0
1449617339885178665,320,0,/odom,acmd_vector,0,0,0,2.89684070805,0.15091696733,0.0,0.0,0.0,0.356573448481,0.934267293572,1e-05,0.05,0.05,1.0,0.0,0.0,1.0,0,0,,,0
1449617339930146100,321,0,/odom,acmd_vector,0,0,0,2.89684070805,0.15091696733,0.0,0.0,0.0,0.356573448481,0.934267293572,1e-05,0.05,0.05,1.0,0.0,0.0,1.0,0,0,,,0
1449617339954572091,322,0,/odom,acmd_vector,0,0,0,2.89684070805,0.15091696733,0.0,0.0,0.0,0.356573448481,0.934267293572,1e-05,0.05,0.05,1.0,0.0,0.0,1.0,0,0,,,0
1449617340020688631,323,0,/odom,acmd_vector,0,0,0,2.89684070805,0.15091696733,0.0,0.0,0.0,0.356573448481,0.934267293572,1e-05,0.05,0.05,1.0,0.0,0.0,1.0,0,0,,,0
1449617340086419695,324,0,/odom,acmd_vector,0,0,0,2.89684070805,0.15091696733,0.0,0.0,0.0,0.356573448481,0.934267293572,1e-05,0.05,0.05,1.0,0.0,0.0,1.0,0,0,,,0
1449617340146325480,325,0,/odom,acmd_vector,0,0,0,2.89684070805,0.15091696733,0.0,0.0,0.0,0.356573448481,0.934267293572,1e-05,0.05,0.05,1.0,0.0,0.0,1.0,0,0,,,0
1449617340224838365,326,0,/odom,acmd_vector,0,0,0,2.89684070805,0.15091696733,0.0,0.0,0.0,0.356573448481,0.934267293572,1e-05,0.05,0.05,1.0,0.0,0.0,1.0,0,0,,,0
1449617340260362731,327,0,/odom,acmd_vector,0,0,0,2.89684070805,0.15091696733,0.0,0.0,0.0,0.356573448481,0.934267293572,1e-05,0.05,0.05,1.0,0.0,0.0,1.0,0,0,,,0
1449617340312717619,328,0,/odom,acmd_vector,0,0,0,2.89684070805,0.15091696733,0.0,0.0,0.0,0.356573448481,0.934267293572,1e-05,0.05,0.05,1.0,0.0,0.0,1.0,0,0,,,0
1449617340336561551,329,0,/odom,acmd_vector,0,0,0,2.89684070805,0.15091696733,0.0,0.0,0.0,0.356573448481,0.934267293572,1e-05,0.05,0.05,1.0,0.0,0.0,1.0,0,0,,,0
1449617340370374625,330,0,/odom,acmd_vector,0,0,0,2.89684070805,0.15091696733,0.0,0.0,0.0,0.356573448481,0.934267293572,1e-05,0.05,0.05,1.0,0.0,0.0,1.0,0,0,,,0
1449617340403273276,331,0,/odom,acmd_vector,0,0,0,2.89684070805,0.15091696733,0.0,0.0,0.0,0.356573448481,0.934267293572,1e-05,0.05,0.05,1.0,0.0,0.0,1.0,0,0,,,0
1449617340449142807,332,0,/odom,acmd_vector,0,0,0,2.89684070805,0.15091696733,0.0,0.0,0.0,0.356573448481,0.934267293572,1e-05,0.05,0.05,1.0,0.0,0.0,1.0,0,0,,,0
1449617340473581890,333,0,/odom,acmd_vector,0,0,0,2.89684070805,0.15091696733,0.0,0.0,0.0,0.356573448481,0.934267293572,1e-05,0.05,0.05,1.0,0.0,0.0,1.0,0,0,,,0
1449617340524323932,334,0,/odom,acmd_vector,0,0,0,2.89684070805,0.15091696733,0.0,0.0,0.0,0.356573448481,0.934267293572,1e-05,0.05,0.05,1.0,0.0,0.0,1.0,0,0,,,0
1449617340554106005,335,0,/odom,acmd_vector,0,0,0,2.89684070805,0.15091696733,0.0,0.0,0.0,0.356573448481,0.934267293572,1e-05,0.05,0.05,1.0,0.0,0.0,1.0,0,0,,,0
1449617340618071361,336,0,/odom,acmd_vector,0,0,0,2.89684070805,0.15091696733,0.0,0.0,0.0,0.356573448481,0.934267293572,1e-05,0.05,0.05,1.0,0.0,0.0,1.0,0,0,,,0
1449617340667086276,337,0,/odom,acmd_vector,0,0,0,2.89684070805,0.15091696733,0.0,0.0,0.0,0.356573448481,0.934267293572,1e-05,0.05,0.05,1.0,0.0,0.0,1.0,0,0,,,0
1449617340724182443,338,0,/odom,acmd_vector,0,0,0,2.89684070805,0.15091696733,0.0,0.0,0.0,0.356573448481,0.934267293572,1e-05,0.05,0.05,1.0,0.0,0.0,1.0,0,0,,,0
1449617340779919950,339,0,/odom,acmd_vector,0,0,0,2.89684070805,0.15091696733,0.0,0.0,0.0,0.356573448481,0.934267293572,1e-05,0.05,0.05,1.0,0.0,0.0,1.0,0,0,,,0
1449617340806112193,340,0,/odom,acmd_vector,0,0,0,2.89684070805,0.15091696733,0.0,0.0,0.0,0.356573448481,0.934267293572,1e-05,0.05,0.05,1.0,0.0,0.0,1.0,0,0,,,0
1449617340892155513,341,0,/odom,acmd_vector,0,0,0,2.89684070805,0.15091696733,0.0,0.0,0.0,0.356573448481,0.934267293572,1e-05,0.05,0.05,1.0,0.0,0.0,1.0,0,0,,,0
1449617340944812241,342,0,/odom,acmd_vector,0,0,0,2.89684070805,0.15091696733,0.0,0.0,0.0,0.356573448481,0.934267293572,1e-05,0.05,0.05,1.0,0.0,0.0,1.0,0,0,,,0
1449617340984307786,343,0,/odom,acmd_vector,0,0,0,2.89684070805,0.15091696733,0.0,0.0,0.0,0.356573448481,0.934267293572,1e-05,0.05,0.05,1.0,0.0,0.0,1.0,0,0,,,0
1449617341018599705,344,0,/odom,acmd_vector,0,0,0,2.89684070805,0.15091696733,0.0,0.0,0.0,0.356573448481,0.934267293572,1e-05,0.05,0.05,1.0,0.0,0.0,1.0,0,0,,,0
1449617341066890895,345,0,/odom,acmd_vector,0,0,0,2.89684070805,0.15091696733,0.0,0.0,0.0,0.356573448481,0.934267293572,1e-05,0.05,0.05,1.0,0.0,0.0,1.0,0,0,,,0
1449617341092561686,346,0,/odom,acmd_vector,0,0,0,2.89684070805,0.15091696733,0.0,0.0,0.0,0.356573448481,0.934267293572,1e-05,0.05,0.05,1.0,0.0,0.0,1.0,0,0,,,0
1449617341141121360,347,0,/odom,acmd_vector,0,0,0,2.89684070805,0.15091696733,0.0,0.0,0.0,0.356573448481,0.934267293572,1e-05,0.05,0.05,1.0,0.0,0.0,1.0,0,0,,,0
1449617341185891751,348,0,/odom,acmd_vector,0,0,0,2.89684070805,0.15091696733,0.0,0.0,0.0,0.356573448481,0.934267293572,1e-05,0.05,0.05,1.0,0.0,0.0,1.0,0,0,,,0
1449617341240105708,349,0,/odom,acmd_vector,0,0,0,2.89684070805,0.15091696733,0.0,0.0,0.0,0.356573448481,0.934267293572,1e-05,0.05,0.05,1.0,0.0,0.0,1.0,0,0,,,0
1449617341281368609,350,0,/odom,acmd_vector,0,0,0,2.89684070805,0.15091696733,0.0,0.0,0.0,0.356573448481,0.934267293572,1e-05,0.05,0.05,1.0,0.0,0.0,1.0,0,0,,,0
1449617341313221889,351,0,/odom,acmd_vector,0,0,0,2.89684070805,0.15091696733,0.0,0.0,0.0,0.356573448481,0.934267293572,1e-05,0.05,0.05,1.0,0.0,0.0,1.0,0,0,,,0
1449617341338906467,352,0,/odom,acmd_vector,0,0,0,2.89684070805,0.15091696733,0.0,0.0,0.0,0.356573448481,0.934267293572,1e-05,0.05,0.05,1.0,0.0,0.0,1.0,0,0,,,0
1449617341392048142,353,0,/odom,acmd_vector,0,0,0,2.89684070805,0.15091696733,0.0,0.0,0.0,0.356573448481,0.934267293572,1e-05,0.05,0.05,1.0,0.0,0.0,1.0,0,0,,,0
1449617341427028954,354,0,/odom,acmd_vector,0,0,0,2.89684070805,0.15091696733,0.0,0.0,0.0,0.356573448481,0.934267293572,1e-05,0.05,0.05,1.0,0.0,0.0,1.0,0,0,,,0
1449617341473188412,355,0,/odom,acmd_vector,0,0,0,2.89684070805,0.15091696733,0.0,0.0,0.0,0.356573448481,0.934267293572,1e-05,0.05,0.05,1.0,0.0,0.0,1.0,0,0,,,0
1449617341501039639,356,0,/odom,acmd_vector,0,0,0,2.89684070805,0.15091696733,0.0,0.0,0.0,0.356573448481,0.934267293572,1e-05,0.05,0.05,1.0,0.0,0.0,1.0,0,0,,,0
1449617341528055047,357,0,/odom,acmd_vector,0,0,0,2.89684070805,0.15091696733,0.0,0.0,0.0,0.356573448481,0.934267293572,1e-05,0.05,0.05,1.0,0.0,0.0,1.0,0,0,,,0
1449617341560519783,358,0,/odom,acmd_vector,0,0,0,2.89684070805,0.15091696733,0.0,0.0,0.0,0.356573448481,0.934267293572,1e-05,0.05,0.05,1.0,0.0,0.0,1.0,0,0,,,0
1449617341609814222,359,0,/odom,acmd_vector,0,0,0,2.89684070805,0.15091696733,0.0,0.0,0.0,0.356573448481,0.934267293572,1e-05,0.05,0.05,1.0,0.0,0.0,1.0,0,0,,,0
1449617341671241103,360,0,/odom,acmd_vector,0,0,0,2.89684070805,0.15091696733,0.0,0.0,0.0,0.356573448481,0.934267293572,1e-05,0.05,0.05,1.0,0.0,0.0,1.0,0,0,,,0
1449617341721312194,361,0,/odom,acmd_vector,0,0,0,2.89684070805,0.15091696733,0.0,0.0,0.0,0.356573448481,0.934267293572,1e-05,0.05,0.05,1.0,0.0,0.0,1.0,0,0,,,0
1449617341741428501,362,0,/odom,acmd_vector,0,0,0,2.89684070805,0.15091696733,0.0,0.0,0.0,0.356573448481,0.934267293572,1e-05,0.05,0.05,1.0,0.0,0.0,1.0,0,0,,,0
1449617341762342299,363,0,/odom,acmd_vector,0,0,0,2.89684070805,0.15091696733,0.0,0.0,0.0,0.356573448481,0.934267293572,1e-05,0.05,0.05,1.0,0.0,0.0,1.0,0,0,,,0
