%time,field.robot_pose.position.x,field.robot_pose.position.y,field.robot_pose.position.z,field.robot_pose.orientation.x,field.robot_pose.orientation.y,field.robot_pose.orientation.z,field.robot_pose.orientation.w,field.ctime,field.hasac,field.acmd.linear.x,field.acmd.linear.y,field.acmd.linear.z,field.acmd.angular.x,field.acmd.angular.y,field.acmd.angular.z,field.hasuc,field.ucmd.linear.x,field.ucmd.linear.y,field.ucmd.linear.z,field.ucmd.angular.x,field.ucmd.angular.y,field.ucmd.angular.z,field.bcmd.linear.x,field.bcmd.linear.y,field.bcmd.linear.z,field.bcmd.angular.x,field.bcmd.angular.y,field.bcmd.angular.z,field.blending,field.blendingno,field.controlstate,field.alpha,field.source,field.sxb
1449617321592093802,0.0,0.0,0.0,0.0,0.0,0.0,1.0,1449617321548816902,1,0.0,0.0,0.0,0.0,0.0,0.0,1,-0.0,0.0,0.0,0.0,0.0,-0.0,-0.0,0.0,0.0,0.0,0.0,-0.0,,0,Sharing Zero Relinquish,10.0,,0
1449617321629156859,0.0,0.0,0.0,0.0,0.0,0.0,1.0,1449617321589027357,1,0.0,0.0,0.0,0.0,0.0,0.0,1,-0.0,0.0,0.0,0.0,0.0,-0.0,-0.0,0.0,0.0,0.0,0.0,-0.0,,0,Sharing Zero Relinquish,10.0,,0
1449617321669045396,0.0,0.0,0.0,0.0,0.0,0.0,1.0,1449617321628874005,1,0.0,0.0,0.0,0.0,0.0,0.0,1,-0.0,0.0,0.0,0.0,0.0,-0.0,-0.0,0.0,0.0,0.0,0.0,-0.0,,0,Sharing Zero Relinquish,10.0,,0
1449617321710344295,0.0,0.0,0.0,0.0,0.0,0.0,1.0,1449617321668793115,1,0.0,0.0,0.0,0.0,0.0,0.0,1,-0.0,0.0,0.0,0.0,0.0,-0.0,-0.0,0.0,0.0,0.0,0.0,-0.0,,0,Sharing Zero Relinquish,10.0,user,0
1449617321749475474,0.0,0.0,0.0,0.0,0.0,0.0,1.0,1449617321708787510,1,0.0,0.0,0.0,0.0,0.0,0.0,1,-0.0,0.0,0.0,0.0,0.0,-0.0,-0.0,0.0,0.0,0.0,0.0,-0.0,,0,Sharing Zero Relinquish,10.0,user,0
1449617321789029127,0.0,0.0,0.0,0.0,0.0,0.0,1.0,1449617321748797894,1,0.0,0.0,0.0,0.0,0.0,0.0,1,-0.0,0.0,0.0,0.0,0.0,-0.0,-0.0,0.0,0.0,0.0,0.0,-0.0,,0,Sharing Zero Relinquish,10.0,user,0
1449617321829104624,0.0,0.0,0.0,0.0,0.0,0.0,1.0,1449617321788785353,1,0.0,0.0,0.0,0.0,0.0,0.0,1,-0.0,0.0,0.0,0.0,0.0,-0.0,-0.0,0.0,0.0,0.0,0.0,-0.0,,0,Sharing Zero Relinquish,10.0,user,0
1449617321869942736,0.0,0.0,0.0,0.0,0.0,0.0,1.0,1449617321828786009,1,0.0,0.0,0.0,0.0,0.0,0.0,1,-0.0,0.0,0.0,0.0,0.0,-0.0,-0.0,0.0,0.0,0.0,0.0,-0.0,,0,Sharing Zero Relinquish,10.0,user,0
1449617321909011391,0.0,0.0,0.0,0.0,0.0,0.0,1.0,1449617321868781737,1,0.0,0.0,0.0,0.0,0.0,0.0,1,-0.0,0.0,0.0,0.0,0.0,-0.0,-0.0,0.0,0.0,0.0,0.0,-0.0,,0,Sharing Zero Relinquish,10.0,user,0
1449617321949418634,0.0,0.0,0.0,0.0,0.0,0.0,1.0,1449617321908789503,1,0.0,0.0,0.0,0.0,0.0,0.0,1,-0.0,0.0,0.0,0.0,0.0,-0.0,-0.0,0.0,0.0,0.0,0.0,-0.0,,0,Sharing Zero Relinquish,10.0,user,0
1449617321989906988,0.0,0.0,0.0,0.0,0.0,0.0,1.0,1449617321948798265,1,0.0,0.0,0.0,0.0,0.0,0.0,1,-0.0,0.0,0.0,0.0,0.0,-0.0,-0.0,0.0,0.0,0.0,0.0,-0.0,,0,Sharing Zero Relinquish,10.0,user,0
1449617322029180333,0.0,0.0,0.0,0.0,0.0,0.0,1.0,1449617321988799301,1,0.0,0.0,0.0,0.0,0.0,0.0,1,-0.0,0.0,0.0,0.0,0.0,-0.0,-0.0,0.0,0.0,0.0,0.0,-0.0,,0,Sharing Zero Relinquish,10.0,user,0
1449617322069456289,0.0,0.0,0.0,0.0,0.0,0.0,1.0,1449617322028797736,1,0.0,0.0,0.0,0.0,0.0,0.0,1,-0.0,0.0,0.0,0.0,0.0,-0.0,-0.0,0.0,0.0,0.0,0.0,-0.0,,0,Sharing Zero Relinquish,10.0,user,0
1449617322110677855,0.0,0.0,0.0,0.0,0.0,0.0,1.0,1449617322068828148,1,0.0,0.0,0.0,0.0,0.0,0.0,1,-0.0,0.0,0.0,0.0,0.0,-0.0,-0.0,0.0,0.0,0.0,0.0,-0.0,,0,Sharing Zero Relinquish,10.0,user,0
1449617322149079823,0.0,0.0,0.0,0.0,0.0,0.0,1.0,1449617322108799515,1,0.0,0.0,0.0,0.0,0.0,0.0,1,-0.0,0.0,0.0,0.0,0.0,-0.0,-0.0,0.0,0.0,0.0,0.0,-0.0,,0,Sharing Zero Relinquish,10.0,user,0
1449617322190819621,0.0,0.0,0.0,0.0,0.0,0.0,1.0,1449617322148803398,1,0.0,0.0,0.0,0.0,0.0,0.0,1,-0.0,0.0,0.0,0.0,0.0,-0.0,-0.0,0.0,0.0,0.0,0.0,-0.0,,0,Sharing Zero Relinquish,10.0,user,0
1449617322230806969,0.0,0.0,0.0,0.0,0.0,0.0,1.0,1449617322188794047,1,0.0,0.0,0.0,0.0,0.0,0.0,1,-0.0,0.0,0.0,0.0,0.0,-0.0,-0.0,0.0,0.0,0.0,0.0,-0.0,,0,Sharing Zero Relinquish,10.0,user,0
1449617322271475068,0.0,0.0,0.0,0.0,0.0,0.0,1.0,1449617322228796685,1,0.0,0.0,0.0,0.0,0.0,0.0,1,-0.0,0.0,0.0,0.0,0.0,-0.0,-0.0,0.0,0.0,0.0,0.0,-0.0,,0,Sharing Zero Relinquish,10.0,user,0
1449617322310473649,0.0,0.0,0.0,0.0,0.0,0.0,1.0,1449617322270437727,1,0.0,0.0,0.0,0.0,0.0,0.0,1,-0.0,0.0,0.0,0.0,0.0,-0.0,-0.0,0.0,0.0,0.0,0.0,-0.0,,0,Sharing Zero Relinquish,10.0,user,0
1449617322351722443,0.0,0.0,0.0,0.0,0.0,0.0,1.0,1449617322308798876,1,0.0,0.0,0.0,0.0,0.0,0.0,1,-0.0,0.0,0.0,0.0,0.0,-0.0,-0.0,0.0,0.0,0.0,0.0,-0.0,,0,Sharing Zero Relinquish,10.0,user,0
1449617322389896015,0.0,0.0,0.0,0.0,0.0,0.0,1.0,1449617322348786617,1,0.0,0.0,0.0,0.0,0.0,0.0,1,-0.0,0.0,0.0,0.0,0.0,-0.0,-0.0,0.0,0.0,0.0,0.0,-0.0,,0,Sharing Zero Relinquish,10.0,user,0
1449617322429754686,0.0,0.0,0.0,0.0,0.0,0.0,1.0,1449617322388796181,1,0.0,0.0,0.0,0.0,0.0,0.0,1,-0.0,0.0,0.0,0.0,0.0,-0.0,-0.0,0.0,0.0,0.0,0.0,-0.0,,0,Sharing Zero Relinquish,10.0,user,0
1449617322469523109,0.0,0.0,0.0,0.0,0.0,0.0,1.0,1449617322428970341,1,0.0,0.0,0.0,0.0,0.0,0.0,1,-0.0,0.0,0.0,0.0,0.0,-0.0,-0.0,0.0,0.0,0.0,0.0,-0.0,,0,Sharing Zero Relinquish,10.0,user,0
1449617322509359565,0.0,0.0,0.0,0.0,0.0,0.0,1.0,1449617322468959175,1,0.0,0.0,0.0,0.0,0.0,0.0,1,-0.0,0.0,0.0,0.0,0.0,-0.0,-0.0,0.0,0.0,0.0,0.0,-0.0,,0,Sharing Zero Relinquish,10.0,user,0
1449617322549244559,0.0,0.0,0.0,0.0,0.0,0.0,1.0,1449617322508810140,1,0.0,0.0,0.0,0.0,0.0,0.0,1,-0.0,0.0,0.0,0.0,0.0,-0.0,-0.0,0.0,0.0,0.0,0.0,-0.0,,0,Sharing Zero Relinquish,10.0,user,0
1449617322590270169,0.0,0.0,0.0,0.0,0.0,0.0,1.0,1449617322548794307,1,0.0,0.0,0.0,0.0,0.0,0.0,1,-0.0,0.0,0.0,0.0,0.0,-0.0,-0.0,0.0,0.0,0.0,0.0,-0.0,,0,Sharing Zero Relinquish,10.0,user,0
1449617322631462640,0.0,0.0,0.0,0.0,0.0,0.0,1.0,1449617322588778800,1,0.0,0.0,0.0,0.0,0.0,0.0,1,-0.0,0.0,0.0,0.0,0.0,-0.0,-0.0,0.0,0.0,0.0,0.0,-0.0,,0,Sharing Zero Relinquish,10.0,user,0
1449617322669600633,0.0,0.0,0.0,0.0,0.0,0.0,1.0,1449617322628801897,1,0.0,0.0,0.0,0.0,0.0,0.0,1,-0.0,0.0,0.0,0.0,0.0,-0.0,-0.0,0.0,0.0,0.0,0.0,-0.0,,0,Sharing Zero Relinquish,10.0,user,0
1449617322709881410,0.0,0.0,0.0,0.0,0.0,0.0,1.0,1449617322669192717,1,0.0,0.0,0.0,0.0,0.0,0.0,1,-0.0,0.0,0.0,0.0,0.0,-0.0,-0.0,0.0,0.0,0.0,0.0,-0.0,,0,Sharing Zero Relinquish,10.0,user,0
1449617322753917624,0.0,0.0,0.0,0.0,0.0,0.0,1.0,1449617322708783401,1,0.0,0.0,0.0,0.0,0.0,0.0,1,-0.0,0.0,0.0,0.0,0.0,-0.0,-0.0,0.0,0.0,0.0,0.0,-0.0,,0,Sharing Zero Relinquish,10.0,user,0
1449617322788939217,0.0,0.0,0.0,0.0,0.0,0.0,1.0,1449617322748939102,1,0.0,0.0,0.0,0.0,0.0,0.0,1,-0.0,0.0,0.0,0.0,0.0,-0.0,-0.0,0.0,0.0,0.0,0.0,-0.0,,0,Sharing Zero Relinquish,10.0,user,0
1449617322829463609,0.0,0.0,0.0,0.0,0.0,0.0,1.0,1449617322788781451,1,0.0,0.0,0.0,0.0,0.0,0.0,1,-0.0,0.0,0.0,0.0,0.0,-0.0,-0.0,0.0,0.0,0.0,0.0,-0.0,,0,Sharing Zero Relinquish,10.0,user,0
1449617322869917789,0.0,0.0,0.0,0.0,0.0,0.0,1.0,1449617322828785242,1,0.0,0.0,0.0,0.0,0.0,0.0,1,-0.0,0.0,0.0,0.0,0.0,-0.0,-0.0,0.0,0.0,0.0,0.0,-0.0,,0,Sharing Zero Relinquish,10.0,user,0
1449617322910255194,0.0,0.0,0.0,0.0,0.0,0.0,1.0,1449617322868810075,1,0.0,0.0,0.0,0.0,0.0,0.0,1,-0.0,0.0,0.0,0.0,0.0,-0.0,-0.0,0.0,0.0,0.0,0.0,-0.0,,0,Sharing Zero Relinquish,10.0,user,0
1449617322949495676,0.0,0.0,0.0,0.0,0.0,0.0,1.0,1449617322908800220,1,0.0,0.0,0.0,0.0,0.0,0.0,1,-0.0,0.0,0.0,0.0,0.0,-0.0,-0.0,0.0,0.0,0.0,0.0,-0.0,,0,Sharing Zero Relinquish,10.0,user,0
1449617322989108435,0.0,0.0,0.0,0.0,0.0,0.0,1.0,1449617322948801464,1,0.0,0.0,0.0,0.0,0.0,0.0,1,-0.0,0.0,0.0,0.0,0.0,-0.0,-0.0,0.0,0.0,0.0,0.0,-0.0,,0,Sharing Zero Relinquish,10.0,user,0
1449617323030110140,0.0,0.0,0.0,0.0,0.0,0.0,1.0,1449617322988787925,1,0.0,0.0,0.0,0.0,0.0,0.0,1,-0.0,0.0,0.0,0.0,0.0,-0.0,-0.0,0.0,0.0,0.0,0.0,-0.0,,0,Sharing Zero Relinquish,10.0,user,0
1449617323069140037,0.0,0.0,0.0,0.0,0.0,0.0,1.0,1449617323028785079,1,0.0,0.0,0.0,0.0,0.0,0.0,1,-0.0,0.0,0.0,0.0,0.0,-0.0,-0.0,0.0,0.0,0.0,0.0,-0.0,,0,Sharing Zero Relinquish,10.0,user,0
1449617323110031766,0.0,0.0,0.0,0.0,0.0,0.0,1.0,1449617323068795364,1,0.0,0.0,0.0,0.0,0.0,0.0,1,-0.0,0.0,0.0,0.0,0.0,-0.0,-0.0,0.0,0.0,0.0,0.0,-0.0,,0,Sharing Zero Relinquish,10.0,user,0
1449617323149371141,0.0,0.0,0.0,0.0,0.0,0.0,1.0,1449617323108793439,1,0.0,0.0,0.0,0.0,0.0,0.0,1,-0.0,0.0,0.0,0.0,0.0,-0.0,-0.0,0.0,0.0,0.0,0.0,-0.0,,0,Sharing Zero Relinquish,10.0,user,0
1449617323189479967,0.0,0.0,0.0,0.0,0.0,0.0,1.0,1449617323148803667,1,0.0,0.0,0.0,0.0,0.0,0.0,1,-0.0,0.0,0.0,0.0,0.0,-0.0,-0.0,0.0,0.0,0.0,0.0,-0.0,,0,Sharing Zero Relinquish,10.0,user,0
1449617323233664012,0.0,0.0,0.0,0.0,0.0,0.0,1.0,1449617323188798608,1,0.0,0.0,0.0,0.0,0.0,0.0,1,-0.0,0.0,0.0,0.0,0.0,-0.0,-0.0,0.0,0.0,0.0,0.0,-0.0,,0,Sharing Zero Relinquish,10.0,user,0
1449617323269234730,0.0,0.0,0.0,0.0,0.0,0.0,1.0,1449617323228791998,1,0.0,0.0,0.0,0.0,0.0,0.0,1,-0.0,0.0,0.0,0.0,0.0,-0.0,-0.0,0.0,0.0,0.0,0.0,-0.0,,0,Sharing Zero Relinquish,10.0,user,0
1449617323309242314,0.0,0.0,0.0,0.0,0.0,0.0,1.0,1449617323268758362,1,0.0,0.0,0.0,0.0,0.0,0.0,1,-0.0,0.0,0.0,0.0,0.0,-0.0,-0.0,0.0,0.0,0.0,0.0,-0.0,,0,Sharing Zero Relinquish,10.0,user,0
1449617323349516162,0.0,0.0,0.0,0.0,0.0,0.0,1.0,1449617323309117648,1,0.0,0.0,0.0,0.0,0.0,0.0,1,-0.0,0.0,0.0,0.0,0.0,-0.0,-0.0,0.0,0.0,0.0,0.0,-0.0,,0,Sharing Zero Relinquish,10.0,user,0
1449617323392121651,0.0,0.0,0.0,0.0,0.0,0.0,1.0,1449617323348815641,1,0.0,0.0,0.0,0.0,0.0,0.0,1,-0.0,0.0,0.0,0.0,0.0,-0.0,-0.0,0.0,0.0,0.0,0.0,-0.0,,0,Sharing Zero Relinquish,10.0,user,0
1449617323438146743,0.0,0.0,0.0,0.0,0.0,0.0,1.0,1449617323388805672,1,0.0,0.0,0.0,0.0,0.0,0.0,1,-0.0,0.0,0.0,0.0,0.0,-0.0,-0.0,0.0,0.0,0.0,0.0,-0.0,,0,Sharing Zero Relinquish,10.0,user,0
1449617323469732937,0.0,0.0,0.0,0.0,0.0,0.0,1.0,1449617323428778544,1,0.0,0.0,0.0,0.0,0.0,0.0,1,-0.0,0.0,0.0,0.0,0.0,-0.0,-0.0,0.0,0.0,0.0,0.0,-0.0,,0,Sharing Zero Relinquish,10.0,user,0
1449617323509077980,0.0,0.0,0.0,0.0,0.0,0.0,1.0,1449617323468777907,1,0.0,0.0,0.0,0.0,0.0,0.0,1,-0.0,0.0,0.0,0.0,0.0,-0.0,-0.0,0.0,0.0,0.0,0.0,-0.0,,0,Sharing Zero Relinquish,10.0,user,0
1449617323550127120,0.0,0.0,0.0,0.0,0.0,0.0,1.0,1449617323508794788,1,0.0,0.0,0.0,0.0,0.0,0.0,1,-0.0,0.0,0.0,0.0,0.0,-0.0,-0.0,0.0,0.0,0.0,0.0,-0.0,,0,Sharing Zero Relinquish,10.0,user,0
1449617323589264852,0.0,0.0,0.0,0.0,0.0,0.0,1.0,1449617323548789289,1,0.0,0.0,0.0,0.0,0.0,0.0,1,-0.0,0.0,0.0,0.0,0.0,-0.0,-0.0,0.0,0.0,0.0,0.0,-0.0,,0,Sharing Zero Relinquish,10.0,user,0
1449617323630151255,0.0,0.0,0.0,0.0,0.0,0.0,1.0,1449617323588781549,1,0.0,0.0,0.0,0.0,0.0,0.0,1,-0.0,0.0,0.0,0.0,0.0,-0.0,-0.0,0.0,0.0,0.0,0.0,-0.0,,0,Sharing Zero Relinquish,10.0,user,0
1449617323669094671,0.0,0.0,0.0,0.0,0.0,0.0,1.0,1449617323628789062,1,0.0,0.0,0.0,0.0,0.0,0.0,1,-0.0,0.0,0.0,0.0,0.0,-0.0,-0.0,0.0,0.0,0.0,0.0,-0.0,,0,Sharing Zero Relinquish,10.0,user,0
1449617323709425653,0.0,0.0,0.0,0.0,0.0,0.0,1.0,1449617323668784593,1,0.0,0.0,0.0,0.0,0.0,0.0,1,-0.0,0.0,0.0,0.0,0.0,-0.0,-0.0,0.0,0.0,0.0,0.0,-0.0,,0,Sharing Zero Relinquish,10.0,user,0
1449617323749568644,0.0,0.0,0.0,0.0,0.0,0.0,1.0,1449617323708797605,1,0.0,0.0,0.0,0.0,0.0,0.0,1,-0.0,0.0,0.0,0.0,0.0,-0.0,-0.0,0.0,0.0,0.0,0.0,-0.0,,0,Sharing Zero Relinquish,10.0,user,0
1449617323790477943,0.0,0.0,0.0,0.0,0.0,0.0,1.0,1449617323748793773,1,0.0,0.0,0.0,0.0,0.0,0.0,1,-0.0,0.0,0.0,0.0,0.0,-0.0,-0.0,0.0,0.0,0.0,0.0,-0.0,,0,Sharing Zero Relinquish,10.0,user,0
1449617323829264886,0.0,0.0,0.0,0.0,0.0,0.0,1.0,1449617323788778553,1,0.0,0.0,0.0,0.0,0.0,0.0,1,-0.0,0.0,0.0,0.0,0.0,-0.0,-0.0,0.0,0.0,0.0,0.0,-0.0,,0,Sharing Zero Relinquish,10.0,user,0
1449617323869753713,0.0,0.0,0.0,0.0,0.0,0.0,1.0,1449617323828779333,1,0.0,0.0,0.0,0.0,0.0,0.0,1,-0.0,0.0,0.0,0.0,0.0,-0.0,-0.0,0.0,0.0,0.0,0.0,-0.0,,0,Sharing Zero Relinquish,10.0,user,0
1449617323910452858,0.0,0.0,0.0,0.0,0.0,0.0,1.0,1449617323868815471,1,0.0,0.0,0.0,0.0,0.0,0.0,1,-0.0,0.0,0.0,0.0,0.0,-0.0,-0.0,0.0,0.0,0.0,0.0,-0.0,,0,Sharing Zero Relinquish,10.0,user,0
1449617323949339939,0.0,0.0,0.0,0.0,0.0,0.0,1.0,1449617323908809954,1,0.0,0.0,0.0,0.0,0.0,0.0,1,-0.0,0.0,0.0,0.0,0.0,-0.0,-0.0,0.0,0.0,0.0,0.0,-0.0,,0,Sharing Zero Relinquish,10.0,user,0
1449617323990524046,0.0,0.0,0.0,0.0,0.0,0.0,1.0,1449617323948799696,1,0.0,0.0,0.0,0.0,0.0,0.0,1,-0.0,0.0,0.0,0.0,0.0,-0.0,-0.0,0.0,0.0,0.0,0.0,-0.0,,0,Sharing Zero Relinquish,10.0,user,0
1449617324031053796,0.0,0.0,0.0,0.0,0.0,0.0,1.0,1449617323988807613,1,0.0,0.0,0.0,0.0,0.0,0.0,1,-0.0,0.0,0.0,0.0,0.0,-0.0,-0.0,0.0,0.0,0.0,0.0,-0.0,,0,Sharing Zero Relinquish,10.0,user,0
1449617324069245765,0.0,0.0,0.0,0.0,0.0,0.0,1.0,1449617324028834078,1,0.0,0.0,0.0,0.0,0.0,0.0,1,-0.0,0.0,0.0,0.0,0.0,-0.0,-0.0,0.0,0.0,0.0,0.0,-0.0,,0,Sharing Zero Relinquish,10.0,user,0
1449617324109492527,0.0,0.0,0.0,0.0,0.0,0.0,1.0,1449617324068797514,1,0.0,0.0,0.0,0.0,0.0,0.0,1,-0.0,0.0,0.0,0.0,0.0,-0.0,-0.0,0.0,0.0,0.0,0.0,-0.0,,0,Sharing Zero Relinquish,10.0,user,0
1449617324149181293,0.0,0.0,0.0,0.0,0.0,0.0,1.0,1449617324108793358,1,0.0,0.0,0.0,0.0,0.0,0.0,1,-0.0,0.0,0.0,0.0,0.0,-0.0,-0.0,0.0,0.0,0.0,0.0,-0.0,,0,Sharing Zero Relinquish,10.0,user,0
1449617324189365286,0.0,0.0,0.0,0.0,0.0,0.0,1.0,1449617324148797375,1,0.0,0.0,0.0,0.0,0.0,0.0,1,-0.0,0.0,0.0,0.0,0.0,-0.0,-0.0,0.0,0.0,0.0,0.0,-0.0,,0,Sharing Zero Relinquish,10.0,user,0
1449617324229097331,0.0,0.0,0.0,0.0,0.0,0.0,1.0,1449617324188801984,1,0.0,0.0,0.0,0.0,0.0,0.0,1,-0.0,0.0,0.0,0.0,0.0,-0.0,-0.0,0.0,0.0,0.0,0.0,-0.0,,0,Sharing Zero Relinquish,10.0,user,0
1449617324269784412,0.0,0.0,0.0,0.0,0.0,0.0,1.0,1449617324228778962,1,0.0,0.0,0.0,0.0,0.0,0.0,1,-0.0,0.0,0.0,0.0,0.0,-0.0,-0.0,0.0,0.0,0.0,0.0,-0.0,,0,Sharing Zero Relinquish,10.0,user,0
1449617324310978837,0.0,0.0,0.0,0.0,0.0,0.0,1.0,1449617324268791952,1,0.0,0.0,0.0,0.0,0.0,0.0,1,-0.0,0.0,0.0,0.0,0.0,-0.0,-0.0,0.0,0.0,0.0,0.0,-0.0,,0,Sharing Zero Relinquish,10.0,user,0
1449617324351248631,0.0,0.0,0.0,0.0,0.0,0.0,1.0,1449617324308813183,1,0.0,0.0,0.0,0.0,0.0,0.0,1,-0.0,0.0,0.0,0.0,0.0,-0.0,-0.0,0.0,0.0,0.0,0.0,-0.0,,0,Sharing Zero Relinquish,10.0,user,0
1449617324389744943,0.0,0.0,0.0,0.0,0.0,0.0,1.0,1449617324348810040,1,0.0,0.0,0.0,0.0,0.0,0.0,1,-0.0,0.0,0.0,0.0,0.0,-0.0,-0.0,0.0,0.0,0.0,0.0,-0.0,,0,Sharing Zero Relinquish,10.0,user,0
1449617324429142850,0.0,0.0,0.0,0.0,0.0,0.0,1.0,1449617324388827631,1,0.0,0.0,0.0,0.0,0.0,0.0,1,-0.0,0.0,0.0,0.0,0.0,-0.0,-0.0,0.0,0.0,0.0,0.0,-0.0,,0,Sharing Zero Relinquish,10.0,user,0
1449617324469516803,0.0,0.0,0.0,0.0,0.0,0.0,1.0,1449617324428792872,1,0.0,0.0,0.0,0.0,0.0,0.0,1,-0.0,0.0,0.0,0.0,0.0,-0.0,-0.0,0.0,0.0,0.0,0.0,-0.0,,0,Sharing Zero Relinquish,10.0,user,0
1449617324510203629,0.0,0.0,0.0,0.0,0.0,0.0,1.0,1449617324468802997,1,0.0,0.0,0.0,0.0,0.0,0.0,1,-0.0,0.0,0.0,0.0,0.0,-0.0,-0.0,0.0,0.0,0.0,0.0,-0.0,,0,Sharing Zero Relinquish,10.0,user,0
1449617324548982105,0.0,0.0,0.0,0.0,0.0,0.0,1.0,1449617324508792970,1,0.0,0.0,0.0,0.0,0.0,0.0,1,-0.0,0.0,0.0,0.0,0.0,-0.0,-0.0,0.0,0.0,0.0,0.0,-0.0,,0,Sharing Zero Relinquish,10.0,user,0
1449617324590280612,0.0,0.0,0.0,0.0,0.0,0.0,1.0,1449617324548779429,1,0.0,0.0,0.0,0.0,0.0,0.0,1,-0.0,0.0,0.0,0.0,0.0,-0.0,-0.0,0.0,0.0,0.0,0.0,-0.0,,0,Sharing Zero Relinquish,10.0,user,0
1449617324629455175,0.0,0.0,0.0,0.0,0.0,0.0,1.0,1449617324588819459,1,0.0,0.0,0.0,0.0,0.0,0.0,1,-0.0,0.0,0.0,0.0,0.0,-0.0,-0.0,0.0,0.0,0.0,0.0,-0.0,,0,Sharing Zero Relinquish,10.0,user,0
1449617324669743123,0.0,0.0,0.0,0.0,0.0,0.0,1.0,1449617324628801566,1,0.0,0.0,0.0,0.0,0.0,0.0,1,-0.0,0.0,0.0,0.0,0.0,-0.0,-0.0,0.0,0.0,0.0,0.0,-0.0,,0,Sharing Zero Relinquish,10.0,user,0
1449617324709436557,0.0,0.0,0.0,0.0,0.0,0.0,1.0,1449617324668794959,1,0.0,0.0,0.0,0.0,0.0,0.0,1,-0.0,0.0,0.0,0.0,0.0,-0.0,-0.0,0.0,0.0,0.0,0.0,-0.0,,0,Sharing Zero Relinquish,10.0,user,0
1449617324750711820,0.0,0.0,0.0,0.0,0.0,0.0,1.0,1449617324708788514,1,0.0,0.0,0.0,0.0,0.0,0.0,1,-0.0,0.0,0.0,0.0,0.0,-0.0,-0.0,0.0,0.0,0.0,0.0,-0.0,,0,Sharing Zero Relinquish,10.0,user,0
1449617324789453859,0.0,0.0,0.0,0.0,0.0,0.0,1.0,1449617324748793547,1,0.0,0.0,0.0,0.0,0.0,0.0,1,-0.0,0.0,0.0,0.0,0.0,-0.0,-0.0,0.0,0.0,0.0,0.0,-0.0,,0,Sharing Zero Relinquish,10.0,user,0
1449617324830160459,0.0,0.0,0.0,0.0,0.0,0.0,1.0,1449617324788806476,1,0.0,0.0,0.0,0.0,0.0,0.0,1,-0.0,0.0,0.0,0.0,0.0,-0.0,-0.0,0.0,0.0,0.0,0.0,-0.0,,0,Sharing Zero Relinquish,10.0,user,0
1449617324869581182,0.0,0.0,0.0,0.0,0.0,0.0,1.0,1449617324828792719,1,0.0,0.0,0.0,0.0,0.0,0.0,1,-0.0,0.0,0.0,0.0,0.0,-0.0,-0.0,0.0,0.0,0.0,0.0,-0.0,,0,Sharing Zero Relinquish,10.0,user,0
1449617324909731119,0.0,0.0,0.0,0.0,0.0,0.0,1.0,1449617324868792225,1,0.0,0.0,0.0,0.0,0.0,0.0,1,-0.0,0.0,0.0,0.0,0.0,-0.0,-0.0,0.0,0.0,0.0,0.0,-0.0,,0,Sharing Zero Relinquish,10.0,user,0
1449617324949983884,0.0,0.0,0.0,0.0,0.0,0.0,1.0,1449617324908798619,1,0.0,0.0,0.0,0.0,0.0,0.0,1,-0.0,0.0,0.0,0.0,0.0,-0.0,-0.0,0.0,0.0,0.0,0.0,-0.0,,0,Sharing Zero Relinquish,10.0,user,0
1449617324989977648,0.0,0.0,0.0,0.0,0.0,0.0,1.0,1449617324948784127,1,0.0,0.0,0.0,0.0,0.0,0.0,1,-0.0,0.0,0.0,0.0,0.0,-0.0,-0.0,0.0,0.0,0.0,0.0,-0.0,,0,Sharing Zero Relinquish,10.0,user,0
1449617325029061658,0.0,0.0,0.0,0.0,0.0,0.0,1.0,1449617324988789715,1,0.0,0.0,0.0,0.0,0.0,0.0,1,-0.0,0.0,0.0,0.0,0.0,-0.0,-0.0,0.0,0.0,0.0,0.0,-0.0,,0,Sharing Zero Relinquish,10.0,user,0
1449617325069566800,0.0,0.0,0.0,0.0,0.0,0.0,1.0,1449617325028782647,1,0.0,0.0,0.0,0.0,0.0,0.0,1,-0.0,0.0,0.0,0.0,0.0,-0.0,-0.0,0.0,0.0,0.0,0.0,-0.0,,0,Sharing Zero Relinquish,10.0,user,0
1449617325109987522,0.0,0.0,0.0,0.0,0.0,0.0,1.0,1449617325069010629,1,0.0,0.0,0.0,0.0,0.0,0.0,1,-0.0,0.0,0.0,0.0,0.0,-0.0,-0.0,0.0,0.0,0.0,0.0,-0.0,,0,Sharing Zero Relinquish,10.0,user,0
1449617325149571033,0.0,0.0,0.0,0.0,0.0,0.0,1.0,1449617325108791350,1,0.0,0.0,0.0,0.0,0.0,0.0,1,-0.0,0.0,0.0,0.0,0.0,-0.0,-0.0,0.0,0.0,0.0,0.0,-0.0,,0,Sharing Zero Relinquish,10.0,user,0
1449617325189567063,0.0,0.0,0.0,0.0,0.0,0.0,1.0,1449617325148785507,1,0.0,0.0,0.0,0.0,0.0,0.0,1,-0.0,0.0,0.0,0.0,0.0,-0.0,-0.0,0.0,0.0,0.0,0.0,-0.0,,0,Sharing Zero Relinquish,10.0,user,0
1449617325230507700,0.0,0.0,0.0,0.0,0.0,0.0,1.0,1449617325188792804,1,0.0,0.0,0.0,0.0,0.0,0.0,1,-0.0,0.0,0.0,0.0,0.0,-0.0,-0.0,0.0,0.0,0.0,0.0,-0.0,,0,Sharing Zero Relinquish,10.0,user,0
1449617325269350938,0.0,0.0,0.0,0.0,0.0,0.0,1.0,1449617325228776366,1,0.0,0.0,0.0,0.0,0.0,0.0,1,-0.0,0.0,0.0,0.0,0.0,-0.0,-0.0,0.0,0.0,0.0,0.0,-0.0,,0,Sharing Zero Relinquish,10.0,user,0
1449617325309394519,0.0,0.0,0.0,0.0,0.0,0.0,1.0,1449617325268785554,1,0.0,0.0,0.0,0.0,0.0,0.0,1,-0.0,0.0,0.0,0.0,0.0,-0.0,-0.0,0.0,0.0,0.0,0.0,-0.0,,0,Sharing Zero Relinquish,10.0,user,0
1449617325349492421,0.0,0.0,0.0,0.0,0.0,0.0,1.0,1449617325308798004,1,0.0,0.0,0.0,0.0,0.0,0.0,1,-0.0,0.0,0.0,0.0,0.0,-0.0,-0.0,0.0,0.0,0.0,0.0,-0.0,,0,Sharing Zero Relinquish,10.0,user,0
1449617325389717043,0.0,0.0,0.0,0.0,0.0,0.0,1.0,1449617325348810498,1,0.0,0.0,0.0,0.0,0.0,0.0,1,-0.0,0.0,0.0,0.0,0.0,-0.0,-0.0,0.0,0.0,0.0,0.0,-0.0,,0,Sharing Zero Relinquish,10.0,user,0
1449617325429100040,0.0,0.0,0.0,0.0,0.0,0.0,1.0,1449617325388801570,1,0.0,0.0,0.0,0.0,0.0,0.0,1,-0.0,0.0,0.0,0.0,0.0,-0.0,-0.0,0.0,0.0,0.0,0.0,-0.0,,0,Sharing Zero Relinquish,10.0,user,0
1449617325469636741,0.0,0.0,0.0,0.0,0.0,0.0,1.0,1449617325428782720,1,0.0,0.0,0.0,0.0,0.0,0.0,1,-0.0,0.0,0.0,0.0,0.0,-0.0,-0.0,0.0,0.0,0.0,0.0,-0.0,,0,Sharing Zero Relinquish,10.0,user,0
1449617325509185594,0.0,0.0,0.0,0.0,0.0,0.0,1.0,1449617325468784414,1,0.0,0.0,0.0,0.0,0.0,0.0,1,-0.0,0.0,0.0,0.0,0.0,-0.0,-0.0,0.0,0.0,0.0,0.0,-0.0,,0,Sharing Zero Relinquish,10.0,user,0
1449617325549564715,0.0,0.0,0.0,0.0,0.0,0.0,1.0,1449617325508792956,1,0.0,0.0,0.0,0.0,0.0,0.0,1,-0.0,0.0,0.0,0.0,0.0,-0.0,-0.0,0.0,0.0,0.0,0.0,-0.0,,0,Sharing Zero Relinquish,10.0,user,0
1449617325589436331,0.0,0.0,0.0,0.0,0.0,0.0,1.0,1449617325548810243,1,0.0,0.0,0.0,0.0,0.0,0.0,1,-0.0,0.0,0.0,0.0,0.0,-0.0,-0.0,0.0,0.0,0.0,0.0,-0.0,,0,Sharing Zero Relinquish,10.0,user,0
1449617325629268491,0.0,0.0,0.0,0.0,0.0,0.0,1.0,1449617325588808170,1,0.0,0.0,0.0,0.0,0.0,0.0,1,-0.0,0.0,0.0,0.0,0.0,-0.0,-0.0,0.0,0.0,0.0,0.0,-0.0,,0,Sharing Zero Relinquish,10.0,user,0
1449617325671650446,0.0,0.0,0.0,0.0,0.0,0.0,1.0,1449617325628780166,1,0.0,0.0,0.0,0.0,0.0,0.0,1,-0.0,0.0,0.0,0.0,0.0,-0.0,-0.0,0.0,0.0,0.0,0.0,-0.0,,0,Sharing Zero Relinquish,10.0,user,0
1449617325709390207,0.0,0.0,0.0,0.0,0.0,0.0,1.0,1449617325668802095,1,0.0,0.0,0.0,0.0,0.0,0.0,1,-0.0,0.0,0.0,0.0,0.0,-0.0,-0.0,0.0,0.0,0.0,0.0,-0.0,,0,Sharing Zero Relinquish,10.0,user,0
1449617325751869615,0.0,0.0,0.0,0.0,0.0,0.0,1.0,1449617325708785120,1,0.0,0.0,0.0,0.0,0.0,0.0,1,-0.0,0.0,0.0,0.0,0.0,-0.0,-0.0,0.0,0.0,0.0,0.0,-0.0,,0,Sharing Zero Relinquish,10.0,user,0
1449617325789280504,0.0,0.0,0.0,0.0,0.0,0.0,1.0,1449617325748788553,1,0.0,0.0,0.0,0.0,0.0,0.0,1,-0.0,0.0,0.0,0.0,0.0,-0.0,-0.0,0.0,0.0,0.0,0.0,-0.0,,0,Sharing Zero Relinquish,10.0,user,0
1449617325829470593,0.0,0.0,0.0,0.0,0.0,0.0,1.0,1449617325788792896,1,0.0,0.0,0.0,0.0,0.0,0.0,1,-0.0,0.0,0.0,0.0,0.0,-0.0,-0.0,0.0,0.0,0.0,0.0,-0.0,,0,Sharing Zero Relinquish,10.0,user,0
1449617325870409864,0.0,0.0,0.0,0.0,0.0,0.0,1.0,1449617325828873609,1,0.0,0.0,0.0,0.0,0.0,0.0,1,-0.0,0.0,0.0,0.0,0.0,-0.0,-0.0,0.0,0.0,0.0,0.0,-0.0,,0,Sharing Zero Relinquish,10.0,user,0
1449617325909723933,0.0,0.0,0.0,0.0,0.0,0.0,1.0,1449617325868792147,1,0.0,0.0,0.0,0.0,0.0,0.0,1,-0.0,0.0,0.0,0.0,0.0,-0.0,-0.0,0.0,0.0,0.0,0.0,-0.0,,0,Sharing Zero Relinquish,10.0,user,0
1449617325949434355,0.0,0.0,0.0,0.0,0.0,0.0,1.0,1449617325908802636,1,0.0,0.0,0.0,0.0,0.0,0.0,1,-0.0,0.0,0.0,0.0,0.0,-0.0,-0.0,0.0,0.0,0.0,0.0,-0.0,,0,Sharing Zero Relinquish,10.0,user,0
1449617325990058646,0.0,0.0,0.0,0.0,0.0,0.0,1.0,1449617325948795338,1,0.0,0.0,0.0,0.0,0.0,0.0,1,-0.0,0.0,0.0,0.0,0.0,-0.0,-0.0,0.0,0.0,0.0,0.0,-0.0,,0,Sharing Zero Relinquish,10.0,user,0
1449617326029107956,0.0,0.0,0.0,0.0,0.0,0.0,1.0,1449617325988803292,1,0.0,0.0,0.0,0.0,0.0,0.0,1,-0.0,0.0,0.0,0.0,0.0,-0.0,-0.0,0.0,0.0,0.0,0.0,-0.0,,0,Sharing Zero Relinquish,10.0,user,0
1449617326069583715,0.0,0.0,0.0,0.0,0.0,0.0,1.0,1449617326028784977,1,0.0,0.0,0.0,0.0,0.0,0.0,1,-0.0,0.0,0.0,0.0,0.0,-0.0,-0.0,0.0,0.0,0.0,0.0,-0.0,,0,Sharing Zero Relinquish,10.0,user,0
1449617326109539371,0.0,0.0,0.0,0.0,0.0,0.0,1.0,1449617326068789137,1,0.0,0.0,0.0,0.0,0.0,0.0,1,-0.0,0.0,0.0,0.0,0.0,-0.0,-0.0,0.0,0.0,0.0,0.0,-0.0,,0,Sharing Zero Relinquish,10.0,user,0
1449617326149728692,0.0,0.0,0.0,0.0,0.0,0.0,1.0,1449617326108780597,1,0.0,0.0,0.0,0.0,0.0,0.0,1,-0.0,0.0,0.0,0.0,0.0,-0.0,-0.0,0.0,0.0,0.0,0.0,-0.0,,0,Sharing Zero Relinquish,10.0,user,0
1449617326189606037,0.0,0.0,0.0,0.0,0.0,0.0,1.0,1449617326148797361,1,0.0,0.0,0.0,0.0,0.0,0.0,1,-0.0,0.0,0.0,0.0,0.0,-0.0,-0.0,0.0,0.0,0.0,0.0,-0.0,,0,Sharing Zero Relinquish,10.0,user,0
1449617326229688964,0.0,0.0,0.0,0.0,0.0,0.0,1.0,1449617326188802676,1,0.0,0.0,0.0,0.0,0.0,0.0,1,-0.0,0.0,0.0,0.0,0.0,-0.0,-0.0,0.0,0.0,0.0,0.0,-0.0,,0,Sharing Zero Relinquish,10.0,user,0
1449617326269324441,0.0,0.0,0.0,0.0,0.0,0.0,1.0,1449617326228779885,1,0.0,0.0,0.0,0.0,0.0,0.0,1,-0.0,0.0,0.0,0.0,0.0,-0.0,-0.0,0.0,0.0,0.0,0.0,-0.0,,0,Sharing Zero Relinquish,10.0,user,0
1449617326311906915,0.0,0.0,0.0,0.0,0.0,0.0,1.0,1449617326268849873,1,0.0,0.0,0.0,0.0,0.0,0.0,1,-0.0,0.0,0.0,0.0,0.0,-0.0,-0.0,0.0,0.0,0.0,0.0,-0.0,,0,Sharing Zero Relinquish,10.0,user,0
1449617326350130334,0.0,0.0,0.0,0.0,0.0,0.0,1.0,1449617326308813397,1,0.0,0.0,0.0,0.0,0.0,0.0,1,-0.0,0.0,0.0,0.0,0.0,-0.0,-0.0,0.0,0.0,0.0,0.0,-0.0,,0,Sharing Zero Relinquish,10.0,user,0
1449617326389334400,0.0,0.0,0.0,0.0,0.0,0.0,1.0,1449617326348795238,1,0.0,0.0,0.0,0.0,0.0,0.0,1,-0.0,0.0,0.0,0.0,0.0,-0.0,-0.0,0.0,0.0,0.0,0.0,-0.0,,0,Sharing Zero Relinquish,10.0,user,0
1449617326429555981,0.0,0.0,0.0,0.0,0.0,0.0,1.0,1449617326388806645,1,0.0,0.0,0.0,0.0,0.0,0.0,1,-0.0,0.0,0.0,0.0,0.0,-0.0,-0.0,0.0,0.0,0.0,0.0,-0.0,,0,Sharing Zero Relinquish,10.0,user,0
1449617326479243606,0.0,0.0,0.0,0.0,0.0,0.0,1.0,1449617326428801761,1,0.0,0.0,0.0,0.0,0.0,0.0,1,-0.0,0.0,0.0,0.0,0.0,-0.0,-0.0,0.0,0.0,0.0,0.0,-0.0,,0,Sharing Zero Relinquish,10.0,user,0
1449617326509471929,0.0,0.0,0.0,0.0,0.0,0.0,1.0,1449617326468776286,1,0.0,0.0,0.0,0.0,0.0,0.0,1,-0.0,0.0,0.0,0.0,0.0,-0.0,-0.0,0.0,0.0,0.0,0.0,-0.0,,0,Sharing Zero Relinquish,10.0,user,0
1449617326549672563,0.0,0.0,0.0,0.0,0.0,0.0,1.0,1449617326508787649,1,0.0,0.0,0.0,0.0,0.0,0.0,1,-0.0,0.0,0.0,0.0,0.0,-0.0,-0.0,0.0,0.0,0.0,0.0,-0.0,,0,Sharing Zero Relinquish,10.0,user,0
1449617326589373640,0.0,0.0,0.0,0.0,0.0,0.0,1.0,1449617326548788066,1,0.0,0.0,0.0,0.0,0.0,0.0,1,-0.0,0.0,0.0,0.0,0.0,-0.0,-0.0,0.0,0.0,0.0,0.0,-0.0,,0,Sharing Zero Relinquish,10.0,user,0
1449617326630502535,0.0,0.0,0.0,0.0,0.0,0.0,1.0,1449617326588780929,1,0.0,0.0,0.0,0.0,0.0,0.0,1,-0.0,0.0,0.0,0.0,0.0,-0.0,-0.0,0.0,0.0,0.0,0.0,-0.0,,0,Sharing Zero Relinquish,10.0,user,0
1449617326669348865,0.0,0.0,0.0,0.0,0.0,0.0,1.0,1449617326628796998,1,0.0,0.0,0.0,0.0,0.0,0.0,1,-0.0,0.0,0.0,0.0,0.0,-0.0,-0.0,0.0,0.0,0.0,0.0,-0.0,,0,Sharing Zero Relinquish,10.0,user,0
1449617326710038559,0.0,0.0,0.0,0.0,0.0,0.0,1.0,1449617326668812996,1,0.0,0.0,0.0,0.0,0.0,0.0,1,-0.0,0.0,0.0,0.0,0.0,-0.0,-0.0,0.0,0.0,0.0,0.0,-0.0,,0,Sharing Zero Relinquish,10.0,user,0
1449617326749871375,0.0,0.0,0.0,0.0,0.0,0.0,1.0,1449617326708824645,1,0.0,0.0,0.0,0.0,0.0,0.0,1,-0.0,0.0,0.0,0.0,0.0,-0.0,-0.0,0.0,0.0,0.0,0.0,-0.0,,0,Sharing Zero Relinquish,10.0,user,0
1449617326789364980,0.0,0.0,0.0,0.0,0.0,0.0,1.0,1449617326748789015,1,0.0,0.0,0.0,0.0,0.0,0.0,1,-0.0,0.0,0.0,0.0,0.0,-0.0,-0.0,0.0,0.0,0.0,0.0,-0.0,,0,Sharing Zero Relinquish,10.0,user,0
1449617326829246490,0.0,0.0,0.0,0.0,0.0,0.0,1.0,1449617326788876347,1,0.0,0.0,0.0,0.0,0.0,0.0,1,-0.0,0.0,0.0,0.0,0.0,-0.0,0.0,0.0,0.0,0.0,0.0,0.0,,3,Sharing Zero Relinquish,10.0,doorway_assistance,3
1449617326870180020,0.0,0.0,0.0,0.0,0.0,0.0,1.0,1449617326828835872,1,0.0,0.0,0.0,0.0,0.0,0.0,1,-0.0,0.0,0.0,0.0,0.0,-0.0,0.0,0.0,0.0,0.0,0.0,0.0,,3,Sharing Zero Relinquish,10.0,doorway_assistance,3
1449617326910974205,0.0,0.0,0.0,0.0,0.0,0.0,1.0,1449617326868824632,1,0.0,0.0,0.0,0.0,0.0,0.0,1,-0.0,0.0,0.0,0.0,0.0,-0.0,0.0,0.0,0.0,0.0,0.0,0.0,,3,Sharing Zero Relinquish,10.0,doorway_assistance,3
1449617326949568403,0.0,0.0,0.0,0.0,0.0,0.0,1.0,1449617326908868030,1,0.0,0.0,0.0,0.0,0.0,0.0,1,-0.0,0.0,0.0,0.0,0.0,-0.0,0.0,0.0,0.0,0.0,0.0,0.0,,3,Sharing Zero Relinquish,10.0,doorway_assistance,3
1449617326990479123,0.0,0.0,0.0,0.0,0.0,0.0,1.0,1449617326948828834,1,0.0,0.0,0.0,0.0,0.0,0.0,1,-0.0,0.0,0.0,0.0,0.0,-0.0,0.0,0.0,0.0,0.0,0.0,0.0,,3,Sharing Zero Relinquish,10.0,doorway_assistance,3
1449617327029849576,0.0,0.0,0.0,0.0,0.0,0.0,1.0,1449617326988839540,1,0.0,0.0,0.0,0.0,0.0,0.0,1,-0.0,0.0,0.0,0.0,0.0,-0.0,0.0,0.0,0.0,0.0,0.0,0.0,,3,Sharing Zero Relinquish,10.0,doorway_assistance,3
1449617327071125195,0.0,0.0,0.0,0.0,0.0,0.0,1.0,1449617327028800543,1,0.352,0.0,0.0,0.0,0.0,-0.0210526315789,1,-0.0,0.0,0.0,0.0,0.0,-0.0,0.352,0.0,0.0,0.0,0.0,-0.0210526315789,,3,Sharing Zero Relinquish,10.0,doorway_assistance,3
1449617327109733396,0.0,0.0,0.0,0.0,0.0,0.0,1.0,1449617327068835385,1,0.352,0.0,0.0,0.0,0.0,-0.0210526315789,1,-0.0,0.0,0.0,0.0,0.0,-0.0,0.352,0.0,0.0,0.0,0.0,-0.0210526315789,,3,Sharing Zero Relinquish,10.0,doorway_assistance,3
1449617327149621510,0.0,0.0,0.0,0.0,0.0,0.0,1.0,1449617327108807955,1,0.352,0.0,0.0,0.0,0.0,-0.0210526315789,1,-0.0,0.0,0.0,0.0,0.0,-0.0,0.352,0.0,0.0,0.0,0.0,-0.0210526315789,,3,Sharing Zero Relinquish,10.0,doorway_assistance,3
1449617327190165839,0.0,0.0,0.0,0.0,0.0,0.0,1.0,1449617327148804810,1,0.352,0.0,0.0,0.0,0.0,-0.0210526315789,1,-0.0,0.0,0.0,0.0,0.0,-0.0,0.352,0.0,0.0,0.0,0.0,-0.0210526315789,,3,Sharing Zero Relinquish,10.0,doorway_assistance,3
1449617327233058964,0.0,0.0,0.0,0.0,0.0,0.0,1.0,1449617327188861167,1,0.352,0.0,0.0,0.0,0.0,-0.0210526315789,1,-0.0,0.0,0.0,0.0,0.0,-0.0,0.352,0.0,0.0,0.0,0.0,-0.0210526315789,,3,Sharing Zero Relinquish,10.0,doorway_assistance,3
1449617327269484365,0.0,0.0,0.0,0.0,0.0,0.0,1.0,1449617327229371712,1,0.352,0.0,0.0,0.0,0.0,-0.0210526315789,1,-0.0,0.0,0.0,0.0,0.0,-0.0,0.352,0.0,0.0,0.0,0.0,-0.0210526315789,,3,Sharing Zero Relinquish,10.0,doorway_assistance,3
1449617327309258457,0.0,0.0,0.0,0.0,0.0,0.0,1.0,1449617327268859384,1,0.352,0.0,0.0,0.0,0.0,-0.0210526315789,1,-0.0,0.0,0.0,0.0,0.0,-0.0,0.352,0.0,0.0,0.0,0.0,-0.0210526315789,,3,Sharing Zero Relinquish,10.0,doorway_assistance,3
1449617327349217581,0.0,0.0,0.0,0.0,0.0,0.0,1.0,1449617327308829218,1,0.352,0.0,0.0,0.0,0.0,-0.0210526315789,1,-0.0,0.0,0.0,0.0,0.0,-0.0,0.352,0.0,0.0,0.0,0.0,-0.0210526315789,,3,Sharing Zero Relinquish,10.0,doorway_assistance,3
1449617327389143495,0.0,0.0,0.0,0.0,0.0,0.0,1.0,1449617327348797231,1,0.352,0.0,0.0,0.0,0.0,-0.0210526315789,1,-0.0,0.0,0.0,0.0,0.0,-0.0,0.352,0.0,0.0,0.0,0.0,-0.0210526315789,,3,Sharing Zero Relinquish,10.0,doorway_assistance,3
1449617327430095817,0.0,0.0,0.0,0.0,0.0,0.0,1.0,1449617327388796625,1,0.352,0.0,0.0,0.0,0.0,-0.0210526315789,1,-0.0,0.0,0.0,0.0,0.0,-0.0,0.352,0.0,0.0,0.0,0.0,-0.0210526315789,,3,Sharing Zero Relinquish,10.0,doorway_assistance,3
1449617327469708277,0.0,0.0,0.0,0.0,0.0,0.0,1.0,1449617327428954918,1,0.352,0.0,0.0,0.0,0.0,-0.0210526315789,1,-0.0,0.0,0.0,0.0,0.0,-0.0,0.352,0.0,0.0,0.0,0.0,-0.0210526315789,,3,Sharing Zero Relinquish,10.0,doorway_assistance,3
1449617327515368784,0.0,0.0,0.0,0.0,0.0,0.0,1.0,1449617327468920569,1,0.352,0.0,0.0,0.0,0.0,-0.0210526315789,1,-0.0,0.0,0.0,0.0,0.0,-0.0,0.352,0.0,0.0,0.0,0.0,-0.0210526315789,,3,Sharing Zero Relinquish,10.0,doorway_assistance,3
1449617327553543660,0.0,0.0,0.0,0.0,0.0,0.0,1.0,1449617327512034545,1,0.352,0.0,0.0,0.0,0.0,-0.0210526315789,1,-0.0,0.0,0.0,0.0,0.0,-0.0,0.352,0.0,0.0,0.0,0.0,-0.0210526315789,,3,Sharing Zero Relinquish,10.0,doorway_assistance,3
1449617327594517553,0.0,0.0,0.0,0.0,0.0,0.0,1.0,1449617327548844003,1,0.352,0.0,0.0,0.0,0.0,-0.0210526315789,1,-0.0,0.0,0.0,0.0,0.0,-0.0,0.352,0.0,0.0,0.0,0.0,-0.0210526315789,,3,Sharing Zero Relinquish,10.0,doorway_assistance,3
1449617327629680806,0.0,0.0,0.0,0.0,0.0,0.0,1.0,1449617327588801979,1,0.352,0.0,0.0,0.0,0.0,-0.0210526315789,1,-0.0,0.0,0.0,0.0,0.0,-0.0,0.352,0.0,0.0,0.0,0.0,-0.0210526315789,,3,Sharing Zero Relinquish,10.0,doorway_assistance,3
1449617327669211825,0.0,0.0,0.0,0.0,0.0,0.0,1.0,1449617327628803450,1,0.352,0.0,0.0,0.0,0.0,-0.0210526315789,1,-0.0,0.0,0.0,0.0,0.0,-0.0,0.352,0.0,0.0,0.0,0.0,-0.0210526315789,,3,Sharing Zero Relinquish,10.0,doorway_assistance,3
1449617327713882590,0.00287963245437,3.04332289367e-05,0.0,0.0,0.0,0.0052839997518,0.999986039576,1449617327668820910,1,0.352,0.0,0.0,0.0,0.0,-0.0210526315789,1,-0.0,0.0,0.0,0.0,0.0,-0.0,0.352,0.0,0.0,0.0,0.0,-0.0210526315789,,3,Sharing Zero Relinquish,10.0,doorway_assistance,3
1449617327749946434,0.00287963245437,3.04332289367e-05,0.0,0.0,0.0,0.0052839997518,0.999986039576,1449617327713624815,1,0.352,0.0,0.0,0.0,0.0,-0.0210526315789,1,-0.0,0.0,0.0,0.0,0.0,-0.0,0.352,0.0,0.0,0.0,0.0,-0.0210526315789,,3,Sharing Zero Relinquish,10.0,doorway_assistance,3
1449617327789758961,0.00287963245437,3.04332289367e-05,0.0,0.0,0.0,0.0052839997518,0.999986039576,1449617327748823090,1,0.352,0.0,0.0,0.0,0.0,-0.0210526315789,1,-0.0,0.0,0.0,0.0,0.0,-0.0,0.352,0.0,0.0,0.0,0.0,-0.0210526315789,,3,Sharing Zero Relinquish,10.0,doorway_assistance,3
1449617327835274519,0.00575942572016,3.04332289367e-05,0.0,0.0,0.0,0.0,1.0,1449617327788826710,1,0.352,0.0,0.0,0.0,0.0,-0.0210526315789,1,-0.0,0.0,0.0,0.0,0.0,-0.0,0.352,0.0,0.0,0.0,0.0,-0.0210526315789,,3,Sharing Zero Relinquish,10.0,doorway_assistance,3
1449617327869827985,0.00575942572016,3.04332289367e-05,0.0,0.0,0.0,0.0,1.0,1449617327829663156,1,0.352,0.0,0.0,0.0,0.0,-0.0210526315789,1,-0.0,0.0,0.0,0.0,0.0,-0.0,0.352,0.0,0.0,0.0,0.0,-0.0210526315789,,3,Sharing Zero Relinquish,10.0,doorway_assistance,3
1449617327910286834,0.00575942572016,3.04332289367e-05,0.0,0.0,0.0,0.0,1.0,1449617327868819558,1,0.352,0.0,0.0,0.0,0.0,-0.0631578947368,1,-0.0,0.0,0.0,0.0,0.0,-0.0,0.352,0.0,0.0,0.0,0.0,-0.0631578947368,,3,Sharing Zero Relinquish,10.0,doorway_assistance,3
1449617327949314175,0.00863905817453,6.08664578733e-05,0.0,0.0,0.0,0.0052839997518,0.999986039576,1449617327908833869,1,0.352,0.0,0.0,0.0,0.0,-0.0631578947368,1,-0.0,0.0,0.0,0.0,0.0,-0.0,0.352,0.0,0.0,0.0,0.0,-0.0631578947368,,3,Sharing Zero Relinquish,10.0,doorway_assistance,3
1449617327990510909,0.00863905817453,6.08664578733e-05,0.0,0.0,0.0,0.0052839997518,0.999986039576,1449617327948825454,1,0.352,0.0,0.0,0.0,0.0,-0.0631578947368,1,-0.0,0.0,0.0,0.0,0.0,-0.0,0.352,0.0,0.0,0.0,0.0,-0.0631578947368,,3,Sharing Zero Relinquish,10.0,doorway_assistance,3
1449617328029054391,0.0115188514403,6.08664578733e-05,0.0,0.0,0.0,0.0,1.0,1449617327988869167,1,0.352,0.0,0.0,0.0,0.0,-0.0210526315789,1,-0.0,0.0,0.0,0.0,0.0,-0.0,0.352,0.0,0.0,0.0,0.0,-0.0210526315789,,3,Sharing Zero Relinquish,10.0,doorway_assistance,3
1449617328069699329,0.0115188514403,6.08664578733e-05,0.0,0.0,0.0,0.0,1.0,1449617328028799525,1,0.352,0.0,0.0,0.0,0.0,-0.105263157895,1,-0.0,0.0,0.0,0.0,0.0,-0.0,0.352,0.0,0.0,0.0,0.0,-0.105263157895,,3,Sharing Zero Relinquish,10.0,doorway_assistance,3
1449617328109296302,0.0172784379719,6.08664578733e-05,0.0,0.0,0.0,0.0,1.0,1449617328068811704,1,0.352,0.0,0.0,0.0,0.0,-0.105263157895,1,-0.0,0.0,0.0,0.0,0.0,-0.0,0.352,0.0,0.0,0.0,0.0,-0.105263157895,,3,Sharing Zero Relinquish,10.0,doorway_assistance,3
1449617328150152210,0.0172784379719,6.08664578733e-05,0.0,0.0,0.0,0.0,1.0,1449617328108836768,1,0.352,0.0,0.0,0.0,0.0,-0.0210526315789,1,-0.0,0.0,0.0,0.0,0.0,-0.0,0.352,0.0,0.0,0.0,0.0,-0.0210526315789,,3,Sharing Zero Relinquish,10.0,doorway_assistance,3
1449617328190099231,0.0230380245035,6.08664578733e-05,0.0,0.0,0.0,0.0,1.0,1449617328148864965,1,0.352,0.0,0.0,0.0,0.0,-0.0210526315789,1,-0.0,0.0,0.0,0.0,0.0,-0.0,0.352,0.0,0.0,0.0,0.0,-0.0210526315789,,3,Sharing Zero Relinquish,10.0,doorway_assistance,3
1449617328230833074,0.0230380245035,6.08664578733e-05,0.0,0.0,0.0,0.0,1.0,1449617328188839072,1,0.352,0.0,0.0,0.0,0.0,-0.0210526315789,1,-0.0,0.0,0.0,0.0,0.0,-0.0,0.352,0.0,0.0,0.0,0.0,-0.0210526315789,,3,Sharing Zero Relinquish,10.0,doorway_assistance,3
1449617328269884503,0.0287976110351,6.08664578733e-05,0.0,0.0,0.0,0.0,1.0,1449617328228803827,1,0.352,0.0,0.0,0.0,0.0,-0.0210526315789,1,-0.0,0.0,0.0,0.0,0.0,-0.0,0.352,0.0,0.0,0.0,0.0,-0.0210526315789,,3,Sharing Zero Relinquish,10.0,doorway_assistance,3
1449617328309937807,0.0316772434894,3.04332289367e-05,0.0,0.0,0.0,-0.0052839997518,0.999986039576,1449617328268829139,1,0.352,0.0,0.0,0.0,0.0,-0.0210526315789,1,-0.0,0.0,0.0,0.0,0.0,-0.0,0.352,0.0,0.0,0.0,0.0,-0.0210526315789,,3,Sharing Zero Relinquish,10.0,doorway_assistance,3
1449617328349323169,0.0374365083982,-3.04332289367e-05,0.0,0.0,0.0,-0.0052839997518,0.999986039576,1449617328308876402,1,0.352,0.0,0.0,0.0,0.0,-0.0210526315789,1,-0.0,0.0,0.0,0.0,0.0,-0.0,0.352,0.0,0.0,0.0,0.0,-0.0210526315789,,3,Sharing Zero Relinquish,10.0,doorway_assistance,3
1449617328390318890,0.0431957733069,-9.129968681e-05,0.0,0.0,0.0,-0.0052839997518,0.999986039576,1449617328348807300,1,0.352,0.0,0.0,0.0,0.0,-0.0210526315789,1,-0.0,0.0,0.0,0.0,0.0,-0.0,0.352,0.0,0.0,0.0,0.0,-0.0210526315789,,3,Sharing Zero Relinquish,10.0,doorway_assistance,3
1449617328429744515,0.0489550382157,-0.000152166144683,0.0,0.0,0.0,-0.0052839997518,0.999986039576,1449617328388856286,1,0.352,0.0,0.0,0.0,0.0,-0.0210526315789,1,-0.0,0.0,0.0,0.0,0.0,-0.0,0.352,0.0,0.0,0.0,0.0,-0.0210526315789,,3,Sharing Zero Relinquish,10.0,doorway_assistance,3
1449617328469631203,0.0518341882537,-0.000213029203694,0.0,0.0,0.0,-0.0105678519699,0.999944158693,1449617328428844493,1,0.352,0.0,0.0,0.0,0.0,-0.0210526315789,1,-0.0,0.0,0.0,0.0,0.0,-0.0,0.352,0.0,0.0,0.0,0.0,-0.0210526315789,,3,Sharing Zero Relinquish,10.0,doorway_assistance,3
1449617328510698394,0.0575924883299,-0.000334755321716,0.0,0.0,0.0,-0.0105678519699,0.999944158693,1449617328468835748,1,0.352,0.0,0.0,0.0,0.0,-0.0210526315789,1,-0.0,0.0,0.0,0.0,0.0,-0.0,0.352,0.0,0.0,0.0,0.0,-0.0210526315789,,3,Sharing Zero Relinquish,10.0,doorway_assistance,3
1449617328549968843,0.063350788406,-0.000456481439737,0.0,0.0,0.0,-0.0105678519699,0.999944158693,1449617328508870007,1,0.352,0.0,0.0,0.0,0.0,-0.0210526315789,1,-0.0,0.0,0.0,0.0,0.0,-0.0,0.352,0.0,0.0,0.0,0.0,-0.0210526315789,,3,Sharing Zero Relinquish,10.0,doorway_assistance,3
1449617328590393712,0.0691090884822,-0.000578207557759,0.0,0.0,0.0,-0.0105678519699,0.999944158693,1449617328548798120,1,0.352,0.0,0.0,0.0,0.0,-0.0210526315789,1,-0.0,0.0,0.0,0.0,0.0,-0.0,0.352,0.0,0.0,0.0,0.0,-0.0210526315789,,3,Sharing Zero Relinquish,10.0,doorway_assistance,3
1449617328629463468,0.0806256886345,-0.000821659793802,0.0,0.0,0.0,-0.0105678519699,0.999944158693,1449617328588826197,1,0.352,0.0,0.0,0.0,0.0,-0.0210526315789,1,-0.0,0.0,0.0,0.0,0.0,-0.0,0.352,0.0,0.0,0.0,0.0,-0.0210526315789,,3,Sharing Zero Relinquish,10.0,doorway_assistance,3
1449617328670332935,0.0863839887106,-0.000943385911823,0.0,0.0,0.0,-0.0105678519699,0.999944158693,1449617328628836878,1,0.352,0.0,0.0,0.0,0.0,-0.0210526315789,1,-0.0,0.0,0.0,0.0,0.0,-0.0,0.352,0.0,0.0,0.0,0.0,-0.0210526315789,,3,Sharing Zero Relinquish,10.0,doorway_assistance,3
1449617328709342819,0.0921422887868,-0.00106511202984,0.0,0.0,0.0,-0.0105678519699,0.999944158693,1449617328668858610,1,0.352,0.0,0.0,0.0,0.0,-0.0210526315789,1,-0.0,0.0,0.0,0.0,0.0,-0.0,0.352,0.0,0.0,0.0,0.0,-0.0210526315789,,3,Sharing Zero Relinquish,10.0,doorway_assistance,3
1449617328749536978,0.103658888939,-0.00130856426589,0.0,0.0,0.0,-0.0105678519699,0.999944158693,1449617328708821362,1,0.352,0.0,0.0,0.0,0.0,-0.0210526315789,1,-0.0,0.0,0.0,0.0,0.0,-0.0,0.352,0.0,0.0,0.0,0.0,-0.0210526315789,,3,Sharing Zero Relinquish,10.0,doorway_assistance,3
1449617328789984828,0.115175489091,-0.00155201650193,0.0,0.0,0.0,-0.0105678519699,0.999944158693,1449617328748791290,1,0.352,0.0,0.0,0.0,0.0,-0.0210526315789,1,-0.0,0.0,0.0,0.0,0.0,-0.0,0.352,0.0,0.0,0.0,0.0,-0.0210526315789,,3,Sharing Zero Relinquish,10.0,doorway_assistance,3
1449617328829141795,0.120933789168,-0.00167374261995,0.0,0.0,0.0,-0.0105678519699,0.999944158693,1449617328788845173,1,0.352,0.0,0.0,0.0,0.0,-0.0210526315789,1,-0.0,0.0,0.0,0.0,0.0,-0.0,0.352,0.0,0.0,0.0,0.0,-0.0210526315789,,3,Sharing Zero Relinquish,10.0,doorway_assistance,3
1449617328869519284,0.12956882738,-0.00194760089517,0.0,0.0,0.0,-0.0158514091245,0.999874358521,1449617328828825090,1,0.352,0.0,0.0,0.0,0.0,-0.0210526315789,1,-0.0,0.0,0.0,0.0,0.0,-0.0,0.352,0.0,0.0,0.0,0.0,-0.0210526315789,,3,Sharing Zero Relinquish,10.0,doorway_assistance,3
1449617328909522289,0.141082211663,-0.00231274526213,0.0,0.0,0.0,-0.0158514091245,0.999874358521,1449617328868814620,1,0.352,0.0,0.0,0.0,0.0,-0.0210526315789,1,-0.0,0.0,0.0,0.0,0.0,-0.0,0.352,0.0,0.0,0.0,0.0,-0.0210526315789,,3,Sharing Zero Relinquish,10.0,doorway_assistance,3
1449617328949973709,0.146838903804,-0.00249531744561,0.0,0.0,0.0,-0.0158514091245,0.999874358521,1449617328908819215,1,0.352,0.0,0.0,0.0,0.0,-0.0210526315789,1,-0.0,0.0,0.0,0.0,0.0,-0.0,0.352,0.0,0.0,0.0,0.0,-0.0210526315789,,3,Sharing Zero Relinquish,10.0,doorway_assistance,3
1449617328989718282,0.158352288088,-0.00286046181256,0.0,0.0,0.0,-0.0158514091245,0.999874358521,1449617328948902253,1,0.352,0.0,0.0,0.0,0.0,-0.0210526315789,1,-0.0,0.0,0.0,0.0,0.0,-0.0,0.352,0.0,0.0,0.0,0.0,-0.0210526315789,,3,Sharing Zero Relinquish,10.0,doorway_assistance,3
1449617329029622365,0.169865672371,-0.00322560617952,0.0,0.0,0.0,-0.0158514091245,0.999874358521,1449617328988871038,1,0.352,0.0,0.0,0.0,0.0,-0.0210526315789,1,-0.0,0.0,0.0,0.0,0.0,-0.0,0.352,0.0,0.0,0.0,0.0,-0.0210526315789,,3,Sharing Zero Relinquish,10.0,doorway_assistance,3
1449617329071131673,0.175622364512,-0.003408178363,0.0,0.0,0.0,-0.0158514091245,0.999874358521,1449617329028793608,1,0.352,0.0,0.0,0.0,0.0,-0.0210526315789,1,-0.0,0.0,0.0,0.0,0.0,-0.0,0.352,0.0,0.0,0.0,0.0,-0.0210526315789,,3,Sharing Zero Relinquish,10.0,doorway_assistance,3
1449617329109964328,0.187135748795,-0.00377332272996,0.0,0.0,0.0,-0.0158514091245,0.999874358521,1449617329068847111,1,0.352,0.0,0.0,0.0,0.0,-0.0210526315789,1,-0.0,0.0,0.0,0.0,0.0,-0.0,0.352,0.0,0.0,0.0,0.0,-0.0210526315789,,3,Sharing Zero Relinquish,10.0,doorway_assistance,3
1449617329149659394,0.201521852007,-0.00438181737695,0.0,0.0,0.0,-0.0211345236944,0.999776641009,1449617329108837921,1,0.352,0.0,0.0,0.0,0.0,-0.0210526315789,1,-0.0,0.0,0.0,0.0,0.0,-0.0,0.352,0.0,0.0,0.0,0.0,-0.0210526315789,,3,Sharing Zero Relinquish,10.0,doorway_assistance,3
1449617329189844519,0.207276293291,-0.00462521523575,0.0,0.0,0.0,-0.0211345236944,0.999776641009,1449617329148795370,1,0.352,0.0,0.0,0.0,0.0,-0.0210526315789,1,-0.0,0.0,0.0,0.0,0.0,-0.0,0.352,0.0,0.0,0.0,0.0,-0.0210526315789,,3,Sharing Zero Relinquish,10.0,doorway_assistance,3
1449617329229157582,0.21878517586,-0.00511201095334,0.0,0.0,0.0,-0.0211345236944,0.999776641009,1449617329188820306,1,0.352,0.0,0.0,0.0,0.0,-0.0210526315789,1,-0.0,0.0,0.0,0.0,0.0,-0.0,0.352,0.0,0.0,0.0,0.0,-0.0210526315789,,3,Sharing Zero Relinquish,10.0,doorway_assistance,3
1449617329269421029,0.230294058429,-0.00559880667094,0.0,0.0,0.0,-0.0211345236944,0.999776641009,1449617329228809428,1,0.352,0.0,0.0,0.0,0.0,-0.0210526315789,1,-0.0,0.0,0.0,0.0,0.0,-0.0,0.352,0.0,0.0,0.0,0.0,-0.0210526315789,,3,Sharing Zero Relinquish,10.0,doorway_assistance,3
1449617329309394208,0.238921380064,-0.00605510119715,0.0,0.0,0.0,-0.0264170481704,0.999651008886,1449617329268827749,1,0.352,0.0,0.0,0.0,0.0,-0.0210526315789,1,-0.0,0.0,0.0,0.0,0.0,-0.0,0.352,0.0,0.0,0.0,0.0,-0.0210526315789,,3,Sharing Zero Relinquish,10.0,doorway_assistance,3
1449617329349498996,0.250424475577,-0.00666349389876,0.0,0.0,0.0,-0.0264170481704,0.999651008886,1449617329308819994,1,0.352,0.0,0.0,0.0,0.0,-0.0210526315789,1,-0.0,0.0,0.0,0.0,0.0,-0.0,0.352,0.0,0.0,0.0,0.0,-0.0210526315789,,3,Sharing Zero Relinquish,10.0,doorway_assistance,3
1449617329395123961,0.264794505278,-0.0075758960722,0.0,0.0,0.0,-0.0316988350601,0.999497465658,1449617329348844667,1,0.352,0.0,0.0,0.0,0.0,-0.0210526315789,1,-0.0,0.0,0.0,0.0,0.0,-0.0,0.352,0.0,0.0,0.0,0.0,-0.0210526315789,,3,Sharing Zero Relinquish,10.0,doorway_assistance,3
1449617329429502312,0.273421826913,-0.00803219059841,0.0,0.0,0.0,-0.0264170481704,0.999651008886,1449617329394307716,1,0.352,0.0,0.0,0.0,0.0,-0.0210526315789,1,-0.0,0.0,0.0,0.0,0.0,-0.0,0.352,0.0,0.0,0.0,0.0,-0.0210526315789,,3,Sharing Zero Relinquish,10.0,doorway_assistance,3
1449617329469260207,0.284924922426,-0.00864058330002,0.0,0.0,0.0,-0.0264170481704,0.999651008886,1449617329428828163,1,0.352,0.0,0.0,0.0,0.0,-0.0210526315789,1,-0.0,0.0,0.0,0.0,0.0,-0.0,0.352,0.0,0.0,0.0,0.0,-0.0210526315789,,3,Sharing Zero Relinquish,10.0,doorway_assistance,3
1449617329509630446,0.299294952127,-0.00955298547345,0.0,0.0,0.0,-0.0316988350601,0.999497465658,1449617329468800993,1,0.352,0.0,0.0,0.0,0.0,-0.0210526315789,1,-0.0,0.0,0.0,0.0,0.0,-0.0,0.352,0.0,0.0,0.0,0.0,-0.0210526315789,,3,Sharing Zero Relinquish,10.0,doorway_assistance,3
1449617329549963908,0.307922273762,-0.0100092799997,0.0,0.0,0.0,-0.0264170481704,0.999651008886,1449617329508831691,1,0.352,0.0,0.0,0.0,0.0,-0.0210526315789,1,-0.0,0.0,0.0,0.0,0.0,-0.0,0.352,0.0,0.0,0.0,0.0,-0.0210526315789,,3,Sharing Zero Relinquish,10.0,doorway_assistance,3
1449617329590420125,0.322292303463,-0.0109216821731,0.0,0.0,0.0,-0.0316988350601,0.999497465658,1449617329548835135,1,0.352,0.0,0.0,0.0,0.0,-0.0210526315789,1,-0.0,0.0,0.0,0.0,0.0,-0.0,0.352,0.0,0.0,0.0,0.0,-0.0210526315789,,3,Sharing Zero Relinquish,10.0,doorway_assistance,3
1449617329629689688,0.333788327224,-0.0116516039118,0.0,0.0,0.0,-0.0316988350601,0.999497465658,1449617329588839454,1,0.352,0.0,0.0,0.0,0.0,-0.0210526315789,1,-0.0,0.0,0.0,0.0,0.0,-0.0,0.352,0.0,0.0,0.0,0.0,-0.0210526315789,,3,Sharing Zero Relinquish,10.0,doorway_assistance,3
1449617329669401442,0.342404078302,-0.0122901308541,0.0,0.0,0.0,-0.0369797368913,0.999316015612,1449617329628857201,1,0.352,0.0,0.0,0.0,0.0,0.0,1,-0.0,0.0,0.0,0.0,0.0,-0.0,0.352,0.0,0.0,0.0,0.0,0.0,,3,Sharing Zero Relinquish,10.0,doorway_assistance,3
1449617329709747529,0.356774108003,-0.0132025330275,0.0,0.0,0.0,-0.0316988350601,0.999497465658,1449617329668898779,1,0.352,0.0,0.0,0.0,0.0,0.0,1,-0.0,0.0,0.0,0.0,0.0,-0.0,0.352,0.0,0.0,0.0,0.0,0.0,,3,Sharing Zero Relinquish,10.0,doorway_assistance,3
1449617329750628546,0.371133693132,-0.0142667445979,0.0,0.0,0.0,-0.0369797368913,0.999316015612,1449617329709403538,1,0.352,0.0,0.0,0.0,0.0,0.0,1,-0.0,0.0,0.0,0.0,0.0,-0.0,0.352,0.0,0.0,0.0,0.0,0.0,,3,Sharing Zero Relinquish,10.0,doorway_assistance,3
1449617329789951236,0.376877527183,-0.0146924292261,0.0,0.0,0.0,-0.0369797368913,0.999316015612,1449617329748848548,1,0.352,0.0,0.0,0.0,0.0,-0.0210526315789,1,-0.0,0.0,0.0,0.0,0.0,-0.0,0.352,0.0,0.0,0.0,0.0,-0.0210526315789,,3,Sharing Zero Relinquish,10.0,doorway_assistance,3
1449617329829953466,0.394109029338,-0.0159694831105,0.0,0.0,0.0,-0.0369797368913,0.999316015612,1449617329788837339,1,0.352,0.0,0.0,0.0,0.0,-0.0210526315789,1,-0.0,0.0,0.0,0.0,0.0,-0.0,0.352,0.0,0.0,0.0,0.0,-0.0210526315789,,3,Sharing Zero Relinquish,10.0,doorway_assistance,3
1449617329870070302,0.408456566179,-0.0171853852239,0.0,0.0,0.0,-0.042259606217,0.999106663816,1449617329828818309,1,0.352,0.0,0.0,0.0,0.0,-0.0210526315789,1,-0.0,0.0,0.0,0.0,0.0,-0.0,0.352,0.0,0.0,0.0,0.0,-0.0210526315789,,3,Sharing Zero Relinquish,10.0,doorway_assistance,3
1449617329909531669,0.417072317256,-0.0178239121662,0.0,0.0,0.0,-0.0369797368913,0.999316015612,1449617329868849221,1,0.352,0.0,0.0,0.0,0.0,-0.0210526315789,1,-0.0,0.0,0.0,0.0,0.0,-0.0,0.352,0.0,0.0,0.0,0.0,-0.0210526315789,,3,Sharing Zero Relinquish,10.0,doorway_assistance,3
1449617329949422089,0.431419854097,-0.0190398142796,0.0,0.0,0.0,-0.042259606217,0.999106663816,1449617329908834241,1,0.352,0.0,0.0,0.0,0.0,-0.0210526315789,1,-0.0,0.0,0.0,0.0,0.0,-0.0,0.352,0.0,0.0,0.0,0.0,-0.0210526315789,,3,Sharing Zero Relinquish,10.0,doorway_assistance,3
1449617329989958312,0.442897883569,-0.0200125359703,0.0,0.0,0.0,-0.042259606217,0.999106663816,1449617329948808554,1,0.352,0.0,0.0,0.0,0.0,0.0,1,-0.0,0.0,0.0,0.0,0.0,-0.0,0.352,0.0,0.0,0.0,0.0,0.0,,3,Sharing Zero Relinquish,10.0,doorway_assistance,3
1449617330029665907,0.454375913042,-0.020985257661,0.0,0.0,0.0,-0.042259606217,0.999106663816,1449617329988805556,1,0.352,0.0,0.0,0.0,0.0,0.0,1,-0.0,0.0,0.0,0.0,0.0,-0.0,0.352,0.0,0.0,0.0,0.0,0.0,,3,Sharing Zero Relinquish,10.0,doorway_assistance,3
1449617330069335347,0.465853942514,-0.0219579793518,0.0,0.0,0.0,-0.042259606217,0.999106663816,1449617330028833964,1,0.352,0.0,0.0,0.0,0.0,0.0,1,-0.0,0.0,0.0,0.0,0.0,-0.0,0.352,0.0,0.0,0.0,0.0,0.0,,3,Sharing Zero Relinquish,10.0,doorway_assistance,3
1449617330109272807,0.480187828696,-0.0233254362131,0.0,0.0,0.0,-0.0475382956186,0.998869416115,1449617330068833508,1,0.352,0.0,0.0,0.0,0.0,0.0,1,-0.0,0.0,0.0,0.0,0.0,-0.0,0.352,0.0,0.0,0.0,0.0,0.0,,3,Sharing Zero Relinquish,10.0,doorway_assistance,3
1449617330154734141,0.491654937642,-0.0244194017021,0.0,0.0,0.0,-0.0475382956186,0.998869416115,1449617330108856742,1,0.352,0.0,0.0,0.0,0.0,0.0,1,-0.0,0.0,0.0,0.0,0.0,-0.0,0.352,0.0,0.0,0.0,0.0,0.0,,3,Sharing Zero Relinquish,10.0,doorway_assistance,3
1449617330190901419,0.503122046587,-0.0255133671912,0.0,0.0,0.0,-0.0475382956186,0.998869416115,1449617330148847073,1,0.352,0.0,0.0,0.0,0.0,0.0,1,-0.0,0.0,0.0,0.0,0.0,-0.0,0.352,0.0,0.0,0.0,0.0,0.0,,3,Sharing Zero Relinquish,10.0,doorway_assistance,3
1449617330229493728,0.517440681264,-0.0270322260793,0.0,0.0,0.0,-0.0528156577107,0.998604279132,1449617330188936355,1,0.352,0.0,0.0,0.0,0.0,0.0,1,-0.0,0.0,0.0,0.0,0.0,-0.0,0.352,0.0,0.0,0.0,0.0,0.0,,3,Sharing Zero Relinquish,10.0,doorway_assistance,3
1449617330269624961,0.526041012974,-0.0278527001961,0.0,0.0,0.0,-0.0475382956186,0.998869416115,1449617330228807447,1,0.352,0.0,0.0,0.0,0.0,0.0,1,-0.0,0.0,0.0,0.0,0.0,-0.0,0.352,0.0,0.0,0.0,0.0,0.0,,3,Sharing Zero Relinquish,10.0,doorway_assistance,3
1449617330310667397,0.540359647651,-0.0293715590841,0.0,0.0,0.0,-0.0528156577107,0.998604279132,1449617330268843667,1,0.352,0.0,0.0,0.0,0.0,0.0,1,-0.0,0.0,0.0,0.0,0.0,-0.0,0.352,0.0,0.0,0.0,0.0,0.0,,3,Sharing Zero Relinquish,10.0,doorway_assistance,3
1449617330351416703,0.551814555393,-0.0305866461946,0.0,0.0,0.0,-0.0528156577107,0.998604279132,1449617330309692077,1,0.352,0.0,0.0,0.0,0.0,0.0210526315789,1,-0.0,0.0,0.0,0.0,0.0,-0.0,0.352,0.0,0.0,0.0,0.0,0.0210526315789,,3,Sharing Zero Relinquish,10.0,doorway_assistance,3
1449617330390111514,0.563269463134,-0.031801733305,0.0,0.0,0.0,-0.0528156577107,0.998604279132,1449617330350195320,1,0.352,0.0,0.0,0.0,0.0,0.0210526315789,1,-0.0,0.0,0.0,0.0,0.0,-0.0,0.352,0.0,0.0,0.0,0.0,0.0210526315789,,3,Sharing Zero Relinquish,10.0,doorway_assistance,3
1449617330430671020,0.577571247164,-0.0334718245897,0.0,0.0,0.0,-0.0580915451448,0.99831126027,1449617330388841936,1,0.352,0.0,0.0,0.0,0.0,0.0210526315789,1,-0.0,0.0,0.0,0.0,0.0,-0.0,0.352,0.0,0.0,0.0,0.0,0.0210526315789,,3,Sharing Zero Relinquish,10.0,doorway_assistance,3
1449617330469931941,0.589012674389,-0.0348078976174,0.0,0.0,0.0,-0.0580915451448,0.99831126027,1449617330428910898,1,0.352,0.0,0.0,0.0,0.0,0.0210526315789,1,-0.0,0.0,0.0,0.0,0.0,-0.0,0.352,0.0,0.0,0.0,0.0,0.0210526315789,,3,Sharing Zero Relinquish,10.0,doorway_assistance,3
1449617330513596639,0.597582676062,-0.0359005799141,0.0,0.0,0.0,-0.0633658106137,0.997990367712,1449617330468879125,1,0.352,0.0,0.0,0.0,0.0,0.0210526315789,1,-0.0,0.0,0.0,0.0,0.0,-0.0,0.352,0.0,0.0,0.0,0.0,0.0210526315789,,3,Sharing Zero Relinquish,10.0,doorway_assistance,3
1449617330574152812,0.611884460092,-0.0375706711988,0.0,0.0,0.0,-0.0580915451448,0.99831126027,1449617330508855216,1,0.352,0.0,0.0,0.0,0.0,0.0210526315789,1,-0.0,0.0,0.0,0.0,0.0,-0.0,0.352,0.0,0.0,0.0,0.0,0.0210526315789,,3,Sharing Zero Relinquish,10.0,doorway_assistance,3
1449617330589489194,0.626167796214,-0.0393918083599,0.0,0.0,0.0,-0.0633658106137,0.997990367712,1449617330548810391,1,0.352,0.0,0.0,0.0,0.0,0.0210526315789,1,-0.0,0.0,0.0,0.0,0.0,-0.0,0.352,0.0,0.0,0.0,0.0,0.0210526315789,,3,Sharing Zero Relinquish,10.0,doorway_assistance,3
1449617330630211071,0.631881130663,-0.0401202632244,0.0,0.0,0.0,-0.0633658106137,0.997990367712,1449617330588853083,1,0.352,0.0,0.0,0.0,0.0,0.0210526315789,1,-0.0,0.0,0.0,0.0,0.0,-0.0,0.352,0.0,0.0,0.0,0.0,0.0210526315789,,3,Sharing Zero Relinquish,10.0,doorway_assistance,3
1449617330669597044,0.64902113401,-0.0423056278177,0.0,0.0,0.0,-0.0633658106137,0.997990367712,1449617330628943265,1,0.352,0.0,0.0,0.0,0.0,0.0210526315789,1,-0.0,0.0,0.0,0.0,0.0,-0.0,0.352,0.0,0.0,0.0,0.0,0.0210526315789,,3,Sharing Zero Relinquish,10.0,doorway_assistance,3
1449617330710249761,0.660447802908,-0.0437625375466,0.0,0.0,0.0,-0.0633658106137,0.997990367712,1449617330668838132,1,0.352,0.0,0.0,0.0,0.0,0.0210526315789,1,-0.0,0.0,0.0,0.0,0.0,-0.0,0.352,0.0,0.0,0.0,0.0,0.0210526315789,,3,Sharing Zero Relinquish,10.0,doorway_assistance,3
1449617330749396284,0.669005778716,-0.0449457253356,0.0,0.0,0.0,-0.0686383068554,0.997641610415,1449617330708848652,1,0.352,0.0,0.0,0.0,0.0,0.0210526315789,1,-0.0,0.0,0.0,0.0,0.0,-0.0,0.352,0.0,0.0,0.0,0.0,0.0210526315789,,3,Sharing Zero Relinquish,10.0,doorway_assistance,3
1449617330790898445,0.680416413128,-0.0465233090541,0.0,0.0,0.0,-0.0686383068554,0.997641610415,1449617330748797861,1,0.352,0.0,0.0,0.0,0.0,0.0210526315789,1,-0.0,0.0,0.0,0.0,0.0,-0.0,0.352,0.0,0.0,0.0,0.0,0.0210526315789,,3,Sharing Zero Relinquish,10.0,doorway_assistance,3
1449617330829749566,0.697532364745,-0.048889684632,0.0,0.0,0.0,-0.0686383068554,0.997641610415,1449617330788840088,1,0.352,0.0,0.0,0.0,0.0,0.0631578947368,1,-0.0,0.0,0.0,0.0,0.0,-0.0,0.352,0.0,0.0,0.0,0.0,0.0631578947368,,3,Sharing Zero Relinquish,10.0,doorway_assistance,3
1449617330871281195,0.70323768195,-0.0496784764913,0.0,0.0,0.0,-0.0686383068554,0.997641610415,1449617330828807662,1,0.352,0.0,0.0,0.0,0.0,0.0631578947368,1,-0.0,0.0,0.0,0.0,0.0,-0.0,0.352,0.0,0.0,0.0,0.0,0.0631578947368,,3,Sharing Zero Relinquish,10.0,doorway_assistance,3
1449617330909833631,0.717479338895,-0.0518010783908,0.0,0.0,0.0,-0.0739088866573,0.997264998119,1449617330868814139,1,0.352,0.0,0.0,0.0,0.0,0.0631578947368,1,-0.0,0.0,0.0,0.0,0.0,-0.0,0.352,0.0,0.0,0.0,0.0,0.0631578947368,,3,Sharing Zero Relinquish,10.0,doorway_assistance,3
1449617330950198957,0.72887266445,-0.0534991599104,0.0,0.0,0.0,-0.0739088866573,0.997264998119,1449617330908812955,1,0.352,0.0,0.0,0.0,0.0,0.0631578947368,1,-0.0,0.0,0.0,0.0,0.0,-0.0,0.352,0.0,0.0,0.0,0.0,0.0631578947368,,3,Sharing Zero Relinquish,10.0,doorway_assistance,3
1449617330990387770,0.740265990006,-0.05519724143,0.0,0.0,0.0,-0.0739088866573,0.997264998119,1449617330948869162,1,0.352,0.0,0.0,0.0,0.0,0.0631578947368,1,-0.0,0.0,0.0,0.0,0.0,-0.0,0.352,0.0,0.0,0.0,0.0,0.0631578947368,,3,Sharing Zero Relinquish,10.0,doorway_assistance,3
1449617331030548754,0.751659315561,-0.0568953229496,0.0,0.0,0.0,-0.0739088866573,0.997264998119,1449617330988999103,1,0.352,0.0,0.0,0.0,0.0,0.0631578947368,1,-0.0,0.0,0.0,0.0,0.0,-0.0,0.352,0.0,0.0,0.0,0.0,0.0631578947368,,3,Sharing Zero Relinquish,10.0,doorway_assistance,3
1449617331069956568,0.76587774589,-0.0591683100426,0.0,0.0,0.0,-0.0791774028604,0.996860541338,1449617331028851004,1,0.352,0.0,0.0,0.0,0.0,0.0631578947368,1,-0.0,0.0,0.0,0.0,0.0,-0.0,0.352,0.0,0.0,0.0,0.0,0.0631578947368,,3,Sharing Zero Relinquish,10.0,doorway_assistance,3
1449617331109744341,0.771565118021,-0.0600775048798,0.0,0.0,0.0,-0.0791774028604,0.996860541338,1449617331068935014,1,0.352,0.0,0.0,0.0,0.0,0.0631578947368,1,-0.0,0.0,0.0,0.0,0.0,-0.0,0.352,0.0,0.0,0.0,0.0,0.0631578947368,,3,Sharing Zero Relinquish,10.0,doorway_assistance,3
1449617331150960475,0.788627234416,-0.0628050893914,0.0,0.0,0.0,-0.0791774028604,0.996860541338,1449617331108891516,1,0.352,0.0,0.0,0.0,0.0,0.0631578947368,1,-0.0,0.0,0.0,0.0,0.0,-0.0,0.352,0.0,0.0,0.0,0.0,0.0631578947368,,3,Sharing Zero Relinquish,10.0,doorway_assistance,3
1449617331195008563,0.800001978679,-0.0646234790658,0.0,0.0,0.0,-0.0791774028604,0.996860541338,1449617331148823206,1,0.352,0.0,0.0,0.0,0.0,0.0631578947368,1,-0.0,0.0,0.0,0.0,0.0,-0.0,0.352,0.0,0.0,0.0,0.0,0.0631578947368,,3,Sharing Zero Relinquish,10.0,doorway_assistance,3
1449617331230261144,0.808518148136,-0.0660773501258,0.0,0.0,0.0,-0.0844437083633,0.996428251365,1449617331188841119,1,0.352,0.0,0.0,0.0,0.0,0.0631578947368,1,-0.0,0.0,0.0,0.0,0.0,-0.0,0.352,0.0,0.0,0.0,0.0,0.0631578947368,,3,Sharing Zero Relinquish,10.0,doorway_assistance,3
1449617331272360428,0.822736578465,-0.0683503372188,0.0,0.0,0.0,-0.0791774028604,0.996860541338,1449617331228850948,1,0.352,0.0,0.0,0.0,0.0,0.0631578947368,1,-0.0,0.0,0.0,0.0,0.0,-0.0,0.352,0.0,0.0,0.0,0.0,0.0631578947368,,3,Sharing Zero Relinquish,10.0,doorway_assistance,3
1449617331309775178,0.836930194227,-0.0707734556523,0.0,0.0,0.0,-0.0844437083633,0.996428251365,1449617331268848277,1,0.352,0.0,0.0,0.0,0.0,0.0631578947368,1,-0.0,0.0,0.0,0.0,0.0,-0.0,0.352,0.0,0.0,0.0,0.0,0.0631578947368,,3,Sharing Zero Relinquish,10.0,doorway_assistance,3
1449617331349562856,0.848285086837,-0.072711950399,0.0,0.0,0.0,-0.0844437083633,0.996428251365,1449617331308844426,1,0.352,0.0,0.0,0.0,0.0,0.0631578947368,1,-0.0,0.0,0.0,0.0,0.0,-0.0,0.352,0.0,0.0,0.0,0.0,0.0631578947368,,3,Sharing Zero Relinquish,10.0,doorway_assistance,3
1449617331391417691,0.859639979447,-0.0746504451457,0.0,0.0,0.0,-0.0844437083633,0.996428251365,1449617331348833447,1,0.352,0.0,0.0,0.0,0.0,0.0631578947368,1,-0.0,0.0,0.0,0.0,0.0,-0.0,0.352,0.0,0.0,0.0,0.0,0.0631578947368,,3,Sharing Zero Relinquish,10.0,doorway_assistance,3
1449617331430396820,0.870994872056,-0.0765889398924,0.0,0.0,0.0,-0.0844437083633,0.996428251365,1449617331388957189,1,0.352,0.0,0.0,0.0,0.0,0.0631578947368,1,-0.0,0.0,0.0,0.0,0.0,-0.0,0.352,0.0,0.0,0.0,0.0,0.0631578947368,,3,Sharing Zero Relinquish,10.0,doorway_assistance,3
1449617331475484190,0.879495201665,-0.0781327273846,0.0,0.0,0.0,-0.0897076561262,0.99596814027,1449617331428846271,1,0.352,0.0,0.0,0.0,0.0,0.0631578947368,1,-0.0,0.0,0.0,0.0,0.0,-0.0,0.352,0.0,0.0,0.0,0.0,0.0631578947368,,3,Sharing Zero Relinquish,10.0,doorway_assistance,3
1449617331509734019,0.893688817427,-0.080555845818,0.0,0.0,0.0,-0.0844437083633,0.996428251365,1449617331468833563,1,0.352,0.0,0.0,0.0,0.0,0.0631578947368,1,-0.0,0.0,0.0,0.0,0.0,-0.0,0.352,0.0,0.0,0.0,0.0,0.0631578947368,,3,Sharing Zero Relinquish,10.0,doorway_assistance,3
1449617331551943936,0.907856033442,-0.0831288249716,0.0,0.0,0.0,-0.0897076561262,0.99596814027,1449617331508789044,1,0.352,0.0,0.0,0.0,0.0,0.0631578947368,1,-0.0,0.0,0.0,0.0,0.0,-0.0,0.352,0.0,0.0,0.0,0.0,0.0631578947368,,3,Sharing Zero Relinquish,10.0,doorway_assistance,3
1449617331589360541,0.913522919848,-0.084158016633,0.0,0.0,0.0,-0.0897076561262,0.99596814027,1449617331548825362,1,0.352,0.0,0.0,0.0,0.0,0.0631578947368,1,-0.0,0.0,0.0,0.0,0.0,-0.0,0.352,0.0,0.0,0.0,0.0,0.0631578947368,,3,Sharing Zero Relinquish,10.0,doorway_assistance,3
1449617331630997456,0.927662153885,-0.0868805691498,0.0,0.0,0.0,-0.0949690991753,0.995480220899,1449617331588949981,1,0.352,0.0,0.0,0.0,0.0,0.0631578947368,1,-0.0,0.0,0.0,0.0,0.0,-0.0,0.352,0.0,0.0,0.0,0.0,0.0631578947368,,3,Sharing Zero Relinquish,10.0,doorway_assistance,3
1449617331669884342,0.9418293699,-0.0894535483033,0.0,0.0,0.0,-0.0897076561262,0.99596814027,1449617331630009748,1,0.352,0.0,0.0,0.0,0.0,0.0631578947368,1,-0.0,0.0,0.0,0.0,0.0,-0.0,0.352,0.0,0.0,0.0,0.0,0.0631578947368,,3,Sharing Zero Relinquish,10.0,doorway_assistance,3
1449617331709301933,0.955968603936,-0.0921761008201,0.0,0.0,0.0,-0.0949690991753,0.995480220899,1449617331668801158,1,0.352,0.0,0.0,0.0,0.0,0.0631578947368,1,-0.0,0.0,0.0,0.0,0.0,-0.0,0.352,0.0,0.0,0.0,0.0,0.0631578947368,,3,Sharing Zero Relinquish,10.0,doorway_assistance,3
1449617331750646444,0.961624297551,-0.0932651218268,0.0,0.0,0.0,-0.0949690991753,0.995480220899,1449617331708812892,1,0.352,0.0,0.0,0.0,0.0,0.0631578947368,1,-0.0,0.0,0.0,0.0,0.0,-0.0,0.352,0.0,0.0,0.0,0.0,0.0631578947368,,3,Sharing Zero Relinquish,10.0,doorway_assistance,3
1449617331789401078,0.978591378394,-0.0965321848469,0.0,0.0,0.0,-0.0949690991753,0.995480220899,1449617331748845163,1,0.352,0.0,0.0,0.0,0.0,0.0631578947368,1,-0.0,0.0,0.0,0.0,0.0,-0.0,0.352,0.0,0.0,0.0,0.0,0.0631578947368,,3,Sharing Zero Relinquish,10.0,doorway_assistance,3
1449617331831042946,0.989902765624,-0.0987102268603,0.0,0.0,0.0,-0.0949690991753,0.995480220899,1449617331788833638,1,0.352,0.0,0.0,0.0,0.0,0.0631578947368,1,-0.0,0.0,0.0,0.0,0.0,-0.0,0.352,0.0,0.0,0.0,0.0,0.0631578947368,,3,Sharing Zero Relinquish,10.0,doorway_assistance,3
1449617331869741696,0.998368569394,-0.100433319951,0.0,0.0,0.0,-0.100227890607,0.994964506877,1449617331829183142,1,0.352,0.0,0.0,0.0,0.0,0.0631578947368,1,-0.0,0.0,0.0,0.0,0.0,-0.0,0.352,0.0,0.0,0.0,0.0,0.0631578947368,,3,Sharing Zero Relinquish,10.0,doorway_assistance,3
1449617331909829807,0.998368569394,-0.100433319951,0.0,0.0,0.0,-0.100227890607,0.994964506877,1449617331868833514,1,0.352,0.0,0.0,0.0,0.0,0.0631578947368,1,-0.0,0.0,0.0,0.0,0.0,-0.0,0.352,0.0,0.0,0.0,0.0,0.0631578947368,,3,Sharing Zero Relinquish,10.0,doorway_assistance,3
1449617331949256748,1.02094404612,-0.10502823486,0.0,0.0,0.0,-0.100227890607,0.994964506877,1449617331908860204,1,0.352,0.0,0.0,0.0,0.0,0.0631578947368,1,-0.0,0.0,0.0,0.0,0.0,-0.0,0.352,0.0,0.0,0.0,0.0,0.0631578947368,,3,Sharing Zero Relinquish,10.0,doorway_assistance,3
1449617331990306499,1.03502258218,-0.108049005247,0.0,0.0,0.0,-0.10548388359,0.994421012601,1449617331948816644,1,0.352,0.0,0.0,0.0,0.0,0.0631578947368,1,-0.0,0.0,0.0,0.0,0.0,-0.0,0.352,0.0,0.0,0.0,0.0,0.0631578947368,,3,Sharing Zero Relinquish,10.0,doorway_assistance,3
1449617332029422225,1.04913225513,-0.110920827065,0.0,0.0,0.0,-0.100227890607,0.994964506877,1449617331988831708,1,0.352,0.0,0.0,0.0,0.0,0.0631578947368,1,-0.0,0.0,0.0,0.0,0.0,-0.0,0.352,0.0,0.0,0.0,0.0,0.0631578947368,,3,Sharing Zero Relinquish,10.0,doorway_assistance,3
1449617332069248370,1.05757937676,-0.112733289297,0.0,0.0,0.0,-0.10548388359,0.994421012601,1449617332028797594,1,0.352,0.0,0.0,0.0,0.0,0.0631578947368,1,-0.0,0.0,0.0,0.0,0.0,-0.0,0.352,0.0,0.0,0.0,0.0,0.0631578947368,,3,Sharing Zero Relinquish,10.0,doorway_assistance,3
