%time,field.linear.x,field.linear.y,field.linear.z,field.angular.x,field.angular.y,field.angular.z
1449617318715127971,0.0,0.0,0.0,0.0,0.0,0.0
1449617318755065688,0.0,0.0,0.0,0.0,0.0,0.0
1449617318795149559,0.0,0.0,0.0,0.0,0.0,0.0
1449617318835458779,0.0,0.0,0.0,0.0,0.0,0.0
1449617318875193175,0.0,0.0,0.0,0.0,0.0,0.0
1449617318915328119,0.0,0.0,0.0,0.0,0.0,0.0
1449617318955094972,0.0,0.0,0.0,0.0,0.0,0.0
1449617318995286356,0.0,0.0,0.0,0.0,0.0,0.0
1449617319035204274,0.0,0.0,0.0,0.0,0.0,0.0
1449617319075530708,0.0,0.0,0.0,0.0,0.0,0.0
1449617319115421658,0.0,0.0,0.0,0.0,0.0,0.0
1449617319155148265,0.0,0.0,0.0,0.0,0.0,0.0
1449617319195123652,0.0,0.0,0.0,0.0,0.0,0.0
1449617319235264249,0.0,0.0,0.0,0.0,0.0,0.0
1449617319275270482,0.0,0.0,0.0,0.0,0.0,0.0
1449617319315238325,0.0,0.0,0.0,0.0,0.0,0.0
1449617319355172832,0.0,0.0,0.0,0.0,0.0,0.0
1449617319395164703,0.0,0.0,0.0,0.0,0.0,0.0
1449617319435181824,0.0,0.0,0.0,0.0,0.0,0.0
1449617319475540118,0.0,0.0,0.0,0.0,0.0,0.0
1449617319515192374,0.0,0.0,0.0,0.0,0.0,0.0
1449617319555380342,0.0,0.0,0.0,0.0,0.0,0.0
1449617319595132610,0.0,0.0,0.0,0.0,0.0,0.0
1449617319635367934,0.0,0.0,0.0,0.0,0.0,0.0
1449617319675228057,0.0,0.0,0.0,0.0,0.0,0.0
1449617319715879356,0.0,0.0,0.0,0.0,0.0,0.0
1449617319755297638,0.0,0.0,0.0,0.0,0.0,0.0
1449617319795196225,0.0,0.0,0.0,0.0,0.0,0.0
1449617319835225679,0.0,0.0,0.0,0.0,0.0,0.0
1449617319875649958,0.0,0.0,0.0,0.0,0.0,0.0
1449617319915766886,0.0,0.0,0.0,0.0,0.0,0.0
1449617319955601418,0.0,0.0,0.0,0.0,0.0,0.0
1449617319995194381,0.0,0.0,0.0,0.0,0.0,0.0
1449617320035367294,0.0,0.0,0.0,0.0,0.0,0.0
1449617320075180436,0.0,0.0,0.0,0.0,0.0,0.0
1449617320115361030,0.0,0.0,0.0,0.0,0.0,0.0
1449617320155156536,0.0,0.0,0.0,0.0,0.0,0.0
1449617320195115379,0.0,0.0,0.0,0.0,0.0,0.0
1449617320235231149,0.0,0.0,0.0,0.0,0.0,0.0
1449617320275232296,0.0,0.0,0.0,0.0,0.0,0.0
1449617320315452863,0.0,0.0,0.0,0.0,0.0,0.0
1449617320355195009,0.0,0.0,0.0,0.0,0.0,0.0
1449617320395163640,0.0,0.0,0.0,0.0,0.0,0.0
1449617320435291264,0.0,0.0,0.0,0.0,0.0,0.0
1449617320475404054,0.0,0.0,0.0,0.0,0.0,0.0
1449617320515500409,0.0,0.0,0.0,0.0,0.0,0.0
1449617320555148048,0.0,0.0,0.0,0.0,0.0,0.0
1449617320595290226,0.0,0.0,0.0,0.0,0.0,0.0
1449617320635285052,0.0,0.0,0.0,0.0,0.0,0.0
1449617320675755522,0.0,0.0,0.0,0.0,0.0,0.0
1449617320715516752,0.0,0.0,0.0,0.0,0.0,0.0
1449617320755406835,0.0,0.0,0.0,0.0,0.0,0.0
1449617320795143343,0.0,0.0,0.0,0.0,0.0,0.0
1449617320835323933,0.0,0.0,0.0,0.0,0.0,0.0
1449617320875216491,0.0,0.0,0.0,0.0,0.0,0.0
1449617320915342903,0.0,0.0,0.0,0.0,0.0,0.0
1449617320955489843,0.0,0.0,0.0,0.0,0.0,0.0
1449617320995289188,0.0,0.0,0.0,0.0,0.0,0.0
1449617321035781128,0.0,0.0,0.0,0.0,0.0,0.0
1449617321075189347,0.0,0.0,0.0,0.0,0.0,0.0
1449617321115251363,0.0,0.0,0.0,0.0,0.0,0.0
1449617321155730355,0.0,0.0,0.0,0.0,0.0,0.0
1449617321195286785,0.0,0.0,0.0,0.0,0.0,0.0
1449617321235699367,0.0,0.0,0.0,0.0,0.0,0.0
1449617321275411379,0.0,0.0,0.0,0.0,0.0,0.0
1449617321315406589,0.0,0.0,0.0,0.0,0.0,0.0
1449617321355498445,0.0,0.0,0.0,0.0,0.0,0.0
1449617321395640763,0.0,0.0,0.0,0.0,0.0,0.0
1449617321435181591,0.0,0.0,0.0,0.0,0.0,0.0
1449617321475163078,0.0,0.0,0.0,0.0,0.0,0.0
1449617321515690110,0.0,0.0,0.0,0.0,0.0,0.0
1449617321555189397,0.0,0.0,0.0,0.0,0.0,0.0
1449617321595813648,-0.0,0.0,0.0,0.0,0.0,-0.0
1449617321635457949,-0.0,0.0,0.0,0.0,0.0,-0.0
1449617321675276683,-0.0,0.0,0.0,0.0,0.0,-0.0
1449617321715671285,-0.0,0.0,0.0,0.0,0.0,-0.0
1449617321755576206,-0.0,0.0,0.0,0.0,0.0,-0.0
1449617321795514847,-0.0,0.0,0.0,0.0,0.0,-0.0
1449617321835265191,-0.0,0.0,0.0,0.0,0.0,-0.0
1449617321876270787,-0.0,0.0,0.0,0.0,0.0,-0.0
1449617321915822274,-0.0,0.0,0.0,0.0,0.0,-0.0
1449617321955929252,-0.0,0.0,0.0,0.0,0.0,-0.0
1449617321995340314,-0.0,0.0,0.0,0.0,0.0,-0.0
1449617322035732926,-0.0,0.0,0.0,0.0,0.0,-0.0
1449617322075563909,-0.0,0.0,0.0,0.0,0.0,-0.0
1449617322115578323,-0.0,0.0,0.0,0.0,0.0,-0.0
1449617322156245462,-0.0,0.0,0.0,0.0,0.0,-0.0
1449617322195367546,-0.0,0.0,0.0,0.0,0.0,-0.0
1449617322235765481,-0.0,0.0,0.0,0.0,0.0,-0.0
1449617322275524132,-0.0,0.0,0.0,0.0,0.0,-0.0
1449617322315945980,-0.0,0.0,0.0,0.0,0.0,-0.0
1449617322356141909,-0.0,0.0,0.0,0.0,0.0,-0.0
1449617322396295283,-0.0,0.0,0.0,0.0,0.0,-0.0
1449617322436486776,-0.0,0.0,0.0,0.0,0.0,-0.0
1449617322475671880,-0.0,0.0,0.0,0.0,0.0,-0.0
1449617322515751391,-0.0,0.0,0.0,0.0,0.0,-0.0
1449617322555764135,-0.0,0.0,0.0,0.0,0.0,-0.0
1449617322596127566,-0.0,0.0,0.0,0.0,0.0,-0.0
1449617322638181162,-0.0,0.0,0.0,0.0,0.0,-0.0
1449617322675587027,-0.0,0.0,0.0,0.0,0.0,-0.0
1449617322715495984,-0.0,0.0,0.0,0.0,0.0,-0.0
1449617322757318796,-0.0,0.0,0.0,0.0,0.0,-0.0
1449617322796021740,-0.0,0.0,0.0,0.0,0.0,-0.0
1449617322839320444,-0.0,0.0,0.0,0.0,0.0,-0.0
1449617322876111575,-0.0,0.0,0.0,0.0,0.0,-0.0
1449617322915252767,-0.0,0.0,0.0,0.0,0.0,-0.0
1449617322956045659,-0.0,0.0,0.0,0.0,0.0,-0.0
1449617322995290261,-0.0,0.0,0.0,0.0,0.0,-0.0
1449617323035532556,-0.0,0.0,0.0,0.0,0.0,-0.0
1449617323076458286,-0.0,0.0,0.0,0.0,0.0,-0.0
1449617323115429260,-0.0,0.0,0.0,0.0,0.0,-0.0
1449617323155941132,-0.0,0.0,0.0,0.0,0.0,-0.0
1449617323195512002,-0.0,0.0,0.0,0.0,0.0,-0.0
1449617323238644987,-0.0,0.0,0.0,0.0,0.0,-0.0
1449617323275439076,-0.0,0.0,0.0,0.0,0.0,-0.0
1449617323315630322,-0.0,0.0,0.0,0.0,0.0,-0.0
1449617323355693220,-0.0,0.0,0.0,0.0,0.0,-0.0
1449617323395360243,-0.0,0.0,0.0,0.0,0.0,-0.0
1449617323437980235,-0.0,0.0,0.0,0.0,0.0,-0.0
1449617323475800303,-0.0,0.0,0.0,0.0,0.0,-0.0
1449617323517022770,-0.0,0.0,0.0,0.0,0.0,-0.0
1449617323560606143,-0.0,0.0,0.0,0.0,0.0,-0.0
1449617323595564125,-0.0,0.0,0.0,0.0,0.0,-0.0
1449617323636048192,-0.0,0.0,0.0,0.0,0.0,-0.0
1449617323675596229,-0.0,0.0,0.0,0.0,0.0,-0.0
1449617323716706411,-0.0,0.0,0.0,0.0,0.0,-0.0
1449617323755718633,-0.0,0.0,0.0,0.0,0.0,-0.0
1449617323795366489,-0.0,0.0,0.0,0.0,0.0,-0.0
1449617323837688252,-0.0,0.0,0.0,0.0,0.0,-0.0
1449617323875485725,-0.0,0.0,0.0,0.0,0.0,-0.0
1449617323915594487,-0.0,0.0,0.0,0.0,0.0,-0.0
1449617323955618629,-0.0,0.0,0.0,0.0,0.0,-0.0
1449617323997794752,-0.0,0.0,0.0,0.0,0.0,-0.0
1449617324035886727,-0.0,0.0,0.0,0.0,0.0,-0.0
1449617324076158099,-0.0,0.0,0.0,0.0,0.0,-0.0
1449617324116502421,-0.0,0.0,0.0,0.0,0.0,-0.0
1449617324155792925,-0.0,0.0,0.0,0.0,0.0,-0.0
1449617324195421491,-0.0,0.0,0.0,0.0,0.0,-0.0
1449617324235974510,-0.0,0.0,0.0,0.0,0.0,-0.0
1449617324275930602,-0.0,0.0,0.0,0.0,0.0,-0.0
1449617324316105764,-0.0,0.0,0.0,0.0,0.0,-0.0
1449617324357712077,-0.0,0.0,0.0,0.0,0.0,-0.0
1449617324395615040,-0.0,0.0,0.0,0.0,0.0,-0.0
1449617324435452444,-0.0,0.0,0.0,0.0,0.0,-0.0
1449617324475855127,-0.0,0.0,0.0,0.0,0.0,-0.0
1449617324517810841,-0.0,0.0,0.0,0.0,0.0,-0.0
1449617324555692185,-0.0,0.0,0.0,0.0,0.0,-0.0
1449617324597227861,-0.0,0.0,0.0,0.0,0.0,-0.0
1449617324636073399,-0.0,0.0,0.0,0.0,0.0,-0.0
1449617324675904057,-0.0,0.0,0.0,0.0,0.0,-0.0
1449617324715500227,-0.0,0.0,0.0,0.0,0.0,-0.0
1449617324755772721,-0.0,0.0,0.0,0.0,0.0,-0.0
1449617324795731771,-0.0,0.0,0.0,0.0,0.0,-0.0
1449617324835299859,-0.0,0.0,0.0,0.0,0.0,-0.0
1449617324875884492,-0.0,0.0,0.0,0.0,0.0,-0.0
1449617324915685198,-0.0,0.0,0.0,0.0,0.0,-0.0
1449617324955768848,-0.0,0.0,0.0,0.0,0.0,-0.0
1449617324995693875,-0.0,0.0,0.0,0.0,0.0,-0.0
1449617325035377989,-0.0,0.0,0.0,0.0,0.0,-0.0
1449617325078324078,-0.0,0.0,0.0,0.0,0.0,-0.0
1449617325115610393,-0.0,0.0,0.0,0.0,0.0,-0.0
1449617325156592944,-0.0,0.0,0.0,0.0,0.0,-0.0
1449617325195662287,-0.0,0.0,0.0,0.0,0.0,-0.0
1449617325236343925,-0.0,0.0,0.0,0.0,0.0,-0.0
1449617325275575275,-0.0,0.0,0.0,0.0,0.0,-0.0
1449617325315572159,-0.0,0.0,0.0,0.0,0.0,-0.0
1449617325355714579,-0.0,0.0,0.0,0.0,0.0,-0.0
1449617325395340080,-0.0,0.0,0.0,0.0,0.0,-0.0
1449617325435694516,-0.0,0.0,0.0,0.0,0.0,-0.0
1449617325475411263,-0.0,0.0,0.0,0.0,0.0,-0.0
1449617325515725086,-0.0,0.0,0.0,0.0,0.0,-0.0
1449617325556980128,-0.0,0.0,0.0,0.0,0.0,-0.0
1449617325596779856,-0.0,0.0,0.0,0.0,0.0,-0.0
1449617325644595974,-0.0,0.0,0.0,0.0,0.0,-0.0
1449617325675492821,-0.0,0.0,0.0,0.0,0.0,-0.0
1449617325715494247,-0.0,0.0,0.0,0.0,0.0,-0.0
1449617325755690740,-0.0,0.0,0.0,0.0,0.0,-0.0
1449617325796092639,-0.0,0.0,0.0,0.0,0.0,-0.0
1449617325835787347,-0.0,0.0,0.0,0.0,0.0,-0.0
1449617325880298059,-0.0,0.0,0.0,0.0,0.0,-0.0
1449617325915390755,-0.0,0.0,0.0,0.0,0.0,-0.0
1449617325956718016,-0.0,0.0,0.0,0.0,0.0,-0.0
1449617325996261278,-0.0,0.0,0.0,0.0,0.0,-0.0
1449617326035367283,-0.0,0.0,0.0,0.0,0.0,-0.0
1449617326076550513,-0.0,0.0,0.0,0.0,0.0,-0.0
1449617326115562039,-0.0,0.0,0.0,0.0,0.0,-0.0
1449617326156178583,-0.0,0.0,0.0,0.0,0.0,-0.0
1449617326195663077,-0.0,0.0,0.0,0.0,0.0,-0.0
1449617326236373204,-0.0,0.0,0.0,0.0,0.0,-0.0
1449617326275538837,-0.0,0.0,0.0,0.0,0.0,-0.0
1449617326315826576,-0.0,0.0,0.0,0.0,0.0,-0.0
1449617326356227736,-0.0,0.0,0.0,0.0,0.0,-0.0
1449617326396016483,-0.0,0.0,0.0,0.0,0.0,-0.0
1449617326435979355,-0.0,0.0,0.0,0.0,0.0,-0.0
1449617326479038617,-0.0,0.0,0.0,0.0,0.0,-0.0
1449617326515736563,-0.0,0.0,0.0,0.0,0.0,-0.0
1449617326555570081,-0.0,0.0,0.0,0.0,0.0,-0.0
1449617326595215024,-0.0,0.0,0.0,0.0,0.0,-0.0
1449617326635375238,-0.0,0.0,0.0,0.0,0.0,-0.0
1449617326675733490,-0.0,0.0,0.0,0.0,0.0,-0.0
1449617326716124507,-0.0,0.0,0.0,0.0,0.0,-0.0
1449617326755497048,-0.0,0.0,0.0,0.0,0.0,-0.0
1449617326795350160,-0.0,0.0,0.0,0.0,0.0,-0.0
1449617326835487436,0.0,0.0,0.0,0.0,0.0,0.0
1449617326875532013,0.0,0.0,0.0,0.0,0.0,0.0
1449617326919469616,0.0,0.0,0.0,0.0,0.0,0.0
1449617326956055203,0.0,0.0,0.0,0.0,0.0,0.0
1449617326995434602,0.0,0.0,0.0,0.0,0.0,0.0
1449617327037812744,0.0,0.0,0.0,0.0,0.0,0.0
1449617327075604508,0.352,0.0,0.0,0.0,0.0,-0.0210526315789
1449617327117691541,0.352,0.0,0.0,0.0,0.0,-0.0210526315789
1449617327155780357,0.352,0.0,0.0,0.0,0.0,-0.0210526315789
1449617327195666484,0.352,0.0,0.0,0.0,0.0,-0.0210526315789
1449617327235645831,0.352,0.0,0.0,0.0,0.0,-0.0210526315789
1449617327277075109,0.352,0.0,0.0,0.0,0.0,-0.0210526315789
1449617327315681078,0.352,0.0,0.0,0.0,0.0,-0.0210526315789
1449617327356181719,0.352,0.0,0.0,0.0,0.0,-0.0210526315789
1449617327395419149,0.352,0.0,0.0,0.0,0.0,-0.0210526315789
1449617327435803272,0.352,0.0,0.0,0.0,0.0,-0.0210526315789
1449617327476356517,0.352,0.0,0.0,0.0,0.0,-0.0210526315789
1449617327527479059,0.352,0.0,0.0,0.0,0.0,-0.0210526315789
1449617327556714079,0.352,0.0,0.0,0.0,0.0,-0.0210526315789
1449617327595429121,0.352,0.0,0.0,0.0,0.0,-0.0210526315789
1449617327635659349,0.352,0.0,0.0,0.0,0.0,-0.0210526315789
1449617327678530849,0.352,0.0,0.0,0.0,0.0,-0.0210526315789
1449617327715659951,0.352,0.0,0.0,0.0,0.0,-0.0210526315789
1449617327756016154,0.352,0.0,0.0,0.0,0.0,-0.0210526315789
1449617327798358949,0.352,0.0,0.0,0.0,0.0,-0.0210526315789
1449617327835657228,0.352,0.0,0.0,0.0,0.0,-0.0210526315789
1449617327876206705,0.352,0.0,0.0,0.0,0.0,-0.0210526315789
1449617327916309299,0.352,0.0,0.0,0.0,0.0,-0.0631578947368
1449617327956249210,0.352,0.0,0.0,0.0,0.0,-0.0631578947368
1449617327995477767,0.352,0.0,0.0,0.0,0.0,-0.0631578947368
1449617328036615151,0.352,0.0,0.0,0.0,0.0,-0.0210526315789
1449617328076157055,0.352,0.0,0.0,0.0,0.0,-0.105263157895
1449617328115444551,0.352,0.0,0.0,0.0,0.0,-0.105263157895
1449617328157732847,0.352,0.0,0.0,0.0,0.0,-0.0210526315789
1449617328195345931,0.352,0.0,0.0,0.0,0.0,-0.0210526315789
1449617328236772069,0.352,0.0,0.0,0.0,0.0,-0.0210526315789
1449617328275403344,0.352,0.0,0.0,0.0,0.0,-0.0210526315789
1449617328315607552,0.352,0.0,0.0,0.0,0.0,-0.0210526315789
1449617328355785035,0.352,0.0,0.0,0.0,0.0,-0.0210526315789
1449617328395565857,0.352,0.0,0.0,0.0,0.0,-0.0210526315789
1449617328435531999,0.352,0.0,0.0,0.0,0.0,-0.0210526315789
1449617328475476076,0.352,0.0,0.0,0.0,0.0,-0.0210526315789
1449617328516041733,0.352,0.0,0.0,0.0,0.0,-0.0210526315789
1449617328558217085,0.352,0.0,0.0,0.0,0.0,-0.0210526315789
1449617328595348760,0.352,0.0,0.0,0.0,0.0,-0.0210526315789
1449617328636132706,0.352,0.0,0.0,0.0,0.0,-0.0210526315789
1449617328675838366,0.352,0.0,0.0,0.0,0.0,-0.0210526315789
1449617328715385071,0.352,0.0,0.0,0.0,0.0,-0.0210526315789
1449617328755547848,0.352,0.0,0.0,0.0,0.0,-0.0210526315789
1449617328795720705,0.352,0.0,0.0,0.0,0.0,-0.0210526315789
1449617328835749034,0.352,0.0,0.0,0.0,0.0,-0.0210526315789
1449617328875403286,0.352,0.0,0.0,0.0,0.0,-0.0210526315789
1449617328915677393,0.352,0.0,0.0,0.0,0.0,-0.0210526315789
1449617328956080664,0.352,0.0,0.0,0.0,0.0,-0.0210526315789
1449617328995770250,0.352,0.0,0.0,0.0,0.0,-0.0210526315789
1449617329035342898,0.352,0.0,0.0,0.0,0.0,-0.0210526315789
1449617329075352167,0.352,0.0,0.0,0.0,0.0,-0.0210526315789
1449617329115262529,0.352,0.0,0.0,0.0,0.0,-0.0210526315789
1449617329155431245,0.352,0.0,0.0,0.0,0.0,-0.0210526315789
1449617329195469780,0.352,0.0,0.0,0.0,0.0,-0.0210526315789
1449617329239568192,0.352,0.0,0.0,0.0,0.0,-0.0210526315789
1449617329275727871,0.352,0.0,0.0,0.0,0.0,-0.0210526315789
1449617329315653403,0.352,0.0,0.0,0.0,0.0,-0.0210526315789
1449617329355853789,0.352,0.0,0.0,0.0,0.0,-0.0210526315789
1449617329395991031,0.352,0.0,0.0,0.0,0.0,-0.0210526315789
1449617329435846262,0.352,0.0,0.0,0.0,0.0,-0.0210526315789
1449617329475298542,0.352,0.0,0.0,0.0,0.0,-0.0210526315789
1449617329515316590,0.352,0.0,0.0,0.0,0.0,-0.0210526315789
1449617329555521644,0.352,0.0,0.0,0.0,0.0,-0.0210526315789
1449617329596213188,0.352,0.0,0.0,0.0,0.0,-0.0210526315789
1449617329640071189,0.352,0.0,0.0,0.0,0.0,-0.0210526315789
1449617329675721313,0.352,0.0,0.0,0.0,0.0,0.0
1449617329718499544,0.352,0.0,0.0,0.0,0.0,0.0
1449617329756816267,0.352,0.0,0.0,0.0,0.0,0.0
1449617329796875065,0.352,0.0,0.0,0.0,0.0,-0.0210526315789
1449617329835407325,0.352,0.0,0.0,0.0,0.0,-0.0210526315789
1449617329876049800,0.352,0.0,0.0,0.0,0.0,-0.0210526315789
1449617329917165765,0.352,0.0,0.0,0.0,0.0,-0.0210526315789
1449617329955510335,0.352,0.0,0.0,0.0,0.0,-0.0210526315789
1449617329995469255,0.352,0.0,0.0,0.0,0.0,0.0
1449617330035656509,0.352,0.0,0.0,0.0,0.0,0.0
1449617330075536911,0.352,0.0,0.0,0.0,0.0,0.0
1449617330116267934,0.352,0.0,0.0,0.0,0.0,0.0
1449617330155605711,0.352,0.0,0.0,0.0,0.0,0.0
1449617330195574735,0.352,0.0,0.0,0.0,0.0,0.0
1449617330242331988,0.352,0.0,0.0,0.0,0.0,0.0
1449617330280187358,0.352,0.0,0.0,0.0,0.0,0.0
1449617330316740657,0.352,0.0,0.0,0.0,0.0,0.0
1449617330361286809,0.352,0.0,0.0,0.0,0.0,0.0210526315789
1449617330396035525,0.352,0.0,0.0,0.0,0.0,0.0210526315789
1449617330435986297,0.352,0.0,0.0,0.0,0.0,0.0210526315789
1449617330476042785,0.352,0.0,0.0,0.0,0.0,0.0210526315789
1449617330515983409,0.352,0.0,0.0,0.0,0.0,0.0210526315789
1449617330569274949,0.352,0.0,0.0,0.0,0.0,0.0210526315789
1449617330595427189,0.352,0.0,0.0,0.0,0.0,0.0210526315789
1449617330636114222,0.352,0.0,0.0,0.0,0.0,0.0210526315789
1449617330675351242,0.352,0.0,0.0,0.0,0.0,0.0210526315789
1449617330715833704,0.352,0.0,0.0,0.0,0.0,0.0210526315789
1449617330755871926,0.352,0.0,0.0,0.0,0.0,0.0210526315789
1449617330796003787,0.352,0.0,0.0,0.0,0.0,0.0210526315789
1449617330835915972,0.352,0.0,0.0,0.0,0.0,0.0631578947368
1449617330879256307,0.352,0.0,0.0,0.0,0.0,0.0631578947368
1449617330915837622,0.352,0.0,0.0,0.0,0.0,0.0631578947368
1449617330955602522,0.352,0.0,0.0,0.0,0.0,0.0631578947368
1449617330995218256,0.352,0.0,0.0,0.0,0.0,0.0631578947368
1449617331037917416,0.352,0.0,0.0,0.0,0.0,0.0631578947368
1449617331075692876,0.352,0.0,0.0,0.0,0.0,0.0631578947368
1449617331116198971,0.352,0.0,0.0,0.0,0.0,0.0631578947368
1449617331155306219,0.352,0.0,0.0,0.0,0.0,0.0631578947368
1449617331196165086,0.352,0.0,0.0,0.0,0.0,0.0631578947368
1449617331237174461,0.352,0.0,0.0,0.0,0.0,0.0631578947368
1449617331275517662,0.352,0.0,0.0,0.0,0.0,0.0631578947368
1449617331315603389,0.352,0.0,0.0,0.0,0.0,0.0631578947368
1449617331355823264,0.352,0.0,0.0,0.0,0.0,0.0631578947368
1449617331397399248,0.352,0.0,0.0,0.0,0.0,0.0631578947368
1449617331435699496,0.352,0.0,0.0,0.0,0.0,0.0631578947368
1449617331476032867,0.352,0.0,0.0,0.0,0.0,0.0631578947368
1449617331516696097,0.352,0.0,0.0,0.0,0.0,0.0631578947368
1449617331556996903,0.352,0.0,0.0,0.0,0.0,0.0631578947368
1449617331596065259,0.352,0.0,0.0,0.0,0.0,0.0631578947368
1449617331635819873,0.352,0.0,0.0,0.0,0.0,0.0631578947368
1449617331678824730,0.352,0.0,0.0,0.0,0.0,0.0631578947368
1449617331715683308,0.352,0.0,0.0,0.0,0.0,0.0631578947368
1449617331756408301,0.352,0.0,0.0,0.0,0.0,0.0631578947368
1449617331799018739,0.352,0.0,0.0,0.0,0.0,0.0631578947368
1449617331845136891,0.352,0.0,0.0,0.0,0.0,0.0631578947368
1449617331878684610,0.352,0.0,0.0,0.0,0.0,0.0631578947368
1449617331915635624,0.352,0.0,0.0,0.0,0.0,0.0631578947368
1449617331955311485,0.352,0.0,0.0,0.0,0.0,0.0631578947368
1449617331997785559,0.352,0.0,0.0,0.0,0.0,0.0631578947368
1449617332035274049,0.352,0.0,0.0,0.0,0.0,0.0631578947368
1449617332076926319,0.352,0.0,0.0,0.0,0.0,0.0631578947368
1449617332115380597,0.352,0.0,0.0,0.0,0.0,0.0631578947368
1449617332155727818,0.352,0.0,0.0,0.0,0.0,0.105263157895
1449617332196641403,0.352,0.0,0.0,0.0,0.0,0.105263157895
1449617332239952789,0.352,0.0,0.0,0.0,0.0,0.105263157895
1449617332275783120,0.352,0.0,0.0,0.0,0.0,0.105263157895
1449617332321734811,0.352,0.0,0.0,0.0,0.0,0.105263157895
1449617332355734997,0.352,0.0,0.0,0.0,0.0,0.105263157895
1449617332395223064,0.352,0.0,0.0,0.0,0.0,0.105263157895
1449617332435511458,0.352,0.0,0.0,0.0,0.0,0.105263157895
1449617332475657258,0.352,0.0,0.0,0.0,0.0,0.105263157895
1449617332516539727,0.352,0.0,0.0,0.0,0.0,0.105263157895
1449617332555831822,0.352,0.0,0.0,0.0,0.0,0.105263157895
1449617332598388071,0.352,0.0,0.0,0.0,0.0,0.105263157895
1449617332635327484,0.352,0.0,0.0,0.0,0.0,0.105263157895
1449617332676337680,0.352,0.0,0.0,0.0,0.0,0.147368421053
1449617332715486005,0.352,0.0,0.0,0.0,0.0,0.147368421053
1449617332755683815,0.352,0.0,0.0,0.0,0.0,0.147368421053
1449617332795307789,0.352,0.0,0.0,0.0,0.0,0.147368421053
1449617332835579168,0.352,0.0,0.0,0.0,0.0,0.147368421053
1449617332875958804,0.352,0.0,0.0,0.0,0.0,0.147368421053
1449617332916680134,0.352,0.0,0.0,0.0,0.0,0.147368421053
1449617332956469516,0.352,0.0,0.0,0.0,0.0,0.147368421053
1449617333000309587,0.352,0.0,0.0,0.0,0.0,0.147368421053
1449617333035539065,0.352,0.0,0.0,0.0,0.0,0.147368421053
1449617333075762318,0.352,0.0,0.0,0.0,0.0,0.147368421053
1449617333116891400,0.352,0.0,0.0,0.0,0.0,0.147368421053
1449617333156067898,0.352,0.0,0.0,0.0,0.0,0.147368421053
1449617333195269231,0.352,0.0,0.0,0.0,0.0,0.105263157895
1449617333236378890,0.352,0.0,0.0,0.0,0.0,0.105263157895
1449617333276435569,0.352,0.0,0.0,0.0,0.0,0.147368421053
1449617333315611285,0.352,0.0,0.0,0.0,0.0,0.147368421053
1449617333355577461,0.352,0.0,0.0,0.0,0.0,0.147368421053
1449617333396633955,0.352,0.0,0.0,0.0,0.0,0.189473684211
1449617333436334430,0.352,0.0,0.0,0.0,0.0,0.189473684211
1449617333475451404,0.352,0.0,0.0,0.0,0.0,0.147368421053
1449617333516307909,0.352,0.0,0.0,0.0,0.0,0.147368421053
1449617333555883939,0.352,0.0,0.0,0.0,0.0,0.147368421053
1449617333596036143,0.352,0.0,0.0,0.0,0.0,0.147368421053
1449617333635811439,0.352,0.0,0.0,0.0,0.0,0.147368421053
1449617333677226901,0.352,0.0,0.0,0.0,0.0,0.189473684211
1449617333716698672,0.352,0.0,0.0,0.0,0.0,0.189473684211
1449617333756964901,0.352,0.0,0.0,0.0,0.0,0.189473684211
1449617333795933731,0.352,0.0,0.0,0.0,0.0,0.189473684211
1449617333835720622,0.352,0.0,0.0,0.0,0.0,0.189473684211
1449617333875986810,0.352,0.0,0.0,0.0,0.0,0.189473684211
1449617333915590778,0.352,0.0,0.0,0.0,0.0,0.189473684211
1449617333955970732,0.352,0.0,0.0,0.0,0.0,0.189473684211
1449617333996150385,0.352,0.0,0.0,0.0,0.0,0.189473684211
1449617334035409552,0.352,0.0,0.0,0.0,0.0,0.189473684211
1449617334075568437,0.352,0.0,0.0,0.0,0.0,0.189473684211
1449617334115866811,0.352,0.0,0.0,0.0,0.0,0.189473684211
1449617334155706971,0.352,0.0,0.0,0.0,0.0,0.189473684211
1449617334197891571,0.352,0.0,0.0,0.0,0.0,0.189473684211
1449617334237490192,0.352,0.0,0.0,0.0,0.0,0.189473684211
1449617334276616079,0.352,0.0,0.0,0.0,0.0,0.231578947368
1449617334318264188,0.352,0.0,0.0,0.0,0.0,0.231578947368
1449617334356891272,0.352,0.0,0.0,0.0,0.0,0.231578947368
1449617334396723250,0.352,0.0,0.0,0.0,0.0,0.231578947368
1449617334436018929,0.352,0.0,0.0,0.0,0.0,0.189473684211
1449617334475515419,0.352,0.0,0.0,0.0,0.0,0.189473684211
1449617334515825278,0.352,0.0,0.0,0.0,0.0,0.189473684211
1449617334555292375,0.352,0.0,0.0,0.0,0.0,0.231578947368
1449617334596990472,0.352,0.0,0.0,0.0,0.0,0.231578947368
1449617334635466648,0.352,0.0,0.0,0.0,0.0,0.231578947368
1449617334675793157,0.352,0.0,0.0,0.0,0.0,0.231578947368
1449617334715516201,0.352,0.0,0.0,0.0,0.0,0.231578947368
1449617334756933126,0.352,0.0,0.0,0.0,0.0,0.231578947368
1449617334804492963,0.352,0.0,0.0,0.0,0.0,0.231578947368
1449617334836948880,0.352,0.0,0.0,0.0,0.0,0.231578947368
1449617334876372496,0.352,0.0,0.0,0.0,0.0,0.231578947368
1449617334916066894,0.352,0.0,0.0,0.0,0.0,0.231578947368
1449617334956228690,0.352,0.0,0.0,0.0,0.0,0.231578947368
1449617334995819970,0.352,0.0,0.0,0.0,0.0,0.231578947368
1449617335035298706,0.352,0.0,0.0,0.0,0.0,0.231578947368
1449617335075503022,0.352,0.0,0.0,0.0,0.0,0.231578947368
1449617335118139844,0.352,0.0,0.0,0.0,0.0,0.231578947368
1449617335156147368,0.352,0.0,0.0,0.0,0.0,0.231578947368
1449617335195679974,0.352,0.0,0.0,0.0,0.0,0.231578947368
1449617335235707578,0.352,0.0,0.0,0.0,0.0,0.231578947368
1449617335275748403,0.352,0.0,0.0,0.0,0.0,0.231578947368
1449617335315456643,0.352,0.0,0.0,0.0,0.0,0.231578947368
1449617335356048924,0.352,0.0,0.0,0.0,0.0,0.231578947368
1449617335395799907,0.352,0.0,0.0,0.0,0.0,0.231578947368
1449617335435678581,0.352,0.0,0.0,0.0,0.0,0.231578947368
1449617335476992429,0.352,0.0,0.0,0.0,0.0,0.231578947368
1449617335516038917,0.352,0.0,0.0,0.0,0.0,0.231578947368
1449617335556960927,0.352,0.0,0.0,0.0,0.0,0.231578947368
1449617335595595911,0.352,0.0,0.0,0.0,0.0,0.231578947368
1449617335635448558,0.352,0.0,0.0,0.0,0.0,0.231578947368
1449617335675769815,0.352,0.0,0.0,0.0,0.0,0.231578947368
1449617335715934656,0.352,0.0,0.0,0.0,0.0,0.231578947368
1449617335755831518,0.352,0.0,0.0,0.0,0.0,0.231578947368
1449617335795370648,0.352,0.0,0.0,0.0,0.0,0.231578947368
1449617335835409642,0.352,0.0,0.0,0.0,0.0,0.189473684211
1449617335876715549,0.352,0.0,0.0,0.0,0.0,0.189473684211
1449617335915539194,0.352,0.0,0.0,0.0,0.0,0.189473684211
1449617335955995814,0.352,0.0,0.0,0.0,0.0,0.189473684211
1449617335996211060,0.352,0.0,0.0,0.0,0.0,0.189473684211
1449617336035734004,0.352,0.0,0.0,0.0,0.0,0.189473684211
1449617336076039892,0.352,0.0,0.0,0.0,0.0,0.189473684211
1449617336115534931,0.352,0.0,0.0,0.0,0.0,0.189473684211
1449617336156178876,0.352,0.0,0.0,0.0,0.0,0.189473684211
1449617336197989179,0.352,0.0,0.0,0.0,0.0,0.189473684211
1449617336237029115,0.352,0.0,0.0,0.0,0.0,0.189473684211
1449617336275339443,0.352,0.0,0.0,0.0,0.0,0.189473684211
1449617336321060120,0.352,0.0,0.0,0.0,0.0,0.189473684211
1449617336355637625,0.352,0.0,0.0,0.0,0.0,0.189473684211
1449617336395372450,0.352,0.0,0.0,0.0,0.0,0.189473684211
1449617336435686806,0.352,0.0,0.0,0.0,0.0,0.189473684211
1449617336475694586,0.352,0.0,0.0,0.0,0.0,0.189473684211
1449617336515697622,0.352,0.0,0.0,0.0,0.0,0.189473684211
1449617336555583237,0.352,0.0,0.0,0.0,0.0,0.189473684211
1449617336600333303,0.352,0.0,0.0,0.0,0.0,0.147368421053
1449617336635300716,0.352,0.0,0.0,0.0,0.0,0.189473684211
1449617336677705630,0.352,0.0,0.0,0.0,0.0,0.147368421053
1449617336715524702,0.352,0.0,0.0,0.0,0.0,0.147368421053
1449617336761831532,0.352,0.0,0.0,0.0,0.0,0.147368421053
1449617336795513124,0.352,0.0,0.0,0.0,0.0,0.147368421053
1449617336835324560,0.352,0.0,0.0,0.0,0.0,0.147368421053
1449617336878250433,0.352,0.0,0.0,0.0,0.0,0.147368421053
1449617336915746509,0.352,0.0,0.0,0.0,0.0,0.147368421053
1449617336955717650,0.352,0.0,0.0,0.0,0.0,0.147368421053
1449617336995644678,0.352,0.0,0.0,0.0,0.0,0.147368421053
1449617337035393645,0.352,0.0,0.0,0.0,0.0,0.147368421053
1449617337077330764,0.352,0.0,0.0,0.0,0.0,0.147368421053
1449617337115761216,0.352,0.0,0.0,0.0,0.0,0.147368421053
1449617337157026573,0.352,0.0,0.0,0.0,0.0,0.105263157895
1449617337195713083,0.352,0.0,0.0,0.0,0.0,0.105263157895
1449617337235448573,0.352,0.0,0.0,0.0,0.0,0.105263157895
1449617337276118148,0.348815295672,0.0,0.0,0.0,0.0,0.105263157895
1449617337315510482,0.348815295672,0.0,0.0,0.0,0.0,0.105263157895
1449617337356940675,0.342182962356,0.0,0.0,0.0,0.0,0.105263157895
1449617337395707370,0.334582883018,0.0,0.0,0.0,0.0,0.105263157895
1449617337435389151,0.329823226254,0.0,0.0,0.0,0.0,0.105263157895
1449617337475409954,0.329823226254,0.0,0.0,0.0,0.0,0.105263157895
1449617337515707219,0.326972117534,0.0,0.0,0.0,0.0,0.105263157895
1449617337556190504,0.318391388261,0.0,0.0,0.0,0.0,0.0631578947368
1449617337596722600,0.316483933936,0.0,0.0,0.0,0.0,0.0631578947368
1449617337638042238,0.316483933936,0.0,0.0,0.0,0.0,0.0631578947368
1449617337675787313,0.311710303526,0.0,0.0,0.0,0.0,0.0631578947368
1449617337716540541,0.311710303526,0.0,0.0,0.0,0.0,0.0631578947368
1449617337755961305,0.305025547948,0.0,0.0,0.0,0.0,0.0631578947368
1449617337795535735,0.300243943263,0.0,0.0,0.0,0.0,0.0631578947368
1449617337835440482,0.293544740391,0.0,0.0,0.0,0.0,0.0631578947368
1449617337875886182,0.290671687552,0.0,0.0,0.0,0.0,0.0631578947368
1449617337915531438,0.285880323886,0.0,0.0,0.0,0.0,0.0210526315789
1449617337959048747,0.285880323886,0.0,0.0,0.0,0.0,0.0210526315789
1449617337996050184,0.28300390874,0.0,0.0,0.0,0.0,0.0210526315789
1449617338035289989,0.28300390874,0.0,0.0,0.0,0.0,0.0210526315789
1449617338075548011,0.28300390874,0.0,0.0,0.0,0.0,0.0210526315789
1449617338115364483,0.275334013702,0.0,0.0,0.0,0.0,0.0210526315789
1449617338155805696,0.269576968712,0.0,0.0,0.0,0.0,0.0
1449617338201885411,0.262858766084,0.0,0.0,0.0,0.0,0.0210526315789
1449617338235408249,0.262858766084,0.0,0.0,0.0,0.0,0.0210526315789
1449617338275198768,0.259979074702,0.0,0.0,0.0,0.0,0.0
1449617338315489353,0.259979074702,0.0,0.0,0.0,0.0,0.0
1449617338355711850,0.253259742258,0.0,0.0,0.0,0.0,0.0
1449617338396352788,0.253259742258,0.0,0.0,0.0,0.0,0.0
1449617338436348489,0.0,0.0,0.0,0.0,0.0,-0.00634920671582
1449617338477406059,0.0,0.0,0.0,0.0,0.0,-0.00634920671582
1449617338515541553,0.244620914366,0.0,0.0,0.0,0.0,0.0
1449617338556026725,0.244620914366,0.0,0.0,0.0,0.0,0.0
1449617338596111251,0.241741921642,0.0,0.0,0.0,0.0,-0.0210526315789
1449617338636661459,0.0,0.0,0.0,0.0,0.0,0.0
1449617338675805398,0.0,0.0,0.0,0.0,0.0,0.0
1449617338715793492,0.0,0.0,0.0,0.0,0.0,0.0
1449617338755567694,0.0,0.0,0.0,0.0,0.0,0.0
1449617338796031091,0.0,0.0,0.0,0.0,0.0,0.0
1449617338835491881,0.0,0.0,0.0,0.0,0.0,0.0
1449617338875799636,0.0,0.0,0.0,0.0,0.0,0.0
1449617338915711483,0.0,0.0,0.0,0.0,0.0,0.0
1449617338957751954,0.0,0.0,0.0,0.0,0.0,0.0
1449617338995634877,0.0,0.0,0.0,0.0,0.0,0.0
1449617339035421626,0.0,0.0,0.0,0.0,0.0,0.0
1449617339075467690,0.0,0.0,0.0,0.0,0.0,0.0
1449617339117170684,0.0,0.0,0.0,0.0,0.0,0.0
1449617339155513188,0.0,0.0,0.0,0.0,0.0,0.0
1449617339198745962,0.0,0.0,0.0,0.0,0.0,0.0
1449617339235765131,0.0,0.0,0.0,0.0,0.0,0.0
1449617339275939669,0.0,0.0,0.0,0.0,0.0,0.0
1449617339316810331,-0.0,0.0,0.0,0.0,0.0,-0.0
1449617339356866052,-0.0,0.0,0.0,0.0,0.0,-0.0
1449617339397531411,0.0,0.0,0.0,0.0,0.0,0.0
1449617339436031432,0.0,0.0,0.0,0.0,0.0,0.0
1449617339475837498,0.0,0.0,0.0,0.0,0.0,0.0
1449617339518232965,0.0,0.0,0.0,0.0,0.0,0.0
1449617339555667707,0.0,0.0,0.0,0.0,0.0,0.0
1449617339595413285,0.0,0.0,0.0,0.0,0.0,0.0
1449617339635567474,0.0,0.0,0.0,0.0,0.0,0.0
1449617339675478271,0.0,0.0,0.0,0.0,0.0,0.0
1449617339723514805,0.0,0.0,0.0,0.0,0.0,0.0
1449617339757749074,0.0,0.0,0.0,0.0,0.0,0.0
1449617339798326125,0.0,0.0,0.0,0.0,0.0,0.0
1449617339835855909,0.0,0.0,0.0,0.0,0.0,0.0
1449617339876394847,0.0,0.0,0.0,0.0,0.0,0.0
1449617339915572638,0.0,0.0,0.0,0.0,0.0,0.0
1449617339955355035,0.0,0.0,0.0,0.0,0.0,0.0
1449617339996144431,0.0,0.0,0.0,0.0,0.0,0.0
1449617340035336791,0.0,0.0,0.0,0.0,0.0,0.0
1449617340075500972,0.0,0.0,0.0,0.0,0.0,0.0
1449617340121846947,0.0,0.0,0.0,0.0,0.0,0.0
1449617340155896251,0.0,0.0,0.0,0.0,0.0,0.0
1449617340196806160,0.0,0.0,0.0,0.0,0.0,0.0
1449617340235543113,0.0,0.0,0.0,0.0,0.0,0.0
1449617340275813657,0.0,0.0,0.0,0.0,0.0,0.0
1449617340315553901,0.0,0.0,0.0,0.0,0.0,0.0
1449617340355714940,0.0,0.0,0.0,0.0,0.0,0.0
1449617340396039483,0.0,0.0,0.0,0.0,0.0,0.0
1449617340436418502,0.0,0.0,0.0,0.0,0.0,0.0
1449617340478852357,0.0,0.0,0.0,0.0,0.0,0.0
1449617340519017118,0.0,0.0,0.0,0.0,0.0,0.0
1449617340555352838,0.0,0.0,0.0,0.0,0.0,0.0
1449617340597016153,0.0,0.0,0.0,0.0,0.0,0.0
1449617340635653937,0.0,0.0,0.0,0.0,0.0,0.0
1449617340675513349,0.0,0.0,0.0,0.0,0.0,0.0
1449617340715376656,0.0,0.0,0.0,0.0,0.0,0.0
1449617340756412884,0.0,0.0,0.0,0.0,0.0,0.0
1449617340795269927,0.0,0.0,0.0,0.0,0.0,0.0
1449617340837354623,0.0,0.0,0.0,0.0,0.0,0.0
1449617340877373287,0.0,0.0,0.0,0.0,0.0,0.0
1449617340915781031,0.0,0.0,0.0,0.0,0.0,0.0
1449617340956337761,0.0,0.0,0.0,0.0,0.0,0.0
1449617340995573598,0.0,0.0,0.0,0.0,0.0,0.0
1449617341036104477,0.0,0.0,0.0,0.0,0.0,0.0
1449617341076063319,0.0,0.0,0.0,0.0,0.0,0.0
1449617341115465887,0.0,0.0,0.0,0.0,0.0,0.0
1449617341155392969,0.0,0.0,0.0,0.0,0.0,0.0
1449617341196109244,0.0,0.0,0.0,0.0,0.0,0.0
1449617341235429579,0.0,0.0,0.0,0.0,0.0,0.0
1449617341275697692,0.0,0.0,0.0,0.0,0.0,0.0
1449617341315594437,0.0,0.0,0.0,0.0,0.0,0.0
1449617341355463173,0.0,0.0,0.0,0.0,0.0,0.0
1449617341398339664,0.0,0.0,0.0,0.0,0.0,0.0
1449617341435896030,0.0,0.0,0.0,0.0,0.0,0.0
1449617341481899499,0.0,0.0,0.0,0.0,0.0,0.0
1449617341515735110,0.0,0.0,0.0,0.0,0.0,0.0
1449617341557203754,0.0,0.0,0.0,0.0,0.0,0.0
1449617341598122370,0.0,0.0,0.0,0.0,0.0,0.0
1449617341635622233,0.0,0.0,0.0,0.0,0.0,0.0
1449617341676967046,0.0,0.0,0.0,0.0,0.0,0.0
1449617341715455282,0.0,0.0,0.0,0.0,0.0,0.0
1449617341756785341,0.0,0.0,0.0,0.0,0.0,0.0
1449617341795409472,0.0,0.0,0.0,0.0,0.0,0.0
1449617341835402140,0.0,0.0,0.0,0.0,0.0,0.0
1449617341875724991,0.0,0.0,0.0,0.0,0.0,0.0
1449617341917100641,0.0,0.0,0.0,0.0,0.0,0.0
1449617341956024144,0.0,0.0,0.0,0.0,0.0,0.0
1449617341995468239,0.0,0.0,0.0,0.0,0.0,0.0
1449617342038080822,0.0,0.0,0.0,0.0,0.0,0.0
1449617342077600494,0.0,0.0,0.0,0.0,0.0,0.0
1449617342115912849,0.0,0.0,0.0,0.0,0.0,0.0
1449617342155965822,0.0,0.0,0.0,0.0,0.0,0.0
1449617342195788089,0.0,0.0,0.0,0.0,0.0,0.0
1449617342235292111,0.0,0.0,0.0,0.0,0.0,0.0
1449617342275555541,0.0,0.0,0.0,0.0,0.0,0.0
1449617342315938313,0.0,0.0,0.0,0.0,0.0,0.0
1449617342355357957,0.0,0.0,0.0,0.0,0.0,0.0
1449617342397213451,0.0,0.0,0.0,0.0,0.0,0.0
1449617342437853387,0.0,0.0,0.0,0.0,0.0,0.0
1449617342476233729,0.0,0.0,0.0,0.0,0.0,0.0
1449617342515531241,0.0,0.0,0.0,0.0,0.0,0.0
1449617342555790333,0.0,0.0,0.0,0.0,0.0,0.0
1449617342595561181,0.0,0.0,0.0,0.0,0.0,0.0
1449617342635615344,0.0,0.0,0.0,0.0,0.0,0.0
1449617342675530458,0.0,0.0,0.0,0.0,0.0,0.0
1449617342715760563,0.0,0.0,0.0,0.0,0.0,0.0
1449617342755587786,0.0,0.0,0.0,0.0,0.0,0.0
1449617342797387836,0.0,0.0,0.0,0.0,0.0,0.0
1449617342835398783,0.0,0.0,0.0,0.0,0.0,0.0
1449617342883091049,0.0,0.0,0.0,0.0,0.0,0.0
1449617342915338963,0.0,0.0,0.0,0.0,0.0,0.0
1449617342955439436,0.0,0.0,0.0,0.0,0.0,0.0
1449617342998350711,0.0,0.0,0.0,0.0,0.0,0.0
1449617343035587583,0.0,0.0,0.0,0.0,0.0,0.0
1449617343075787742,0.0,0.0,0.0,0.0,0.0,0.0
1449617343115961029,0.0,0.0,0.0,0.0,0.0,0.0
1449617343155466541,0.0,0.0,0.0,0.0,0.0,0.0
1449617343196307187,0.0,0.0,0.0,0.0,0.0,0.0
1449617343235824008,0.0,0.0,0.0,0.0,0.0,0.0
1449617343275620326,0.0,0.0,0.0,0.0,0.0,0.0
1449617343319606938,0.0,0.0,0.0,0.0,0.0,0.0
1449617343356172692,0.0,0.0,0.0,0.0,0.0,0.0
1449617343395518994,0.0,0.0,0.0,0.0,0.0,0.0
1449617343435747049,0.0,0.0,0.0,0.0,0.0,0.0
1449617343475576839,0.0,0.0,0.0,0.0,0.0,0.0
1449617343522038321,0.0,0.0,0.0,0.0,0.0,0.0
1449617343557936519,0.0,0.0,0.0,0.0,0.0,0.0
1449617343597840171,0.0,0.0,0.0,0.0,0.0,0.0
1449617343638361343,0.0,0.0,0.0,0.0,0.0,0.0
1449617343677818467,0.0,0.0,0.0,0.0,0.0,0.0
1449617343718285803,0.0,0.0,0.0,0.0,0.0,0.0
1449617343756343879,0.0,0.0,0.0,0.0,0.0,0.0
1449617343795673761,0.0,0.0,0.0,0.0,0.0,0.0
1449617343836707065,0.0,0.0,0.0,0.0,0.0,0.0
1449617343878263419,0.0,0.0,0.0,0.0,0.0,0.0
1449617343915521822,0.0,0.0,0.0,0.0,0.0,0.0
1449617343955418982,0.0,0.0,0.0,0.0,0.0,0.0
1449617343995576796,0.0,0.0,0.0,0.0,0.0,0.0
1449617344035484351,0.0,0.0,0.0,0.0,0.0,0.0
1449617344075792631,0.0,0.0,0.0,0.0,0.0,0.0
1449617344119318503,0.0,0.0,0.0,0.0,0.0,0.0
1449617344155778977,0.0,0.0,0.0,0.0,0.0,0.0
1449617344195457285,0.0,0.0,0.0,0.0,0.0,0.0
1449617344235504416,0.0,0.0,0.0,0.0,0.0,0.0
1449617344275390059,0.0,0.0,0.0,0.0,0.0,0.0
1449617344315504167,0.0,0.0,0.0,0.0,0.0,0.0
1449617344355362140,0.0,0.0,0.0,0.0,0.0,0.0
1449617344397300092,0.0,0.0,0.0,0.0,0.0,0.0
1449617344435370333,0.0,0.0,0.0,0.0,0.0,0.0
1449617344475492153,0.0,0.0,0.0,0.0,0.0,0.0
1449617344515762784,0.0,0.0,0.0,0.0,0.0,0.0
1449617344556872247,0.0,0.0,0.0,0.0,0.0,0.0
1449617344595326466,0.0,0.0,0.0,0.0,0.0,0.0
1449617344635444884,0.0,0.0,0.0,0.0,0.0,0.0
1449617344675759391,0.0,0.0,0.0,0.0,0.0,0.0
1449617344715721963,0.0,0.0,0.0,0.0,0.0,0.0
1449617344755357101,0.0,0.0,0.0,0.0,0.0,0.0
1449617344799003224,0.0,0.0,0.0,0.0,0.0,0.0
1449617344836301320,0.0,0.0,0.0,0.0,0.0,0.0
1449617344875858866,0.0,0.0,0.0,0.0,0.0,0.0
1449617344916024190,0.0,0.0,0.0,0.0,0.0,0.0
1449617344955433163,0.0,0.0,0.0,0.0,0.0,0.0
1449617344995345164,0.0,0.0,0.0,0.0,0.0,0.0
1449617345035467475,0.0,0.0,0.0,0.0,0.0,0.0
1449617345077622243,0.0,0.0,0.0,0.0,0.0,0.0
1449617345116813425,0.0,0.0,0.0,0.0,0.0,0.0
1449617345155496823,0.0,0.0,0.0,0.0,0.0,0.0
1449617345195799702,0.0,0.0,0.0,0.0,0.0,0.0
1449617345235675454,0.0,0.0,0.0,0.0,0.0,0.0
1449617345275837121,0.0,0.0,0.0,0.0,0.0,0.0
1449617345315293713,0.0,0.0,0.0,0.0,0.0,0.0
1449617345355928562,0.0,0.0,0.0,0.0,0.0,0.0
1449617345396334392,0.0,0.0,0.0,0.0,0.0,0.0
1449617345435989700,0.0,0.0,0.0,0.0,0.0,0.0
1449617345475978425,0.0,0.0,0.0,0.0,0.0,0.0
1449617345515459718,0.0,0.0,0.0,0.0,0.0,0.0
1449617345555843599,0.0,0.0,0.0,0.0,0.0,0.0
1449617345595679657,0.0,0.0,0.0,0.0,0.0,0.0
1449617345635481093,0.0,0.0,0.0,0.0,0.0,0.0
1449617345676509601,0.0,0.0,0.0,0.0,0.0,0.0
1449617345716447066,0.0,0.0,0.0,0.0,0.0,0.0
1449617345755955422,0.0,0.0,0.0,0.0,0.0,0.0
1449617345795837971,0.0,0.0,0.0,0.0,0.0,0.0
1449617345836621738,0.0,0.0,0.0,0.0,0.0,0.0
1449617345875991337,0.0,0.0,0.0,0.0,0.0,0.0
1449617345915674176,0.0,0.0,0.0,0.0,0.0,0.0
1449617345955335799,0.0,0.0,0.0,0.0,0.0,0.0
1449617345996082634,0.0,0.0,0.0,0.0,0.0,0.0
1449617346036892712,0.0,0.0,0.0,0.0,0.0,0.0
1449617346075815609,0.0,0.0,0.0,0.0,0.0,0.0
1449617346115276249,0.0,0.0,0.0,0.0,0.0,0.0
1449617346156051289,0.0,0.0,0.0,0.0,0.0,0.0
1449617346195239663,0.0,0.0,0.0,0.0,0.0,0.0
1449617346235355694,0.0,0.0,0.0,0.0,0.0,0.0
1449617346276427589,0.0,0.0,0.0,0.0,0.0,0.0
1449617346315905218,0.0,0.0,0.0,0.0,0.0,0.0
1449617346356927372,0.0,0.0,0.0,0.0,0.0,0.0
1449617346395213470,0.0,0.0,0.0,0.0,0.0,0.0
1449617346435794882,0.0,0.0,0.0,0.0,0.0,0.0
1449617346476284021,0.0,0.0,0.0,0.0,0.0,0.0
1449617346517250581,0.0,0.0,0.0,0.0,0.0,0.0
1449617346555761424,0.0,0.0,0.0,0.0,0.0,0.0
1449617346596226133,0.0,0.0,0.0,0.0,0.0,0.0
1449617346640062151,0.0,0.0,0.0,0.0,0.0,0.0
1449617346676854027,0.0,0.0,0.0,0.0,0.0,0.0
1449617346716841142,0.0,0.0,0.0,0.0,0.0,0.0
1449617346755375801,0.0,0.0,0.0,0.0,0.0,0.0
1449617346798912686,0.0,0.0,0.0,0.0,0.0,0.0
1449617346837995593,0.0,0.0,0.0,0.0,0.0,0.0
1449617346875454770,0.0,0.0,0.0,0.0,0.0,0.0
1449617346915388282,0.0,0.0,0.0,0.0,0.0,0.0
1449617346962704757,0.0,0.0,0.0,0.0,0.0,0.0
1449617346996953308,0.0,0.0,0.0,0.0,0.0,0.0
1449617347035813023,0.0,0.0,0.0,0.0,0.0,0.0
1449617347076691267,0.0,0.0,0.0,0.0,0.0,0.0
1449617347115439697,0.0,0.0,0.0,0.0,0.0,0.0
1449617347157175944,0.0,0.0,0.0,0.0,0.0,0.0
1449617347195355024,0.0,0.0,0.0,0.0,0.0,0.0
1449617347236826455,0.0,0.0,0.0,0.0,0.0,0.0
1449617347276717612,0.0,0.0,0.0,0.0,0.0,0.0
1449617347315266087,0.0,0.0,0.0,0.0,0.0,0.0
1449617347359040211,0.0,0.0,0.0,0.0,0.0,0.0
1449617347396377612,0.0,0.0,0.0,0.0,0.0,0.0
1449617347442136278,0.0,0.0,0.0,0.0,0.0,0.0
1449617347475247782,0.0,0.0,0.0,0.0,0.0,0.0
1449617347515613956,0.0,0.0,0.0,0.0,0.0,0.0
1449617347555788655,0.0,0.0,0.0,0.0,0.0,0.0
1449617347595747413,0.0,0.0,0.0,0.0,0.0,0.0
1449617347640790312,0.0,0.0,0.0,0.0,0.0,0.0
1449617347675551992,0.0,0.0,0.0,0.0,0.0,0.0
1449617347717766542,0.0,0.0,0.0,0.0,0.0,0.0
1449617347755447174,0.0,0.0,0.0,0.0,0.0,0.0
1449617347796727531,0.0,0.0,0.0,0.0,0.0,0.0
1449617347840532736,0.0,0.0,0.0,0.0,0.0,0.0
1449617347876171520,0.0,0.0,0.0,0.0,0.0,0.0
1449617347918113590,0.0,0.0,0.0,0.0,0.0,0.0
1449617347955640253,0.0,0.0,0.0,0.0,0.0,0.0
1449617347995541423,0.0,0.0,0.0,0.0,0.0,0.0
1449617348035416915,0.0,0.0,0.0,0.0,0.0,0.0
1449617348076288715,0.0,0.0,0.0,0.0,0.0,0.0
1449617348117160981,0.0,0.0,0.0,0.0,0.0,0.0
1449617348155623978,0.0,0.0,0.0,0.0,0.0,0.0
1449617348195641538,0.0,0.0,0.0,0.0,0.0,0.0
1449617348241916047,0.0,0.0,0.0,0.0,0.0,0.0
1449617348275864664,0.0,0.0,0.0,0.0,0.0,0.0
1449617348316345459,0.0,0.0,0.0,0.0,0.0,0.0
1449617348355453950,0.0,0.0,0.0,0.0,0.0,0.0
1449617348395903543,0.0,0.0,0.0,0.0,0.0,0.0
1449617348437878797,0.0,0.0,0.0,0.0,0.0,0.0
1449617348475760101,0.0,0.0,0.0,0.0,0.0,0.0
1449617348515635657,0.0,0.0,0.0,0.0,0.0,0.0
1449617348555519161,0.0,0.0,0.0,0.0,0.0,0.0
1449617348595383368,0.0,0.0,0.0,0.0,0.0,0.0
1449617348635467852,0.0,0.0,0.0,0.0,0.0,0.0
1449617348675824384,0.0,0.0,0.0,0.0,0.0,0.0
1449617348715594148,0.0,0.0,0.0,0.0,0.0,0.0
1449617348755601297,0.0,0.0,0.0,0.0,0.0,0.0
1449617348796031223,0.0,0.0,0.0,0.0,0.0,0.0
1449617348839322125,0.0,0.0,0.0,0.0,0.0,0.0
1449617348876190499,0.0,0.0,0.0,0.0,0.0,0.0
1449617348915662766,0.0,0.0,0.0,0.0,0.0,0.0
1449617348955683454,0.0,0.0,0.0,0.0,0.0,0.0
1449617348996493948,0.0,0.0,0.0,0.0,0.0,0.0
1449617349036028328,0.0,0.0,0.0,0.0,0.0,0.0
1449617349075329834,0.0,0.0,0.0,0.0,0.0,0.0
1449617349115653442,0.0,0.0,0.0,0.0,0.0,0.0
1449617349156172139,0.0,0.0,0.0,0.0,0.0,0.0
1449617349195320307,0.0,0.0,0.0,0.0,0.0,0.0
1449617349235572138,0.0,0.0,0.0,0.0,0.0,0.0
1449617349276898349,0.0,0.0,0.0,0.0,0.0,0.0
1449617349325827811,0.0,0.0,0.0,0.0,0.0,0.0
1449617349357202813,0.0,0.0,0.0,0.0,0.0,0.0
1449617349395603161,0.0,0.0,0.0,0.0,0.0,0.0
1449617349436045447,0.0,0.0,0.0,0.0,0.0,0.0
1449617349475473981,0.0,0.0,0.0,0.0,0.0,0.0
1449617349517310272,0.0,0.0,0.0,0.0,0.0,-0.0365079373121
1449617349560816190,0.0,0.0,0.0,0.0,0.0,-0.0365079373121
1449617349595433812,0.0,0.0,0.0,0.0,0.0,-0.0365079373121
1449617349635634549,0.0,0.0,0.0,0.0,0.0,-0.0365079373121
1449617349676360505,0.0,0.0,0.0,0.0,0.0,-0.0365079373121
1449617349716535112,0.0,0.0,0.0,0.0,0.0,-0.0365079373121
1449617349755846137,0.0,0.0,0.0,0.0,0.0,-0.047619047761
1449617349795463156,0.0,0.0,0.0,0.0,0.0,-0.0380952388048
1449617349835297428,0.0,0.0,0.0,0.0,0.0,-0.0380952388048
1449617349877003354,0.0,0.0,0.0,0.0,0.0,-0.0253968268633
1449617349925715496,0.0,0.0,0.0,0.0,0.0,-0.0253968268633
1449617349957939357,0.0,0.0,0.0,0.0,0.0,-0.0253968268633
1449617349995630076,0.0,0.0,0.0,0.0,0.0,-0.0253968268633
1449617350035742898,0.0,0.0,0.0,0.0,0.0,-0.0253968268633
1449617350075586049,0.0,0.0,0.0,0.0,0.0,-0.0253968268633
1449617350115441764,0.0,0.0,0.0,0.0,0.0,-0.0317460328341
1449617350155800141,0.0,0.0,0.0,0.0,0.0,-0.0317460328341
1449617350196336927,0.0,0.0,0.0,0.0,0.0,-0.0317460328341
1449617350235668388,0.0,0.0,0.0,0.0,0.0,-0.0317460328341
1449617350275410216,0.0,0.0,0.0,0.0,0.0,-0.0253968268633
1449617350316450420,0.0,0.0,0.0,0.0,0.0,-0.0253968268633
1449617350355392848,0.0,0.0,0.0,0.0,0.0,-0.0253968268633
1449617350399523401,0.0,0.0,0.0,0.0,0.0,-0.0253968268633
1449617350435839412,0.0,0.0,0.0,0.0,0.0,-0.0190476194024
1449617350478007081,0.0,0.0,0.0,0.0,0.0,-0.0190476194024
1449617350516527350,0.0,0.0,0.0,0.0,0.0,-0.0190476194024
1449617350555399602,0.0,0.0,0.0,0.0,0.0,-0.0190476194024
1449617350595692517,0.0,0.0,0.0,0.0,0.0,-0.0190476194024
1449617350635574375,0.0,0.0,0.0,0.0,0.0,-0.0365079373121
1449617350678045119,0.0,0.0,0.0,0.0,0.0,-0.0365079373121
1449617350715860715,0.0,0.0,0.0,0.0,0.0,-0.0365079373121
1449617350755539122,0.0,0.0,0.0,0.0,0.0,0.0
1449617350795399355,0.0,0.0,0.0,0.0,0.0,0.0
1449617350841347270,0.0,0.0,0.0,0.0,0.0,0.0
1449617350876915511,0.0,0.0,0.0,0.0,0.0,0.0
1449617350916948552,0.0,0.0,0.0,0.0,0.0,0.0
1449617350955569832,0.0,0.0,0.0,0.0,0.0,0.0
1449617350995446884,0.0,0.0,0.0,0.0,0.0,0.0
1449617351036021811,0.0,0.0,0.0,0.0,0.0,0.0
1449617351075314498,0.0,0.0,0.0,0.0,0.0,0.0
1449617351116592959,0.0,0.0,0.0,0.0,0.0,0.0
1449617351155478339,0.0,0.0,0.0,0.0,0.0,0.0
1449617351195242552,0.0,0.0,0.0,0.0,0.0,0.0
1449617351235453239,0.0,0.0,0.0,0.0,0.0,0.0
1449617351275784479,0.0,0.0,0.0,0.0,0.0,0.0
1449617351317308814,0.0,0.0,0.0,0.0,0.0,0.0
1449617351356215368,0.0,0.0,0.0,0.0,0.0,0.0
1449617351395265122,0.0,0.0,0.0,0.0,0.0,0.0
1449617351435468652,0.0,0.0,0.0,0.0,0.0,0.0
1449617351475690814,0.0,0.0,0.0,0.0,0.0,0.0
1449617351515511290,0.0,0.0,0.0,0.0,0.0,0.0
1449617351555843089,0.0,0.0,0.0,0.0,0.0,0.0
1449617351596236359,0.0,0.0,0.0,0.0,0.0,0.0
1449617351635635904,0.0,0.0,0.0,0.0,0.0,0.0
1449617351675591796,0.0,0.0,0.0,0.0,0.0,0.0
1449617351715678350,0.0,0.0,0.0,0.0,0.0,0.0
1449617351758484444,0.0,0.0,0.0,0.0,0.0,0.0
1449617351796769640,0.0,0.0,0.0,0.0,0.0,0.0
1449617351835508109,0.0,0.0,0.0,0.0,0.0,0.0
1449617351877552035,0.0,0.0,0.0,0.0,0.0,0.0
1449617351915583037,0.0,0.0,0.0,0.0,0.0,0.0
1449617351956431818,0.0,0.0,0.0,0.0,0.0,0.0
1449617351995457095,0.0,0.0,0.0,0.0,0.0,0.0
1449617352038057983,0.0,0.0,0.0,0.0,0.0,0.0
1449617352075601056,0.0,0.0,0.0,0.0,0.0,0.0
1449617352116330725,0.0,0.0,0.0,0.0,0.0,0.0
1449617352157187221,0.0,0.0,0.0,0.0,0.0,0.0
1449617352195984185,0.0,0.0,0.0,0.0,0.0,0.0
1449617352236307603,0.0,0.0,0.0,0.0,0.0,0.0
1449617352276869759,0.0,0.0,0.0,0.0,0.0,0.0
1449617352315999384,0.0,0.0,0.0,0.0,0.0,0.0
1449617352355980567,0.0,0.0,0.0,0.0,0.0,0.0
1449617352396723051,0.0,0.0,0.0,0.0,0.0,0.0
1449617352435417203,0.0,0.0,0.0,0.0,0.0,0.0
1449617352476298222,0.0,0.0,0.0,0.0,0.0,0.0
1449617352524845250,0.0,0.0,0.0,0.0,0.0,0.0
1449617352555537171,0.0,0.0,0.0,0.0,0.0,0.0
1449617352596009826,0.0,0.0,0.0,0.0,0.0,0.0
1449617352635833322,0.0,0.0,0.0,0.0,0.0,0.0
1449617352675753193,0.0,0.0,0.0,0.0,0.0,0.0
1449617352715648734,0.0,0.0,0.0,0.0,0.0,0.0
1449617352760663367,0.0,0.0,0.0,0.0,0.0,0.0
1449617352795299246,0.0,0.0,0.0,0.0,0.0,0.0
1449617352835495044,0.0,0.0,0.0,0.0,0.0,0.0
1449617352876069825,0.0,0.0,0.0,0.0,0.0,0.0
1449617352915718508,0.0,0.0,0.0,0.0,0.0,0.0
1449617352955825890,0.0,0.0,0.0,0.0,0.0,0.0
1449617352996625607,0.0,0.0,0.0,0.0,0.0,0.0
1449617353036243093,0.0,0.0,0.0,0.0,0.0,0.0
1449617353078542362,0.0,0.0,0.0,0.0,0.0,0.0
1449617353115971644,0.0,0.0,0.0,0.0,0.0,0.0
1449617353156364555,0.0,0.0,0.0,0.0,0.0,0.0
1449617353196073908,0.0,0.0,0.0,0.0,0.0,0.0
1449617353236327078,0.0,0.0,0.0,0.0,0.0,0.0
1449617353275613379,0.0,0.0,0.0,0.0,0.0,0.0
1449617353315446425,0.0,0.0,0.0,0.0,0.0,0.0
1449617353357528524,0.0,0.0,0.0,0.0,0.0,0.0
1449617353395541592,0.0,0.0,0.0,0.0,0.0,0.0
1449617353435597076,0.0,0.0,0.0,0.0,0.0,0.0
1449617353475923324,0.0,0.0,0.0,0.0,0.0,0.0
1449617353516188674,0.0,0.0,0.0,0.0,0.0,0.0
1449617353555529286,0.0,0.0,0.0,0.0,0.0,0.0
1449617353596329882,0.0,0.0,0.0,0.0,0.0,0.0
1449617353637577366,0.0,0.0,0.0,0.0,0.0,0.0
1449617353675846629,0.0,0.0,0.0,0.0,0.0,0.0
1449617353715383475,0.0,0.0,0.0,0.0,0.0,0.0
1449617353755199974,0.0,0.0,0.0,0.0,0.0,0.0
1449617353795614810,0.0,0.0,0.0,0.0,0.0,0.0
1449617353836415579,0.0,0.0,0.0,0.0,0.0,0.0
1449617353876628931,0.0,0.0,0.0,0.0,0.0,0.0
1449617353916476575,0.0,0.0,0.0,0.0,0.0,0.0
1449617353958871456,0.0,0.0,0.0,0.0,0.0,0.0
1449617354001912134,0.0,0.0,0.0,0.0,0.0,0.0
1449617354036486587,0.0,0.0,0.0,0.0,0.0,0.0
1449617354077984130,0.0,0.0,0.0,0.0,0.0,0.0
1449617354119830703,0.0,0.0,0.0,0.0,0.0,0.0
1449617354157210814,0.0,0.0,0.0,0.0,0.0,0.0
1449617354195758007,0.0,0.0,0.0,0.0,0.0,0.0
1449617354235672603,0.0,0.0,0.0,0.0,0.0,0.0
1449617354276393555,0.0,0.0,0.0,0.0,0.0,0.0
1449617354315326006,0.0,0.0,0.0,0.0,0.0,0.0
1449617354356248287,0.0,0.0,0.0,0.0,0.0,0.0
1449617354395360219,0.0,0.0,0.0,0.0,0.0,0.0
1449617354435565545,0.0,0.0,0.0,0.0,0.0,0.0
1449617354475588713,0.0,0.0,0.0,0.0,0.0,0.0
1449617354515658375,0.0,0.0,0.0,0.0,0.0,0.0
1449617354555744410,0.0,0.0,0.0,0.0,0.0,0.0
1449617354595670376,0.0,0.0,0.0,0.0,0.0,0.0
1449617354641803409,0.0,0.0,0.0,0.0,0.0,0.0
1449617354675842889,0.0,0.0,0.0,0.0,0.0,0.0
1449617354715786881,0.0,0.0,0.0,0.0,0.0,0.0
1449617354755365135,0.0,0.0,0.0,0.0,0.0,0.0
1449617354797045263,0.0,0.0,0.0,0.0,0.0,0.0
1449617354835489063,0.0,0.0,0.0,0.0,0.0,0.0
1449617354876642401,0.0,0.0,0.0,0.0,0.0,0.0
1449617354915404036,0.0,0.0,0.0,0.0,0.0,0.0
1449617354955641040,0.0,0.0,0.0,0.0,0.0,0.0
1449617354996132280,0.0,0.0,0.0,0.0,0.0,0.0
1449617355041655335,0.0,0.0,0.0,0.0,0.0,0.0
1449617355078727167,0.0,0.0,0.0,0.0,0.0,0.0
1449617355115418205,0.0,0.0,0.0,0.0,0.0,0.0
1449617355155960196,0.0,0.0,0.0,0.0,0.0,0.0
1449617355197957768,0.0,0.0,0.0,0.0,0.0,0.0
1449617355249048161,0.0,0.0,0.0,0.0,0.0,0.0
1449617355275299031,0.0,0.0,0.0,0.0,0.0,0.0
1449617355316006774,0.0,0.0,0.0,0.0,0.0,0.0
1449617355355526111,0.0,0.0,0.0,0.0,0.0,0.0
1449617355395273054,0.0,0.0,0.0,0.0,0.0,0.0
1449617355435659251,0.0,0.0,0.0,0.0,0.0,0.0
1449617355477932706,0.0,0.0,0.0,0.0,0.0,0.0
1449617355515244276,0.0,0.0,0.0,0.0,0.0,0.0
1449617355567743082,0.0,0.0,0.0,0.0,0.0,0.0
1449617355595383511,0.0,0.0,0.0,0.0,0.0,0.0
1449617355635476294,0.0,0.0,0.0,0.0,0.0,0.0
1449617355675599605,0.0,0.0,0.0,0.0,0.0,0.0
1449617355715573193,0.0,0.0,0.0,0.0,0.0,0.0
1449617355755554120,0.0,0.0,0.0,0.0,0.0,0.0
1449617355795561649,0.0,0.0,0.0,0.0,0.0,0.0
1449617355835470837,0.0,0.0,0.0,0.0,0.0,0.0
1449617355879572580,0.0,0.0,0.0,0.0,0.0,0.0
1449617355916665108,0.0,0.0,0.0,0.0,0.0,0.0
1449617355956652298,0.0,0.0,0.0,0.0,0.0,0.0
1449617355995773829,0.0,0.0,0.0,0.0,0.0,0.0
1449617356040469568,0.0,0.0,0.0,0.0,0.0,0.0
1449617356075443597,0.0,0.0,0.0,0.0,0.0,0.0
1449617356115835491,0.0,0.0,0.0,0.0,0.0,0.0
1449617356155785593,0.0,0.0,0.0,0.0,0.0,0.0
1449617356195495435,0.0,0.0,0.0,0.0,0.0,0.0
1449617356236116040,0.0,0.0,0.0,0.0,0.0,0.0
1449617356275402029,0.0,0.0,0.0,0.0,0.0,0.0
1449617356315766880,0.0,0.0,0.0,0.0,0.0,0.0
1449617356356067100,0.0,0.0,0.0,0.0,0.0,0.0
1449617356395891884,0.0,0.0,0.0,0.0,0.0,0.0
1449617356435458088,0.0,0.0,0.0,0.0,0.0,0.0
1449617356475622790,0.0,0.0,0.0,0.0,0.0,0.0
1449617356519332912,0.0,0.0,0.0,0.0,0.0,0.0
1449617356557002192,0.0,0.0,0.0,0.0,0.0,0.0
1449617356596199122,0.0,0.0,0.0,0.0,0.0,0.0
1449617356635277041,0.0,0.0,0.0,0.0,0.0,0.0
1449617356677337501,0.0,0.0,0.0,0.0,0.0,0.0
1449617356717387578,0.0,0.0,0.0,0.0,0.0,0.0
1449617356758735722,0.0307301595211,0.0,0.0,0.0,0.0,-0.0206349208951
1449617356795582244,0.0307301595211,0.0,0.0,0.0,0.0,-0.0206349208951
1449617356835946785,0.290539686203,0.0,0.0,0.0,0.0,-0.0317460328341
1449617356878742647,0.335238096237,0.0,0.0,0.0,0.0,-0.0571428596973
1449617356917518882,0.335238096237,0.0,0.0,0.0,0.0,-0.0571428596973
1449617356956514559,0.335238096237,0.0,0.0,0.0,0.0,-0.0571428596973
1449617356995662309,0.340825397491,0.0,0.0,0.0,0.0,-0.0571428596973
1449617357035391998,0.340825397491,0.0,0.0,0.0,0.0,-0.0571428596973
1449617357075318391,0.340825397491,0.0,0.0,0.0,0.0,-0.0571428596973
1449617357118506476,0.340825397491,0.0,0.0,0.0,0.0,-0.0571428596973
1449617357155343203,0.340825397491,0.0,0.0,0.0,0.0,-0.0571428596973
1449617357195501212,0.335238096237,0.0,0.0,0.0,0.0,-0.0761904776096
1449617357235698336,0.335238096237,0.0,0.0,0.0,0.0,-0.0761904776096
1449617357275513620,0.335238096237,0.0,0.0,0.0,0.0,-0.0761904776096
1449617357315299786,0.329650794983,0.0,0.0,0.0,0.0,-0.126984131336
1449617357355882630,0.329650794983,0.0,0.0,0.0,0.0,-0.126984131336
1449617357395660688,0.329650794983,0.0,0.0,0.0,0.0,-0.126984131336
1449617357435426772,0.329650794983,0.0,0.0,0.0,0.0,-0.126984131336
1449617357479452065,0.329650794983,0.0,0.0,0.0,0.0,-0.126984131336
1449617357515438751,0.12,0.0,0.0,0.0,0.0,-0.147368421053
1449617357555627127,0.12,0.0,0.0,0.0,0.0,-0.147368421053
1449617357595306080,0.247280678768,0.0,0.0,0.0,0.0,-0.231578947368
1449617357635524787,0.247280678768,0.0,0.0,0.0,0.0,-0.231578947368
1449617357675623639,0.247280678768,0.0,0.0,0.0,0.0,-0.231578947368
1449617357715810319,0.24637310475,0.0,0.0,0.0,0.0,-0.231578947368
1449617357756517674,0.245469187219,0.0,0.0,0.0,0.0,-0.189473684211
1449617357796010445,0.245469187219,0.0,0.0,0.0,0.0,-0.189473684211
1449617357838674108,0.245469187219,0.0,0.0,0.0,0.0,-0.189473684211
1449617357875651005,0.245469187219,0.0,0.0,0.0,0.0,-0.189473684211
1449617357916940929,-0.0,0.0,0.0,0.0,0.0,-0.0
1449617357955751670,0.241851218773,0.0,0.0,0.0,0.0,-0.231578947368
1449617357995385251,0.241851218773,0.0,0.0,0.0,0.0,-0.231578947368
1449617358036822100,0.241851218773,0.0,0.0,0.0,0.0,-0.231578947368
1449617358076152951,0.241851218773,0.0,0.0,0.0,0.0,-0.231578947368
1449617358115939657,0.241851218773,0.0,0.0,0.0,0.0,-0.231578947368
1449617358155531622,0.239137110947,0.0,0.0,0.0,0.0,-0.231578947368
1449617358197144452,0.239137110947,0.0,0.0,0.0,0.0,-0.231578947368
1449617358236043006,0.239137110947,0.0,0.0,0.0,0.0,-0.231578947368
1449617358275639599,0.243126430515,0.0,0.0,0.0,0.0,-0.189473684211
1449617358318491088,0.241461997481,0.0,0.0,0.0,0.0,-0.189473684211
1449617358355663051,0.241461997481,0.0,0.0,0.0,0.0,-0.189473684211
1449617358396714575,0.239796236639,0.0,0.0,0.0,0.0,-0.231578947368
1449617358436713978,0.239796236639,0.0,0.0,0.0,0.0,-0.231578947368
1449617358475408302,0.238134380405,0.0,0.0,0.0,0.0,-0.231578947368
1449617358515327242,0.238134380405,0.0,0.0,0.0,0.0,-0.231578947368
1449617358559684255,0.233981477556,0.0,0.0,0.0,0.0,-0.189473684211
1449617358595611831,0.23232312231,0.0,0.0,0.0,0.0,-0.231578947368
1449617358636214182,0.23232312231,0.0,0.0,0.0,0.0,-0.231578947368
1449617358676688940,0.23232312231,0.0,0.0,0.0,0.0,-0.231578947368
1449617358715915327,0.228169403166,0.0,0.0,0.0,0.0,-0.189473684211
1449617358756328300,0.228169403166,0.0,0.0,0.0,0.0,-0.189473684211
1449617358796367978,0.12,0.0,0.0,0.0,0.0,-0.105263157895
1449617358836390838,0.12,0.0,0.0,0.0,0.0,-0.105263157895
1449617358875845904,0.12,0.0,0.0,0.0,0.0,-0.105263157895
1449617358915667993,0.12,0.0,0.0,0.0,0.0,-0.105263157895
1449617358955463168,0.12,0.0,0.0,0.0,0.0,-0.105263157895
1449617358995361762,0.12,0.0,0.0,0.0,0.0,-0.105263157895
1449617359035917937,0.12,0.0,0.0,0.0,0.0,-0.0631578947368
1449617359076003591,0.12,0.0,0.0,0.0,0.0,-0.0631578947368
1449617359115393713,0.0,0.0,0.0,0.0,0.0,0.31
1449617359155423164,0.00139682547748,0.0,0.0,0.0,0.0,0.146785713434
1449617359196587855,0.00139682547748,0.0,0.0,0.0,0.0,0.135674602985
1449617359235556780,0.00139682547748,0.0,0.0,0.0,0.0,0.135674602985
1449617359275490285,0.00139682547748,0.0,0.0,0.0,0.0,0.135674602985
1449617359316045738,0.00139682547748,0.0,0.0,0.0,0.0,0.140436507463
1449617359356367523,0.00139682547748,0.0,0.0,0.0,0.0,0.140436507463
1449617359396244557,0.00279365095496,0.0,0.0,0.0,0.0,0.135674602985
1449617359435168374,0.00279365095496,0.0,0.0,0.0,0.0,0.135674602985
1449617359476260414,0.00279365095496,0.0,0.0,0.0,0.0,0.135674602985
1449617359516080504,0.00139682547748,0.0,0.0,0.0,0.0,0.134087301493
1449617359555374396,0.00139682547748,0.0,0.0,0.0,0.0,0.134087301493
1449617359598035814,0.00139682547748,0.0,0.0,0.0,0.0,0.135674602985
1449617359635544472,0.00139682547748,0.0,0.0,0.0,0.0,0.135674602985
1449617359676308337,0.00139682547748,0.0,0.0,0.0,0.0,0.135674602985
1449617359715508116,0.00279365095496,0.0,0.0,0.0,0.0,0.134087301493
1449617359757419177,0.00279365095496,0.0,0.0,0.0,0.0,0.134087301493
1449617359795794913,0.00139682547748,0.0,0.0,0.0,0.0,0.134087301493
1449617359835483694,0.00139682547748,0.0,0.0,0.0,0.0,0.134087301493
1449617359876428193,0.00279365095496,0.0,0.0,0.0,0.0,0.134087301493
1449617359915817880,0.00279365095496,0.0,0.0,0.0,0.0,0.134087301493
1449617359955654102,0.00279365095496,0.0,0.0,0.0,0.0,0.134087301493
1449617359995588122,0.00279365095496,0.0,0.0,0.0,0.0,0.134087301493
1449617360035969216,0.00139682547748,0.0,0.0,0.0,0.0,0.134087301493
1449617360076229943,0.00139682547748,0.0,0.0,0.0,0.0,0.134087301493
1449617360115294534,0.00139682547748,0.0,0.0,0.0,0.0,0.134087301493
1449617360155859257,0.00139682547748,0.0,0.0,0.0,0.0,0.134087301493
1449617360195671726,0.00139682547748,0.0,0.0,0.0,0.0,0.134087301493
1449617360236048722,0.00279365095496,0.0,0.0,0.0,0.0,0.135674602985
1449617360275812687,0.00279365095496,0.0,0.0,0.0,0.0,0.135674602985
1449617360325612572,0.00139682547748,0.0,0.0,0.0,0.0,0.143611110449
1449617360355756972,0.00139682547748,0.0,0.0,0.0,0.0,0.143611110449
1449617360395674567,0.00279365095496,0.0,0.0,0.0,0.0,0.134087301493
1449617360435525270,0.00279365095496,0.0,0.0,0.0,0.0,0.134087301493
1449617360475661714,0.00279365095496,0.0,0.0,0.0,0.0,0.134087301493
1449617360515648790,0.00139682547748,0.0,0.0,0.0,0.0,0.134087301493
1449617360555422913,0.00139682547748,0.0,0.0,0.0,0.0,0.134087301493
1449617360595504236,0.00139682547748,0.0,0.0,0.0,0.0,0.134087301493
1449617360636665154,0.00139682547748,0.0,0.0,0.0,0.0,0.134087301493
1449617360677896026,0.00139682547748,0.0,0.0,0.0,0.0,0.134087301493
1449617360715494646,0.00279365095496,0.0,0.0,0.0,0.0,0.134087301493
1449617360755611170,0.00279365095496,0.0,0.0,0.0,0.0,0.134087301493
1449617360795898794,0.00419047626853,0.0,0.0,0.0,0.0,0.135674602985
1449617360836021062,0.00419047626853,0.0,0.0,0.0,0.0,0.135674602985
1449617360875521469,0.148063493729,0.0,0.0,0.0,0.0,-0.0132539701462
1449617360915459846,0.148063493729,0.0,0.0,0.0,0.0,-0.0132539701462
1449617360955550746,0.148063493729,0.0,0.0,0.0,0.0,-0.0132539701462
1449617360995312499,0.148063493729,0.0,0.0,0.0,0.0,-0.0132539701462
1449617361035526531,0.150857144356,0.0,0.0,0.0,0.0,-0.0132539701462
1449617361076637113,0.150857144356,0.0,0.0,0.0,0.0,-0.0132539701462
1449617361116271779,0.148063493729,0.0,0.0,0.0,0.0,-0.0164285731316
1449617361155974610,0.148063493729,0.0,0.0,0.0,0.0,-0.0164285731316
1449617361196052649,0.148063493729,0.0,0.0,0.0,0.0,-0.0164285731316
1449617361243749743,0.134095240593,0.0,0.0,0.0,0.0,0.00261904478073
1449617361279023061,0.148063493729,0.0,0.0,0.0,0.0,-0.0132539701462
1449617361318613560,0.148063493729,0.0,0.0,0.0,0.0,-0.0132539701462
1449617361355680261,0.148063493729,0.0,0.0,0.0,0.0,-0.0132539701462
1449617361395865295,0.148063493729,0.0,0.0,0.0,0.0,-0.0132539701462
1449617361453937351,0.150857144356,0.0,0.0,0.0,0.0,-0.0132539701462
1449617361476396975,0.150857144356,0.0,0.0,0.0,0.0,-0.0132539701462
1449617361515333331,0.150857144356,0.0,0.0,0.0,0.0,-0.0132539701462
1449617361555401183,0.164828059379,0.0,0.0,0.0,0.0,-0.147368421053
1449617361596643566,0.164828059379,0.0,0.0,0.0,0.0,-0.147368421053
1449617361635959233,0.164828059379,0.0,0.0,0.0,0.0,-0.147368421053
1449617361691215869,0.164828059379,0.0,0.0,0.0,0.0,-0.147368421053
1449617361722030419,0.164828059379,0.0,0.0,0.0,0.0,-0.147368421053
1449617361756246549,0.164828059379,0.0,0.0,0.0,0.0,-0.147368421053
1449617361795599218,0.164828059379,0.0,0.0,0.0,0.0,-0.147368421053
1449617361835977052,0.164828059379,0.0,0.0,0.0,0.0,-0.147368421053
1449617361877610696,0.163942818096,0.0,0.0,0.0,0.0,-0.147368421053
1449617361915437562,0.16305442266,0.0,0.0,0.0,0.0,-0.147368421053
1449617361956222654,0.16305442266,0.0,0.0,0.0,0.0,-0.147368421053
1449617361995405222,0.16305442266,0.0,0.0,0.0,0.0,-0.147368421053
1449617362035583119,0.16305442266,0.0,0.0,0.0,0.0,-0.147368421053
1449617362075671734,0.16305442266,0.0,0.0,0.0,0.0,-0.147368421053
1449617362115432489,0.16305442266,0.0,0.0,0.0,0.0,-0.147368421053
1449617362155839640,0.16305442266,0.0,0.0,0.0,0.0,-0.147368421053
1449617362195519380,0.161276293262,0.0,0.0,0.0,0.0,-0.147368421053
1449617362235248541,0.158609508334,0.0,0.0,0.0,0.0,-0.147368421053
1449617362275724155,0.158609508334,0.0,0.0,0.0,0.0,-0.147368421053
1449617362316636024,0.158609508334,0.0,0.0,0.0,0.0,-0.147368421053
1449617362355462242,0.158609508334,0.0,0.0,0.0,0.0,-0.147368421053
1449617362405523403,0.158609508334,0.0,0.0,0.0,0.0,-0.147368421053
1449617362439128604,0.155938635219,0.0,0.0,0.0,0.0,-0.147368421053
1449617362475331848,0.153271437023,0.0,0.0,0.0,0.0,-0.147368421053
1449617362515245580,0.15149248612,0.0,0.0,0.0,0.0,-0.147368421053
1449617362556332088,0.15149248612,0.0,0.0,0.0,0.0,-0.147368421053
1449617362606390656,0.15149248612,0.0,0.0,0.0,0.0,-0.147368421053
1449617362635532283,0.147041127477,0.0,0.0,0.0,0.0,-0.189473684211
1449617362675654109,0.147041127477,0.0,0.0,0.0,0.0,-0.189473684211
1449617362715493345,0.147041127477,0.0,0.0,0.0,0.0,-0.189473684211
1449617362755653541,0.135689772231,0.0,0.0,0.0,0.0,-0.147368421053
1449617362795463123,0.134086056389,0.0,0.0,0.0,0.0,-0.147368421053
1449617362837044495,0.134086056389,0.0,0.0,0.0,0.0,-0.147368421053
1449617362876745093,0.134086056389,0.0,0.0,0.0,0.0,-0.147368421053
1449617362915336188,0.134086056389,0.0,0.0,0.0,0.0,-0.147368421053
1449617362955964157,0.12,0.0,0.0,0.0,0.0,-0.147368421053
1449617362995374739,0.12,0.0,0.0,0.0,0.0,-0.147368421053
1449617363035288622,0.12,0.0,0.0,0.0,0.0,-0.147368421053
1449617363075836696,0.127607870755,0.0,0.0,0.0,0.0,-0.147368421053
1449617363116218361,0.123267630206,0.0,0.0,0.0,0.0,-0.147368421053
1449617363155891786,0.123267630206,0.0,0.0,0.0,0.0,-0.147368421053
1449617363195560432,0.123267630206,0.0,0.0,0.0,0.0,-0.147368421053
1449617363235678451,0.123267630206,0.0,0.0,0.0,0.0,-0.147368421053
1449617363275880851,0.12,0.0,0.0,0.0,0.0,-0.147368421053
1449617363315362003,0.12,0.0,0.0,0.0,0.0,-0.147368421053
1449617363356027405,0.12,0.0,0.0,0.0,0.0,-0.147368421053
1449617363396200133,0.12,0.0,0.0,0.0,0.0,-0.147368421053
1449617363435700061,0.12,0.0,0.0,0.0,0.0,-0.147368421053
1449617363475674840,0.12604577144,0.0,0.0,0.0,0.0,-0.147368421053
1449617363515754178,0.121657506995,0.0,0.0,0.0,0.0,-0.147368421053
1449617363555561811,0.12443346927,0.0,0.0,0.0,0.0,-0.105263157895
1449617363595564099,0.12443346927,0.0,0.0,0.0,0.0,-0.105263157895
1449617363636618451,0.12443346927,0.0,0.0,0.0,0.0,-0.105263157895
1449617363676252506,0.12,0.0,0.0,0.0,0.0,-0.147368421053
1449617363715560515,0.12,0.0,0.0,0.0,0.0,-0.147368421053
1449617363756153878,0.12,0.0,0.0,0.0,0.0,-0.147368421053
1449617363795547233,0.12,0.0,0.0,0.0,0.0,-0.147368421053
1449617363835226761,0.12,0.0,0.0,0.0,0.0,-0.147368421053
1449617363878641870,0.12,0.0,0.0,0.0,0.0,-0.147368421053
1449617363915304474,0.12115995482,0.0,0.0,0.0,0.0,-0.147368421053
1449617363956094250,0.12115995482,0.0,0.0,0.0,0.0,-0.147368421053
1449617363996445906,0.12115995482,0.0,0.0,0.0,0.0,-0.147368421053
1449617364036504938,0.12115995482,0.0,0.0,0.0,0.0,-0.147368421053
1449617364075845775,0.121199900116,0.0,0.0,0.0,0.0,-0.147368421053
1449617364116063928,0.335238096237,0.0,0.0,0.0,0.0,-0.0761904776096
1449617364155733660,0.335238096237,0.0,0.0,0.0,0.0,-0.0761904776096
1449617364195485059,0.279365083694,0.0,0.0,0.0,0.0,-0.0634920656681
1449617364235607258,0.279365083694,0.0,0.0,0.0,0.0,-0.0634920656681
1449617364275425368,0.340825397491,0.0,0.0,0.0,0.0,-0.0571428596973
1449617364316583060,0.340825397491,0.0,0.0,0.0,0.0,-0.0571428596973
1449617364355633094,0.340825397491,0.0,0.0,0.0,0.0,-0.0571428596973
1449617364395539038,0.340825397491,0.0,0.0,0.0,0.0,-0.0571428596973
1449617364435916973,0.340825397491,0.0,0.0,0.0,0.0,-0.0571428596973
1449617364475376710,0.340825397491,0.0,0.0,0.0,0.0,-0.0571428596973
1449617364517783689,0.340825397491,0.0,0.0,0.0,0.0,-0.0571428596973
1449617364555634221,0.340825397491,0.0,0.0,0.0,0.0,-0.0571428596973
1449617364597773882,0.340825397491,0.0,0.0,0.0,0.0,-0.0571428596973
1449617364635662210,0.340825397491,0.0,0.0,0.0,0.0,-0.0571428596973
1449617364675560915,0.340825397491,0.0,0.0,0.0,0.0,-0.0571428596973
1449617364716822933,0.335238096237,0.0,0.0,0.0,0.0,-0.0571428596973
1449617364755413894,0.335238096237,0.0,0.0,0.0,0.0,-0.0571428596973
1449617364795513471,0.307301589966,0.0,0.0,0.0,0.0,-0.0444444447756
