%time,field.x,field.y,field.z
1449617318019449821,0.0,0.0,262.0
1449617318021788263,0.0,0.0,259.0
1449617318024135140,0.0,0.0,260.0
1449617318026532238,0.0,0.0,258.0
1449617318029054651,0.0,0.0,264.0
1449617318039543535,0.0,0.0,259.0
1449617318051913990,0.0,0.0,259.0
1449617318068196050,0.0,0.0,256.0
1449617318080948242,0.0,0.0,264.0
1449617318097139130,0.0,0.0,260.0
1449617318113289040,0.0,0.0,259.0
1449617318125525662,0.0,0.0,257.0
1449617318142151693,0.0,0.0,260.0
1449617318158544325,0.0,0.0,259.0
1449617318170628810,0.0,0.0,259.0
1449617318187053456,0.0,0.0,262.0
1449617318203449281,0.0,0.0,258.0
1449617318215723842,0.0,0.0,261.0
1449617318232127698,0.0,0.0,255.0
1449617318248491462,0.0,0.0,256.0
1449617318260759887,0.0,0.0,258.0
1449617318277297194,0.0,0.0,257.0
1449617318293530300,0.0,0.0,253.0
1449617318305941559,0.0,0.0,255.0
1449617318322232286,0.0,0.0,260.0
1449617318338622166,0.0,0.0,261.0
1449617318350914436,0.0,0.0,258.0
1449617318367254735,0.0,0.0,259.0
1449617318383640134,0.0,0.0,267.0
1449617318395909769,0.0,0.0,258.0
1449617318412326280,0.0,0.0,270.0
1449617318428893245,0.0,0.0,258.0
1449617318441285385,0.0,0.0,269.0
1449617318457381841,0.0,0.0,265.0
1449617318469643364,0.0,0.0,269.0
1449617318486064548,0.0,0.0,262.0
1449617318502479078,0.0,0.0,264.0
1449617318514711179,0.0,0.0,263.0
1449617318531734806,0.0,0.0,262.0
1449617318555990206,0.0,0.0,266.0
1449617318563824286,0.0,0.0,258.0
1449617318580287505,0.0,0.0,264.0
1449617318596586292,0.0,0.0,258.0
1449617318608955383,0.0,0.0,264.0
1449617318625310137,0.0,0.0,259.0
1449617318637878376,0.0,0.0,263.0
1449617318654003839,0.0,0.0,259.0
1449617318670488553,0.0,0.0,269.0
1449617318682708091,0.0,0.0,264.0
1449617318699092141,0.0,0.0,259.0
1449617318715473262,0.0,0.0,268.0
1449617318727693935,0.0,0.0,256.0
1449617318744215205,0.0,0.0,263.0
1449617318760482594,0.0,0.0,257.0
1449617318772913426,0.0,0.0,262.0
1449617318789188323,0.0,0.0,260.0
1449617318805798833,0.0,0.0,261.0
1449617318817925334,0.0,0.0,256.0
1449617318834241400,0.0,0.0,255.0
1449617318850600008,0.0,0.0,256.0
1449617318862895744,0.0,0.0,251.0
1449617318879434000,0.0,0.0,257.0
1449617318895686709,0.0,0.0,250.0
1449617318908110969,0.0,0.0,259.0
1449617318924382634,0.0,0.0,255.0
1449617318940739633,0.0,0.0,254.0
1449617318953029914,0.0,0.0,254.0
1449617318969407993,0.0,0.0,252.0
1449617318985909695,0.0,0.0,257.0
1449617318998126012,0.0,0.0,256.0
1449617319014547784,0.0,0.0,254.0
1449617319026854497,0.0,0.0,254.0
1449617319043460906,0.0,0.0,256.0
1449617319059610110,0.0,0.0,259.0
1449617319072050719,0.0,0.0,255.0
1449617319088253031,0.0,0.0,249.0
1449617319104869246,0.0,0.0,255.0
1449617319116943237,0.0,0.0,254.0
1449617319133342704,0.0,0.0,252.0
1449617319149761269,0.0,0.0,257.0
1449617319162181919,0.0,0.0,252.0
1449617319178589056,0.0,0.0,253.0
1449617319194737985,0.0,0.0,257.0
1449617319207163801,0.0,0.0,256.0
1449617319223378148,0.0,0.0,258.0
1449617319239819582,0.0,0.0,253.0
1449617319252197497,0.0,0.0,252.0
1449617319268537079,0.0,0.0,253.0
1449617319284932580,0.0,0.0,257.0
1449617319297250045,0.0,0.0,247.0
1449617319313853032,0.0,0.0,252.0
1449617319329923676,0.0,0.0,254.0
1449617319342378094,0.0,0.0,262.0
1449617319358654200,0.0,0.0,256.0
1449617319375247336,0.0,0.0,256.0
1449617319387308508,0.0,0.0,257.0
1449617319403708238,0.0,0.0,258.0
1449617319416077960,0.0,0.0,257.0
1449617319432422427,0.0,0.0,252.0
1449617319448811337,0.0,0.0,258.0
1449617319461078960,0.0,0.0,251.0
1449617319477492051,0.0,0.0,259.0
1449617319493964253,0.0,0.0,252.0
1449617319506252856,0.0,0.0,249.0
1449617319522435069,0.0,0.0,258.0
1449617319539056342,0.0,0.0,260.0
1449617319551330506,0.0,0.0,254.0
1449617319569130524,0.0,0.0,253.0
1449617319584100536,0.0,0.0,257.0
1449617319596176950,0.0,0.0,253.0
1449617319612738687,0.0,0.0,257.0
1449617319629172911,0.0,0.0,248.0
1449617319641311694,0.0,0.0,255.0
1449617319657585488,0.0,0.0,248.0
1449617319674203653,0.0,0.0,254.0
1449617319686403343,0.0,0.0,252.0
1449617319702787382,0.0,0.0,247.0
1449617319719320026,0.0,0.0,250.0
1449617319731468575,0.0,0.0,248.0
1449617319747995218,0.0,0.0,253.0
1449617319760123483,0.0,0.0,249.0
1449617319776743391,0.0,0.0,250.0
1449617319792857912,0.0,0.0,249.0
1449617319805350141,0.0,0.0,246.0
1449617319821765650,0.0,0.0,249.0
1449617319837912609,0.0,0.0,251.0
1449617319850290333,0.0,0.0,247.0
1449617319866598617,0.0,0.0,252.0
1449617319883128558,0.0,0.0,254.0
1449617319895374652,0.0,0.0,252.0
1449617319911798270,0.0,0.0,252.0
1449617319928303956,0.0,0.0,243.0
1449617319940500826,0.0,0.0,247.0
1449617319956652989,0.0,0.0,250.0
1449617319973165725,0.0,0.0,253.0
1449617319985515397,0.0,0.0,250.0
1449617320001818024,0.0,0.0,246.0
1449617320018250173,0.0,0.0,257.0
1449617320030477688,0.0,0.0,248.0
1449617320047045568,0.0,0.0,251.0
1449617320063263377,0.0,0.0,255.0
1449617320075552072,0.0,0.0,257.0
1449617320092050779,0.0,0.0,252.0
1449617320108392547,0.0,0.0,252.0
1449617320120626159,0.0,0.0,251.0
1449617320141171846,0.0,0.0,255.0
1449617320153328902,0.0,0.0,251.0
1449617320169878097,0.0,0.0,250.0
1449617320182116279,0.0,0.0,251.0
1449617320198402958,0.0,0.0,245.0
1449617320214863109,0.0,0.0,249.0
1449617320227313603,0.0,0.0,254.0
1449617320243620403,0.0,0.0,254.0
1449617320259815532,0.0,0.0,247.0
1449617320272217171,0.0,0.0,249.0
1449617320288602573,0.0,0.0,248.0
1449617320305125087,0.0,0.0,253.0
1449617320317319740,0.0,0.0,250.0
1449617320333609388,0.0,0.0,250.0
1449617320350112236,0.0,0.0,250.0
1449617320362317170,0.0,0.0,246.0
1449617320379073416,0.0,0.0,248.0
1449617320394999871,0.0,0.0,246.0
1449617320407400635,0.0,0.0,248.0
1449617320423823116,0.0,0.0,248.0
1449617320440108386,0.0,0.0,251.0
1449617320452517556,0.0,0.0,247.0
1449617320468879220,0.0,0.0,250.0
1449617320485170066,0.0,0.0,254.0
1449617320497526096,0.0,0.0,248.0
1449617320514254588,0.0,0.0,252.0
1449617320530235019,0.0,0.0,243.0
1449617320542540237,0.0,0.0,255.0
1449617320559020006,0.0,0.0,252.0
1449617320571266801,0.0,0.0,255.0
1449617320587728812,0.0,0.0,243.0
1449617320604164556,0.0,0.0,245.0
1449617320616259840,0.0,0.0,257.0
1449617320632736450,0.0,0.0,246.0
1449617320649278796,0.0,0.0,248.0
1449617320661281507,0.0,0.0,244.0
1449617320677920179,0.0,0.0,253.0
1449617320694167984,0.0,0.0,249.0
1449617320706426302,0.0,0.0,251.0
1449617320722705365,0.0,0.0,245.0
1449617320739222159,0.0,0.0,250.0
1449617320751534224,0.0,0.0,258.0
1449617320767846511,0.0,0.0,248.0
1449617320784450479,0.0,0.0,248.0
1449617320796506636,0.0,0.0,242.0
1449617320812951963,0.0,0.0,249.0
1449617320829356444,0.0,0.0,240.0
1449617320841602878,0.0,0.0,252.0
1449617320857864659,0.0,0.0,246.0
1449617320874409890,0.0,0.0,248.0
1449617320886597528,0.0,0.0,250.0
1449617320903103216,0.0,0.0,248.0
1449617320919376915,0.0,0.0,244.0
1449617320931902679,0.0,0.0,248.0
1449617320948135644,0.0,0.0,253.0
1449617320960337122,0.0,0.0,247.0
1449617320976834862,0.0,0.0,244.0
1449617320993178584,0.0,0.0,240.0
1449617321005470763,0.0,0.0,247.0
1449617321023111087,0.0,0.0,241.0
1449617321038342694,0.0,0.0,244.0
1449617321050866176,0.0,0.0,239.0
1449617321067810526,0.0,0.0,244.0
1449617321083657399,0.0,0.0,242.0
1449617321095955410,0.0,0.0,246.0
1449617321112166370,0.0,0.0,243.0
1449617321128447327,0.0,0.0,244.0
1449617321140748622,0.0,0.0,248.0
1449617321157574161,0.0,0.0,240.0
1449617321173683415,0.0,0.0,248.0
1449617321186611637,0.0,0.0,242.0
1449617321205346968,0.0,0.0,244.0
1449617321218590982,0.0,0.0,245.0
1449617321230890496,0.0,0.0,241.0
1449617321247383527,0.0,0.0,241.0
1449617321263846964,0.0,0.0,239.0
1449617321276744898,0.0,0.0,249.0
1449617321292747061,0.0,0.0,242.0
1449617321308890397,0.0,0.0,241.0
1449617321321170427,0.0,0.0,246.0
1449617321337407408,0.0,0.0,241.0
1449617321350642724,0.0,0.0,241.0
1449617321365984465,0.0,0.0,243.0
1449617321382404276,0.0,0.0,241.0
1449617321394693038,0.0,0.0,246.0
1449617321411361778,0.0,0.0,243.0
1449617321427358888,0.0,0.0,243.0
1449617321439926231,0.0,0.0,240.0
1449617321456363885,0.0,0.0,243.0
1449617321472568009,0.0,0.0,240.0
1449617321484758125,0.0,0.0,240.0
1449617321501085416,0.0,0.0,245.0
1449617321519116430,0.0,0.0,246.0
1449617321529803764,0.0,0.0,244.0
1449617321546315012,0.0,0.0,245.0
1449617321562621197,0.0,0.0,242.0
1449617321575203530,0.0,0.0,246.0
1449617321591840314,0.0,0.0,237.0
1449617321607652591,0.0,0.0,247.0
1449617321619874758,0.0,0.0,238.0
1449617321636265266,0.0,0.0,245.0
1449617321653129261,0.0,0.0,240.0
1449617321664953038,0.0,0.0,245.0
1449617321681827932,0.0,0.0,243.0
1449617321693688369,0.0,0.0,244.0
1449617321710252509,0.0,0.0,249.0
1449617321726401903,0.0,0.0,240.0
1449617321738803017,0.0,0.0,240.0
1449617321757178371,0.0,0.0,251.0
1449617321771516707,0.0,0.0,241.0
1449617321788202006,0.0,0.0,242.0
1449617321800771980,0.0,0.0,244.0
1449617321816724817,0.0,0.0,246.0
1449617321828935922,0.0,0.0,245.0
1449617321845437206,0.0,0.0,249.0
1449617321861841989,0.0,0.0,247.0
1449617321873912433,0.0,0.0,243.0
1449617321890329803,0.0,0.0,244.0
1449617321907679487,0.0,0.0,245.0
1449617321919250900,0.0,0.0,252.0
1449617321935763324,0.0,0.0,247.0
1449617321952100572,0.0,0.0,247.0
1449617321964349779,0.0,0.0,247.0
1449617321980454813,0.0,0.0,247.0
1449617321996802172,0.0,0.0,247.0
1449617322009204832,0.0,0.0,248.0
1449617322025783909,0.0,0.0,245.0
1449617322042421351,0.0,0.0,250.0
1449617322054231321,0.0,0.0,247.0
1449617322071014541,0.0,0.0,244.0
1449617322099382689,0.0,0.0,246.0
1449617322180138067,0.0,0.0,247.0
1449617322194007136,0.0,0.0,245.0
1449617322207468606,0.0,0.0,239.0
1449617322222465698,0.0,0.0,244.0
1449617322238560639,0.0,0.0,240.0
1449617322250891739,0.0,0.0,243.0
1449617322267145438,0.0,0.0,243.0
1449617322279583537,0.0,0.0,244.0
1449617322299599077,0.0,0.0,241.0
1449617322312937761,0.0,0.0,248.0
1449617322324674160,0.0,0.0,246.0
1449617322340970102,0.0,0.0,245.0
1449617322360359111,0.0,0.0,245.0
1449617322373597448,0.0,0.0,242.0
1449617322386438105,0.0,0.0,242.0
1449617322406838552,0.0,0.0,245.0
1449617322414609220,0.0,0.0,246.0
1449617322431163733,0.0,0.0,241.0
1449617322448024235,0.0,0.0,248.0
1449617322459894760,0.0,0.0,252.0
1449617322477485813,0.0,0.0,239.0
1449617322492890707,0.0,0.0,243.0
1449617322504763436,0.0,0.0,242.0
1449617322521732572,0.0,0.0,246.0
1449617322537777118,0.0,0.0,243.0
1449617322552756797,0.0,0.0,242.0
1449617322566523278,0.0,0.0,249.0
1449617322582904612,0.0,0.0,245.0
1449617322595082469,0.0,0.0,242.0
1449617322611661851,0.0,0.0,243.0
1449617322627893084,0.0,0.0,241.0
1449617322640212283,0.0,0.0,243.0
1449617322656874814,0.0,0.0,242.0
1449617322669075603,0.0,0.0,243.0
1449617322685098502,0.0,0.0,243.0
1449617322701415803,0.0,0.0,248.0
1449617322714868815,0.0,0.0,245.0
1449617322732964713,0.0,0.0,242.0
1449617322753856934,0.0,0.0,240.0
1449617322760202603,0.0,0.0,245.0
1449617322776110215,0.0,0.0,243.0
1449617322791948453,0.0,0.0,241.0
1449617322803915064,0.0,0.0,241.0
1449617322820423774,0.0,0.0,246.0
1449617322839328957,0.0,0.0,243.0
1449617322849981309,0.0,0.0,241.0
1449617322866141429,0.0,0.0,241.0
1449617322881836047,0.0,0.0,241.0
1449617322897900738,0.0,0.0,237.0
1449617322910418846,0.0,0.0,242.0
1449617322929467274,0.0,0.0,240.0
1449617322939267342,0.0,0.0,242.0
1449617322958866027,0.0,0.0,243.0
1449617322973123606,0.0,0.0,239.0
1449617322984242699,0.0,0.0,237.0
1449617323000439031,0.0,0.0,239.0
1449617323016784699,0.0,0.0,237.0
1449617323029221206,0.0,0.0,234.0
1449617323046004226,0.0,0.0,238.0
1449617323057873971,0.0,0.0,236.0
1449617323077421430,0.0,0.0,241.0
1449617323093684607,0.0,0.0,244.0
1449617323103277484,0.0,0.0,239.0
1449617323120593203,0.0,0.0,240.0
1449617323135752044,0.0,0.0,238.0
1449617323148321950,0.0,0.0,238.0
1449617323164901160,0.0,0.0,239.0
1449617323181189809,0.0,0.0,237.0
1449617323193282584,0.0,0.0,234.0
1449617323209551309,0.0,0.0,238.0
1449617323227945928,0.0,0.0,233.0
1449617323238701824,0.0,0.0,238.0
1449617323261224781,0.0,0.0,237.0
1449617323270973996,0.0,0.0,240.0
1449617323283096828,0.0,0.0,237.0
1449617323299497171,0.0,0.0,235.0
1449617323316298571,0.0,0.0,236.0
1449617323335911038,0.0,0.0,235.0
1449617323344688238,0.0,0.0,242.0
1449617323361162563,0.0,0.0,239.0
1449617323373765869,0.0,0.0,239.0
1449617323392446043,0.0,0.0,234.0
1449617323406059704,0.0,0.0,235.0
1449617323438045082,0.0,0.0,237.0
1449617323438059229,0.0,0.0,239.0
1449617323447109443,0.0,0.0,236.0
1449617323463641077,0.0,0.0,240.0
1449617323480035338,0.0,0.0,243.0
1449617323493156695,0.0,0.0,239.0
1449617323508895396,0.0,0.0,237.0
1449617323525811843,0.0,0.0,238.0
1449617323539231839,0.0,0.0,238.0
1449617323553703172,0.0,0.0,238.0
1449617323570357454,0.0,0.0,241.0
1449617323582385045,0.0,0.0,240.0
1449617323598544549,0.0,0.0,242.0
1449617323615096547,0.0,0.0,244.0
1449617323627567271,0.0,0.0,244.0
1449617323647928596,0.0,0.0,244.0
1449617323660275962,0.0,0.0,243.0
1449617323672387137,0.0,0.0,243.0
1449617323689237454,0.0,0.0,247.0
1449617323705108039,0.0,0.0,249.0
1449617323717350568,0.0,0.0,249.0
1449617323734242228,0.0,0.0,254.0
1449617323750486564,0.0,0.0,252.0
1449617323763358943,0.0,0.0,251.0
1449617323778851550,0.0,0.0,250.0
1449617323795306271,0.0,0.0,255.0
1449617323809246772,0.0,0.0,255.0
1449617323823907138,0.0,0.0,252.0
1449617323837692646,0.0,0.0,253.0
1449617323852743687,0.0,0.0,254.0
1449617323869727185,0.0,0.0,255.0
1449617323881545252,0.0,0.0,250.0
1449617323899852363,0.0,0.0,253.0
1449617323915736079,0.0,0.0,253.0
1449617323926300697,0.0,0.0,246.0
1449617323945612070,0.0,0.0,247.0
1449617323959909305,0.0,0.0,247.0
1449617323971739072,0.0,0.0,251.0
1449617323988589078,0.0,0.0,248.0
1449617324004881277,0.0,0.0,250.0
1449617324016891754,0.0,0.0,250.0
1449617324033464818,0.0,0.0,251.0
1449617324049416381,0.0,0.0,249.0
1449617324061631027,0.0,0.0,247.0
1449617324078681877,0.0,0.0,245.0
1449617324094401710,0.0,0.0,255.0
1449617324106720973,0.0,0.0,248.0
1449617324123022093,0.0,0.0,250.0
1449617324141733051,0.0,0.0,246.0
1449617324156350181,0.0,0.0,250.0
1449617324168368666,0.0,0.0,244.0
1449617324184588704,0.0,0.0,244.0
1449617324196672285,0.0,0.0,246.0
1449617324214051816,0.0,0.0,244.0
1449617324225495514,0.0,0.0,248.0
1449617324241623257,0.0,0.0,244.0
1449617324258287987,0.0,0.0,250.0
1449617324275919794,0.0,0.0,246.0
1449617324287388685,0.0,0.0,243.0
1449617324304307787,0.0,0.0,247.0
1449617324316110820,0.0,0.0,242.0
1449617324331972381,0.0,0.0,244.0
1449617324348355152,0.0,0.0,243.0
1449617324360623234,0.0,0.0,242.0
1449617324380151994,0.0,0.0,245.0
1449617324393471352,0.0,0.0,243.0
1449617324405737873,0.0,0.0,247.0
1449617324421970327,0.0,0.0,245.0
1449617324442434674,0.0,0.0,246.0
1449617324450762215,0.0,0.0,246.0
1449617324467584575,0.0,0.0,247.0
1449617324484620727,0.0,0.0,246.0
1449617324495723530,0.0,0.0,248.0
1449617324512434466,0.0,0.0,247.0
1449617324528592146,0.0,0.0,247.0
1449617324540737250,0.0,0.0,249.0
1449617324559294446,0.0,0.0,245.0
1449617324577203444,0.0,0.0,247.0
1449617324586914017,0.0,0.0,249.0
1449617324602129187,0.0,0.0,244.0
1449617324614407424,0.0,0.0,246.0
1449617324636079210,0.0,0.0,250.0
1449617324647937749,0.0,0.0,247.0
1449617324663603803,0.0,0.0,247.0
1449617324682306540,0.0,0.0,248.0
1449617324692351585,0.0,0.0,250.0
1449617324708800201,0.0,0.0,249.0
1449617324725242806,0.0,0.0,240.0
1449617324737821739,0.0,0.0,241.0
1449617324754855958,0.0,0.0,242.0
1449617324770398259,0.0,0.0,241.0
1449617324782539988,0.0,0.0,250.0
1449617324798870717,0.0,0.0,252.0
1449617324817623373,0.0,0.0,254.0
1449617324827687559,0.0,0.0,253.0
1449617324844134842,0.0,0.0,253.0
1449617324860518748,0.0,0.0,251.0
1449617324875826235,0.0,0.0,251.0
1449617324889242004,0.0,0.0,252.0
1449617324906245038,0.0,0.0,255.0
1449617324920043859,0.0,0.0,253.0
1449617324934008491,0.0,0.0,251.0
1449617324950809003,0.0,0.0,248.0
1449617324963381155,0.0,0.0,256.0
1449617324980275463,0.0,0.0,249.0
1449617324992045856,0.0,0.0,246.0
1449617325009926970,0.0,0.0,250.0
1449617325024700374,0.0,0.0,249.0
1449617325037189046,0.0,0.0,252.0
1449617325053132015,0.0,0.0,253.0
1449617325069551910,0.0,0.0,250.0
1449617325085630494,0.0,0.0,246.0
1449617325097771072,0.0,0.0,252.0
1449617325114221702,0.0,0.0,252.0
1449617325127753473,0.0,0.0,251.0
1449617325143247556,0.0,0.0,251.0
1449617325160678447,0.0,0.0,250.0
1449617325172362273,0.0,0.0,250.0
1449617325188284020,0.0,0.0,249.0
1449617325204869866,0.0,0.0,249.0
1449617325216922720,0.0,0.0,249.0
1449617325233169503,0.0,0.0,250.0
1449617325249484212,0.0,0.0,246.0
1449617325261727411,0.0,0.0,248.0
1449617325278185708,0.0,0.0,247.0
1449617325296270410,0.0,0.0,250.0
1449617325306950711,0.0,0.0,249.0
1449617325323413819,0.0,0.0,248.0
1449617325340115530,0.0,0.0,247.0
1449617325352475128,0.0,0.0,251.0
1449617325369213038,0.0,0.0,248.0
1449617325382178572,0.0,0.0,247.0
1449617325397195365,0.0,0.0,246.0
1449617325414662692,0.0,0.0,245.0
1449617325425641627,0.0,0.0,250.0
1449617325442809273,0.0,0.0,243.0
1449617325458670566,0.0,0.0,243.0
1449617325471181351,0.0,0.0,248.0
1449617325489500426,0.0,0.0,245.0
1449617325504824689,0.0,0.0,248.0
1449617325515727492,0.0,0.0,247.0
1449617325532378481,0.0,0.0,247.0
1449617325548731631,0.0,0.0,244.0
1449617325560929226,0.0,0.0,249.0
1449617325579589846,0.0,0.0,244.0
1449617325593479428,0.0,0.0,247.0
1449617325605934225,0.0,0.0,246.0
1449617325622178325,0.0,0.0,245.0
1449617325644728490,0.0,0.0,248.0
1449617325651033512,0.0,0.0,243.0
1449617325667239533,0.0,0.0,245.0
1449617325684101606,0.0,0.0,246.0
1449617325696242396,0.0,0.0,245.0
1449617325712504119,0.0,0.0,242.0
1449617325729232476,0.0,0.0,245.0
1449617325742148152,0.0,0.0,245.0
1449617325760231647,0.0,0.0,243.0
1449617325770410557,0.0,0.0,246.0
1449617325786484583,0.0,0.0,243.0
1449617325803612469,0.0,0.0,253.0
1449617325815146682,0.0,0.0,248.0
1449617325831267876,0.0,0.0,242.0
1449617325847567286,0.0,0.0,243.0
1449617325859916232,0.0,0.0,243.0
1449617325876268893,0.0,0.0,245.0
1449617325892992578,0.0,0.0,245.0
1449617325905720388,0.0,0.0,245.0
1449617325921359930,0.0,0.0,244.0
1449617325938642864,0.0,0.0,243.0
1449617325950073247,0.0,0.0,239.0
1449617325967919871,0.0,0.0,243.0
1449617325984853738,0.0,0.0,244.0
1449617325996271180,0.0,0.0,244.0
1449617326011697458,0.0,0.0,244.0
1449617326027839203,0.0,0.0,241.0
1449617326045921887,0.0,0.0,243.0
1449617326056396402,0.0,0.0,248.0
1449617326073077972,0.0,0.0,247.0
1449617326085835805,0.0,0.0,245.0
1449617326101478433,0.0,0.0,242.0
1449617326117940722,0.0,0.0,245.0
1449617326130302344,0.0,0.0,247.0
1449617326146725688,0.0,0.0,244.0
1449617326159054660,0.0,0.0,247.0
1449617326177943486,0.0,0.0,247.0
1449617326191646777,0.0,0.0,249.0
1449617326205633711,0.0,0.0,248.0
1449617326220362833,0.0,0.0,246.0
1449617326236738854,0.0,0.0,243.0
1449617326249038439,0.0,0.0,245.0
1449617326266683170,0.0,0.0,243.0
1449617326281908132,0.0,0.0,248.0
1449617326294048340,0.0,0.0,246.0
1449617326311823996,0.0,0.0,247.0
1449617326328506280,0.0,0.0,248.0
1449617326339439387,0.0,0.0,250.0
1449617326356232917,0.0,0.0,247.0
1449617326376363358,0.0,0.0,246.0
1449617326384315242,0.0,0.0,247.0
1449617326400793555,0.0,0.0,245.0
1449617326418466239,0.0,0.0,246.0
1449617326429539191,0.0,0.0,246.0
1449617326445556503,0.0,0.0,246.0
1449617326479099268,0.0,0.0,248.0
1449617326479103178,0.0,0.0,243.0
1449617326490613481,0.0,0.0,246.0
1449617326507343499,0.0,0.0,246.0
1449617326519730454,0.0,0.0,245.0
1449617326536298293,0.0,0.0,248.0
1449617326548398756,0.0,0.0,244.0
1449617326564646659,0.0,0.0,247.0
1449617326583626127,0.0,0.0,244.0
1449617326593521852,0.0,0.0,244.0
1449617326609621295,0.0,0.0,245.0
1449617326626130871,0.0,0.0,242.0
1449617326638115954,0.0,0.0,245.0
1449617326655662543,0.0,0.0,243.0
1449617326671231459,0.0,0.0,244.0
1449617326683414381,0.0,0.0,244.0
1449617326699755885,0.0,0.0,247.0
1449617326719789455,0.0,0.0,243.0
1449617326729046485,0.0,0.0,247.0
1449617326745085506,0.0,0.0,246.0
1449617326762172133,0.0,0.0,244.0
1449617326777622105,0.0,0.0,244.0
1449617326790033775,0.0,0.0,246.0
1449617326806538202,0.0,0.0,244.0
1449617326818995904,0.0,0.0,241.0
1449617326835377668,0.0,0.0,243.0
1449617326851335490,0.0,0.0,244.0
1449617326863482647,0.0,0.0,241.0
1449617326882084531,0.0,0.0,245.0
1449617326896334238,0.0,0.0,242.0
1449617326910949711,0.0,0.0,239.0
1449617326925158152,0.0,0.0,244.0
1449617326937297063,0.0,0.0,242.0
1449617326954272765,0.0,0.0,241.0
1449617326970220652,0.0,0.0,241.0
1449617326985020910,0.0,0.0,246.0
1449617326999746207,0.0,0.0,244.0
1449617327015183727,0.0,0.0,242.0
1449617327027300123,0.0,0.0,240.0
1449617327045841529,0.0,0.0,245.0
1449617327060220625,0.0,0.0,238.0
1449617327072909874,0.0,0.0,242.0
1449617327089774545,0.0,0.0,242.0
1449617327105303035,0.0,0.0,252.0
1449617327118815429,0.0,0.0,242.0
1449617327134518986,0.0,0.0,244.0
1449617327153643414,0.0,0.0,242.0
1449617327167176280,0.0,0.0,242.0
1449617327183035839,0.0,0.0,243.0
1449617327195670374,0.0,0.0,241.0
1449617327213410675,0.0,0.0,241.0
1449617327228903201,0.0,0.0,248.0
1449617327242735970,0.0,0.0,242.0
1449617327257607947,0.0,0.0,242.0
1449617327276884799,0.0,0.0,241.0
1449617327285585031,0.0,0.0,243.0
1449617327303675102,0.0,0.0,241.0
1449617327314785277,0.0,0.0,243.0
1449617327331300985,0.0,0.0,243.0
1449617327347167823,0.0,0.0,247.0
1449617327359426337,0.0,0.0,245.0
1449617327381378745,0.0,0.0,237.0
1449617327392527474,0.0,0.0,241.0
1449617327404196602,0.0,0.0,240.0
1449617327421660682,0.0,0.0,240.0
1449617327439525668,0.0,0.0,240.0
1449617327450856535,0.0,0.0,240.0
1449617327466096417,0.0,0.0,243.0
1449617327482387348,0.0,0.0,243.0
1449617327494517600,0.0,0.0,242.0
1449617327515239379,0.0,0.0,241.0
1449617327527542132,-2.0,0.0,245.0
1449617327541732982,-2.0,0.0,250.0
1449617327556751217,-2.0,0.0,254.0
1449617327572298824,-2.0,0.0,261.0
1449617327589620793,-2.0,0.0,253.0
1449617327616303516,-2.0,0.0,256.0
1449617327619533675,-2.0,0.0,252.0
1449617327629638527,-2.0,0.0,245.0
1449617327657910626,-2.0,-2.0,254.0
1449617327664617515,-2.0,-2.0,259.0
1449617327674801739,-2.0,-2.0,248.0
1449617327691479251,-2.0,-2.0,258.0
1449617327706529090,-2.0,-2.0,255.0
1449617327720738229,-2.0,-2.0,256.0
1449617327736909626,-2.0,-2.0,258.0
1449617327749931952,-2.0,-2.0,256.0
1449617327766138989,-2.0,-2.0,261.0
1449617327786516856,-2.0,-2.0,261.0
1449617327793613554,-4.0,-2.0,245.0
1449617327811536248,-4.0,-2.0,244.0
1449617327828246362,-4.0,-2.0,245.0
1449617327838445209,-4.0,-4.0,249.0
1449617327857878052,-4.0,-4.0,240.0
1449617327874491594,-4.0,-4.0,239.0
1449617327883789256,-4.0,-4.0,239.0
1449617327901015224,-4.0,-4.0,237.0
1449617327916327148,-4.0,-4.0,242.0
1449617327930165734,-6.0,-4.0,252.0
1449617327947717043,-6.0,-6.0,248.0
1449617327963807574,-6.0,-6.0,249.0
1449617327974103740,-6.0,-6.0,258.0
1449617327990361967,-6.0,-6.0,259.0
1449617328007444903,-6.0,-6.0,259.0
1449617328020070226,-8.0,-8.0,246.0
1449617328035386419,-8.0,-8.0,243.0
1449617328051938142,-8.0,-8.0,239.0
1449617328066805717,-8.0,-8.0,283.0
1449617328084919784,-8.0,-10.0,238.0
1449617328092373425,-10.0,-10.0,251.0
1449617328109167560,-10.0,-10.0,253.0
1449617328126666669,-10.0,-10.0,254.0
1449617328138064098,-10.0,-12.0,258.0
1449617328157761849,-10.0,-12.0,262.0
1449617328170579099,-12.0,-12.0,245.0
1449617328182767438,-12.0,-14.0,247.0
1449617328200029142,-12.0,-14.0,243.0
1449617328228675038,-12.0,-14.0,237.0
1449617328228679125,-14.0,-16.0,253.0
1449617328247031673,-14.0,-16.0,301.0
1449617328261781966,-14.0,-16.0,262.0
1449617328273623736,-16.0,-18.0,301.0
1449617328289207017,-16.0,-18.0,248.0
1449617328309619643,-16.0,-20.0,241.0
1449617328320525664,-18.0,-20.0,255.0
1449617328335366815,-18.0,-20.0,303.0
1449617328350461511,-18.0,-22.0,264.0
1449617328363235247,-20.0,-22.0,296.0
1449617328387358415,-20.0,-24.0,243.0
1449617328395572439,-22.0,-24.0,299.0
1449617328408541203,-22.0,-26.0,263.0
1449617328424507435,-22.0,-26.0,303.0
1449617328441884829,-24.0,-28.0,252.0
1449617328453618880,-24.0,-28.0,295.0
1449617328469617251,-26.0,-30.0,261.0
1449617328485295550,-26.0,-30.0,317.0
1449617328499062549,-28.0,-32.0,255.0
1449617328515295813,-28.0,-32.0,289.0
1449617328527809664,-30.0,-34.0,266.0
1449617328547869164,-30.0,-34.0,316.0
1449617328561641276,-32.0,-36.0,255.0
1449617328572380038,-32.0,-36.0,251.0
1449617328588273610,-34.0,-38.0,261.0
1449617328604697189,-34.0,-40.0,314.0
1449617328616744454,-36.0,-40.0,253.0
1449617328633615474,-38.0,-42.0,305.0
1449617328649723974,-38.0,-42.0,268.0
1449617328662019637,-40.0,-44.0,297.0
1449617328683859208,-40.0,-46.0,248.0
1449617328694907406,-42.0,-46.0,310.0
1449617328706902922,-42.0,-48.0,266.0
1449617328723281739,-44.0,-50.0,250.0
1449617328739924559,-44.0,-50.0,246.0
1449617328752183105,-46.0,-52.0,309.0
1449617328769454510,-48.0,-54.0,254.0
1449617328785288464,-48.0,-54.0,293.0
1449617328804041774,-50.0,-56.0,264.0
1449617328813390223,-50.0,-56.0,318.0
1449617328831044980,-52.0,-58.0,250.0
1449617328842166500,-54.0,-60.0,257.0
1449617328858863151,-54.0,-60.0,269.0
1449617328870869221,-56.0,-62.0,301.0
1449617328887245193,-56.0,-64.0,249.0
1449617328903721452,-58.0,-64.0,319.0
1449617328915972315,-60.0,-66.0,254.0
1449617328932247512,-60.0,-68.0,310.0
1449617328948992802,-62.0,-68.0,263.0
1449617328961765651,-62.0,-70.0,319.0
1449617328977662397,-64.0,-72.0,254.0
1449617328994915807,-66.0,-74.0,302.0
1449617329006143144,-66.0,-74.0,270.0
1449617329022501066,-68.0,-76.0,291.0
1449617329038783494,-70.0,-78.0,262.0
1449617329050966563,-70.0,-78.0,318.0
1449617329067405685,-72.0,-80.0,254.0
1449617329084137441,-74.0,-82.0,309.0
1449617329096162282,-74.0,-84.0,270.0
1449617329112537273,-76.0,-84.0,296.0
1449617329130748368,-78.0,-86.0,271.0
1449617329141120408,-78.0,-88.0,324.0
1449617329158093823,-80.0,-90.0,256.0
1449617329175650833,-82.0,-90.0,319.0
1449617329188219505,-82.0,-92.0,280.0
1449617329202973039,-84.0,-94.0,278.0
1449617329218892040,-86.0,-96.0,262.0
1449617329231415518,-86.0,-98.0,279.0
1449617329248834506,-88.0,-98.0,260.0
1449617329260764400,-90.0,-100.0,270.0
1449617329276424549,-92.0,-102.0,264.0
1449617329293836199,-92.0,-104.0,257.0
1449617329307779172,-94.0,-104.0,276.0
1449617329321829526,-96.0,-106.0,268.0
1449617329341631864,-96.0,-108.0,267.0
1449617329350906705,-98.0,-110.0,280.0
1449617329366557185,-100.0,-110.0,267.0
1449617329385347767,-102.0,-112.0,273.0
1449617329395996441,-102.0,-114.0,284.0
1449617329415327179,-104.0,-116.0,264.0
1449617329428263318,-106.0,-118.0,277.0
1449617329440145895,-106.0,-118.0,283.0
1449617329456480624,-108.0,-120.0,262.0
1449617329473460376,-110.0,-122.0,286.0
1449617329485325702,-112.0,-124.0,273.0
1449617329501712538,-112.0,-126.0,263.0
1449617329518003273,-114.0,-128.0,286.0
1449617329531774427,-116.0,-130.0,272.0
1449617329548270602,-118.0,-130.0,281.0
1449617329563703560,-118.0,-132.0,292.0
1449617329578876994,-120.0,-134.0,269.0
1449617329591819445,-122.0,-136.0,286.0
1449617329608770482,-124.0,-138.0,278.0
1449617329621088750,-124.0,-138.0,275.0
1449617329640079497,-126.0,-140.0,297.0
1449617329649710034,-128.0,-142.0,278.0
1449617329670102304,-130.0,-144.0,285.0
1449617329682565305,-130.0,-146.0,328.0
1449617329698229761,-132.0,-148.0,314.0
1449617329714831971,-134.0,-150.0,290.0
1449617329727427832,-136.0,-150.0,285.0
1449617329743384824,-138.0,-152.0,287.0
1449617329759960267,-138.0,-154.0,296.0
1449617329776317651,-140.0,-156.0,279.0
1449617329789937742,-142.0,-158.0,291.0
1449617329805437802,-144.0,-158.0,288.0
1449617329822024229,-144.0,-160.0,280.0
1449617329833458488,-146.0,-162.0,296.0
1449617329850201301,-148.0,-164.0,283.0
1449617329863060623,-150.0,-166.0,288.0
1449617329881764813,-150.0,-168.0,292.0
1449617329900064838,-152.0,-170.0,279.0
1449617329907814308,-154.0,-170.0,290.0
1449617329925614928,-156.0,-172.0,283.0
1449617329940387800,-156.0,-174.0,285.0
1449617329952303818,-158.0,-176.0,288.0
1449617329971463169,-160.0,-178.0,280.0
1449617329986980548,-162.0,-180.0,286.0
1449617329997847441,-162.0,-180.0,295.0
1449617330014709153,-164.0,-182.0,275.0
1449617330029612649,-166.0,-184.0,287.0
1449617330042637172,-168.0,-186.0,282.0
1449617330061759740,-168.0,-188.0,279.0
1449617330073062421,-170.0,-190.0,296.0
1449617330087463445,-172.0,-192.0,286.0
1449617330105488325,-174.0,-192.0,293.0
1449617330116267158,-174.0,-194.0,300.0
1449617330141754283,-176.0,-196.0,282.0
1449617330153016963,-178.0,-198.0,292.0
1449617330161807806,-180.0,-200.0,288.0
1449617330178010856,-180.0,-202.0,282.0
1449617330194011370,-182.0,-202.0,301.0
1449617330209671101,-184.0,-204.0,286.0
1449617330223593542,-186.0,-206.0,288.0
1449617330242337310,-186.0,-208.0,296.0
1449617330255307873,-188.0,-210.0,284.0
1449617330268570587,-190.0,-212.0,291.0
1449617330285619532,-190.0,-212.0,292.0
1449617330298838975,-192.0,-214.0,280.0
1449617330316799237,-194.0,-216.0,287.0
1449617330329730762,-196.0,-218.0,282.0
1449617330341604924,-196.0,-220.0,276.0
1449617330361297044,-198.0,-222.0,290.0
1449617330379037707,-200.0,-222.0,280.0
1449617330388012296,-202.0,-224.0,286.0
1449617330405617638,-202.0,-226.0,290.0
1449617330417618950,-204.0,-228.0,269.0
1449617330432406348,-206.0,-230.0,278.0
1449617330449630885,-208.0,-230.0,273.0
1449617330461716473,-208.0,-232.0,264.0
1449617330476798198,-210.0,-234.0,277.0
1449617330493039736,-212.0,-236.0,265.0
1449617330506138178,-214.0,-238.0,263.0
1449617330522001679,-214.0,-240.0,276.0
1449617330569386386,-216.0,-240.0,262.0
1449617330569390209,-218.0,-242.0,267.0
1449617330573696919,-218.0,-244.0,272.0
1449617330583674793,-220.0,-246.0,253.0
1449617330595432040,-222.0,-248.0,264.0
1449617330612448311,-224.0,-248.0,255.0
1449617330628389555,-224.0,-250.0,249.0
1449617330641733192,-226.0,-252.0,272.0
1449617330657870395,-228.0,-254.0,255.0
1449617330673206318,-230.0,-256.0,257.0
1449617330685526307,-230.0,-258.0,271.0
1449617330703989203,-232.0,-258.0,258.0
1449617330722182498,-234.0,-260.0,264.0
1449617330734769879,-234.0,-262.0,270.0
1449617330749358040,-236.0,-264.0,296.0
1449617330765329425,-238.0,-266.0,260.0
1449617330776082823,-238.0,-266.0,270.0
1449617330792312727,-240.0,-268.0,250.0
1449617330805204216,-242.0,-270.0,269.0
1449617330822133186,-244.0,-272.0,257.0
1449617330837956114,-244.0,-274.0,252.0
1449617330849826470,-246.0,-274.0,268.0
1449617330871220639,-248.0,-276.0,258.0
1449617330885751175,-250.0,-278.0,262.0
1449617330894499983,-250.0,-280.0,315.0
1449617330910916055,-252.0,-282.0,247.0
1449617330929833886,-254.0,-282.0,258.0
1449617330940225205,-254.0,-284.0,247.0
1449617330956297590,-256.0,-286.0,291.0
1449617330976798132,-258.0,-288.0,261.0
1449617330985583436,-260.0,-290.0,298.0
1449617331001060114,-260.0,-292.0,250.0
1449617331017440923,-262.0,-292.0,304.0
1449617331030310558,-264.0,-294.0,246.0
1449617331046508652,-266.0,-296.0,297.0
1449617331062771693,-266.0,-298.0,262.0
1449617331075124249,-268.0,-300.0,285.0
1449617331092174176,-270.0,-300.0,258.0
1449617331107870448,-272.0,-302.0,293.0
1449617331119976035,-272.0,-304.0,241.0
1449617331136317372,-274.0,-306.0,307.0
1449617331153080060,-276.0,-308.0,253.0
1449617331165018189,-278.0,-310.0,302.0
1449617331181998020,-278.0,-310.0,259.0
1449617331194757162,-280.0,-312.0,290.0
1449617331209925043,-282.0,-314.0,249.0
1449617331226636632,-284.0,-316.0,299.0
1449617331241612202,-284.0,-318.0,242.0
1449617331257615838,-286.0,-318.0,311.0
1449617331272284590,-288.0,-320.0,249.0
1449617331283790627,-290.0,-322.0,302.0
1449617331300366285,-290.0,-324.0,261.0
1449617331316395484,-292.0,-326.0,287.0
1449617331332770985,-294.0,-326.0,256.0
1449617331345098108,-296.0,-328.0,297.0
1449617331364233491,-296.0,-330.0,244.0
1449617331374090855,-298.0,-332.0,310.0
1449617331392561519,-300.0,-334.0,251.0
1449617331409629084,-302.0,-336.0,293.0
1449617331421619637,-302.0,-336.0,262.0
1449617331435706720,-304.0,-338.0,279.0
1449617331453425815,-306.0,-340.0,251.0
1449617331463801419,-306.0,-342.0,305.0
1449617331485610439,-308.0,-344.0,241.0
1449617331496880191,-310.0,-344.0,305.0
1449617331512124579,-312.0,-346.0,249.0
1449617331526447996,-312.0,-348.0,288.0
1449617331542872633,-314.0,-350.0,262.0
1449617331556964022,-316.0,-352.0,297.0
1449617331584009009,-318.0,-354.0,257.0
1449617331584021922,-318.0,-354.0,320.0
1449617331599969385,-320.0,-356.0,248.0
1449617331616244898,-322.0,-358.0,314.0
1449617331630946729,-324.0,-360.0,249.0
1449617331645931031,-324.0,-362.0,286.0
1449617331663657952,-326.0,-362.0,262.0
1449617331678829461,-328.0,-364.0,284.0
1449617331705632619,-330.0,-368.0,305.0
1449617331779741453,-338.0,-376.0,264.0
1449617331799044614,-340.0,-378.0,251.0
1449617331813640292,-342.0,-380.0,259.0
1449617331824606741,-342.0,-382.0,267.0
1449617331845376818,-344.0,-382.0,246.0
1449617331857211936,-346.0,-384.0,257.0
1449617331869721987,-348.0,-386.0,254.0
1449617331887282450,-348.0,-388.0,247.0
1449617331904021438,-350.0,-390.0,265.0
1449617331917629796,-352.0,-390.0,253.0
1449617331933629421,-354.0,-392.0,261.0
1449617331949955076,-354.0,-394.0,272.0
1449617331959567831,-356.0,-396.0,250.0
1449617331975946072,-358.0,-398.0,263.0
1449617331994258149,-360.0,-400.0,258.0
1449617332007589125,-360.0,-400.0,255.0
1449617332021226263,-362.0,-402.0,267.0
1449617332037336440,-364.0,-404.0,250.0
1449617332049768258,-366.0,-406.0,257.0
1449617332066941228,-366.0,-408.0,259.0
1449617332085627993,-368.0,-408.0,244.0
1449617332097635125,-370.0,-410.0,262.0
1449617332112990023,-372.0,-412.0,252.0
1449617332129719987,-374.0,-414.0,251.0
1449617332143476714,-374.0,-416.0,262.0
1449617332160048242,-376.0,-416.0,241.0
1449617332168524339,-378.0,-418.0,252.0
1449617332186661769,-380.0,-420.0,243.0
1449617332201806648,-380.0,-422.0,235.0
1449617332214433931,-382.0,-424.0,255.0
1449617332229945414,-384.0,-424.0,238.0
1449617332246370819,-386.0,-426.0,241.0
1449617332258785561,-386.0,-428.0,250.0
1449617332275788852,-388.0,-430.0,226.0
1449617332305633101,-392.0,-432.0,236.0
1449617332387121054,-398.0,-440.0,240.0
1449617332400433584,-400.0,-442.0,229.0
1449617332410993775,-402.0,-444.0,265.0
1449617332426509726,-404.0,-446.0,235.0
1449617332443329954,-406.0,-446.0,259.0
1449617332455444200,-406.0,-448.0,247.0
1449617332471747195,-408.0,-450.0,255.0
1449617332489281633,-410.0,-450.0,240.0
1449617332500853849,-412.0,-452.0,263.0
1449617332518771362,-412.0,-454.0,237.0
1449617332534553665,-414.0,-456.0,281.0
1449617332545604079,-416.0,-458.0,236.0
1449617332562584991,-418.0,-458.0,269.0
1449617332578453790,-420.0,-460.0,241.0
1449617332592255683,-420.0,-462.0,256.0
1449617332609769131,-422.0,-464.0,258.0
1449617332624230680,-424.0,-464.0,259.0
1449617332635414507,-426.0,-466.0,244.0
1449617332652250834,-428.0,-468.0,272.0
1449617332668154032,-428.0,-470.0,232.0
1449617332680854238,-430.0,-470.0,294.0
1449617332697313754,-432.0,-472.0,231.0
1449617332715405539,-434.0,-474.0,271.0
1449617332729177788,-436.0,-476.0,237.0
1449617332742350459,-436.0,-476.0,258.0
1449617332754336426,-438.0,-478.0,246.0
1449617332771388806,-440.0,-480.0,249.0
1449617332787567555,-442.0,-482.0,238.0
1449617332799565588,-444.0,-482.0,265.0
1449617332817623094,-444.0,-484.0,221.0
1449617332832359055,-446.0,-486.0,280.0
1449617332844851983,-448.0,-488.0,215.0
1449617332862318117,-450.0,-488.0,276.0
1449617332877610305,-452.0,-490.0,218.0
1449617332890113321,-452.0,-492.0,262.0
1449617332905964650,-454.0,-494.0,232.0
1449617332922168413,-456.0,-494.0,255.0
1449617332934388127,-458.0,-496.0,225.0
1449617332951418738,-460.0,-498.0,261.0
1449617332967574270,-462.0,-500.0,217.0
1449617332979723940,-462.0,-500.0,275.0
1449617333000314798,-464.0,-502.0,211.0
1449617333015459480,-466.0,-504.0,275.0
1449617333024816872,-468.0,-506.0,214.0
1449617333041659231,-470.0,-506.0,270.0
1449617333059331591,-470.0,-508.0,226.0
1449617333072543082,-472.0,-510.0,252.0
1449617333086388725,-474.0,-510.0,227.0
1449617333106335825,-476.0,-512.0,264.0
1449617333115224146,-478.0,-514.0,223.0
1449617333133711559,-480.0,-516.0,268.0
1449617333143384942,-480.0,-518.0,214.0
1449617333159828243,-482.0,-518.0,235.0
1449617333176304885,-484.0,-520.0,213.0
1449617333188866862,-486.0,-522.0,275.0
1449617333205109934,-488.0,-522.0,225.0
1449617333221485725,-488.0,-524.0,269.0
1449617333233647301,-490.0,-526.0,240.0
1449617333255032510,-492.0,-528.0,270.0
1449617333266265349,-494.0,-528.0,240.0
1449617333278667245,-496.0,-530.0,235.0
1449617333295800717,-498.0,-532.0,242.0
1449617333311442376,-498.0,-534.0,296.0
1449617333324502113,-500.0,-534.0,234.0
1449617333344799991,-502.0,-536.0,302.0
1449617333360253279,-504.0,-538.0,247.0
1449617333370521257,-506.0,-538.0,301.0
1449617333386826434,-506.0,-540.0,258.0
1449617333407339435,-508.0,-542.0,292.0
1449617333413844819,-510.0,-544.0,267.0
1449617333432579299,-512.0,-544.0,253.0
1449617333447057799,-514.0,-546.0,262.0
1449617333459986053,-516.0,-548.0,304.0
1449617333475450688,-516.0,-548.0,254.0
1449617333487623017,-518.0,-550.0,316.0
1449617333504858066,-520.0,-552.0,253.0
1449617333520586779,-522.0,-554.0,313.0
1449617333532950822,-524.0,-554.0,261.0
1449617333551744263,-526.0,-556.0,310.0
1449617333565608320,-526.0,-558.0,270.0
1449617333577881996,-528.0,-558.0,295.0
1449617333595426371,-530.0,-560.0,272.0
1449617333610841950,-532.0,-562.0,307.0
1449617333622807526,-534.0,-562.0,269.0
1449617333639508622,-536.0,-564.0,306.0
1449617333655374242,-536.0,-566.0,261.0
1449617333668146317,-538.0,-568.0,321.0
1449617333690646044,-540.0,-568.0,254.0
1449617333700655990,-542.0,-570.0,259.0
1449617333713418776,-544.0,-572.0,259.0
1449617333730669661,-546.0,-572.0,310.0
1449617333747654077,-546.0,-574.0,263.0
1449617333759622565,-548.0,-576.0,296.0
1449617333775496261,-550.0,-576.0,264.0
1449617333792349963,-552.0,-578.0,297.0
1449617333803125048,-554.0,-580.0,258.0
1449617333821706761,-556.0,-580.0,294.0
1449617333835877653,-558.0,-582.0,252.0
1449617333849383183,-558.0,-584.0,302.0
1449617333865611120,-560.0,-586.0,240.0
1449617333876947195,-562.0,-586.0,309.0
1449617333898432297,-564.0,-588.0,247.0
1449617333913341637,-566.0,-590.0,297.0
1449617333921903176,-568.0,-590.0,239.0
1449617333939293826,-568.0,-592.0,290.0
1449617333955970822,-570.0,-594.0,257.0
1449617333967625407,-572.0,-594.0,241.0
1449617333984100583,-574.0,-596.0,258.0
1449617333999583169,-576.0,-598.0,292.0
1449617334011878956,-578.0,-598.0,253.0
1449617334029633254,-580.0,-600.0,292.0
1449617334045793272,-582.0,-602.0,247.0
1449617334062059486,-582.0,-602.0,304.0
1449617334073587771,-584.0,-604.0,236.0
1449617334089958232,-586.0,-606.0,300.0
1449617334103224954,-588.0,-606.0,241.0
1449617334121838472,-590.0,-608.0,251.0
1449617334138841372,-592.0,-610.0,243.0
1449617334148105476,-594.0,-610.0,297.0
1449617334164037717,-594.0,-612.0,249.0
1449617334181616503,-596.0,-614.0,281.0
1449617334196019253,-598.0,-614.0,253.0
1449617334208611990,-600.0,-616.0,279.0
1449617334226736394,-602.0,-618.0,250.0
1449617334237496073,-604.0,-620.0,242.0
1449617334253922437,-606.0,-620.0,247.0
1449617334265997003,-608.0,-622.0,285.0
1449617334282442668,-610.0,-624.0,246.0
1449617334298999151,-610.0,-624.0,300.0
1449617334311056628,-612.0,-626.0,236.0
1449617334327577783,-614.0,-628.0,299.0
1449617334343976171,-616.0,-628.0,236.0
1449617334356912651,-618.0,-630.0,302.0
1449617334374431932,-620.0,-632.0,235.0
1449617334390851477,-622.0,-632.0,246.0
1449617334402538587,-624.0,-634.0,239.0
1449617334417530810,-626.0,-634.0,288.0
1449617334434888961,-628.0,-636.0,239.0
1449617334449625111,-630.0,-638.0,286.0
1449617334462522207,-630.0,-638.0,247.0
1449617334480328344,-632.0,-640.0,275.0
1449617334491821834,-634.0,-642.0,247.0
1449617334507990634,-636.0,-642.0,272.0
1449617334525641619,-638.0,-644.0,240.0
1449617334536565506,-640.0,-646.0,273.0
1449617334553019190,-642.0,-646.0,242.0
1449617334569707099,-644.0,-648.0,278.0
1449617334582075635,-646.0,-650.0,241.0
1449617334597908079,-648.0,-650.0,277.0
1449617334614142998,-648.0,-652.0,228.0
1449617334632650994,-650.0,-654.0,291.0
1449617334643587866,-652.0,-654.0,223.0
1449617334655020101,-654.0,-656.0,247.0
1449617334671350542,-656.0,-658.0,228.0
1449617334687924189,-658.0,-658.0,291.0
1449617334699970840,-660.0,-660.0,231.0
1449617334717956639,-662.0,-660.0,288.0
1449617334732841941,-664.0,-662.0,233.0
1449617334745432061,-666.0,-664.0,281.0
1449617334761717939,-666.0,-664.0,249.0
1449617334778075248,-668.0,-666.0,276.0
1449617334804541159,-670.0,-668.0,251.0
1449617334808063588,-672.0,-668.0,273.0
1449617334823507465,-674.0,-670.0,248.0
1449617334839843142,-676.0,-672.0,230.0
1449617334857785593,-678.0,-672.0,242.0
1449617334869930186,-680.0,-674.0,235.0
1449617334884725152,-682.0,-674.0,275.0
1449617334906439429,-682.0,-676.0,241.0
1449617334916074933,-684.0,-678.0,248.0
1449617334931249325,-686.0,-678.0,246.0
1449617334948934683,-688.0,-680.0,227.0
1449617334958446218,-690.0,-682.0,247.0
1449617334977713035,-692.0,-682.0,229.0
1449617334991244174,-694.0,-684.0,240.0
1449617335003736110,-696.0,-686.0,231.0
1449617335020713575,-698.0,-686.0,242.0
1449617335032072364,-698.0,-688.0,240.0
1449617335052791942,-700.0,-688.0,221.0
1449617335066321380,-702.0,-690.0,246.0
1449617335077230965,-704.0,-692.0,228.0
1449617335093297355,-706.0,-692.0,246.0
1449617335111661174,-708.0,-694.0,234.0
1449617335127417304,-710.0,-696.0,237.0
1449617335142609049,-712.0,-696.0,234.0
1449617335156128263,-714.0,-698.0,243.0
1449617335167341507,-714.0,-698.0,245.0
1449617335183761322,-716.0,-700.0,254.0
1449617335204558523,-718.0,-702.0,250.0
1449617335213700964,-720.0,-702.0,233.0
1449617335229453470,-722.0,-704.0,249.0
1449617335248866532,-724.0,-706.0,232.0
1449617335257291000,-726.0,-706.0,244.0
1449617335275692084,-728.0,-708.0,240.0
1449617335290282647,-730.0,-710.0,244.0
1449617335302535428,-730.0,-710.0,244.0
1449617335320051273,-732.0,-712.0,227.0
1449617335335110751,-734.0,-712.0,248.0
1449617335347233186,-736.0,-714.0,227.0
1449617335363747431,-738.0,-716.0,246.0
1449617335385295010,-740.0,-716.0,229.0
1449617335394257006,-742.0,-718.0,234.0
1449617335408759713,-744.0,-720.0,231.0
1449617335420978373,-746.0,-720.0,232.0
1449617335437941070,-748.0,-722.0,231.0
1449617335457853215,-748.0,-722.0,245.0
1449617335466230549,-750.0,-724.0,241.0
1449617335483224941,-752.0,-726.0,221.0
1449617335498856775,-754.0,-726.0,243.0
1449617335511817105,-756.0,-728.0,222.0
1449617335528460224,-758.0,-730.0,238.0
1449617335544908024,-760.0,-730.0,227.0
1449617335557041345,-762.0,-732.0,241.0
1449617335572876290,-764.0,-732.0,240.0
1449617335589772445,-764.0,-734.0,232.0
1449617335601604641,-766.0,-736.0,298.0
1449617335618211543,-768.0,-736.0,236.0
1449617335635454167,-770.0,-738.0,255.0
1449617335646468335,-772.0,-740.0,237.0
1449617335670027304,-774.0,-740.0,258.0
1449617335679286409,-776.0,-742.0,250.0
1449617335691683167,-778.0,-742.0,259.0
1449617335708013444,-780.0,-744.0,252.0
1449617335724239586,-782.0,-746.0,304.0
1449617335736628662,-782.0,-746.0,267.0
1449617335781756016,-788.0,-750.0,251.0
1449617335859744950,-798.0,-756.0,259.0
1449617335876713969,-800.0,-758.0,255.0
1449617335888584757,-802.0,-758.0,260.0
1449617335904523258,-802.0,-760.0,265.0
1449617335931459300,-804.0,-762.0,240.0
1449617335933226209,-806.0,-762.0,252.0
1449617335951742922,-808.0,-764.0,240.0
1449617335966184429,-810.0,-766.0,251.0
1449617335980555239,-812.0,-766.0,237.0
1449617336008570548,-814.0,-768.0,244.0
1449617336008575371,-816.0,-768.0,243.0
1449617336026035596,-818.0,-770.0,245.0
1449617336039823870,-818.0,-772.0,249.0
1449617336054137464,-820.0,-772.0,234.0
1449617336068303605,-822.0,-774.0,253.0
1449617336085960570,-824.0,-774.0,230.0
1449617336097431385,-826.0,-776.0,252.0
1449617336113409638,-828.0,-778.0,242.0
1449617336133686658,-830.0,-778.0,248.0
1449617336142127009,-832.0,-780.0,243.0
1449617336164178531,-832.0,-780.0,236.0
1449617336175076492,-834.0,-782.0,255.0
1449617336186989116,-836.0,-784.0,237.0
1449617336208062800,-838.0,-784.0,257.0
1449617336219897826,-840.0,-786.0,243.0
1449617336237035879,-842.0,-786.0,251.0
1449617336248783454,-844.0,-788.0,245.0
1449617336265007253,-846.0,-790.0,256.0
1449617336277299873,-846.0,-790.0,265.0
1449617336294181681,-848.0,-792.0,248.0
1449617336314713089,-850.0,-792.0,265.0
1449617336325376216,-852.0,-794.0,252.0
1449617336339203749,-854.0,-796.0,267.0
1449617336354978502,-856.0,-796.0,262.0
1449617336367665456,-858.0,-798.0,272.0
1449617336384696901,-858.0,-798.0,280.0
1449617336396748749,-860.0,-800.0,262.0
1449617336412638633,-862.0,-800.0,284.0
1449617336430006512,-864.0,-802.0,268.0
1449617336441686574,-866.0,-804.0,281.0
1449617336460894142,-868.0,-804.0,268.0
1449617336474062319,-870.0,-806.0,285.0
1449617336487204633,-870.0,-806.0,286.0
1449617336502631771,-872.0,-808.0,273.0
1449617336519571116,-874.0,-810.0,291.0
1449617336531290023,-876.0,-810.0,275.0
1449617336548061327,-878.0,-812.0,285.0
1449617336564096501,-880.0,-812.0,275.0
1449617336576314075,-882.0,-814.0,278.0
1449617336602439836,-882.0,-814.0,282.0
1449617336608900351,-884.0,-816.0,263.0
1449617336621509973,-886.0,-818.0,277.0
1449617336637808959,-888.0,-818.0,261.0
1449617336658316493,-890.0,-820.0,270.0
1449617336666532602,-892.0,-822.0,260.0
1449617336682993873,-894.0,-822.0,311.0
1449617336699121041,-896.0,-824.0,257.0
1449617336711717151,-896.0,-824.0,250.0
1449617336728577590,-898.0,-826.0,266.0
1449617336746698803,-900.0,-826.0,246.0
1449617336761835847,-902.0,-828.0,262.0
1449617336773899744,-904.0,-830.0,245.0
1449617336787192456,-906.0,-830.0,252.0
1449617336803796517,-908.0,-832.0,243.0
1449617336819259977,-908.0,-834.0,243.0
1449617336830127169,-910.0,-834.0,255.0
1449617336850052746,-912.0,-836.0,231.0
1449617336863781685,-914.0,-836.0,247.0
1449617336883348111,-916.0,-838.0,239.0
1449617336892055979,-918.0,-838.0,245.0
1449617336908420467,-920.0,-840.0,241.0
1449617336921454523,-920.0,-842.0,235.0
1449617336942133471,-922.0,-842.0,252.0
1449617336955697305,-924.0,-844.0,235.0
1449617336966661672,-926.0,-846.0,248.0
1449617336981704539,-928.0,-846.0,239.0
1449617337005882025,-930.0,-846.0,244.0
1449617337018473153,-932.0,-848.0,243.0
1449617337029433790,-932.0,-850.0,234.0
1449617337045350874,-934.0,-850.0,254.0
1449617337060644366,-936.0,-852.0,236.0
1449617337075915170,-938.0,-854.0,251.0
1449617337092029043,-940.0,-854.0,246.0
1449617337100658822,-942.0,-856.0,249.0
1449617337117098014,-942.0,-856.0,250.0
1449617337134338833,-944.0,-858.0,234.0
1449617337145994313,-946.0,-858.0,253.0
1449617337168234217,-948.0,-860.0,238.0
1449617337174422683,-950.0,-862.0,247.0
1449617337193350207,-952.0,-862.0,240.0
1449617337207380819,-954.0,-864.0,246.0
1449617337219421826,-954.0,-866.0,256.0
1449617337236107320,-956.0,-866.0,233.0
1449617337252629340,-958.0,-866.0,251.0
1449617337266934133,-960.0,-868.0,241.0
1449617337280818996,-962.0,-870.0,255.0
1449617337303264639,-964.0,-870.0,246.0
1449617337310627899,-966.0,-872.0,254.0
1449617337341423348,-966.0,-874.0,262.0
1449617337344218279,-968.0,-874.0,237.0
1449617337356972305,-970.0,-876.0,261.0
1449617337375984869,-972.0,-876.0,241.0
1449617337387748157,-974.0,-878.0,254.0
1449617337401090277,-976.0,-878.0,246.0
1449617337416181823,-978.0,-880.0,249.0
1449617337433087244,-978.0,-882.0,256.0
1449617337444766371,-980.0,-882.0,237.0
1449617337461061996,-982.0,-884.0,255.0
1449617337481964305,-984.0,-886.0,235.0
1449617337490678640,-986.0,-886.0,246.0
1449617337506527067,-988.0,-888.0,238.0
1449617337522787937,-990.0,-888.0,295.0
1449617337535463761,-990.0,-890.0,251.0
1449617337552554442,-992.0,-890.0,232.0
1449617337563586489,-994.0,-892.0,248.0
1449617337580179153,-996.0,-894.0,236.0
1449617337596717220,-998.0,-894.0,246.0
1449617337611239704,-1000.0,-896.0,237.0
1449617337627807019,-1000.0,-896.0,231.0
1449617337649734900,-1002.0,-898.0,244.0
1449617337656671973,-1004.0,-898.0,228.0
1449617337672970768,-1006.0,-900.0,239.0
1449617337686938096,-1008.0,-902.0,230.0
1449617337698790542,-1010.0,-902.0,230.0
1449617337716547783,-1010.0,-904.0,243.0
1449617337732834390,-1012.0,-904.0,227.0
1449617337747419682,-1014.0,-906.0,239.0
1449617337760586601,-1016.0,-906.0,232.0
1449617337776690174,-1018.0,-908.0,237.0
1449617337790222564,-1018.0,-910.0,292.0
1449617337866923998,-1026.0,-914.0,240.0
1449617337940941563,-1034.0,-920.0,287.0
1449617337959266708,-1036.0,-920.0,230.0
1449617337974867094,-1038.0,-922.0,229.0
1449617337985563616,-1038.0,-922.0,246.0
1449617338002372430,-1040.0,-924.0,224.0
1449617338019126068,-1042.0,-924.0,281.0
1449617338033482448,-1042.0,-926.0,239.0
1449617338048070433,-1044.0,-926.0,269.0
1449617338063426226,-1046.0,-928.0,231.0
1449617338075574886,-1046.0,-928.0,283.0
1449617338098265847,-1048.0,-930.0,217.0
1449617338108345222,-1050.0,-930.0,271.0
1449617338122900780,-1050.0,-932.0,232.0
1449617338139321253,-1052.0,-932.0,222.0
1449617338149883015,-1054.0,-934.0,224.0
1449617338166214657,-1054.0,-934.0,274.0
1449617338183767676,-1056.0,-936.0,215.0
1449617338194693224,-1056.0,-936.0,256.0
1449617338211000287,-1058.0,-936.0,226.0
1449617338229956733,-1060.0,-938.0,266.0
1449617338240249403,-1060.0,-938.0,213.0
1449617338256495824,-1062.0,-940.0,275.0
1449617338272074327,-1062.0,-940.0,232.0
1449617338285460683,-1064.0,-942.0,264.0
1449617338302874005,-1066.0,-942.0,227.0
1449617338318033171,-1066.0,-942.0,280.0
1449617338329622909,-1068.0,-944.0,220.0
1449617338346420067,-1068.0,-944.0,254.0
1449617338362610451,-1070.0,-946.0,232.0
1449617338375000684,-1070.0,-946.0,287.0
1449617338394178480,-1072.0,-946.0,226.0
1449617338409444602,-1072.0,-948.0,223.0
1449617338419789751,-1074.0,-948.0,239.0
1449617338446185754,-1074.0,-950.0,277.0
1449617338452681749,-1076.0,-950.0,229.0
1449617338468032625,-1078.0,-950.0,283.0
1449617338483000789,-1078.0,-952.0,240.0
1449617338498534806,-1080.0,-952.0,281.0
1449617338510636524,-1080.0,-954.0,223.0
1449617338526341147,-1082.0,-954.0,285.0
1449617338538489186,-1082.0,-954.0,244.0
1449617338555572861,-1084.0,-956.0,290.0
1449617338571980037,-1084.0,-956.0,222.0
1449617338583724994,-1086.0,-956.0,293.0
1449617338600290431,-1086.0,-958.0,240.0
1449617338616673801,-1086.0,-958.0,283.0
1449617338632213171,-1088.0,-958.0,227.0
1449617338645898594,-1088.0,-960.0,260.0
1449617338661660686,-1090.0,-960.0,233.0
1449617338673752788,-1090.0,-960.0,236.0
1449617338698189283,-1092.0,-962.0,227.0
1449617338710014593,-1092.0,-962.0,268.0
1449617338718743923,-1094.0,-962.0,233.0
1449617338737303789,-1094.0,-964.0,284.0
1449617338751857263,-1094.0,-964.0,231.0
1449617338768742962,-1096.0,-964.0,272.0
1449617338780221747,-1096.0,-964.0,212.0
1449617338799241376,-1098.0,-966.0,270.0
1449617338808815640,-1098.0,-966.0,235.0
1449617338825357986,-1098.0,-966.0,234.0
1449617338841479974,-1100.0,-968.0,215.0
1449617338853938471,-1100.0,-968.0,208.0
1449617338873900667,-1102.0,-968.0,225.0
1449617338886597861,-1102.0,-968.0,228.0
1449617338899229266,-1102.0,-970.0,231.0
1449617338915735324,-1104.0,-970.0,218.0
1449617338927942563,-1104.0,-970.0,210.0
1449617338948660506,-1104.0,-970.0,207.0
1449617338962172068,-1106.0,-970.0,229.0
1449617338973636869,-1106.0,-972.0,223.0
1449617338993432406,-1106.0,-972.0,224.0
1449617339007168997,-1106.0,-972.0,215.0
1449617339019460255,-1108.0,-972.0,212.0
1449617339035474419,-1108.0,-974.0,209.0
1449617339051418984,-1108.0,-974.0,202.0
1449617339065183913,-1110.0,-974.0,221.0
1449617339080160996,-1110.0,-974.0,226.0
1449617339098915795,-1110.0,-974.0,223.0
1449617339107999828,-1110.0,-974.0,224.0
1449617339124336547,-1110.0,-976.0,224.0
1449617339141101726,-1112.0,-976.0,213.0
1449617339153161220,-1112.0,-976.0,216.0
1449617339169444703,-1112.0,-976.0,208.0
1449617339188152310,-1112.0,-976.0,215.0
1449617339198762834,-1112.0,-976.0,210.0
1449617339214489949,-1114.0,-976.0,220.0
1449617339231134305,-1114.0,-976.0,218.0
1449617339245735427,-1114.0,-978.0,215.0
1449617339260556069,-1114.0,-978.0,220.0
1449617339275946523,-1114.0,-978.0,226.0
1449617339290775123,-1114.0,-978.0,229.0
1449617339309780801,-1114.0,-978.0,228.0
1449617339319828374,-1114.0,-978.0,220.0
1449617339333648561,-1114.0,-978.0,227.0
1449617339350339962,-1116.0,-978.0,218.0
1449617339363607462,-1116.0,-978.0,216.0
1449617339380235270,-1116.0,-978.0,210.0
1449617339397952045,-1116.0,-978.0,211.0
1449617339407027008,-1116.0,-978.0,214.0
1449617339423422304,-1116.0,-978.0,206.0
1449617339439802352,-1116.0,-978.0,215.0
1449617339452052151,-1116.0,-978.0,212.0
1449617339468578943,-1116.0,-978.0,211.0
1449617339485342678,-1116.0,-978.0,212.0
1449617339497095817,-1116.0,-978.0,213.0
1449617339518240608,-1116.0,-978.0,210.0
1449617339530101869,-1116.0,-978.0,212.0
1449617339543567467,-1116.0,-978.0,213.0
1449617339559689319,-1116.0,-978.0,211.0
1449617339575263578,-1116.0,-978.0,215.0
1449617339589548852,-1116.0,-978.0,215.0
1449617339607742913,-1116.0,-978.0,214.0
1449617339619894042,-1116.0,-978.0,215.0
1449617339632699127,-1116.0,-978.0,213.0
1449617339651999870,-1116.0,-978.0,213.0
1449617339666478736,-1116.0,-978.0,214.0
1449617339677235836,-1116.0,-978.0,218.0
1449617339697871972,-1116.0,-978.0,219.0
1449617339706362116,-1116.0,-978.0,219.0
1449617339723544049,-1116.0,-978.0,216.0
1449617339741872831,-1116.0,-978.0,219.0
1449617339753106520,-1116.0,-978.0,220.0
1449617339767731548,-1116.0,-978.0,217.0
1449617339785619939,-1116.0,-978.0,220.0
1449617339798334178,-1116.0,-978.0,218.0
1449617339813794809,-1116.0,-978.0,218.0
1449617339829347027,-1116.0,-978.0,217.0
1449617339842443208,-1116.0,-978.0,222.0
1449617339862825404,-1116.0,-978.0,221.0
1449617339880960713,-1116.0,-978.0,222.0
1449617339886562401,-1116.0,-978.0,220.0
1449617339902827039,-1116.0,-978.0,219.0
1449617339919019331,-1116.0,-978.0,220.0
1449617339932308526,-1116.0,-978.0,225.0
1449617339948041950,-1116.0,-978.0,222.0
1449617339964516694,-1116.0,-978.0,220.0
1449617339976431926,-1116.0,-978.0,228.0
1449617339992848565,-1116.0,-978.0,228.0
1449617340009349253,-1116.0,-978.0,224.0
1449617340021783963,-1116.0,-978.0,222.0
1449617340037915066,-1116.0,-978.0,231.0
1449617340054442446,-1116.0,-978.0,227.0
1449617340066708943,-1116.0,-978.0,223.0
1449617340084014410,-1116.0,-978.0,222.0
1449617340096491327,-1116.0,-978.0,223.0
1449617340121881279,-1116.0,-978.0,217.0
1449617340129969292,-1116.0,-978.0,220.0
1449617340140400479,-1116.0,-978.0,222.0
1449617340156892535,-1116.0,-978.0,226.0
1449617340177429577,-1116.0,-978.0,219.0
1449617340185604837,-1116.0,-978.0,227.0
1449617340201684175,-1116.0,-978.0,225.0
1449617340219348851,-1116.0,-978.0,224.0
1449617340230565107,-1116.0,-978.0,220.0
1449617340246717247,-1116.0,-978.0,222.0
1449617340265618141,-1116.0,-978.0,225.0
1449617340275822589,-1116.0,-978.0,222.0
1449617340294847751,-1116.0,-978.0,231.0
1449617340312381123,-1116.0,-978.0,228.0
1449617340320467341,-1116.0,-978.0,226.0
1449617340336910699,-1116.0,-978.0,226.0
1449617340353455696,-1116.0,-978.0,225.0
1449617340365617809,-1116.0,-978.0,228.0
1449617340389542349,-1116.0,-978.0,223.0
1449617340398271915,-1116.0,-978.0,225.0
1449617340415575302,-1116.0,-978.0,228.0
1449617340431283574,-1116.0,-978.0,224.0
1449617340445612631,-1116.0,-978.0,225.0
1449617340460947293,-1116.0,-978.0,226.0
1449617340472326441,-1116.0,-978.0,227.0
1449617340491363931,-1116.0,-978.0,222.0
1449617340505612048,-1116.0,-978.0,228.0
1449617340519722015,-1116.0,-978.0,230.0
1449617340533725416,-1116.0,-978.0,226.0
1449617340549783296,-1116.0,-978.0,228.0
1449617340562711030,-1116.0,-978.0,229.0
1449617340580062232,-1116.0,-978.0,223.0
1449617340595254728,-1116.0,-978.0,229.0
1449617340607793698,-1116.0,-978.0,221.0
1449617340624926713,-1116.0,-978.0,227.0
1449617340641956946,-1116.0,-978.0,228.0
1449617340653829745,-1116.0,-978.0,229.0
1449617340669803931,-1116.0,-978.0,228.0
1449617340685139741,-1116.0,-978.0,228.0
1449617340699380991,-1116.0,-978.0,227.0
1449617340714282830,-1116.0,-978.0,234.0
1449617340730340576,-1116.0,-978.0,231.0
1449617340742501532,-1116.0,-978.0,228.0
1449617340761638343,-1116.0,-978.0,225.0
1449617340775913990,-1116.0,-978.0,231.0
1449617340788437806,-1116.0,-978.0,228.0
1449617340803836201,-1116.0,-978.0,231.0
1449617340820231325,-1116.0,-978.0,229.0
1449617340834053244,-1116.0,-978.0,229.0
1449617340849194287,-1116.0,-978.0,231.0
1449617340861658393,-1116.0,-978.0,227.0
1449617340880005454,-1116.0,-978.0,228.0
1449617340898751026,-1116.0,-978.0,226.0
1449617340907829319,-1116.0,-978.0,228.0
1449617340923024903,-1116.0,-978.0,231.0
1449617340940494379,-1116.0,-978.0,229.0
1449617340956343012,-1116.0,-978.0,229.0
1449617340970989983,-1116.0,-978.0,228.0
1449617340990963594,-1116.0,-978.0,227.0
1449617340996487914,-1116.0,-978.0,230.0
1449617341013623312,-1116.0,-978.0,226.0
1449617341029886688,-1116.0,-978.0,231.0
1449617341042288181,-1116.0,-978.0,230.0
1449617341058867016,-1116.0,-978.0,232.0
1449617341074311720,-1116.0,-978.0,228.0
1449617341087026453,-1116.0,-978.0,230.0
1449617341103764863,-1116.0,-978.0,234.0
1449617341120040015,-1116.0,-978.0,230.0
1449617341133985324,-1116.0,-978.0,232.0
1449617341148996927,-1116.0,-978.0,231.0
1449617341165553522,-1116.0,-978.0,232.0
1449617341177081097,-1116.0,-978.0,230.0
1449617341193653162,-1116.0,-978.0,219.0
1449617341209328190,-1116.0,-978.0,230.0
1449617341222540148,-1116.0,-978.0,233.0
1449617341238341861,-1116.0,-978.0,238.0
1449617341251638623,-1116.0,-978.0,232.0
1449617341268835143,-1116.0,-978.0,228.0
1449617341283440042,-1116.0,-978.0,226.0
1449617341295932608,-1116.0,-978.0,232.0
1449617341311839233,-1116.0,-978.0,230.0
1449617341333713418,-1116.0,-978.0,229.0
1449617341341744169,-1116.0,-978.0,233.0
1449617341360115542,-1116.0,-978.0,232.0
1449617341373617119,-1116.0,-978.0,233.0
1449617341385476997,-1116.0,-978.0,235.0
1449617341402533591,-1116.0,-978.0,228.0
1449617341419095504,-1116.0,-978.0,233.0
1449617341435997200,-1116.0,-978.0,232.0
1449617341463513665,-1116.0,-978.0,234.0
1449617341537794888,-1116.0,-978.0,235.0
1449617341557215574,-1116.0,-978.0,234.0
1449617341570096587,-1116.0,-978.0,230.0
1449617341584871015,-1116.0,-978.0,237.0
1449617341600551086,-1116.0,-978.0,236.0
1449617341617001653,-1116.0,-978.0,234.0
1449617341628244895,-1116.0,-978.0,232.0
1449617341644003218,-1116.0,-978.0,228.0
1449617341659910410,-1116.0,-978.0,234.0
1449617341673085461,-1116.0,-978.0,232.0
1449617341688968681,-1116.0,-978.0,229.0
1449617341705611860,-1116.0,-978.0,231.0
1449617341717588488,-1116.0,-978.0,234.0
1449617341733676708,-1116.0,-978.0,237.0
1449617341751914560,-1116.0,-978.0,239.0
1449617341763315885,-1116.0,-978.0,234.0
1449617341778723182,-1116.0,-978.0,231.0
1449617341795414996,-1116.0,-978.0,234.0
1449617341807385751,-1116.0,-978.0,232.0
1449617341825842774,-1116.0,-978.0,229.0
1449617341836047966,-1116.0,-978.0,234.0
1449617341854469253,-1116.0,-978.0,233.0
1449617341869622334,-1116.0,-978.0,234.0
1449617341882345283,-1116.0,-978.0,234.0
1449617341897699110,-1116.0,-978.0,233.0
1449617341918456888,-1116.0,-978.0,234.0
1449617341930227038,-1116.0,-978.0,236.0
1449617341948379281,-1116.0,-978.0,238.0
1449617341959113435,-1116.0,-978.0,238.0
1449617341972376956,-1116.0,-978.0,234.0
1449617341987931541,-1116.0,-978.0,236.0
1449617342005613657,-1116.0,-978.0,234.0
1449617342016718125,-1116.0,-978.0,233.0
1449617342033208248,-1116.0,-978.0,236.0
1449617342051490127,-1116.0,-978.0,233.0
1449617342061539725,-1116.0,-978.0,237.0
1449617342078093090,-1116.0,-978.0,236.0
1449617342098146294,-1116.0,-978.0,237.0
1449617342108786435,-1116.0,-978.0,232.0
1449617342129070246,-1116.0,-978.0,238.0
1449617342140007722,-1116.0,-978.0,237.0
1449617342151662039,-1116.0,-978.0,237.0
1449617342170099758,-1116.0,-978.0,238.0
1449617342184544524,-1116.0,-978.0,236.0
1449617342196660571,-1116.0,-978.0,234.0
1449617342213098696,-1116.0,-978.0,232.0
1449617342225678619,-1116.0,-978.0,238.0
1449617342249778666,-1116.0,-978.0,234.0
1449617342260592564,-1116.0,-978.0,235.0
1449617342271123900,-1116.0,-978.0,235.0
1449617342290626342,-1116.0,-978.0,236.0
1449617342303555989,-1116.0,-978.0,232.0
1449617342315943720,-1116.0,-978.0,237.0
1449617342331909096,-1116.0,-978.0,234.0
1449617342348632579,-1116.0,-978.0,237.0
