%time,field.header.seq,field.header.stamp,field.header.frame_id,field.ns,field.id,field.type,field.action,field.pose.position.x,field.pose.position.y,field.pose.position.z,field.pose.orientation.x,field.pose.orientation.y,field.pose.orientation.z,field.pose.orientation.w,field.scale.x,field.scale.y,field.scale.z,field.color.r,field.color.g,field.color.b,field.color.a,field.lifetime,field.frame_locked,field.text,field.mesh_resource,field.mesh_use_embedded_materials
1449617323437960315,0,1449617323419039083,/odom,doorways,20,0,0,0.0,0.0,0.0,0.0,0.0,0.0,1.0,0.25,0.15,0.0,1.0,0.0,0.0,1.0,2000000000,0,,,0
1449617323802261291,1,1449617323801984115,/odom,doorways,20,0,0,0.0,0.0,0.0,0.0,0.0,0.0,1.0,0.25,0.15,0.0,1.0,0.0,0.0,1.0,2000000000,0,,,0
1449617324112629465,2,1449617324111351986,/odom,doorways,20,0,0,0.0,0.0,0.0,0.0,0.0,0.0,1.0,0.25,0.15,0.0,1.0,0.0,0.0,1.0,2000000000,0,,,0
1449617324519815767,3,1449617324519222789,/odom,doorways,20,0,0,0.0,0.0,0.0,0.0,0.0,0.0,1.0,0.25,0.15,0.0,1.0,0.0,0.0,1.0,2000000000,0,,,0
1449617324807953315,4,1449617324807698534,/odom,doorways,20,0,0,0.0,0.0,0.0,0.0,0.0,0.0,1.0,0.25,0.15,0.0,1.0,0.0,0.0,1.0,2000000000,0,,,0
1449617324936818232,5,1449617324936714749,/odom,doorways,20,0,0,0.0,0.0,0.0,0.0,0.0,0.0,1.0,0.25,0.15,0.0,1.0,0.0,0.0,1.0,2000000000,0,,,0
1449617325123693244,6,1449617325123191729,/odom,doorways,20,0,0,0.0,0.0,0.0,0.0,0.0,0.0,1.0,0.25,0.15,0.0,1.0,0.0,0.0,1.0,2000000000,0,,,0
1449617325644575063,7,1449617325636768404,/odom,doorways,20,0,0,0.0,0.0,0.0,0.0,0.0,0.0,1.0,0.25,0.15,0.0,1.0,0.0,0.0,1.0,2000000000,0,,,0
1449617326139712938,8,1449617326139380760,/odom,doorways,20,0,0,0.0,0.0,0.0,0.0,0.0,0.0,1.0,0.25,0.15,0.0,1.0,0.0,0.0,1.0,2000000000,0,,,0
1449617326961446032,9,1449617326961127013,/odom,doorways,20,0,0,0.0,0.0,0.0,0.0,0.0,0.0,1.0,0.25,0.15,0.0,1.0,0.0,0.0,1.0,2000000000,0,,,0
1449617327360296691,10,1449617327359974565,/odom,doorways,20,0,0,0.0,0.0,0.0,0.0,0.0,0.0,1.0,0.25,0.15,0.0,1.0,0.0,0.0,1.0,2000000000,0,,,0
1449617327967583379,11,1449617327966554671,/odom,doorways,20,0,0,0.00863905817453,6.08664578733e-05,0.0,0.0,0.0,0.0052839997518,0.999986039576,0.25,0.15,0.0,1.0,0.0,0.0,1.0,2000000000,0,,,0
1449617328355524435,12,1449617328354829504,/odom,doorways,20,0,0,0.0431957733069,-9.129968681e-05,0.0,0.0,0.0,-0.0052839997518,0.999986039576,0.25,0.15,0.0,1.0,0.0,0.0,1.0,2000000000,0,,,0
1449617328529414840,13,1449617328529004611,/odom,doorways,20,0,0,0.0691090884822,-0.000578207557759,0.0,0.0,0.0,-0.0105678519699,0.999944158693,0.25,0.15,0.0,1.0,0.0,0.0,1.0,2000000000,0,,,0
1449617328865650574,14,1449617328865284901,/odom,doorways,20,0,0,0.141082211663,-0.00231274526213,0.0,0.0,0.0,-0.0158514091245,0.999874358521,0.25,0.15,0.0,1.0,0.0,0.0,1.0,2000000000,0,,,0
1449617329661782335,15,1449617329658063080,/odom,doorways,20,0,0,0.342404078302,-0.0122901308541,0.0,0.0,0.0,-0.0369797368913,0.999316015612,0.25,0.15,0.0,1.0,0.0,0.0,1.0,2000000000,0,,,0
1449617329661799502,16,1449617329658081850,/odom,doorways,20,0,0,0.342404078302,-0.0122901308541,0.0,0.0,0.0,-0.0369797368913,0.999316015612,0.25,0.15,0.0,1.0,0.0,0.0,1.0,2000000000,0,,,0
1449617329828113403,17,1449617329827934343,/odom,doorways,20,0,0,0.408456566179,-0.0171853852239,0.0,0.0,0.0,-0.042259606217,0.999106663816,0.25,0.15,0.0,1.0,0.0,0.0,1.0,2000000000,0,,,0
1449617330120267942,18,1449617330116488696,/odom,doorways,20,0,0,0.442897883569,-0.0200125359703,0.0,0.0,0.0,-0.042259606217,0.999106663816,0.25,0.15,0.0,1.0,0.0,0.0,1.0,2000000000,0,,,0
1449617330120271285,19,1449617330116627413,/odom,doorways,20,0,0,0.442897883569,-0.0200125359703,0.0,0.0,0.0,-0.042259606217,0.999106663816,0.25,0.15,0.0,1.0,0.0,0.0,1.0,2000000000,0,,,0
1449617330349622706,20,1449617330347798697,/odom,doorways,20,0,0,0.563269463134,-0.031801733305,0.0,0.0,0.0,-0.0528156577107,0.998604279132,0.25,0.15,0.0,1.0,0.0,0.0,1.0,2000000000,0,,,0
1449617330569206306,21,1449617330539284191,/odom,doorways,20,0,0,0.611884460092,-0.0375706711988,0.0,0.0,0.0,-0.0580915451448,0.99831126027,0.25,0.15,0.0,1.0,0.0,0.0,1.0,2000000000,0,,,0
1449617330569229345,22,1449617330539295937,/odom,doorways,20,0,0,0.611884460092,-0.0375706711988,0.0,0.0,0.0,-0.0580915451448,0.99831126027,0.25,0.15,0.0,1.0,0.0,0.0,1.0,2000000000,0,,,0
1449617331345080872,23,1449617331344723679,/odom,doorways,20,0,0,0.859639979447,-0.0746504451457,0.0,0.0,0.0,-0.0844437083633,0.996428251365,0.25,0.15,0.0,1.0,0.0,0.0,1.0,2000000000,0,,,0
1449617331345084383,24,1449617331344731700,/odom,doorways,20,0,0,0.859639979447,-0.0746504451457,0.0,0.0,0.0,-0.0844437083633,0.996428251365,0.25,0.15,0.0,1.0,0.0,0.0,1.0,2000000000,0,,,0
1449617331556957412,25,1449617331551425839,/odom,doorways,20,0,0,0.913522919848,-0.084158016633,0.0,0.0,0.0,-0.0897076561262,0.99596814027,0.25,0.15,0.0,1.0,0.0,0.0,1.0,2000000000,0,,,0
1449617331714592865,26,1449617331713197239,/odom,doorways,20,0,0,0.913522919848,-0.084158016633,0.0,0.0,0.0,-0.0897076561262,0.99596814027,0.25,0.15,0.0,1.0,0.0,0.0,1.0,2000000000,0,,,0
1449617331714597811,27,1449617331713212103,/odom,doorways,20,0,0,0.913522919848,-0.084158016633,0.0,0.0,0.0,-0.0897076561262,0.99596814027,0.25,0.15,0.0,1.0,0.0,0.0,1.0,2000000000,0,,,0
1449617331830982618,28,1449617331828469573,/odom,doorways,20,0,0,0.998368569394,-0.100433319951,0.0,0.0,0.0,-0.100227890607,0.994964506877,0.25,0.15,0.0,1.0,0.0,0.0,1.0,2000000000,0,,,0
1449617332014508286,29,1449617332013609784,/odom,doorways,20,0,0,1.05757937676,-0.112733289297,0.0,0.0,0.0,-0.10548388359,0.994421012601,0.25,0.15,0.0,1.0,0.0,0.0,1.0,2000000000,0,,,0
1449617332014512126,30,1449617332013620831,/odom,doorways,20,0,0,1.05757937676,-0.112733289297,0.0,0.0,0.0,-0.10548388359,0.994421012601,0.25,0.15,0.0,1.0,0.0,0.0,1.0,2000000000,0,,,0
1449617369064136709,31,1449617369064020503,/odom,doorways,20,0,0,3.95883210701,0.458309167776,0.0,0.0,0.0,-0.042259606217,0.999106663816,0.25,0.15,0.0,1.0,0.0,0.0,1.0,2000000000,0,,,0
1449617369065204922,32,1449617369064429343,/odom,doorways,20,0,0,3.95883210701,0.458309167776,0.0,0.0,0.0,-0.042259606217,0.999106663816,0.25,0.15,0.0,1.0,0.0,0.0,1.0,2000000000,0,,,0
1449617369245774805,33,1449617369245584727,/odom,doorways,20,0,0,4.01331179502,0.453234075501,0.0,0.0,0.0,-0.0475382956186,0.998869416115,0.25,0.15,0.0,1.0,0.0,0.0,1.0,2000000000,0,,,0
1449617369357038192,34,1449617369356929569,/odom,doorways,20,0,0,4.03335788357,0.451107673058,0.0,0.0,0.0,-0.0528156577107,0.998604279132,0.25,0.15,0.0,1.0,0.0,0.0,1.0,2000000000,0,,,0
1449617369544276166,35,1449617369542860951,/odom,doorways,20,0,0,4.08201765057,0.445731827483,0.0,0.0,0.0,-0.0580915451448,0.99831126027,0.25,0.15,0.0,1.0,0.0,0.0,1.0,2000000000,0,,,0
1449617369544296114,36,1449617369542871501,/odom,doorways,20,0,0,4.08201765057,0.445731827483,0.0,0.0,0.0,-0.0580915451448,0.99831126027,0.25,0.15,0.0,1.0,0.0,0.0,1.0,2000000000,0,,,0
1449617369751620891,37,1449617369751231172,/odom,doorways,20,0,0,4.133572607,0.440354912406,0.0,0.0,0.0,-0.0475382956186,0.998869416115,0.25,0.15,0.0,1.0,0.0,0.0,1.0,2000000000,0,,,0
1449617369839203974,38,1449617369838917769,/odom,doorways,20,0,0,4.15650682489,0.438166981428,0.0,0.0,0.0,-0.0475382956186,0.998869416115,0.25,0.15,0.0,1.0,0.0,0.0,1.0,2000000000,0,,,0
1449617369964629362,39,1449617369964385871,/odom,doorways,20,0,0,4.1737074883,0.436526033194,0.0,0.0,0.0,-0.0475382956186,0.998869416115,0.25,0.15,0.0,1.0,0.0,0.0,1.0,2000000000,0,,,0
1449617369964840409,40,1449617369964399239,/odom,doorways,20,0,0,4.1737074883,0.436526033194,0.0,0.0,0.0,-0.0475382956186,0.998869416115,0.25,0.15,0.0,1.0,0.0,0.0,1.0,2000000000,0,,,0
1449617370165673388,41,1449617370163976038,/odom,doorways,20,0,0,4.21099197317,0.433152511053,0.0,0.0,0.0,-0.042259606217,0.999106663816,0.25,0.15,0.0,1.0,0.0,0.0,1.0,2000000000,0,,,0
1449617370380935302,42,1449617370380531570,/odom,doorways,20,0,0,4.23394803211,0.431207067671,0.0,0.0,0.0,-0.042259606217,0.999106663816,0.25,0.15,0.0,1.0,0.0,0.0,1.0,2000000000,0,,,0
1449617370380991670,43,1449617370380630496,/odom,doorways,20,0,0,4.23394803211,0.431207067671,0.0,0.0,0.0,-0.042259606217,0.999106663816,0.25,0.15,0.0,1.0,0.0,0.0,1.0,2000000000,0,,,0
1449617370573782378,44,1449617370572916552,/odom,doorways,20,0,0,4.23394803211,0.431207067671,0.0,0.0,0.0,-0.042259606217,0.999106663816,0.25,0.15,0.0,1.0,0.0,0.0,1.0,2000000000,0,,,0
1449617370784763937,45,1449617370784424449,/odom,doorways,20,0,0,4.25692063792,0.429474014821,0.0,0.0,0.0,-0.0316988350601,0.999497465658,0.25,0.15,0.0,1.0,0.0,0.0,1.0,2000000000,0,,,0
1449617370784793786,46,1449617370784431301,/odom,doorways,20,0,0,4.25692063792,0.429474014821,0.0,0.0,0.0,-0.0316988350601,0.999497465658,0.25,0.15,0.0,1.0,0.0,0.0,1.0,2000000000,0,,,0
1449617371011553115,47,1449617371010834784,/odom,doorways,20,0,0,4.25691919115,0.429443615575,0.0,0.0,0.0,-0.0211345236944,0.999776641009,0.25,0.15,0.0,1.0,0.0,0.0,1.0,2000000000,0,,,0
1449617371249965255,48,1449617371249869311,/odom,doorways,20,0,0,4.25979801964,0.429382759313,0.0,0.0,0.0,-0.0052839997518,0.999986039576,0.25,0.15,0.0,1.0,0.0,0.0,1.0,2000000000,0,,,0
1449617371250322698,49,1449617371250176955,/odom,doorways,20,0,0,4.25979801964,0.429382759313,0.0,0.0,0.0,-0.0052839997518,0.999986039576,0.25,0.15,0.0,1.0,0.0,0.0,1.0,2000000000,0,,,0
1449617371474144028,50,1449617371473866497,/odom,doorways,20,0,0,4.25979818045,0.429352326084,0.0,0.0,0.0,0.0052839997518,0.999986039576,0.25,0.15,0.0,1.0,0.0,0.0,1.0,2000000000,0,,,0
1449617371686021736,51,1449617371685911420,/odom,doorways,20,0,0,4.26267845592,0.429382776305,0.0,0.0,0.0,0.0211345236944,0.999776641009,0.25,0.15,0.0,1.0,0.0,0.0,1.0,2000000000,0,,,0
1449617371686026933,52,1449617371685918156,/odom,doorways,20,0,0,4.26267845592,0.429382776305,0.0,0.0,0.0,0.0211345236944,0.999776641009,0.25,0.15,0.0,1.0,0.0,0.0,1.0,2000000000,0,,,0
1449617371869717529,53,1449617371869252979,/odom,doorways,20,0,0,4.26842373717,0.429778054903,0.0,0.0,0.0,0.042259606217,0.999106663816,0.25,0.15,0.0,1.0,0.0,0.0,1.0,2000000000,0,,,0
1449617371869755081,54,1449617371869352918,/odom,doorways,20,0,0,4.26842373717,0.429778054903,0.0,0.0,0.0,0.042259606217,0.999106663816,0.25,0.15,0.0,1.0,0.0,0.0,1.0,2000000000,0,,,0
1449617371869781080,55,1449617371869437920,/odom,doorways,20,0,0,4.26842373717,0.429778054903,0.0,0.0,0.0,0.042259606217,0.999106663816,0.25,0.15,0.0,1.0,0.0,0.0,1.0,2000000000,0,,,0
1449617371869787622,56,1449617371869531593,/odom,doorways,20,0,0,4.26842373717,0.429778054903,0.0,0.0,0.0,0.042259606217,0.999106663816,0.25,0.15,0.0,1.0,0.0,0.0,1.0,2000000000,0,,,0
1449617372080621658,57,1449617372080509891,/odom,doorways,20,0,0,4.26842373717,0.429778054903,0.0,0.0,0.0,0.042259606217,0.999106663816,0.25,0.15,0.0,1.0,0.0,0.0,1.0,2000000000,0,,,0
1449617372080624753,58,1449617372080517581,/odom,doorways,20,0,0,4.26842373717,0.429778054903,0.0,0.0,0.0,0.042259606217,0.999106663816,0.25,0.15,0.0,1.0,0.0,0.0,1.0,2000000000,0,,,0
1449617372080691537,59,1449617372080556257,/odom,doorways,20,0,0,4.26842373717,0.429778054903,0.0,0.0,0.0,0.042259606217,0.999106663816,0.25,0.15,0.0,1.0,0.0,0.0,1.0,2000000000,0,,,0
1449617372080699605,60,1449617372080563002,/odom,doorways,20,0,0,4.26842373717,0.429778054903,0.0,0.0,0.0,0.042259606217,0.999106663816,0.25,0.15,0.0,1.0,0.0,0.0,1.0,2000000000,0,,,0
1449617372247213106,61,1449617372247132848,/odom,doorways,20,0,0,4.26558946215,0.429294121664,0.0,0.0,0.0,0.100227890607,0.994964506877,0.25,0.15,0.0,1.0,0.0,0.0,1.0,2000000000,0,,,0
1449617372247304290,62,1449617372247219137,/odom,doorways,20,0,0,4.26558946215,0.429294121664,0.0,0.0,0.0,0.100227890607,0.994964506877,0.25,0.15,0.0,1.0,0.0,0.0,1.0,2000000000,0,,,0
1449617372247340816,63,1449617372247291589,/odom,doorways,20,0,0,4.26558946215,0.429294121664,0.0,0.0,0.0,0.100227890607,0.994964506877,0.25,0.15,0.0,1.0,0.0,0.0,1.0,2000000000,0,,,0
1449617372247423269,64,1449617372247361123,/odom,doorways,20,0,0,4.26558946215,0.429294121664,0.0,0.0,0.0,0.100227890607,0.994964506877,0.25,0.15,0.0,1.0,0.0,0.0,1.0,2000000000,0,,,0
1449617372493752550,65,1449617372493601387,/odom,doorways,20,0,0,4.26280180162,0.428571516621,0.0,0.0,0.0,0.136952861975,0.990577565664,0.25,0.15,0.0,1.0,0.0,0.0,1.0,2000000000,0,,,0
1449617372493759911,66,1449617372493687166,/odom,doorways,20,0,0,4.26280180162,0.428571516621,0.0,0.0,0.0,0.136952861975,0.990577565664,0.25,0.15,0.0,1.0,0.0,0.0,1.0,2000000000,0,,,0
1449617372709696363,67,1449617372700459747,/odom,doorways,20,0,0,4.26009536586,0.427587435984,0.0,0.0,0.0,0.173490486104,0.984835545272,0.25,0.15,0.0,1.0,0.0,0.0,1.0,2000000000,0,,,0
1449617372851775052,68,1449617372851553232,/odom,doorways,20,0,0,4.26009536586,0.427587435984,0.0,0.0,0.0,0.204621440688,0.978841185285,0.25,0.15,0.0,1.0,0.0,0.0,1.0,2000000000,0,,,0
1449617372851781218,69,1449617372851563924,/odom,doorways,20,0,0,4.26009536586,0.427587435984,0.0,0.0,0.0,0.204621440688,0.978841185285,0.25,0.15,0.0,1.0,0.0,0.0,1.0,2000000000,0,,,0
1449617373028417633,70,1449617373027550043,/odom,doorways,20,0,0,4.25748198812,0.4263784638,0.0,0.0,0.0,0.230408124366,0.973094083954,0.25,0.15,0.0,1.0,0.0,0.0,1.0,2000000000,0,,,0
1449617373028501265,71,1449617373027650260,/odom,doorways,20,0,0,4.25748198812,0.4263784638,0.0,0.0,0.0,0.230408124366,0.973094083954,0.25,0.15,0.0,1.0,0.0,0.0,1.0,2000000000,0,,,0
1449617373028562816,72,1449617373027753456,/odom,doorways,20,0,0,4.25748198812,0.4263784638,0.0,0.0,0.0,0.230408124366,0.973094083954,0.25,0.15,0.0,1.0,0.0,0.0,1.0,2000000000,0,,,0
1449617373028624606,73,1449617373027840207,/odom,doorways,20,0,0,4.25748198812,0.4263784638,0.0,0.0,0.0,0.230408124366,0.973094083954,0.25,0.15,0.0,1.0,0.0,0.0,1.0,2000000000,0,,,0
1449617373119598799,74,1449617373119359106,/odom,doorways,20,0,0,4.25748198812,0.4263784638,0.0,0.0,0.0,0.240678772307,0.970604826158,0.25,0.15,0.0,1.0,0.0,0.0,1.0,2000000000,0,,,0
1449617373119789500,75,1449617373119556067,/odom,doorways,20,0,0,4.25748198812,0.4263784638,0.0,0.0,0.0,0.240678772307,0.970604826158,0.25,0.15,0.0,1.0,0.0,0.0,1.0,2000000000,0,,,0
1449617373119929305,76,1449617373119741476,/odom,doorways,20,0,0,4.25748198812,0.4263784638,0.0,0.0,0.0,0.240678772307,0.970604826158,0.25,0.15,0.0,1.0,0.0,0.0,1.0,2000000000,0,,,0
1449617373270711216,77,1449617373270248251,/odom,doorways,20,0,0,4.25497975535,0.42495296725,0.0,0.0,0.0,0.266235292001,0.963908070976,0.25,0.15,0.0,1.0,0.0,0.0,1.0,2000000000,0,,,0
1449617373270716638,78,1449617373270259204,/odom,doorways,20,0,0,4.25497975535,0.42495296725,0.0,0.0,0.0,0.266235292001,0.963908070976,0.25,0.15,0.0,1.0,0.0,0.0,1.0,2000000000,0,,,0
1449617373270719474,79,1449617373270488717,/odom,doorways,20,0,0,4.25497975535,0.42495296725,0.0,0.0,0.0,0.266235292001,0.963908070976,0.25,0.15,0.0,1.0,0.0,0.0,1.0,2000000000,0,,,0
1449617373270747680,80,1449617373270512619,/odom,doorways,20,0,0,4.25497975535,0.42495296725,0.0,0.0,0.0,0.266235292001,0.963908070976,0.25,0.15,0.0,1.0,0.0,0.0,1.0,2000000000,0,,,0
1449617373430871446,81,1449617373430435108,/odom,doorways,20,0,0,4.25494714777,0.425004359481,0.0,0.0,0.0,0.28654756392,0.958066017355,0.25,0.15,0.0,1.0,0.0,0.0,1.0,2000000000,0,,,0
1449617373430884865,82,1449617373430726118,/odom,doorways,20,0,0,4.25494714777,0.425004359481,0.0,0.0,0.0,0.28654756392,0.958066017355,0.25,0.15,0.0,1.0,0.0,0.0,1.0,2000000000,0,,,0
1449617373430888015,84,1449617373430736899,/odom,doorways,20,0,0,4.25494714777,0.425004359481,0.0,0.0,0.0,0.28654756392,0.958066017355,0.25,0.15,0.0,1.0,0.0,0.0,1.0,2000000000,0,,,0
1449617373501110949,85,1449617373500771809,/odom,doorways,20,0,0,4.25018419427,0.42176612158,0.0,0.0,0.0,0.296656262579,0.954984325459,0.25,0.15,0.0,1.0,0.0,0.0,1.0,2000000000,0,,,0
1449617373501162484,87,1449617373500781987,/odom,doorways,20,0,0,4.25018419427,0.42176612158,0.0,0.0,0.0,0.296656262579,0.954984325459,0.25,0.15,0.0,1.0,0.0,0.0,1.0,2000000000,0,,,0
1449617373633933749,88,1449617373633037417,/odom,doorways,20,0,0,4.2525218391,0.423447422739,0.0,0.0,0.0,0.311756837497,0.950161920029,0.25,0.15,0.0,1.0,0.0,0.0,1.0,2000000000,0,,,0
1449617373633938786,89,1449617373633054327,/odom,doorways,20,0,0,4.2525218391,0.423447422739,0.0,0.0,0.0,0.311756837497,0.950161920029,0.25,0.15,0.0,1.0,0.0,0.0,1.0,2000000000,0,,,0
1449617373633942790,90,1449617373633117833,/odom,doorways,20,0,0,4.2525218391,0.423447422739,0.0,0.0,0.0,0.311756837497,0.950161920029,0.25,0.15,0.0,1.0,0.0,0.0,1.0,2000000000,0,,,0
1449617373633959534,91,1449617373633131464,/odom,doorways,20,0,0,4.2525218391,0.423447422739,0.0,0.0,0.0,0.311756837497,0.950161920029,0.25,0.15,0.0,1.0,0.0,0.0,1.0,2000000000,0,,,0
1449617373820089697,92,1449617373819940289,/odom,doorways,20,0,0,4.25025783953,0.421669232893,0.0,0.0,0.0,0.336748510342,0.941594626568,0.25,0.15,0.0,1.0,0.0,0.0,1.0,2000000000,0,,,0
1449617373820093849,93,1449617373819963476,/odom,doorways,20,0,0,4.25025783953,0.421669232893,0.0,0.0,0.0,0.336748510342,0.941594626568,0.25,0.15,0.0,1.0,0.0,0.0,1.0,2000000000,0,,,0
1449617373820109094,95,1449617373819996885,/odom,doorways,20,0,0,4.25025783953,0.421669232893,0.0,0.0,0.0,0.336748510342,0.941594626568,0.25,0.15,0.0,1.0,0.0,0.0,1.0,2000000000,0,,,0
1449617374028377987,96,1449617374028044604,/odom,doorways,20,0,0,4.24809091615,0.419773950278,0.0,0.0,0.0,0.361505138712,0.932370116791,0.25,0.15,0.0,1.0,0.0,0.0,1.0,2000000000,0,,,0
1449617374028381704,97,1449617374028217145,/odom,doorways,20,0,0,4.24809091615,0.419773950278,0.0,0.0,0.0,0.361505138712,0.932370116791,0.25,0.15,0.0,1.0,0.0,0.0,1.0,2000000000,0,,,0
1449617374028540689,98,1449617374028362141,/odom,doorways,20,0,0,4.24809091615,0.419773950278,0.0,0.0,0.0,0.361505138712,0.932370116791,0.25,0.15,0.0,1.0,0.0,0.0,1.0,2000000000,0,,,0
1449617374028545223,99,1449617374028458276,/odom,doorways,20,0,0,4.24809091615,0.419773950278,0.0,0.0,0.0,0.361505138712,0.932370116791,0.25,0.15,0.0,1.0,0.0,0.0,1.0,2000000000,0,,,0
1449617374221467636,100,1449617374221345723,/odom,doorways,20,0,0,4.24806958318,0.419795655387,0.0,0.0,0.0,0.381129591614,0.924521624623,0.25,0.15,0.0,1.0,0.0,0.0,1.0,2000000000,0,,,0
1449617374221627655,101,1449617374221489349,/odom,doorways,20,0,0,4.24806958318,0.419795655387,0.0,0.0,0.0,0.381129591614,0.924521624623,0.25,0.15,0.0,1.0,0.0,0.0,1.0,2000000000,0,,,0
1449617374221651217,102,1449617374221596599,/odom,doorways,20,0,0,4.24806958318,0.419795655387,0.0,0.0,0.0,0.381129591614,0.924521624623,0.25,0.15,0.0,1.0,0.0,0.0,1.0,2000000000,0,,,0
1449617374221742982,103,1449617374221678000,/odom,doorways,20,0,0,4.24806958318,0.419795655387,0.0,0.0,0.0,0.381129591614,0.924521624623,0.25,0.15,0.0,1.0,0.0,0.0,1.0,2000000000,0,,,0
1449617374424639862,104,1449617374424016188,/odom,doorways,20,0,0,4.24604798726,0.417744714341,0.0,0.0,0.0,0.395736676445,0.918364025273,0.25,0.15,0.0,1.0,0.0,0.0,1.0,2000000000,0,,,0
1449617374428456103,105,1449617374424027179,/odom,doorways,20,0,0,4.24604798726,0.417744714341,0.0,0.0,0.0,0.395736676445,0.918364025273,0.25,0.15,0.0,1.0,0.0,0.0,1.0,2000000000,0,,,0
1449617374432583596,106,1449617374428243918,/odom,doorways,20,0,0,4.24604798726,0.417744714341,0.0,0.0,0.0,0.395736676445,0.918364025273,0.25,0.15,0.0,1.0,0.0,0.0,1.0,2000000000,0,,,0
1449617374432587180,107,1449617374428448762,/odom,doorways,20,0,0,4.24604798726,0.417744714341,0.0,0.0,0.0,0.395736676445,0.918364025273,0.25,0.15,0.0,1.0,0.0,0.0,1.0,2000000000,0,,,0
1449617374616976984,108,1449617374616721732,/odom,doorways,20,0,0,4.24604798726,0.417744714341,0.0,0.0,0.0,0.395736676445,0.918364025273,0.25,0.15,0.0,1.0,0.0,0.0,1.0,2000000000,0,,,0
1449617374618291440,109,1449617374617108322,/odom,doorways,20,0,0,4.24604798726,0.417744714341,0.0,0.0,0.0,0.395736676445,0.918364025273,0.25,0.15,0.0,1.0,0.0,0.0,1.0,2000000000,0,,,0
1449617374618294655,110,1449617374617389379,/odom,doorways,20,0,0,4.24604798726,0.417744714341,0.0,0.0,0.0,0.395736676445,0.918364025273,0.25,0.15,0.0,1.0,0.0,0.0,1.0,2000000000,0,,,0
1449617374618298020,111,1449617374617496834,/odom,doorways,20,0,0,4.24604798726,0.417744714341,0.0,0.0,0.0,0.395736676445,0.918364025273,0.25,0.15,0.0,1.0,0.0,0.0,1.0,2000000000,0,,,0
1449617374704542137,112,1449617374704128638,/odom,doorways,20,0,0,4.24998135354,0.421951915372,0.0,0.0,0.0,0.395736676445,0.918364025273,0.25,0.15,0.0,1.0,0.0,0.0,1.0,2000000000,0,,,0
1449617374704547295,113,1449617374704227750,/odom,doorways,20,0,0,4.24998135354,0.421951915372,0.0,0.0,0.0,0.395736676445,0.918364025273,0.25,0.15,0.0,1.0,0.0,0.0,1.0,2000000000,0,,,0
1449617374704551678,114,1449617374704289850,/odom,doorways,20,0,0,4.24998135354,0.421951915372,0.0,0.0,0.0,0.395736676445,0.918364025273,0.25,0.15,0.0,1.0,0.0,0.0,1.0,2000000000,0,,,0
1449617374806282405,115,1449617374806185052,/odom,doorways,20,0,0,4.24998135354,0.421951915372,0.0,0.0,0.0,0.395736676445,0.918364025273,0.25,0.15,0.0,1.0,0.0,0.0,1.0,2000000000,0,,,0
1449617374806410068,116,1449617374806272817,/odom,doorways,20,0,0,4.24998135354,0.421951915372,0.0,0.0,0.0,0.395736676445,0.918364025273,0.25,0.15,0.0,1.0,0.0,0.0,1.0,2000000000,0,,,0
1449617374806617304,117,1449617374806537306,/odom,doorways,20,0,0,4.24998135354,0.421951915372,0.0,0.0,0.0,0.395736676445,0.918364025273,0.25,0.15,0.0,1.0,0.0,0.0,1.0,2000000000,0,,,0
1449617374806728130,118,1449617374806616791,/odom,doorways,20,0,0,4.24998135354,0.421951915372,0.0,0.0,0.0,0.395736676445,0.918364025273,0.25,0.15,0.0,1.0,0.0,0.0,1.0,2000000000,0,,,0
1449617374942428376,119,1449617374941844000,/odom,doorways,20,0,0,4.25198116253,0.424024105818,0.0,0.0,0.0,0.390878516512,0.920442277022,0.25,0.15,0.0,1.0,0.0,0.0,1.0,2000000000,0,,,0
1449617374942434604,120,1449617374942023519,/odom,doorways,20,0,0,4.25198116253,0.424024105818,0.0,0.0,0.0,0.390878516512,0.920442277022,0.25,0.15,0.0,1.0,0.0,0.0,1.0,2000000000,0,,,0
1449617374943227395,121,1449617374942563064,/odom,doorways,20,0,0,4.25198116253,0.424024105818,0.0,0.0,0.0,0.390878516512,0.920442277022,0.25,0.15,0.0,1.0,0.0,0.0,1.0,2000000000,0,,,0
1449617374943230914,122,1449617374942631911,/odom,doorways,20,0,0,4.25198116253,0.424024105818,0.0,0.0,0.0,0.390878516512,0.920442277022,0.25,0.15,0.0,1.0,0.0,0.0,1.0,2000000000,0,,,0
1449617375123246955,123,1449617375121860724,/odom,doorways,20,0,0,4.25995838823,0.432333885572,0.0,0.0,0.0,0.390878516512,0.920442277022,0.25,0.15,0.0,1.0,0.0,0.0,1.0,2000000000,0,,,0
1449617375123265415,126,1449617375122278062,/odom,doorways,20,0,0,4.25995838823,0.432333885572,0.0,0.0,0.0,0.390878516512,0.920442277022,0.25,0.15,0.0,1.0,0.0,0.0,1.0,2000000000,0,,,0
1449617375315738734,127,1449617375315430708,/odom,doorways,20,0,0,4.27393504091,0.446860236664,0.0,0.0,0.0,0.395736676445,0.918364025273,0.25,0.15,0.0,1.0,0.0,0.0,1.0,2000000000,0,,,0
1449617375315743391,128,1449617375315572397,/odom,doorways,20,0,0,4.27393504091,0.446860236664,0.0,0.0,0.0,0.395736676445,0.918364025273,0.25,0.15,0.0,1.0,0.0,0.0,1.0,2000000000,0,,,0
1449617375315746692,129,1449617375315652254,/odom,doorways,20,0,0,4.27393504091,0.446860236664,0.0,0.0,0.0,0.395736676445,0.918364025273,0.25,0.15,0.0,1.0,0.0,0.0,1.0,2000000000,0,,,0
1449617375315990601,130,1449617375315733779,/odom,doorways,20,0,0,4.27393504091,0.446860236664,0.0,0.0,0.0,0.395736676445,0.918364025273,0.25,0.15,0.0,1.0,0.0,0.0,1.0,2000000000,0,,,0
1449617375417515526,131,1449617375417117347,/odom,doorways,20,0,0,4.28380180335,0.457347062947,0.0,0.0,0.0,0.400583787075,0.916260132022,0.25,0.15,0.0,1.0,0.0,0.0,1.0,2000000000,0,,,0
1449617375417521074,133,1449617375417128445,/odom,doorways,20,0,0,4.28380180335,0.457347062947,0.0,0.0,0.0,0.400583787075,0.916260132022,0.25,0.15,0.0,1.0,0.0,0.0,1.0,2000000000,0,,,0
1449617375511886278,134,1449617375510418850,/odom,doorways,20,0,0,4.28380180335,0.457347062947,0.0,0.0,0.0,0.400583787075,0.916260132022,0.25,0.15,0.0,1.0,0.0,0.0,1.0,2000000000,0,,,0
1449617375511889411,137,1449617375510480446,/odom,doorways,20,0,0,4.28380180335,0.457347062947,0.0,0.0,0.0,0.400583787075,0.916260132022,0.25,0.15,0.0,1.0,0.0,0.0,1.0,2000000000,0,,,0
1449617375617230349,138,1449617375617065702,/odom,doorways,20,0,0,4.30693079116,0.483022003864,0.0,0.0,0.0,0.410244319394,0.911975656696,0.25,0.15,0.0,1.0,0.0,0.0,1.0,2000000000,0,,,0
1449617375617240632,139,1449617375617078669,/odom,doorways,20,0,0,4.30693079116,0.483022003864,0.0,0.0,0.0,0.410244319394,0.911975656696,0.25,0.15,0.0,1.0,0.0,0.0,1.0,2000000000,0,,,0
1449617375617254923,140,1449617375617084686,/odom,doorways,20,0,0,4.30693079116,0.483022003864,0.0,0.0,0.0,0.410244319394,0.911975656696,0.25,0.15,0.0,1.0,0.0,0.0,1.0,2000000000,0,,,0
1449617375617274776,141,1449617375617114656,/odom,doorways,20,0,0,4.30693079116,0.483022003864,0.0,0.0,0.0,0.410244319394,0.911975656696,0.25,0.15,0.0,1.0,0.0,0.0,1.0,2000000000,0,,,0
1449617375740228725,142,1449617375740095549,/odom,doorways,20,0,0,4.31641441739,0.493856463132,0.0,0.0,0.0,0.415057471353,0.909795194247,0.25,0.15,0.0,1.0,0.0,0.0,1.0,2000000000,0,,,0
1449617375740441061,143,1449617375740279554,/odom,doorways,20,0,0,4.31641441739,0.493856463132,0.0,0.0,0.0,0.415057471353,0.909795194247,0.25,0.15,0.0,1.0,0.0,0.0,1.0,2000000000,0,,,0
1449617375740538163,144,1449617375740378402,/odom,doorways,20,0,0,4.31641441739,0.493856463132,0.0,0.0,0.0,0.415057471353,0.909795194247,0.25,0.15,0.0,1.0,0.0,0.0,1.0,2000000000,0,,,0
1449617375915695541,145,1449617375908913572,/odom,doorways,20,0,0,4.34039581713,0.522602805701,0.0,0.0,0.0,0.429426858762,0.903101640445,0.25,0.15,0.0,1.0,0.0,0.0,1.0,2000000000,0,,,0
1449617375915701063,148,1449617375908982679,/odom,doorways,20,0,0,4.34039581713,0.522602805701,0.0,0.0,0.0,0.429426858762,0.903101640445,0.25,0.15,0.0,1.0,0.0,0.0,1.0,2000000000,0,,,0
1449617376013699556,149,1449617376012607452,/odom,doorways,20,0,0,4.35462809279,0.540718926387,0.0,0.0,0.0,0.438946723455,0.898513090594,0.25,0.15,0.0,1.0,0.0,0.0,1.0,2000000000,0,,,0
1449617376013704457,150,1449617376012702859,/odom,doorways,20,0,0,4.35462809279,0.540718926387,0.0,0.0,0.0,0.438946723455,0.898513090594,0.25,0.15,0.0,1.0,0.0,0.0,1.0,2000000000,0,,,0
1449617376013733830,151,1449617376012775833,/odom,doorways,20,0,0,4.35462809279,0.540718926387,0.0,0.0,0.0,0.438946723455,0.898513090594,0.25,0.15,0.0,1.0,0.0,0.0,1.0,2000000000,0,,,0
1449617376013754938,152,1449617376012843636,/odom,doorways,20,0,0,4.35462809279,0.540718926387,0.0,0.0,0.0,0.438946723455,0.898513090594,0.25,0.15,0.0,1.0,0.0,0.0,1.0,2000000000,0,,,0
1449617376152812800,153,1449617376151976416,/odom,doorways,20,0,0,4.36857151208,0.55905850019,0.0,0.0,0.0,0.448417565431,0.893824192453,0.25,0.15,0.0,1.0,0.0,0.0,1.0,2000000000,0,,,0
1449617376152898909,154,1449617376152135877,/odom,doorways,20,0,0,4.36857151208,0.55905850019,0.0,0.0,0.0,0.448417565431,0.893824192453,0.25,0.15,0.0,1.0,0.0,0.0,1.0,2000000000,0,,,0
1449617376152903647,155,1449617376152146786,/odom,doorways,20,0,0,4.36857151208,0.55905850019,0.0,0.0,0.0,0.448417565431,0.893824192453,0.25,0.15,0.0,1.0,0.0,0.0,1.0,2000000000,0,,,0
1449617376305194932,156,1449617376304489450,/odom,doorways,20,0,0,4.38733800886,0.584577713194,0.0,0.0,0.0,0.453134272142,0.891442275983,0.25,0.15,0.0,1.0,0.0,0.0,1.0,2000000000,0,,,0
1449617376305203880,157,1449617376304639231,/odom,doorways,20,0,0,4.38733800886,0.584577713194,0.0,0.0,0.0,0.453134272142,0.891442275983,0.25,0.15,0.0,1.0,0.0,0.0,1.0,2000000000,0,,,0
1449617376306479706,158,1449617376305884890,/odom,doorways,20,0,0,4.38733800886,0.584577713194,0.0,0.0,0.0,0.453134272142,0.891442275983,0.25,0.15,0.0,1.0,0.0,0.0,1.0,2000000000,0,,,0
1449617376306484180,159,1449617376305962810,/odom,doorways,20,0,0,4.38733800886,0.584577713194,0.0,0.0,0.0,0.453134272142,0.891442275983,0.25,0.15,0.0,1.0,0.0,0.0,1.0,2000000000,0,,,0
1449617376410278364,160,1449617376409941733,/odom,doorways,20,0,0,4.39729835738,0.598696447369,0.0,0.0,0.0,0.462529598545,0.886603840771,0.25,0.15,0.0,1.0,0.0,0.0,1.0,2000000000,0,,,0
1449617376410281190,161,1449617376410044515,/odom,doorways,20,0,0,4.39729835738,0.598696447369,0.0,0.0,0.0,0.462529598545,0.886603840771,0.25,0.15,0.0,1.0,0.0,0.0,1.0,2000000000,0,,,0
1449617376410311046,162,1449617376410113167,/odom,doorways,20,0,0,4.39729835738,0.598696447369,0.0,0.0,0.0,0.462529598545,0.886603840771,0.25,0.15,0.0,1.0,0.0,0.0,1.0,2000000000,0,,,0
1449617376410332830,163,1449617376410172421,/odom,doorways,20,0,0,4.39729835738,0.598696447369,0.0,0.0,0.0,0.462529598545,0.886603840771,0.25,0.15,0.0,1.0,0.0,0.0,1.0,2000000000,0,,,0
1449617376542209306,164,1449617376541123497,/odom,doorways,20,0,0,4.4086563604,0.615350666677,0.0,0.0,0.0,0.46720795591,0.884147457122,0.25,0.15,0.0,1.0,0.0,0.0,1.0,2000000000,0,,,0
1449617376542215063,165,1449617376541259847,/odom,doorways,20,0,0,4.4086563604,0.615350666677,0.0,0.0,0.0,0.46720795591,0.884147457122,0.25,0.15,0.0,1.0,0.0,0.0,1.0,2000000000,0,,,0
1449617376542219358,166,1449617376541334903,/odom,doorways,20,0,0,4.4086563604,0.615350666677,0.0,0.0,0.0,0.46720795591,0.884147457122,0.25,0.15,0.0,1.0,0.0,0.0,1.0,2000000000,0,,,0
1449617376634268983,167,1449617376632285993,/odom,doorways,20,0,0,4.41349884262,0.62250520348,0.0,0.0,0.0,0.471873268433,0.881666387325,0.25,0.15,0.0,1.0,0.0,0.0,1.0,2000000000,0,,,0
1449617376634275327,168,1449617376632298858,/odom,doorways,20,0,0,4.41349884262,0.62250520348,0.0,0.0,0.0,0.471873268433,0.881666387325,0.25,0.15,0.0,1.0,0.0,0.0,1.0,2000000000,0,,,0
1449617376635446751,169,1449617376632400964,/odom,doorways,20,0,0,4.41349884262,0.62250520348,0.0,0.0,0.0,0.471873268433,0.881666387325,0.25,0.15,0.0,1.0,0.0,0.0,1.0,2000000000,0,,,0
1449617376635456232,170,1449617376632638444,/odom,doorways,20,0,0,4.41349884262,0.62250520348,0.0,0.0,0.0,0.471873268433,0.881666387325,0.25,0.15,0.0,1.0,0.0,0.0,1.0,2000000000,0,,,0
1449617376824604300,171,1449617376824487661,/odom,doorways,20,0,0,4.42774783025,0.644154632502,0.0,0.0,0.0,0.476525405853,0.879160700655,0.25,0.15,0.0,1.0,0.0,0.0,1.0,2000000000,0,,,0
1449617376824699787,172,1449617376824568748,/odom,doorways,20,0,0,4.42774783025,0.644154632502,0.0,0.0,0.0,0.476525405853,0.879160700655,0.25,0.15,0.0,1.0,0.0,0.0,1.0,2000000000,0,,,0
1449617376824703622,173,1449617376824636224,/odom,doorways,20,0,0,4.42774783025,0.644154632502,0.0,0.0,0.0,0.476525405853,0.879160700655,0.25,0.15,0.0,1.0,0.0,0.0,1.0,2000000000,0,,,0
1449617376824817463,174,1449617376824697118,/odom,doorways,20,0,0,4.42774783025,0.644154632502,0.0,0.0,0.0,0.476525405853,0.879160700655,0.25,0.15,0.0,1.0,0.0,0.0,1.0,2000000000,0,,,0
1449617376897661646,175,1449617376897492709,/odom,doorways,20,0,0,4.42774783025,0.644154632502,0.0,0.0,0.0,0.476525405853,0.879160700655,0.25,0.15,0.0,1.0,0.0,0.0,1.0,2000000000,0,,,0
1449617376898620547,176,1449617376897985034,/odom,doorways,20,0,0,4.42774783025,0.644154632502,0.0,0.0,0.0,0.476525405853,0.879160700655,0.25,0.15,0.0,1.0,0.0,0.0,1.0,2000000000,0,,,0
1449617376898675318,177,1449617376898077290,/odom,doorways,20,0,0,4.42774783025,0.644154632502,0.0,0.0,0.0,0.476525405853,0.879160700655,0.25,0.15,0.0,1.0,0.0,0.0,1.0,2000000000,0,,,0
1449617376997047210,178,1449617376996253855,/odom,doorways,20,0,0,4.44346709756,0.668283983105,0.0,0.0,0.0,0.476525405853,0.879160700655,0.25,0.15,0.0,1.0,0.0,0.0,1.0,2000000000,0,,,0
1449617376997080106,181,1449617376996346170,/odom,doorways,20,0,0,4.44346709756,0.668283983105,0.0,0.0,0.0,0.476525405853,0.879160700655,0.25,0.15,0.0,1.0,0.0,0.0,1.0,2000000000,0,,,0
1449617377101652146,182,1449617377101323779,/odom,doorways,20,0,0,4.44810611579,0.675572219729,0.0,0.0,0.0,0.481164238281,0.876630467073,0.25,0.15,0.0,1.0,0.0,0.0,1.0,2000000000,0,,,0
1449617377101657951,183,1449617377101340524,/odom,doorways,20,0,0,4.44810611579,0.675572219729,0.0,0.0,0.0,0.481164238281,0.876630467073,0.25,0.15,0.0,1.0,0.0,0.0,1.0,2000000000,0,,,0
1449617377101660604,184,1449617377101353579,/odom,doorways,20,0,0,4.44810611579,0.675572219729,0.0,0.0,0.0,0.481164238281,0.876630467073,0.25,0.15,0.0,1.0,0.0,0.0,1.0,2000000000,0,,,0
1449617377194756607,185,1449617377194573006,/odom,doorways,20,0,0,4.458956079,0.692561628037,0.0,0.0,0.0,0.476525405853,0.879160700655,0.25,0.15,0.0,1.0,0.0,0.0,1.0,2000000000,0,,,0
1449617377194861826,186,1449617377194699723,/odom,doorways,20,0,0,4.458956079,0.692561628037,0.0,0.0,0.0,0.476525405853,0.879160700655,0.25,0.15,0.0,1.0,0.0,0.0,1.0,2000000000,0,,,0
1449617377194868449,187,1449617377194801936,/odom,doorways,20,0,0,4.458956079,0.692561628037,0.0,0.0,0.0,0.476525405853,0.879160700655,0.25,0.15,0.0,1.0,0.0,0.0,1.0,2000000000,0,,,0
1449617377195146946,188,1449617377194893023,/odom,doorways,20,0,0,4.458956079,0.692561628037,0.0,0.0,0.0,0.476525405853,0.879160700655,0.25,0.15,0.0,1.0,0.0,0.0,1.0,2000000000,0,,,0
1449617377316591234,189,1449617377315571325,/odom,doorways,20,0,0,4.458956079,0.692561628037,0.0,0.0,0.0,0.476525405853,0.879160700655,0.25,0.15,0.0,1.0,0.0,0.0,1.0,2000000000,0,,,0
1449617377316593894,190,1449617377315584683,/odom,doorways,20,0,0,4.458956079,0.692561628037,0.0,0.0,0.0,0.476525405853,0.879160700655,0.25,0.15,0.0,1.0,0.0,0.0,1.0,2000000000,0,,,0
1449617377316596087,191,1449617377315670831,/odom,doorways,20,0,0,4.458956079,0.692561628037,0.0,0.0,0.0,0.476525405853,0.879160700655,0.25,0.15,0.0,1.0,0.0,0.0,1.0,2000000000,0,,,0
1449617377316601773,192,1449617377315676969,/odom,doorways,20,0,0,4.458956079,0.692561628037,0.0,0.0,0.0,0.476525405853,0.879160700655,0.25,0.15,0.0,1.0,0.0,0.0,1.0,2000000000,0,,,0
1449617377404206317,193,1449617377403737783,/odom,doorways,20,0,0,4.47282161367,0.714458749557,0.0,0.0,0.0,0.481164238281,0.876630467073,0.25,0.15,0.0,1.0,0.0,0.0,1.0,2000000000,0,,,0
1449617377404217464,195,1449617377403751265,/odom,doorways,20,0,0,4.47282161367,0.714458749557,0.0,0.0,0.0,0.481164238281,0.876630467073,0.25,0.15,0.0,1.0,0.0,0.0,1.0,2000000000,0,,,0
1449617377601794947,196,1449617377598160688,/odom,doorways,20,0,0,4.48828500779,0.738752871636,0.0,0.0,0.0,0.481164238281,0.876630467073,0.25,0.15,0.0,1.0,0.0,0.0,1.0,2000000000,0,,,0
1449617377601809513,197,1449617377598230534,/odom,doorways,20,0,0,4.48828500779,0.738752871636,0.0,0.0,0.0,0.481164238281,0.876630467073,0.25,0.15,0.0,1.0,0.0,0.0,1.0,2000000000,0,,,0
1449617377601813899,198,1449617377598282752,/odom,doorways,20,0,0,4.48828500779,0.738752871636,0.0,0.0,0.0,0.481164238281,0.876630467073,0.25,0.15,0.0,1.0,0.0,0.0,1.0,2000000000,0,,,0
1449617377603218153,199,1449617377598331950,/odom,doorways,20,0,0,4.48828500779,0.738752871636,0.0,0.0,0.0,0.481164238281,0.876630467073,0.25,0.15,0.0,1.0,0.0,0.0,1.0,2000000000,0,,,0
1449617377708943406,200,1449617377708808010,/odom,doorways,20,0,0,4.49289826601,0.746057314084,0.0,0.0,0.0,0.485789636194,0.874075757224,0.25,0.15,0.0,1.0,0.0,0.0,1.0,2000000000,0,,,0
1449617377709071580,201,1449617377708921040,/odom,doorways,20,0,0,4.49289826601,0.746057314084,0.0,0.0,0.0,0.485789636194,0.874075757224,0.25,0.15,0.0,1.0,0.0,0.0,1.0,2000000000,0,,,0
1449617377710645295,202,1449617377710157906,/odom,doorways,20,0,0,4.49289826601,0.746057314084,0.0,0.0,0.0,0.485789636194,0.874075757224,0.25,0.15,0.0,1.0,0.0,0.0,1.0,2000000000,0,,,0
1449617377710648981,203,1449617377710240027,/odom,doorways,20,0,0,4.49289826601,0.746057314084,0.0,0.0,0.0,0.485789636194,0.874075757224,0.25,0.15,0.0,1.0,0.0,0.0,1.0,2000000000,0,,,0
1449617377807430671,204,1449617377805440216,/odom,doorways,20,0,0,4.50068113771,0.758171420829,0.0,0.0,0.0,0.481164238281,0.876630467073,0.25,0.15,0.0,1.0,0.0,0.0,1.0,2000000000,0,,,0
1449617377807434718,205,1449617377805770898,/odom,doorways,20,0,0,4.50068113771,0.758171420829,0.0,0.0,0.0,0.481164238281,0.876630467073,0.25,0.15,0.0,1.0,0.0,0.0,1.0,2000000000,0,,,0
1449617377807448167,206,1449617377806037986,/odom,doorways,20,0,0,4.50068113771,0.758171420829,0.0,0.0,0.0,0.481164238281,0.876630467073,0.25,0.15,0.0,1.0,0.0,0.0,1.0,2000000000,0,,,0
1449617377895146244,207,1449617377893718629,/odom,doorways,20,0,0,4.50686649536,0.767889069661,0.0,0.0,0.0,0.481164238281,0.876630467073,0.25,0.15,0.0,1.0,0.0,0.0,1.0,2000000000,0,,,0
1449617377896312176,209,1449617377893730423,/odom,doorways,20,0,0,4.50686649536,0.767889069661,0.0,0.0,0.0,0.481164238281,0.876630467073,0.25,0.15,0.0,1.0,0.0,0.0,1.0,2000000000,0,,,0
1449617378012782277,210,1449617378011327421,/odom,doorways,20,0,0,4.51472612902,0.779953744962,0.0,0.0,0.0,0.476525405853,0.879160700655,0.25,0.15,0.0,1.0,0.0,0.0,1.0,2000000000,0,,,0
1449617378012787424,211,1449617378011408735,/odom,doorways,20,0,0,4.51472612902,0.779953744962,0.0,0.0,0.0,0.476525405853,0.879160700655,0.25,0.15,0.0,1.0,0.0,0.0,1.0,2000000000,0,,,0
1449617378012794464,212,1449617378011638289,/odom,doorways,20,0,0,4.51472612902,0.779953744962,0.0,0.0,0.0,0.476525405853,0.879160700655,0.25,0.15,0.0,1.0,0.0,0.0,1.0,2000000000,0,,,0
1449617378012799707,213,1449617378011697004,/odom,doorways,20,0,0,4.51472612902,0.779953744962,0.0,0.0,0.0,0.476525405853,0.879160700655,0.25,0.15,0.0,1.0,0.0,0.0,1.0,2000000000,0,,,0
1449617378012811053,214,1449617378011750273,/odom,doorways,20,0,0,4.51472612902,0.779953744962,0.0,0.0,0.0,0.476525405853,0.879160700655,0.25,0.15,0.0,1.0,0.0,0.0,1.0,2000000000,0,,,0
1449617378101256342,215,1449617378100445425,/odom,doorways,20,0,0,4.52101383594,0.789605485204,0.0,0.0,0.0,0.476525405853,0.879160700655,0.25,0.15,0.0,1.0,0.0,0.0,1.0,2000000000,0,,,0
1449617378101260660,217,1449617378100464610,/odom,doorways,20,0,0,4.52101383594,0.789605485204,0.0,0.0,0.0,0.476525405853,0.879160700655,0.25,0.15,0.0,1.0,0.0,0.0,1.0,2000000000,0,,,0
1449617378206968684,218,1449617378206174765,/odom,doorways,20,0,0,4.52732695463,0.799240478815,0.0,0.0,0.0,0.476525405853,0.879160700655,0.25,0.15,0.0,1.0,0.0,0.0,1.0,2000000000,0,,,0
1449617378206976786,219,1449617378206251758,/odom,doorways,20,0,0,4.52732695463,0.799240478815,0.0,0.0,0.0,0.476525405853,0.879160700655,0.25,0.15,0.0,1.0,0.0,0.0,1.0,2000000000,0,,,0
1449617378206980279,220,1449617378206309893,/odom,doorways,20,0,0,4.52732695463,0.799240478815,0.0,0.0,0.0,0.476525405853,0.879160700655,0.25,0.15,0.0,1.0,0.0,0.0,1.0,2000000000,0,,,0
1449617378309477376,221,1449617378308479930,/odom,doorways,20,0,0,4.53211897011,0.806429044105,0.0,0.0,0.0,0.471873268433,0.881666387325,0.25,0.15,0.0,1.0,0.0,0.0,1.0,2000000000,0,,,0
1449617378309486924,223,1449617378308495145,/odom,doorways,20,0,0,4.53211897011,0.806429044105,0.0,0.0,0.0,0.471873268433,0.881666387325,0.25,0.15,0.0,1.0,0.0,0.0,1.0,2000000000,0,,,0
1449617378410507413,224,1449617378409379631,/odom,doorways,20,0,0,4.54013089594,0.818392972011,0.0,0.0,0.0,0.46720795591,0.884147457122,0.25,0.15,0.0,1.0,0.0,0.0,1.0,2000000000,0,,,0
1449617378410524763,225,1449617378409390871,/odom,doorways,20,0,0,4.54013089594,0.818392972011,0.0,0.0,0.0,0.46720795591,0.884147457122,0.25,0.15,0.0,1.0,0.0,0.0,1.0,2000000000,0,,,0
1449617378410528287,226,1449617378409432338,/odom,doorways,20,0,0,4.54013089594,0.818392972011,0.0,0.0,0.0,0.46720795591,0.884147457122,0.25,0.15,0.0,1.0,0.0,0.0,1.0,2000000000,0,,,0
1449617378410539595,228,1449617378409442839,/odom,doorways,20,0,0,4.54013089594,0.818392972011,0.0,0.0,0.0,0.46720795591,0.884147457122,0.25,0.15,0.0,1.0,0.0,0.0,1.0,2000000000,0,,,0
1449617378642310513,229,1449617378640324080,/odom,doorways,20,0,0,4.55153900327,0.835012631408,0.0,0.0,0.0,0.462529598545,0.886603840771,0.25,0.15,0.0,1.0,0.0,0.0,1.0,2000000000,0,,,0
1449617378642330727,230,1449617378640406210,/odom,doorways,20,0,0,4.55153900327,0.835012631408,0.0,0.0,0.0,0.462529598545,0.886603840771,0.25,0.15,0.0,1.0,0.0,0.0,1.0,2000000000,0,,,0
1449617378642348654,231,1449617378640477413,/odom,doorways,20,0,0,4.55153900327,0.835012631408,0.0,0.0,0.0,0.462529598545,0.886603840771,0.25,0.15,0.0,1.0,0.0,0.0,1.0,2000000000,0,,,0
1449617378812957185,232,1449617378811136175,/odom,doorways,20,0,0,4.56319671209,0.851458172339,0.0,0.0,0.0,0.457838326961,0.889035469689,0.25,0.15,0.0,1.0,0.0,0.0,1.0,2000000000,0,,,0
1449617378812961351,233,1449617378811256674,/odom,doorways,20,0,0,4.56319671209,0.851458172339,0.0,0.0,0.0,0.457838326961,0.889035469689,0.25,0.15,0.0,1.0,0.0,0.0,1.0,2000000000,0,,,0
1449617378812964955,234,1449617378811807721,/odom,doorways,20,0,0,4.56319671209,0.851458172339,0.0,0.0,0.0,0.457838326961,0.889035469689,0.25,0.15,0.0,1.0,0.0,0.0,1.0,2000000000,0,,,0
1449617378817805922,235,1449617378811905687,/odom,doorways,20,0,0,4.56319671209,0.851458172339,0.0,0.0,0.0,0.457838326961,0.889035469689,0.25,0.15,0.0,1.0,0.0,0.0,1.0,2000000000,0,,,0
1449617378817815071,236,1449617378812105944,/odom,doorways,20,0,0,4.56319671209,0.851458172339,0.0,0.0,0.0,0.457838326961,0.889035469689,0.25,0.15,0.0,1.0,0.0,0.0,1.0,2000000000,0,,,0
1449617378899455424,237,1449617378899283545,/odom,doorways,20,0,0,4.56828823263,0.858437807136,0.0,0.0,0.0,0.453134272142,0.891442275983,0.25,0.15,0.0,1.0,0.0,0.0,1.0,2000000000,0,,,0
1449617378899469695,238,1449617378899293515,/odom,doorways,20,0,0,4.56828823263,0.858437807136,0.0,0.0,0.0,0.453134272142,0.891442275983,0.25,0.15,0.0,1.0,0.0,0.0,1.0,2000000000,0,,,0
1449617378899482337,239,1449617378899399359,/odom,doorways,20,0,0,4.56828823263,0.858437807136,0.0,0.0,0.0,0.453134272142,0.891442275983,0.25,0.15,0.0,1.0,0.0,0.0,1.0,2000000000,0,,,0
1449617378900249249,240,1449617378899952639,/odom,doorways,20,0,0,4.56828823263,0.858437807136,0.0,0.0,0.0,0.453134272142,0.891442275983,0.25,0.15,0.0,1.0,0.0,0.0,1.0,2000000000,0,,,0
1449617379021824169,241,1449617379021607678,/odom,doorways,20,0,0,4.57168257965,0.863090897001,0.0,0.0,0.0,0.453134272142,0.891442275983,0.25,0.15,0.0,1.0,0.0,0.0,1.0,2000000000,0,,,0
1449617379021830146,242,1449617379021734699,/odom,doorways,20,0,0,4.57168257965,0.863090897001,0.0,0.0,0.0,0.453134272142,0.891442275983,0.25,0.15,0.0,1.0,0.0,0.0,1.0,2000000000,0,,,0
1449617379021956959,243,1449617379021814434,/odom,doorways,20,0,0,4.57168257965,0.863090897001,0.0,0.0,0.0,0.453134272142,0.891442275983,0.25,0.15,0.0,1.0,0.0,0.0,1.0,2000000000,0,,,0
1449617379021960045,244,1449617379021892913,/odom,doorways,20,0,0,4.57168257965,0.863090897001,0.0,0.0,0.0,0.453134272142,0.891442275983,0.25,0.15,0.0,1.0,0.0,0.0,1.0,2000000000,0,,,0
1449617379158661432,245,1449617379157981168,/odom,doorways,20,0,0,4.57849576551,0.872379011334,0.0,0.0,0.0,0.453134272142,0.891442275983,0.25,0.15,0.0,1.0,0.0,0.0,1.0,2000000000,0,,,0
1449617379158664779,249,1449617379158003007,/odom,doorways,20,0,0,4.57849576551,0.872379011334,0.0,0.0,0.0,0.453134272142,0.891442275983,0.25,0.15,0.0,1.0,0.0,0.0,1.0,2000000000,0,,,0
1449617379302480244,250,1449617379300837505,/odom,doorways,20,0,0,4.58710409212,0.883921409017,0.0,0.0,0.0,0.448417565431,0.893824192453,0.25,0.15,0.0,1.0,0.0,0.0,1.0,2000000000,0,,,0
1449617379302545891,251,1449617379300993266,/odom,doorways,20,0,0,4.58710409212,0.883921409017,0.0,0.0,0.0,0.448417565431,0.893824192453,0.25,0.15,0.0,1.0,0.0,0.0,1.0,2000000000,0,,,0
1449617379302552476,252,1449617379301483153,/odom,doorways,20,0,0,4.58710409212,0.883921409017,0.0,0.0,0.0,0.448417565431,0.893824192453,0.25,0.15,0.0,1.0,0.0,0.0,1.0,2000000000,0,,,0
1449617379302590751,253,1449617379301562824,/odom,doorways,20,0,0,4.58710409212,0.883921409017,0.0,0.0,0.0,0.448417565431,0.893824192453,0.25,0.15,0.0,1.0,0.0,0.0,1.0,2000000000,0,,,0
1449617379437627925,254,1449617379437416031,/odom,doorways,20,0,0,4.59583391639,0.895372190636,0.0,0.0,0.0,0.44368833852,0.896181152592,0.25,0.15,0.0,1.0,0.0,0.0,1.0,2000000000,0,,,0
1449617379437632627,255,1449617379437565824,/odom,doorways,20,0,0,4.59583391639,0.895372190636,0.0,0.0,0.0,0.44368833852,0.896181152592,0.25,0.15,0.0,1.0,0.0,0.0,1.0,2000000000,0,,,0
1449617379440611882,256,1449617379439146607,/odom,doorways,20,0,0,4.59583391639,0.895372190636,0.0,0.0,0.0,0.44368833852,0.896181152592,0.25,0.15,0.0,1.0,0.0,0.0,1.0,2000000000,0,,,0
1449617379440620339,257,1449617379439301027,/odom,doorways,20,0,0,4.59583391639,0.895372190636,0.0,0.0,0.0,0.44368833852,0.896181152592,0.25,0.15,0.0,1.0,0.0,0.0,1.0,2000000000,0,,,0
1449617379607620924,258,1449617379607515459,/odom,doorways,20,0,0,4.61516005244,0.920471015281,0.0,0.0,0.0,0.438946723455,0.898513090594,0.25,0.15,0.0,1.0,0.0,0.0,1.0,2000000000,0,,,0
1449617379607625460,259,1449617379607521359,/odom,doorways,20,0,0,4.61516005244,0.920471015281,0.0,0.0,0.0,0.438946723455,0.898513090594,0.25,0.15,0.0,1.0,0.0,0.0,1.0,2000000000,0,,,0
1449617379608451625,260,1449617379607536220,/odom,doorways,20,0,0,4.61516005244,0.920471015281,0.0,0.0,0.0,0.438946723455,0.898513090594,0.25,0.15,0.0,1.0,0.0,0.0,1.0,2000000000,0,,,0
1449617379608455603,261,1449617379608155329,/odom,doorways,20,0,0,4.61516005244,0.920471015281,0.0,0.0,0.0,0.438946723455,0.898513090594,0.25,0.15,0.0,1.0,0.0,0.0,1.0,2000000000,0,,,0
1449617379608458986,262,1449617379608207517,/odom,doorways,20,0,0,4.61516005244,0.920471015281,0.0,0.0,0.0,0.438946723455,0.898513090594,0.25,0.15,0.0,1.0,0.0,0.0,1.0,2000000000,0,,,0
1449617379726166316,263,1449617379725868999,/odom,doorways,20,0,0,4.61516005244,0.920471015281,0.0,0.0,0.0,0.438946723455,0.898513090594,0.25,0.15,0.0,1.0,0.0,0.0,1.0,2000000000,0,,,0
1449617379726176546,266,1449617379725889647,/odom,doorways,20,0,0,4.61516005244,0.920471015281,0.0,0.0,0.0,0.438946723455,0.898513090594,0.25,0.15,0.0,1.0,0.0,0.0,1.0,2000000000,0,,,0
1449617379813022614,267,1449617379812079636,/odom,doorways,20,0,0,4.63671107309,0.94748436376,0.0,0.0,0.0,0.429426858762,0.903101640445,0.25,0.15,0.0,1.0,0.0,0.0,1.0,2000000000,0,,,0
1449617379813033843,268,1449617379812149880,/odom,doorways,20,0,0,4.63671107309,0.94748436376,0.0,0.0,0.0,0.429426858762,0.903101640445,0.25,0.15,0.0,1.0,0.0,0.0,1.0,2000000000,0,,,0
1449617379813038098,269,1449617379812201690,/odom,doorways,20,0,0,4.63671107309,0.94748436376,0.0,0.0,0.0,0.429426858762,0.903101640445,0.25,0.15,0.0,1.0,0.0,0.0,1.0,2000000000,0,,,0
1449617379813049838,270,1449617379812251031,/odom,doorways,20,0,0,4.63671107309,0.94748436376,0.0,0.0,0.0,0.429426858762,0.903101640445,0.25,0.15,0.0,1.0,0.0,0.0,1.0,2000000000,0,,,0
1449617379916163678,271,1449617379916023642,/odom,doorways,20,0,0,4.64761716949,0.960886326099,0.0,0.0,0.0,0.429426858762,0.903101640445,0.25,0.15,0.0,1.0,0.0,0.0,1.0,2000000000,0,,,0
1449617379916274763,272,1449617379916136513,/odom,doorways,20,0,0,4.64761716949,0.960886326099,0.0,0.0,0.0,0.429426858762,0.903101640445,0.25,0.15,0.0,1.0,0.0,0.0,1.0,2000000000,0,,,0
1449617379916529734,273,1449617379916246441,/odom,doorways,20,0,0,4.64761716949,0.960886326099,0.0,0.0,0.0,0.429426858762,0.903101640445,0.25,0.15,0.0,1.0,0.0,0.0,1.0,2000000000,0,,,0
1449617379916867780,274,1449617379916624725,/odom,doorways,20,0,0,4.64761716949,0.960886326099,0.0,0.0,0.0,0.429426858762,0.903101640445,0.25,0.15,0.0,1.0,0.0,0.0,1.0,2000000000,0,,,0
1449617379916938535,275,1449617379916759688,/odom,doorways,20,0,0,4.64761716949,0.960886326099,0.0,0.0,0.0,0.429426858762,0.903101640445,0.25,0.15,0.0,1.0,0.0,0.0,1.0,2000000000,0,,,0
1449617380032330835,276,1449617380030895872,/odom,doorways,20,0,0,4.6641878455,0.980815266013,0.0,0.0,0.0,0.424648874937,0.905358124178,0.25,0.15,0.0,1.0,0.0,0.0,1.0,2000000000,0,,,0
1449617380032334446,279,1449617380030969682,/odom,doorways,20,0,0,4.6641878455,0.980815266013,0.0,0.0,0.0,0.424648874937,0.905358124178,0.25,0.15,0.0,1.0,0.0,0.0,1.0,2000000000,0,,,0
1449617380120096493,280,1449617380119898926,/odom,doorways,20,0,0,4.67351026592,0.991788994127,0.0,0.0,0.0,0.419859034555,0.907589329544,0.25,0.15,0.0,1.0,0.0,0.0,1.0,2000000000,0,,,0
1449617380120261354,281,1449617380120108435,/odom,doorways,20,0,0,4.67351026592,0.991788994127,0.0,0.0,0.0,0.419859034555,0.907589329544,0.25,0.15,0.0,1.0,0.0,0.0,1.0,2000000000,0,,,0
1449617380234916273,282,1449617380234744828,/odom,doorways,20,0,0,4.67351026592,0.991788994127,0.0,0.0,0.0,0.419859034555,0.907589329544,0.25,0.15,0.0,1.0,0.0,0.0,1.0,2000000000,0,,,0
1449617380234920790,283,1449617380234809535,/odom,doorways,20,0,0,4.67351026592,0.991788994127,0.0,0.0,0.0,0.419859034555,0.907589329544,0.25,0.15,0.0,1.0,0.0,0.0,1.0,2000000000,0,,,0
1449617380234923788,284,1449617380234861319,/odom,doorways,20,0,0,4.67351026592,0.991788994127,0.0,0.0,0.0,0.419859034555,0.907589329544,0.25,0.15,0.0,1.0,0.0,0.0,1.0,2000000000,0,,,0
1449617380346753887,285,1449617380346647186,/odom,doorways,20,0,0,4.70937416655,1.03311246412,0.0,0.0,0.0,0.415057471353,0.909795194247,0.25,0.15,0.0,1.0,0.0,0.0,1.0,2000000000,0,,,0
1449617380346794092,286,1449617380346650957,/odom,doorways,20,0,0,4.70937416655,1.03311246412,0.0,0.0,0.0,0.415057471353,0.909795194247,0.25,0.15,0.0,1.0,0.0,0.0,1.0,2000000000,0,,,0
1449617380473583612,287,1449617380473418587,/odom,doorways,20,0,0,4.72854668832,1.05460003923,0.0,0.0,0.0,0.405419713065,0.91413065601,0.25,0.15,0.0,1.0,0.0,0.0,1.0,2000000000,0,,,0
1449617380473740714,288,1449617380473578985,/odom,doorways,20,0,0,4.72854668832,1.05460003923,0.0,0.0,0.0,0.405419713065,0.91413065601,0.25,0.15,0.0,1.0,0.0,0.0,1.0,2000000000,0,,,0
1449617380668977692,289,1449617380667535499,/odom,doorways,20,0,0,4.76154439165,1.09076394277,0.0,0.0,0.0,0.400583787075,0.916260132022,0.25,0.15,0.0,1.0,0.0,0.0,1.0,2000000000,0,,,0
1449617380668986221,291,1449617380667545000,/odom,doorways,20,0,0,4.76154439165,1.09076394277,0.0,0.0,0.0,0.400583787075,0.916260132022,0.25,0.15,0.0,1.0,0.0,0.0,1.0,2000000000,0,,,0
1449617380867557084,292,1449617380867471889,/odom,doorways,20,0,0,4.80121041741,1.13252302126,0.0,0.0,0.0,0.390878516512,0.920442277022,0.25,0.15,0.0,1.0,0.0,0.0,1.0,2000000000,0,,,0
1449617380867655904,293,1449617380867579872,/odom,doorways,20,0,0,4.80121041741,1.13252302126,0.0,0.0,0.0,0.390878516512,0.920442277022,0.25,0.15,0.0,1.0,0.0,0.0,1.0,2000000000,0,,,0
1449617381045653008,294,1449617381045427255,/odom,doorways,20,0,0,4.83535967881,1.16760151304,0.0,0.0,0.0,0.386009442918,0.922494829242,0.25,0.15,0.0,1.0,0.0,0.0,1.0,2000000000,0,,,0
1449617381045656706,296,1449617381045441924,/odom,doorways,20,0,0,4.83535967881,1.16760151304,0.0,0.0,0.0,0.386009442918,0.922494829242,0.25,0.15,0.0,1.0,0.0,0.0,1.0,2000000000,0,,,0
1449617381135917905,297,1449617381135411920,/odom,doorways,20,0,0,4.84944548949,1.18202184857,0.0,0.0,0.0,0.390878516512,0.920442277022,0.25,0.15,0.0,1.0,0.0,0.0,1.0,2000000000,0,,,0
1449617381135925052,298,1449617381135522613,/odom,doorways,20,0,0,4.84944548949,1.18202184857,0.0,0.0,0.0,0.390878516512,0.920442277022,0.25,0.15,0.0,1.0,0.0,0.0,1.0,2000000000,0,,,0
1449617381254174731,299,1449617381253550179,/odom,doorways,20,0,0,4.87168304464,1.20458220008,0.0,0.0,0.0,0.386009442918,0.922494829242,0.25,0.15,0.0,1.0,0.0,0.0,1.0,2000000000,0,,,0
1449617381254191041,300,1449617381253633689,/odom,doorways,20,0,0,4.87168304464,1.20458220008,0.0,0.0,0.0,0.386009442918,0.922494829242,0.25,0.15,0.0,1.0,0.0,0.0,1.0,2000000000,0,,,0
1449617381462263526,301,1449617381461480985,/odom,doorways,20,0,0,4.87168304464,1.20458220008,0.0,0.0,0.0,0.386009442918,0.922494829242,0.25,0.15,0.0,1.0,0.0,0.0,1.0,2000000000,0,,,0
1449617381462267113,302,1449617381461488927,/odom,doorways,20,0,0,4.87168304464,1.20458220008,0.0,0.0,0.0,0.386009442918,0.922494829242,0.25,0.15,0.0,1.0,0.0,0.0,1.0,2000000000,0,,,0
1449617381462269989,303,1449617381461545523,/odom,doorways,20,0,0,4.87168304464,1.20458220008,0.0,0.0,0.0,0.386009442918,0.922494829242,0.25,0.15,0.0,1.0,0.0,0.0,1.0,2000000000,0,,,0
1449617381648825142,304,1449617381648151831,/odom,doorways,20,0,0,4.94154207171,1.27723265219,0.0,0.0,0.0,0.400583787075,0.916260132022,0.25,0.15,0.0,1.0,0.0,0.0,1.0,2000000000,0,,,0
1449617381648830820,305,1449617381648167865,/odom,doorways,20,0,0,4.94154207171,1.27723265219,0.0,0.0,0.0,0.400583787075,0.916260132022,0.25,0.15,0.0,1.0,0.0,0.0,1.0,2000000000,0,,,0
1449617381782781474,306,1449617381782539963,/odom,doorways,20,0,0,4.96289616793,1.30063040764,0.0,0.0,0.0,0.405419713065,0.91413065601,0.25,0.15,0.0,1.0,0.0,0.0,1.0,2000000000,0,,,0
1449617381782787637,307,1449617381782627043,/odom,doorways,20,0,0,4.96289616793,1.30063040764,0.0,0.0,0.0,0.405419713065,0.91413065601,0.25,0.15,0.0,1.0,0.0,0.0,1.0,2000000000,0,,,0
1449617381782794046,308,1449617381782699949,/odom,doorways,20,0,0,4.96289616793,1.30063040764,0.0,0.0,0.0,0.405419713065,0.91413065601,0.25,0.15,0.0,1.0,0.0,0.0,1.0,2000000000,0,,,0
1449617381955840273,309,1449617381955726347,/odom,doorways,20,0,0,4.98966452885,1.33077728189,0.0,0.0,0.0,0.415057471353,0.909795194247,0.25,0.15,0.0,1.0,0.0,0.0,1.0,2000000000,0,,,0
1449617381956044788,310,1449617381955848475,/odom,doorways,20,0,0,4.98966452885,1.33077728189,0.0,0.0,0.0,0.415057471353,0.909795194247,0.25,0.15,0.0,1.0,0.0,0.0,1.0,2000000000,0,,,0
1449617382052163865,311,1449617382051726334,/odom,doorways,20,0,0,5.00823947612,1.35278348122,0.0,0.0,0.0,0.424648874937,0.905358124178,0.25,0.15,0.0,1.0,0.0,0.0,1.0,2000000000,0,,,0
1449617382052379804,312,1449617382051839997,/odom,doorways,20,0,0,5.00823947612,1.35278348122,0.0,0.0,0.0,0.424648874937,0.905358124178,0.25,0.15,0.0,1.0,0.0,0.0,1.0,2000000000,0,,,0
1449617382253905547,313,1449617382253694580,/odom,doorways,20,0,0,5.03689328669,1.38886253892,0.0,0.0,0.0,0.44368833852,0.896181152592,0.25,0.15,0.0,1.0,0.0,0.0,1.0,2000000000,0,,,0
1449617382253908661,314,1449617382253783705,/odom,doorways,20,0,0,5.03689328669,1.38886253892,0.0,0.0,0.0,0.44368833852,0.896181152592,0.25,0.15,0.0,1.0,0.0,0.0,1.0,2000000000,0,,,0
1449617382254118913,315,1449617382253854259,/odom,doorways,20,0,0,5.03689328669,1.38886253892,0.0,0.0,0.0,0.44368833852,0.896181152592,0.25,0.15,0.0,1.0,0.0,0.0,1.0,2000000000,0,,,0
1449617382318844988,316,1449617382318660465,/odom,doorways,20,0,0,5.05054415022,1.40742070219,0.0,0.0,0.0,0.453134272142,0.891442275983,0.25,0.15,0.0,1.0,0.0,0.0,1.0,2000000000,0,,,0
1449617382318892288,317,1449617382318784256,/odom,doorways,20,0,0,5.05054415022,1.40742070219,0.0,0.0,0.0,0.453134272142,0.891442275983,0.25,0.15,0.0,1.0,0.0,0.0,1.0,2000000000,0,,,0
1449617382432837334,318,1449617382432314550,/odom,doorways,20,0,0,5.06382424133,1.42624515745,0.0,0.0,0.0,0.462529598545,0.886603840771,0.25,0.15,0.0,1.0,0.0,0.0,1.0,2000000000,0,,,0
1449617382432853979,319,1449617382432412402,/odom,doorways,20,0,0,5.06382424133,1.42624515745,0.0,0.0,0.0,0.462529598545,0.886603840771,0.25,0.15,0.0,1.0,0.0,0.0,1.0,2000000000,0,,,0
1449617382538493215,320,1449617382538289363,/odom,doorways,20,0,0,5.07660294928,1.44541466489,0.0,0.0,0.0,0.471873268433,0.881666387325,0.25,0.15,0.0,1.0,0.0,0.0,1.0,2000000000,0,,,0
1449617382538495897,321,1449617382538370929,/odom,doorways,20,0,0,5.07660294928,1.44541466489,0.0,0.0,0.0,0.471873268433,0.881666387325,0.25,0.15,0.0,1.0,0.0,0.0,1.0,2000000000,0,,,0
1449617382654318188,322,1449617382653234601,/odom,doorways,20,0,0,5.09621304879,1.4773002821,0.0,0.0,0.0,0.494999612279,0.868893194727,0.25,0.15,0.0,1.0,0.0,0.0,1.0,2000000000,0,,,0
1449617382654324510,323,1449617382653314587,/odom,doorways,20,0,0,5.09621304879,1.4773002821,0.0,0.0,0.0,0.494999612279,0.868893194727,0.25,0.15,0.0,1.0,0.0,0.0,1.0,2000000000,0,,,0
1449617382654341354,324,1449617382653504811,/odom,doorways,20,0,0,5.09621304879,1.4773002821,0.0,0.0,0.0,0.494999612279,0.868893194727,0.25,0.15,0.0,1.0,0.0,0.0,1.0,2000000000,0,,,0
1449617382823249303,325,1449617382823098353,/odom,doorways,20,0,0,5.09621304879,1.4773002821,0.0,0.0,0.0,0.494999612279,0.868893194727,0.25,0.15,0.0,1.0,0.0,0.0,1.0,2000000000,0,,,0
1449617382823580370,326,1449617382823488614,/odom,doorways,20,0,0,5.09621304879,1.4773002821,0.0,0.0,0.0,0.494999612279,0.868893194727,0.25,0.15,0.0,1.0,0.0,0.0,1.0,2000000000,0,,,0
1449617382943968762,327,1449617382943597910,/odom,doorways,20,0,0,5.12575125175,1.53332884849,0.0,0.0,0.0,0.531276495468,0.847198492304,0.25,0.15,0.0,1.0,0.0,0.0,1.0,2000000000,0,,,0
1449617382943999664,328,1449617382943605432,/odom,doorways,20,0,0,5.12575125175,1.53332884849,0.0,0.0,0.0,0.531276495468,0.847198492304,0.25,0.15,0.0,1.0,0.0,0.0,1.0,2000000000,0,,,0
1449617383028116238,329,1449617383027993191,/odom,doorways,20,0,0,5.13406142079,1.55169450201,0.0,0.0,0.0,0.544639035015,0.838670567945,0.25,0.15,0.0,1.0,0.0,0.0,1.0,2000000000,0,,,0
1449617383028119684,330,1449617383028000129,/odom,doorways,20,0,0,5.13406142079,1.55169450201,0.0,0.0,0.0,0.544639035015,0.838670567945,0.25,0.15,0.0,1.0,0.0,0.0,1.0,2000000000,0,,,0
1449617383116074752,331,1449617383115966938,/odom,doorways,20,0,0,5.14306904374,1.57289861076,0.0,0.0,0.0,0.553471568073,0.832868070786,0.25,0.15,0.0,1.0,0.0,0.0,1.0,2000000000,0,,,0
1449617383116372229,332,1449617383116043507,/odom,doorways,20,0,0,5.14306904374,1.57289861076,0.0,0.0,0.0,0.553471568073,0.832868070786,0.25,0.15,0.0,1.0,0.0,0.0,1.0,2000000000,0,,,0
1449617383237089700,333,1449617383236688642,/odom,doorways,20,0,0,5.1495083289,1.58893241268,0.0,0.0,0.0,0.56224228798,0.826972556744,0.25,0.15,0.0,1.0,0.0,0.0,1.0,2000000000,0,,,0
1449617383237096898,334,1449617383236693780,/odom,doorways,20,0,0,5.1495083289,1.58893241268,0.0,0.0,0.0,0.56224228798,0.826972556744,0.25,0.15,0.0,1.0,0.0,0.0,1.0,2000000000,0,,,0
1449617394319000061,335,1449617394315402056,/odom,doorways,20,0,0,5.19054003531,2.91240305291,0.0,0.0,0.0,0.83788481938,0.545847075153,0.25,0.15,0.0,1.0,0.0,0.0,1.0,2000000000,0,,,0
1449617403154240288,336,1449617403146688779,/odom,doorways,20,0,0,4.18382991532,4.70864247817,0.0,0.0,0.0,0.826161452329,0.563433451869,0.25,0.15,0.0,1.0,0.0,0.0,1.0,2000000000,0,,,0
1449617403154243638,338,1449617403146721625,/odom,doorways,20,0,0,4.18382991532,4.70864247817,0.0,0.0,0.0,0.826161452329,0.563433451869,0.25,0.15,0.0,1.0,0.0,0.0,1.0,2000000000,0,,,0
1449617403315724840,339,1449617403311196419,/odom,doorways,20,0,0,4.16146839149,4.76483113939,0.0,0.0,0.0,0.829127100985,0.55906014919,0.25,0.15,0.0,1.0,0.0,0.0,1.0,2000000000,0,,,0
1449617403315753607,340,1449617403311308225,/odom,doorways,20,0,0,4.16146839149,4.76483113939,0.0,0.0,0.0,0.829127100985,0.55906014919,0.25,0.15,0.0,1.0,0.0,0.0,1.0,2000000000,0,,,0
1449617403446183104,341,1449617403445542843,/odom,doorways,20,0,0,4.14351026745,4.81037457311,0.0,0.0,0.0,0.826161452329,0.563433451869,0.25,0.15,0.0,1.0,0.0,0.0,1.0,2000000000,0,,,0
1449617403446259512,342,1449617403445546925,/odom,doorways,20,0,0,4.14351026745,4.81037457311,0.0,0.0,0.0,0.826161452329,0.563433451869,0.25,0.15,0.0,1.0,0.0,0.0,1.0,2000000000,0,,,0
1449617403764993535,343,1449617403746020669,/odom,doorways,20,0,0,4.11328058116,4.88512674043,0.0,0.0,0.0,0.832069599708,0.554671237078,0.25,0.15,0.0,1.0,0.0,0.0,1.0,2000000000,0,,,0
1449617403765042599,344,1449617403746101222,/odom,doorways,20,0,0,4.11328058116,4.88512674043,0.0,0.0,0.0,0.832069599708,0.554671237078,0.25,0.15,0.0,1.0,0.0,0.0,1.0,2000000000,0,,,0
1449617403765046301,345,1449617403746168084,/odom,doorways,20,0,0,4.11328058116,4.88512674043,0.0,0.0,0.0,0.832069599708,0.554671237078,0.25,0.15,0.0,1.0,0.0,0.0,1.0,2000000000,0,,,0
1449617403853337297,346,1449617403851800289,/odom,doorways,20,0,0,4.09879512076,4.91964769081,0.0,0.0,0.0,0.834988866343,0.550266838074,0.25,0.15,0.0,1.0,0.0,0.0,1.0,2000000000,0,,,0
1449617403853343689,347,1449617403851808013,/odom,doorways,20,0,0,4.09879512076,4.91964769081,0.0,0.0,0.0,0.834988866343,0.550266838074,0.25,0.15,0.0,1.0,0.0,0.0,1.0,2000000000,0,,,0
1449617404111732487,348,1449617404110669553,/odom,doorways,20,0,0,4.06934200948,4.98533793938,0.0,0.0,0.0,0.843606461885,0.5369619516,0.25,0.15,0.0,1.0,0.0,0.0,1.0,2000000000,0,,,0
1449617404111751804,350,1449617404110685122,/odom,doorways,20,0,0,4.06934200948,4.98533793938,0.0,0.0,0.0,0.843606461885,0.5369619516,0.25,0.15,0.0,1.0,0.0,0.0,1.0,2000000000,0,,,0
1449617404289101163,351,1449617404288343802,/odom,doorways,20,0,0,4.04595868428,5.03480390296,0.0,0.0,0.0,0.8464319916,0.532496839048,0.25,0.15,0.0,1.0,0.0,0.0,1.0,2000000000,0,,,0
1449617404289105168,352,1449617404288348384,/odom,doorways,20,0,0,4.04595868428,5.03480390296,0.0,0.0,0.0,0.8464319916,0.532496839048,0.25,0.15,0.0,1.0,0.0,0.0,1.0,2000000000,0,,,0
1449617404458311360,353,1449617404457904787,/odom,doorways,20,0,0,4.02804087618,5.07092025108,0.0,0.0,0.0,0.852012073501,0.523522135739,0.25,0.15,0.0,1.0,0.0,0.0,1.0,2000000000,0,,,0
