%time,field.linear.x,field.linear.y,field.linear.z,field.angular.x,field.angular.y,field.angular.z
1449617321648818223,0.0,0.0,0.0,0.0,0.0,0.0
1449617321698066513,0.0,0.0,0.0,0.0,0.0,0.0
1449617321725461382,0.0,0.0,0.0,0.0,0.0,0.0
1449617321788177353,0.0,0.0,0.0,0.0,0.0,0.0
1449617321864495307,0.0,0.0,0.0,0.0,0.0,0.0
1449617321964407122,0.0,0.0,0.0,0.0,0.0,0.0
1449617322064283689,0.0,0.0,0.0,0.0,0.0,0.0
1449617322114704037,0.0,0.0,0.0,0.0,0.0,0.0
1449617322199199431,0.0,0.0,0.0,0.0,0.0,0.0
1449617322299553530,0.0,0.0,0.0,0.0,0.0,0.0
1449617322349054831,0.0,0.0,0.0,0.0,0.0,0.0
1449617322468291791,0.0,0.0,0.0,0.0,0.0,0.0
1449617322568323970,0.0,0.0,0.0,0.0,0.0,0.0
1449617322621708578,0.0,0.0,0.0,0.0,0.0,0.0
1449617322714846160,0.0,0.0,0.0,0.0,0.0,0.0
1449617322763593100,0.0,0.0,0.0,0.0,0.0,0.0
1449617322835330766,0.0,0.0,0.0,0.0,0.0,0.0
1449617322981940625,0.0,0.0,0.0,0.0,0.0,0.0
1449617323033208079,0.0,0.0,0.0,0.0,0.0,0.0
1449617323086242057,0.0,0.0,0.0,0.0,0.0,0.0
1449617323174177705,0.0,0.0,0.0,0.0,0.0,0.0
1449617323227897763,0.0,0.0,0.0,0.0,0.0,0.0
1449617323273221115,0.0,0.0,0.0,0.0,0.0,0.0
1449617323493179240,0.0,0.0,0.0,0.0,0.0,0.0
1449617323593111578,0.0,0.0,0.0,0.0,0.0,0.0
1449617323693401244,0.0,0.0,0.0,0.0,0.0,0.0
1449617323746754224,0.0,0.0,0.0,0.0,0.0,0.0
1449617323832223555,0.0,0.0,0.0,0.0,0.0,0.0
1449617323982507461,0.0,0.0,0.0,0.0,0.0,0.0
1449617324034058890,0.0,0.0,0.0,0.0,0.0,0.0
1449617324179075271,0.0,0.0,0.0,0.0,0.0,0.0
1449617324227793856,0.0,0.0,0.0,0.0,0.0,0.0
1449617324238541638,0.0,0.0,0.0,0.0,0.0,0.0
1449617324287652321,0.0,0.0,0.0,0.0,0.0,0.0
1449617324402637946,0.0,0.0,0.0,0.0,0.0,0.0
1449617324502182036,0.0,0.0,0.0,0.0,0.0,0.0
1449617324601963257,0.0,0.0,0.0,0.0,0.0,0.0
1449617324702202911,0.0,0.0,0.0,0.0,0.0,0.0
1449617324752001464,0.0,0.0,0.0,0.0,0.0,0.0
1449617324920031768,0.0,0.0,0.0,0.0,0.0,0.0
1449617325019593328,0.0,0.0,0.0,0.0,0.0,0.0
1449617325169860605,0.0,0.0,0.0,0.0,0.0,0.0
1449617325273239504,0.0,0.0,0.0,0.0,0.0,0.0
1449617325319740458,0.0,0.0,0.0,0.0,0.0,0.0
1449617325495675092,0.0,0.0,0.0,0.0,0.0,0.0
1449617325545741198,0.0,0.0,0.0,0.0,0.0,0.0
1449617325617141048,0.0,0.0,0.0,0.0,0.0,0.0
1449617325715126473,0.0,0.0,0.0,0.0,0.0,0.0
1449617325870390039,0.0,0.0,0.0,0.0,0.0,0.0
1449617325915244922,0.0,0.0,0.0,0.0,0.0,0.0
1449617326094158686,0.0,0.0,0.0,0.0,0.0,0.0
1449617326191980158,0.0,0.0,0.0,0.0,0.0,0.0
1449617326292753316,0.0,0.0,0.0,0.0,0.0,0.0
1449617326342512674,0.0,0.0,0.0,0.0,0.0,0.0
1449617326417258168,0.0,0.0,0.0,0.0,0.0,0.0
1449617326517155487,0.0,0.0,0.0,0.0,0.0,0.0
1449617326566671250,0.0,0.0,0.0,0.0,0.0,0.0
1449617326675163370,0.0,0.0,0.0,0.0,0.0,0.0
1449617326724682051,0.0,0.0,0.0,0.0,0.0,0.0
1449617326919463901,0.352,0.0,0.0,0.0,0.0,-0.0210526315789
1449617326999653505,0.352,0.0,0.0,0.0,0.0,-0.0210526315789
1449617327089764839,0.352,0.0,0.0,0.0,0.0,-0.0210526315789
1449617327176916103,0.352,0.0,0.0,0.0,0.0,-0.0210526315789
1449617327249819737,0.352,0.0,0.0,0.0,0.0,-0.0210526315789
1449617327300460966,0.352,0.0,0.0,0.0,0.0,-0.0210526315789
1449617327386569256,0.352,0.0,0.0,0.0,0.0,-0.0210526315789
1449617327440717411,0.352,0.0,0.0,0.0,0.0,-0.0210526315789
1449617327505877458,0.352,0.0,0.0,0.0,0.0,-0.0210526315789
1449617327594463928,0.352,0.0,0.0,0.0,0.0,-0.0210526315789
1449617327686091682,0.352,0.0,0.0,0.0,0.0,-0.0210526315789
1449617327789699620,0.352,0.0,0.0,0.0,0.0,-0.0631578947368
1449617327876200138,0.352,0.0,0.0,0.0,0.0,-0.0210526315789
1449617327927865127,0.352,0.0,0.0,0.0,0.0,-0.105263157895
1449617327999030176,0.352,0.0,0.0,0.0,0.0,-0.0210526315789
1449617328061247313,0.352,0.0,0.0,0.0,0.0,-0.0210526315789
1449617328122028129,0.352,0.0,0.0,0.0,0.0,-0.0210526315789
1449617328238194014,0.352,0.0,0.0,0.0,0.0,-0.0210526315789
1449617328323714082,0.352,0.0,0.0,0.0,0.0,-0.0210526315789
1449617328395418257,0.352,0.0,0.0,0.0,0.0,-0.0210526315789
1449617328485282779,0.352,0.0,0.0,0.0,0.0,-0.0210526315789
1449617328588256679,0.352,0.0,0.0,0.0,0.0,-0.0210526315789
1449617328685326297,0.352,0.0,0.0,0.0,0.0,-0.0210526315789
1449617328745951455,0.352,0.0,0.0,0.0,0.0,-0.0210526315789
1449617328801744225,0.352,0.0,0.0,0.0,0.0,-0.0210526315789
1449617328846154180,0.352,0.0,0.0,0.0,0.0,-0.0210526315789
1449617328893893059,0.352,0.0,0.0,0.0,0.0,-0.0210526315789
1449617328961751871,0.352,0.0,0.0,0.0,0.0,-0.0210526315789
1449617329041773281,0.352,0.0,0.0,0.0,0.0,-0.0210526315789
1449617329128057981,0.352,0.0,0.0,0.0,0.0,-0.0210526315789
1449617329170726778,0.352,0.0,0.0,0.0,0.0,-0.0210526315789
1449617329234078209,0.352,0.0,0.0,0.0,0.0,-0.0210526315789
1449617329279852682,0.352,0.0,0.0,0.0,0.0,-0.0210526315789
1449617329373253877,0.352,0.0,0.0,0.0,0.0,-0.0210526315789
1449617329435862674,0.352,0.0,0.0,0.0,0.0,-0.0210526315789
1449617329490345103,0.352,0.0,0.0,0.0,0.0,-0.0210526315789
1449617329543280800,0.352,0.0,0.0,0.0,0.0,0.0
1449617329640066767,0.352,0.0,0.0,0.0,0.0,-0.0210526315789
1449617329702073064,0.352,0.0,0.0,0.0,0.0,-0.0210526315789
1449617329776305122,0.352,0.0,0.0,0.0,0.0,-0.0210526315789
1449617329840470542,0.352,0.0,0.0,0.0,0.0,0.0
1449617329889213845,0.352,0.0,0.0,0.0,0.0,0.0
1449617329957885691,0.352,0.0,0.0,0.0,0.0,0.0
1449617330061747899,0.352,0.0,0.0,0.0,0.0,0.0
1449617330120262476,0.352,0.0,0.0,0.0,0.0,0.0
1449617330229231492,0.352,0.0,0.0,0.0,0.0,0.0210526315789
1449617330296393706,0.352,0.0,0.0,0.0,0.0,0.0210526315789
1449617330385730730,0.352,0.0,0.0,0.0,0.0,0.0210526315789
1449617330486518991,0.352,0.0,0.0,0.0,0.0,0.0210526315789
1449617330605404785,0.352,0.0,0.0,0.0,0.0,0.0210526315789
1449617330698539403,0.352,0.0,0.0,0.0,0.0,0.0631578947368
1449617330857878971,0.352,0.0,0.0,0.0,0.0,0.0631578947368
1449617330962396302,0.352,0.0,0.0,0.0,0.0,0.0631578947368
1449617331104532564,0.352,0.0,0.0,0.0,0.0,0.0631578947368
1449617331184611675,0.352,0.0,0.0,0.0,0.0,0.0631578947368
1449617331310616442,0.352,0.0,0.0,0.0,0.0,0.0631578947368
1449617331453406405,0.352,0.0,0.0,0.0,0.0,0.0631578947368
1449617331542823531,0.352,0.0,0.0,0.0,0.0,0.0631578947368
1449617331638020206,0.352,0.0,0.0,0.0,0.0,0.0631578947368
1449617331761819487,0.352,0.0,0.0,0.0,0.0,0.0631578947368
1449617331869852674,0.352,0.0,0.0,0.0,0.0,0.0631578947368
1449617331994252923,0.352,0.0,0.0,0.0,0.0,0.105263157895
1449617332051728911,0.352,0.0,0.0,0.0,0.0,0.105263157895
1449617332138364271,0.352,0.0,0.0,0.0,0.0,0.105263157895
1449617332237986180,0.352,0.0,0.0,0.0,0.0,0.105263157895
1449617332275776217,0.352,0.0,0.0,0.0,0.0,0.105263157895
1449617332387043055,0.352,0.0,0.0,0.0,0.0,0.105263157895
1449617332438237595,0.352,0.0,0.0,0.0,0.0,0.105263157895
1449617332513807659,0.352,0.0,0.0,0.0,0.0,0.147368421053
1449617332602191258,0.352,0.0,0.0,0.0,0.0,0.147368421053
1449617332668460491,0.352,0.0,0.0,0.0,0.0,0.147368421053
1449617332733993155,0.352,0.0,0.0,0.0,0.0,0.147368421053
1449617333030257118,0.352,0.0,0.0,0.0,0.0,0.105263157895
1449617333141477660,0.352,0.0,0.0,0.0,0.0,0.147368421053
1449617333203111722,0.352,0.0,0.0,0.0,0.0,0.147368421053
1449617333258531690,0.352,0.0,0.0,0.0,0.0,0.189473684211
1449617333335983483,0.352,0.0,0.0,0.0,0.0,0.147368421053
1449617333406651055,0.352,0.0,0.0,0.0,0.0,0.147368421053
1449617333523290350,0.352,0.0,0.0,0.0,0.0,0.189473684211
1449617333649896681,0.352,0.0,0.0,0.0,0.0,0.189473684211
1449617333745509339,0.352,0.0,0.0,0.0,0.0,0.189473684211
1449617333824219426,0.352,0.0,0.0,0.0,0.0,0.189473684211
1449617333890777572,0.352,0.0,0.0,0.0,0.0,0.189473684211
1449617333946908653,0.352,0.0,0.0,0.0,0.0,0.189473684211
1449617334004329294,0.352,0.0,0.0,0.0,0.0,0.189473684211
1449617334053762876,0.352,0.0,0.0,0.0,0.0,0.189473684211
1449617334138833906,0.352,0.0,0.0,0.0,0.0,0.231578947368
1449617334196013433,0.352,0.0,0.0,0.0,0.0,0.231578947368
1449617334275968410,0.352,0.0,0.0,0.0,0.0,0.189473684211
1449617334353118719,0.352,0.0,0.0,0.0,0.0,0.189473684211
1449617334428659262,0.352,0.0,0.0,0.0,0.0,0.231578947368
1449617334504060802,0.352,0.0,0.0,0.0,0.0,0.231578947368
1449617334582026371,0.352,0.0,0.0,0.0,0.0,0.231578947368
1449617334645404509,0.352,0.0,0.0,0.0,0.0,0.231578947368
1449617334709162257,0.352,0.0,0.0,0.0,0.0,0.231578947368
1449617334804487191,0.352,0.0,0.0,0.0,0.0,0.231578947368
1449617334857221746,0.352,0.0,0.0,0.0,0.0,0.231578947368
1449617334948963168,0.352,0.0,0.0,0.0,0.0,0.231578947368
1449617335020703438,0.352,0.0,0.0,0.0,0.0,0.231578947368
1449617335087680769,0.352,0.0,0.0,0.0,0.0,0.231578947368
1449617335214802801,0.352,0.0,0.0,0.0,0.0,0.231578947368
1449617335290216261,0.352,0.0,0.0,0.0,0.0,0.231578947368
1449617335385247861,0.352,0.0,0.0,0.0,0.0,0.231578947368
1449617335476940994,0.352,0.0,0.0,0.0,0.0,0.231578947368
1449617335571370456,0.352,0.0,0.0,0.0,0.0,0.231578947368
1449617335633382236,0.352,0.0,0.0,0.0,0.0,0.231578947368
1449617335690485514,0.352,0.0,0.0,0.0,0.0,0.189473684211
1449617335765171301,0.352,0.0,0.0,0.0,0.0,0.189473684211
1449617335873492435,0.352,0.0,0.0,0.0,0.0,0.189473684211
1449617335931387671,0.352,0.0,0.0,0.0,0.0,0.189473684211
1449617336006335789,0.352,0.0,0.0,0.0,0.0,0.189473684211
1449617336042989794,0.352,0.0,0.0,0.0,0.0,0.189473684211
1449617336109049061,0.352,0.0,0.0,0.0,0.0,0.189473684211
1449617336174877051,0.352,0.0,0.0,0.0,0.0,0.189473684211
1449617336219954762,0.352,0.0,0.0,0.0,0.0,0.189473684211
1449617336314184004,0.352,0.0,0.0,0.0,0.0,0.189473684211
1449617336379143586,0.352,0.0,0.0,0.0,0.0,0.189473684211
1449617336441507482,0.352,0.0,0.0,0.0,0.0,0.147368421053
1449617336485284849,0.352,0.0,0.0,0.0,0.0,0.189473684211
1449617336538869276,0.352,0.0,0.0,0.0,0.0,0.147368421053
1449617336600316731,0.352,0.0,0.0,0.0,0.0,0.147368421053
1449617336677700677,0.352,0.0,0.0,0.0,0.0,0.147368421053
1449617336719765286,0.352,0.0,0.0,0.0,0.0,0.147368421053
1449617336804831092,0.352,0.0,0.0,0.0,0.0,0.147368421053
1449617336879949170,0.352,0.0,0.0,0.0,0.0,0.147368421053
1449617336942113275,0.352,0.0,0.0,0.0,0.0,0.147368421053
1449617337005877703,0.352,0.0,0.0,0.0,0.0,0.105263157895
1449617337042412996,0.352,0.0,0.0,0.0,0.0,0.105263157895
1449617337123722276,0.348815295672,0.0,0.0,0.0,0.0,0.105263157895
1449617337205457771,0.342182962356,0.0,0.0,0.0,0.0,0.105263157895
1449617337247905927,0.334582883018,0.0,0.0,0.0,0.0,0.105263157895
1449617337297855093,0.329823226254,0.0,0.0,0.0,0.0,0.105263157895
1449617337362175136,0.326972117534,0.0,0.0,0.0,0.0,0.105263157895
1449617337411195948,0.318391388261,0.0,0.0,0.0,0.0,0.0631578947368
1449617337461437830,0.316483933936,0.0,0.0,0.0,0.0,0.0631578947368
1449617337525600227,0.311710303526,0.0,0.0,0.0,0.0,0.0631578947368
1449617337597511630,0.305025547948,0.0,0.0,0.0,0.0,0.0631578947368
1449617337638034426,0.300243943263,0.0,0.0,0.0,0.0,0.0631578947368
1449617337681829290,0.293544740391,0.0,0.0,0.0,0.0,0.0631578947368
1449617337712140958,0.290671687552,0.0,0.0,0.0,0.0,0.0631578947368
1449617337786482636,0.285880323886,0.0,0.0,0.0,0.0,0.0210526315789
1449617337857174746,0.28300390874,0.0,0.0,0.0,0.0,0.0210526315789
1449617337959038651,0.275334013702,0.0,0.0,0.0,0.0,0.0210526315789
1449617338016946223,0.269576968712,0.0,0.0,0.0,0.0,0.0
1449617338063637463,0.262858766084,0.0,0.0,0.0,0.0,0.0210526315789
1449617338119583250,0.259979074702,0.0,0.0,0.0,0.0,0.0
1449617338191904605,0.253259742258,0.0,0.0,0.0,0.0,0.0
1449617338256869299,0.25038010661,0.0,0.0,0.0,0.0,0.0
1449617338294189375,0.244620914366,0.0,0.0,0.0,0.0,0.0
1449617338410037014,0.241741921642,0.0,0.0,0.0,0.0,-0.0210526315789
1449617338467958262,0.23502561921,0.0,0.0,0.0,0.0,-0.0210526315789
1449617338560874559,0.232148771168,0.0,0.0,0.0,0.0,-0.0210526315789
1449617338579625791,0.0,0.0,0.0,0.0,0.0,0.0
1449617338627006939,0.0,0.0,0.0,0.0,0.0,0.0
1449617338939631910,0.0,0.0,0.0,0.0,0.0,0.0
1449617339013887497,0.0,0.0,0.0,0.0,0.0,0.0
1449617339082960415,0.0,0.0,0.0,0.0,0.0,0.0
1449617339222777400,0.0,0.0,0.0,0.0,0.0,0.0
1449617339295660512,0.0,0.0,0.0,0.0,0.0,0.0
1449617339365295116,0.0,0.0,0.0,0.0,0.0,0.0
1449617339459930305,0.0,0.0,0.0,0.0,0.0,0.0
1449617339528599062,0.0,0.0,0.0,0.0,0.0,0.0
1449617339605663711,0.0,0.0,0.0,0.0,0.0,0.0
1449617339710593370,0.0,0.0,0.0,0.0,0.0,0.0
1449617339800558299,0.0,0.0,0.0,0.0,0.0,0.0
1449617339876411198,0.0,0.0,0.0,0.0,0.0,0.0
1449617339973423401,0.0,0.0,0.0,0.0,0.0,0.0
1449617340113245028,0.0,0.0,0.0,0.0,0.0,0.0
1449617340181993585,0.0,0.0,0.0,0.0,0.0,0.0
1449617340300087354,0.0,0.0,0.0,0.0,0.0,0.0
1449617340394266552,0.0,0.0,0.0,0.0,0.0,0.0
1449617340526709300,0.0,0.0,0.0,0.0,0.0,0.0
1449617340658843012,0.0,0.0,0.0,0.0,0.0,0.0
1449617340744836101,0.0,0.0,0.0,0.0,0.0,0.0
1449617340830833285,0.0,0.0,0.0,0.0,0.0,0.0
1449617340961954894,0.0,0.0,0.0,0.0,0.0,0.0
1449617341103754912,0.0,0.0,0.0,0.0,0.0,0.0
1449617341169944401,0.0,0.0,0.0,0.0,0.0,0.0
1449617341281374083,0.0,0.0,0.0,0.0,0.0,0.0
1449617341387193339,0.0,0.0,0.0,0.0,0.0,0.0
1449617341473259445,0.0,0.0,0.0,0.0,0.0,0.0
1449617341594995340,0.0,0.0,0.0,0.0,0.0,0.0
1449617341673025374,0.0,0.0,0.0,0.0,0.0,0.0
1449617341806428929,0.0,0.0,0.0,0.0,0.0,0.0
1449617341854462425,0.0,0.0,0.0,0.0,0.0,0.0
1449617341919642355,0.0,0.0,0.0,0.0,0.0,0.0
1449617342019911918,0.0,0.0,0.0,0.0,0.0,0.0
1449617342065713108,0.0,0.0,0.0,0.0,0.0,0.0
1449617342134417502,0.0,0.0,0.0,0.0,0.0,0.0
1449617342242583823,0.0,0.0,0.0,0.0,0.0,0.0
1449617342317388376,0.0,0.0,0.0,0.0,0.0,0.0
1449617342428087822,0.0,0.0,0.0,0.0,0.0,0.0
1449617342525755814,0.0,0.0,0.0,0.0,0.0,0.0
1449617342605362122,0.0,0.0,0.0,0.0,0.0,0.0
1449617342685660300,0.0,0.0,0.0,0.0,0.0,0.0
1449617342797791488,0.0,0.0,0.0,0.0,0.0,0.0
1449617342883068352,0.0,0.0,0.0,0.0,0.0,0.0
1449617342998352046,0.0,0.0,0.0,0.0,0.0,0.0
1449617343043184957,0.0,0.0,0.0,0.0,0.0,0.0
1449617343096515510,0.0,0.0,0.0,0.0,0.0,0.0
1449617343171926439,0.0,0.0,0.0,0.0,0.0,0.0
1449617343319591832,0.0,0.0,0.0,0.0,0.0,0.0
1449617343393786288,0.0,0.0,0.0,0.0,0.0,0.0
1449617343613811559,0.0,0.0,0.0,0.0,0.0,0.0
1449617343756316468,0.0,0.0,0.0,0.0,0.0,0.0
1449617343827523254,0.0,0.0,0.0,0.0,0.0,0.0
1449617343878257202,0.0,0.0,0.0,0.0,0.0,0.0
1449617344001570607,0.0,0.0,0.0,0.0,0.0,0.0
1449617344119308163,0.0,0.0,0.0,0.0,0.0,0.0
1449617344213221820,0.0,0.0,0.0,0.0,0.0,0.0
1449617344354454941,0.0,0.0,0.0,0.0,0.0,0.0
1449617344491202894,0.0,0.0,0.0,0.0,0.0,0.0
1449617344577493547,0.0,0.0,0.0,0.0,0.0,0.0
1449617344689139614,0.0,0.0,0.0,0.0,0.0,0.0
1449617344798997616,0.0,0.0,0.0,0.0,0.0,0.0
1449617344891990840,0.0,0.0,0.0,0.0,0.0,0.0
1449617344986713635,0.0,0.0,0.0,0.0,0.0,0.0
1449617345098515376,0.0,0.0,0.0,0.0,0.0,0.0
1449617345235630660,0.0,0.0,0.0,0.0,0.0,0.0
1449617345350193834,0.0,0.0,0.0,0.0,0.0,0.0
1449617345484895525,0.0,0.0,0.0,0.0,0.0,0.0
1449617345611122123,0.0,0.0,0.0,0.0,0.0,0.0
1449617345731693655,0.0,0.0,0.0,0.0,0.0,0.0
1449617345822158888,0.0,0.0,0.0,0.0,0.0,0.0
1449617345888809786,0.0,0.0,0.0,0.0,0.0,0.0
1449617345986482590,0.0,0.0,0.0,0.0,0.0,0.0
1449617346054587888,0.0,0.0,0.0,0.0,0.0,0.0
1449617346103448328,0.0,0.0,0.0,0.0,0.0,0.0
1449617346156044907,0.0,0.0,0.0,0.0,0.0,0.0
1449617346224451716,0.0,0.0,0.0,0.0,0.0,0.0
1449617346277029679,0.0,0.0,0.0,0.0,0.0,0.0
1449617346334403511,0.0,0.0,0.0,0.0,0.0,0.0
1449617346464336365,0.0,0.0,0.0,0.0,0.0,0.0
1449617346529689908,0.0,0.0,0.0,0.0,0.0,0.0
1449617346605920506,0.0,0.0,0.0,0.0,0.0,0.0
1449617346659147361,0.0,0.0,0.0,0.0,0.0,0.0
1449617346773699284,0.0,0.0,0.0,0.0,0.0,0.0
1449617346847195559,0.0,0.0,0.0,0.0,0.0,0.0
1449617346946438155,0.0,0.0,0.0,0.0,0.0,0.0
1449617347059601688,0.0,0.0,0.0,0.0,0.0,0.0
1449617347178112651,0.0,0.0,0.0,0.0,0.0,0.0
1449617347263118756,0.0,0.0,0.0,0.0,0.0,0.0
1449617347359035468,0.0,0.0,0.0,0.0,0.0,0.0
1449617347432831608,0.0,0.0,0.0,0.0,0.0,0.0
1449617347506661254,0.0,0.0,0.0,0.0,0.0,0.0
1449617347616948742,0.0,0.0,0.0,0.0,0.0,0.0
1449617347708596816,0.0,0.0,0.0,0.0,0.0,0.0
1449617347796132250,0.0,0.0,0.0,0.0,0.0,0.0
1449617347881436191,0.0,0.0,0.0,0.0,0.0,0.0
1449617347930185583,0.0,0.0,0.0,0.0,0.0,0.0
1449617347984254704,0.0,0.0,0.0,0.0,0.0,0.0
1449617348095629838,0.0,0.0,0.0,0.0,0.0,0.0
1449617348190312225,0.0,0.0,0.0,0.0,0.0,0.0
1449617348314500342,0.0,0.0,0.0,0.0,0.0,0.0
1449617348386636939,0.0,0.0,0.0,0.0,0.0,0.0
1449617348447575216,0.0,0.0,0.0,0.0,0.0,0.0
1449617348518295045,0.0,0.0,0.0,0.0,0.0,0.0
1449617348589319516,0.0,0.0,0.0,0.0,0.0,0.0
1449617348642714569,0.0,0.0,0.0,0.0,0.0,0.0
1449617348738237330,0.0,0.0,0.0,0.0,0.0,0.0
1449617348814951360,0.0,0.0,0.0,0.0,0.0,0.0
1449617348905821352,0.0,0.0,0.0,0.0,0.0,0.0
1449617349019115644,0.0,0.0,0.0,0.0,0.0,0.0
1449617349124864440,0.0,0.0,0.0,0.0,0.0,0.0
1449617349242483384,0.0,0.0,0.0,0.0,0.0,0.0
1449617349325762811,0.0,0.0,0.0,0.0,0.0,0.0
1449617349408157006,0.0,0.0,0.0,0.0,0.0,0.0
1449617349468386708,0.0,0.0,0.0,0.0,0.0,0.0
1449617349551100591,0.0,0.0,0.0,0.0,0.0,0.0
1449617349665286011,0.0,0.0,0.0,0.0,0.0,0.0
1449617349745931416,0.0,0.0,0.0,0.0,0.0,0.0
1449617349879630679,0.0,0.0,0.0,0.0,0.0,0.0
1449617349946208071,0.0,0.0,0.0,0.0,0.0,0.0
1449617350050363690,0.0,0.0,0.0,0.0,0.0,0.0
1449617350097865242,0.0,0.0,0.0,0.0,0.0,0.0
1449617350162533657,0.0,0.0,0.0,0.0,0.0,0.0
1449617350224152422,0.0,0.0,0.0,0.0,0.0,0.0
1449617350272758303,0.0,0.0,0.0,0.0,0.0,0.0
1449617350366583575,0.0,0.0,0.0,0.0,0.0,0.0
1449617350461070006,0.0,0.0,0.0,0.0,0.0,0.0
1449617350555213732,0.0,0.0,0.0,0.0,0.0,0.0
1449617350628159275,0.0,0.0,0.0,0.0,0.0,0.0
1449617350694659871,0.0,0.0,0.0,0.0,0.0,0.0
1449617350765601277,0.0,0.0,0.0,0.0,0.0,0.0
1449617350839838153,0.0,0.0,0.0,0.0,0.0,0.0
1449617350976992587,0.0,0.0,0.0,0.0,0.0,0.0
1449617351055309639,0.0,0.0,0.0,0.0,0.0,0.0
1449617351135378567,0.0,0.0,0.0,0.0,0.0,0.0
1449617351244465212,0.0,0.0,0.0,0.0,0.0,0.0
1449617351349151571,0.0,0.0,0.0,0.0,0.0,0.0
1449617351430360116,0.0,0.0,0.0,0.0,0.0,0.0
1449617351574169760,0.0,0.0,0.0,0.0,0.0,0.0
1449617351686763127,0.0,0.0,0.0,0.0,0.0,0.0
1449617351752581187,0.0,0.0,0.0,0.0,0.0,0.0
1449617351855139443,0.0,0.0,0.0,0.0,0.0,0.0
1449617351963743243,0.0,0.0,0.0,0.0,0.0,0.0
1449617352067774879,0.0,0.0,0.0,0.0,0.0,0.0
1449617352132156497,0.0,0.0,0.0,0.0,0.0,0.0
1449617352191968064,0.0,0.0,0.0,0.0,0.0,0.0
1449617352318223716,0.0,0.0,0.0,0.0,0.0,0.0
1449617352391684709,0.0,0.0,0.0,0.0,0.0,0.0
1449617352516824066,0.0,0.0,0.0,0.0,0.0,0.0
1449617352600708237,0.0,0.0,0.0,0.0,0.0,0.0
1449617352725183891,0.0,0.0,0.0,0.0,0.0,0.0
1449617352817816449,0.0,0.0,0.0,0.0,0.0,0.0
1449617352913008123,0.0,0.0,0.0,0.0,0.0,0.0
1449617352966242419,0.0,0.0,0.0,0.0,0.0,0.0
1449617353015619620,0.0,0.0,0.0,0.0,0.0,0.0
1449617353078712130,0.0,0.0,0.0,0.0,0.0,0.0
1449617353547539757,0.0,0.0,0.0,0.0,0.0,0.0
1449617353680029295,0.0,0.0,0.0,0.0,0.0,0.0
1449617353735143954,0.0,0.0,0.0,0.0,0.0,0.0
1449617353804878159,0.0,0.0,0.0,0.0,0.0,0.0
1449617353913950285,0.0,0.0,0.0,0.0,0.0,0.0
1449617353993722906,0.0,0.0,0.0,0.0,0.0,0.0
1449617354056045233,0.0,0.0,0.0,0.0,0.0,0.0
1449617354119801907,0.0,0.0,0.0,0.0,0.0,0.0
1449617354185835259,0.0,0.0,0.0,0.0,0.0,0.0
1449617354231487305,0.0,0.0,0.0,0.0,0.0,0.0
1449617354295055769,0.0,0.0,0.0,0.0,0.0,0.0
1449617354376406489,0.0,0.0,0.0,0.0,0.0,0.0
1449617354430125657,0.0,0.0,0.0,0.0,0.0,0.0
1449617354485457294,0.0,0.0,0.0,0.0,0.0,0.0
1449617354627577822,0.0,0.0,0.0,0.0,0.0,0.0
1449617354739183154,0.0,0.0,0.0,0.0,0.0,0.0
1449617354815315728,0.0,0.0,0.0,0.0,0.0,0.0
1449617354876199993,0.0,0.0,0.0,0.0,0.0,0.0
1449617354923109958,0.0,0.0,0.0,0.0,0.0,0.0
1449617354998160972,0.0,0.0,0.0,0.0,0.0,0.0
1449617355068120532,0.0,0.0,0.0,0.0,0.0,0.0
1449617355154441108,0.0,0.0,0.0,0.0,0.0,0.0
1449617355205551790,0.0,0.0,0.0,0.0,0.0,0.0
1449617355328894723,0.0,0.0,0.0,0.0,0.0,0.0
1449617355388300559,0.0,0.0,0.0,0.0,0.0,0.0
1449617355451231621,0.0,0.0,0.0,0.0,0.0,0.0
1449617355550694847,0.0,0.0,0.0,0.0,0.0,0.0
1449617355667113241,0.0,0.0,0.0,0.0,0.0,0.0
1449617355765760438,0.0,0.0,0.0,0.0,0.0,0.0
1449617355830792640,0.0,0.0,0.0,0.0,0.0,0.0
1449617355899398172,0.0,0.0,0.0,0.0,0.0,0.0
1449617356019382143,0.0,0.0,0.0,0.0,0.0,0.0
1449617356113083550,0.0,0.0,0.0,0.0,0.0,0.0
1449617356240254673,0.0,0.0,0.0,0.0,0.0,0.0
1449617356345774094,0.0,0.0,0.0,0.0,0.0,0.0
1449617356406877256,0.0,0.0,0.0,0.0,0.0,0.0
1449617356488252798,0.0,0.0,0.0,0.0,0.0,0.0
1449617356581788296,0.0,0.0,0.0,0.0,0.0,0.0
1449617356705482948,0.0,0.0,0.0,0.0,0.0,0.0
1449617356793268279,0.0,0.0,0.0,0.0,0.0,0.0
1449617356878737113,0.0,0.0,0.0,0.0,0.0,0.0
1449617356921911224,0.0,0.0,0.0,0.0,0.0,0.0
1449617357009831066,0.0,0.0,0.0,0.0,0.0,0.0
1449617357095549106,0.0,0.0,0.0,0.0,0.0,0.0
1449617357183435860,0.0,0.0,0.0,0.0,0.0,0.0
1449617357268695658,0.12,0.0,0.0,0.0,0.0,-0.147368421053
1449617357383778266,0.12,0.0,0.0,0.0,0.0,-0.147368421053
1449617357475518807,0.247280678768,0.0,0.0,0.0,0.0,-0.231578947368
1449617357539421792,0.24637310475,0.0,0.0,0.0,0.0,-0.231578947368
1449617357583643379,0.245469187219,0.0,0.0,0.0,0.0,-0.189473684211
1449617357675762881,0.245469187219,0.0,0.0,0.0,0.0,-0.189473684211
1449617357738876497,0.243659354805,0.0,0.0,0.0,0.0,-0.189473684211
1449617357803319488,0.242753424308,0.0,0.0,0.0,0.0,-0.231578947368
1449617357847764065,0.241851218773,0.0,0.0,0.0,0.0,-0.231578947368
1449617357910982627,0.240946138047,0.0,0.0,0.0,0.0,-0.231578947368
1449617357977264457,0.239137110947,0.0,0.0,0.0,0.0,-0.231578947368
1449617358084122116,0.243126430515,0.0,0.0,0.0,0.0,-0.189473684211
1449617358123570164,0.241461997481,0.0,0.0,0.0,0.0,-0.189473684211
1449617358189379920,0.239796236639,0.0,0.0,0.0,0.0,-0.231578947368
1449617358234780539,0.239796236639,0.0,0.0,0.0,0.0,-0.231578947368
1449617358289088205,0.238134380405,0.0,0.0,0.0,0.0,-0.231578947368
1449617358350550478,0.235643725893,0.0,0.0,0.0,0.0,-0.189473684211
1449617358399042664,0.233981477556,0.0,0.0,0.0,0.0,-0.189473684211
1449617358446921700,0.23232312231,0.0,0.0,0.0,0.0,-0.231578947368
1449617358493766059,0.229827840272,0.0,0.0,0.0,0.0,-0.231578947368
1449617358542520640,0.228169403166,0.0,0.0,0.0,0.0,-0.189473684211
1449617358632344404,0.12,0.0,0.0,0.0,0.0,-0.105263157895
1449617358680610095,0.12,0.0,0.0,0.0,0.0,-0.105263157895
1449617358722377010,0.12,0.0,0.0,0.0,0.0,-0.105263157895
1449617358790712238,0.12,0.0,0.0,0.0,0.0,-0.105263157895
1449617358875120013,0.12,0.0,0.0,0.0,0.0,-0.0631578947368
1449617358945543305,0.0,0.0,0.0,0.0,0.0,0.31
1449617358986738270,0.0,0.0,0.0,0.0,0.0,0.31
1449617359057542029,0.0,0.0,0.0,0.0,0.0,0.31
1449617359127422190,0.0,0.0,0.0,0.0,0.0,0.31
1449617359187620394,0.0,0.0,0.0,0.0,0.0,0.31
1449617359253796418,0.0,0.0,0.0,0.0,0.0,0.31
1449617359323233588,0.0,0.0,0.0,0.0,0.0,0.31
1449617359386472529,0.0,0.0,0.0,0.0,0.0,0.31
1449617359431289247,0.0,0.0,0.0,0.0,0.0,0.31
1449617359471270912,0.0,0.0,0.0,0.0,0.0,0.31
1449617359561915637,0.0,0.0,0.0,0.0,0.0,0.31
1449617359628677106,0.0,0.0,0.0,0.0,0.0,0.31
1449617359678614802,0.0,0.0,0.0,0.0,0.0,0.31
1449617359765840408,0.0,0.0,0.0,0.0,0.0,0.31
1449617359831883544,0.0,0.0,0.0,0.0,0.0,0.31
1449617359915811478,0.0,0.0,0.0,0.0,0.0,0.31
1449617360010677720,0.0,0.0,0.0,0.0,0.0,0.31
1449617360117833935,0.0,0.0,0.0,0.0,0.0,0.31
1449617360208633975,0.0,0.0,0.0,0.0,0.0,0.31
1449617360261203260,0.0,0.0,0.0,0.0,0.0,0.31
1449617360325566880,0.0,0.0,0.0,0.0,0.0,0.31
1449617360402790900,0.0,0.0,0.0,0.0,0.0,0.31
1449617360456565389,0.0,0.0,0.0,0.0,0.0,0.31
1449617360527773365,0.0,0.0,0.0,0.0,0.0,0.31
1449617360602898672,0.0,0.0,0.0,0.0,0.0,0.31
1449617360679075851,0.0,0.0,0.0,0.0,0.0,0.31
1449617360773035762,0.0,0.0,0.0,0.0,0.0,0.31
1449617360822295771,0.0,0.0,0.0,0.0,0.0,0.31
1449617360895098093,0.0,0.0,0.0,0.0,0.0,0.31
1449617360959040944,0.0,0.0,0.0,0.0,0.0,0.31
1449617361012515392,0.0,0.0,0.0,0.0,0.0,0.31
1449617361062934175,0.0,0.0,0.0,0.0,0.0,0.31
1449617361164963925,0.0,0.0,0.0,0.0,0.0,0.31
1449617361243293616,0.0,0.0,0.0,0.0,0.0,0.31
1449617361378440778,0.164828059379,0.0,0.0,0.0,0.0,-0.147368421053
1449617361428113980,0.164828059379,0.0,0.0,0.0,0.0,-0.147368421053
1449617361486429335,0.164828059379,0.0,0.0,0.0,0.0,-0.147368421053
1449617361562894938,0.164828059379,0.0,0.0,0.0,0.0,-0.147368421053
1449617361619926988,0.164828059379,0.0,0.0,0.0,0.0,-0.147368421053
1449617361691975190,0.163942818096,0.0,0.0,0.0,0.0,-0.147368421053
1449617361760757666,0.16305442266,0.0,0.0,0.0,0.0,-0.147368421053
1449617361877345931,0.16305442266,0.0,0.0,0.0,0.0,-0.147368421053
1449617361953766132,0.161276293262,0.0,0.0,0.0,0.0,-0.147368421053
1449617362022971332,0.160386547904,0.0,0.0,0.0,0.0,-0.147368421053
1449617362076535477,0.158609508334,0.0,0.0,0.0,0.0,-0.147368421053
1449617362183320521,0.158609508334,0.0,0.0,0.0,0.0,-0.147368421053
1449617362268446096,0.155938635219,0.0,0.0,0.0,0.0,-0.147368421053
1449617362324790539,0.153271437023,0.0,0.0,0.0,0.0,-0.147368421053
1449617362382499365,0.15149248612,0.0,0.0,0.0,0.0,-0.147368421053
1449617362439092857,0.150600518702,0.0,0.0,0.0,0.0,-0.147368421053
1449617362497317221,0.148819041824,0.0,0.0,0.0,0.0,-0.147368421053
1449617362543561926,0.147041127477,0.0,0.0,0.0,0.0,-0.189473684211
1449617362589008809,0.135689772231,0.0,0.0,0.0,0.0,-0.147368421053
1449617362631835575,0.144369320443,0.0,0.0,0.0,0.0,-0.147368421053
1449617362688627276,0.134086056389,0.0,0.0,0.0,0.0,-0.147368421053
1449617362764968317,0.141694202361,0.0,0.0,0.0,0.0,-0.147368421053
1449617362808488671,0.12,0.0,0.0,0.0,0.0,-0.147368421053
1449617362907493774,0.127607870755,0.0,0.0,0.0,0.0,-0.147368421053
1449617362986844095,0.123267630206,0.0,0.0,0.0,0.0,-0.147368421053
1449617363065839902,0.130925938063,0.0,0.0,0.0,0.0,-0.105263157895
1449617363112114305,0.12,0.0,0.0,0.0,0.0,-0.147368421053
1449617363226162506,0.12,0.0,0.0,0.0,0.0,-0.147368421053
1449617363305792923,0.12604577144,0.0,0.0,0.0,0.0,-0.147368421053
1449617363384120463,0.121657506995,0.0,0.0,0.0,0.0,-0.147368421053
1449617363438111965,0.12443346927,0.0,0.0,0.0,0.0,-0.105263157895
1449617363479101958,0.12,0.0,0.0,0.0,0.0,-0.147368421053
1449617363569304049,0.12,0.0,0.0,0.0,0.0,-0.147368421053
1449617363639763683,0.12,0.0,0.0,0.0,0.0,-0.147368421053
1449617363702918174,0.12,0.0,0.0,0.0,0.0,-0.147368421053
1449617363782983502,0.12115995482,0.0,0.0,0.0,0.0,-0.147368421053
1449617363878489088,0.121199900116,0.0,0.0,0.0,0.0,-0.147368421053
1449617363919754418,0.12,0.0,0.0,0.0,0.0,-0.105263157895
1449617363990925524,0.12,0.0,0.0,0.0,0.0,-0.105263157895
1449617364097714378,0.12,0.0,0.0,0.0,0.0,-0.105263157895
1449617364160516566,0.12,0.0,0.0,0.0,0.0,-0.147368421053
1449617364207333490,0.12,0.0,0.0,0.0,0.0,-0.147368421053
1449617364296820139,0.12,0.0,0.0,0.0,0.0,-0.147368421053
1449617364366501393,0.12,0.0,0.0,0.0,0.0,-0.105263157895
1449617364424016158,0.12,0.0,0.0,0.0,0.0,-0.105263157895
1449617364509402187,0.12,0.0,0.0,0.0,0.0,-0.105263157895
1449617364582191751,0.12,0.0,0.0,0.0,0.0,-0.105263157895
1449617364653100109,0.12,0.0,0.0,0.0,0.0,-0.0631578947368
1449617364718933968,0.12,0.0,0.0,0.0,0.0,-0.147368421053
1449617364774064896,0.12,0.0,0.0,0.0,0.0,-0.105263157895
1449617364822670019,0.12,0.0,0.0,0.0,0.0,-0.105263157895
1449617364865932584,0.12,0.0,0.0,0.0,0.0,-0.0631578947368
1449617364919896785,0.12,0.0,0.0,0.0,0.0,-0.0210526315789
1449617364981948094,0.12,0.0,0.0,0.0,0.0,-0.147368421053
1449617365047550683,0.12,0.0,0.0,0.0,0.0,-0.105263157895
1449617365097928262,-0.1,0.0,0.0,0.0,0.0,0.0
1449617365173358894,0.0,0.0,0.0,0.0,0.0,0.31
1449617365220156610,0.0,0.0,0.0,0.0,0.0,0.31
1449617365325741907,0.0,0.0,0.0,0.0,0.0,0.31
1449617365398249990,0.0,0.0,0.0,0.0,0.0,0.31
1449617365445510799,0.0,0.0,0.0,0.0,0.0,0.31
1449617365505788681,0.0,0.0,0.0,0.0,0.0,0.31
1449617365573916022,0.0,0.0,0.0,0.0,0.0,0.31
1449617365629575542,0.0,0.0,0.0,0.0,0.0,0.31
1449617365695064142,0.0,0.0,0.0,0.0,0.0,0.31
1449617365778965682,0.0,0.0,0.0,0.0,0.0,0.31
1449617365832375416,0.0,0.0,0.0,0.0,0.0,0.31
1449617365883112496,0.0,0.0,0.0,0.0,0.0,0.31
1449617365958250762,0.0,0.0,0.0,0.0,0.0,0.31
1449617366041188650,0.0,0.0,0.0,0.0,0.0,0.31
1449617366098097134,0.12,0.0,0.0,0.0,0.0,-0.357894736842
1449617366177392040,0.12,0.0,0.0,0.0,0.0,-0.357894736842
1449617366238021508,0.12,0.0,0.0,0.0,0.0,-0.273684210526
1449617366302506597,0.12,0.0,0.0,0.0,0.0,-0.273684210526
1449617366372396616,0.0,0.0,0.0,0.0,0.0,-0.4
1449617366412313033,0.0,0.0,0.0,0.0,0.0,-0.4
1449617366504718261,0.0,0.0,0.0,0.0,0.0,-0.4
1449617366577500956,0.0,0.0,0.0,0.0,0.0,-0.4
1449617366577516919,0.0,0.0,0.0,0.0,0.0,0.0
1449617366613754340,0.0,0.0,0.0,0.0,0.0,0.0
1449617374222967998,0.12,0.0,0.0,0.0,0.0,0.273684210526
1449617374292900568,0.12,0.0,0.0,0.0,0.0,0.231578947368
1449617374359632527,0.12,0.0,0.0,0.0,0.0,0.231578947368
1449617374410955184,0.12,0.0,0.0,0.0,0.0,0.147368421053
1449617374459297343,0.12,0.0,0.0,0.0,0.0,0.147368421053
1449617374533691172,0.12,0.0,0.0,0.0,0.0,0.147368421053
1449617374596960962,0.12,0.0,0.0,0.0,0.0,0.147368421053
1449617374689336182,0.12,0.0,0.0,0.0,0.0,0.231578947368
1449617374735319808,0.12,0.0,0.0,0.0,0.0,0.231578947368
1449617374792974116,0.12,0.0,0.0,0.0,0.0,0.231578947368
1449617374846035490,0.12,0.0,0.0,0.0,0.0,0.231578947368
1449617374908681614,0.12,0.0,0.0,0.0,0.0,0.273684210526
1449617374982318914,0.12,0.0,0.0,0.0,0.0,0.231578947368
1449617375026555803,0.12,0.0,0.0,0.0,0.0,0.189473684211
1449617375068013909,0.12,0.0,0.0,0.0,0.0,0.273684210526
1449617375148825403,0.12,0.0,0.0,0.0,0.0,0.273684210526
1449617375195512132,0.12,0.0,0.0,0.0,0.0,0.273684210526
1449617375243800539,0.12,0.0,0.0,0.0,0.0,0.273684210526
1449617375323199327,0.12,0.0,0.0,0.0,0.0,0.315789473684
1449617375456606897,0.12,0.0,0.0,0.0,0.0,0.315789473684
1449617375531042001,0.12,0.0,0.0,0.0,0.0,0.315789473684
1449617375641847667,0.12,0.0,0.0,0.0,0.0,0.357894736842
1449617375755180847,0.12,0.0,0.0,0.0,0.0,0.357894736842
1449617375801616673,0.0,0.0,0.0,0.0,0.0,0.31
1449617375894307722,0.0,0.0,0.0,0.0,0.0,0.0
1449617375953269518,0.0,0.0,0.0,0.0,0.0,0.0
1449617376012107187,0.0,0.0,0.0,0.0,0.0,0.0
1449617376087041869,0.0,0.0,0.0,0.0,0.0,0.0
1449617376188407153,0.12,0.0,0.0,0.0,0.0,-0.0631578947368
1449617376247670880,0.12,0.0,0.0,0.0,0.0,-0.0631578947368
1449617376345353299,0.12,0.0,0.0,0.0,0.0,-0.105263157895
1449617376474248910,0.12,0.0,0.0,0.0,0.0,0.0
1449617376542172875,0.165511589945,0.0,0.0,0.0,0.0,-0.0631578947368
1449617376656279840,0.161683083707,0.0,0.0,0.0,0.0,-0.0631578947368
1449617376729672527,0.158814571549,0.0,0.0,0.0,0.0,-0.105263157895
1449617376840770111,0.154037729312,0.0,0.0,0.0,0.0,-0.105263157895
1449617376922120991,0.148309920571,0.0,0.0,0.0,0.0,-0.105263157895
1449617376988852245,0.144492687646,0.0,0.0,0.0,0.0,-0.147368421053
1449617377047991119,0.13806765449,0.0,0.0,0.0,0.0,-0.0631578947368
1449617377141678871,0.135781255813,0.0,0.0,0.0,0.0,-0.147368421053
1449617377209856352,0.134013461617,0.0,0.0,0.0,0.0,-0.105263157895
1449617377297057617,0.126695973982,0.0,0.0,0.0,0.0,-0.147368421053
1449617377356095915,0.121280806896,0.0,0.0,0.0,0.0,-0.147368421053
1449617377431965689,0.121280806896,0.0,0.0,0.0,0.0,-0.147368421053
1449617377498390665,0.12,0.0,0.0,0.0,0.0,-0.147368421053
1449617377596065698,0.12,0.0,0.0,0.0,0.0,-0.189473684211
1449617377641200445,0.12,0.0,0.0,0.0,0.0,-0.147368421053
1449617377692756133,0.12,0.0,0.0,0.0,0.0,-0.147368421053
1449617377743682616,0.12,0.0,0.0,0.0,0.0,-0.189473684211
1449617377792775362,0.12,0.0,0.0,0.0,0.0,-0.189473684211
1449617377829876521,0.12,0.0,0.0,0.0,0.0,-0.189473684211
1449617377889836267,0.12,0.0,0.0,0.0,0.0,-0.189473684211
1449617377986812427,0.12,0.0,0.0,0.0,0.0,-0.231578947368
1449617378045782198,0.12,0.0,0.0,0.0,0.0,-0.231578947368
1449617378121102071,0.12,0.0,0.0,0.0,0.0,0.0
1449617378183467280,0.12,0.0,0.0,0.0,0.0,0.0
1449617378232366691,0.12,0.0,0.0,0.0,0.0,-0.315789473684
1449617378284758456,0.12,0.0,0.0,0.0,0.0,-0.273684210526
1449617378356452412,0.12,0.0,0.0,0.0,0.0,0.0
1449617378474315156,0.12,0.0,0.0,0.0,0.0,0.0
1449617378550183736,0.12,0.0,0.0,0.0,0.0,-0.357894736842
1449617378618559936,0.12,0.0,0.0,0.0,0.0,-0.357894736842
1449617378684855955,0.12,0.0,0.0,0.0,0.0,-0.4
1449617378787356713,0.12,0.0,0.0,0.0,0.0,-0.357894736842
1449617378860842789,0.12,0.0,0.0,0.0,0.0,-0.4
1449617378925355739,0.12,0.0,0.0,0.0,0.0,-0.4
1449617378979717563,0.12,0.0,0.0,0.0,0.0,-0.4
1449617379031948113,0.12,0.0,0.0,0.0,0.0,-0.4
1449617379115658448,0.0,0.0,0.0,0.0,0.0,-0.315789473684
1449617379191004874,0.0,0.0,0.0,0.0,0.0,-0.31
1449617379237547400,0.0,0.0,0.0,0.0,0.0,-0.31
1449617379290821666,0.0,0.0,0.0,0.0,0.0,-0.31
1449617379350482247,0.0,0.0,0.0,0.0,0.0,-0.315789473684
1449617379444273516,0.0,0.0,0.0,0.0,0.0,-0.315789473684
1449617379444872646,0.0,0.0,0.0,0.0,0.0,0.0
1449617379494023894,0.0,0.0,0.0,0.0,0.0,0.0
1449617388141133664,0.0,0.0,0.0,0.0,0.0,-0.4
1449617388141167727,0.0,0.0,0.0,0.0,0.0,0.0
1449617388195560435,0.0,0.0,0.0,0.0,0.0,0.0
1449617388227181667,0.0,0.0,0.0,0.0,0.0,0.0
1449617388327677487,0.0,0.0,0.0,0.0,0.0,0.0
1449617388376598650,0.0,0.0,0.0,0.0,0.0,0.0
1449617388425243148,0.0,0.0,0.0,0.0,0.0,0.0
1449617388492005713,0.0,0.0,0.0,0.0,0.0,0.0
1449617388582886417,0.0,0.0,0.0,0.0,0.0,0.0
1449617388633776942,0.0,0.0,0.0,0.0,0.0,0.0
1449617388761903909,0.0,0.0,0.0,0.0,0.0,0.0
1449617388810684906,0.0,0.0,0.0,0.0,0.0,0.0
1449617388877934692,0.0,0.0,0.0,0.0,0.0,0.0
1449617388928187833,0.0,0.0,0.0,0.0,0.0,0.0
1449617388984401935,0.0,0.0,0.0,0.0,0.0,0.0
1449617389031656074,0.0,0.0,0.0,0.0,0.0,0.0
1449617389103692459,0.0,0.0,0.0,0.0,0.0,0.0
1449617389206105114,0.0,0.0,0.0,0.0,0.0,0.0
1449617389303355020,0.0,0.0,0.0,0.0,0.0,0.0
1449617389362194723,0.0,0.0,0.0,0.0,0.0,0.0
1449617389569885795,0.0,0.0,0.0,0.0,0.0,0.0
1449617389620205960,0.0,0.0,0.0,0.0,0.0,0.0
1449617389672409477,0.0,0.0,0.0,0.0,0.0,0.0
1449617389776382085,0.0,0.0,0.0,0.0,0.0,0.0
1449617389872109772,0.0,0.0,0.0,0.0,0.0,0.0
1449617389922066903,0.0,0.0,0.0,0.0,0.0,0.0
1449617390021529509,0.0,0.0,0.0,0.0,0.0,0.0
1449617390070682647,0.0,0.0,0.0,0.0,0.0,0.0
1449617390188044715,0.0,0.0,0.0,0.0,0.0,0.0
1449617390238204454,0.0,0.0,0.0,0.0,0.0,0.0
1449617390378002817,0.0,0.0,0.0,0.0,0.0,0.0
1449617390428622265,0.0,0.0,0.0,0.0,0.0,0.0
1449617390556311540,0.0,0.0,0.0,0.0,0.0,0.0
1449617390670254069,0.0,0.0,0.0,0.0,0.0,0.0
1449617390703485571,0.0,0.0,0.0,0.0,0.0,0.0
1449617390808103305,0.0,0.0,0.0,0.0,0.0,0.0
1449617390858279151,0.0,0.0,0.0,0.0,0.0,0.0
1449617390977976745,0.0,0.0,0.0,0.0,0.0,0.0
1449617391077728134,0.0,0.0,0.0,0.0,0.0,0.0
1449617391127706314,0.0,0.0,0.0,0.0,0.0,0.0
1449617391338555164,0.0,0.0,0.0,0.0,0.0,0.0
1449617391449964592,0.0,0.0,0.0,0.0,0.0,0.0
1449617391491986299,0.0,0.0,0.0,0.0,0.0,0.0
1449617391663640846,0.0,0.0,0.0,0.0,0.0,0.0
1449617391766019709,0.0,0.0,0.0,0.0,0.0,0.0
1449617391818556733,0.0,0.0,0.0,0.0,0.0,0.0
1449617392090544899,0.12,0.0,0.0,0.0,0.0,-0.105263157895
1449617392215637432,0.12,0.0,0.0,0.0,0.0,-0.0210526315789
1449617392285361521,0.12,0.0,0.0,0.0,0.0,-0.0210526315789
1449617392326274829,0.12,0.0,0.0,0.0,0.0,-0.0210526315789
1449617392396748295,0.12,0.0,0.0,0.0,0.0,-0.0210526315789
1449617392434201400,0.12,0.0,0.0,0.0,0.0,-0.0210526315789
1449617392498329449,0.12,0.0,0.0,0.0,0.0,-0.0210526315789
1449617392575191938,0.12,0.0,0.0,0.0,0.0,-0.0210526315789
1449617392618164211,0.12,0.0,0.0,0.0,0.0,-0.0210526315789
1449617392684909157,0.12,0.0,0.0,0.0,0.0,0.0
1449617392778173995,0.12,0.0,0.0,0.0,0.0,-0.0631578947368
1449617392834618847,0.12,0.0,0.0,0.0,0.0,-0.0631578947368
1449617392933106837,0.12,0.0,0.0,0.0,0.0,-0.0210526315789
1449617392966406751,0.12,0.0,0.0,0.0,0.0,-0.0210526315789
1449617393024391862,0.12,0.0,0.0,0.0,0.0,0.0
1449617393089840910,0.12,0.0,0.0,0.0,0.0,-0.0631578947368
1449617393169111330,0.12,0.0,0.0,0.0,0.0,-0.0631578947368
1449617393224704668,0.12,0.0,0.0,0.0,0.0,-0.0631578947368
1449617393276629516,0.12,0.0,0.0,0.0,0.0,0.0
1449617393352513728,0.12,0.0,0.0,0.0,0.0,0.0
1449617393406049723,0.12,0.0,0.0,0.0,0.0,-0.105263157895
1449617393478850286,0.12,0.0,0.0,0.0,0.0,-0.0631578947368
1449617393548090122,0.12,0.0,0.0,0.0,0.0,-0.147368421053
1449617393613630905,0.12,0.0,0.0,0.0,0.0,-0.147368421053
1449617393678261059,0.0,0.0,0.0,0.0,0.0,-0.31
1449617393750421982,0.0,0.0,0.0,0.0,0.0,-0.315789473684
1449617393802795156,0.0,0.0,0.0,0.0,0.0,-0.315789473684
1449617393899632712,0.0,0.0,0.0,0.0,0.0,-0.315789473684
1449617394013040359,0.0,0.0,0.0,0.0,0.0,-0.31
1449617394013044580,0.0,0.0,0.0,0.0,0.0,0.0
1449617394056304390,0.0,0.0,0.0,0.0,0.0,0.0
1449617395737757371,0.352,0.0,0.0,0.0,0.0,0.0210526315789
1449617395804312540,0.352,0.0,0.0,0.0,0.0,0.0210526315789
1449617395868609899,0.352,0.0,0.0,0.0,0.0,0.0210526315789
1449617395972255055,0.352,0.0,0.0,0.0,0.0,0.0210526315789
1449617396021717937,0.352,0.0,0.0,0.0,0.0,0.0210526315789
1449617396060809294,0.352,0.0,0.0,0.0,0.0,-0.0210526315789
1449617396188593373,0.352,0.0,0.0,0.0,0.0,0.0
1449617396252722312,0.352,0.0,0.0,0.0,0.0,0.0
1449617396335916323,0.352,0.0,0.0,0.0,0.0,-0.0210526315789
1449617396457288172,0.352,0.0,0.0,0.0,0.0,-0.0210526315789
1449617396563662675,0.352,0.0,0.0,0.0,0.0,-0.0210526315789
1449617396609656519,0.352,0.0,0.0,0.0,0.0,-0.0210526315789
1449617396701215808,0.352,0.0,0.0,0.0,0.0,-0.0210526315789
1449617396753206436,0.352,0.0,0.0,0.0,0.0,-0.0631578947368
1449617396797803029,0.352,0.0,0.0,0.0,0.0,-0.0631578947368
1449617396904262651,0.352,0.0,0.0,0.0,0.0,-0.0631578947368
1449617396993175822,0.352,0.0,0.0,0.0,0.0,-0.0631578947368
1449617397034081385,0.352,0.0,0.0,0.0,0.0,-0.0631578947368
1449617397100349580,0.352,0.0,0.0,0.0,0.0,-0.0631578947368
1449617397160341921,0.352,0.0,0.0,0.0,0.0,-0.0631578947368
1449617397228004728,0.352,0.0,0.0,0.0,0.0,-0.0631578947368
1449617397289106746,0.352,0.0,0.0,0.0,0.0,-0.0631578947368
1449617397390268437,0.352,0.0,0.0,0.0,0.0,-0.0631578947368
1449617397474192497,0.352,0.0,0.0,0.0,0.0,-0.0631578947368
1449617397565654389,0.352,0.0,0.0,0.0,0.0,-0.0631578947368
1449617397635595342,0.352,0.0,0.0,0.0,0.0,-0.0631578947368
1449617397681179600,0.352,0.0,0.0,0.0,0.0,-0.105263157895
1449617397772337199,0.352,0.0,0.0,0.0,0.0,-0.105263157895
1449617397849145024,0.352,0.0,0.0,0.0,0.0,-0.105263157895
1449617397912375778,0.352,0.0,0.0,0.0,0.0,-0.105263157895
1449617397958288328,0.352,0.0,0.0,0.0,0.0,-0.105263157895
1449617398015462410,0.352,0.0,0.0,0.0,0.0,-0.105263157895
1449617398073914441,0.352,0.0,0.0,0.0,0.0,-0.105263157895
1449617398116257983,0.352,0.0,0.0,0.0,0.0,-0.105263157895
1449617398151602749,0.352,0.0,0.0,0.0,0.0,-0.105263157895
1449617398210778693,0.352,0.0,0.0,0.0,0.0,-0.105263157895
1449617398286648345,0.352,0.0,0.0,0.0,0.0,-0.0631578947368
1449617398358000038,0.352,0.0,0.0,0.0,0.0,-0.105263157895
1449617398422014923,0.352,0.0,0.0,0.0,0.0,-0.105263157895
1449617398509982936,0.352,0.0,0.0,0.0,0.0,-0.0631578947368
1449617398556911092,0.352,0.0,0.0,0.0,0.0,-0.105263157895
1449617398623571547,0.352,0.0,0.0,0.0,0.0,-0.105263157895
1449617398691649136,0.352,0.0,0.0,0.0,0.0,-0.0631578947368
1449617398757144205,0.352,0.0,0.0,0.0,0.0,-0.0631578947368
1449617398850560674,0.352,0.0,0.0,0.0,0.0,-0.105263157895
1449617398926704318,0.352,0.0,0.0,0.0,0.0,-0.0631578947368
1449617398992941863,0.352,0.0,0.0,0.0,0.0,-0.0631578947368
1449617399067907280,0.352,0.0,0.0,0.0,0.0,-0.0631578947368
1449617399116801694,0.352,0.0,0.0,0.0,0.0,-0.0631578947368
1449617399176238309,0.352,0.0,0.0,0.0,0.0,-0.0631578947368
1449617399295177412,0.352,0.0,0.0,0.0,0.0,-0.0631578947368
1449617399415452869,0.352,0.0,0.0,0.0,0.0,-0.0631578947368
1449617399470843526,0.352,0.0,0.0,0.0,0.0,-0.0631578947368
1449617399536768491,0.352,0.0,0.0,0.0,0.0,-0.0631578947368
1449617399609634055,0.352,0.0,0.0,0.0,0.0,-0.0631578947368
1449617399686368305,0.352,0.0,0.0,0.0,0.0,-0.0631578947368
1449617399758489010,0.352,0.0,0.0,0.0,0.0,-0.0631578947368
1449617399846726814,0.352,0.0,0.0,0.0,0.0,-0.0210526315789
1449617399901794320,0.352,0.0,0.0,0.0,0.0,0.0
1449617399966436950,0.352,0.0,0.0,0.0,0.0,-0.0210526315789
1449617400029797257,0.352,0.0,0.0,0.0,0.0,-0.0210526315789
1449617400097784459,0.352,0.0,0.0,0.0,0.0,-0.0210526315789
1449617400157457771,0.352,0.0,0.0,0.0,0.0,-0.0210526315789
1449617400251128046,0.352,0.0,0.0,0.0,0.0,-0.0210526315789
1449617400358767147,0.352,0.0,0.0,0.0,0.0,-0.0210526315789
1449617400450166368,0.352,0.0,0.0,0.0,0.0,0.0
1449617400502799595,0.352,0.0,0.0,0.0,0.0,-0.0210526315789
1449617400562832507,0.352,0.0,0.0,0.0,0.0,0.0
1449617400628272483,0.352,0.0,0.0,0.0,0.0,0.0
1449617400675766313,0.352,0.0,0.0,0.0,0.0,-0.0210526315789
1449617400802007934,0.352,0.0,0.0,0.0,0.0,0.0
1449617400878894509,0.352,0.0,0.0,0.0,0.0,0.0
1449617400924724243,0.352,0.0,0.0,0.0,0.0,0.0
1449617401008689288,0.352,0.0,0.0,0.0,0.0,0.0
1449617401074849149,0.352,0.0,0.0,0.0,0.0,0.0
1449617401148730445,0.352,0.0,0.0,0.0,0.0,0.0
1449617401227436161,0.352,0.0,0.0,0.0,0.0,0.0
1449617401319749113,0.352,0.0,0.0,0.0,0.0,0.0
1449617401397247242,0.352,0.0,0.0,0.0,0.0,0.0
1449617401452839715,0.352,0.0,0.0,0.0,0.0,0.0210526315789
1449617401545573480,0.352,0.0,0.0,0.0,0.0,0.0210526315789
1449617401609906175,0.352,0.0,0.0,0.0,0.0,0.0210526315789
1449617401664010797,0.352,0.0,0.0,0.0,0.0,0.0210526315789
1449617401723187434,0.352,0.0,0.0,0.0,0.0,0.0210526315789
1449617401810522493,0.352,0.0,0.0,0.0,0.0,0.0631578947368
1449617401905510899,0.352,0.0,0.0,0.0,0.0,0.0631578947368
1449617401962865312,0.352,0.0,0.0,0.0,0.0,0.0631578947368
1449617402029272597,0.352,0.0,0.0,0.0,0.0,0.0631578947368
1449617402111713020,0.352,0.0,0.0,0.0,0.0,0.0631578947368
1449617402179907996,0.352,0.0,0.0,0.0,0.0,0.0631578947368
1449617402247853258,0.352,0.0,0.0,0.0,0.0,0.105263157895
1449617402300170626,0.352,0.0,0.0,0.0,0.0,0.105263157895
1449617402372078622,0.352,0.0,0.0,0.0,0.0,0.105263157895
1449617402446830145,0.352,0.0,0.0,0.0,0.0,0.105263157895
1449617402512970844,0.352,0.0,0.0,0.0,0.0,0.105263157895
1449617402574588547,0.352,0.0,0.0,0.0,0.0,0.105263157895
1449617402621769354,0.352,0.0,0.0,0.0,0.0,0.105263157895
1449617402674931179,0.352,0.0,0.0,0.0,0.0,0.105263157895
1449617402750259983,0.352,0.0,0.0,0.0,0.0,0.147368421053
1449617402823582815,0.352,0.0,0.0,0.0,0.0,0.147368421053
1449617402890424038,0.352,0.0,0.0,0.0,0.0,0.147368421053
1449617402957436398,0.352,0.0,0.0,0.0,0.0,0.105263157895
1449617403058655789,0.352,0.0,0.0,0.0,0.0,0.147368421053
1449617403168957931,0.352,0.0,0.0,0.0,0.0,0.147368421053
1449617403216821107,0.352,0.0,0.0,0.0,0.0,0.147368421053
1449617403277992146,0.352,0.0,0.0,0.0,0.0,0.147368421053
1449617403358728907,0.352,0.0,0.0,0.0,0.0,0.189473684211
1449617403425191534,0.352,0.0,0.0,0.0,0.0,0.189473684211
1449617403464876556,0.352,0.0,0.0,0.0,0.0,0.189473684211
1449617403504221792,0.352,0.0,0.0,0.0,0.0,0.189473684211
1449617403549988644,0.352,0.0,0.0,0.0,0.0,0.189473684211
1449617403620615798,0.352,0.0,0.0,0.0,0.0,0.189473684211
1449617403676049517,0.352,0.0,0.0,0.0,0.0,0.189473684211
1449617403764986198,0.34826241321,0.0,0.0,0.0,0.0,0.189473684211
1449617403788949283,0.344538731988,0.0,0.0,0.0,0.0,0.189473684211
1449617403863783041,0.341740379409,0.0,0.0,0.0,0.0,0.189473684211
1449617403921155223,0.333341455327,0.0,0.0,0.0,0.0,0.147368421053
1449617403988962193,0.326802938681,0.0,0.0,0.0,0.0,0.147368421053
1449617404077247760,0.323064491661,0.0,0.0,0.0,0.0,0.147368421053
1449617404133802213,0.315583280396,0.0,0.0,0.0,0.0,0.147368421053
1449617404177243955,0.308097900509,0.0,0.0,0.0,0.0,0.147368421053
1449617404223485798,0.304353072008,0.0,0.0,0.0,0.0,0.147368421053
1449617404293618882,0.300610512083,0.0,0.0,0.0,0.0,0.147368421053
1449617404340859268,0.294051252557,0.0,0.0,0.0,0.0,0.147368421053
1449617404414163455,0.290306522623,0.0,0.0,0.0,0.0,0.147368421053
1449617404454375247,0.283743236762,0.0,0.0,0.0,0.0,0.147368421053
1449617404492808024,0.279048887207,0.0,0.0,0.0,0.0,0.147368421053
1449617404547504600,0.275296010627,0.0,0.0,0.0,0.0,0.147368421053
1449617404588155581,0.273420527641,0.0,0.0,0.0,0.0,0.147368421053
1449617404634208706,0.268723622758,0.0,0.0,0.0,0.0,0.147368421053
1449617404705734758,0.263092281332,0.0,0.0,0.0,0.0,0.147368421053
1449617404751041751,0.259324588134,0.0,0.0,0.0,0.0,0.147368421053
1449617404797526079,0.255558917746,0.0,0.0,0.0,0.0,0.147368421053
1449617404859806676,0.253677002543,0.0,0.0,0.0,0.0,0.147368421053
1449617404908206419,0.246155092992,0.0,0.0,0.0,0.0,0.147368421053
1449617404986342851,0.244276120746,0.0,0.0,0.0,0.0,0.147368421053
1449617405050629507,0.237690270419,0.0,0.0,0.0,0.0,0.147368421053
1449617405173442067,0.232980620998,0.0,0.0,0.0,0.0,0.147368421053
1449617405229625690,0.224494872853,0.0,0.0,0.0,0.0,0.147368421053
1449617405294607959,0.219776155481,0.0,0.0,0.0,0.0,0.147368421053
1449617405382151405,0.217889604415,0.0,0.0,0.0,0.0,0.147368421053
1449617405457669237,0.213166512146,0.0,0.0,0.0,0.0,0.147368421053
1449617405560281593,0.20655103597,0.0,0.0,0.0,0.0,0.147368421053
1449617405626448603,0.202771555716,0.0,0.0,0.0,0.0,0.147368421053
1449617405720009476,0.200882790055,0.0,0.0,0.0,0.0,0.147368421053
1449617405829612834,0.195210958987,0.0,0.0,0.0,0.0,0.147368421053
1449617405862173540,0.193317299539,0.0,0.0,0.0,0.0,0.147368421053
1449617405937877976,0.189531736798,0.0,0.0,0.0,0.0,0.147368421053
1449617405997649441,0.186688902574,0.0,0.0,0.0,0.0,0.147368421053
1449617406063310026,0.182900410119,0.0,0.0,0.0,0.0,0.147368421053
1449617406123058930,0.181951899461,0.0,0.0,0.0,0.0,0.147368421053
1449617406196261696,0.178159426907,0.0,0.0,0.0,0.0,0.147368421053
1449617406240568220,0.176263957259,0.0,0.0,0.0,0.0,0.147368421053
1449617406296249133,0.173416955135,0.0,0.0,0.0,0.0,0.147368421053
1449617406393982740,0.171519505602,0.0,0.0,0.0,0.0,0.147368421053
1449617406475049313,0.168669806737,0.0,0.0,0.0,0.0,0.147368421053
1449617406558070141,0.165819733256,0.0,0.0,0.0,0.0,0.0631578947368
1449617406638392264,0.162015810906,0.0,0.0,0.0,0.0,0.0631578947368
1449617406701002786,0.161064117776,0.0,0.0,0.0,0.0,0.105263157895
1449617406804434113,0.157258173997,0.0,0.0,0.0,0.0,0.105263157895
1449617406845566526,0.154400805639,0.0,0.0,0.0,0.0,0.105263157895
1449617407003486017,0.152496379864,0.0,0.0,0.0,0.0,0.105263157895
1449617407038251563,0.149636708216,0.0,0.0,0.0,0.0,0.105263157895
1449617407127367869,0.147730619468,0.0,0.0,0.0,0.0,0.105263157895
1449617407205816020,0.14486875925,0.0,0.0,0.0,0.0,0.105263157895
1449617407298921017,0.142006408044,0.0,0.0,0.0,0.0,0.105263157895
1449617407347626922,0.140098160212,0.0,0.0,0.0,0.0,0.105263157895
1449617407417081504,0.138189159901,0.0,0.0,0.0,0.0,0.105263157895
1449617407487345832,0.136280464564,0.0,0.0,0.0,0.0,0.105263157895
1449617407551404104,0.136280464564,0.0,0.0,0.0,0.0,0.105263157895
1449617407629514550,0.134371034171,0.0,0.0,0.0,0.0,0.105263157895
1449617407672449789,0.130732702222,0.0,0.0,0.0,0.0,0.105263157895
1449617407743430316,0.12920461446,0.0,0.0,0.0,0.0,0.105263157895
1449617407820912648,0.128439839785,0.0,0.0,0.0,0.0,0.105263157895
1449617407902453589,0.12518289087,0.0,0.0,0.0,0.0,0.105263157895
1449617407966748742,0.12614681543,0.0,0.0,0.0,0.0,0.105263157895
1449617408026737249,0.124036682168,0.0,0.0,0.0,0.0,0.105263157895
1449617408117767743,0.122308527142,0.0,0.0,0.0,0.0,0.105263157895
1449617408193807682,0.121926290516,0.0,0.0,0.0,0.0,0.105263157895
1449617408760538005,0.12,0.0,0.0,0.0,0.0,0.0631578947368
1449617408799535782,0.12,0.0,0.0,0.0,0.0,0.0631578947368
1449617408888400703,0.12,0.0,0.0,0.0,0.0,0.0631578947368
1449617408950190963,0.12,0.0,0.0,0.0,0.0,0.0631578947368
1449617409007048241,0.12,0.0,0.0,0.0,0.0,0.0631578947368
1449617409059701178,0.12,0.0,0.0,0.0,0.0,0.0631578947368
1449617409170201741,0.12,0.0,0.0,0.0,0.0,0.0631578947368
1449617409284740444,0.12,0.0,0.0,0.0,0.0,0.0631578947368
1449617409347635894,0.12,0.0,0.0,0.0,0.0,0.0631578947368
1449617409404404560,0.12,0.0,0.0,0.0,0.0,0.0631578947368
1449617409452827418,0.12,0.0,0.0,0.0,0.0,0.0631578947368
1449617409489021791,0.12,0.0,0.0,0.0,0.0,0.0631578947368
1449617409563350238,0.12,0.0,0.0,0.0,0.0,0.0631578947368
1449617409623860832,0.12,0.0,0.0,0.0,0.0,0.0631578947368
1449617409705850501,0.12,0.0,0.0,0.0,0.0,0.0631578947368
1449617409763159564,0.12,0.0,0.0,0.0,0.0,0.0631578947368
1449617409802655697,0.12,0.0,0.0,0.0,0.0,0.0631578947368
1449617409852416174,0.12,0.0,0.0,0.0,0.0,0.0631578947368
1449617409901090597,0.12,0.0,0.0,0.0,0.0,0.0631578947368
1449617409966841117,0.12,0.0,0.0,0.0,0.0,0.0631578947368
1449617410041022419,0.12,0.0,0.0,0.0,0.0,0.0631578947368
1449617410085855464,0.12,0.0,0.0,0.0,0.0,0.0631578947368
1449617410133534799,0.12,0.0,0.0,0.0,0.0,0.0631578947368
1449617410180116318,0.12,0.0,0.0,0.0,0.0,0.0631578947368
1449617410223223001,0.12,0.0,0.0,0.0,0.0,0.0631578947368
1449617410277692088,0.12,0.0,0.0,0.0,0.0,0.0631578947368
1449617410336901871,0.12,0.0,0.0,0.0,0.0,0.0631578947368
1449617410373640840,0.12,0.0,0.0,0.0,0.0,0.0631578947368
1449617410460287901,0.12,0.0,0.0,0.0,0.0,0.0631578947368
1449617410523556612,0.12,0.0,0.0,0.0,0.0,0.0631578947368
1449617410590366796,0.12,0.0,0.0,0.0,0.0,0.0631578947368
1449617410636078891,0.12,0.0,0.0,0.0,0.0,0.0631578947368
1449617410679559197,0.12,0.0,0.0,0.0,0.0,0.0631578947368
1449617410708681893,0.0,0.0,0.0,0.0,0.0,0.0
1449617410878330974,0.0,0.0,0.0,0.0,0.0,0.4
1449617410947684117,0.0,0.0,0.0,0.0,0.0,0.4
1449617411006990663,0.0,0.0,0.0,0.0,0.0,0.4
1449617411086003586,0.0,0.0,0.0,0.0,0.0,0.4
1449617411147119962,0.0,0.0,0.0,0.0,0.0,0.4
1449617411259874702,0.0,0.0,0.0,0.0,0.0,0.4
1449617411321422581,0.0,0.0,0.0,0.0,0.0,0.4
1449617411420188179,0.0,0.0,0.0,0.0,0.0,0.4
1449617411471309780,0.0,0.0,0.0,0.0,0.0,0.4
1449617411537317079,0.0,0.0,0.0,0.0,0.0,0.4
1449617411604024288,0.0,0.0,0.0,0.0,0.0,0.4
1449617411647387289,0.0,0.0,0.0,0.0,0.0,0.4
1449617411699404608,0.0,0.0,0.0,0.0,0.0,0.4
1449617411746080219,0.12,0.0,0.0,0.0,0.0,-0.4
1449617411823421768,0.12,0.0,0.0,0.0,0.0,-0.357894736842
1449617411867642412,0.12,0.0,0.0,0.0,0.0,-0.4
1449617411935043172,0.12,0.0,0.0,0.0,0.0,-0.4
1449617412014595768,0.12,0.0,0.0,0.0,0.0,-0.4
1449617412076104549,0.12,0.0,0.0,0.0,0.0,-0.4
1449617412123169117,0.12,0.0,0.0,0.0,0.0,-0.4
1449617412226999991,0.12,0.0,0.0,0.0,0.0,-0.357894736842
1449617412231842962,0.0,0.0,0.0,0.0,0.0,0.0
1449617412235358264,0.0,0.0,0.0,0.0,0.0,0.0
1449617412255872047,0.0,0.0,0.0,0.0,0.0,0.0
1449617412307425248,0.0,0.0,0.0,0.0,0.0,0.0
1449617412311192193,0.0,0.0,0.0,0.0,0.0,0.0
1449617412361474540,0.0,0.0,0.0,0.0,0.0,0.0
1449617413811550682,0.12,0.0,0.0,0.0,0.0,-0.189473684211
1449617413903437201,0.12,0.0,0.0,0.0,0.0,-0.189473684211
1449617413975519493,0.12,0.0,0.0,0.0,0.0,-0.189473684211
1449617414021507045,0.12,0.0,0.0,0.0,0.0,-0.189473684211
1449617414078887278,0.12,0.0,0.0,0.0,0.0,-0.189473684211
1449617414163350100,0.12,0.0,0.0,0.0,0.0,0.0
1449617414213362380,0.12,0.0,0.0,0.0,0.0,-0.147368421053
1449617414281128036,0.12,0.0,0.0,0.0,0.0,-0.147368421053
1449617414358680149,0.12,0.0,0.0,0.0,0.0,-0.189473684211
1449617414450893225,0.12,0.0,0.0,0.0,0.0,-0.189473684211
1449617414503567416,0.12,0.0,0.0,0.0,0.0,-0.147368421053
1449617414585190581,0.12,0.0,0.0,0.0,0.0,-0.147368421053
1449617414654982908,0.12,0.0,0.0,0.0,0.0,-0.189473684211
1449617414712125057,0.12,0.0,0.0,0.0,0.0,-0.147368421053
1449617414776480877,0.12,0.0,0.0,0.0,0.0,-0.147368421053
1449617414832509883,0.12,0.0,0.0,0.0,0.0,-0.189473684211
1449617414906117772,0.12,0.0,0.0,0.0,0.0,-0.189473684211
1449617415071735880,0.282014797069,0.0,0.0,0.0,0.0,0.0631578947368
1449617415133973418,0.29446022202,0.0,0.0,0.0,0.0,0.0631578947368
1449617415192713346,0.301153549652,0.0,0.0,0.0,0.0,0.0631578947368
1449617415258064755,0.303066226726,0.0,0.0,0.0,0.0,0.0631578947368
1449617415318625171,0.31166946405,0.0,0.0,0.0,0.0,0.0631578947368
1449617415382990479,0.314539222283,0.0,0.0,0.0,0.0,0.0631578947368
1449617415457671540,0.323141421673,0.0,0.0,0.0,0.0,0.0631578947368
1449617415518071307,0.331737117935,0.0,0.0,0.0,0.0,0.0631578947368
1449617415552100349,0.335558075785,0.0,0.0,0.0,0.0,0.0631578947368
1449617415641874409,0.341290433399,0.0,0.0,0.0,0.0,0.0631578947368
1449617415746569601,0.349885398711,0.0,0.0,0.0,0.0,0.0631578947368
1449617415826418645,0.352,0.0,0.0,0.0,0.0,0.105263157895
1449617415887263069,0.352,0.0,0.0,0.0,0.0,0.105263157895
1449617415985803015,0.352,0.0,0.0,0.0,0.0,0.0631578947368
1449617416118205809,0.352,0.0,0.0,0.0,0.0,0.0631578947368
1449617416178804738,0.351211746931,0.0,0.0,0.0,0.0,0.0631578947368
1449617416229228662,0.351211746931,0.0,0.0,0.0,0.0,0.0631578947368
1449617416332978342,0.351207574606,0.0,0.0,0.0,0.0,0.0631578947368
1449617416416208693,0.351207574606,0.0,0.0,0.0,0.0,0.0631578947368
1449617416473785965,0.352,0.0,0.0,0.0,0.0,0.0631578947368
1449617416550951986,0.352,0.0,0.0,0.0,0.0,0.0631578947368
1449617416593623014,0.352,0.0,0.0,0.0,0.0,0.0631578947368
1449617416632232085,0.352,0.0,0.0,0.0,0.0,0.0210526315789
1449617416732204985,0.352,0.0,0.0,0.0,0.0,0.0210526315789
1449617416802100864,0.352,0.0,0.0,0.0,0.0,0.0210526315789
1449617416865070431,0.352,0.0,0.0,0.0,0.0,0.0
1449617416933952266,0.352,0.0,0.0,0.0,0.0,0.0210526315789
1449617416970439738,0.352,0.0,0.0,0.0,0.0,0.0
1449617417038313529,0.352,0.0,0.0,0.0,0.0,0.0
1449617417149619539,0.352,0.0,0.0,0.0,0.0,0.0
1449617417206952235,0.352,0.0,0.0,0.0,0.0,-0.0210526315789
1449617417281933111,0.352,0.0,0.0,0.0,0.0,-0.0210526315789
1449617417349792355,0.352,0.0,0.0,0.0,0.0,0.0
1449617417422834195,0.352,0.0,0.0,0.0,0.0,-0.0210526315789
1449617417506712503,0.352,0.0,0.0,0.0,0.0,-0.0210526315789
1449617417557782584,0.352,0.0,0.0,0.0,0.0,-0.0631578947368
1449617417621977237,0.352,0.0,0.0,0.0,0.0,-0.0631578947368
1449617417708725461,0.352,0.0,0.0,0.0,0.0,-0.0631578947368
1449617417762488303,0.352,0.0,0.0,0.0,0.0,-0.0631578947368
1449617417808760857,0.352,0.0,0.0,0.0,0.0,-0.0631578947368
1449617417866195252,0.352,0.0,0.0,0.0,0.0,-0.0631578947368
1449617417931467700,0.352,0.0,0.0,0.0,0.0,-0.0631578947368
1449617418000724895,0.352,0.0,0.0,0.0,0.0,-0.105263157895
1449617418106593427,0.352,0.0,0.0,0.0,0.0,-0.105263157895
1449617418189319740,0.352,0.0,0.0,0.0,0.0,-0.105263157895
1449617418237667426,0.352,0.0,0.0,0.0,0.0,-0.105263157895
1449617418295637330,0.352,0.0,0.0,0.0,0.0,-0.105263157895
1449617418358674644,0.352,0.0,0.0,0.0,0.0,-0.147368421053
1449617418422979683,0.352,0.0,0.0,0.0,0.0,-0.147368421053
1449617418470132707,0.352,0.0,0.0,0.0,0.0,-0.147368421053
1449617418541717471,0.352,0.0,0.0,0.0,0.0,-0.147368421053
1449617418608373768,0.352,0.0,0.0,0.0,0.0,-0.147368421053
1449617418681232368,0.352,0.0,0.0,0.0,0.0,-0.189473684211
1449617418753516427,0.352,0.0,0.0,0.0,0.0,-0.189473684211
1449617418841165668,0.352,0.0,0.0,0.0,0.0,-0.231578947368
1449617418922646805,0.3056,0.0,0.0,0.0,0.0,-0.315789473684
1449617418993770732,0.3056,0.0,0.0,0.0,0.0,-0.315789473684
1449617419039210398,0.3056,0.0,0.0,0.0,0.0,-0.231578947368
1449617419086111249,0.3056,0.0,0.0,0.0,0.0,-0.231578947368
1449617419174141979,0.3056,0.0,0.0,0.0,0.0,-0.273684210526
1449617419237715983,0.3056,0.0,0.0,0.0,0.0,-0.273684210526
1449617419299377408,0.3056,0.0,0.0,0.0,0.0,-0.273684210526
1449617419390383370,0.3056,0.0,0.0,0.0,0.0,-0.273684210526
1449617419436449184,0.3056,0.0,0.0,0.0,0.0,-0.273684210526
1449617419526483816,0.3056,0.0,0.0,0.0,0.0,-0.357894736842
1449617419578697538,0.3056,0.0,0.0,0.0,0.0,-0.315789473684
1449617419659951389,0.3056,0.0,0.0,0.0,0.0,-0.315789473684
1449617419726479150,0.352,0.0,0.0,0.0,0.0,-0.273684210526
1449617419802810505,0.352,0.0,0.0,0.0,0.0,-0.273684210526
1449617419862426811,0.352,0.0,0.0,0.0,0.0,-0.273684210526
1449617419965864583,0.352,0.0,0.0,0.0,0.0,-0.273684210526
1449617420017971912,0.352,0.0,0.0,0.0,0.0,-0.273684210526
1449617420070458377,0.352,0.0,0.0,0.0,0.0,-0.273684210526
1449617420148642194,0.352,0.0,0.0,0.0,0.0,-0.273684210526
1449617420205823394,0.352,0.0,0.0,0.0,0.0,-0.273684210526
1449617420273136151,0.352,0.0,0.0,0.0,0.0,-0.273684210526
1449617420331749918,0.352,0.0,0.0,0.0,0.0,-0.273684210526
1449617420407862248,0.352,0.0,0.0,0.0,0.0,-0.273684210526
1449617420509944596,0.352,0.0,0.0,0.0,0.0,-0.273684210526
1449617420591183431,0.352,0.0,0.0,0.0,0.0,-0.273684210526
1449617420594160721,0.0,0.0,0.0,0.0,0.0,0.0
1449617420708992594,0.352,0.0,0.0,0.0,0.0,-0.231578947368
1449617420792221808,0.352,0.0,0.0,0.0,0.0,-0.231578947368
1449617420862864553,0.352,0.0,0.0,0.0,0.0,-0.231578947368
1449617420912270144,0.352,0.0,0.0,0.0,0.0,-0.189473684211
1449617420988773053,0.352,0.0,0.0,0.0,0.0,-0.231578947368
1449617421113717223,0.352,0.0,0.0,0.0,0.0,-0.231578947368
1449617421179577129,0.352,0.0,0.0,0.0,0.0,-0.231578947368
1449617421221990395,0.352,0.0,0.0,0.0,0.0,-0.231578947368
1449617421337443551,0.352,0.0,0.0,0.0,0.0,-0.231578947368
1449617421386809750,0.352,0.0,0.0,0.0,0.0,-0.231578947368
1449617421439953824,0.352,0.0,0.0,0.0,0.0,-0.231578947368
1449617421499363925,0.352,0.0,0.0,0.0,0.0,-0.231578947368
1449617421567815245,0.352,0.0,0.0,0.0,0.0,-0.231578947368
1449617421637537802,0.352,0.0,0.0,0.0,0.0,-0.273684210526
1449617421719057997,0.352,0.0,0.0,0.0,0.0,-0.273684210526
1449617421821253553,0.352,0.0,0.0,0.0,0.0,-0.315789473684
1449617421919092763,0.352,0.0,0.0,0.0,0.0,-0.315789473684
1449617422000140173,0.165163083999,0.0,0.0,0.0,0.0,0.315789473684
1449617422092022036,0.165163083999,0.0,0.0,0.0,0.0,0.315789473684
1449617422161669503,0.162545920545,0.0,0.0,0.0,0.0,0.315789473684
1449617422219532821,0.161667187484,0.0,0.0,0.0,0.0,0.315789473684
1449617422277304342,0.160785114439,0.0,0.0,0.0,0.0,0.273684210526
1449617422314718511,0.158117266798,0.0,0.0,0.0,0.0,0.273684210526
1449617422415753237,0.157223190669,0.0,0.0,0.0,0.0,0.273684210526
1449617422471981951,0.153615110609,0.0,0.0,0.0,0.0,0.274814522015
1449617422598184186,0.151793163565,0.0,0.0,0.0,0.0,0.274814522015
1449617422704740361,0.145341023876,0.0,0.0,0.0,0.0,0.174628709617
1449617422771147932,0.141605102822,0.0,0.0,0.0,0.0,0.146800950264
1449617422856482265,0.137839321645,0.0,0.0,0.0,0.0,0.132871513367
1449617422910527276,0.134048141766,0.0,0.0,0.0,0.0,0.0994692578441
1449617422970077188,0.132144672987,0.0,0.0,0.0,0.0,0.111993409332
1449617423058558890,0.126659871354,0.0,0.0,0.0,0.0,0.0479919447397
1449617423107459502,0.124491693128,0.0,0.0,0.0,0.0,0.0632835916469
1449617423192111482,0.12,0.0,0.0,0.0,0.0,0.0327873746972
1449617423245374094,0.12,0.0,0.0,0.0,0.0,0.0327873746972
1449617423323720050,0.12,0.0,0.0,0.0,0.0,-0.0284067362233
1449617423722919476,0.12,0.0,0.0,0.0,0.0,-0.258167079687
1449617423771126940,0.12,0.0,0.0,0.0,0.0,-0.231765649319
1449617423871823662,0.18964420995,0.0,0.0,0.0,0.0,0.291903765013
1449617423976967046,0.187013816549,0.0,0.0,0.0,0.0,0.291823515202
1449617424110165919,0.176370079091,0.0,0.0,0.0,0.0,0.260768377655
1449617424201390412,0.166490134441,0.0,0.0,0.0,0.0,0.225960926947
1449617424262760513,0.155560651962,0.0,0.0,0.0,0.0,0.225960926947
1449617424314672390,0.2592,0.0,0.0,0.0,0.0,0.333166797161
1449617424359213075,0.2592,0.0,0.0,0.0,0.0,0.335999934548
1449617424471164533,0.2592,0.0,0.0,0.0,0.0,0.333217530125
1449617424554138009,0.3056,0.0,0.0,0.0,0.0,0.366631430513
1449617424596245778,0.3056,0.0,0.0,0.0,0.0,0.365222480234
1449617424675953453,0.3056,0.0,0.0,0.0,0.0,0.365222480234
1449617424977154729,0.3056,0.0,0.0,0.0,0.0,0.36105914599
1449617424977158634,0.352,0.0,0.0,0.0,0.0,0.36105914599
1449617424985455393,0.259563904924,0.0,0.0,0.0,0.0,0.278948436662
1449617425116614524,0.352,0.0,0.0,0.0,0.0,0.357894736842
1449617425181033734,0.352,0.0,0.0,0.0,0.0,0.357894736842
1449617425270879291,0.352,0.0,0.0,0.0,0.0,0.357894736842
1449617425330721937,0.352,0.0,0.0,0.0,0.0,0.357894736842
1449617425454577169,0.352,0.0,0.0,0.0,0.0,0.357894736842
1449617425520137463,0.352,0.0,0.0,0.0,0.0,0.357894736842
1449617425582402906,0.352,0.0,0.0,0.0,0.0,0.357894736842
1449617425698151552,0.352,0.0,0.0,0.0,0.0,0.357894736842
1449617425736712008,0.352,0.0,0.0,0.0,0.0,0.357894736842
1449617425792145864,0.352,0.0,0.0,0.0,0.0,0.357894736842
1449617425836151072,0.352,0.0,0.0,0.0,0.0,0.357894736842
1449617425902471928,0.352,0.0,0.0,0.0,0.0,0.357894736842
1449617425975210042,0.352,0.0,0.0,0.0,0.0,0.357894736842
1449617426028245670,0.352,0.0,0.0,0.0,0.0,0.357894736842
1449617426088795292,0.352,0.0,0.0,0.0,0.0,0.357894736842
1449617426123611250,0.352,0.0,0.0,0.0,0.0,0.357894736842
1449617426166320105,0.352,0.0,0.0,0.0,0.0,0.357894736842
1449617426216760290,0.352,0.0,0.0,0.0,0.0,0.357894736842
