%time,field.header.seq,field.header.stamp,field.header.frame_id,field.status.goal_id.stamp,field.status.goal_id.id,field.status.status,field.status.text,field.feedback.base_position.header.seq,field.feedback.base_position.header.stamp,field.feedback.base_position.header.frame_id,field.feedback.base_position.pose.position.x,field.feedback.base_position.pose.position.y,field.feedback.base_position.pose.position.z,field.feedback.base_position.pose.orientation.x,field.feedback.base_position.pose.orientation.y,field.feedback.base_position.pose.orientation.z,field.feedback.base_position.pose.orientation.w
1449617321597821789,0,1449617321597731994,,1449617321597624329,/move_base-1-1449617321.597624329,1,This goal has been accepted by the simple action server,0,1449617321594975069,odom,0.0,0.0,0.0,0.0,0.0,0.0,1.0
1449617321648818219,1,1449617321647860067,,1449617321597624329,/move_base-1-1449617321.597624329,1,This goal has been accepted by the simple action server,0,1449617321634971445,odom,0.0,0.0,0.0,0.0,0.0,0.0,1.0
1449617321698084336,2,1449617321697803325,,1449617321597624329,/move_base-1-1449617321.597624329,1,This goal has been accepted by the simple action server,0,1449617321674972114,odom,0.0,0.0,0.0,0.0,0.0,0.0,1.0
1449617321725415749,3,1449617321725297524,,1449617321723796997,/move_base-2-1449617321.723796997,1,This goal has been accepted by the simple action server,0,1449617321714976006,odom,0.0,0.0,0.0,0.0,0.0,0.0,1.0
1449617321788265031,4,1449617321775385796,,1449617321723796997,/move_base-2-1449617321.723796997,1,This goal has been accepted by the simple action server,0,1449617321754983406,odom,0.0,0.0,0.0,0.0,0.0,0.0,1.0
1449617321814064992,5,1449617321813946439,,1449617321813749043,/move_base-3-1449617321.813749043,1,This goal has been accepted by the simple action server,0,1449617321794992057,odom,0.0,0.0,0.0,0.0,0.0,0.0,1.0
1449617321864502325,6,1449617321864031417,,1449617321813749043,/move_base-3-1449617321.813749043,1,This goal has been accepted by the simple action server,0,1449617321834978993,odom,0.0,0.0,0.0,0.0,0.0,0.0,1.0
1449617321914837772,7,1449617321914121040,,1449617321913365393,/move_base-4-1449617321.913365393,1,This goal has been accepted by the simple action server,0,1449617321875914047,odom,0.0,0.0,0.0,0.0,0.0,0.0,1.0
1449617321964409253,8,1449617321964037745,,1449617321913365393,/move_base-4-1449617321.913365393,1,This goal has been accepted by the simple action server,0,1449617321954980399,odom,0.0,0.0,0.0,0.0,0.0,0.0,1.0
1449617322015966570,9,1449617322014050923,,1449617321994670677,/move_base-5-1449617321.994670677,1,This goal has been accepted by the simple action server,0,1449617321994972361,odom,0.0,0.0,0.0,0.0,0.0,0.0,1.0
1449617322064236247,10,1449617322064017803,,1449617321994670677,/move_base-5-1449617321.994670677,1,This goal has been accepted by the simple action server,0,1449617322034989555,odom,0.0,0.0,0.0,0.0,0.0,0.0,1.0
1449617322114730564,11,1449617322114029707,,1449617321994670677,/move_base-5-1449617321.994670677,1,This goal has been accepted by the simple action server,0,1449617322074987013,odom,0.0,0.0,0.0,0.0,0.0,0.0,1.0
1449617322149007703,12,1449617322148610505,,1449617322148457094,/move_base-6-1449617322.148457094,1,This goal has been accepted by the simple action server,0,1449617322114997842,odom,0.0,0.0,0.0,0.0,0.0,0.0,1.0
1449617322199340066,13,1449617322198687069,,1449617322148457094,/move_base-6-1449617322.148457094,1,This goal has been accepted by the simple action server,0,1449617322194975138,odom,0.0,0.0,0.0,0.0,0.0,0.0,1.0
1449617322249227558,14,1449617322248840694,,1449617322218198012,/move_base-7-1449617322.218198012,1,This goal has been accepted by the simple action server,0,1449617322234985638,odom,0.0,0.0,0.0,0.0,0.0,0.0,1.0
1449617322299622713,15,1449617322298691228,,1449617322218198012,/move_base-7-1449617322.218198012,1,This goal has been accepted by the simple action server,0,1449617322274976996,odom,0.0,0.0,0.0,0.0,0.0,0.0,1.0
1449617322349078618,16,1449617322348692259,,1449617322218198012,/move_base-7-1449617322.218198012,1,This goal has been accepted by the simple action server,0,1449617322314977747,odom,0.0,0.0,0.0,0.0,0.0,0.0,1.0
1449617322417850180,17,1449617322417671920,,1449617322417607998,/move_base-8-1449617322.417607998,1,This goal has been accepted by the simple action server,0,1449617322394983579,odom,0.0,0.0,0.0,0.0,0.0,0.0,1.0
1449617322468786925,18,1449617322468042794,,1449617322417607998,/move_base-8-1449617322.417607998,1,This goal has been accepted by the simple action server,0,1449617322434980866,odom,0.0,0.0,0.0,0.0,0.0,0.0,1.0
1449617322518522331,19,1449617322517947034,,1449617322515487554,/move_base-9-1449617322.515487554,1,This goal has been accepted by the simple action server,0,1449617322514975175,odom,0.0,0.0,0.0,0.0,0.0,0.0,1.0
1449617322568353300,20,1449617322567807698,,1449617322515487554,/move_base-9-1449617322.515487554,1,This goal has been accepted by the simple action server,0,1449617322554979390,odom,0.0,0.0,0.0,0.0,0.0,0.0,1.0
1449617322621738479,21,1449617322617815915,,1449617322515487554,/move_base-9-1449617322.515487554,1,This goal has been accepted by the simple action server,0,1449617322595152541,odom,0.0,0.0,0.0,0.0,0.0,0.0,1.0
1449617322663370671,22,1449617322663044652,,1449617322662945877,/move_base-10-1449617322.662945877,1,This goal has been accepted by the simple action server,0,1449617322635146455,odom,0.0,0.0,0.0,0.0,0.0,0.0,1.0
1449617322714988817,23,1449617322713149420,,1449617322662945877,/move_base-10-1449617322.662945877,1,This goal has been accepted by the simple action server,0,1449617322674971875,odom,0.0,0.0,0.0,0.0,0.0,0.0,1.0
1449617322764216655,24,1449617322763148770,,1449617322662945877,/move_base-10-1449617322.662945877,1,This goal has been accepted by the simple action server,0,1449617322756598561,odom,0.0,0.0,0.0,0.0,0.0,0.0,1.0
1449617322783123533,25,1449617322781474661,,1449617322781397087,/move_base-11-1449617322.781397087,1,This goal has been accepted by the simple action server,0,1449617322756598561,odom,0.0,0.0,0.0,0.0,0.0,0.0,1.0
1449617322835356108,26,1449617322833484485,,1449617322781397087,/move_base-11-1449617322.781397087,1,This goal has been accepted by the simple action server,0,1449617322794981191,odom,0.0,0.0,0.0,0.0,0.0,0.0,1.0
1449617322881947519,27,1449617322881641017,,1449617322857408356,/move_base-12-1449617322.857408356,1,This goal has been accepted by the simple action server,0,1449617322874986314,odom,0.0,0.0,0.0,0.0,0.0,0.0,1.0
1449617322934512794,28,1449617322931671747,,1449617322919454609,/move_base-13-1449617322.919454609,1,This goal has been accepted by the simple action server,0,1449617322914971805,odom,0.0,0.0,0.0,0.0,0.0,0.0,1.0
1449617322981805047,29,1449617322981546273,,1449617322919454609,/move_base-13-1449617322.919454609,1,This goal has been accepted by the simple action server,0,1449617322955007111,odom,0.0,0.0,0.0,0.0,0.0,0.0,1.0
1449617323033228455,30,1449617323032940175,,1449617322992743408,/move_base-14-1449617322.992743408,1,This goal has been accepted by the simple action server,0,1449617322994971338,odom,0.0,0.0,0.0,0.0,0.0,0.0,1.0
1449617323086365605,31,1449617323081557557,,1449617322992743408,/move_base-14-1449617322.992743408,1,This goal has been accepted by the simple action server,0,1449617323034975781,odom,0.0,0.0,0.0,0.0,0.0,0.0,1.0
1449617323124525659,32,1449617323122895542,,1449617323122778535,/move_base-15-1449617323.122778535,1,This goal has been accepted by the simple action server,0,1449617323114981620,odom,0.0,0.0,0.0,0.0,0.0,0.0,1.0
1449617323174185927,33,1449617323172988468,,1449617323122778535,/move_base-15-1449617323.122778535,1,This goal has been accepted by the simple action server,0,1449617323154981829,odom,0.0,0.0,0.0,0.0,0.0,0.0,1.0
1449617323228047703,34,1449617323224545791,,1449617323200924659,/move_base-16-1449617323.200924659,1,This goal has been accepted by the simple action server,0,1449617323194976061,odom,0.0,0.0,0.0,0.0,0.0,0.0,1.0
1449617323273310242,35,1449617323272969925,,1449617323200924659,/move_base-16-1449617323.200924659,1,This goal has been accepted by the simple action server,0,1449617323234979804,odom,0.0,0.0,0.0,0.0,0.0,0.0,1.0
1449617323392895610,36,1449617323392645834,,1449617323392536810,/move_base-17-1449617323.392536810,1,This goal has been accepted by the simple action server,0,1449617323354979074,odom,0.0,0.0,0.0,0.0,0.0,0.0,1.0
1449617323445055307,37,1449617323442894297,,1449617323398210358,/move_base-18-1449617323.398210358,1,This goal has been accepted by the simple action server,0,1449617323434970011,odom,0.0,0.0,0.0,0.0,0.0,0.0,1.0
1449617323493170254,38,1449617323492733528,,1449617323398210358,/move_base-18-1449617323.398210358,1,This goal has been accepted by the simple action server,0,1449617323475012649,odom,0.0,0.0,0.0,0.0,0.0,0.0,1.0
1449617323544719730,39,1449617323544237701,,1449617323525889335,/move_base-19-1449617323.525889335,1,This goal has been accepted by the simple action server,0,1449617323515284502,odom,0.0,0.0,0.0,0.0,0.0,0.0,1.0
1449617323593110621,40,1449617323592736855,,1449617323525889335,/move_base-19-1449617323.525889335,1,This goal has been accepted by the simple action server,0,1449617323557705439,odom,0.0,0.0,0.0,0.0,0.0,0.0,1.0
1449617323648021269,41,1449617323642838638,,1449617323606262654,/move_base-20-1449617323.606262654,1,This goal has been accepted by the simple action server,0,1449617323634982042,odom,0.0,0.0,0.0,0.0,0.0,0.0,1.0
1449617323693594752,42,1449617323692775380,,1449617323606262654,/move_base-20-1449617323.606262654,1,This goal has been accepted by the simple action server,0,1449617323674979660,odom,0.0,0.0,0.0,0.0,0.0,0.0,1.0
1449617323748253904,43,1449617323742783374,,1449617323606262654,/move_base-20-1449617323.606262654,1,This goal has been accepted by the simple action server,0,1449617323714997359,odom,0.0,0.0,0.0,0.0,0.0,0.0,1.0
1449617323783602156,44,1449617323781724311,,1449617323781607548,/move_base-21-1449617323.781607548,1,This goal has been accepted by the simple action server,0,1449617323755082712,odom,0.0,0.0,0.0,0.0,0.0,0.0,1.0
1449617323832241320,45,1449617323831805595,,1449617323781607548,/move_base-21-1449617323.781607548,1,This goal has been accepted by the simple action server,0,1449617323794976305,odom,0.0,0.0,0.0,0.0,0.0,0.0,1.0
1449617323882721170,46,1449617323882135617,,1449617323853447927,/move_base-22-1449617323.853447927,1,This goal has been accepted by the simple action server,0,1449617323874979429,odom,0.0,0.0,0.0,0.0,0.0,0.0,1.0
1449617323932731258,47,1449617323932022635,,1449617323929349701,/move_base-23-1449617323.929349701,1,This goal has been accepted by the simple action server,0,1449617323914981842,odom,0.0,0.0,0.0,0.0,0.0,0.0,1.0
1449617323982523857,48,1449617323982013078,,1449617323929349701,/move_base-23-1449617323.929349701,1,This goal has been accepted by the simple action server,0,1449617323954977984,odom,0.0,0.0,0.0,0.0,0.0,0.0,1.0
1449617324034108729,49,1449617324031870819,,1449617323929349701,/move_base-23-1449617323.929349701,1,This goal has been accepted by the simple action server,0,1449617323995224537,odom,0.0,0.0,0.0,0.0,0.0,0.0,1.0
1449617324077338954,50,1449617324077002026,,1449617324076776114,/move_base-24-1449617324.76776114,1,This goal has been accepted by the simple action server,0,1449617324034985644,odom,0.0,0.0,0.0,0.0,0.0,0.0,1.0
1449617324127430944,51,1449617324127174338,,1449617324123279002,/move_base-25-1449617324.123279002,1,This goal has been accepted by the simple action server,0,1449617324115545965,odom,0.0,0.0,0.0,0.0,0.0,0.0,1.0
1449617324179086696,52,1449617324177764991,,1449617324123279002,/move_base-25-1449617324.123279002,1,This goal has been accepted by the simple action server,0,1449617324154983624,odom,0.0,0.0,0.0,0.0,0.0,0.0,1.0
1449617324227814526,53,1449617324227072216,,1449617324123279002,/move_base-25-1449617324.123279002,1,This goal has been accepted by the simple action server,0,1449617324194982100,odom,0.0,0.0,0.0,0.0,0.0,0.0,1.0
1449617324238550081,54,1449617324237071317,,1449617324236661027,/move_base-26-1449617324.236661027,1,This goal has been accepted by the simple action server,0,1449617324234972989,odom,0.0,0.0,0.0,0.0,0.0,0.0,1.0
1449617324287743082,55,1449617324287174594,,1449617324236661027,/move_base-26-1449617324.236661027,1,This goal has been accepted by the simple action server,0,1449617324275067220,odom,0.0,0.0,0.0,0.0,0.0,0.0,1.0
1449617324352231578,56,1449617324351664479,,1449617324351452568,/move_base-27-1449617324.351452568,1,This goal has been accepted by the simple action server,0,1449617324314987330,odom,0.0,0.0,0.0,0.0,0.0,0.0,1.0
1449617324402781239,57,1449617324401955755,,1449617324351452568,/move_base-27-1449617324.351452568,1,This goal has been accepted by the simple action server,0,1449617324394986076,odom,0.0,0.0,0.0,0.0,0.0,0.0,1.0
1449617324458780960,58,1449617324454243247,,1449617324438485551,/move_base-28-1449617324.438485551,1,This goal has been accepted by the simple action server,0,1449617324434974718,odom,0.0,0.0,0.0,0.0,0.0,0.0,1.0
1449617324502200620,59,1449617324501775206,,1449617324438485551,/move_base-28-1449617324.438485551,1,This goal has been accepted by the simple action server,0,1449617324474977105,odom,0.0,0.0,0.0,0.0,0.0,0.0,1.0
1449617324552027789,60,1449617324551806124,,1449617324518222737,/move_base-29-1449617324.518222737,1,This goal has been accepted by the simple action server,0,1449617324515375725,odom,0.0,0.0,0.0,0.0,0.0,0.0,1.0
1449617324601970611,61,1449617324601717337,,1449617324518222737,/move_base-29-1449617324.518222737,1,This goal has been accepted by the simple action server,0,1449617324594971051,odom,0.0,0.0,0.0,0.0,0.0,0.0,1.0
1449617324652212292,62,1449617324651849188,,1449617324648791331,/move_base-30-1449617324.648791331,1,This goal has been accepted by the simple action server,0,1449617324634983803,odom,0.0,0.0,0.0,0.0,0.0,0.0,1.0
1449617324702024524,63,1449617324701745387,,1449617324648791331,/move_base-30-1449617324.648791331,1,This goal has been accepted by the simple action server,0,1449617324674998160,odom,0.0,0.0,0.0,0.0,0.0,0.0,1.0
1449617324752017117,64,1449617324751719010,,1449617324648791331,/move_base-30-1449617324.648791331,1,This goal has been accepted by the simple action server,0,1449617324714973059,odom,0.0,0.0,0.0,0.0,0.0,0.0,1.0
1449617324819813323,65,1449617324819683755,,1449617324819138210,/move_base-31-1449617324.819138210,1,This goal has been accepted by the simple action server,0,1449617324794980069,odom,0.0,0.0,0.0,0.0,0.0,0.0,1.0
1449617324872714707,66,1449617324872427700,,1449617324842816671,/move_base-32-1449617324.842816671,1,This goal has been accepted by the simple action server,0,1449617324834971734,odom,0.0,0.0,0.0,0.0,0.0,0.0,1.0
1449617324920048513,67,1449617324919408386,,1449617324842816671,/move_base-32-1449617324.842816671,1,This goal has been accepted by the simple action server,0,1449617324914985501,odom,0.0,0.0,0.0,0.0,0.0,0.0,1.0
1449617324971097295,68,1449617324969552605,,1449617324931745145,/move_base-33-1449617324.931745145,1,This goal has been accepted by the simple action server,0,1449617324954980915,odom,0.0,0.0,0.0,0.0,0.0,0.0,1.0
1449617325020304902,69,1449617325019326032,,1449617324931745145,/move_base-33-1449617324.931745145,1,This goal has been accepted by the simple action server,0,1449617324994978185,odom,0.0,0.0,0.0,0.0,0.0,0.0,1.0
1449617325071204226,70,1449617325069450218,,1449617325037099001,/move_base-34-1449617325.37099001,1,This goal has been accepted by the simple action server,0,1449617325034975433,odom,0.0,0.0,0.0,0.0,0.0,0.0,1.0
1449617325121647473,71,1449617325119471571,,1449617325116117958,/move_base-35-1449617325.116117958,1,This goal has been accepted by the simple action server,0,1449617325114982742,odom,0.0,0.0,0.0,0.0,0.0,0.0,1.0
1449617325169990112,72,1449617325169359225,,1449617325116117958,/move_base-35-1449617325.116117958,1,This goal has been accepted by the simple action server,0,1449617325154978141,odom,0.0,0.0,0.0,0.0,0.0,0.0,1.0
1449617325225053843,73,1449617325221775855,,1449617325199122365,/move_base-36-1449617325.199122365,1,This goal has been accepted by the simple action server,0,1449617325194973425,odom,0.0,0.0,0.0,0.0,0.0,0.0,1.0
1449617325273310483,74,1449617325269630090,,1449617325199122365,/move_base-36-1449617325.199122365,1,This goal has been accepted by the simple action server,0,1449617325234978679,odom,0.0,0.0,0.0,0.0,0.0,0.0,1.0
1449617325319756881,75,1449617325319327595,,1449617325199122365,/move_base-36-1449617325.199122365,1,This goal has been accepted by the simple action server,0,1449617325315168135,odom,0.0,0.0,0.0,0.0,0.0,0.0,1.0
1449617325395367172,76,1449617325395024564,,1449617325394913195,/move_base-37-1449617325.394913195,1,This goal has been accepted by the simple action server,0,1449617325354979212,odom,0.0,0.0,0.0,0.0,0.0,0.0,1.0
1449617325445675337,77,1449617325445148805,,1449617325400009415,/move_base-38-1449617325.400009415,1,This goal has been accepted by the simple action server,0,1449617325434977731,odom,0.0,0.0,0.0,0.0,0.0,0.0,1.0
1449617325495337589,78,1449617325495080233,,1449617325400009415,/move_base-38-1449617325.400009415,1,This goal has been accepted by the simple action server,0,1449617325474975780,odom,0.0,0.0,0.0,0.0,0.0,0.0,1.0
1449617325546153298,79,1449617325545118845,,1449617325400009415,/move_base-38-1449617325.400009415,1,This goal has been accepted by the simple action server,0,1449617325514978854,odom,0.0,0.0,0.0,0.0,0.0,0.0,1.0
1449617325566268045,80,1449617325564490839,,1449617325564160938,/move_base-39-1449617325.564160938,1,This goal has been accepted by the simple action server,0,1449617325554986069,odom,0.0,0.0,0.0,0.0,0.0,0.0,1.0
1449617325617255684,81,1449617325614540531,,1449617325564160938,/move_base-39-1449617325.564160938,1,This goal has been accepted by the simple action server,0,1449617325594975094,odom,0.0,0.0,0.0,0.0,0.0,0.0,1.0
1449617325671637803,82,1449617325669404287,,1449617325652897832,/move_base-40-1449617325.652897832,1,This goal has been accepted by the simple action server,0,1449617325634970632,odom,0.0,0.0,0.0,0.0,0.0,0.0,1.0
1449617325715364080,83,1449617325714510324,,1449617325652897832,/move_base-40-1449617325.652897832,1,This goal has been accepted by the simple action server,0,1449617325674976445,odom,0.0,0.0,0.0,0.0,0.0,0.0,1.0
1449617325766768449,84,1449617325764609625,,1449617325714791474,/move_base-41-1449617325.714791474,1,This goal has been accepted by the simple action server,0,1449617325754976119,odom,0.0,0.0,0.0,0.0,0.0,0.0,1.0
1449617325817960364,85,1449617325816276565,,1449617325808197256,/move_base-42-1449617325.808197256,1,This goal has been accepted by the simple action server,0,1449617325794978440,odom,0.0,0.0,0.0,0.0,0.0,0.0,1.0
1449617325870405508,86,1449617325864556446,,1449617325808197256,/move_base-42-1449617325.808197256,1,This goal has been accepted by the simple action server,0,1449617325834972647,odom,0.0,0.0,0.0,0.0,0.0,0.0,1.0
1449617325915318636,87,1449617325914686194,,1449617325808197256,/move_base-42-1449617325.808197256,1,This goal has been accepted by the simple action server,0,1449617325877644781,odom,0.0,0.0,0.0,0.0,0.0,0.0,1.0
1449617326042465064,88,1449617326041659661,,1449617326037429027,/move_base-43-1449617326.37429027,1,This goal has been accepted by the simple action server,0,1449617326034970028,odom,0.0,0.0,0.0,0.0,0.0,0.0,1.0
1449617326094170878,89,1449617326093628318,,1449617326037429027,/move_base-43-1449617326.37429027,1,This goal has been accepted by the simple action server,0,1449617326074981718,odom,0.0,0.0,0.0,0.0,0.0,0.0,1.0
1449617326142597788,90,1449617326141943145,,1449617326138964116,/move_base-44-1449617326.138964116,1,This goal has been accepted by the simple action server,0,1449617326114974604,odom,0.0,0.0,0.0,0.0,0.0,0.0,1.0
1449617326192050113,91,1449617326191738900,,1449617326138964116,/move_base-44-1449617326.138964116,1,This goal has been accepted by the simple action server,0,1449617326154974929,odom,0.0,0.0,0.0,0.0,0.0,0.0,1.0
1449617326242988835,92,1449617326242429521,,1449617326199591216,/move_base-45-1449617326.199591216,1,This goal has been accepted by the simple action server,0,1449617326234984988,odom,0.0,0.0,0.0,0.0,0.0,0.0,1.0
1449617326292769463,93,1449617326291743201,,1449617326199591216,/move_base-45-1449617326.199591216,1,This goal has been accepted by the simple action server,0,1449617326274980977,odom,0.0,0.0,0.0,0.0,0.0,0.0,1.0
1449617326342605579,94,1449617326341749760,,1449617326199591216,/move_base-45-1449617326.199591216,1,This goal has been accepted by the simple action server,0,1449617326314981340,odom,0.0,0.0,0.0,0.0,0.0,0.0,1.0
1449617326369950312,95,1449617326365889848,,1449617326365734154,/move_base-46-1449617326.365734154,1,This goal has been accepted by the simple action server,0,1449617326354975066,odom,0.0,0.0,0.0,0.0,0.0,0.0,1.0
1449617326417273045,96,1449617326416706540,,1449617326365734154,/move_base-46-1449617326.365734154,1,This goal has been accepted by the simple action server,0,1449617326394994170,odom,0.0,0.0,0.0,0.0,0.0,0.0,1.0
1449617326479206809,97,1449617326466004949,,1449617326443581089,/move_base-47-1449617326.443581089,1,This goal has been accepted by the simple action server,0,1449617326434987173,odom,0.0,0.0,0.0,0.0,0.0,0.0,1.0
1449617326517167725,98,1449617326516239069,,1449617326443581089,/move_base-47-1449617326.443581089,1,This goal has been accepted by the simple action server,0,1449617326474970242,odom,0.0,0.0,0.0,0.0,0.0,0.0,1.0
1449617326567114878,99,1449617326566226679,,1449617326443581089,/move_base-47-1449617326.443581089,1,This goal has been accepted by the simple action server,0,1449617326554976738,odom,0.0,0.0,0.0,0.0,0.0,0.0,1.0
1449617326575782506,100,1449617326573769611,,1449617326573640288,/move_base-48-1449617326.573640288,1,This goal has been accepted by the simple action server,0,1449617326554976738,odom,0.0,0.0,0.0,0.0,0.0,0.0,1.0
1449617326625904038,101,1449617326623917459,,1449617326594700116,/move_base-49-1449617326.594700116,1,This goal has been accepted by the simple action server,0,1449617326594975728,odom,0.0,0.0,0.0,0.0,0.0,0.0,1.0
1449617326675187646,102,1449617326673854433,,1449617326594700116,/move_base-49-1449617326.594700116,1,This goal has been accepted by the simple action server,0,1449617326634974681,odom,0.0,0.0,0.0,0.0,0.0,0.0,1.0
1449617326724769592,103,1449617326723850615,,1449617326594700116,/move_base-49-1449617326.594700116,1,This goal has been accepted by the simple action server,0,1449617326714983500,odom,0.0,0.0,0.0,0.0,0.0,0.0,1.0
1449617326790045831,104,1449617326789807668,,1449617326789735753,/move_base-50-1449617326.789735753,1,This goal has been accepted by the simple action server,0,1449617326754973238,odom,0.0,0.0,0.0,0.0,0.0,0.0,1.0
1449617326844905527,105,1449617326839919600,,1449617326789735753,/move_base-50-1449617326.789735753,1,This goal has been accepted by the simple action server,0,1449617326794971611,odom,0.0,0.0,0.0,0.0,0.0,0.0,1.0
1449617326924268370,106,1449617326915700863,,1449617326789735753,/move_base-50-1449617326.789735753,1,This goal has been accepted by the simple action server,0,1449617326874979840,odom,0.0,0.0,0.0,0.0,0.0,0.0,1.0
1449617327002958921,107,1449617326998788048,,1449617326789735753,/move_base-50-1449617326.789735753,1,This goal has been accepted by the simple action server,0,1449617326994975985,odom,0.0,0.0,0.0,0.0,0.0,0.0,1.0
1449617327090786028,108,1449617327089816765,,1449617326789735753,/move_base-50-1449617326.789735753,1,This goal has been accepted by the simple action server,0,1449617327074979082,odom,0.0,0.0,0.0,0.0,0.0,0.0,1.0
1449617327176996956,109,1449617327174769395,,1449617326789735753,/move_base-50-1449617326.789735753,1,This goal has been accepted by the simple action server,0,1449617327154984134,odom,0.0,0.0,0.0,0.0,0.0,0.0,1.0
1449617327249831374,110,1449617327244704357,,1449617326789735753,/move_base-50-1449617326.789735753,1,This goal has been accepted by the simple action server,0,1449617327234981972,odom,0.0,0.0,0.0,0.0,0.0,0.0,1.0
1449617327300528762,111,1449617327297541454,,1449617326789735753,/move_base-50-1449617326.789735753,1,This goal has been accepted by the simple action server,0,1449617327274981983,odom,0.0,0.0,0.0,0.0,0.0,0.0,1.0
1449617327386619923,112,1449617327385481669,,1449617326789735753,/move_base-50-1449617326.789735753,1,This goal has been accepted by the simple action server,0,1449617327355244634,odom,0.0,0.0,0.0,0.0,0.0,0.0,1.0
1449617327450642766,113,1449617327441163369,,1449617326789735753,/move_base-50-1449617326.789735753,1,This goal has been accepted by the simple action server,0,1449617327434985767,odom,0.0,0.0,0.0,0.0,0.0,0.0,1.0
1449617327505910905,114,1449617327504413250,,1449617326789735753,/move_base-50-1449617326.789735753,1,This goal has been accepted by the simple action server,0,1449617327475010891,odom,0.0,0.0,0.0,0.0,0.0,0.0,1.0
1449617327594494546,115,1449617327585666430,,1449617326789735753,/move_base-50-1449617326.789735753,1,This goal has been accepted by the simple action server,0,1449617327554982804,odom,0.0,0.0,0.0,0.0,0.0,0.0,1.0
1449617327689004018,116,1449617327677748074,,1449617326789735753,/move_base-50-1449617326.789735753,1,This goal has been accepted by the simple action server,0,1449617327634977084,odom,0.00287963245437,3.04332289367e-05,0.0,0.0,0.0,0.0052839997518,0.999986039576
1449617327789740709,117,1449617327781454907,,1449617326789735753,/move_base-50-1449617326.789735753,1,This goal has been accepted by the simple action server,0,1449617327754984218,odom,0.00575942572016,3.04332289367e-05,0.0,0.0,0.0,0.0,1.0
1449617327877819385,118,1449617327868929971,,1449617326789735753,/move_base-50-1449617326.789735753,1,This goal has been accepted by the simple action server,0,1449617327834981952,odom,0.00863905817453,6.08664578733e-05,0.0,0.0,0.0,0.0052839997518,0.999986039576
1449617327927878213,119,1449617327926765954,,1449617326789735753,/move_base-50-1449617326.789735753,1,This goal has been accepted by the simple action server,0,1449617327914993600,odom,0.0115188514403,6.08664578733e-05,0.0,0.0,0.0,0.0,1.0
1449617327999061075,120,1449617327997440605,,1449617326789735753,/move_base-50-1449617326.789735753,1,This goal has been accepted by the simple action server,0,1449617327994986954,odom,0.0172784379719,6.08664578733e-05,0.0,0.0,0.0,0.0,1.0
1449617328061257368,121,1449617328058321384,,1449617326789735753,/move_base-50-1449617326.789735753,1,This goal has been accepted by the simple action server,0,1449617328034973952,odom,0.0172784379719,6.08664578733e-05,0.0,0.0,0.0,0.0,1.0
1449617328138276530,122,1449617328120424207,,1449617326789735753,/move_base-50-1449617326.789735753,1,This goal has been accepted by the simple action server,0,1449617328114974820,odom,0.0230380245035,6.08664578733e-05,0.0,0.0,0.0,0.0,1.0
1449617328238217251,123,1449617328235930256,,1449617326789735753,/move_base-50-1449617326.789735753,1,This goal has been accepted by the simple action server,0,1449617328194972455,odom,0.0316772434894,3.04332289367e-05,0.0,0.0,0.0,-0.0052839997518,0.999986039576
1449617328325355369,124,1449617328316689399,,1449617326789735753,/move_base-50-1449617326.789735753,1,This goal has been accepted by the simple action server,0,1449617328314979302,odom,0.0489550382157,-0.000152166144683,0.0,0.0,0.0,-0.0052839997518,0.999986039576
1449617328397064627,125,1449617328394420470,,1449617326789735753,/move_base-50-1449617326.789735753,1,This goal has been accepted by the simple action server,0,1449617328355069697,odom,0.0518341882537,-0.000213029203694,0.0,0.0,0.0,-0.0105678519699,0.999944158693
1449617328490965440,126,1449617328489847479,,1449617326789735753,/move_base-50-1449617326.789735753,1,This goal has been accepted by the simple action server,0,1449617328474977923,odom,0.0691090884822,-0.000578207557759,0.0,0.0,0.0,-0.0105678519699,0.999944158693
1449617328588422757,127,1449617328587683324,,1449617326789735753,/move_base-50-1449617326.789735753,1,This goal has been accepted by the simple action server,0,1449617328557613624,odom,0.0863839887106,-0.000943385911823,0.0,0.0,0.0,-0.0105678519699,0.999944158693
1449617328685702188,128,1449617328685299969,,1449617326789735753,/move_base-50-1449617326.789735753,1,This goal has been accepted by the simple action server,0,1449617328674976687,odom,0.115175489091,-0.00155201650193,0.0,0.0,0.0,-0.0105678519699,0.999944158693
1449617328745971288,129,1449617328739876172,,1449617326789735753,/move_base-50-1449617326.789735753,1,This goal has been accepted by the simple action server,0,1449617328714971846,odom,0.120933789168,-0.00167374261995,0.0,0.0,0.0,-0.0105678519699,0.999944158693
1449617328801857410,130,1449617328797285781,,1449617326789735753,/move_base-50-1449617326.789735753,1,This goal has been accepted by the simple action server,0,1449617328794986339,odom,0.141082211663,-0.00231274526213,0.0,0.0,0.0,-0.0158514091245,0.999874358521
1449617328848822112,131,1449617328843935266,,1449617326789735753,/move_base-50-1449617326.789735753,1,This goal has been accepted by the simple action server,0,1449617328834980996,odom,0.146838903804,-0.00249531744561,0.0,0.0,0.0,-0.0158514091245,0.999874358521
1449617328894334403,132,1449617328889990894,,1449617326789735753,/move_base-50-1449617326.789735753,1,This goal has been accepted by the simple action server,0,1449617328874977599,odom,0.158352288088,-0.00286046181256,0.0,0.0,0.0,-0.0158514091245,0.999874358521
1449617328961777117,133,1449617328957902950,,1449617326789735753,/move_base-50-1449617326.789735753,1,This goal has been accepted by the simple action server,0,1449617328955043575,odom,0.175622364512,-0.003408178363,0.0,0.0,0.0,-0.0158514091245,0.999874358521
1449617329051096179,134,1449617329038965998,,1449617326789735753,/move_base-50-1449617326.789735753,1,This goal has been accepted by the simple action server,0,1449617328995080663,odom,0.187135748795,-0.00377332272996,0.0,0.0,0.0,-0.0158514091245,0.999874358521
1449617329128090820,135,1449617329124094540,,1449617326789735753,/move_base-50-1449617326.789735753,1,This goal has been accepted by the simple action server,0,1449617329114972304,odom,0.21878517586,-0.00511201095334,0.0,0.0,0.0,-0.0211345236944,0.999776641009
1449617329188276069,136,1449617329178162024,,1449617326789735753,/move_base-50-1449617326.789735753,1,This goal has been accepted by the simple action server,0,1449617329154958194,odom,0.230294058429,-0.00559880667094,0.0,0.0,0.0,-0.0211345236944,0.999776641009
1449617329239031066,137,1449617329233905745,,1449617326789735753,/move_base-50-1449617326.789735753,1,This goal has been accepted by the simple action server,0,1449617329194982723,odom,0.238921380064,-0.00605510119715,0.0,0.0,0.0,-0.0264170481704,0.999651008886
1449617329279867356,138,1449617329279149632,,1449617326789735753,/move_base-50-1449617326.789735753,1,This goal has been accepted by the simple action server,0,1449617329274976815,odom,0.264794505278,-0.0075758960722,0.0,0.0,0.0,-0.0316988350601,0.999497465658
1449617329373812793,139,1449617329373380524,,1449617326789735753,/move_base-50-1449617326.789735753,1,This goal has been accepted by the simple action server,0,1449617329354980765,odom,0.284924922426,-0.00864058330002,0.0,0.0,0.0,-0.0264170481704,0.999651008886
1449617329438249307,140,1449617329435590415,,1449617326789735753,/move_base-50-1449617326.789735753,1,This goal has been accepted by the simple action server,0,1449617329395383499,odom,0.299294952127,-0.00955298547345,0.0,0.0,0.0,-0.0316988350601,0.999497465658
1449617329496248499,141,1449617329490143834,,1449617326789735753,/move_base-50-1449617326.789735753,1,This goal has been accepted by the simple action server,0,1449617329474971821,odom,0.322292303463,-0.0109216821731,0.0,0.0,0.0,-0.0316988350601,0.999497465658
1449617329545524240,142,1449617329536624085,,1449617326789735753,/move_base-50-1449617326.789735753,1,This goal has been accepted by the simple action server,0,1449617329514970340,odom,0.333788327224,-0.0116516039118,0.0,0.0,0.0,-0.0316988350601,0.999497465658
1449617329640101651,143,1449617329615405908,,1449617326789735753,/move_base-50-1449617326.789735753,1,This goal has been accepted by the simple action server,0,1449617329594998786,odom,0.356774108003,-0.0132025330275,0.0,0.0,0.0,-0.0316988350601,0.999497465658
1449617329702099003,144,1449617329700881403,,1449617326789735753,/move_base-50-1449617326.789735753,1,This goal has been accepted by the simple action server,0,1449617329674974189,odom,0.376877527183,-0.0146924292261,0.0,0.0,0.0,-0.0369797368913,0.999316015612
1449617329776926027,145,1449617329774921587,,1449617326789735753,/move_base-50-1449617326.789735753,1,This goal has been accepted by the simple action server,0,1449617329755056821,odom,0.408456566179,-0.0171853852239,0.0,0.0,0.0,-0.042259606217,0.999106663816
1449617329840738990,146,1449617329840602002,,1449617326789735753,/move_base-50-1449617326.789735753,1,This goal has been accepted by the simple action server,0,1449617329834996681,odom,0.431419854097,-0.0190398142796,0.0,0.0,0.0,-0.042259606217,0.999106663816
1449617329889273907,147,1449617329887328646,,1449617326789735753,/move_base-50-1449617326.789735753,1,This goal has been accepted by the simple action server,0,1449617329874973257,odom,0.442897883569,-0.0200125359703,0.0,0.0,0.0,-0.042259606217,0.999106663816
1449617329957886263,148,1449617329955804827,,1449617326789735753,/move_base-50-1449617326.789735753,1,This goal has been accepted by the simple action server,0,1449617329914985975,odom,0.454375913042,-0.020985257661,0.0,0.0,0.0,-0.042259606217,0.999106663816
1449617330065349605,149,1449617330063872394,,1449617326789735753,/move_base-50-1449617326.789735753,1,This goal has been accepted by the simple action server,0,1449617330034978585,odom,0.491654937642,-0.0244194017021,0.0,0.0,0.0,-0.0475382956186,0.998869416115
1449617330141266008,150,1449617330120207786,,1449617326789735753,/move_base-50-1449617326.789735753,1,This goal has been accepted by the simple action server,0,1449617330114977969,odom,0.517440681264,-0.0270322260793,0.0,0.0,0.0,-0.0528156577107,0.998604279132
1449617330229484484,151,1449617330228291150,,1449617326789735753,/move_base-50-1449617326.789735753,1,This goal has been accepted by the simple action server,0,1449617330194978475,odom,0.540359647651,-0.0293715590841,0.0,0.0,0.0,-0.0528156577107,0.998604279132
1449617330310653208,152,1449617330305851586,,1449617326789735753,/move_base-50-1449617326.789735753,1,This goal has been accepted by the simple action server,0,1449617330278234867,odom,0.563269463134,-0.031801733305,0.0,0.0,0.0,-0.0528156577107,0.998604279132
1449617330385761897,153,1449617330379841261,,1449617326789735753,/move_base-50-1449617326.789735753,1,This goal has been accepted by the simple action server,0,1449617330356382962,odom,0.589012674389,-0.0348078976174,0.0,0.0,0.0,-0.0580915451448,0.99831126027
1449617330488001598,154,1449617330474924841,,1449617326789735753,/move_base-50-1449617326.789735753,1,This goal has been accepted by the simple action server,0,1449617330434974198,odom,0.611884460092,-0.0375706711988,0.0,0.0,0.0,-0.0580915451448,0.99831126027
1449617330605436753,155,1449617330599404128,,1449617326789735753,/move_base-50-1449617326.789735753,1,This goal has been accepted by the simple action server,0,1449617330594974001,odom,0.660447802908,-0.0437625375466,0.0,0.0,0.0,-0.0633658106137,0.997990367712
1449617330698607567,156,1449617330696610267,,1449617326789735753,/move_base-50-1449617326.789735753,1,This goal has been accepted by the simple action server,0,1449617330674974059,odom,0.680416413128,-0.0465233090541,0.0,0.0,0.0,-0.0686383068554,0.997641610415
1449617330857883356,157,1449617330854986856,,1449617326789735753,/move_base-50-1449617326.789735753,1,This goal has been accepted by the simple action server,0,1449617330834993349,odom,0.72887266445,-0.0534991599104,0.0,0.0,0.0,-0.0739088866573,0.997264998119
1449617330964600337,158,1449617330962359057,,1449617326789735753,/move_base-50-1449617326.789735753,1,This goal has been accepted by the simple action server,0,1449617330954986817,odom,0.76587774589,-0.0591683100426,0.0,0.0,0.0,-0.0791774028604,0.996860541338
1449617331105065404,159,1449617331104548306,,1449617326789735753,/move_base-50-1449617326.789735753,1,This goal has been accepted by the simple action server,0,1449617331074982947,odom,0.800001978679,-0.0646234790658,0.0,0.0,0.0,-0.0791774028604,0.996860541338
1449617331194994547,160,1449617331183014128,,1449617326789735753,/move_base-50-1449617326.789735753,1,This goal has been accepted by the simple action server,0,1449617331154973856,odom,0.822736578465,-0.0683503372188,0.0,0.0,0.0,-0.0791774028604,0.996860541338
1449617331310688605,161,1449617331305829987,,1449617326789735753,/move_base-50-1449617326.789735753,1,This goal has been accepted by the simple action server,0,1449617331274977864,odom,0.859639979447,-0.0746504451457,0.0,0.0,0.0,-0.0844437083633,0.996428251365
1449617331454981253,162,1449617331449762849,,1449617326789735753,/move_base-50-1449617326.789735753,1,This goal has been accepted by the simple action server,0,1449617331434980987,odom,0.907856033442,-0.0831288249716,0.0,0.0,0.0,-0.0897076561262,0.99596814027
1449617331542903667,163,1449617331536648804,,1449617326789735753,/move_base-50-1449617326.789735753,1,This goal has been accepted by the simple action server,0,1449617331514978869,odom,0.927662153885,-0.0868805691498,0.0,0.0,0.0,-0.0949690991753,0.995480220899
1449617331640375096,164,1449617331637187398,,1449617326789735753,/move_base-50-1449617326.789735753,1,This goal has been accepted by the simple action server,0,1449617331595029415,odom,0.955968603936,-0.0921761008201,0.0,0.0,0.0,-0.0949690991753,0.995480220899
1449617331761839791,165,1449617331757605348,,1449617326789735753,/move_base-50-1449617326.789735753,1,This goal has been accepted by the simple action server,0,1449617331714975356,odom,0.989902765624,-0.0987102268603,0.0,0.0,0.0,-0.0949690991753,0.995480220899
1449617331869881375,166,1449617331869530264,,1449617326789735753,/move_base-50-1449617326.789735753,1,This goal has been accepted by the simple action server,0,1449617331834973791,odom,1.02094404612,-0.10502823486,0.0,0.0,0.0,-0.100227890607,0.994964506877
1449617331994264962,167,1449617331991800417,,1449617326789735753,/move_base-50-1449617326.789735753,1,This goal has been accepted by the simple action server,0,1449617331954969904,odom,1.05757937676,-0.112733289297,0.0,0.0,0.0,-0.10548388359,0.994421012601
1449617332051741166,168,1449617332049671123,,1449617326789735753,/move_base-50-1449617326.789735753,1,This goal has been accepted by the simple action server,0,1449617332034971425,odom,1.08573644889,-0.118774830071,0.0,0.0,0.0,-0.10548388359,0.994421012601
1449617332138388408,169,1449617332137074170,,1449617326789735753,/move_base-50-1449617326.789735753,1,This goal has been accepted by the simple action server,0,1449617332114977798,odom,1.10541369015,-0.123152519814,0.0,0.0,0.0,-0.110736931374,0.993849753247
1449617332242723141,170,1449617332235892399,,1449617326789735753,/move_base-50-1449617326.789735753,1,This goal has been accepted by the simple action server,0,1449617332234980958,odom,1.14199825838,-0.131095689541,0.0,0.0,0.0,-0.10548388359,0.994421012601
1449617332290074778,171,1449617332287776022,,1449617326789735753,/move_base-50-1449617326.789735753,1,This goal has been accepted by the simple action server,0,1449617332274974108,odom,1.15326108723,-0.133512305851,0.0,0.0,0.0,-0.10548388359,0.994421012601
1449617332387159672,172,1449617332384966383,,1449617326789735753,/move_base-50-1449617326.789735753,1,This goal has been accepted by the simple action server,0,1449617332354973149,odom,1.17576711939,-0.13843470519,0.0,0.0,0.0,-0.10548388359,0.994421012601
1449617332438318765,173,1449617332436354887,,1449617326789735753,/move_base-50-1449617326.789735753,1,This goal has been accepted by the simple action server,0,1449617332394984589,odom,1.17576711939,-0.13843470519,0.0,0.0,0.0,-0.10548388359,0.994421012601
1449617332513929848,174,1449617332511673973,,1449617326789735753,/move_base-50-1449617326.789735753,1,This goal has been accepted by the simple action server,0,1449617332474981315,odom,1.21228626918,-0.14667509732,0.0,0.0,0.0,-0.110736931374,0.993849753247
1449617332603225508,175,1449617332600958764,,1449617326789735753,/move_base-50-1449617326.789735753,1,This goal has been accepted by the simple action server,0,1449617332554983737,odom,1.2319700523,-0.151023064822,0.0,0.0,0.0,-0.10548388359,0.994421012601
1449617332668972648,176,1449617332659586386,,1449617326789735753,/move_base-50-1449617326.789735753,1,This goal has been accepted by the simple action server,0,1449617332634970655,odom,1.25725254061,-0.156727951681,0.0,0.0,0.0,-0.110736931374,0.993849753247
1449617332968614676,177,1449617332957478793,,1449617326789735753,/move_base-50-1449617326.789735753,1,This goal has been accepted by the simple action server,0,1449617332954993550,odom,1.35015685153,-0.176724278295,0.0,0.0,0.0,-0.10548388359,0.994421012601
1449617333034286532,178,1449617333029984534,,1449617326789735753,/move_base-50-1449617326.789735753,1,This goal has been accepted by the simple action server,0,1449617332994986847,odom,1.36426652448,-0.179596100113,0.0,0.0,0.0,-0.100227890607,0.994964506877
1449617333141634507,179,1449617333134529503,,1449617326789735753,/move_base-50-1449617326.789735753,1,This goal has been accepted by the simple action server,0,1449617333115267529,odom,1.39812973956,-0.186488472476,0.0,0.0,0.0,-0.100227890607,0.994964506877
1449617333204332924,180,1449617333203098821,,1449617326789735753,/move_base-50-1449617326.789735753,1,This goal has been accepted by the simple action server,0,1449617333194974159,odom,1.42073477737,-0.190934118084,0.0,0.0,0.0,-0.100227890607,0.994964506877
1449617333258557169,181,1449617333253907011,,1449617326789735753,/move_base-50-1449617326.789735753,1,This goal has been accepted by the simple action server,0,1449617333234988926,odom,1.43487401141,-0.193656670601,0.0,0.0,0.0,-0.0949690991753,0.995480220899
1449617333344844632,182,1449617333337819949,,1449617326789735753,/move_base-50-1449617326.789735753,1,This goal has been accepted by the simple action server,0,1449617333314979340,odom,1.45468572824,-0.197378500106,0.0,0.0,0.0,-0.0897076561262,0.99596814027
1449617333407352546,183,1449617333405715495,,1449617326789735753,/move_base-50-1449617326.789735753,1,This goal has been accepted by the simple action server,0,1449617333395110957,odom,1.47732529189,-0.201644840115,0.0,0.0,0.0,-0.0897076561262,0.99596814027
1449617333523405351,184,1449617333521636457,,1449617326789735753,/move_base-50-1449617326.789735753,1,This goal has been accepted by the simple action server,0,1449617333514978092,odom,1.51420757307,-0.208064836618,0.0,0.0,0.0,-0.0844437083633,0.996428251365
1449617333649902100,185,1449617333649713172,,1449617326789735753,/move_base-50-1449617326.789735753,1,This goal has been accepted by the simple action server,0,1449617333634993758,odom,1.55115564027,-0.214094708132,0.0,0.0,0.0,-0.0791774028604,0.996860541338
1449617333747668837,186,1449617333745551172,,1449617326789735753,/move_base-50-1449617326.789735753,1,This goal has been accepted by the simple action server,0,1449617333714981815,odom,1.57391906477,-0.217641256365,0.0,0.0,0.0,-0.0791774028604,0.996860541338
1449617333824227895,187,1449617333822275553,,1449617326789735753,/move_base-50-1449617326.789735753,1,This goal has been accepted by the simple action server,0,1449617333794994772,odom,1.59385738449,-0.220612899024,0.0,0.0,0.0,-0.0739088866573,0.997264998119
1449617333901792825,188,1449617333891080745,,1449617326789735753,/move_base-50-1449617326.789735753,1,This goal has been accepted by the simple action server,0,1449617333874975193,odom,1.61669067918,-0.223677560969,0.0,0.0,0.0,-0.0633658106137,0.997990367712
1449617333947006321,189,1449617333943442663,,1449617326789735753,/move_base-50-1449617326.789735753,1,This goal has been accepted by the simple action server,0,1449617333914971948,odom,1.63095397219,-0.225649540618,0.0,0.0,0.0,-0.0686383068554,0.997641610415
1449617334006077470,190,1449617334004522012,,1449617326789735753,/move_base-50-1449617326.789735753,1,This goal has been accepted by the simple action server,0,1449617333995122356,odom,1.65095064276,-0.228199132643,0.0,0.0,0.0,-0.0633658106137,0.997990367712
1449617334053774782,191,1449617334050499945,,1449617326789735753,/move_base-50-1449617326.789735753,1,This goal has been accepted by the simple action server,0,1449617334034977087,odom,1.66525242679,-0.229869223928,0.0,0.0,0.0,-0.0580915451448,0.99831126027
1449617334141843866,192,1449617334138695391,,1449617326789735753,/move_base-50-1449617326.789735753,1,This goal has been accepted by the simple action server,0,1449617334114977299,odom,1.69102596921,-0.232603169926,0.0,0.0,0.0,-0.0528156577107,0.998604279132
1449617334196494847,193,1449617334194577775,,1449617326789735753,/move_base-50-1449617326.789735753,1,This goal has been accepted by the simple action server,0,1449617334155270236,odom,1.69962630092,-0.233423644043,0.0,0.0,0.0,-0.0475382956186,0.998869416115
1449617334275993364,194,1449617334266671888,,1449617326789735753,/move_base-50-1449617326.789735753,1,This goal has been accepted by the simple action server,0,1449617334236795748,odom,1.72545186724,-0.235612267847,0.0,0.0,0.0,-0.042259606217,0.999106663816
1449617334354403765,195,1449617334353210734,,1449617326789735753,/move_base-50-1449617326.789735753,1,This goal has been accepted by the simple action server,0,1449617334315342854,odom,1.75128948184,-0.237649201108,0.0,0.0,0.0,-0.0369797368913,0.999316015612
1449617334434935944,196,1449617334420177972,,1449617326789735753,/move_base-50-1449617326.789735753,1,This goal has been accepted by the simple action server,0,1449617334394997158,odom,1.77139916776,-0.239048011669,0.0,0.0,0.0,-0.0316988350601,0.999497465658
1449617334504837046,197,1449617334502597930,,1449617326789735753,/move_base-50-1449617326.789735753,1,This goal has been accepted by the simple action server,0,1449617334474974983,odom,1.80016414036,-0.240416997193,0.0,0.0,0.0,-0.0211345236944,0.999776641009
1449617334583528204,198,1449617334579379691,,1449617326789735753,/move_base-50-1449617326.789735753,1,This goal has been accepted by the simple action server,0,1449617334554981495,odom,1.820310312,-0.24111682551,0.0,0.0,0.0,-0.0158514091245,0.999874358521
1449617334645431269,199,1449617334636243024,,1449617326789735753,/move_base-50-1449617326.789735753,1,This goal has been accepted by the simple action server,0,1449617334634977251,odom,1.84622266235,-0.241664593041,0.0,0.0,0.0,-0.0105678519699,0.999944158693
1449617334709429928,200,1449617334709013068,,1449617326789735753,/move_base-50-1449617326.789735753,1,This goal has been accepted by the simple action server,0,1449617334674983301,odom,1.8577392625,-0.241908045277,0.0,0.0,0.0,-0.0105678519699,0.999944158693
1449617334804729447,201,1449617334791136420,,1449617326789735753,/move_base-50-1449617326.789735753,1,This goal has been accepted by the simple action server,0,1449617334754984278,odom,1.88077680457,-0.242060211422,0.0,0.0,0.0,-4.4408920985e-16,1.0
1449617334857805216,202,1449617334853915427,,1449617326789735753,/move_base-50-1449617326.789735753,1,This goal has been accepted by the simple action server,0,1449617334835296947,odom,1.90669349666,-0.241786312362,0.0,0.0,0.0,0.0052839997518,0.999986039576
1449617334948988367,203,1449617334939386757,,1449617326789735753,/move_base-50-1449617326.789735753,1,This goal has been accepted by the simple action server,0,1449617334915179614,odom,1.92972267712,-0.241147292726,0.0,0.0,0.0,0.0158514091245,0.999874358521
1449617335025864183,204,1449617335021417548,,1449617326789735753,/move_base-50-1449617326.789735753,1,This goal has been accepted by the simple action server,0,1449617334994980880,odom,1.94986547248,-0.240356225895,0.0,0.0,0.0,0.0211345236944,0.999776641009
1449617335088214208,205,1449617335087302174,,1449617326789735753,/move_base-50-1449617326.789735753,1,This goal has been accepted by the simple action server,0,1449617335074974709,odom,1.97574743738,-0.238987342317,0.0,0.0,0.0,0.0264170481704,0.999651008886
1449617335214993779,206,1449617335209167058,,1449617326789735753,/move_base-50-1449617326.789735753,1,This goal has been accepted by the simple action server,0,1449617335194980120,odom,2.00733756244,-0.236646148174,0.0,0.0,0.0,0.042259606217,0.999106663816
1449617335290542676,207,1449617335281896562,,1449617326789735753,/move_base-50-1449617326.789735753,1,This goal has been accepted by the simple action server,0,1449617335275446594,odom,2.03314947809,-0.234305969622,0.0,0.0,0.0,0.0475382956186,0.998869416115
1449617335385410558,208,1449617335364061743,,1449617326789735753,/move_base-50-1449617326.789735753,1,This goal has been accepted by the simple action server,0,1449617335354986789,odom,2.05319556664,-0.232179567179,0.0,0.0,0.0,0.0528156577107,0.998604279132
1449617335477012770,209,1449617335470925870,,1449617326789735753,/move_base-50-1449617326.789735753,1,This goal has been accepted by the simple action server,0,1449617335435053896,odom,2.08178068679,-0.228688338733,0.0,0.0,0.0,0.0633658106137,0.997990367712
1449617335572893471,210,1449617335571534924,,1449617326789735753,/move_base-50-1449617326.789735753,1,This goal has been accepted by the simple action server,0,1449617335554984018,odom,2.11599095395,-0.223804965326,0.0,0.0,0.0,0.0739088866573,0.997264998119
1449617335633458204,211,1449617335632639991,,1449617326789735753,/move_base-50-1449617326.789735753,1,This goal has been accepted by the simple action server,0,1449617335594977100,odom,2.12452201215,-0.22244117307,0.0,0.0,0.0,0.0791774028604,0.996860541338
1449617335690494971,212,1449617335690339003,,1449617326789735753,/move_base-50-1449617326.789735753,1,This goal has been accepted by the simple action server,0,1449617335674984367,odom,2.14441292587,-0.219168912336,0.0,0.0,0.0,0.0844437083633,0.996428251365
1449617335765184402,213,1449617335764032602,,1449617326789735753,/move_base-50-1449617326.789735753,1,This goal has been accepted by the simple action server,0,1449617335754990808,odom,2.17271937592,-0.213873380666,0.0,0.0,0.0,0.0949690991753,0.995480220899
1449617335874258333,214,1449617335873679907,,1449617326789735753,/move_base-50-1449617326.789735753,1,This goal has been accepted by the simple action server,0,1449617335834977538,odom,2.19248474249,-0.209912537841,0.0,0.0,0.0,0.100227890607,0.994964506877
1449617335931464619,215,1449617335925102648,,1449617326789735753,/move_base-50-1449617326.789735753,1,This goal has been accepted by the simple action server,0,1449617335914974260,odom,2.21495806544,-0.2048415273,0.0,0.0,0.0,0.110736931374,0.993849753247
1449617336008633471,216,1449617335996712063,,1449617326789735753,/move_base-50-1449617326.789735753,1,This goal has been accepted by the simple action server,0,1449617335994989630,odom,2.24020627586,-0.198988383204,0.0,0.0,0.0,0.115986887289,0.993250744765
1449617336043005669,217,1449617336040928111,,1449617326789735753,/move_base-50-1449617326.789735753,1,This goal has been accepted by the simple action server,0,1449617336034985055,odom,2.24859169959,-0.196909067881,0.0,0.0,0.0,0.121233604752,0.99262400388
1449617336115330298,218,1449617336114737028,,1449617326789735753,/move_base-50-1449617326.789735753,1,This goal has been accepted by the simple action server,0,1449617336074986546,odom,2.26253000222,-0.193296042668,0.0,0.0,0.0,0.126476937269,0.991969548091
1449617336178128546,219,1449617336177910286,,1449617326789735753,/move_base-50-1449617326.789735753,1,This goal has been accepted by the simple action server,0,1449617336154962376,odom,2.2875799867,-0.186645501121,0.0,0.0,0.0,0.131716738444,0.99128739567
1449617336228139456,220,1449617336227900806,,1449617326789735753,/move_base-50-1449617326.789735753,1,This goal has been accepted by the simple action server,0,1449617336194975783,odom,2.29589528459,-0.184301422561,0.0,0.0,0.0,0.136952861975,0.990577565664
1449617336314742390,221,1449617336304329279,,1449617326789735753,/move_base-50-1449617326.789735753,1,This goal has been accepted by the simple action server,0,1449617336274973783,odom,2.31800088125,-0.177816924684,0.0,0.0,0.0,0.147413491427,0.989074952946
1449617336379256275,222,1449617336378054280,,1449617326789735753,/move_base-50-1449617326.789735753,1,This goal has been accepted by the simple action server,0,1449617336355016426,odom,2.33725622867,-0.17185137905,0.0,0.0,0.0,0.152637705278,0.988282212188
1449617336441565069,223,1449617336437936561,,1449617326789735753,/move_base-50-1449617326.789735753,1,This goal has been accepted by the simple action server,0,1449617336434980105,odom,2.35644745784,-0.165682678879,0.0,0.0,0.0,0.157857657354,0.987461877753
1449617336485610098,224,1449617336482712474,,1449617326789735753,/move_base-50-1449617326.789735753,1,This goal has been accepted by the simple action server,0,1449617336474987171,odom,2.37008060452,-0.161049370867,0.0,0.0,0.0,0.163073201911,0.986613972544
1449617336538886919,225,1449617336537561449,,1449617326789735753,/move_base-50-1449617326.789735753,1,This goal has been accepted by the simple action server,0,1449617336514983237,odom,2.38366402578,-0.156272248509,0.0,0.0,0.0,0.168284193326,0.985738520236
1449617336602585669,226,1449617336578864787,,1449617326789735753,/move_base-50-1449617326.789735753,1,This goal has been accepted by the simple action server,0,1449617336554973795,odom,2.38909739429,-0.154361399566,0.0,0.0,0.0,0.168284193326,0.985738520236
1449617336680676073,227,1449617336674819032,,1449617326789735753,/move_base-50-1449617326.789735753,1,This goal has been accepted by the simple action server,0,1449617336634974541,odom,2.41071722817,-0.146403115694,0.0,0.0,0.0,0.17869193488,0.983905072865
1449617336736580476,228,1449617336733169039,,1449617326789735753,/move_base-50-1449617326.789735753,1,This goal has been accepted by the simple action server,0,1449617336714982038,odom,2.43492593415,-0.137147307788,0.0,0.0,0.0,0.183888394426,0.982947128993
1449617336804932018,229,1449617336798326106,,1449617326789735753,/move_base-50-1449617326.789735753,1,This goal has been accepted by the simple action server,0,1449617336755397728,odom,2.44294757859,-0.133939176898,0.0,0.0,0.0,0.189079719651,0.981961740404
1449617336879978703,230,1449617336855393886,,1449617326789735753,/move_base-50-1449617326.789735753,1,This goal has been accepted by the simple action server,0,1449617336834972483,odom,2.46418828939,-0.125018207006,0.0,0.0,0.0,0.199446387505,0.979908739889
1449617336946283405,231,1449617336942149632,,1449617326789735753,/move_base-50-1449617326.789735753,1,This goal has been accepted by the simple action server,0,1449617336914991725,odom,2.48270694255,-0.117054814251,0.0,0.0,0.0,0.204621440688,0.978841185285
1449617337006308970,232,1449617336997368825,,1449617326789735753,/move_base-50-1449617326.789735753,1,This goal has been accepted by the simple action server,0,1449617336954980642,odom,2.49583844932,-0.111147720109,0.0,0.0,0.0,0.209790780666,0.977746300606
1449617337042419948,233,1449617337038503335,,1449617326789735753,/move_base-50-1449617326.789735753,1,This goal has been accepted by the simple action server,0,1449617337034974743,odom,2.51418466366,-0.102794723135,0.0,0.0,0.0,0.214954263107,0.976624116419
1449617337146193930,234,1449617337141630108,,1449617326789735753,/move_base-50-1449617326.789735753,1,This goal has been accepted by the simple action server,0,1449617337114983629,odom,2.53244158028,-0.0942483125259,0.0,0.0,0.0,0.220111743843,0.97547466406
1449617337205511259,235,1449617337198155678,,1449617326789735753,/move_base-50-1449617326.789735753,1,This goal has been accepted by the simple action server,0,1449617337194974478,odom,2.55310132669,-0.0840538837791,0.0,0.0,0.0,0.230408124366,0.973094083954
1449617337247917201,236,1449617337247742846,,1449617326789735753,/move_base-50-1449617326.789735753,1,This goal has been accepted by the simple action server,0,1449617337234971285,odom,2.56590251848,-0.077461485125,0.0,0.0,0.0,0.235546736669,0.971863022676
1449617337303291193,237,1449617337294619384,,1449617326789735753,/move_base-50-1449617326.789735753,1,This goal has been accepted by the simple action server,0,1449617337275671690,odom,2.57362460515,-0.0735874354695,0.0,0.0,0.0,0.230408124366,0.973094083954
1449617337362230948,238,1449617337358314914,,1449617326789735753,/move_base-50-1449617326.789735753,1,This goal has been accepted by the simple action server,0,1449617337354977910,odom,2.59646825805,-0.0613441128951,0.0,0.0,0.0,0.24580408799,0.96931952953
1449617337411218206,239,1449617337406230839,,1449617326789735753,/move_base-50-1449617326.789735753,1,This goal has been accepted by the simple action server,0,1449617337394979082,odom,2.60153186018,-0.0585995235856,0.0,0.0,0.0,0.24580408799,0.96931952953
1449617337461454551,240,1449617337461077488,,1449617326789735753,/move_base-50-1449617326.789735753,1,This goal has been accepted by the simple action server,0,1449617337434972994,odom,2.61411764758,-0.0516046549711,0.0,0.0,0.0,0.250922540614,0.968007168678
1449617337526458363,241,1449617337525336712,,1449617326789735753,/move_base-50-1449617326.789735753,1,This goal has been accepted by the simple action server,0,1449617337514977738,odom,2.63169297581,-0.0417322704294,0.0,0.0,0.0,0.256033987268,0.966667780245
1449617337600090082,242,1449617337597375608,,1449617326789735753,/move_base-50-1449617326.789735753,1,This goal has been accepted by the simple action server,0,1449617337554982767,odom,2.64412811884,-0.0344729695597,0.0,0.0,0.0,0.261138285236,0.965301401628
1449617337638192821,243,1449617337636959839,,1449617326789735753,/move_base-50-1449617326.789735753,1,This goal has been accepted by the simple action server,0,1449617337634981819,odom,2.66142894563,-0.0241265380075,0.0,0.0,0.0,0.266235292001,0.963908070976
1449617337681923922,244,1449617337679067432,,1449617326789735753,/move_base-50-1449617326.789735753,1,This goal has been accepted by the simple action server,0,1449617337674979650,odom,2.66879631183,-0.0196142438487,0.0,0.0,0.0,0.271324865251,0.962487827194
1449617337726286957,245,1449617337725635293,,1449617326789735753,/move_base-50-1449617326.789735753,1,This goal has been accepted by the simple action server,0,1449617337714978863,odom,2.6809950944,-0.0119644114791,0.0,0.0,0.0,0.276406862881,0.961040709935
1449617337786608729,246,1449617337781857966,,1449617326789735753,/move_base-50-1449617326.789735753,1,This goal has been accepted by the simple action server,0,1449617337754984222,odom,2.68826544984,-0.0072974194063,0.0,0.0,0.0,0.281481142997,0.959566759604
1449617337863014352,247,1449617337860690196,,1449617326789735753,/move_base-50-1449617326.789735753,1,This goal has been accepted by the simple action server,0,1449617337834986616,odom,2.70765306435,0.00514789278783,0.0,0.0,0.0,0.281481142997,0.959566759604
1449617337959106476,248,1449617337955344304,,1449617326789735753,/move_base-50-1449617326.789735753,1,This goal has been accepted by the simple action server,0,1449617337914980937,odom,2.72199325813,0.0147871031029,0.0,0.0,0.0,0.291605984193,0.956538525091
1449617338017050766,249,1449617338007828515,,1449617326789735753,/move_base-50-1449617326.789735753,1,This goal has been accepted by the simple action server,0,1449617337994978379,odom,2.7386037066,0.026209023046,0.0,0.0,0.0,0.296656262579,0.954984325459
