%time,field.header.seq,field.header.stamp,field.header.frame_id,field.ns,field.id,field.type,field.action,field.pose.position.x,field.pose.position.y,field.pose.position.z,field.pose.orientation.x,field.pose.orientation.y,field.pose.orientation.z,field.pose.orientation.w,field.scale.x,field.scale.y,field.scale.z,field.color.r,field.color.g,field.color.b,field.color.a,field.lifetime,field.frame_locked,field.text,field.mesh_resource,field.mesh_use_embedded_materials
1449617322342839537,0,1449617322292701120,/odom,doorways,0,1,0,2.47514748573,0.0479251146317,1.0,0.0,0.0,0.301661508169,0.953415090341,0.2,1.07729804516,1.8,0.0,1.0,0.0,1.0,2000000000,0,,,0
1449617322358052942,1,1449617322307865728,/odom,doorways,1,1,0,2.27320456505,-0.746190488338,1.0,0.0,0.0,-0.463912474138,0.885881039609,0.2,0.889952778816,1.8,0.0,1.0,0.0,1.0,2000000000,0,,,0
1449617322518365642,2,1449617322468004853,/odom,doorways,0,1,0,2.42963647842,-0.0559630095959,1.0,0.0,0.0,0.281945813479,0.959430330072,0.2,0.877370595932,1.8,0.0,1.0,0.0,1.0,2000000000,0,,,0
1449617322752932706,3,1449617322701421165,/odom,doorways,0,1,0,2.51798009872,-0.0882278680801,1.0,0.0,0.0,0.298917351613,0.954279003701,0.2,0.757822751999,1.8,0.0,1.0,0.0,1.0,2000000000,0,,,0
1449617322940724536,4,1449617322890305673,/odom,doorways,0,1,0,2.5309510231,-0.124333679676,1.0,0.0,0.0,0.263564617908,0.964641742922,0.2,0.698632895947,1.8,0.0,1.0,0.0,1.0,2000000000,0,,,0
1449617323127948057,5,1449617323076468678,/odom,doorways,0,1,0,2.51620817184,-0.137535393238,1.0,0.0,0.0,0.263392513729,0.964688749655,0.2,0.667461276054,1.8,0.0,1.0,0.0,1.0,2000000000,0,,,0
1449617323209941082,6,1449617323159721646,/odom,doorways,0,1,0,2.51555418968,-0.108749568462,1.0,0.0,0.0,0.299562882217,0.954076558562,0.2,0.698390126228,1.8,0.0,1.0,0.0,1.0,2000000000,0,,,0
1449617323308872555,7,1449617323258751166,/odom,doorways,0,1,0,2.53813290596,-0.108129769564,1.0,0.0,0.0,0.272590225631,0.962130224497,0.2,0.738265216351,1.8,0.0,1.0,0.0,1.0,2000000000,0,,,0
1449617323505978317,8,1449617323455860064,/odom,doorways,0,1,0,2.5470199585,-0.151865363121,1.0,0.0,0.0,0.28100469932,0.95970639206,0.2,0.687451183796,1.8,0.0,1.0,0.0,1.0,2000000000,0,,,0
1449617323612298803,9,1449617323562084622,/odom,doorways,0,1,0,2.50918054581,-0.180828303099,1.0,0.0,0.0,0.250813127968,0.968035523542,0.2,0.707482874393,1.8,0.0,1.0,0.0,1.0,2000000000,0,,,0
1449617323702789842,10,1449617323652452267,/odom,doorways,0,1,0,2.57724881172,-0.132022917271,1.0,0.0,0.0,0.297809623221,0.954625281625,0.2,0.709984302521,1.8,0.0,1.0,0.0,1.0,2000000000,0,,,0
1449617323927141880,11,1449617323876968963,/odom,doorways,0,1,0,2.55074834824,-0.137383878231,1.0,0.0,0.0,0.292826397512,0.95616562421,0.2,0.677472233772,1.8,0.0,1.0,0.0,1.0,2000000000,0,,,0
1449617324226247468,12,1449617324175954141,/odom,doorways,0,1,0,2.54594945908,-0.15296445787,1.0,0.0,0.0,0.285433114234,0.958398631728,0.2,0.677843689919,1.8,0.0,1.0,0.0,1.0,2000000000,0,,,0
1449617324351314793,13,1449617324294968845,/odom,doorways,0,1,0,2.5334277153,-0.155858442187,1.0,0.0,0.0,0.272358061537,0.962195970848,0.2,0.668831527233,1.8,0.0,1.0,0.0,1.0,2000000000,0,,,0
1449617324632390223,14,1449617324581836379,/odom,doorways,0,1,0,2.48606753349,-0.164337486029,1.0,0.0,0.0,0.248873993073,0.968535872114,0.2,0.658884167671,1.8,0.0,1.0,0.0,1.0,2000000000,0,,,0
1449617324931239591,15,1449617324881088258,/odom,doorways,0,1,0,2.56560063362,-0.131245106459,1.0,0.0,0.0,0.308615397664,0.951186909248,0.2,0.678817093372,1.8,0.0,1.0,0.0,1.0,2000000000,0,,,0
1449617325233365313,16,1449617325183255706,/odom,doorways,0,1,0,2.62602710724,-0.103018522263,1.0,0.0,0.0,0.325715874516,0.945467698596,0.2,0.747734308243,1.8,0.0,1.0,0.0,1.0,2000000000,0,,,0
1449617325438221582,17,1449617325388111840,/odom,doorways,0,1,0,2.47936868668,-0.154681533575,1.0,0.0,0.0,0.286601075803,0.958050010881,0.2,0.667926430702,1.8,0.0,1.0,0.0,1.0,2000000000,0,,,0
1449617325762006520,18,1449617325711804689,/odom,doorways,0,1,0,2.57104349136,-0.126038908958,1.0,0.0,0.0,0.304242022813,0.952594767755,0.2,0.667497396469,1.8,0.0,1.0,0.0,1.0,2000000000,0,,,0
1449617325951053438,19,1449617325900632171,/odom,doorways,0,1,0,2.58263015747,-0.120338469744,1.0,0.0,0.0,0.313416250169,0.949615845555,0.2,0.689292550087,1.8,0.0,1.0,0.0,1.0,2000000000,0,,,0
1449617326224280613,20,1449617326173951329,/odom,doorways,0,1,0,2.54331088066,-0.144803255796,1.0,0.0,0.0,0.29189177016,0.956451355017,0.2,0.667501330376,1.8,0.0,1.0,0.0,1.0,2000000000,0,,,0
1449617326445438797,21,1449617326395350923,/odom,doorways,0,1,0,2.58829593658,-0.125868350267,1.0,0.0,0.0,0.323213217426,0.946326167915,0.2,0.669586718082,1.8,0.0,1.0,0.0,1.0,2000000000,0,,,0
1449617326611821255,22,1449617326561655934,/odom,doorways,0,1,0,2.5406358242,-0.143056958914,1.0,0.0,0.0,0.285993027231,0.95823169869,0.2,0.678675472736,1.8,0.0,1.0,0.0,1.0,2000000000,0,,,0
1449617326718068059,23,1449617326666764768,/odom,doorways,0,1,0,2.53450989723,-0.127041786909,1.0,0.0,0.0,0.312927011831,0.94977717664,0.2,0.659447789192,1.8,0.0,1.0,0.0,1.0,2000000000,0,,,0
1449617327133088098,24,1449617327082887849,/odom,doorways,0,1,0,2.55859661102,-0.128684520721,1.0,0.0,0.0,0.290792426872,0.956786164445,0.2,0.688335478306,1.8,0.0,1.0,0.0,1.0,2000000000,0,,,0
1449617327347155118,25,1449617327296909303,/odom,doorways,0,1,0,2.53809785843,-0.154480725527,1.0,0.0,0.0,0.283703717246,0.958911988047,0.2,0.688217699528,1.8,0.0,1.0,0.0,1.0,2000000000,0,,,0
1449617327515181655,26,1449617327463910954,/odom,doorways,0,1,0,2.53612804413,-0.149262398481,1.0,0.0,0.0,0.286375258842,0.95811753513,0.2,0.678116321564,1.8,0.0,1.0,0.0,1.0,2000000000,0,,,0
1449617327622684225,27,1449617327571738149,/odom,doorways,0,1,0,2.4918551445,-0.162504866719,1.0,0.0,0.0,0.281013048078,0.959703947481,0.2,0.648960471153,1.8,0.0,1.0,0.0,1.0,2000000000,0,,,0
1449617327755019662,28,1449617327704223784,/odom,doorways,0,1,0,2.51709222794,-0.153543442488,1.0,0.0,0.0,0.294870673891,0.95553717127,0.2,0.667626440525,1.8,0.0,1.0,0.0,1.0,2000000000,0,,,0
1449617327961267355,29,1449617327906017562,/odom,doorways,0,1,0,2.51549506187,-0.157649129629,1.0,0.0,0.0,0.272797818422,0.962071385223,0.2,0.64799284935,1.8,0.0,1.0,0.0,1.0,2000000000,0,,,0
1449617328138060805,30,1449617328086624933,/odom,doorways,0,1,0,2.52529382706,-0.163322269917,1.0,0.0,0.0,0.295704721927,0.95527939234,0.2,0.668693900108,1.8,0.0,1.0,0.0,1.0,2000000000,0,,,0
1449617328716056408,31,1449617328665672529,/odom,doorways,0,1,0,2.52231884003,-0.15302105248,1.0,0.0,0.0,0.273990811156,0.961732309638,0.2,0.697673380375,1.8,0.0,1.0,0.0,1.0,2000000000,0,,,0
1449617328855220230,32,1449617328801161697,/odom,doorways,0,1,0,2.54889965057,-0.138921588659,1.0,0.0,0.0,0.301999472594,0.953308092147,0.2,0.687666356564,1.8,0.0,1.0,0.0,1.0,2000000000,0,,,0
1449617329028004356,33,1449617328977812505,/odom,doorways,0,1,0,2.54021453857,-0.145616441965,1.0,0.0,0.0,0.294523598632,0.955644206726,0.2,0.717299461365,1.8,0.0,1.0,0.0,1.0,2000000000,0,,,0
1449617329223253947,34,1449617329173026679,/odom,doorways,0,1,0,2.51867938042,-0.1511952281,1.0,0.0,0.0,0.289100519602,0.957298746247,0.2,0.69771027565,1.8,0.0,1.0,0.0,1.0,2000000000,0,,,0
1449617329442767894,35,1449617329392090959,/odom,doorways,0,1,0,2.58878827095,-0.1186594069,1.0,0.0,0.0,0.326858652914,0.945073235795,0.2,0.708058476448,1.8,0.0,1.0,0.0,1.0,2000000000,0,,,0
1449617329940363935,36,1449617329889456337,/odom,doorways,0,1,0,2.5673866272,-0.134662151337,1.0,0.0,0.0,0.315384488718,0.948963974172,0.2,0.728251338005,1.8,0.0,1.0,0.0,1.0,2000000000,0,,,0
1449617330730703992,37,1449617330676954632,/odom,doorways,0,1,0,2.5391125679,-0.133132964373,1.0,0.0,0.0,0.301881633101,0.95334541463,0.2,0.738399922848,1.8,0.0,1.0,0.0,1.0,2000000000,0,,,0
1449617330890177785,38,1449617330840018060,/odom,doorways,0,1,0,2.56915903091,-0.141274064779,1.0,0.0,0.0,0.315569242709,0.948902551928,0.2,0.748321354389,1.8,0.0,1.0,0.0,1.0,2000000000,0,,,0
1449617331050681772,39,1449617330999098219,/odom,doorways,0,1,0,2.57201242447,-0.140677958727,1.0,0.0,0.0,0.320128230478,0.947374221758,0.2,0.748111128807,1.8,0.0,1.0,0.0,1.0,2000000000,0,,,0
1449617331133619317,40,1449617331081949058,/odom,doorways,0,1,0,2.57611250877,-0.163525491953,1.0,0.0,0.0,0.31680796604,0.948489700869,0.2,0.758527100086,1.8,0.0,1.0,0.0,1.0,2000000000,0,,,0
1449617331227328858,41,1449617331176991432,/odom,doorways,0,1,0,2.56096148491,-0.158360719681,1.0,0.0,0.0,0.312950395901,0.949769471875,0.2,0.748630702496,1.8,0.0,1.0,0.0,1.0,2000000000,0,,,0
1449617370344367788,42,1449617370294112132,/odom,doorways,0,1,0,8.59398269653,-0.757461547852,1.0,0.0,0.0,-0.27442787017,0.961607687196,0.2,0.96978700161,1.8,0.0,1.0,0.0,1.0,2000000000,0,,,0
1449617370942082887,43,1449617370891830778,/odom,doorways,0,1,0,8.60005950928,-0.759197473526,1.0,0.0,0.0,-0.247478445284,0.968893399255,0.2,0.859733879566,1.8,0.0,1.0,0.0,1.0,2000000000,0,,,0
1449617371649817854,44,1449617371591490956,/odom,doorways,0,1,0,8.56920146942,-0.753205478191,1.0,0.0,0.0,-0.279900446945,0.960029030707,0.2,0.927803337574,1.8,0.0,1.0,0.0,1.0,2000000000,0,,,0
1449617372450345661,45,1449617372400021667,/odom,doorways,0,1,0,8.29708003998,-0.179117888212,1.0,0.0,0.0,-0.697851538985,0.716242437682,0.2,0.857110500336,1.8,0.0,1.0,0.0,1.0,2000000000,0,,,0
1449617372663751594,46,1449617372612993008,/odom,doorways,0,1,0,7.10911512375,-0.159498304129,1.0,0.0,0.0,-0.687290183496,0.726382959375,0.2,1.00944674015,1.8,0.0,1.0,0.0,1.0,2000000000,0,,,0
1449617372672846449,47,1449617372622470687,/odom,doorways,1,1,0,8.22679042816,-0.0976364463568,1.0,0.0,0.0,-0.687290442292,0.726382714507,0.2,0.829544842243,1.8,0.0,1.0,0.0,1.0,2000000000,0,,,0
1449617372807161864,48,1449617372756440309,/odom,doorways,0,1,0,8.27093887329,-0.0308891125023,1.0,0.0,0.0,-0.687856305918,0.725846886339,0.2,0.859284341335,1.8,0.0,1.0,0.0,1.0,2000000000,0,,,0
1449617384609906459,49,1449617384559597980,/odom,doorways,0,1,0,4.82788324356,5.39101886749,1.0,0.0,0.0,0.816047459903,0.577984898753,0.2,0.999748051167,1.8,0.0,1.0,0.0,1.0,2000000000,0,,,0
1449617385165979052,50,1449617385115003450,/odom,doorways,0,1,0,5.01900577545,5.31975269318,1.0,0.0,0.0,0.831375805243,0.555710599553,0.2,0.909442722797,1.8,0.0,1.0,0.0,1.0,2000000000,0,,,0
1449617386614156645,51,1449617386562824191,/odom,doorways,0,1,0,4.97267580032,5.35313892365,1.0,0.0,0.0,0.822057531519,0.569404438754,0.2,1.0199047327,1.8,0.0,1.0,0.0,1.0,2000000000,0,,,0
1449617387358640035,52,1449617387307767661,/odom,doorways,0,1,0,6.77535390854,6.20512628555,1.0,0.0,0.0,0.831121703346,0.556090562972,0.2,0.678028941154,1.8,0.0,1.0,0.0,1.0,2000000000,0,,,0
1449617387384694816,53,1449617387334552621,/odom,doorways,1,1,0,5.55682277679,5.80475330353,1.0,0.0,0.0,0.838035439092,0.545615801482,0.2,0.6579605937,1.8,0.0,1.0,0.0,1.0,2000000000,0,,,0
1449617387435850125,54,1449617387383783076,/odom,doorways,0,1,0,5.01569271088,5.39855098724,1.0,0.0,0.0,0.817701980618,0.575641790433,0.2,0.899601876736,1.8,0.0,1.0,0.0,1.0,2000000000,0,,,0
1449617387517498427,55,1449617387466905639,/odom,doorways,0,1,0,4.0401468277,4.98236846924,1.0,0.0,0.0,0.856734024337,0.515758481795,0.2,0.648649871349,1.8,0.0,1.0,0.0,1.0,2000000000,0,,,0
1449617387585411144,56,1449617387535255742,/odom,doorways,0,1,0,4.01638317108,5.04305028915,1.0,0.0,0.0,0.846613990104,0.532207433019,0.2,0.657504558563,1.8,0.0,1.0,0.0,1.0,2000000000,0,,,0
1449617387721698876,57,1449617387667278319,/odom,doorways,0,1,0,4.10216569901,4.94390296936,1.0,0.0,0.0,0.864447603139,0.502722927095,0.2,0.709161996841,1.8,0.0,1.0,0.0,1.0,2000000000,0,,,0
1449617387783036624,58,1449617387732510309,/odom,doorways,0,1,0,4.02623462677,4.94568920135,1.0,0.0,0.0,0.860999130325,0.508606426993,0.2,0.668101966381,1.8,0.0,1.0,0.0,1.0,2000000000,0,,,0
1449617388141118527,59,1449617388089232931,/odom,doorways,0,1,0,3.9858751297,4.99575805664,1.0,0.0,0.0,0.851059399164,0.525069423119,0.2,0.678127110004,1.8,0.0,1.0,0.0,1.0,2000000000,0,,,0
1449617388200317522,60,1449617388150036804,/odom,doorways,0,1,0,3.98408555984,5.01939582825,1.0,0.0,0.0,0.850669131731,0.525701463113,0.2,0.668424546719,1.8,0.0,1.0,0.0,1.0,2000000000,0,,,0
1449617388309418206,61,1449617388259000197,/odom,doorways,0,1,0,4.06156873703,4.89046478271,1.0,0.0,0.0,0.881740284113,0.471735170803,0.2,0.748532950878,1.8,0.0,1.0,0.0,1.0,2000000000,0,,,0
1449617388501595661,62,1449617388451278793,/odom,doorways,0,1,0,4.03616952896,4.88878250122,1.0,0.0,0.0,0.887410757894,0.460979551363,0.2,0.717818617821,1.8,0.0,1.0,0.0,1.0,2000000000,0,,,0
1449617388589185195,63,1449617388537914528,/odom,doorways,0,1,0,4.02077722549,4.88522768021,1.0,0.0,0.0,0.884971304972,0.465645561963,0.2,0.738243818283,1.8,0.0,1.0,0.0,1.0,2000000000,0,,,0
1449617388598881566,64,1449617388547763125,/odom,doorways,1,1,0,3.9791431427,4.98865318298,1.0,0.0,0.0,0.851161010204,0.524904691072,0.2,0.679337978363,1.8,0.0,1.0,0.0,1.0,2000000000,0,,,0
1449617388603940843,65,1449617388553556610,/odom,doorways,2,1,0,4.75131702423,5.3766169548,1.0,0.0,0.0,0.851161010204,0.524904691072,0.2,0.769250333309,1.8,0.0,1.0,0.0,1.0,2000000000,0,,,0
1449617388716184601,66,1449617388665626366,/odom,doorways,0,1,0,4.12470054626,4.91509342194,1.0,0.0,0.0,0.875825430699,0.482628029584,0.2,0.927531301975,1.8,0.0,1.0,0.0,1.0,2000000000,0,,,0
1449617388741279839,67,1449617388687386295,/odom,doorways,1,1,0,3.99342656136,4.97931575775,1.0,0.0,0.0,0.869917207729,0.49319778152,0.2,0.657724738121,1.8,0.0,1.0,0.0,1.0,2000000000,0,,,0
1449617388805091495,68,1449617388754883693,/odom,doorways,0,1,0,4.03816652298,4.88290166855,1.0,0.0,0.0,0.882283037008,0.470719282172,0.2,0.759028851986,1.8,0.0,1.0,0.0,1.0,2000000000,0,,,0
1449617388828717423,69,1449617388778486725,/odom,doorways,1,1,0,4.88733673096,5.45644664764,1.0,0.0,0.0,0.829600679573,0.558357154921,0.2,0.767440497875,1.8,0.0,1.0,0.0,1.0,2000000000,0,,,0
1449617388864163652,70,1449617388813876425,/odom,doorways,0,1,0,4.03119754791,4.89001655579,1.0,0.0,0.0,0.867409708625,0.497594611489,0.2,0.747208237648,1.8,0.0,1.0,0.0,1.0,2000000000,0,,,0
1449617388888331416,71,1449617388838135994,/odom,doorways,1,1,0,3.97807312012,4.84777069092,1.0,0.0,0.0,0.891217791413,0.453575625744,0.2,0.827609837055,1.8,0.0,1.0,0.0,1.0,2000000000,0,,,0
1449617388931515075,72,1449617388880505679,/odom,doorways,0,1,0,4.03234624863,4.88097047806,1.0,0.0,0.0,0.881944414597,0.471353423199,0.2,0.749300718307,1.8,0.0,1.0,0.0,1.0,2000000000,0,,,0
1449617389074177113,73,1449617389023975502,/odom,doorways,0,1,0,3.96199226379,4.99394321442,1.0,0.0,0.0,0.851663213063,0.524089468998,0.2,0.667729020119,1.8,0.0,1.0,0.0,1.0,2000000000,0,,,0
1449617389193373314,74,1449617389137962217,/odom,doorways,0,1,0,4.01874542236,4.90982484818,1.0,0.0,0.0,0.897999234385,0.439997017085,0.2,0.768354892731,1.8,0.0,1.0,0.0,1.0,2000000000,0,,,0
1449617389415225685,75,1449617389364868215,/odom,doorways,0,1,0,4.00763750076,4.86660575867,1.0,0.0,0.0,0.879509005118,0.47588224375,0.2,0.709880232811,1.8,0.0,1.0,0.0,1.0,2000000000,0,,,0
1449617389566512708,76,1449617389505350361,/odom,doorways,0,1,0,4.02926397324,4.87609386444,1.0,0.0,0.0,0.884268298595,0.46697920307,0.2,0.7594845891,1.8,0.0,1.0,0.0,1.0,2000000000,0,,,0
1449617389569160175,77,1449617389518360197,/odom,doorways,1,1,0,3.97101974487,4.98989915848,1.0,0.0,0.0,0.851580561302,0.524223757199,0.2,0.679558634758,1.8,0.0,1.0,0.0,1.0,2000000000,0,,,0
1449617389579157563,78,1449617389528508079,/odom,doorways,2,1,0,4.89450645447,5.4557390213,1.0,0.0,0.0,0.851580602719,0.524223689919,0.2,0.769500017166,1.8,0.0,1.0,0.0,1.0,2000000000,0,,,0
1449617389620940969,79,1449617389570681963,/odom,doorways,0,1,0,4.03125715256,4.87500238419,1.0,0.0,0.0,0.879551693117,0.47580334082,0.2,0.759398341179,1.8,0.0,1.0,0.0,1.0,2000000000,0,,,0
1449617389703512385,80,1449617389652070576,/odom,doorways,0,1,0,4.03206253052,4.87093830109,1.0,0.0,0.0,0.882462343957,0.47038304763,0.2,0.758752286434,1.8,0.0,1.0,0.0,1.0,2000000000,0,,,0
1449617389722717340,81,1449617389669735203,/odom,doorways,1,1,0,3.96070241928,5.00667333603,1.0,0.0,0.0,0.854687420758,0.519142959885,0.2,0.678489387035,1.8,0.0,1.0,0.0,1.0,2000000000,0,,,0
1449617389815506257,82,1449617389764104143,/odom,doorways,0,1,0,3.94902801514,5.02483129501,1.0,0.0,0.0,0.847394124249,0.530964403881,0.2,0.687525391579,1.8,0.0,1.0,0.0,1.0,2000000000,0,,,0
1449617389956064439,83,1449617389905232875,/odom,doorways,0,1,0,4.0280828476,4.87934684753,1.0,0.0,0.0,0.88201771155,0.471216252386,0.2,0.759720444679,1.8,0.0,1.0,0.0,1.0,2000000000,0,,,0
1449617389977078977,84,1449617389926567444,/odom,doorways,1,1,0,4.915350914,5.47647237778,1.0,0.0,0.0,0.830131442126,0.557567743681,0.2,0.808142244816,1.8,0.0,1.0,0.0,1.0,2000000000,0,,,0
1449617390074662575,85,1449617390024199661,/odom,doorways,0,1,0,4.05113935471,4.87779474258,1.0,0.0,0.0,0.880384014715,0.474261517134,0.2,0.798091471195,1.8,0.0,1.0,0.0,1.0,2000000000,0,,,0
1449617390192094110,86,1449617390141499596,/odom,doorways,0,1,0,4.058406353,4.87061977386,1.0,0.0,0.0,0.878227746208,0.478242643216,0.2,0.799404144287,1.8,0.0,1.0,0.0,1.0,2000000000,0,,,0
1449617390257718474,87,1449617390204992352,/odom,doorways,0,1,0,4.01188707352,4.88104248047,1.0,0.0,0.0,0.890817111259,0.454362051991,0.2,0.737740516663,1.8,0.0,1.0,0.0,1.0,2000000000,0,,,0
1449617390276987638,88,1449617390226520571,/odom,doorways,1,1,0,3.98388957977,4.97180318832,1.0,0.0,0.0,0.854071432271,0.520155734928,0.2,0.657645702362,1.8,0.0,1.0,0.0,1.0,2000000000,0,,,0
1449617390282265734,89,1449617390232011896,/odom,doorways,2,1,0,4.74528074265,5.36502885818,1.0,0.0,0.0,0.854069917974,0.520158221324,0.2,0.757297515869,1.8,0.0,1.0,0.0,1.0,2000000000,0,,,0
1449617390493922913,90,1449617390441819945,/odom,doorways,0,1,0,4.0139875412,4.87667942047,1.0,0.0,0.0,0.887780431088,0.460267211712,0.2,0.718388020992,1.8,0.0,1.0,0.0,1.0,2000000000,0,,,0
1449617390511473906,91,1449617390461198727,/odom,doorways,1,1,0,3.98991298676,4.95613718033,1.0,0.0,0.0,0.857536339778,0.514423391731,0.2,0.668094694614,1.8,0.0,1.0,0.0,1.0,2000000000,0,,,0
1449617390528390422,92,1449617390473986810,/odom,doorways,2,1,0,4.74651050568,5.35981988907,1.0,0.0,0.0,0.857536339778,0.514423391731,0.2,0.747867226601,1.8,0.0,1.0,0.0,1.0,2000000000,0,,,0
1449617390605746244,93,1449617390555529299,/odom,doorways,0,1,0,4.00779533386,4.87513160706,1.0,0.0,0.0,0.889515590129,0.456904820415,0.2,0.727884113789,1.8,0.0,1.0,0.0,1.0,2000000000,0,,,0
1449617390886139295,94,1449617390835657163,/odom,doorways,0,1,0,4.12990140915,4.91124629974,1.0,0.0,0.0,0.876803722475,0.480848450402,0.2,0.96650236845,1.8,0.0,1.0,0.0,1.0,2000000000,0,,,0
1449617390906963372,95,1449617390856757741,/odom,doorways,1,1,0,3.98495483398,4.98600244522,1.0,0.0,0.0,0.869104934946,0.494627750993,0.2,0.67816644907,1.8,0.0,1.0,0.0,1.0,2000000000,0,,,0
1449617391021835907,96,1449617390966947526,/odom,doorways,0,1,0,3.94691371918,5.018409729,1.0,0.0,0.0,0.844007275004,0.536331725465,0.2,0.697914719582,1.8,0.0,1.0,0.0,1.0,2000000000,0,,,0
1449617391171201655,97,1449617391118356150,/odom,doorways,0,1,0,4.0368976593,4.86480474472,1.0,0.0,0.0,0.879081237843,0.476671980792,0.2,0.758646070957,1.8,0.0,1.0,0.0,1.0,2000000000,0,,,0
1449617391276335223,98,1449617391225442295,/odom,doorways,0,1,0,4.04151153564,4.86701869965,1.0,0.0,0.0,0.880299133952,0.474419049748,0.2,0.768914520741,1.8,0.0,1.0,0.0,1.0,2000000000,0,,,0
1449617391354993616,99,1449617391304564276,/odom,doorways,0,1,0,4.04126644135,4.86854696274,1.0,0.0,0.0,0.878934675357,0.476942173072,0.2,0.769152879715,1.8,0.0,1.0,0.0,1.0,2000000000,0,,,0
1449617391428735574,100,1449617391371697558,/odom,doorways,0,1,0,4.03298473358,4.87153530121,1.0,0.0,0.0,0.880441035198,0.474155653282,0.2,0.759227216244,1.8,0.0,1.0,0.0,1.0,2000000000,0,,,0
1449617391483920942,101,1449617391433673175,/odom,doorways,0,1,0,4.03102254868,4.87332773209,1.0,0.0,0.0,0.883200443131,0.468995711337,0.2,0.759232878685,1.8,0.0,1.0,0.0,1.0,2000000000,0,,,0
1449617391513616267,102,1449617391463185256,/odom,doorways,1,1,0,3.96237945557,5.00748682022,1.0,0.0,0.0,0.847092617221,0.531445291493,0.2,0.657586097717,1.8,0.0,1.0,0.0,1.0,2000000000,0,,,0
1449617391608672840,103,1449617391558422312,/odom,doorways,0,1,0,4.02931976318,4.87453174591,1.0,0.0,0.0,0.883288478803,0.468829887287,0.2,0.758682191372,1.8,0.0,1.0,0.0,1.0,2000000000,0,,,0
1449617391643209924,104,1449617391588099509,/odom,doorways,1,1,0,3.99921894073,4.9468793869,1.0,0.0,0.0,0.862119583849,0.506704867891,0.2,0.677423894405,1.8,0.0,1.0,0.0,1.0,2000000000,0,,,0
1449617391688618412,105,1449617391638364816,/odom,doorways,0,1,0,4.03981208801,4.86821269989,1.0,0.0,0.0,0.879603783733,0.475707035519,0.2,0.768193840981,1.8,0.0,1.0,0.0,1.0,2000000000,0,,,0
1449617391717228393,106,1449617391665873884,/odom,doorways,1,1,0,3.94928598404,5.01675367355,1.0,0.0,0.0,0.839229855546,0.543776838014,0.2,0.678075969219,1.8,0.0,1.0,0.0,1.0,2000000000,0,,,0
1449617391865749539,107,1449617391801324506,/odom,doorways,0,1,0,4.02642631531,4.87795114517,1.0,0.0,0.0,0.885721874408,0.464216287085,0.2,0.758730649948,1.8,0.0,1.0,0.0,1.0,2000000000,0,,,0
1449617391873858687,108,1449617391820700024,/odom,doorways,1,1,0,4.00687885284,4.94628143311,1.0,0.0,0.0,0.855741088341,0.517404280737,0.2,0.688295602798,1.8,0.0,1.0,0.0,1.0,2000000000,0,,,0
1449617391880298665,109,1449617391829850883,/odom,doorways,2,1,0,4.81955242157,5.37264442444,1.0,0.0,0.0,0.855741088341,0.517404280737,0.2,0.688295602798,1.8,0.0,1.0,0.0,1.0,2000000000,0,,,0
1449617392023709101,110,1449617391973459661,/odom,doorways,0,1,0,4.01878499985,4.88442182541,1.0,0.0,0.0,0.89013764003,0.455691761833,0.2,0.737475037575,1.8,0.0,1.0,0.0,1.0,2000000000,0,,,0
1449617392055549287,111,1449617392004435659,/odom,doorways,1,1,0,4.71732139587,5.39411449432,1.0,0.0,0.0,0.847374116449,0.530996334048,0.2,0.718001723289,1.8,0.0,1.0,0.0,1.0,2000000000,0,,,0
1449617392151315810,112,1449617392100749820,/odom,doorways,0,1,0,4.00737333298,4.92824840546,1.0,0.0,0.0,0.876820824922,0.480817263608,0.2,0.65877610445,1.8,0.0,1.0,0.0,1.0,2000000000,0,,,0
1449617392285339208,113,1449617392234321755,/odom,doorways,0,1,0,4.03951358795,4.87032365799,1.0,0.0,0.0,0.87775561663,0.479108628052,0.2,0.768526911736,1.8,0.0,1.0,0.0,1.0,2000000000,0,,,0
1449617392307084360,114,1449617392255821833,/odom,doorways,1,1,0,3.97734308243,4.98339271545,1.0,0.0,0.0,0.869366150494,0.494168489864,0.2,0.677913188934,1.8,0.0,1.0,0.0,1.0,2000000000,0,,,0
1449617392422461908,115,1449617392370824174,/odom,doorways,0,1,0,3.95778679848,5.00686645508,1.0,0.0,0.0,0.846220805602,0.532832382806,0.2,0.668339908123,1.8,0.0,1.0,0.0,1.0,2000000000,0,,,0
1449617392533228116,116,1449617392482998898,/odom,doorways,0,1,0,4.12751483917,4.90637969971,1.0,0.0,0.0,0.876332143704,0.481707352976,0.2,0.956756353378,1.8,0.0,1.0,0.0,1.0,2000000000,0,,,0
1449617392625602542,117,1449617392570193417,/odom,doorways,0,1,0,3.96735334396,4.97469139099,1.0,0.0,0.0,0.858961121978,0.512040809829,0.2,0.647807121277,1.8,0.0,1.0,0.0,1.0,2000000000,0,,,0
1449617392752839475,118,1449617392701102600,/odom,doorways,0,1,0,4.017619133,4.87965106964,1.0,0.0,0.0,0.885873389135,0.463927083088,0.2,0.747790396214,1.8,0.0,1.0,0.0,1.0,2000000000,0,,,0
1449617392908609454,119,1449617392858244502,/odom,doorways,0,1,0,4.01166534424,4.87934494019,1.0,0.0,0.0,0.88928356298,0.457356255685,0.2,0.738295614719,1.8,0.0,1.0,0.0,1.0,2000000000,0,,,0
1449617393052287990,120,1449617393001863054,/odom,doorways,0,1,0,4.02954006195,4.88458633423,1.0,0.0,0.0,0.880196668412,0.474609128564,0.2,0.748653411865,1.8,0.0,1.0,0.0,1.0,2000000000,0,,,0
1449617393193518453,121,1449617393136721375,/odom,doorways,0,1,0,4.0514831543,4.87075996399,1.0,0.0,0.0,0.878258207771,0.478186700445,0.2,0.788839459419,1.8,0.0,1.0,0.0,1.0,2000000000,0,,,0
1449617393218604643,122,1449617393161447436,/odom,doorways,1,1,0,3.97849750519,4.97001028061,1.0,0.0,0.0,0.872318479281,0.488938105189,0.2,0.678285360336,1.8,0.0,1.0,0.0,1.0,2000000000,0,,,0
1449617393254964729,123,1449617393204611539,/odom,doorways,0,1,0,4.02909564972,4.88279914856,1.0,0.0,0.0,0.885623660292,0.464403630833,0.2,0.748702347279,1.8,0.0,1.0,0.0,1.0,2000000000,0,,,0
1449617393276504239,124,1449617393223089727,/odom,doorways,1,1,0,3.93927383423,5.03880405426,1.0,0.0,0.0,0.838539612134,0.544840636225,0.2,0.687435090542,1.8,0.0,1.0,0.0,1.0,2000000000,0,,,0
1449617393287447329,125,1449617393233764722,/odom,doorways,2,1,0,4.79043722153,5.41728019714,1.0,0.0,0.0,0.838541224434,0.544838154799,0.2,0.677463293076,1.8,0.0,1.0,0.0,1.0,2000000000,0,,,0
1449617393386064185,126,1449617393335388941,/odom,doorways,0,1,0,4.05042886734,4.88773202896,1.0,0.0,0.0,0.882403279179,0.47049383938,0.2,0.759036123753,1.8,0.0,1.0,0.0,1.0,2000000000,0,,,0
1449617393406038979,127,1449617393354341840,/odom,doorways,1,1,0,4.80830860138,5.44327354431,1.0,0.0,0.0,0.847185308435,0.531297518508,0.2,0.647938489914,1.8,0.0,1.0,0.0,1.0,2000000000,0,,,0
1449617393480635265,128,1449617393430515599,/odom,doorways,0,1,0,4.04868173599,4.88798189163,1.0,0.0,0.0,0.882175236532,0.470921280098,0.2,0.739115774632,1.8,0.0,1.0,0.0,1.0,2000000000,0,,,0
1449617393506231695,129,1449617393450925427,/odom,doorways,1,1,0,4.85682678223,5.44198799133,1.0,0.0,0.0,0.833874938572,0.551953428128,0.2,0.697653591633,1.8,0.0,1.0,0.0,1.0,2000000000,0,,,0
1449617393627016756,130,1449617393573838703,/odom,doorways,0,1,0,4.06652545929,4.88997507095,1.0,0.0,0.0,0.877669569868,0.479266237208,0.2,0.767869710922,1.8,0.0,1.0,0.0,1.0,2000000000,0,,,0
1449617393687378040,131,1449617393630353788,/odom,doorways,0,1,0,4.07217121124,4.89277791977,1.0,0.0,0.0,0.878735896043,0.477308312315,0.2,0.698962390423,1.8,0.0,1.0,0.0,1.0,2000000000,0,,,0
1449617393776700213,132,1449617393720637244,/odom,doorways,0,1,0,3.96630215645,4.9986448288,1.0,0.0,0.0,0.847236859142,0.531215308995,0.2,0.668267309666,1.8,0.0,1.0,0.0,1.0,2000000000,0,,,0
1449617393869268961,133,1449617393817970022,/odom,doorways,0,1,0,4.06743621826,4.9050860405,1.0,0.0,0.0,0.877153413258,0.480210255627,0.2,0.759571194649,1.8,0.0,1.0,0.0,1.0,2000000000,0,,,0
1449617393945959989,134,1449617393895202819,/odom,doorways,0,1,0,4.0485701561,4.89437198639,1.0,0.0,0.0,0.883561306778,0.468315510276,0.2,0.758283019066,1.8,0.0,1.0,0.0,1.0,2000000000,0,,,0
1449617393971277739,135,1449617393919501766,/odom,doorways,1,1,0,3.21395778656,4.72024059296,1.0,0.0,0.0,0.835004476693,0.550243149801,0.2,0.687620401382,1.8,0.0,1.0,0.0,1.0,2000000000,0,,,0
1449617393980365192,136,1449617393929956223,/odom,doorways,2,1,0,3.96028375626,5.04062080383,1.0,0.0,0.0,0.835005583995,0.550241469446,0.2,0.677648544312,1.8,0.0,1.0,0.0,1.0,2000000000,0,,,0
1449617393998317180,137,1449617393946822164,/odom,doorways,3,1,0,4.77985620499,5.39244937897,1.0,0.0,0.0,0.835007073152,0.550239209604,0.2,0.747397005558,1.8,0.0,1.0,0.0,1.0,2000000000,0,,,0
1449617394157983752,138,1449617394107388200,/odom,doorways,0,1,0,4.06313371658,4.91377449036,1.0,0.0,0.0,0.88559032753,0.46446719129,0.2,0.678165972233,1.8,0.0,1.0,0.0,1.0,2000000000,0,,,0
1449617394178790436,139,1449617394128300398,/odom,doorways,1,1,0,3.20406913757,4.74373722076,1.0,0.0,0.0,0.832266169198,0.554376247334,0.2,0.687520503998,1.8,0.0,1.0,0.0,1.0,2000000000,0,,,0
1449617394193923731,140,1449617394135484478,/odom,doorways,2,1,0,3.95342636108,5.05665588379,1.0,0.0,0.0,0.832267259152,0.55437461102,0.2,0.677550077438,1.8,0.0,1.0,0.0,1.0,2000000000,0,,,0
1449617394205749498,141,1449617394147378488,/odom,doorways,3,1,0,4.74874448776,5.3887720108,1.0,0.0,0.0,0.832268724978,0.554372410409,0.2,0.747288405895,1.8,0.0,1.0,0.0,1.0,2000000000,0,,,0
1449617394310307327,142,1449617394260177518,/odom,doorways,0,1,0,4.0326962471,4.90090608597,1.0,0.0,0.0,0.879977968197,0.475014500293,0.2,0.739321947098,1.8,0.0,1.0,0.0,1.0,2000000000,0,,,0
1449617394423255300,143,1449617394372926343,/odom,doorways,0,1,0,4.01816272736,4.8912191391,1.0,0.0,0.0,0.885436791786,0.464759817274,0.2,0.748567402363,1.8,0.0,1.0,0.0,1.0,2000000000,0,,,0
1449617394437347296,144,1449617394387116146,/odom,doorways,1,1,0,4.0027384758,4.94782447815,1.0,0.0,0.0,0.853035030099,0.52185365518,0.2,0.688546180725,1.8,0.0,1.0,0.0,1.0,2000000000,0,,,0
1449617394441361949,145,1449617394391154785,/odom,doorways,2,1,0,4.76235723495,5.33631753922,1.0,0.0,0.0,0.853035030099,0.52185365518,0.2,0.758398652077,1.8,0.0,1.0,0.0,1.0,2000000000,0,,,0
1449617394624471868,146,1449617394574321915,/odom,doorways,0,1,0,4.02919960022,4.88758039474,1.0,0.0,0.0,0.881540028276,0.472109286657,0.2,0.718268334866,1.8,0.0,1.0,0.0,1.0,2000000000,0,,,0
1449617394739459946,147,1449617394689326523,/odom,doorways,0,1,0,4.03202724457,4.89661598206,1.0,0.0,0.0,0.884154617167,0.467194405941,0.2,0.72878998518,1.8,0.0,1.0,0.0,1.0,2000000000,0,,,0
1449617394847061972,148,1449617394796712705,/odom,doorways,0,1,0,4.05162906647,4.893034935,1.0,0.0,0.0,0.876741569984,0.480961765072,0.2,0.748197793961,1.8,0.0,1.0,0.0,1.0,2000000000,0,,,0
1449617395028072682,149,1449617394977438584,/odom,doorways,0,1,0,4.02688550949,4.90015220642,1.0,0.0,0.0,0.885751215482,0.464160300189,0.2,0.727974832058,1.8,0.0,1.0,0.0,1.0,2000000000,0,,,0
1449617395131535877,150,1449617395079232068,/odom,doorways,0,1,0,4.03111171722,4.89925813675,1.0,0.0,0.0,0.88529465899,0.465030500897,0.2,0.728086471558,1.8,0.0,1.0,0.0,1.0,2000000000,0,,,0
1449617395216205070,151,1449617395166035277,/odom,doorways,0,1,0,4.03412628174,4.9002122879,1.0,0.0,0.0,0.880558156631,0.473938110718,0.2,0.709054231644,1.8,0.0,1.0,0.0,1.0,2000000000,0,,,0
1449617395331876746,152,1449617395281513498,/odom,doorways,0,1,0,4.04053640366,4.9091463089,1.0,0.0,0.0,0.882580454476,0.470161399284,0.2,0.707940518856,1.8,0.0,1.0,0.0,1.0,2000000000,0,,,0
1449617395445885327,153,1449617395395707719,/odom,doorways,0,1,0,4.07698345184,4.93596887589,1.0,0.0,0.0,0.883776494823,0.467909293772,0.2,0.658569633961,1.8,0.0,1.0,0.0,1.0,2000000000,0,,,0
1449617395519615155,154,1449617395467350167,/odom,doorways,0,1,0,4.03387641907,4.89161491394,1.0,0.0,0.0,0.878590131668,0.477576570338,0.2,0.727684438229,1.8,0.0,1.0,0.0,1.0,2000000000,0,,,0
1449617395650970450,155,1449617395599435555,/odom,doorways,0,1,0,4.03683757782,4.90836715698,1.0,0.0,0.0,0.883431621832,0.468560102386,0.2,0.727890908718,1.8,0.0,1.0,0.0,1.0,2000000000,0,,,0
1449617395868535134,156,1449617395815468486,/odom,doorways,0,1,0,4.05446434021,4.92962312698,1.0,0.0,0.0,0.88361859291,0.468207413722,0.2,0.648076891899,1.8,0.0,1.0,0.0,1.0,2000000000,0,,,0
1449617396041680871,157,1449617395990975279,/odom,doorways,0,1,0,3.99431419373,5.02823925018,1.0,0.0,0.0,0.848376587193,0.529393205757,0.2,0.667842268944,1.8,0.0,1.0,0.0,1.0,2000000000,0,,,0
1449617396152701120,158,1449617396102267324,/odom,doorways,0,1,0,4.06523036957,4.941157341,1.0,0.0,0.0,0.884166629787,0.467171671628,0.2,0.68804526329,1.8,0.0,1.0,0.0,1.0,2000000000,0,,,0
1449617396342961703,159,1449617396285765659,/odom,doorways,0,1,0,4.02479934692,4.91383314133,1.0,0.0,0.0,0.882580922453,0.470160520804,0.2,0.727505981922,1.8,0.0,1.0,0.0,1.0,2000000000,0,,,0
1449617396548854771,160,1449617396495792360,/odom,doorways,0,1,0,4.02891778946,4.92853164673,1.0,0.0,0.0,0.882184536793,0.470903857537,0.2,0.717431545258,1.8,0.0,1.0,0.0,1.0,2000000000,0,,,0
1449617396644352489,161,1449617396593886407,/odom,doorways,0,1,0,4.00873804092,4.94289684296,1.0,0.0,0.0,0.880496316722,0.474052988851,0.2,0.727608859539,1.8,0.0,1.0,0.0,1.0,2000000000,0,,,0
1449617396827731685,162,1449617396777605610,/odom,doorways,0,1,0,4.02443361282,4.92491531372,1.0,0.0,0.0,0.882404896768,0.470490805607,0.2,0.727317750454,1.8,0.0,1.0,0.0,1.0,2000000000,0,,,0
1449617396912526915,163,1449617396861731731,/odom,doorways,0,1,0,4.02899456024,4.96300411224,1.0,0.0,0.0,0.876870969982,0.480725807506,0.2,0.667528986931,1.8,0.0,1.0,0.0,1.0,2000000000,0,,,0
1449617397138072990,164,1449617397087886804,/odom,doorways,0,1,0,4.05381250381,4.96030139923,1.0,0.0,0.0,0.886112174757,0.463470833761,0.2,0.668379247189,1.8,0.0,1.0,0.0,1.0,2000000000,0,,,0
1449617397328994320,165,1449617397278543378,/odom,doorways,0,1,0,4.02318000793,4.92866373062,1.0,0.0,0.0,0.88294731925,0.46947207737,0.2,0.718335866928,1.8,0.0,1.0,0.0,1.0,2000000000,0,,,0
1449617397426289068,166,1449617397375547860,/odom,doorways,0,1,0,4.02930831909,4.92597484589,1.0,0.0,0.0,0.881264689905,0.472623048873,0.2,0.738495051861,1.8,0.0,1.0,0.0,1.0,2000000000,0,,,0
1449617397511110106,167,1449617397460949496,/odom,doorways,0,1,0,4.04124450684,4.92565965652,1.0,0.0,0.0,0.881946660562,0.471349220772,0.2,0.737838923931,1.8,0.0,1.0,0.0,1.0,2000000000,0,,,0
1449617397632064478,168,1449617397580779023,/odom,doorways,0,1,0,4.02382183075,4.93014144897,1.0,0.0,0.0,0.882418907216,0.470464528086,0.2,0.727253198624,1.8,0.0,1.0,0.0,1.0,2000000000,0,,,0
1449617397828790391,169,1449617397778505776,/odom,doorways,0,1,0,4.02190256119,4.94978094101,1.0,0.0,0.0,0.886896283006,0.461968595459,0.2,0.717409551144,1.8,0.0,1.0,0.0,1.0,2000000000,0,,,0
1449617398641744725,170,1449617398589049554,/odom,doorways,0,1,0,4.04336118698,4.94694137573,1.0,0.0,0.0,0.884925861405,0.465731918401,0.2,0.717403888702,1.8,0.0,1.0,0.0,1.0,2000000000,0,,,0
1449617398749298601,171,1449617398699062211,/odom,doorways,0,1,0,4.01386070251,4.93135070801,1.0,0.0,0.0,0.886998627354,0.461772059648,0.2,0.727641403675,1.8,0.0,1.0,0.0,1.0,2000000000,0,,,0
1449617398926400132,172,1449617398866186501,/odom,doorways,0,1,0,4.02334308624,4.93801021576,1.0,0.0,0.0,0.886615506503,0.462507236299,0.2,0.697703838348,1.8,0.0,1.0,0.0,1.0,2000000000,0,,,0
1449617399066638601,173,1449617399011943747,/odom,doorways,0,1,0,4.02224254608,4.93612957001,1.0,0.0,0.0,0.884415682565,0.466700011178,0.2,0.707783341408,1.8,0.0,1.0,0.0,1.0,2000000000,0,,,0
1449617399127598946,174,1449617399077084224,/odom,doorways,0,1,0,4.03665542603,4.95499944687,1.0,0.0,0.0,0.887388369203,0.461022648253,0.2,0.737491726875,1.8,0.0,1.0,0.0,1.0,2000000000,0,,,0
1449617399261298946,175,1449617399207953905,/odom,doorways,0,1,0,4.02314281464,4.94008827209,1.0,0.0,0.0,0.886390848171,0.46293764621,0.2,0.727462351322,1.8,0.0,1.0,0.0,1.0,2000000000,0,,,0
1449617399360001640,176,1449617399308911522,/odom,doorways,0,1,0,4.05020046234,4.95966720581,1.0,0.0,0.0,0.886066959052,0.463557271624,0.2,0.727584183216,1.8,0.0,1.0,0.0,1.0,2000000000,0,,,0
1449617399576333305,177,1449617399525947816,/odom,doorways,0,1,0,4.04970026016,4.96010160446,1.0,0.0,0.0,0.887007587581,0.461754847915,0.2,0.717693805695,1.8,0.0,1.0,0.0,1.0,2000000000,0,,,0
1449617399641236557,178,1449617399590716124,/odom,doorways,0,1,0,4.04531002045,4.96119213104,1.0,0.0,0.0,0.887296126024,0.46120015692,0.2,0.727576673031,1.8,0.0,1.0,0.0,1.0,2000000000,0,,,0
1449617399740619790,179,1449617399690318787,/odom,doorways,0,1,0,4.02598667145,4.94680643082,1.0,0.0,0.0,0.887834192379,0.46016350012,0.2,0.72758102417,1.8,0.0,1.0,0.0,1.0,2000000000,0,,,0
1449617399849371484,180,1449617399799096565,/odom,doorways,0,1,0,4.02277946472,4.94567632675,1.0,0.0,0.0,0.8893890056,0.457151174906,0.2,0.727370798588,1.8,0.0,1.0,0.0,1.0,2000000000,0,,,0
1449617399933551120,181,1449617399882287575,/odom,doorways,0,1,0,4.06257867813,4.96887302399,1.0,0.0,0.0,0.887048057366,0.461677099197,0.2,0.727418959141,1.8,0.0,1.0,0.0,1.0,2000000000,0,,,0
1449617400113939966,182,1449617400062787414,/odom,doorways,0,1,0,4.04440832138,4.96450424194,1.0,0.0,0.0,0.890955654744,0.454090322821,0.2,0.718308627605,1.8,0.0,1.0,0.0,1.0,2000000000,0,,,0
1449617400265136070,183,1449617400214553251,/odom,doorways,0,1,0,4.0306930542,4.94736194611,1.0,0.0,0.0,0.887936900857,0.459965281403,0.2,0.737876713276,1.8,0.0,1.0,0.0,1.0,2000000000,0,,,0
1449617400353955784,184,1449617400296551656,/odom,doorways,0,1,0,4.05805397034,4.97802114487,1.0,0.0,0.0,0.889182916667,0.457551899468,0.2,0.727329969406,1.8,0.0,1.0,0.0,1.0,2000000000,0,,,0
1449617400424277025,185,1449617400372656974,/odom,doorways,0,1,0,4.05830287933,4.97421455383,1.0,0.0,0.0,0.890018995309,0.455923445316,0.2,0.727260649204,1.8,0.0,1.0,0.0,1.0,2000000000,0,,,0
1449617400536108208,186,1449617400477232553,/odom,doorways,0,1,0,4.08673667908,4.95444440842,1.0,0.0,0.0,0.879619381205,0.475678193959,0.2,0.758406043053,1.8,0.0,1.0,0.0,1.0,2000000000,0,,,0
1449617400641272495,187,1449617400589581510,/odom,doorways,0,1,0,4.06257200241,4.94538831711,1.0,0.0,0.0,0.879781429151,0.475378414447,0.2,0.758145987988,1.8,0.0,1.0,0.0,1.0,2000000000,0,,,0
1449617400781648062,188,1449617400730900100,/odom,doorways,0,1,0,4.03557300568,4.97337055206,1.0,0.0,0.0,0.892083216001,0.451871149476,0.2,0.727689266205,1.8,0.0,1.0,0.0,1.0,2000000000,0,,,0
1449617400950432161,189,1449617400898035425,/odom,doorways,0,1,0,4.07750272751,4.97843408585,1.0,0.0,0.0,0.888374741511,0.459119068049,0.2,0.737478494644,1.8,0.0,1.0,0.0,1.0,2000000000,0,,,0
1449617401081616902,190,1449617401024536296,/odom,doorways,0,1,0,4.03052902222,4.97478151321,1.0,0.0,0.0,0.883551199694,0.468334578607,0.2,0.73736935854,1.8,0.0,1.0,0.0,1.0,2000000000,0,,,0
1449617401151810165,191,1449617401101531459,/odom,doorways,0,1,0,4.06669902802,4.99623060226,1.0,0.0,0.0,0.892821547206,0.450410573638,0.2,0.728796362877,1.8,0.0,1.0,0.0,1.0,2000000000,0,,,0
1449617401227350929,192,1449617401174971868,/odom,doorways,0,1,0,4.08031368256,4.97065353394,1.0,0.0,0.0,0.894400366759,0.447267239959,0.2,0.727452754974,1.8,0.0,1.0,0.0,1.0,2000000000,0,,,0
1449617401375239921,193,1449617401324788066,/odom,doorways,0,1,0,4.04758787155,4.96557760239,1.0,0.0,0.0,0.890968211715,0.454065684361,0.2,0.737244665623,1.8,0.0,1.0,0.0,1.0,2000000000,0,,,0
1449617401493286500,194,1449617401439211135,/odom,doorways,0,1,0,4.05478572845,5.00073766708,1.0,0.0,0.0,0.899483079762,0.436955591819,0.2,0.73821169138,1.8,0.0,1.0,0.0,1.0,2000000000,0,,,0
1449617401624130441,195,1449617401573752032,/odom,doorways,0,1,0,4.0504693985,4.9827041626,1.0,0.0,0.0,0.893731351187,0.448602576793,0.2,0.73818564415,1.8,0.0,1.0,0.0,1.0,2000000000,0,,,0
1449617401750379280,196,1449617401699119391,/odom,doorways,0,1,0,4.05014705658,4.98431015015,1.0,0.0,0.0,0.899206475561,0.437524529952,0.2,0.749162077904,1.8,0.0,1.0,0.0,1.0,2000000000,0,,,0
1449617401896233411,197,1449617401845951292,/odom,doorways,0,1,0,4.05435371399,4.9760351181,1.0,0.0,0.0,0.893069151522,0.449919426787,0.2,0.727362453938,1.8,0.0,1.0,0.0,1.0,2000000000,0,,,0
1449617402038101573,198,1449617401987762190,/odom,doorways,0,1,0,4.04589366913,4.96065807343,1.0,0.0,0.0,0.888717788597,0.458454678493,0.2,0.709246397018,1.8,0.0,1.0,0.0,1.0,2000000000,0,,,0
1449617402133785772,199,1449617402083145449,/odom,doorways,0,1,0,4.04636764526,4.9992351532,1.0,0.0,0.0,0.891795622321,0.452438468755,0.2,0.739715874195,1.8,0.0,1.0,0.0,1.0,2000000000,0,,,0
1449617402276284872,200,1449617402225478051,/odom,doorways,0,1,0,4.06954908371,5.00329828262,1.0,0.0,0.0,0.884829092342,0.465915740606,0.2,0.738276958466,1.8,0.0,1.0,0.0,1.0,2000000000,0,,,0
1449617402348112350,201,1449617402297430854,/odom,doorways,0,1,0,4.04508733749,5.0000872612,1.0,0.0,0.0,0.888931488564,0.458040182341,0.2,0.739401996136,1.8,0.0,1.0,0.0,1.0,2000000000,0,,,0
1449617402544299935,202,1449617402493920661,/odom,doorways,0,1,0,1.35524189472,7.46863365173,1.0,0.0,0.0,-0.962526625102,0.271187197282,0.2,0.679926872253,1.8,0.0,1.0,0.0,1.0,2000000000,0,,,0
1449617402957416399,203,1449617402907108210,/odom,doorways,0,1,0,1.47056639194,7.30122852325,1.0,0.0,0.0,-0.964863350407,0.262752193217,0.2,0.980009436607,1.8,0.0,1.0,0.0,1.0,2000000000,0,,,0
1449617403047262085,204,1449617402997101304,/odom,doorways,0,1,0,1.45008468628,7.32348823547,1.0,0.0,0.0,-0.964463134021,0.264217454221,0.2,1.00997531414,1.8,0.0,1.0,0.0,1.0,2000000000,0,,,0
1449617403153962488,205,1449617403092733827,/odom,doorways,0,1,0,1.42760133743,7.3414850235,1.0,0.0,0.0,-0.963551843027,0.267521673514,0.2,1.00995802879,1.8,0.0,1.0,0.0,1.0,2000000000,0,,,0
1449617403304967726,206,1449617403254523155,/odom,doorways,0,1,0,1.47611224651,7.30555820465,1.0,0.0,0.0,-0.964336067896,0.264680842064,0.2,0.999991118908,1.8,0.0,1.0,0.0,1.0,2000000000,0,,,0
1449617403446101468,207,1449617403394971896,/odom,doorways,0,1,0,1.43911552429,7.3127913475,1.0,0.0,0.0,-0.962232594295,0.272228643748,0.2,1.0199893713,1.8,0.0,1.0,0.0,1.0,2000000000,0,,,0
1449617403763011019,208,1449617403691328394,/odom,doorways,0,1,0,1.45241558552,7.33444738388,1.0,0.0,0.0,-0.964743260214,0.263192784613,0.2,0.879946053028,1.8,0.0,1.0,0.0,1.0,2000000000,0,,,0
1449617407439884781,209,1449617407388691756,/odom,doorways,0,1,0,0.654454290867,8.39528846741,1.0,0.0,0.0,-0.957523833423,0.288354137178,0.2,0.69991850853,1.8,0.0,1.0,0.0,1.0,2000000000,0,,,0
1449617407736044165,210,1449617407685865676,/odom,doorways,0,1,0,0.71534371376,8.39147377014,1.0,0.0,0.0,-0.958239422145,0.285967148196,0.2,0.679862976074,1.8,0.0,1.0,0.0,1.0,2000000000,0,,,0
1449617407947975080,211,1449617407897647388,/odom,doorways,0,1,0,0.701781928539,8.37679195404,1.0,0.0,0.0,-0.959476546249,0.281788497278,0.2,0.679805576801,1.8,0.0,1.0,0.0,1.0,2000000000,0,,,0
1449617409472555795,212,1449617409422126945,/odom,doorways,0,1,0,0.66078209877,8.40784072876,1.0,0.0,0.0,-0.95864734934,0.284596661264,0.2,0.689594328403,1.8,0.0,1.0,0.0,1.0,2000000000,0,,,0
1449617409799354273,213,1449617409748642128,/odom,doorways,0,1,0,0.678962647915,8.44388771057,1.0,0.0,0.0,-0.958668152167,0.284526578761,0.2,0.649777889252,1.8,0.0,1.0,0.0,1.0,2000000000,0,,,0
1449617416598832863,214,1449617416548097155,/odom,doorways,0,1,0,1.39969027042,7.26617431641,1.0,0.0,0.0,-0.959605117192,0.281350349314,0.2,0.739983558655,1.8,0.0,1.0,0.0,1.0,2000000000,0,,,0
1449617417271265146,215,1449617417220632090,/odom,doorways,0,1,0,1.31099796295,7.47006130219,1.0,0.0,0.0,-0.960756905793,0.277391722968,0.2,0.928995609283,1.8,0.0,1.0,0.0,1.0,2000000000,0,,,0
1449617417496859114,216,1449617417439700709,/odom,doorways,0,1,0,1.4495947361,7.18236684799,1.0,0.0,0.0,-0.957463486185,0.288554453478,0.2,0.68995308876,1.8,0.0,1.0,0.0,1.0,2000000000,0,,,0
1449617421808134354,217,1449617421756875223,/odom,doorways,0,1,0,2.6461853981,5.64122152328,1.0,0.0,0.0,-0.911521831259,0.41125168831,0.2,0.81835860014,1.8,0.0,1.0,0.0,1.0,2000000000,0,,,0
1449617422517343175,218,1449617422467016464,/odom,doorways,0,1,0,2.61732244492,5.69948482513,1.0,0.0,0.0,-0.910597148776,0.41329509148,0.2,0.848084747791,1.8,0.0,1.0,0.0,1.0,2000000000,0,,,0
1449617422722485351,219,1449617422672028277,/odom,doorways,0,1,0,2.59546899796,5.75074672699,1.0,0.0,0.0,-0.919165153222,0.393872341123,0.2,1.02767372131,1.8,0.0,1.0,0.0,1.0,2000000000,0,,,0
1449617424314909455,220,1449617424264639117,/odom,doorways,0,1,0,0.958764791489,2.99579453468,1.0,0.0,0.0,-0.960381554096,0.278688482992,0.2,0.948073685169,1.8,0.0,1.0,0.0,1.0,2000000000,0,,,0
1449617424333782107,221,1449617424278192999,/odom,doorways,1,1,0,1.91500258446,1.48690915108,1.0,0.0,0.0,-0.960381532302,0.278688558094,0.2,0.72851985693,1.8,0.0,1.0,0.0,1.0,2000000000,0,,,0
1449617424412356609,222,1449617424357634511,/odom,doorways,2,1,0,1.80434012413,1.3688147068,1.0,0.0,0.0,-0.96329652259,0.268439582712,0.2,0.65824007988,1.8,0.0,1.0,0.0,1.0,2000000000,0,,,0
1449617424697725459,223,1449617424644899212,/odom,doorways,0,1,0,1.0164424181,2.90536975861,1.0,0.0,0.0,-0.963760344756,0.266769559501,0.2,1.06666254997,1.8,0.0,1.0,0.0,1.0,2000000000,0,,,0
1449617424714617115,224,1449617424663847744,/odom,doorways,1,1,0,1.91349244118,1.40914058685,1.0,0.0,0.0,-0.96375951319,0.266772563686,0.2,0.767590463161,1.8,0.0,1.0,0.0,1.0,2000000000,0,,,0
1449617424975327768,225,1449617424759231302,/odom,doorways,2,1,0,2.52990889549,0.0640159845352,1.0,0.0,0.0,0.999662168841,0.0259913098471,0.2,0.718819856644,1.8,0.0,1.0,0.0,1.0,2000000000,0,,,0
1449617425196209167,226,1449617425145906818,/odom,doorways,0,1,0,2.54077029228,0.0261377096176,1.0,0.0,0.0,-0.963540037611,0.267564190281,0.2,0.749494731426,1.8,0.0,1.0,0.0,1.0,2000000000,0,,,0
1449617425353958936,227,1449617425303552819,/odom,doorways,0,1,0,2.77411341667,-0.00632238388062,1.0,0.0,0.0,-0.961798571317,0.273758119903,0.2,0.657602906227,1.8,0.0,1.0,0.0,1.0,2000000000,0,,,0
1449617425416247022,228,1449617425364302017,/odom,doorways,1,1,0,1.99834299088,0.950600028038,1.0,0.0,0.0,-0.942368531356,0.334576674486,0.2,0.848784327507,1.8,0.0,1.0,0.0,1.0,2000000000,0,,,0
1449617425706469400,229,1449617425650690402,/odom,doorways,0,1,0,2.09977030754,1.00045979023,1.0,0.0,0.0,-0.960809944234,0.277207956347,0.2,1.03690159321,1.8,0.0,1.0,0.0,1.0,2000000000,0,,,0
1449617425713679989,230,1449617425660601904,/odom,doorways,1,1,0,2.80082392693,-0.113345205784,1.0,0.0,0.0,-0.960810117111,0.27720735715,0.2,0.717856228352,1.8,0.0,1.0,0.0,1.0,2000000000,0,,,0
1449617425938775976,231,1449617425878640484,/odom,doorways,0,1,0,2.12300395966,0.957626402378,1.0,0.0,0.0,-0.959540727146,0.28156987223,0.2,1.03893089294,1.8,0.0,1.0,0.0,1.0,2000000000,0,,,0
1449617425938789161,232,1449617425886690396,/odom,doorways,1,1,0,2.79505729675,-0.088885396719,1.0,0.0,0.0,-0.959540296291,0.281571340504,0.2,0.729250788689,1.8,0.0,1.0,0.0,1.0,2000000000,0,,,0
1449617426076532523,233,1449617426024224168,/odom,doorways,0,1,0,2.16716814041,0.930718421936,1.0,0.0,0.0,-0.964287542812,0.264857574514,0.2,1.03721344471,1.8,0.0,1.0,0.0,1.0,2000000000,0,,,0
1449617426088647280,234,1449617426035162004,/odom,doorways,1,1,0,2.78103017807,-0.102445751429,1.0,0.0,0.0,-0.96428757276,0.26485746548,0.2,0.708097755909,1.8,0.0,1.0,0.0,1.0,2000000000,0,,,0
1449617426202890331,235,1449617426150769022,/odom,doorways,0,1,0,2.16001009941,0.955001890659,1.0,0.0,0.0,-0.962289666812,0.272026831666,0.2,0.987531960011,1.8,0.0,1.0,0.0,1.0,2000000000,0,,,0
1449617426216609422,236,1449617426159400404,/odom,doorways,1,1,0,2.80757784843,-0.0988458395004,1.0,0.0,0.0,-0.962289480294,0.27202749147,0.2,0.728178501129,1.8,0.0,1.0,0.0,1.0,2000000000,0,,,0
1449617426319645936,237,1449617426269208608,/odom,doorways,0,1,0,2.13484787941,0.865157544613,1.0,0.0,0.0,-0.958143249978,0.286289211326,0.2,1.05984055996,1.8,0.0,1.0,0.0,1.0,2000000000,0,,,0
1449617426326303820,238,1449617426276012815,/odom,doorways,1,1,0,2.76839971542,-0.100365325809,1.0,0.0,0.0,-0.958143176701,0.286289456567,0.2,0.709892630577,1.8,0.0,1.0,0.0,1.0,2000000000,0,,,0
1449617426509798897,239,1449617426455225681,/odom,doorways,0,1,0,2.14402770996,0.930933058262,1.0,0.0,0.0,-0.960455424395,0.278433794197,0.2,1.06833219528,1.8,0.0,1.0,0.0,1.0,2000000000,0,,,0
1449617426515892481,240,1449617426465190806,/odom,doorways,1,1,0,2.78484106064,-0.0814257264137,1.0,0.0,0.0,-0.960455791434,0.278432528094,0.2,0.68892365694,1.8,0.0,1.0,0.0,1.0,2000000000,0,,,0
1449617426675109499,241,1449617426619807236,/odom,doorways,0,1,0,2.78034591675,-0.12518209219,1.0,0.0,0.0,-0.95816826135,0.28620549076,0.2,0.68999004364,1.8,0.0,1.0,0.0,1.0,2000000000,0,,,0
1449617426809741492,242,1449617426752130551,/odom,doorways,0,1,0,2.74159884453,-0.0987466871738,1.0,0.0,0.0,-0.963723324763,0.266903265826,0.2,0.679960489273,1.8,0.0,1.0,0.0,1.0,2000000000,0,,,0
1449617426952429719,243,1449617426901664245,/odom,doorways,0,1,0,2.77058243752,-0.0915958285332,1.0,0.0,0.0,-0.962598501624,0.270931955795,0.2,0.689704179764,1.8,0.0,1.0,0.0,1.0,2000000000,0,,,0
1449617427112804227,244,1449617427061126977,/odom,doorways,0,1,0,2.80616474152,-0.123898148537,1.0,0.0,0.0,-0.962307569888,0.271963491918,0.2,0.749349594116,1.8,0.0,1.0,0.0,1.0,2000000000,0,,,0
1449617427236709066,245,1449617427186514384,/odom,doorways,0,1,0,2.76884460449,-0.0961693823338,1.0,0.0,0.0,-0.965019983373,0.262176337014,0.2,0.689719378948,1.8,0.0,1.0,0.0,1.0,2000000000,0,,,0
1449617427392723990,246,1449617427329529431,/odom,doorways,0,1,0,2.7522687912,-0.0834133028984,1.0,0.0,0.0,-0.965856952453,0.259075949092,0.2,0.649757266045,1.8,0.0,1.0,0.0,1.0,2000000000,0,,,0
1449617427490087567,247,1449617427439099818,/odom,doorways,0,1,0,2.73159265518,-0.0483881533146,1.0,0.0,0.0,-0.965273156681,0.261242670695,0.2,0.67911285162,1.8,0.0,1.0,0.0,1.0,2000000000,0,,,0
1449617427621317987,248,1449617427569736721,/odom,doorways,0,1,0,2.73125052452,-0.0445500612259,1.0,0.0,0.0,-0.964799061844,0.262988156131,0.2,0.699787020683,1.8,0.0,1.0,0.0,1.0,2000000000,0,,,0
1449617427766952764,249,1449617427716464126,/odom,doorways,0,1,0,2.77822637558,-0.0629057884216,1.0,0.0,0.0,-0.96197459753,0.273138927485,0.2,0.739587247372,1.8,0.0,1.0,0.0,1.0,2000000000,0,,,0
1449617427866945223,250,1449617427814087764,/odom,doorways,0,1,0,2.76646280289,-0.054201900959,1.0,0.0,0.0,-0.963582806803,0.267410124029,0.2,0.699997484684,1.8,0.0,1.0,0.0,1.0,2000000000,0,,,0
1449617427892029160,251,1449617427841832183,/odom,doorways,1,1,0,2.47047185898,-0.13449037075,1.0,0.0,0.0,0.985859005759,0.167576909995,0.2,0.989672482014,1.8,0.0,1.0,0.0,1.0,2000000000,0,,,0
1449617427970729656,252,1449617427916426210,/odom,doorways,0,1,0,2.77133393288,-0.0910331606865,1.0,0.0,0.0,-0.955051029939,0.296441444829,0.2,0.679984211922,1.8,0.0,1.0,0.0,1.0,2000000000,0,,,0
1449617428065612319,253,1449617428011758409,/odom,doorways,0,1,0,2.74945640564,-0.112346604466,1.0,0.0,0.0,-0.956897370369,0.290426277358,0.2,0.789877176285,1.8,0.0,1.0,0.0,1.0,2000000000,0,,,0
1449617432515838864,254,1449617432465694327,/odom,doorways,0,1,0,3.52548837662,-1.22608447075,1.0,0.0,0.0,-0.959512129933,0.281667308205,0.2,0.709520220757,1.8,0.0,1.0,0.0,1.0,2000000000,0,,,0
1449617432679570709,255,1449617432629118109,/odom,doorways,0,1,0,3.53830289841,-1.23807811737,1.0,0.0,0.0,-0.961914711269,0.273349754425,0.2,0.699684739113,1.8,0.0,1.0,0.0,1.0,2000000000,0,,,0
1449617432743592033,256,1449617432692027393,/odom,doorways,0,1,0,3.47182965279,-1.23346483707,1.0,0.0,0.0,-0.960112740085,0.279613172661,0.2,0.659001469612,1.8,0.0,1.0,0.0,1.0,2000000000,0,,,0
1449617432801344418,257,1449617432751134393,/odom,doorways,0,1,0,3.47836685181,-1.25622558594,1.0,0.0,0.0,-0.958869137779,0.283848509976,0.2,0.68853199482,1.8,0.0,1.0,0.0,1.0,2000000000,0,,,0
1449617432994958100,258,1449617432942133362,/odom,doorways,0,1,0,3.44366288185,-1.2490439415,1.0,0.0,0.0,-0.959330775999,0.282284364112,0.2,0.659108281136,1.8,0.0,1.0,0.0,1.0,2000000000,0,,,0
1449617433105279088,259,1449617433054019028,/odom,doorways,0,1,0,3.45179224014,-1.29085206985,1.0,0.0,0.0,-0.958632335353,0.28464723012,0.2,0.649597764015,1.8,0.0,1.0,0.0,1.0,2000000000,0,,,0
1449617433262650078,260,1449617433212287891,/odom,doorways,0,1,0,3.46654677391,-1.29348123074,1.0,0.0,0.0,-0.956323307136,0.292311019684,0.2,0.699258565903,1.8,0.0,1.0,0.0,1.0,2000000000,0,,,0
1449617433502822127,261,1449617433452578314,/odom,doorways,0,1,0,2.75760173798,-0.261134147644,1.0,0.0,0.0,-0.955350243773,0.295475737959,0.2,0.699006795883,1.8,0.0,1.0,0.0,1.0,2000000000,0,,,0
1449617433517273252,262,1449617433466735890,/odom,doorways,1,1,0,3.46512627602,-1.29552614689,1.0,0.0,0.0,-0.955349909497,0.295476818758,0.2,0.649075567722,1.8,0.0,1.0,0.0,1.0,2000000000,0,,,0
1449617433601082574,263,1449617433549933922,/odom,doorways,0,1,0,2.74277281761,-0.266081571579,1.0,0.0,0.0,-0.954177824798,0.299240168866,0.2,0.678783416748,1.8,0.0,1.0,0.0,1.0,2000000000,0,,,0
1449617433611391224,264,1449617433561078053,/odom,doorways,1,1,0,3.46101689339,-1.29858088493,1.0,0.0,0.0,-0.954178057382,0.299239427235,0.2,0.698749184608,1.8,0.0,1.0,0.0,1.0,2000000000,0,,,0
1449617433686223529,265,1449617433620307016,/odom,doorways,0,1,0,2.72696042061,-0.24756076932,1.0,0.0,0.0,-0.954616006783,0.297839351989,0.2,0.68911254406,1.8,0.0,1.0,0.0,1.0,2000000000,0,,,0
1449617433686231142,266,1449617433630219672,/odom,doorways,1,1,0,3.45672869682,-1.30322253704,1.0,0.0,0.0,-0.954616460904,0.297837896465,0.2,0.699102759361,1.8,0.0,1.0,0.0,1.0,2000000000,0,,,0
1449617433738384807,267,1449617433687890616,/odom,doorways,0,1,0,2.74752402306,-0.262728482485,1.0,0.0,0.0,-0.955008877086,0.296577215388,0.2,0.699193358421,1.8,0.0,1.0,0.0,1.0,2000000000,0,,,0
1449617433753697362,268,1449617433699978290,/odom,doorways,1,1,0,3.47459626198,-1.32045829296,1.0,0.0,0.0,-0.955009371182,0.296575624343,0.2,0.729162335396,1.8,0.0,1.0,0.0,1.0,2000000000,0,,,0
1449617433832216807,269,1449617433781623609,/odom,doorways,0,1,0,3.39960050583,-1.29307305813,1.0,0.0,0.0,-0.951889474145,0.306441558885,0.2,0.709174692631,1.8,0.0,1.0,0.0,1.0,2000000000,0,,,0
1449617433936842262,270,1449617433886275466,/odom,doorways,0,1,0,2.73494291306,-0.231276035309,1.0,0.0,0.0,-0.95554309014,0.294851492934,0.2,0.698390543461,1.8,0.0,1.0,0.0,1.0,2000000000,0,,,0
1449617433950329201,271,1449617433900184618,/odom,doorways,1,1,0,3.4517364502,-1.28216314316,1.0,0.0,0.0,-0.955543026331,0.294851699723,0.2,0.688413083553,1.8,0.0,1.0,0.0,1.0,2000000000,0,,,0
1449617434091031008,272,1449617434039710213,/odom,doorways,0,1,0,2.71130228043,-0.212569355965,1.0,0.0,0.0,-0.956547078221,0.291577926372,0.2,0.698369443417,1.8,0.0,1.0,0.0,1.0,2000000000,0,,,0
1449617434113987070,273,1449617434063540241,/odom,doorways,1,1,0,3.41251325607,-1.25588917732,1.0,0.0,0.0,-0.956546801888,0.291578832903,0.2,0.63850736618,1.8,0.0,1.0,0.0,1.0,2000000000,0,,,0
1449617434213757787,274,1449617434162390553,/odom,doorways,0,1,0,2.70398569107,-0.250882893801,1.0,0.0,0.0,-0.953444558367,0.301568357292,0.2,0.689008593559,1.8,0.0,1.0,0.0,1.0,2000000000,0,,,0
1449617434311255950,275,1449617434261002414,/odom,doorways,0,1,0,2.70960307121,-0.236631408334,1.0,0.0,0.0,-0.952796275152,0.303610372116,0.2,0.688678741455,1.8,0.0,1.0,0.0,1.0,2000000000,0,,,0
1449617434329462054,276,1449617434278838159,/odom,doorways,1,1,0,3.45162606239,-1.28272426128,1.0,0.0,0.0,-0.952796320869,0.303610228645,0.2,0.698659896851,1.8,0.0,1.0,0.0,1.0,2000000000,0,,,0
1449617434416849601,277,1449617434347743558,/odom,doorways,0,1,0,3.38446521759,-1.29106080532,1.0,0.0,0.0,-0.948332774856,0.317277399343,0.2,0.639796495438,1.8,0.0,1.0,0.0,1.0,2000000000,0,,,0
1449617434450213454,278,1449617434399094925,/odom,doorways,1,1,0,2.73823881149,-0.221590310335,1.0,0.0,0.0,-0.957412564935,0.288723363282,0.2,0.738391339779,1.8,0.0,1.0,0.0,1.0,2000000000,0,,,0
1449617434516386421,279,1449617434464419832,/odom,doorways,0,1,0,2.72860527039,-0.223478376865,1.0,0.0,0.0,-0.957066380427,0.289868838369,0.2,0.679094552994,1.8,0.0,1.0,0.0,1.0,2000000000,0,,,0
1449617434521964051,280,1449617434471452387,/odom,doorways,1,1,0,3.42401170731,-1.26618850231,1.0,0.0,0.0,-0.957066119271,0.289869700629,0.2,0.649132728577,1.8,0.0,1.0,0.0,1.0,2000000000,0,,,0
1449617434582101759,281,1449617434529132043,/odom,doorways,2,1,0,3.90256094933,-2.06526732445,1.0,0.0,0.0,-0.927547798044,0.373704538831,0.2,0.809015750885,1.8,0.0,1.0,0.0,1.0,2000000000,0,,,0
1449617434625513629,282,1449617434572891032,/odom,doorways,0,1,0,2.68588876724,-0.213125824928,1.0,0.0,0.0,-0.956310495592,0.292352930584,0.2,0.709246635437,1.8,0.0,1.0,0.0,1.0,2000000000,0,,,0
1449617434642384805,283,1449617434586642059,/odom,doorways,1,1,0,3.38409757614,-1.24835324287,1.0,0.0,0.0,-0.956310729138,0.292352166632,0.2,0.669290661812,1.8,0.0,1.0,0.0,1.0,2000000000,0,,,0
1449617434883173230,284,1449617434832651282,/odom,doorways,0,1,0,2.71186733246,-0.224164158106,1.0,0.0,0.0,-0.954730856241,0.297470993782,0.2,0.679028272629,1.8,0.0,1.0,0.0,1.0,2000000000,0,,,0
1449617434892863911,285,1449617434839277230,/odom,doorways,1,1,0,3.43504452705,-1.27201640606,1.0,0.0,0.0,-0.95473042601,0.297472374602,0.2,0.689011096954,1.8,0.0,1.0,0.0,1.0,2000000000,0,,,0
1449617435082229974,286,1449617435023742857,/odom,doorways,0,1,0,2.71269059181,-0.224806085229,1.0,0.0,0.0,-0.95441254886,0.29849068089,0.2,0.698630928993,1.8,0.0,1.0,0.0,1.0,2000000000,0,,,0
1449617435090739491,287,1449617435040464412,/odom,doorways,1,1,0,3.42634916306,-1.25415635109,1.0,0.0,0.0,-0.95441226634,0.298491584237,0.2,0.688648641109,1.8,0.0,1.0,0.0,1.0,2000000000,0,,,0
1449617435259249983,288,1449617435209015524,/odom,doorways,0,1,0,2.68438982964,-0.224300593138,1.0,0.0,0.0,-0.953453322252,0.301540647819,0.2,0.69913905859,1.8,0.0,1.0,0.0,1.0,2000000000,0,,,0
1449617435278605852,289,1449617435227567311,/odom,doorways,1,1,0,3.41662573814,-1.26615428925,1.0,0.0,0.0,-0.953453632345,0.301539667323,0.2,0.669177949429,1.8,0.0,1.0,0.0,1.0,2000000000,0,,,0
1449617435485903583,290,1449617435431605924,/odom,doorways,0,1,0,2.68656659126,-0.217630267143,1.0,0.0,0.0,-0.953787708338,0.300481292966,0.2,0.688927710056,1.8,0.0,1.0,0.0,1.0,2000000000,0,,,0
1449617435496972343,291,1449617435446664953,/odom,doorways,1,1,0,3.40480303764,-1.24440717697,1.0,0.0,0.0,-0.953787441279,0.300482140665,0.2,0.639003753662,1.8,0.0,1.0,0.0,1.0,2000000000,0,,,0
1449617435668640749,292,1449617435618348855,/odom,doorways,0,1,0,2.69547510147,-0.228030741215,1.0,0.0,0.0,-0.954261644152,0.298972765481,0.2,0.689205646515,1.8,0.0,1.0,0.0,1.0,2000000000,0,,,0
1449617435862704510,293,1449617435810858676,/odom,doorways,0,1,0,2.66570520401,-0.214293032885,1.0,0.0,0.0,-0.954180659005,0.299231131369,0.2,0.689533293247,1.8,0.0,1.0,0.0,1.0,2000000000,0,,,0
1449617435869513212,294,1449617435817559473,/odom,doorways,1,1,0,3.38473033905,-1.24795460701,1.0,0.0,0.0,-0.954180379244,0.299232023464,0.2,0.669544994831,1.8,0.0,1.0,0.0,1.0,2000000000,0,,,0
1449617436069104092,295,1449617436018593591,/odom,doorways,0,1,0,2.70057654381,-0.243199944496,1.0,0.0,0.0,-0.953471025777,0.301484664624,0.2,0.708538651466,1.8,0.0,1.0,0.0,1.0,2000000000,0,,,0
1449617436158578558,296,1449617436106104596,/odom,doorways,0,1,0,2.68697977066,-0.241382598877,1.0,0.0,0.0,-0.954193699834,0.299189543929,0.2,0.719092071056,1.8,0.0,1.0,0.0,1.0,2000000000,0,,,0
1449617436423482650,297,1449617436372986897,/odom,doorways,0,1,0,2.68756079674,-0.22777466476,1.0,0.0,0.0,-0.954158750128,0.299300984885,0.2,0.719451725483,1.8,0.0,1.0,0.0,1.0,2000000000,0,,,0
1449617436437072090,298,1449617436386896233,/odom,doorways,1,1,0,3.40382242203,-1.25714051723,1.0,0.0,0.0,-0.954158311845,0.29930238211,0.2,0.649502336979,1.8,0.0,1.0,0.0,1.0,2000000000,0,,,0
1449617436596387378,299,1449617436546242471,/odom,doorways,0,1,0,2.68878269196,-0.248378574848,1.0,0.0,0.0,-0.956881014382,0.290480161654,0.2,0.708308458328,1.8,0.0,1.0,0.0,1.0,2000000000,0,,,0
1449617436850367543,300,1449617436799622477,/odom,doorways,0,1,0,2.68416285515,-0.249699085951,1.0,0.0,0.0,-0.955915231653,0.293642758967,0.2,0.717871189117,1.8,0.0,1.0,0.0,1.0,2000000000,0,,,0
1449617436981519699,301,1449617436930411047,/odom,doorways,0,1,0,2.66146016121,-0.235159188509,1.0,0.0,0.0,-0.957856469245,0.287247252947,0.2,0.70789116621,1.8,0.0,1.0,0.0,1.0,2000000000,0,,,0
1449617437223701942,302,1449617437173525181,/odom,doorways,0,1,0,2.66202139854,-0.243047550321,1.0,0.0,0.0,-0.958904509064,0.283728994811,0.2,0.718271136284,1.8,0.0,1.0,0.0,1.0,2000000000,0,,,0
1449617437402716109,303,1449617437350028851,/odom,doorways,0,1,0,2.66461658478,-0.245157822967,1.0,0.0,0.0,-0.957983480854,0.286823378426,0.2,0.728240668774,1.8,0.0,1.0,0.0,1.0,2000000000,0,,,0
1449617437615633936,304,1449617437564982295,/odom,doorways,0,1,0,2.64879703522,-0.236953884363,1.0,0.0,0.0,-0.958649768584,0.284588512056,0.2,0.728728592396,1.8,0.0,1.0,0.0,1.0,2000000000,0,,,0
1449617437800478642,305,1449617437749469427,/odom,doorways,0,1,0,2.65124249458,-0.227648317814,1.0,0.0,0.0,-0.957699358968,0.287770634068,0.2,0.718137145042,1.8,0.0,1.0,0.0,1.0,2000000000,0,,,0
1449617437988679002,306,1449617437938294227,/odom,doorways,0,1,0,2.64714622498,-0.233579784632,1.0,0.0,0.0,-0.958602995941,0.284746020469,0.2,0.70806479454,1.8,0.0,1.0,0.0,1.0,2000000000,0,,,0
1449617438213131036,307,1449617438162624826,/odom,doorways,0,1,0,2.64349508286,-0.238541230559,1.0,0.0,0.0,-0.95716009652,0.28955923337,0.2,0.728605628014,1.8,0.0,1.0,0.0,1.0,2000000000,0,,,0
1449617438401402172,308,1449617438351234413,/odom,doorways,0,1,0,2.65250587463,-0.243717089295,1.0,0.0,0.0,-0.957049594845,0.289924253912,0.2,0.738091528416,1.8,0.0,1.0,0.0,1.0,2000000000,0,,,0
1449617438899899378,309,1449617438846928263,/odom,doorways,0,1,0,2.6494808197,-0.251954466105,1.0,0.0,0.0,-0.956486796519,0.291775612561,0.2,0.738201856613,1.8,0.0,1.0,0.0,1.0,2000000000,0,,,0
1449617439139943028,310,1449617439089304324,/odom,doorways,0,1,0,2.64444112778,-0.248566567898,1.0,0.0,0.0,-0.956432940152,0.291952103935,0.2,0.738239407539,1.8,0.0,1.0,0.0,1.0,2000000000,0,,,0
