%time,field.header.seq,field.header.stamp,field.header.frame_id,field.ns,field.id,field.type,field.action,field.pose.position.x,field.pose.position.y,field.pose.position.z,field.pose.orientation.x,field.pose.orientation.y,field.pose.orientation.z,field.pose.orientation.w,field.scale.x,field.scale.y,field.scale.z,field.color.r,field.color.g,field.color.b,field.color.a,field.lifetime,field.frame_locked,field.text,field.mesh_resource,field.mesh_use_embedded_materials
1449617321474535804,4,1449617321474442971,/odom,ga,1,0,0,nan,nan,0.0,nan,nan,nan,nan,0.25,0.15,0.0,1.0,0.0,0.0,1.0,2000000000,0,,,0
1449617321474700731,5,1449617321474520638,/odom,ga,2,2,0,nan,nan,0.0,0.0,0.0,0.0,0.0,0.15,0.15,0.01,0.0,1.0,0.0,1.0,2000000000,0,,,0
1449617321578136977,6,1449617321577444522,/odom,ga,1,0,0,0.0,0.0,0.0,0.0,0.0,0.0,1.0,0.25,0.15,0.0,1.0,0.0,0.0,1.0,2000000000,0,,,0
1449617321578147189,7,1449617321577548868,/odom,ga,2,2,0,0.0,0.0,0.0,0.0,0.0,0.0,0.0,0.15,0.15,0.01,0.0,1.0,0.0,1.0,2000000000,0,,,0
1449617321673896389,8,1449617321673800444,/odom,ga,1,0,0,0.0,0.0,0.0,0.0,0.0,0.0,1.0,0.25,0.15,0.0,1.0,0.0,0.0,1.0,2000000000,0,,,0
1449617321673954432,9,1449617321673864957,/odom,ga,2,2,0,0.0,0.0,0.0,0.0,0.0,0.0,0.0,0.15,0.15,0.01,0.0,1.0,0.0,1.0,2000000000,0,,,0
1449617321788631233,10,1449617321785735704,/odom,ga,1,0,0,0.0,0.0,0.0,0.0,0.0,0.0,1.0,0.25,0.15,0.0,1.0,0.0,0.0,1.0,2000000000,0,,,0
1449617321788636740,11,1449617321785984137,/odom,ga,2,2,0,0.0,0.0,0.0,0.0,0.0,0.0,0.0,0.15,0.15,0.01,0.0,1.0,0.0,1.0,2000000000,0,,,0
1449617321873969928,12,1449617321873883057,/odom,ga,1,0,0,0.0,0.0,0.0,0.0,0.0,0.0,1.0,0.25,0.15,0.0,1.0,0.0,0.0,1.0,2000000000,0,,,0
1449617321874097649,13,1449617321873966079,/odom,ga,2,2,0,0.0,0.0,0.0,0.0,0.0,0.0,0.0,0.15,0.15,0.01,0.0,1.0,0.0,1.0,2000000000,0,,,0
1449617321975935610,14,1449617321975184753,/odom,ga,1,0,0,0.0,0.0,0.0,0.0,0.0,0.0,1.0,0.25,0.15,0.0,1.0,0.0,0.0,1.0,2000000000,0,,,0
1449617321975946940,15,1449617321975331205,/odom,ga,2,2,0,0.0,0.0,0.0,0.0,0.0,0.0,0.0,0.15,0.15,0.01,0.0,1.0,0.0,1.0,2000000000,0,,,0
1449617322076916542,16,1449617322076420315,/odom,ga,1,0,0,0.0,0.0,0.0,0.0,0.0,0.0,1.0,0.25,0.15,0.0,1.0,0.0,0.0,1.0,2000000000,0,,,0
1449617322076920361,17,1449617322076748863,/odom,ga,2,2,0,0.0,0.0,0.0,0.0,0.0,0.0,0.0,0.15,0.15,0.01,0.0,1.0,0.0,1.0,2000000000,0,,,0
1449617322175957117,18,1449617322175508253,/odom,ga,1,0,0,0.0,0.0,0.0,0.0,0.0,0.0,1.0,0.25,0.15,0.0,1.0,0.0,0.0,1.0,2000000000,0,,,0
1449617322175979071,19,1449617322175624527,/odom,ga,2,2,0,0.0,0.0,0.0,0.0,0.0,0.0,0.0,0.15,0.15,0.01,0.0,1.0,0.0,1.0,2000000000,0,,,0
1449617322314175826,20,1449617322313833670,/odom,ga,1,0,0,0.0,0.0,0.0,0.0,0.0,0.0,1.0,0.25,0.15,0.0,1.0,0.0,0.0,1.0,2000000000,0,,,0
1449617322314430035,21,1449617322314058281,/odom,ga,2,2,0,0.0,0.0,0.0,0.0,0.0,0.0,0.0,0.15,0.15,0.01,0.0,1.0,0.0,1.0,2000000000,0,,,0
1449617322376804905,22,1449617322376504462,/odom,ga,1,0,0,0.0,0.0,0.0,0.0,0.0,0.0,1.0,0.25,0.15,0.0,1.0,0.0,0.0,1.0,2000000000,0,,,0
1449617322376944693,23,1449617322376588818,/odom,ga,2,2,0,0.0,0.0,0.0,0.0,0.0,0.0,0.0,0.15,0.15,0.01,0.0,1.0,0.0,1.0,2000000000,0,,,0
1449617322481598031,24,1449617322481356163,/odom,ga,1,0,0,0.0,0.0,0.0,0.0,0.0,0.0,1.0,0.25,0.15,0.0,1.0,0.0,0.0,1.0,2000000000,0,,,0
1449617322481808459,25,1449617322481585856,/odom,ga,2,2,0,0.0,0.0,0.0,0.0,0.0,0.0,0.0,0.15,0.15,0.01,0.0,1.0,0.0,1.0,2000000000,0,,,0
1449617322594453537,26,1449617322593833042,/odom,ga,1,0,0,0.0,0.0,0.0,0.0,0.0,0.0,1.0,0.25,0.15,0.0,1.0,0.0,0.0,1.0,2000000000,0,,,0
1449617322594458396,27,1449617322594147227,/odom,ga,2,2,0,0.0,0.0,0.0,0.0,0.0,0.0,0.0,0.15,0.15,0.01,0.0,1.0,0.0,1.0,2000000000,0,,,0
1449617322676490081,28,1449617322676272676,/odom,ga,1,0,0,0.0,0.0,0.0,0.0,0.0,0.0,1.0,0.25,0.15,0.0,1.0,0.0,0.0,1.0,2000000000,0,,,0
1449617322679233682,29,1449617322676488277,/odom,ga,2,2,0,0.0,0.0,0.0,0.0,0.0,0.0,0.0,0.15,0.15,0.01,0.0,1.0,0.0,1.0,2000000000,0,,,0
1449617322778796379,30,1449617322777405174,/odom,ga,1,0,0,0.0,0.0,0.0,0.0,0.0,0.0,1.0,0.25,0.15,0.0,1.0,0.0,0.0,1.0,2000000000,0,,,0
1449617322778801380,31,1449617322777504183,/odom,ga,2,2,0,0.0,0.0,0.0,0.0,0.0,0.0,0.0,0.15,0.15,0.01,0.0,1.0,0.0,1.0,2000000000,0,,,0
1449617322891747517,32,1449617322891420043,/odom,ga,1,0,0,0.0,0.0,0.0,0.0,0.0,0.0,1.0,0.25,0.15,0.0,1.0,0.0,0.0,1.0,2000000000,0,,,0
1449617322897808549,33,1449617322891731176,/odom,ga,2,2,0,0.0,0.0,0.0,0.0,0.0,0.0,0.0,0.15,0.15,0.01,0.0,1.0,0.0,1.0,2000000000,0,,,0
1449617322979133483,34,1449617322978345252,/odom,ga,1,0,0,0.0,0.0,0.0,0.0,0.0,0.0,1.0,0.25,0.15,0.0,1.0,0.0,0.0,1.0,2000000000,0,,,0
1449617322979136315,35,1449617322978838480,/odom,ga,2,2,0,0.0,0.0,0.0,0.0,0.0,0.0,0.0,0.15,0.15,0.01,0.0,1.0,0.0,1.0,2000000000,0,,,0
1449617323102130147,36,1449617323101800013,/odom,ga,1,0,0,0.0,0.0,0.0,0.0,0.0,0.0,1.0,0.25,0.15,0.0,1.0,0.0,0.0,1.0,2000000000,0,,,0
1449617323102326156,37,1449617323102111879,/odom,ga,2,2,0,0.0,0.0,0.0,0.0,0.0,0.0,0.0,0.15,0.15,0.01,0.0,1.0,0.0,1.0,2000000000,0,,,0
1449617323178378591,38,1449617323177271097,/odom,ga,1,0,0,0.0,0.0,0.0,0.0,0.0,0.0,1.0,0.25,0.15,0.0,1.0,0.0,0.0,1.0,2000000000,0,,,0
1449617323178442679,39,1449617323177946680,/odom,ga,2,2,0,0.0,0.0,0.0,0.0,0.0,0.0,0.0,0.15,0.15,0.01,0.0,1.0,0.0,1.0,2000000000,0,,,0
1449617323281763304,40,1449617323281617638,/odom,ga,1,0,0,0.0,0.0,0.0,0.0,0.0,0.0,1.0,0.25,0.15,0.0,1.0,0.0,0.0,1.0,2000000000,0,,,0
1449617323282485270,41,1449617323282125901,/odom,ga,2,2,0,0.0,0.0,0.0,0.0,0.0,0.0,0.0,0.15,0.15,0.01,0.0,1.0,0.0,1.0,2000000000,0,,,0
1449617323380599624,42,1449617323379211183,/odom,ga,1,0,0,0.0,0.0,0.0,0.0,0.0,0.0,1.0,0.25,0.15,0.0,1.0,0.0,0.0,1.0,2000000000,0,,,0
1449617323380607433,43,1449617323380021304,/odom,ga,2,2,0,0.0,0.0,0.0,0.0,0.0,0.0,0.0,0.15,0.15,0.01,0.0,1.0,0.0,1.0,2000000000,0,,,0
1449617323474819597,44,1449617323474634533,/odom,ga,1,0,0,0.0,0.0,0.0,0.0,0.0,0.0,1.0,0.25,0.15,0.0,1.0,0.0,0.0,1.0,2000000000,0,,,0
1449617323476849485,45,1449617323475143626,/odom,ga,2,2,0,0.0,0.0,0.0,0.0,0.0,0.0,0.0,0.15,0.15,0.01,0.0,1.0,0.0,1.0,2000000000,0,,,0
1449617323580100763,46,1449617323579386623,/odom,ga,1,0,0,0.0,0.0,0.0,0.0,0.0,0.0,1.0,0.25,0.15,0.0,1.0,0.0,0.0,1.0,2000000000,0,,,0
1449617323580122922,47,1449617323579634293,/odom,ga,2,2,0,0.0,0.0,0.0,0.0,0.0,0.0,0.0,0.15,0.15,0.01,0.0,1.0,0.0,1.0,2000000000,0,,,0
1449617323680985659,48,1449617323676155232,/odom,ga,1,0,0,0.0,0.0,0.0,0.0,0.0,0.0,1.0,0.25,0.15,0.0,1.0,0.0,0.0,1.0,2000000000,0,,,0
1449617323681014503,49,1449617323676787355,/odom,ga,2,2,0,0.0,0.0,0.0,0.0,0.0,0.0,0.0,0.15,0.15,0.01,0.0,1.0,0.0,1.0,2000000000,0,,,0
1449617323778775853,50,1449617323776737535,/odom,ga,1,0,0,0.0,0.0,0.0,0.0,0.0,0.0,1.0,0.25,0.15,0.0,1.0,0.0,0.0,1.0,2000000000,0,,,0
1449617323778782711,51,1449617323777086586,/odom,ga,2,2,0,0.0,0.0,0.0,0.0,0.0,0.0,0.0,0.15,0.15,0.01,0.0,1.0,0.0,1.0,2000000000,0,,,0
1449617323891053847,52,1449617323890851793,/odom,ga,1,0,0,0.0,0.0,0.0,0.0,0.0,0.0,1.0,0.25,0.15,0.0,1.0,0.0,0.0,1.0,2000000000,0,,,0
1449617323891533446,53,1449617323891332037,/odom,ga,2,2,0,0.0,0.0,0.0,0.0,0.0,0.0,0.0,0.15,0.15,0.01,0.0,1.0,0.0,1.0,2000000000,0,,,0
1449617324002764900,54,1449617324002095812,/odom,ga,1,0,0,0.0,0.0,0.0,0.0,0.0,0.0,1.0,0.25,0.15,0.0,1.0,0.0,0.0,1.0,2000000000,0,,,0
1449617324002774922,55,1449617324002370932,/odom,ga,2,2,0,0.0,0.0,0.0,0.0,0.0,0.0,0.0,0.15,0.15,0.01,0.0,1.0,0.0,1.0,2000000000,0,,,0
1449617324079058377,56,1449617324077857301,/odom,ga,1,0,0,0.0,0.0,0.0,0.0,0.0,0.0,1.0,0.25,0.15,0.0,1.0,0.0,0.0,1.0,2000000000,0,,,0
1449617324079073272,57,1449617324078164928,/odom,ga,2,2,0,0.0,0.0,0.0,0.0,0.0,0.0,0.0,0.15,0.15,0.01,0.0,1.0,0.0,1.0,2000000000,0,,,0
1449617324181994355,58,1449617324180681247,/odom,ga,1,0,0,0.0,0.0,0.0,0.0,0.0,0.0,1.0,0.25,0.15,0.0,1.0,0.0,0.0,1.0,2000000000,0,,,0
1449617324182008397,59,1449617324180893868,/odom,ga,2,2,0,0.0,0.0,0.0,0.0,0.0,0.0,0.0,0.15,0.15,0.01,0.0,1.0,0.0,1.0,2000000000,0,,,0
1449617324290491286,60,1449617324290315857,/odom,ga,1,0,0,0.0,0.0,0.0,0.0,0.0,0.0,1.0,0.25,0.15,0.0,1.0,0.0,0.0,1.0,2000000000,0,,,0
1449617324290685377,61,1449617324290517221,/odom,ga,2,2,0,0.0,0.0,0.0,0.0,0.0,0.0,0.0,0.15,0.15,0.01,0.0,1.0,0.0,1.0,2000000000,0,,,0
1449617324412773848,62,1449617324412615274,/odom,ga,1,0,0,0.0,0.0,0.0,0.0,0.0,0.0,1.0,0.25,0.15,0.0,1.0,0.0,0.0,1.0,2000000000,0,,,0
1449617324413402104,63,1449617324413043760,/odom,ga,2,2,0,0.0,0.0,0.0,0.0,0.0,0.0,0.0,0.15,0.15,0.01,0.0,1.0,0.0,1.0,2000000000,0,,,0
1449617324489268911,64,1449617324488602375,/odom,ga,1,0,0,0.0,0.0,0.0,0.0,0.0,0.0,1.0,0.25,0.15,0.0,1.0,0.0,0.0,1.0,2000000000,0,,,0
1449617324489280691,65,1449617324488828849,/odom,ga,2,2,0,0.0,0.0,0.0,0.0,0.0,0.0,0.0,0.15,0.15,0.01,0.0,1.0,0.0,1.0,2000000000,0,,,0
1449617324601716836,66,1449617324593296223,/odom,ga,1,0,0,0.0,0.0,0.0,0.0,0.0,0.0,1.0,0.25,0.15,0.0,1.0,0.0,0.0,1.0,2000000000,0,,,0
1449617324601721398,67,1449617324593538707,/odom,ga,2,2,0,0.0,0.0,0.0,0.0,0.0,0.0,0.0,0.15,0.15,0.01,0.0,1.0,0.0,1.0,2000000000,0,,,0
1449617324700264720,68,1449617324699177086,/odom,ga,1,0,0,0.0,0.0,0.0,0.0,0.0,0.0,1.0,0.25,0.15,0.0,1.0,0.0,0.0,1.0,2000000000,0,,,0
1449617324700287187,69,1449617324699642055,/odom,ga,2,2,0,0.0,0.0,0.0,0.0,0.0,0.0,0.0,0.15,0.15,0.01,0.0,1.0,0.0,1.0,2000000000,0,,,0
1449617324808045364,70,1449617324805939129,/odom,ga,1,0,0,0.0,0.0,0.0,0.0,0.0,0.0,1.0,0.25,0.15,0.0,1.0,0.0,0.0,1.0,2000000000,0,,,0
1449617324808048654,71,1449617324806362853,/odom,ga,2,2,0,0.0,0.0,0.0,0.0,0.0,0.0,0.0,0.15,0.15,0.01,0.0,1.0,0.0,1.0,2000000000,0,,,0
1449617324894239815,72,1449617324892251019,/odom,ga,1,0,0,0.0,0.0,0.0,0.0,0.0,0.0,1.0,0.25,0.15,0.0,1.0,0.0,0.0,1.0,2000000000,0,,,0
1449617324894246854,73,1449617324892786332,/odom,ga,2,2,0,0.0,0.0,0.0,0.0,0.0,0.0,0.0,0.15,0.15,0.01,0.0,1.0,0.0,1.0,2000000000,0,,,0
1449617324990027497,74,1449617324989204380,/odom,ga,1,0,0,0.0,0.0,0.0,0.0,0.0,0.0,1.0,0.25,0.15,0.0,1.0,0.0,0.0,1.0,2000000000,0,,,0
1449617324990030274,75,1449617324989470968,/odom,ga,2,2,0,0.0,0.0,0.0,0.0,0.0,0.0,0.0,0.15,0.15,0.01,0.0,1.0,0.0,1.0,2000000000,0,,,0
1449617325091524836,76,1449617325090867709,/odom,ga,1,0,0,0.0,0.0,0.0,0.0,0.0,0.0,1.0,0.25,0.15,0.0,1.0,0.0,0.0,1.0,2000000000,0,,,0
1449617325091536691,77,1449617325091121224,/odom,ga,2,2,0,0.0,0.0,0.0,0.0,0.0,0.0,0.0,0.15,0.15,0.01,0.0,1.0,0.0,1.0,2000000000,0,,,0
1449617325184315981,78,1449617325182864516,/odom,ga,1,0,0,0.0,0.0,0.0,0.0,0.0,0.0,1.0,0.25,0.15,0.0,1.0,0.0,0.0,1.0,2000000000,0,,,0
1449617325184341206,79,1449617325183694914,/odom,ga,2,2,0,0.0,0.0,0.0,0.0,0.0,0.0,0.0,0.15,0.15,0.01,0.0,1.0,0.0,1.0,2000000000,0,,,0
1449617325278068675,80,1449617325277508734,/odom,ga,1,0,0,0.0,0.0,0.0,0.0,0.0,0.0,1.0,0.25,0.15,0.0,1.0,0.0,0.0,1.0,2000000000,0,,,0
1449617325278139065,81,1449617325277791403,/odom,ga,2,2,0,0.0,0.0,0.0,0.0,0.0,0.0,0.0,0.15,0.15,0.01,0.0,1.0,0.0,1.0,2000000000,0,,,0
1449617325378129197,82,1449617325377370094,/odom,ga,1,0,0,0.0,0.0,0.0,0.0,0.0,0.0,1.0,0.25,0.15,0.0,1.0,0.0,0.0,1.0,2000000000,0,,,0
1449617325378151195,83,1449617325377563281,/odom,ga,2,2,0,0.0,0.0,0.0,0.0,0.0,0.0,0.0,0.15,0.15,0.01,0.0,1.0,0.0,1.0,2000000000,0,,,0
1449617325497093646,84,1449617325496495886,/odom,ga,1,0,0,0.0,0.0,0.0,0.0,0.0,0.0,1.0,0.25,0.15,0.0,1.0,0.0,0.0,1.0,2000000000,0,,,0
1449617325497528803,85,1449617325497345904,/odom,ga,2,2,0,0.0,0.0,0.0,0.0,0.0,0.0,0.0,0.15,0.15,0.01,0.0,1.0,0.0,1.0,2000000000,0,,,0
1449617325595256645,86,1449617325594481926,/odom,ga,1,0,0,0.0,0.0,0.0,0.0,0.0,0.0,1.0,0.25,0.15,0.0,1.0,0.0,0.0,1.0,2000000000,0,,,0
1449617325595274695,87,1449617325594745016,/odom,ga,2,2,0,0.0,0.0,0.0,0.0,0.0,0.0,0.0,0.15,0.15,0.01,0.0,1.0,0.0,1.0,2000000000,0,,,0
1449617325678209522,88,1449617325676890163,/odom,ga,1,0,0,0.0,0.0,0.0,0.0,0.0,0.0,1.0,0.25,0.15,0.0,1.0,0.0,0.0,1.0,2000000000,0,,,0
1449617325678214517,89,1449617325677309485,/odom,ga,2,2,0,0.0,0.0,0.0,0.0,0.0,0.0,0.0,0.15,0.15,0.01,0.0,1.0,0.0,1.0,2000000000,0,,,0
1449617325783415434,90,1449617325783166857,/odom,ga,1,0,0,0.0,0.0,0.0,0.0,0.0,0.0,1.0,0.25,0.15,0.0,1.0,0.0,0.0,1.0,2000000000,0,,,0
1449617325784212980,91,1449617325783326223,/odom,ga,2,2,0,0.0,0.0,0.0,0.0,0.0,0.0,0.0,0.15,0.15,0.01,0.0,1.0,0.0,1.0,2000000000,0,,,0
1449617325913921546,92,1449617325913668300,/odom,ga,1,0,0,0.0,0.0,0.0,0.0,0.0,0.0,1.0,0.25,0.15,0.0,1.0,0.0,0.0,1.0,2000000000,0,,,0
1449617325914457733,93,1449617325913970398,/odom,ga,2,2,0,0.0,0.0,0.0,0.0,0.0,0.0,0.0,0.15,0.15,0.01,0.0,1.0,0.0,1.0,2000000000,0,,,0
1449617325985531529,94,1449617325983820469,/odom,ga,1,0,0,0.0,0.0,0.0,0.0,0.0,0.0,1.0,0.25,0.15,0.0,1.0,0.0,0.0,1.0,2000000000,0,,,0
1449617325985628874,95,1449617325984211892,/odom,ga,2,2,0,0.0,0.0,0.0,0.0,0.0,0.0,0.0,0.15,0.15,0.01,0.0,1.0,0.0,1.0,2000000000,0,,,0
1449617326099944577,96,1449617326098620207,/odom,ga,1,0,0,0.0,0.0,0.0,0.0,0.0,0.0,1.0,0.25,0.15,0.0,1.0,0.0,0.0,1.0,2000000000,0,,,0
1449617326099976353,97,1449617326099256674,/odom,ga,2,2,0,0.0,0.0,0.0,0.0,0.0,0.0,0.0,0.15,0.15,0.01,0.0,1.0,0.0,1.0,2000000000,0,,,0
1449617326178645299,98,1449617326176845021,/odom,ga,1,0,0,0.0,0.0,0.0,0.0,0.0,0.0,1.0,0.25,0.15,0.0,1.0,0.0,0.0,1.0,2000000000,0,,,0
1449617326178658918,99,1449617326177422934,/odom,ga,2,2,0,0.0,0.0,0.0,0.0,0.0,0.0,0.0,0.15,0.15,0.01,0.0,1.0,0.0,1.0,2000000000,0,,,0
1449617326280213613,100,1449617326280004474,/odom,ga,1,0,0,0.0,0.0,0.0,0.0,0.0,0.0,1.0,0.25,0.15,0.0,1.0,0.0,0.0,1.0,2000000000,0,,,0
1449617326280990002,101,1449617326280484212,/odom,ga,2,2,0,0.0,0.0,0.0,0.0,0.0,0.0,0.0,0.15,0.15,0.01,0.0,1.0,0.0,1.0,2000000000,0,,,0
1449617326409577074,102,1449617326408811648,/odom,ga,1,0,0,0.0,0.0,0.0,0.0,0.0,0.0,1.0,0.25,0.15,0.0,1.0,0.0,0.0,1.0,2000000000,0,,,0
1449617326409752912,103,1449617326409281227,/odom,ga,2,2,0,0.0,0.0,0.0,0.0,0.0,0.0,0.0,0.15,0.15,0.01,0.0,1.0,0.0,1.0,2000000000,0,,,0
1449617326479424556,104,1449617326476621482,/odom,ga,1,0,0,0.0,0.0,0.0,0.0,0.0,0.0,1.0,0.25,0.15,0.0,1.0,0.0,0.0,1.0,2000000000,0,,,0
1449617326479434482,105,1449617326476784731,/odom,ga,2,2,0,0.0,0.0,0.0,0.0,0.0,0.0,0.0,0.15,0.15,0.01,0.0,1.0,0.0,1.0,2000000000,0,,,0
1449617326579834852,106,1449617326578436606,/odom,ga,1,0,0,0.0,0.0,0.0,0.0,0.0,0.0,1.0,0.25,0.15,0.0,1.0,0.0,0.0,1.0,2000000000,0,,,0
1449617326579849805,107,1449617326578912366,/odom,ga,2,2,0,0.0,0.0,0.0,0.0,0.0,0.0,0.0,0.15,0.15,0.01,0.0,1.0,0.0,1.0,2000000000,0,,,0
1449617326685393511,108,1449617326684804379,/odom,ga,1,0,0,0.0,0.0,0.0,0.0,0.0,0.0,1.0,0.25,0.15,0.0,1.0,0.0,0.0,1.0,2000000000,0,,,0
1449617326685397251,109,1449617326685124911,/odom,ga,2,2,0,2.58829593658,-0.125868350267,0.669586718082,0.0,0.0,0.0,0.0,0.15,0.15,0.01,0.0,1.0,0.0,1.0,2000000000,0,,,0
1449617326779117007,110,1449617326778241580,/odom,ga,1,0,0,0.0,0.0,0.0,0.0,0.0,0.0,1.0,0.25,0.15,0.0,1.0,0.0,0.0,1.0,2000000000,0,,,0
1449617326779135146,111,1449617326778518313,/odom,ga,2,2,0,2.5406358242,-0.143056958914,0.678675472736,0.0,0.0,0.0,0.0,0.15,0.15,0.01,0.0,1.0,0.0,1.0,2000000000,0,,,0
1449617326885755113,112,1449617326884936278,/odom,ga,1,0,0,0.0,0.0,0.0,0.0,0.0,0.0,1.0,0.25,0.15,0.0,1.0,0.0,0.0,1.0,2000000000,0,,,0
1449617326885759273,113,1449617326885306218,/odom,ga,2,2,0,2.53450989723,-0.127041786909,0.659447789192,0.0,0.0,0.0,0.0,0.15,0.15,0.01,0.0,1.0,0.0,1.0,2000000000,0,,,0
1449617326980930387,114,1449617326980761356,/odom,ga,1,0,0,0.0,0.0,0.0,0.0,0.0,0.0,1.0,0.25,0.15,0.0,1.0,0.0,0.0,1.0,2000000000,0,,,0
1449617326981418145,115,1449617326981085863,/odom,ga,2,2,0,2.53450989723,-0.127041786909,0.659447789192,0.0,0.0,0.0,0.0,0.15,0.15,0.01,0.0,1.0,0.0,1.0,2000000000,0,,,0
1449617327081954852,116,1449617327081307914,/odom,ga,1,0,0,0.0,0.0,0.0,0.0,0.0,0.0,1.0,0.25,0.15,0.0,1.0,0.0,0.0,1.0,2000000000,0,,,0
1449617327081958937,117,1449617327081547571,/odom,ga,2,2,0,2.53450989723,-0.127041786909,0.659447789192,0.0,0.0,0.0,0.0,0.15,0.15,0.01,0.0,1.0,0.0,1.0,2000000000,0,,,0
1449617327193022089,118,1449617327192663285,/odom,ga,1,0,0,0.0,0.0,0.0,0.0,0.0,0.0,1.0,0.25,0.15,0.0,1.0,0.0,0.0,1.0,2000000000,0,,,0
1449617327193149818,119,1449617327192975232,/odom,ga,2,2,0,2.53450989723,-0.127041786909,0.659447789192,0.0,0.0,0.0,0.0,0.15,0.15,0.01,0.0,1.0,0.0,1.0,2000000000,0,,,0
1449617327310364389,120,1449617327309656165,/odom,ga,1,0,0,0.0,0.0,0.0,0.0,0.0,0.0,1.0,0.25,0.15,0.0,1.0,0.0,0.0,1.0,2000000000,0,,,0
1449617327310380593,121,1449617327309956091,/odom,ga,2,2,0,2.53450989723,-0.127041786909,0.659447789192,0.0,0.0,0.0,0.0,0.15,0.15,0.01,0.0,1.0,0.0,1.0,2000000000,0,,,0
1449617327381862973,122,1449617327380739772,/odom,ga,1,0,0,0.0,0.0,0.0,0.0,0.0,0.0,1.0,0.25,0.15,0.0,1.0,0.0,0.0,1.0,2000000000,0,,,0
1449617327381872986,123,1449617327380960293,/odom,ga,2,2,0,2.55859661102,-0.128684520721,0.688335478306,0.0,0.0,0.0,0.0,0.15,0.15,0.01,0.0,1.0,0.0,1.0,2000000000,0,,,0
1449617327477732206,124,1449617327476775030,/odom,ga,1,0,0,0.0,0.0,0.0,0.0,0.0,0.0,1.0,0.25,0.15,0.0,1.0,0.0,0.0,1.0,2000000000,0,,,0
1449617327477736634,125,1449617327477146268,/odom,ga,2,2,0,2.55859661102,-0.128684520721,0.688335478306,0.0,0.0,0.0,0.0,0.15,0.15,0.01,0.0,1.0,0.0,1.0,2000000000,0,,,0
1449617327577857401,126,1449617327577160403,/odom,ga,1,0,0,0.0,0.0,0.0,0.0,0.0,0.0,1.0,0.25,0.15,0.0,1.0,0.0,0.0,1.0,2000000000,0,,,0
1449617327577861187,127,1449617327577437220,/odom,ga,2,2,0,2.55859661102,-0.128684520721,0.688335478306,0.0,0.0,0.0,0.0,0.15,0.15,0.01,0.0,1.0,0.0,1.0,2000000000,0,,,0
1449617327710612402,128,1449617327709866482,/odom,ga,1,0,0,0.0,0.0,0.0,0.0,0.0,0.0,1.0,0.25,0.15,0.0,1.0,0.0,0.0,1.0,2000000000,0,,,0
1449617327713899095,129,1449617327710346929,/odom,ga,2,2,0,2.53612804413,-0.149262398481,0.678116321564,0.0,0.0,0.0,0.0,0.15,0.15,0.01,0.0,1.0,0.0,1.0,2000000000,0,,,0
1449617327786504648,130,1449617327785475808,/odom,ga,1,0,0,0.00287963245437,3.04332289367e-05,0.0,0.0,0.0,0.0052839997518,0.999986039576,0.25,0.15,0.0,1.0,0.0,0.0,1.0,2000000000,0,,,0
1449617327786507444,131,1449617327785994242,/odom,ga,2,2,0,2.4918551445,-0.162504866719,0.648960471153,0.0,0.0,0.0,0.0,0.15,0.15,0.01,0.0,1.0,0.0,1.0,2000000000,0,,,0
1449617327911555159,132,1449617327910833463,/odom,ga,1,0,0,0.00575942572016,3.04332289367e-05,0.0,0.0,0.0,0.0,1.0,0.25,0.15,0.0,1.0,0.0,0.0,1.0,2000000000,0,,,0
1449617327911558336,133,1449617327911200334,/odom,ga,2,2,0,2.4918551445,-0.162504866719,0.648960471153,0.0,0.0,0.0,0.0,0.15,0.15,0.01,0.0,1.0,0.0,1.0,2000000000,0,,,0
1449617327985598687,134,1449617327985115106,/odom,ga,1,0,0,0.00863905817453,6.08664578733e-05,0.0,0.0,0.0,0.0052839997518,0.999986039576,0.25,0.15,0.0,1.0,0.0,0.0,1.0,2000000000,0,,,0
1449617327987598339,135,1449617327986103519,/odom,ga,2,2,0,2.51709222794,-0.153543442488,0.667626440525,0.0,0.0,0.0,0.0,0.15,0.15,0.01,0.0,1.0,0.0,1.0,2000000000,0,,,0
1449617328099047556,136,1449617328098456526,/odom,ga,1,0,0,0.0115188514403,6.08664578733e-05,0.0,0.0,0.0,0.0,1.0,0.25,0.15,0.0,1.0,0.0,0.0,1.0,2000000000,0,,,0
1449617328100792660,137,1449617328100154193,/odom,ga,2,2,0,2.51709222794,-0.153543442488,0.667626440525,0.0,0.0,0.0,0.0,0.15,0.15,0.01,0.0,1.0,0.0,1.0,2000000000,0,,,0
1449617328178675305,138,1449617328177969511,/odom,ga,1,0,0,0.0230380245035,6.08664578733e-05,0.0,0.0,0.0,0.0,1.0,0.25,0.15,0.0,1.0,0.0,0.0,1.0,2000000000,0,,,0
1449617328178678430,139,1449617328178269228,/odom,ga,2,2,0,2.51709222794,-0.153543442488,0.667626440525,0.0,0.0,0.0,0.0,0.15,0.15,0.01,0.0,1.0,0.0,1.0,2000000000,0,,,0
1449617328298875656,140,1449617328297402462,/odom,ga,1,0,0,0.0287976110351,6.08664578733e-05,0.0,0.0,0.0,0.0,1.0,0.25,0.15,0.0,1.0,0.0,0.0,1.0,2000000000,0,,,0
1449617328298886286,141,1449617328297890387,/odom,ga,2,2,0,2.51709222794,-0.153543442488,0.667626440525,0.0,0.0,0.0,0.0,0.15,0.15,0.01,0.0,1.0,0.0,1.0,2000000000,0,,,0
1449617328398150228,142,1449617328397455591,/odom,ga,1,0,0,0.0431957733069,-9.129968681e-05,0.0,0.0,0.0,-0.0052839997518,0.999986039576,0.25,0.15,0.0,1.0,0.0,0.0,1.0,2000000000,0,,,0
1449617328398155819,143,1449617328397839601,/odom,ga,2,2,0,2.52529382706,-0.163322269917,0.668693900108,0.0,0.0,0.0,0.0,0.15,0.15,0.01,0.0,1.0,0.0,1.0,2000000000,0,,,0
1449617328489667018,144,1449617328488692258,/odom,ga,1,0,0,0.0575924883299,-0.000334755321716,0.0,0.0,0.0,-0.0105678519699,0.999944158693,0.25,0.15,0.0,1.0,0.0,0.0,1.0,2000000000,0,,,0
1449617328489765918,145,1449617328489016472,/odom,ga,2,2,0,2.52529382706,-0.163322269917,0.668693900108,0.0,0.0,0.0,0.0,0.15,0.15,0.01,0.0,1.0,0.0,1.0,2000000000,0,,,0
1449617328606880463,146,1449617328604847441,/odom,ga,1,0,0,0.0691090884822,-0.000578207557759,0.0,0.0,0.0,-0.0105678519699,0.999944158693,0.25,0.15,0.0,1.0,0.0,0.0,1.0,2000000000,0,,,0
1449617328606885093,147,1449617328605608918,/odom,ga,2,2,0,2.52529382706,-0.163322269917,0.668693900108,0.0,0.0,0.0,0.0,0.15,0.15,0.01,0.0,1.0,0.0,1.0,2000000000,0,,,0
1449617328683432563,148,1449617328680243313,/odom,ga,1,0,0,0.0921422887868,-0.00106511202984,0.0,0.0,0.0,-0.0105678519699,0.999944158693,0.25,0.15,0.0,1.0,0.0,0.0,1.0,2000000000,0,,,0
1449617328683437012,149,1449617328680909291,/odom,ga,2,2,0,2.52529382706,-0.163322269917,0.668693900108,0.0,0.0,0.0,0.0,0.15,0.15,0.01,0.0,1.0,0.0,1.0,2000000000,0,,,0
1449617328805640185,150,1449617328804540099,/odom,ga,1,0,0,0.115175489091,-0.00155201650193,0.0,0.0,0.0,-0.0105678519699,0.999944158693,0.25,0.15,0.0,1.0,0.0,0.0,1.0,2000000000,0,,,0
1449617328805643170,151,1449617328805047405,/odom,ga,2,2,0,0.0,0.0,0.0,0.0,0.0,0.0,0.0,0.15,0.15,0.01,0.0,1.0,0.0,1.0,2000000000,0,,,0
1449617328876281787,152,1449617328875564060,/odom,ga,1,0,0,0.141082211663,-0.00231274526213,0.0,0.0,0.0,-0.0158514091245,0.999874358521,0.25,0.15,0.0,1.0,0.0,0.0,1.0,2000000000,0,,,0
1449617328876286621,153,1449617328876033180,/odom,ga,2,2,0,2.52231884003,-0.15302105248,0.697673380375,0.0,0.0,0.0,0.0,0.15,0.15,0.01,0.0,1.0,0.0,1.0,2000000000,0,,,0
1449617328977649107,154,1449617328977009255,/odom,ga,1,0,0,0.158352288088,-0.00286046181256,0.0,0.0,0.0,-0.0158514091245,0.999874358521,0.25,0.15,0.0,1.0,0.0,0.0,1.0,2000000000,0,,,0
1449617328977657927,155,1449617328977407914,/odom,ga,2,2,0,2.52231884003,-0.15302105248,0.697673380375,0.0,0.0,0.0,0.0,0.15,0.15,0.01,0.0,1.0,0.0,1.0,2000000000,0,,,0
1449617329086252335,156,1449617329086005008,/odom,ga,1,0,0,0.175622364512,-0.003408178363,0.0,0.0,0.0,-0.0158514091245,0.999874358521,0.25,0.15,0.0,1.0,0.0,0.0,1.0,2000000000,0,,,0
1449617329086459050,157,1449617329086298298,/odom,ga,2,2,0,0.0,0.0,0.0,0.0,0.0,0.0,0.0,0.15,0.15,0.01,0.0,1.0,0.0,1.0,2000000000,0,,,0
1449617329188298123,158,1449617329182657605,/odom,ga,1,0,0,0.207276293291,-0.00462521523575,0.0,0.0,0.0,-0.0211345236944,0.999776641009,0.25,0.15,0.0,1.0,0.0,0.0,1.0,2000000000,0,,,0
1449617329188306032,159,1449617329183081888,/odom,ga,2,2,0,0.0,0.0,0.0,0.0,0.0,0.0,0.0,0.15,0.15,0.01,0.0,1.0,0.0,1.0,2000000000,0,,,0
1449617329289791452,160,1449617329289628581,/odom,ga,1,0,0,0.230294058429,-0.00559880667094,0.0,0.0,0.0,-0.0211345236944,0.999776641009,0.25,0.15,0.0,1.0,0.0,0.0,1.0,2000000000,0,,,0
1449617329293867192,161,1449617329290114921,/odom,ga,2,2,0,2.54021453857,-0.145616441965,0.717299461365,0.0,0.0,0.0,0.0,0.15,0.15,0.01,0.0,1.0,0.0,1.0,2000000000,0,,,0
1449617329395005353,162,1449617329385837761,/odom,ga,1,0,0,0.264794505278,-0.0075758960722,0.0,0.0,0.0,-0.0316988350601,0.999497465658,0.25,0.15,0.0,1.0,0.0,0.0,1.0,2000000000,0,,,0
1449617329395008717,163,1449617329386092716,/odom,ga,2,2,0,2.54021453857,-0.145616441965,0.717299461365,0.0,0.0,0.0,0.0,0.15,0.15,0.01,0.0,1.0,0.0,1.0,2000000000,0,,,0
1449617329476469215,164,1449617329475944721,/odom,ga,1,0,0,0.284924922426,-0.00864058330002,0.0,0.0,0.0,-0.0264170481704,0.999651008886,0.25,0.15,0.0,1.0,0.0,0.0,1.0,2000000000,0,,,0
1449617329476472175,165,1449617329476175344,/odom,ga,2,2,0,2.51867938042,-0.1511952281,0.69771027565,0.0,0.0,0.0,0.0,0.15,0.15,0.01,0.0,1.0,0.0,1.0,2000000000,0,,,0
1449617329593961127,166,1449617329592628663,/odom,ga,1,0,0,0.322292303463,-0.0109216821731,0.0,0.0,0.0,-0.0316988350601,0.999497465658,0.25,0.15,0.0,1.0,0.0,0.0,1.0,2000000000,0,,,0
1449617329593965313,167,1449617329592934447,/odom,ga,2,2,0,2.51867938042,-0.1511952281,0.69771027565,0.0,0.0,0.0,0.0,0.15,0.15,0.01,0.0,1.0,0.0,1.0,2000000000,0,,,0
1449617329680218726,168,1449617329679841710,/odom,ga,1,0,0,0.342404078302,-0.0122901308541,0.0,0.0,0.0,-0.0369797368913,0.999316015612,0.25,0.15,0.0,1.0,0.0,0.0,1.0,2000000000,0,,,0
1449617329680221880,169,1449617329680000597,/odom,ga,2,2,0,2.58878827095,-0.1186594069,0.708058476448,0.0,0.0,0.0,0.0,0.15,0.15,0.01,0.0,1.0,0.0,1.0,2000000000,0,,,0
1449617329785991216,170,1449617329781646404,/odom,ga,1,0,0,0.376877527183,-0.0146924292261,0.0,0.0,0.0,-0.0369797368913,0.999316015612,0.25,0.15,0.0,1.0,0.0,0.0,1.0,2000000000,0,,,0
1449617329785995880,171,1449617329782328089,/odom,ga,2,2,0,2.58878827095,-0.1186594069,0.708058476448,0.0,0.0,0.0,0.0,0.15,0.15,0.01,0.0,1.0,0.0,1.0,2000000000,0,,,0
1449617329881773625,172,1449617329881499293,/odom,ga,1,0,0,0.408456566179,-0.0171853852239,0.0,0.0,0.0,-0.042259606217,0.999106663816,0.25,0.15,0.0,1.0,0.0,0.0,1.0,2000000000,0,,,0
1449617329882091190,173,1449617329881760200,/odom,ga,2,2,0,2.58878827095,-0.1186594069,0.708058476448,0.0,0.0,0.0,0.0,0.15,0.15,0.01,0.0,1.0,0.0,1.0,2000000000,0,,,0
1449617329981307907,174,1449617329981111538,/odom,ga,1,0,0,0.442897883569,-0.0200125359703,0.0,0.0,0.0,-0.042259606217,0.999106663816,0.25,0.15,0.0,1.0,0.0,0.0,1.0,2000000000,0,,,0
1449617329982004275,175,1449617329981509886,/odom,ga,2,2,0,2.58878827095,-0.1186594069,0.708058476448,0.0,0.0,0.0,0.0,0.15,0.15,0.01,0.0,1.0,0.0,1.0,2000000000,0,,,0
1449617330077518964,176,1449617330076786406,/odom,ga,1,0,0,0.465853942514,-0.0219579793518,0.0,0.0,0.0,-0.042259606217,0.999106663816,0.25,0.15,0.0,1.0,0.0,0.0,1.0,2000000000,0,,,0
1449617330077699206,177,1449617330077262129,/odom,ga,2,2,0,2.58878827095,-0.1186594069,0.708058476448,0.0,0.0,0.0,0.0,0.15,0.15,0.01,0.0,1.0,0.0,1.0,2000000000,0,,,0
1449617330182519260,178,1449617330180675766,/odom,ga,1,0,0,0.503122046587,-0.0255133671912,0.0,0.0,0.0,-0.0475382956186,0.998869416115,0.25,0.15,0.0,1.0,0.0,0.0,1.0,2000000000,0,,,0
1449617330182523231,179,1449617330181211291,/odom,ga,2,2,0,2.5673866272,-0.134662151337,0.728251338005,0.0,0.0,0.0,0.0,0.15,0.15,0.01,0.0,1.0,0.0,1.0,2000000000,0,,,0
1449617330305443584,180,1449617330304436654,/odom,ga,1,0,0,0.526041012974,-0.0278527001961,0.0,0.0,0.0,-0.0475382956186,0.998869416115,0.25,0.15,0.0,1.0,0.0,0.0,1.0,2000000000,0,,,0
1449617330306481217,181,1449617330305695862,/odom,ga,2,2,0,2.5673866272,-0.134662151337,0.728251338005,0.0,0.0,0.0,0.0,0.15,0.15,0.01,0.0,1.0,0.0,1.0,2000000000,0,,,0
1449617330388017178,182,1449617330387856974,/odom,ga,1,0,0,0.563269463134,-0.031801733305,0.0,0.0,0.0,-0.0528156577107,0.998604279132,0.25,0.15,0.0,1.0,0.0,0.0,1.0,2000000000,0,,,0
1449617330388452486,183,1449617330388228792,/odom,ga,2,2,0,2.5673866272,-0.134662151337,0.728251338005,0.0,0.0,0.0,0.0,0.15,0.15,0.01,0.0,1.0,0.0,1.0,2000000000,0,,,0
1449617330489585203,184,1449617330489057804,/odom,ga,1,0,0,0.589012674389,-0.0348078976174,0.0,0.0,0.0,-0.0580915451448,0.99831126027,0.25,0.15,0.0,1.0,0.0,0.0,1.0,2000000000,0,,,0
1449617330489608274,185,1449617330489272647,/odom,ga,2,2,0,2.5673866272,-0.134662151337,0.728251338005,0.0,0.0,0.0,0.0,0.15,0.15,0.01,0.0,1.0,0.0,1.0,2000000000,0,,,0
1449617330582010998,186,1449617330579565156,/odom,ga,1,0,0,0.626167796214,-0.0393918083599,0.0,0.0,0.0,-0.0633658106137,0.997990367712,0.25,0.15,0.0,1.0,0.0,0.0,1.0,2000000000,0,,,0
1449617330582014912,187,1449617330580417882,/odom,ga,2,2,0,2.5673866272,-0.134662151337,0.728251338005,0.0,0.0,0.0,0.0,0.15,0.15,0.01,0.0,1.0,0.0,1.0,2000000000,0,,,0
1449617330685539422,188,1449617330685259218,/odom,ga,1,0,0,0.64902113401,-0.0423056278177,0.0,0.0,0.0,-0.0633658106137,0.997990367712,0.25,0.15,0.0,1.0,0.0,0.0,1.0,2000000000,0,,,0
1449617330686380428,189,1449617330685886646,/odom,ga,2,2,0,2.5673866272,-0.134662151337,0.728251338005,0.0,0.0,0.0,0.0,0.15,0.15,0.01,0.0,1.0,0.0,1.0,2000000000,0,,,0
1449617330830695539,190,1449617330830326339,/odom,ga,1,0,0,0.680416413128,-0.0465233090541,0.0,0.0,0.0,-0.0686383068554,0.997641610415,0.25,0.15,0.0,1.0,0.0,0.0,1.0,2000000000,0,,,0
1449617330832279234,191,1449617330831069912,/odom,ga,2,2,0,2.5673866272,-0.134662151337,0.728251338005,0.0,0.0,0.0,0.0,0.15,0.15,0.01,0.0,1.0,0.0,1.0,2000000000,0,,,0
1449617330889795112,192,1449617330886331963,/odom,ga,1,0,0,0.717479338895,-0.0518010783908,0.0,0.0,0.0,-0.0739088866573,0.997264998119,0.25,0.15,0.0,1.0,0.0,0.0,1.0,2000000000,0,,,0
1449617330889799338,193,1449617330886642525,/odom,ga,2,2,0,2.5391125679,-0.133132964373,0.738399922848,0.0,0.0,0.0,0.0,0.15,0.15,0.01,0.0,1.0,0.0,1.0,2000000000,0,,,0
1449617331014119052,194,1449617331010421496,/odom,ga,1,0,0,0.740265990006,-0.05519724143,0.0,0.0,0.0,-0.0739088866573,0.997264998119,0.25,0.15,0.0,1.0,0.0,0.0,1.0,2000000000,0,,,0
1449617331014123946,195,1449617331010704320,/odom,ga,2,2,0,2.5391125679,-0.133132964373,0.738399922848,0.0,0.0,0.0,0.0,0.15,0.15,0.01,0.0,1.0,0.0,1.0,2000000000,0,,,0
1449617331080890334,196,1449617331080400463,/odom,ga,1,0,0,0.771565118021,-0.0600775048798,0.0,0.0,0.0,-0.0791774028604,0.996860541338,0.25,0.15,0.0,1.0,0.0,0.0,1.0,2000000000,0,,,0
1449617331080893207,197,1449617331080586538,/odom,ga,2,2,0,2.56915903091,-0.141274064779,0.748321354389,0.0,0.0,0.0,0.0,0.15,0.15,0.01,0.0,1.0,0.0,1.0,2000000000,0,,,0
1449617331176618150,198,1449617331176375709,/odom,ga,1,0,0,0.800001978679,-0.0646234790658,0.0,0.0,0.0,-0.0791774028604,0.996860541338,0.25,0.15,0.0,1.0,0.0,0.0,1.0,2000000000,0,,,0
1449617331177358362,199,1449617331176656500,/odom,ga,2,2,0,2.57201242447,-0.140677958727,0.748111128807,0.0,0.0,0.0,0.0,0.15,0.15,0.01,0.0,1.0,0.0,1.0,2000000000,0,,,0
1449617331280378691,200,1449617331279036030,/odom,ga,1,0,0,0.822736578465,-0.0683503372188,0.0,0.0,0.0,-0.0791774028604,0.996860541338,0.25,0.15,0.0,1.0,0.0,0.0,1.0,2000000000,0,,,0
1449617331280394335,201,1449617331279581425,/odom,ga,2,2,0,2.57611250877,-0.163525491953,0.758527100086,0.0,0.0,0.0,0.0,0.15,0.15,0.01,0.0,1.0,0.0,1.0,2000000000,0,,,0
1449617331387199442,202,1449617331386303499,/odom,ga,1,0,0,0.859639979447,-0.0746504451457,0.0,0.0,0.0,-0.0844437083633,0.996428251365,0.25,0.15,0.0,1.0,0.0,0.0,1.0,2000000000,0,,,0
1449617331387208663,203,1449617331386901552,/odom,ga,2,2,0,2.56096148491,-0.158360719681,0.748630702496,0.0,0.0,0.0,0.0,0.15,0.15,0.01,0.0,1.0,0.0,1.0,2000000000,0,,,0
1449617331508872953,204,1449617331502232966,/odom,ga,1,0,0,0.879495201665,-0.0781327273846,0.0,0.0,0.0,-0.0897076561262,0.99596814027,0.25,0.15,0.0,1.0,0.0,0.0,1.0,2000000000,0,,,0
1449617331508876648,205,1449617331502471832,/odom,ga,2,2,0,2.56096148491,-0.158360719681,0.748630702496,0.0,0.0,0.0,0.0,0.15,0.15,0.01,0.0,1.0,0.0,1.0,2000000000,0,,,0
1449617331596051888,206,1449617331590318872,/odom,ga,1,0,0,0.913522919848,-0.084158016633,0.0,0.0,0.0,-0.0897076561262,0.99596814027,0.25,0.15,0.0,1.0,0.0,0.0,1.0,2000000000,0,,,0
1449617331596055244,207,1449617331591174778,/odom,ga,2,2,0,2.56096148491,-0.158360719681,0.748630702496,0.0,0.0,0.0,0.0,0.15,0.15,0.01,0.0,1.0,0.0,1.0,2000000000,0,,,0
1449617331691680618,208,1449617331690761656,/odom,ga,1,0,0,0.9418293699,-0.0894535483033,0.0,0.0,0.0,-0.0897076561262,0.99596814027,0.25,0.15,0.0,1.0,0.0,0.0,1.0,2000000000,0,,,0
1449617331691684170,209,1449617331691099397,/odom,ga,2,2,0,2.56096148491,-0.158360719681,0.748630702496,0.0,0.0,0.0,0.0,0.15,0.15,0.01,0.0,1.0,0.0,1.0,2000000000,0,,,0
1449617331782001165,210,1449617331780481854,/odom,ga,1,0,0,0.978591378394,-0.0965321848469,0.0,0.0,0.0,-0.0949690991753,0.995480220899,0.25,0.15,0.0,1.0,0.0,0.0,1.0,2000000000,0,,,0
1449617331782007567,211,1449617331781206187,/odom,ga,2,2,0,2.56096148491,-0.158360719681,0.748630702496,0.0,0.0,0.0,0.0,0.15,0.15,0.01,0.0,1.0,0.0,1.0,2000000000,0,,,0
1449617331884230280,212,1449617331883377609,/odom,ga,1,0,0,0.998368569394,-0.100433319951,0.0,0.0,0.0,-0.100227890607,0.994964506877,0.25,0.15,0.0,1.0,0.0,0.0,1.0,2000000000,0,,,0
1449617331884234686,213,1449617331883964474,/odom,ga,2,2,0,2.56096148491,-0.158360719681,0.748630702496,0.0,0.0,0.0,0.0,0.15,0.15,0.01,0.0,1.0,0.0,1.0,2000000000,0,,,0
1449617331982219970,214,1449617331980889203,/odom,ga,1,0,0,1.03502258218,-0.108049005247,0.0,0.0,0.0,-0.10548388359,0.994421012601,0.25,0.15,0.0,1.0,0.0,0.0,1.0,2000000000,0,,,0
1449617331982441984,215,1449617331981676430,/odom,ga,2,2,0,2.56096148491,-0.158360719681,0.748630702496,0.0,0.0,0.0,0.0,0.15,0.15,0.01,0.0,1.0,0.0,1.0,2000000000,0,,,0
1449617332080903701,216,1449617332079747668,/odom,ga,1,0,0,1.05757937676,-0.112733289297,0.0,0.0,0.0,-0.10548388359,0.994421012601,0.25,0.15,0.0,1.0,0.0,0.0,1.0,2000000000,0,,,0
1449617332080909918,217,1449617332080293137,/odom,ga,2,2,0,2.56096148491,-0.158360719681,0.748630702496,0.0,0.0,0.0,0.0,0.15,0.15,0.01,0.0,1.0,0.0,1.0,2000000000,0,,,0
1449617332198933468,218,1449617332198651824,/odom,ga,1,0,0,1.09136786331,-0.119983138226,0.0,0.0,0.0,-0.10548388359,0.994421012601,0.25,0.15,0.0,1.0,0.0,0.0,1.0,2000000000,0,,,0
1449617332199807276,219,1449617332199035033,/odom,ga,2,2,0,2.56096148491,-0.158360719681,0.748630702496,0.0,0.0,0.0,0.0,0.15,0.15,0.01,0.0,1.0,0.0,1.0,2000000000,0,,,0
1449617332310131030,220,1449617332309858389,/odom,ga,1,0,0,1.12791972232,-0.128074919154,0.0,0.0,0.0,-0.110736931374,0.993849753247,0.25,0.15,0.0,1.0,0.0,0.0,1.0,2000000000,0,,,0
1449617332310380618,221,1449617332310096418,/odom,ga,2,2,0,2.56096148491,-0.158360719681,0.748630702496,0.0,0.0,0.0,0.0,0.15,0.15,0.01,0.0,1.0,0.0,1.0,2000000000,0,,,0
1449617332378050269,222,1449617332377331162,/odom,ga,1,0,0,1.15326108723,-0.133512305851,0.0,0.0,0.0,-0.10548388359,0.994421012601,0.25,0.15,0.0,1.0,0.0,0.0,1.0,2000000000,0,,,0
1449617332378054646,223,1449617332377542207,/odom,ga,2,2,0,2.56096148491,-0.158360719681,0.748630702496,0.0,0.0,0.0,0.0,0.15,0.15,0.01,0.0,1.0,0.0,1.0,2000000000,0,,,0
1449617332487163682,224,1449617332486651908,/odom,ga,1,0,0,1.17576711939,-0.13843470519,0.0,0.0,0.0,-0.10548388359,0.994421012601,0.25,0.15,0.0,1.0,0.0,0.0,1.0,2000000000,0,,,0
1449617332487924835,225,1449617332487260402,/odom,ga,2,2,0,2.56096148491,-0.158360719681,0.748630702496,0.0,0.0,0.0,0.0,0.15,0.15,0.01,0.0,1.0,0.0,1.0,2000000000,0,,,0
1449617332608035410,226,1449617332606337735,/odom,ga,1,0,0,1.21228626918,-0.14667509732,0.0,0.0,0.0,-0.110736931374,0.993849753247,0.25,0.15,0.0,1.0,0.0,0.0,1.0,2000000000,0,,,0
1449617332608043910,227,1449617332607112476,/odom,ga,2,2,0,2.56096148491,-0.158360719681,0.748630702496,0.0,0.0,0.0,0.0,0.15,0.15,0.01,0.0,1.0,0.0,1.0,2000000000,0,,,0
1449617332982176583,228,1449617332980813687,/odom,ga,1,0,0,1.24601587914,-0.154192446411,0.0,0.0,0.0,-0.110736931374,0.993849753247,0.25,0.15,0.0,1.0,0.0,0.0,1.0,2000000000,0,,,0
1449617332982198684,229,1449617332981203493,/odom,ga,2,2,0,2.56096148491,-0.158360719681,0.748630702496,0.0,0.0,0.0,0.0,0.15,0.15,0.01,0.0,1.0,0.0,1.0,2000000000,0,,,0
1449617333015571497,230,1449617333008869068,/odom,ga,1,0,0,1.35015685153,-0.176724278295,0.0,0.0,0.0,-0.10548388359,0.994421012601,0.25,0.15,0.0,1.0,0.0,0.0,1.0,2000000000,0,,,0
1449617333015592183,231,1449617333009563850,/odom,ga,2,2,0,2.56096148491,-0.158360719681,0.748630702496,0.0,0.0,0.0,0.0,0.15,0.15,0.01,0.0,1.0,0.0,1.0,2000000000,0,,,0
1449617333141191614,232,1449617333132388564,/odom,ga,1,0,0,1.36426652448,-0.179596100113,0.0,0.0,0.0,-0.100227890607,0.994964506877,0.25,0.15,0.0,1.0,0.0,0.0,1.0,2000000000,0,,,0
1449617333141232974,233,1449617333133230254,/odom,ga,2,2,0,2.56096148491,-0.158360719681,0.748630702496,0.0,0.0,0.0,0.0,0.15,0.15,0.01,0.0,1.0,0.0,1.0,2000000000,0,,,0
1449617333190872920,234,1449617333190147556,/odom,ga,1,0,0,1.39812973956,-0.186488472476,0.0,0.0,0.0,-0.100227890607,0.994964506877,0.25,0.15,0.0,1.0,0.0,0.0,1.0,2000000000,0,,,0
1449617333190877561,235,1449617333190306966,/odom,ga,2,2,0,2.56096148491,-0.158360719681,0.748630702496,0.0,0.0,0.0,0.0,0.15,0.15,0.01,0.0,1.0,0.0,1.0,2000000000,0,,,0
1449617333286770545,236,1449617333286099677,/odom,ga,1,0,0,1.4122689736,-0.189211024993,0.0,0.0,0.0,-0.0949690991753,0.995480220899,0.25,0.15,0.0,1.0,0.0,0.0,1.0,2000000000,0,,,0
1449617333286776479,237,1449617333286263794,/odom,ga,2,2,0,2.56096148491,-0.158360719681,0.748630702496,0.0,0.0,0.0,0.0,0.15,0.15,0.01,0.0,1.0,0.0,1.0,2000000000,0,,,0
1449617333388695605,238,1449617333387037082,/odom,ga,1,0,0,1.44618539863,-0.195834712614,0.0,0.0,0.0,-0.0949690991753,0.995480220899,0.25,0.15,0.0,1.0,0.0,0.0,1.0,2000000000,0,,,0
1449617333388705162,239,1449617333387478798,/odom,ga,2,2,0,2.56096148491,-0.158360719681,0.748630702496,0.0,0.0,0.0,0.0,0.15,0.15,0.01,0.0,1.0,0.0,1.0,2000000000,0,,,0
1449617333495361013,240,1449617333495173821,/odom,ga,1,0,0,1.46882496228,-0.200101052623,0.0,0.0,0.0,-0.0949690991753,0.995480220899,0.25,0.15,0.0,1.0,0.0,0.0,1.0,2000000000,0,,,0
1449617333496806068,241,1449617333495993394,/odom,ga,2,2,0,2.56096148491,-0.158360719681,0.748630702496,0.0,0.0,0.0,0.0,0.15,0.15,0.01,0.0,1.0,0.0,1.0,2000000000,0,,,0
1449617333620107054,242,1449617333618869191,/odom,ga,1,0,0,1.50285268046,-0.206126341872,0.0,0.0,0.0,-0.0844437083633,0.996428251365,0.25,0.15,0.0,1.0,0.0,0.0,1.0,2000000000,0,,,0
1449617333620111478,243,1449617333619654242,/odom,ga,2,2,0,2.56096148491,-0.158360719681,0.748630702496,0.0,0.0,0.0,0.0,0.15,0.15,0.01,0.0,1.0,0.0,1.0,2000000000,0,,,0
1449617333686652887,244,1449617333685775199,/odom,ga,1,0,0,1.53978089601,-0.212276318458,0.0,0.0,0.0,-0.0791774028604,0.996860541338,0.25,0.15,0.0,1.0,0.0,0.0,1.0,2000000000,0,,,0
1449617333686656568,245,1449617333686308796,/odom,ga,2,2,0,2.56096148491,-0.158360719681,0.748630702496,0.0,0.0,0.0,0.0,0.15,0.15,0.01,0.0,1.0,0.0,1.0,2000000000,0,,,0
1449617333805858549,246,1449617333803954630,/odom,ga,1,0,0,1.55970063444,-0.215368269272,0.0,0.0,0.0,-0.0739088866573,0.997264998119,0.25,0.15,0.0,1.0,0.0,0.0,1.0,2000000000,0,,,0
1449617333805870015,247,1449617333804482982,/odom,ga,2,2,0,2.56096148491,-0.158360719681,0.748630702496,0.0,0.0,0.0,0.0,0.15,0.15,0.01,0.0,1.0,0.0,1.0,2000000000,0,,,0
1449617333901825341,248,1449617333894392805,/odom,ga,1,0,0,1.59385738449,-0.220612899024,0.0,0.0,0.0,-0.0739088866573,0.997264998119,0.25,0.15,0.0,1.0,0.0,0.0,1.0,2000000000,0,,,0
1449617333901833894,249,1449617333894860522,/odom,ga,2,2,0,2.56096148491,-0.158360719681,0.748630702496,0.0,0.0,0.0,0.0,0.15,0.15,0.01,0.0,1.0,0.0,1.0,2000000000,0,,,0
1449617333987723343,250,1449617333986998017,/odom,ga,1,0,0,1.61669067918,-0.223677560969,0.0,0.0,0.0,-0.0633658106137,0.997990367712,0.25,0.15,0.0,1.0,0.0,0.0,1.0,2000000000,0,,,0
1449617333987757438,251,1449617333987270008,/odom,ga,2,2,0,2.56096148491,-0.158360719681,0.748630702496,0.0,0.0,0.0,0.0,0.15,0.15,0.01,0.0,1.0,0.0,1.0,2000000000,0,,,0
1449617334089399903,252,1449617334088428631,/odom,ga,1,0,0,1.64523730832,-0.227470677779,0.0,0.0,0.0,-0.0633658106137,0.997990367712,0.25,0.15,0.0,1.0,0.0,0.0,1.0,2000000000,0,,,0
1449617334089843452,253,1449617334089042920,/odom,ga,2,2,0,2.56096148491,-0.158360719681,0.748630702496,0.0,0.0,0.0,0.0,0.15,0.15,0.01,0.0,1.0,0.0,1.0,2000000000,0,,,0
1449617334188914878,254,1449617334188289506,/odom,ga,1,0,0,1.67957106147,-0.231388082816,0.0,0.0,0.0,-0.0528156577107,0.998604279132,0.25,0.15,0.0,1.0,0.0,0.0,1.0,2000000000,0,,,0
1449617334189158212,255,1449617334188627535,/odom,ga,2,2,0,2.56096148491,-0.158360719681,0.748630702496,0.0,0.0,0.0,0.0,0.15,0.15,0.01,0.0,1.0,0.0,1.0,2000000000,0,,,0
1449617334295258735,256,1449617334290934414,/odom,ga,1,0,0,1.69962630092,-0.233423644043,0.0,0.0,0.0,-0.0475382956186,0.998869416115,0.25,0.15,0.0,1.0,0.0,0.0,1.0,2000000000,0,,,0
1449617334295262916,257,1449617334291665068,/odom,ga,2,2,0,2.56096148491,-0.158360719681,0.748630702496,0.0,0.0,0.0,0.0,0.15,0.15,0.01,0.0,1.0,0.0,1.0,2000000000,0,,,0
1449617334422056934,258,1449617334421039582,/odom,ga,1,0,0,1.73692989671,-0.236584989538,0.0,0.0,0.0,-0.042259606217,0.999106663816,0.25,0.15,0.0,1.0,0.0,0.0,1.0,2000000000,0,,,0
1449617334422071198,259,1449617334421334415,/odom,ga,2,2,0,2.56096148491,-0.158360719681,0.748630702496,0.0,0.0,0.0,0.0,0.15,0.15,0.01,0.0,1.0,0.0,1.0,2000000000,0,,,0
1449617334523275721,260,1449617334521639186,/odom,ga,1,0,0,1.77139916776,-0.239048011669,0.0,0.0,0.0,-0.0316988350601,0.999497465658,0.25,0.15,0.0,1.0,0.0,0.0,1.0,2000000000,0,,,0
1449617334523282204,261,1449617334522248281,/odom,ga,2,2,0,2.56096148491,-0.158360719681,0.748630702496,0.0,0.0,0.0,0.0,0.15,0.15,0.01,0.0,1.0,0.0,1.0,2000000000,0,,,0
1449617334587023566,262,1449617334586305298,/odom,ga,1,0,0,1.80591858165,-0.240660395052,0.0,0.0,0.0,-0.0211345236944,0.999776641009,0.25,0.15,0.0,1.0,0.0,0.0,1.0,2000000000,0,,,0
1449617334587563883,263,1449617334586681944,/odom,ga,2,2,0,2.56096148491,-0.158360719681,0.748630702496,0.0,0.0,0.0,0.0,0.15,0.15,0.01,0.0,1.0,0.0,1.0,2000000000,0,,,0
1449617334687536176,264,1449617334686832621,/odom,ga,1,0,0,1.820310312,-0.24111682551,0.0,0.0,0.0,-0.0158514091245,0.999874358521,0.25,0.15,0.0,1.0,0.0,0.0,1.0,2000000000,0,,,0
1449617334687552715,265,1449617334687223926,/odom,ga,2,2,0,2.56096148491,-0.158360719681,0.748630702496,0.0,0.0,0.0,0.0,0.15,0.15,0.01,0.0,1.0,0.0,1.0,2000000000,0,,,0
1449617334804834209,266,1449617334792646298,/odom,ga,1,0,0,1.8577392625,-0.241908045277,0.0,0.0,0.0,-0.0105678519699,0.999944158693,0.25,0.15,0.0,1.0,0.0,0.0,1.0,2000000000,0,,,0
1449617334804838693,267,1449617334793511608,/odom,ga,2,2,0,2.56096148491,-0.158360719681,0.748630702496,0.0,0.0,0.0,0.0,0.15,0.15,0.01,0.0,1.0,0.0,1.0,2000000000,0,,,0
1449617334907776298,268,1449617334898733615,/odom,ga,1,0,0,1.88077680457,-0.242060211422,0.0,0.0,0.0,-4.4408920985e-16,1.0,0.25,0.15,0.0,1.0,0.0,0.0,1.0,2000000000,0,,,0
1449617334907824713,269,1449617334899068654,/odom,ga,2,2,0,2.56096148491,-0.158360719681,0.748630702496,0.0,0.0,0.0,0.0,0.15,0.15,0.01,0.0,1.0,0.0,1.0,2000000000,0,,,0
1449617335031991423,270,1449617335030144842,/odom,ga,1,0,0,1.91533094677,-0.241603723185,0.0,0.0,0.0,0.0105678519699,0.999944158693,0.25,0.15,0.0,1.0,0.0,0.0,1.0,2000000000,0,,,0
1449617335032064120,271,1449617335030370332,/odom,ga,2,2,0,2.56096148491,-0.158360719681,0.748630702496,0.0,0.0,0.0,0.0,0.15,0.15,0.01,0.0,1.0,0.0,1.0,2000000000,0,,,0
1449617335099897262,272,1449617335098495799,/odom,ga,1,0,0,1.94986547248,-0.240356225895,0.0,0.0,0.0,0.0211345236944,0.999776641009,0.25,0.15,0.0,1.0,0.0,0.0,1.0,2000000000,0,,,0
1449617335100074155,273,1449617335099335284,/odom,ga,2,2,0,2.56096148491,-0.158360719681,0.748630702496,0.0,0.0,0.0,0.0,0.15,0.15,0.01,0.0,1.0,0.0,1.0,2000000000,0,,,0
1449617335192254685,274,1449617335190261044,/odom,ga,1,0,0,1.97574743738,-0.238987342317,0.0,0.0,0.0,0.0264170481704,0.999651008886,0.25,0.15,0.0,1.0,0.0,0.0,1.0,2000000000,0,,,0
1449617335192280162,275,1449617335190895274,/odom,ga,2,2,0,2.56096148491,-0.158360719681,0.748630702496,0.0,0.0,0.0,0.0,0.15,0.15,0.01,0.0,1.0,0.0,1.0,2000000000,0,,,0
1449617335305386068,276,1449617335304527161,/odom,ga,1,0,0,1.99872904033,-0.237375689442,0.0,0.0,0.0,0.0369797368913,0.999316015612,0.25,0.15,0.0,1.0,0.0,0.0,1.0,2000000000,0,,,0
1449617335305720430,277,1449617335305028274,/odom,ga,2,2,0,2.56096148491,-0.158360719681,0.748630702496,0.0,0.0,0.0,0.0,0.15,0.15,0.01,0.0,1.0,0.0,1.0,2000000000,0,,,0
1449617335403962563,278,1449617335400857877,/odom,ga,1,0,0,2.03314947809,-0.234305969622,0.0,0.0,0.0,0.0475382956186,0.998869416115,0.25,0.15,0.0,1.0,0.0,0.0,1.0,2000000000,0,,,0
1449617335403966331,279,1449617335401040943,/odom,ga,2,2,0,2.56096148491,-0.158360719681,0.748630702496,0.0,0.0,0.0,0.0,0.15,0.15,0.01,0.0,1.0,0.0,1.0,2000000000,0,,,0
1449617335493993808,280,1449617335487909326,/odom,ga,1,0,0,2.06749735067,-0.230509475894,0.0,0.0,0.0,0.0580915451448,0.99831126027,0.25,0.15,0.0,1.0,0.0,0.0,1.0,2000000000,0,,,0
1449617335493997681,281,1449617335488088892,/odom,ga,2,2,0,2.56096148491,-0.158360719681,0.748630702496,0.0,0.0,0.0,0.0,0.15,0.15,0.01,0.0,1.0,0.0,1.0,2000000000,0,,,0
1449617335588504122,282,1449617335587798014,/odom,ga,1,0,0,2.0903386626,-0.227505150944,0.0,0.0,0.0,0.0686383068554,0.997641610415,0.25,0.15,0.0,1.0,0.0,0.0,1.0,2000000000,0,,,0
1449617335588508072,283,1449617335588192625,/odom,ga,2,2,0,2.56096148491,-0.158360719681,0.748630702496,0.0,0.0,0.0,0.0,0.15,0.15,0.01,0.0,1.0,0.0,1.0,2000000000,0,,,0
1449617335691688685,284,1449617335691494021,/odom,ga,1,0,0,2.11599095395,-0.223804965326,0.0,0.0,0.0,0.0739088866573,0.997264998119,0.25,0.15,0.0,1.0,0.0,0.0,1.0,2000000000,0,,,0
1449617335692177649,285,1449617335691731154,/odom,ga,2,2,0,2.56096148491,-0.158360719681,0.748630702496,0.0,0.0,0.0,0.0,0.15,0.15,0.01,0.0,1.0,0.0,1.0,2000000000,0,,,0
1449617335804549610,286,1449617335803333030,/odom,ga,1,0,0,2.14441292587,-0.219168912336,0.0,0.0,0.0,0.0844437083633,0.996428251365,0.25,0.15,0.0,1.0,0.0,0.0,1.0,2000000000,0,,,0
1449617335804853660,287,1449617335804106719,/odom,ga,2,2,0,2.56096148491,-0.158360719681,0.748630702496,0.0,0.0,0.0,0.0,0.15,0.15,0.01,0.0,1.0,0.0,1.0,2000000000,0,,,0
1449617335889224921,288,1449617335887055670,/odom,ga,1,0,0,2.17837506954,-0.212784359659,0.0,0.0,0.0,0.0949690991753,0.995480220899,0.25,0.15,0.0,1.0,0.0,0.0,1.0,2000000000,0,,,0
1449617335889231554,289,1449617335887733678,/odom,ga,2,2,0,2.56096148491,-0.158360719681,0.748630702496,0.0,0.0,0.0,0.0,0.15,0.15,0.01,0.0,1.0,0.0,1.0,2000000000,0,,,0
1449617336012308609,290,1449617336011476417,/odom,ga,1,0,0,2.19248474249,-0.209912537841,0.0,0.0,0.0,0.100227890607,0.994964506877,0.25,0.15,0.0,1.0,0.0,0.0,1.0,2000000000,0,,,0
1449617336012316024,291,1449617336011982974,/odom,ga,2,2,0,2.56096148491,-0.158360719681,0.748630702496,0.0,0.0,0.0,0.0,0.15,0.15,0.01,0.0,1.0,0.0,1.0,2000000000,0,,,0
1449617336186019654,292,1449617336185227171,/odom,ga,1,0,0,2.24020627586,-0.198988383204,0.0,0.0,0.0,0.115986887289,0.993250744765,0.25,0.15,0.0,1.0,0.0,0.0,1.0,2000000000,0,,,0
1449617336186022739,293,1449617336185361460,/odom,ga,2,2,0,2.56096148491,-0.158360719681,0.748630702496,0.0,0.0,0.0,0.0,0.15,0.15,0.01,0.0,1.0,0.0,1.0,2000000000,0,,,0
1449617336413807349,294,1449617336413480601,/odom,ga,1,0,0,2.2875799867,-0.186645501121,0.0,0.0,0.0,0.131716738444,0.99128739567,0.25,0.15,0.0,1.0,0.0,0.0,1.0,2000000000,0,,,0
1449617336415847432,295,1449617336414556870,/odom,ga,2,2,0,2.56096148491,-0.158360719681,0.748630702496,0.0,0.0,0.0,0.0,0.15,0.15,0.01,0.0,1.0,0.0,1.0,2000000000,0,,,0
1449617336533239276,296,1449617336533059772,/odom,ga,1,0,0,2.34823864815,-0.168376064603,0.0,0.0,0.0,0.152637705278,0.988282212188,0.25,0.15,0.0,1.0,0.0,0.0,1.0,2000000000,0,,,0
1449617336533536826,297,1449617336533206823,/odom,ga,2,2,0,2.56096148491,-0.158360719681,0.748630702496,0.0,0.0,0.0,0.0,0.15,0.15,0.01,0.0,1.0,0.0,1.0,2000000000,0,,,0
1449617336652190187,298,1449617336651027605,/odom,ga,1,0,0,2.38366402578,-0.156272248509,0.0,0.0,0.0,0.168284193326,0.985738520236,0.25,0.15,0.0,1.0,0.0,0.0,1.0,2000000000,0,,,0
1449617336652199174,299,1449617336651200428,/odom,ga,2,2,0,2.56096148491,-0.158360719681,0.748630702496,0.0,0.0,0.0,0.0,0.15,0.15,0.01,0.0,1.0,0.0,1.0,2000000000,0,,,0
1449617336749860943,300,1449617336747665550,/odom,ga,1,0,0,2.41071722817,-0.146403115694,0.0,0.0,0.0,0.17869193488,0.983905072865,0.25,0.15,0.0,1.0,0.0,0.0,1.0,2000000000,0,,,0
1449617336749866747,301,1449617336747873092,/odom,ga,2,2,0,2.56096148491,-0.158360719681,0.748630702496,0.0,0.0,0.0,0.0,0.15,0.15,0.01,0.0,1.0,0.0,1.0,2000000000,0,,,0
1449617336965527334,302,1449617336964185761,/odom,ga,1,0,0,2.43492593415,-0.137147307788,0.0,0.0,0.0,0.183888394426,0.982947128993,0.25,0.15,0.0,1.0,0.0,0.0,1.0,2000000000,0,,,0
1449617336965531895,303,1449617336964720537,/odom,ga,2,2,0,2.56096148491,-0.158360719681,0.748630702496,0.0,0.0,0.0,0.0,0.15,0.15,0.01,0.0,1.0,0.0,1.0,2000000000,0,,,0
1449617337146048280,304,1449617337144655740,/odom,ga,1,0,0,2.49583844932,-0.111147720109,0.0,0.0,0.0,0.209790780666,0.977746300606,0.25,0.15,0.0,1.0,0.0,0.0,1.0,2000000000,0,,,0
1449617337146052007,305,1449617337144877165,/odom,ga,2,2,0,2.56096148491,-0.158360719681,0.748630702496,0.0,0.0,0.0,0.0,0.15,0.15,0.01,0.0,1.0,0.0,1.0,2000000000,0,,,0
1449617337238844005,306,1449617337237959820,/odom,ga,1,0,0,2.53244158028,-0.0942483125259,0.0,0.0,0.0,0.220111743843,0.97547466406,0.25,0.15,0.0,1.0,0.0,0.0,1.0,2000000000,0,,,0
1449617337238849126,307,1449617337238189748,/odom,ga,2,2,0,2.56096148491,-0.158360719681,0.748630702496,0.0,0.0,0.0,0.0,0.15,0.15,0.01,0.0,1.0,0.0,1.0,2000000000,0,,,0
1449617337346654354,308,1449617337344688448,/odom,ga,1,0,0,2.56590251848,-0.077461485125,0.0,0.0,0.0,0.235546736669,0.971863022676,0.25,0.15,0.0,1.0,0.0,0.0,1.0,2000000000,0,,,0
1449617337347429545,309,1449617337345000112,/odom,ga,2,2,0,2.56096148491,-0.158360719681,0.748630702496,0.0,0.0,0.0,0.0,0.15,0.15,0.01,0.0,1.0,0.0,1.0,2000000000,0,,,0
1449617337474371252,310,1449617337474180199,/odom,ga,1,0,0,2.58380925273,-0.0682055861689,0.0,0.0,0.0,0.240678772307,0.970604826158,0.25,0.15,0.0,1.0,0.0,0.0,1.0,2000000000,0,,,0
1449617337474700019,311,1449617337474580269,/odom,ga,2,2,0,2.56096148491,-0.158360719681,0.748630702496,0.0,0.0,0.0,0.0,0.15,0.15,0.01,0.0,1.0,0.0,1.0,2000000000,0,,,0
1449617337578751891,312,1449617337576670509,/odom,ga,1,0,0,2.61411764758,-0.0516046549711,0.0,0.0,0.0,0.250922540614,0.968007168678,0.25,0.15,0.0,1.0,0.0,0.0,1.0,2000000000,0,,,0
1449617337578757425,313,1449617337577009408,/odom,ga,2,2,0,2.56096148491,-0.158360719681,0.748630702496,0.0,0.0,0.0,0.0,0.15,0.15,0.01,0.0,1.0,0.0,1.0,2000000000,0,,,0
1449617337590864372,314,1449617337589045268,/odom,ga,1,0,0,2.64412811884,-0.0344729695597,0.0,0.0,0.0,0.261138285236,0.965301401628,0.25,0.15,0.0,1.0,0.0,0.0,1.0,2000000000,0,,,0
1449617337590877272,315,1449617337589393433,/odom,ga,2,2,0,2.56096148491,-0.158360719681,0.748630702496,0.0,0.0,0.0,0.0,0.15,0.15,0.01,0.0,1.0,0.0,1.0,2000000000,0,,,0
1449617337857060046,316,1449617337851534213,/odom,ga,1,0,0,2.64412811884,-0.0344729695597,0.0,0.0,0.0,0.261138285236,0.965301401628,0.25,0.15,0.0,1.0,0.0,0.0,1.0,2000000000,0,,,0
1449617337857070796,317,1449617337852461574,/odom,ga,2,2,0,2.56096148491,-0.158360719681,0.748630702496,0.0,0.0,0.0,0.0,0.15,0.15,0.01,0.0,1.0,0.0,1.0,2000000000,0,,,0
1449617337869549896,318,1449617337868490310,/odom,ga,1,0,0,2.70765306435,0.00514789278783,0.0,0.0,0.0,0.281481142997,0.959566759604,0.25,0.15,0.0,1.0,0.0,0.0,1.0,2000000000,0,,,0
1449617337869587312,319,1449617337868910391,/odom,ga,2,2,0,0.0,0.0,0.0,0.0,0.0,0.0,0.0,0.15,0.15,0.01,0.0,1.0,0.0,1.0,2000000000,0,,,0
1449617337899133631,320,1449617337892087278,/odom,ga,1,0,0,2.70765306435,0.00514789278783,0.0,0.0,0.0,0.281481142997,0.959566759604,0.25,0.15,0.0,1.0,0.0,0.0,1.0,2000000000,0,,,0
1449617337899137123,321,1449617337893177193,/odom,ga,2,2,0,0.0,0.0,0.0,0.0,0.0,0.0,0.0,0.15,0.15,0.01,0.0,1.0,0.0,1.0,2000000000,0,,,0
1449617337984351911,322,1449617337982485766,/odom,ga,1,0,0,2.70765306435,0.00514789278783,0.0,0.0,0.0,0.281481142997,0.959566759604,0.25,0.15,0.0,1.0,0.0,0.0,1.0,2000000000,0,,,0
1449617337984387961,323,1449617337982724136,/odom,ga,2,2,0,0.0,0.0,0.0,0.0,0.0,0.0,0.0,0.15,0.15,0.01,0.0,1.0,0.0,1.0,2000000000,0,,,0
1449617338084400220,324,1449617338081296102,/odom,ga,1,0,0,2.72199325813,0.0147871031029,0.0,0.0,0.0,0.291605984193,0.956538525091,0.25,0.15,0.0,1.0,0.0,0.0,1.0,2000000000,0,,,0
1449617338084418559,325,1449617338082498081,/odom,ga,2,2,0,0.0,0.0,0.0,0.0,0.0,0.0,0.0,0.15,0.15,0.01,0.0,1.0,0.0,1.0,2000000000,0,,,0
1449617338183894676,326,1449617338181738544,/odom,ga,1,0,0,2.75509252236,0.0378058419347,0.0,0.0,0.0,0.30169825807,0.953403461855,0.25,0.15,0.0,1.0,0.0,0.0,1.0,2000000000,0,,,0
1449617338183899880,327,1449617338182256021,/odom,ga,2,2,0,0.0,0.0,0.0,0.0,0.0,0.0,0.0,0.15,0.15,0.01,0.0,1.0,0.0,1.0,2000000000,0,,,0
1449617338302520611,328,1449617338299106745,/odom,ga,1,0,0,2.76906625713,0.0479686138948,0.0,0.0,0.0,0.311756837497,0.950161920029,0.25,0.15,0.0,1.0,0.0,0.0,1.0,2000000000,0,,,0
1449617338302528253,329,1449617338299570436,/odom,ga,2,2,0,0.0,0.0,0.0,0.0,0.0,0.0,0.0,0.15,0.15,0.01,0.0,1.0,0.0,1.0,2000000000,0,,,0
1449617338382957639,330,1449617338381793249,/odom,ga,1,0,0,2.78989182988,0.0633967958139,0.0,0.0,0.0,0.316773140589,0.948501332314,0.25,0.15,0.0,1.0,0.0,0.0,1.0,2000000000,0,,,0
1449617338382967813,331,1449617338381982474,/odom,ga,2,2,0,0.0,0.0,0.0,0.0,0.0,0.0,0.0,0.15,0.15,0.01,0.0,1.0,0.0,1.0,2000000000,0,,,0
1449617338489404001,332,1449617338488011763,/odom,ga,1,0,0,2.80134581187,0.0721221021503,0.0,0.0,0.0,0.318807780793,0.947819391501,0.25,0.15,0.0,1.0,0.0,0.0,1.0,2000000000,0,,,0
1449617338489412250,333,1449617338488321535,/odom,ga,2,2,0,2.80134581187,0.0721221021503,0.0,0.0,0.0,0.0,0.0,0.15,0.15,0.01,0.0,1.0,0.0,1.0,2000000000,0,,,0
1449617338754589809,334,1449617338754164325,/odom,ga,1,0,0,2.81723646318,0.0845255368449,0.0,0.0,0.0,-0.107534289015,0.994201376325,0.25,0.15,0.0,1.0,0.0,0.0,1.0,2000000000,0,,,0
1449617338754977174,335,1449617338754456103,/odom,ga,2,2,0,2.81723646318,0.0845255368449,0.0,0.0,0.0,0.0,0.0,0.15,0.15,0.01,0.0,1.0,0.0,1.0,2000000000,0,,,0
1449617339004093189,336,1449617339001623173,/odom,ga,1,0,0,2.8486390352,0.109808880288,0.0,0.0,0.0,-0.15412285493,0.988051691759,0.25,0.15,0.0,1.0,0.0,0.0,1.0,2000000000,0,,,0
1449617339004096526,337,1449617339001826695,/odom,ga,2,2,0,2.8486390352,0.109808880288,0.0,0.0,0.0,0.0,0.0,0.15,0.15,0.01,0.0,1.0,0.0,1.0,2000000000,0,,,0
1449617339246022849,338,1449617339243550868,/odom,ga,1,0,0,2.87512486652,0.132004239205,0.0,0.0,0.0,-0.184814442123,0.982773433698,0.25,0.15,0.0,1.0,0.0,0.0,1.0,2000000000,0,,,0
1449617339246036764,339,1449617339243694910,/odom,ga,2,2,0,2.87512486652,0.132004239205,0.0,0.0,0.0,0.0,0.0,0.15,0.15,0.01,0.0,1.0,0.0,1.0,2000000000,0,,,0
1449617339355115390,340,1449617339352955244,/odom,ga,1,0,0,2.89037807283,0.145183610826,0.0,0.0,0.0,-0.266563293843,0.963817415476,0.25,0.15,0.0,1.0,0.0,0.0,1.0,2000000000,0,,,0
1449617339355123800,341,1449617339353097684,/odom,ga,2,2,0,2.89037807283,0.145183610826,0.0,0.0,0.0,0.0,0.0,0.15,0.15,0.01,0.0,1.0,0.0,1.0,2000000000,0,,,0
1449617339572244111,342,1449617339571187577,/odom,ga,1,0,0,2.89469321525,0.148998247986,0.0,0.0,0.0,-0.371542654157,0.928415885335,0.25,0.15,0.0,1.0,0.0,0.0,1.0,2000000000,0,,,0
1449617339575409693,343,1449617339572109039,/odom,ga,2,2,0,2.89469321525,0.148998247986,0.0,0.0,0.0,0.0,0.0,0.15,0.15,0.01,0.0,1.0,0.0,1.0,2000000000,0,,,0
1449617339732932576,344,1449617339731981169,/odom,ga,1,0,0,2.89684070805,0.15091696733,0.0,0.0,0.0,-0.415911917277,0.909404902707,0.25,0.15,0.0,1.0,0.0,0.0,1.0,2000000000,0,,,0
1449617339732937011,345,1449617339732175752,/odom,ga,2,2,0,2.89684070805,0.15091696733,0.0,0.0,0.0,0.0,0.0,0.15,0.15,0.01,0.0,1.0,0.0,1.0,2000000000,0,,,0
1449617339961924313,346,1449617339951501883,/odom,ga,1,0,0,2.89684070805,0.15091696733,0.0,0.0,0.0,-0.465491318251,0.885052446261,0.25,0.15,0.0,1.0,0.0,0.0,1.0,2000000000,0,,,0
1449617339961940469,347,1449617339951837002,/odom,ga,2,2,0,2.89684070805,0.15091696733,0.0,0.0,0.0,0.0,0.0,0.15,0.15,0.01,0.0,1.0,0.0,1.0,2000000000,0,,,0
1449617340254218908,348,1449617340246834135,/odom,ga,1,0,0,2.89684070805,0.15091696733,0.0,0.0,0.0,-0.505783591574,0.862660395807,0.25,0.15,0.0,1.0,0.0,0.0,1.0,2000000000,0,,,0
1449617340254232494,349,1449617340247010133,/odom,ga,2,2,0,2.89684070805,0.15091696733,0.0,0.0,0.0,0.0,0.0,0.15,0.15,0.01,0.0,1.0,0.0,1.0,2000000000,0,,,0
1449617340449311324,350,1449617340448248104,/odom,ga,1,0,0,2.89684070805,0.15091696733,0.0,0.0,0.0,-0.523475547117,0.852040698307,0.25,0.15,0.0,1.0,0.0,0.0,1.0,2000000000,0,,,0
1449617340449345057,351,1449617340448823443,/odom,ga,2,2,0,2.89684070805,0.15091696733,0.0,0.0,0.0,0.0,0.0,0.15,0.15,0.01,0.0,1.0,0.0,1.0,2000000000,0,,,0
1449617340625172348,352,1449617340625009353,/odom,ga,1,0,0,2.89684070805,0.15091696733,0.0,0.0,0.0,-0.539715041444,0.841847773674,0.25,0.15,0.0,1.0,0.0,0.0,1.0,2000000000,0,,,0
1449617340625546737,353,1449617340625397018,/odom,ga,2,2,0,2.89684070805,0.15091696733,0.0,0.0,0.0,0.0,0.0,0.15,0.15,0.01,0.0,1.0,0.0,1.0,2000000000,0,,,0
1449617340813796943,354,1449617340813676269,/odom,ga,1,0,0,2.89684070805,0.15091696733,0.0,0.0,0.0,-0.583946142023,0.811792401551,0.25,0.15,0.0,1.0,0.0,0.0,1.0,2000000000,0,,,0
1449617340814251241,355,1449617340814093145,/odom,ga,2,2,0,2.89684070805,0.15091696733,0.0,0.0,0.0,0.0,0.0,0.15,0.15,0.01,0.0,1.0,0.0,1.0,2000000000,0,,,0
1449617341078399034,356,1449617341076192771,/odom,ga,1,0,0,2.89684070805,0.15091696733,0.0,0.0,0.0,-0.599161239652,0.80062838377,0.25,0.15,0.0,1.0,0.0,0.0,1.0,2000000000,0,,,0
1449617341078417897,357,1449617341076331571,/odom,ga,2,2,0,2.89684070805,0.15091696733,0.0,0.0,0.0,0.0,0.0,0.15,0.15,0.01,0.0,1.0,0.0,1.0,2000000000,0,,,0
1449617341250335375,358,1449617341247630012,/odom,ga,1,0,0,2.89684070805,0.15091696733,0.0,0.0,0.0,-0.611035204073,0.79160342305,0.25,0.15,0.0,1.0,0.0,0.0,1.0,2000000000,0,,,0
1449617341250338313,359,1449617341248002456,/odom,ga,2,2,0,2.89684070805,0.15091696733,0.0,0.0,0.0,0.0,0.0,0.15,0.15,0.01,0.0,1.0,0.0,1.0,2000000000,0,,,0
1449617341442226734,360,1449617341439653640,/odom,ga,1,0,0,2.89684070805,0.15091696733,0.0,0.0,0.0,-0.632838525704,0.774283798348,0.25,0.15,0.0,1.0,0.0,0.0,1.0,2000000000,0,,,0
1449617341442229815,361,1449617341440054093,/odom,ga,2,2,0,2.89684070805,0.15091696733,0.0,0.0,0.0,0.0,0.0,0.15,0.15,0.01,0.0,1.0,0.0,1.0,2000000000,0,,,0
1449617341659445063,362,1449617341650664239,/odom,ga,1,0,0,2.89684070805,0.15091696733,0.0,0.0,0.0,-0.645515704939,0.763746996509,0.25,0.15,0.0,1.0,0.0,0.0,1.0,2000000000,0,,,0
1449617341659447884,363,1449617341651124213,/odom,ga,2,2,0,2.89684070805,0.15091696733,0.0,0.0,0.0,0.0,0.0,0.15,0.15,0.01,0.0,1.0,0.0,1.0,2000000000,0,,,0
1449617341788129421,364,1449617341784612247,/odom,ga,1,0,0,2.89684070805,0.15091696733,0.0,0.0,0.0,-0.657180890329,0.753732895253,0.25,0.15,0.0,1.0,0.0,0.0,1.0,2000000000,0,,,0
1449617341788184076,365,1449617341785006829,/odom,ga,2,2,0,2.89684070805,0.15091696733,0.0,0.0,0.0,0.0,0.0,0.15,0.15,0.01,0.0,1.0,0.0,1.0,2000000000,0,,,0
1449617342020859996,366,1449617342020637458,/odom,ga,1,0,0,2.89684070805,0.15091696733,0.0,0.0,0.0,-0.656646324276,0.754198650764,0.25,0.15,0.0,1.0,0.0,0.0,1.0,2000000000,0,,,0
1449617342021426909,367,1449617342020843997,/odom,ga,2,2,0,2.89684070805,0.15091696733,0.0,0.0,0.0,0.0,0.0,0.15,0.15,0.01,0.0,1.0,0.0,1.0,2000000000,0,,,0
1449617342211932876,368,1449617342208067135,/odom,ga,1,0,0,2.89684070805,0.15091696733,0.0,0.0,0.0,-0.664922900862,0.74691200011,0.25,0.15,0.0,1.0,0.0,0.0,1.0,2000000000,0,,,0
1449617342211977586,369,1449617342208770157,/odom,ga,2,2,0,2.89684070805,0.15091696733,0.0,0.0,0.0,0.0,0.0,0.15,0.15,0.01,0.0,1.0,0.0,1.0,2000000000,0,,,0
1449617342427987658,370,1449617342421186342,/odom,ga,1,0,0,2.89684070805,0.15091696733,0.0,0.0,0.0,-0.673381186483,0.739295460347,0.25,0.15,0.0,1.0,0.0,0.0,1.0,2000000000,0,,,0
1449617342427995054,371,1449617342423026004,/odom,ga,2,2,0,2.89684070805,0.15091696733,0.0,0.0,0.0,0.0,0.0,0.15,0.15,0.01,0.0,1.0,0.0,1.0,2000000000,0,,,0
1449617343565617168,372,1449617343563729355,/odom,ga,1,0,0,2.89684070805,0.15091696733,0.0,0.0,0.0,-0.680369275467,0.732869462456,0.25,0.15,0.0,1.0,0.0,0.0,1.0,2000000000,0,,,0
1449617343565644003,373,1449617343564111742,/odom,ga,2,2,0,2.89684070805,0.15091696733,0.0,0.0,0.0,0.0,0.0,0.15,0.15,0.01,0.0,1.0,0.0,1.0,2000000000,0,,,0
1449617343878317039,374,1449617343875070417,/odom,ga,1,0,0,2.89684070805,0.15091696733,0.0,0.0,0.0,-0.680369659656,0.732869105789,0.25,0.15,0.0,1.0,0.0,0.0,1.0,2000000000,0,,,0
1449617343878319711,375,1449617343875214102,/odom,ga,2,2,0,2.89684070805,0.15091696733,0.0,0.0,0.0,0.0,0.0,0.15,0.15,0.01,0.0,1.0,0.0,1.0,2000000000,0,,,0
1449617344100373237,376,1449617344098145740,/odom,ga,1,0,0,2.89684070805,0.15091696733,0.0,0.0,0.0,-0.678605641275,0.734502813902,0.25,0.15,0.0,1.0,0.0,0.0,1.0,2000000000,0,,,0
