%time,field.x,field.y,field.z
1449617315533376744,6.0,6.0,0.0
1449617315566705969,6.0,6.0,0.0
1449617315600073903,6.0,6.0,0.0
1449617315633469343,6.0,6.0,0.0
1449617315666752917,6.0,6.0,0.0
1449617315700103616,6.0,6.0,0.0
1449617315733415333,6.0,6.0,0.0
1449617315766737020,6.0,6.0,0.0
1449617315800094126,6.0,6.0,0.0
1449617315833411628,6.0,6.0,0.0
1449617315866715681,6.0,6.0,0.0
1449617315900037819,6.0,6.0,0.0
1449617315933386045,6.0,6.0,0.0
1449617315966747659,6.0,6.0,0.0
1449617316000073490,6.0,6.0,0.0
1449617316033367938,6.0,6.0,0.0
1449617316066711261,6.0,6.0,0.0
1449617316100130238,6.0,6.0,0.0
1449617316133401462,6.0,6.0,0.0
1449617316166944433,6.0,6.0,0.0
1449617316200057727,6.0,6.0,0.0
1449617316233405126,6.0,6.0,0.0
1449617316266927021,6.0,6.0,0.0
1449617316300068423,6.0,6.0,0.0
1449617316333368172,6.0,6.0,0.0
1449617316366680030,6.0,6.0,0.0
1449617316400029459,6.0,6.0,0.0
1449617316433347259,6.0,6.0,0.0
1449617316466654863,6.0,6.0,0.0
1449617316500073914,6.0,6.0,0.0
1449617316533344816,6.0,6.0,0.0
1449617316566779024,6.0,6.0,0.0
1449617316600108584,6.0,6.0,0.0
1449617316633357690,6.0,6.0,0.0
1449617316666720804,6.0,6.0,0.0
1449617316700142844,6.0,6.0,0.0
1449617316733375114,6.0,6.0,0.0
1449617316766757443,6.0,6.0,0.0
1449617316800102649,6.0,6.0,0.0
1449617316833389840,6.0,6.0,0.0
1449617316866679575,6.0,6.0,0.0
1449617316900081815,6.0,6.0,0.0
1449617316933384730,6.0,6.0,0.0
1449617316967336411,6.0,6.0,0.0
1449617317000140080,6.0,6.0,0.0
1449617317033467613,6.0,6.0,0.0
1449617317066656998,6.0,6.0,0.0
1449617317100106976,6.0,6.0,0.0
1449617317133364077,6.0,6.0,0.0
1449617317166721469,6.0,6.0,0.0
1449617317200183566,6.0,6.0,0.0
1449617317233677355,6.0,6.0,0.0
1449617317266720155,6.0,6.0,0.0
1449617317300123923,6.0,6.0,0.0
1449617317333534612,6.0,6.0,0.0
1449617317366758152,6.0,6.0,0.0
1449617317400326345,6.0,6.0,0.0
1449617317433433122,6.0,6.0,0.0
1449617317466695239,6.0,6.0,0.0
1449617317500294921,6.0,6.0,0.0
1449617317533397287,6.0,6.0,0.0
1449617317566781629,6.0,6.0,0.0
1449617317600096175,6.0,6.0,0.0
1449617317633382439,6.0,6.0,0.0
1449617317668196957,6.0,6.0,0.0
1449617317700054874,6.0,6.0,0.0
1449617317733424777,6.0,6.0,0.0
1449617317766711842,6.0,6.0,0.0
1449617317800087587,6.0,6.0,0.0
1449617317833354864,6.0,6.0,0.0
1449617317866715683,6.0,6.0,0.0
1449617317900137749,6.0,6.0,0.0
1449617317933326751,6.0,6.0,0.0
1449617317966796447,6.0,6.0,0.0
1449617318000104724,6.0,6.0,0.0
1449617318033439556,6.0,6.0,0.0
1449617318066754054,6.0,6.0,0.0
1449617318100128434,6.0,6.0,0.0
1449617318133310930,6.0,6.0,0.0
1449617318166702353,6.0,6.0,0.0
1449617318200070979,6.0,6.0,0.0
1449617318233355709,6.0,6.0,0.0
1449617318266676306,6.0,6.0,0.0
1449617318300064523,6.0,6.0,0.0
1449617318333333346,6.0,6.0,0.0
1449617318366727191,6.0,6.0,0.0
1449617318400091221,6.0,6.0,0.0
1449617318433401906,6.0,6.0,0.0
1449617318466692214,6.0,6.0,0.0
1449617318500044113,6.0,6.0,0.0
1449617318533353899,6.0,6.0,0.0
1449617318566682595,6.0,6.0,0.0
1449617318600076176,6.0,6.0,0.0
1449617318633374546,6.0,6.0,0.0
1449617318666680832,6.0,6.0,0.0
1449617318699999893,6.0,6.0,0.0
1449617318733411349,6.0,6.0,0.0
1449617318766806182,6.0,6.0,0.0
1449617318800067446,6.0,6.0,0.0
1449617318833367120,6.0,6.0,0.0
1449617318866710241,6.0,6.0,0.0
1449617318900034903,6.0,6.0,0.0
1449617318933299672,6.0,6.0,0.0
1449617318966626628,6.0,6.0,0.0
1449617319000034833,6.0,6.0,0.0
1449617319033324044,6.0,6.0,0.0
1449617319066736360,6.0,6.0,0.0
1449617319100029348,6.0,6.0,0.0
1449617319133310658,6.0,6.0,0.0
1449617319166708091,6.0,6.0,0.0
1449617319199993838,6.0,6.0,0.0
1449617319233371672,6.0,6.0,0.0
1449617319266633798,6.0,6.0,0.0
1449617319300039336,6.0,6.0,0.0
1449617319333350188,6.0,6.0,0.0
1449617319366741265,6.0,6.0,0.0
1449617319400038773,6.0,6.0,0.0
1449617319433330937,6.0,6.0,0.0
1449617319466745869,6.0,6.0,0.0
1449617319500056720,6.0,6.0,0.0
1449617319533388706,6.0,6.0,0.0
1449617319566703340,6.0,6.0,0.0
1449617319600093841,6.0,6.0,0.0
1449617319633504678,6.0,6.0,0.0
1449617319666708109,6.0,6.0,0.0
1449617319700174570,6.0,6.0,0.0
1449617319733458788,6.0,6.0,0.0
1449617319767186053,6.0,6.0,0.0
1449617319800134778,6.0,6.0,0.0
1449617319833575577,6.0,6.0,0.0
1449617319866742861,6.0,6.0,0.0
1449617319900661564,6.0,6.0,0.0
1449617319933517875,6.0,6.0,0.0
1449617319966877366,6.0,6.0,0.0
1449617320000067959,6.0,6.0,0.0
1449617320033467853,6.0,6.0,0.0
1449617320066868516,6.0,6.0,0.0
1449617320100222258,6.0,6.0,0.0
1449617320133335232,6.0,6.0,0.0
1449617320166814420,6.0,6.0,0.0
1449617320200028916,6.0,6.0,0.0
1449617320233352238,6.0,6.0,0.0
1449617320266711655,6.0,6.0,0.0
1449617320300238002,6.0,6.0,0.0
1449617320333339051,6.0,6.0,0.0
1449617320366735684,6.0,6.0,0.0
1449617320400041252,6.0,6.0,0.0
1449617320433458371,6.0,6.0,0.0
1449617320466687211,6.0,6.0,0.0
1449617320500108423,6.0,6.0,0.0
1449617320533372206,6.0,6.0,0.0
1449617320566724422,6.0,6.0,0.0
1449617320600082188,6.0,6.0,0.0
1449617320633437241,6.0,6.0,0.0
1449617320666722787,6.0,6.0,0.0
1449617320700095012,6.0,6.0,0.0
1449617320733323930,6.0,6.0,0.0
1449617320766779163,6.0,6.0,0.0
1449617320800056586,6.0,6.0,0.0
1449617320833442691,6.0,6.0,0.0
1449617320866718238,6.0,6.0,0.0
1449617320900087062,6.0,6.0,0.0
1449617320933337457,6.0,6.0,0.0
1449617320966721330,6.0,6.0,0.0
1449617321000135205,6.0,6.0,0.0
1449617321033393289,6.0,6.0,0.0
1449617321067551216,6.0,6.0,0.0
1449617321100247206,6.0,6.0,0.0
1449617321133432809,6.0,6.0,0.0
1449617321166903501,6.0,6.0,0.0
1449617321200242761,6.0,6.0,0.0
1449617321233626724,6.0,6.0,0.0
1449617321266924900,6.0,6.0,0.0
1449617321300260938,6.0,6.0,0.0
1449617321333506769,6.0,6.0,0.0
1449617321366687252,6.0,6.0,0.0
1449617321400331590,6.0,6.0,0.0
1449617321433463574,6.0,6.0,0.0
1449617321466759849,6.0,6.0,0.0
1449617321500161868,6.0,6.0,0.0
1449617321533369784,6.0,6.0,0.0
1449617321566697942,6.0,6.0,0.0
1449617321599991411,6.0,6.0,0.0
1449617321633448709,6.0,6.0,0.0
1449617321666805255,6.0,6.0,0.0
1449617321700164142,6.0,6.0,0.0
1449617321733419632,6.0,6.0,0.0
1449617321766883556,6.0,6.0,0.0
1449617321800568961,6.0,6.0,0.0
1449617321833358388,6.0,6.0,0.0
1449617321867096420,6.0,6.0,0.0
1449617321900223075,6.0,6.0,0.0
1449617321933735452,6.0,6.0,0.0
1449617321966857780,6.0,6.0,0.0
1449617322000209595,6.0,6.0,0.0
1449617322033487788,6.0,6.0,0.0
1449617322066836947,6.0,6.0,0.0
1449617322100253712,6.0,6.0,0.0
1449617322134005857,6.0,6.0,0.0
1449617322167220863,6.0,6.0,0.0
1449617322200074237,6.0,6.0,0.0
1449617322233601353,6.0,6.0,0.0
1449617322266917774,6.0,6.0,0.0
1449617322300336758,6.0,6.0,0.0
1449617322333423022,6.0,6.0,0.0
1449617322366847025,6.0,6.0,0.0
1449617322400777568,6.0,6.0,0.0
1449617322433756004,6.0,6.0,0.0
1449617322467199601,6.0,6.0,0.0
1449617322500471748,6.0,6.0,0.0
1449617322533893223,6.0,6.0,0.0
1449617322567487471,6.0,6.0,0.0
1449617322600364026,6.0,6.0,0.0
1449617322634543498,6.0,6.0,0.0
1449617322667161879,6.0,6.0,0.0
1449617322700116099,6.0,6.0,0.0
1449617322733843507,6.0,6.0,0.0
1449617322768411346,6.0,6.0,0.0
1449617322800444735,6.0,6.0,0.0
1449617322834496698,6.0,6.0,0.0
1449617322867323281,6.0,6.0,0.0
1449617322900592912,6.0,6.0,0.0
1449617322933635815,6.0,6.0,0.0
1449617322967336095,6.0,6.0,0.0
1449617323000039056,6.0,6.0,0.0
1449617323033550451,6.0,6.0,0.0
1449617323067050696,6.0,6.0,0.0
1449617323100444654,6.0,6.0,0.0
1449617323134202239,6.0,6.0,0.0
1449617323167540620,6.0,6.0,0.0
1449617323200477253,6.0,6.0,0.0
1449617323234109080,6.0,6.0,0.0
1449617323266800191,6.0,6.0,0.0
1449617323300212698,6.0,6.0,0.0
1449617323336002745,6.0,6.0,0.0
1449617323367056220,6.0,6.0,0.0
1449617323400044820,6.0,6.0,0.0
1449617323437290660,6.0,6.0,0.0
1449617323467014175,6.0,6.0,0.0
1449617323500642280,6.0,6.0,0.0
1449617323533674391,6.0,6.0,0.0
1449617323570192259,6.0,6.0,0.0
1449617323600149882,6.0,6.0,0.0
1449617323634040582,6.0,6.0,0.0
1449617323667301050,6.0,6.0,0.0
1449617323700745010,6.0,6.0,0.0
1449617323734233928,6.0,6.0,0.0
1449617323766979651,6.0,6.0,0.0
1449617323800836311,6.0,6.0,0.0
1449617323834239764,6.0,6.0,0.0
1449617323866966900,6.0,6.0,0.0
1449617323901145770,6.0,6.0,0.0
1449617323934352607,6.0,6.0,0.0
1449617323967580519,6.0,6.0,0.0
1449617324001034519,6.0,6.0,0.0
1449617324033508423,6.0,6.0,0.0
1449617324067558848,6.0,6.0,0.0
1449617324100429227,6.0,6.0,0.0
1449617324133793684,6.0,6.0,0.0
1449617324167147410,6.0,6.0,0.0
1449617324200371621,6.0,6.0,0.0
1449617324235958334,6.0,6.0,0.0
1449617324267183854,6.0,6.0,0.0
1449617324300442773,6.0,6.0,0.0
1449617324333844756,6.0,6.0,0.0
1449617324367334103,6.0,6.0,0.0
1449617324401358435,6.0,6.0,0.0
1449617324433538438,6.0,6.0,0.0
1449617324467580498,6.0,6.0,0.0
1449617324500577206,6.0,6.0,0.0
1449617324533935273,6.0,6.0,0.0
1449617324568035042,6.0,6.0,0.0
1449617324601787727,6.0,6.0,0.0
1449617324633526581,6.0,6.0,0.0
1449617324667198080,6.0,6.0,0.0
1449617324700375670,6.0,6.0,0.0
1449617324733585859,6.0,6.0,0.0
1449617324766892871,6.0,6.0,0.0
1449617324800306476,6.0,6.0,0.0
1449617324833455205,6.0,6.0,0.0
1449617324867120949,6.0,6.0,0.0
1449617324900377430,6.0,6.0,0.0
1449617324933534242,6.0,6.0,0.0
1449617324967608139,6.0,6.0,0.0
1449617325000226280,6.0,6.0,0.0
1449617325033686522,6.0,6.0,0.0
1449617325067697820,6.0,6.0,0.0
1449617325100415221,6.0,6.0,0.0
1449617325133517624,6.0,6.0,0.0
1449617325167715512,6.0,6.0,0.0
1449617325200106537,6.0,6.0,0.0
1449617325233436597,6.0,6.0,0.0
1449617325267537379,6.0,6.0,0.0
1449617325300477445,6.0,6.0,0.0
1449617325333945952,6.0,6.0,0.0
1449617325367270285,6.0,6.0,0.0
1449617325401337075,6.0,6.0,0.0
1449617325433764695,6.0,6.0,0.0
1449617325466903172,6.0,6.0,0.0
1449617325500279556,6.0,6.0,0.0
1449617325534013625,6.0,6.0,0.0
1449617325567718513,6.0,6.0,0.0
1449617325600368959,6.0,6.0,0.0
1449617325644456683,6.0,6.0,0.0
1449617325667048066,6.0,6.0,0.0
1449617325701224708,6.0,6.0,0.0
1449617325733577140,6.0,6.0,0.0
1449617325766904109,6.0,6.0,0.0
1449617325800294191,6.0,6.0,0.0
1449617325833704071,6.0,6.0,0.0
1449617325870062369,6.0,6.0,0.0
1449617325900514387,6.0,6.0,0.0
1449617325934510538,6.0,6.0,0.0
1449617325967902712,6.0,6.0,0.0
1449617326000645424,6.0,6.0,0.0
1449617326033512505,6.0,6.0,0.0
1449617326067664230,6.0,6.0,0.0
1449617326100626225,6.0,6.0,0.0
1449617326133710037,6.0,6.0,0.0
1449617326166914659,6.0,6.0,0.0
1449617326200085750,6.0,6.0,0.0
1449617326233527372,6.0,6.0,0.0
1449617326268695092,6.0,6.0,0.0
1449617326300192904,6.0,6.0,0.0
1449617326334833638,6.0,6.0,0.0
1449617326369915433,6.0,6.0,0.0
1449617326400658247,6.0,6.0,0.0
1449617326433774584,6.0,6.0,0.0
1449617326478919646,6.0,6.0,0.0
1449617326500291250,6.0,6.0,0.0
1449617326533875977,6.0,6.0,0.0
1449617326566951461,6.0,6.0,0.0
1449617326601865600,6.0,6.0,0.0
1449617326635250653,6.0,6.0,0.0
1449617326666953859,6.0,6.0,0.0
1449617326700251087,6.0,6.0,0.0
1449617326738687362,6.0,6.0,0.0
1449617326770720118,6.0,6.0,0.0
1449617326800270009,6.0,6.0,0.0
1449617326833610110,6.0,6.0,0.0
1449617326867123291,6.0,6.0,0.0
1449617326900415794,6.0,6.0,0.0
1449617326934354259,6.0,6.0,0.0
1449617326967090839,6.0,6.0,0.0
1449617327001389350,6.0,6.0,0.0
1449617327033675595,6.0,6.0,0.0
1449617327067444573,6.61952,6.03528947368,0.0
1449617327100631069,6.61952,6.03528947368,0.0
1449617327133518983,6.61952,6.03528947368,0.0
1449617327167142793,6.61952,6.03528947368,0.0
1449617327200253488,6.61952,6.03528947368,0.0
1449617327235608059,6.61952,6.03528947368,0.0
1449617327267119008,6.61952,6.03528947368,0.0
1449617327300448929,6.61952,6.03528947368,0.0
1449617327333735963,6.61952,6.03528947368,0.0
1449617327367634479,6.61952,6.03528947368,0.0
1449617327400582893,6.61952,6.03528947368,0.0
1449617327433587290,6.61952,6.03528947368,0.0
1449617327467725347,6.61952,6.03528947368,0.0
1449617327500593338,6.61952,6.03528947368,0.0
1449617327533581219,6.61952,6.03528947368,0.0
1449617327567090225,6.61952,6.03528947368,0.0
1449617327616290629,6.61952,6.03528947368,0.0
1449617327635615800,6.61952,6.03528947368,0.0
1449617327667048001,6.61952,6.03528947368,0.0
1449617327700274593,6.61952,6.03528947368,0.0
1449617327734422398,6.61952,6.03528947368,0.0
1449617327776209621,6.61952,6.03528947368,0.0
1449617327803754219,6.61952,6.03528947368,0.0
1449617327835155333,6.61952,6.03528947368,0.0
1449617327867609864,6.61952,6.03528947368,0.0
1449617327900468357,6.61952,6.03528947368,0.0
1449617327933810512,6.61952,6.10586842105,0.0
1449617327967577660,6.61952,6.10586842105,0.0
1449617328005677836,6.61952,6.10586842105,0.0
1449617328033942025,6.61952,6.03528947368,0.0
1449617328067557182,6.61952,6.17644736842,0.0
1449617328100749031,6.61952,6.17644736842,0.0
1449617328138057345,6.61952,6.17644736842,0.0
1449617328167967895,6.61952,6.03528947368,0.0
1449617328200487777,6.61952,6.03528947368,0.0
1449617328233917193,6.61952,6.03528947368,0.0
1449617328268212196,6.61952,6.03528947368,0.0
1449617328300344345,6.61952,6.03528947368,0.0
1449617328334138656,6.61952,6.03528947368,0.0
1449617328367952064,6.61952,6.03528947368,0.0
1449617328400892699,6.61952,6.03528947368,0.0
1449617328434417589,6.61952,6.03528947368,0.0
1449617328467795927,6.61952,6.03528947368,0.0
1449617328501104860,6.61952,6.03528947368,0.0
1449617328533536677,6.61952,6.03528947368,0.0
1449617328568134096,6.61952,6.03528947368,0.0
1449617328600412928,6.61952,6.03528947368,0.0
1449617328633609687,6.61952,6.03528947368,0.0
1449617328667988968,6.61952,6.03528947368,0.0
1449617328700608087,6.61952,6.03528947368,0.0
1449617328734692877,6.61952,6.03528947368,0.0
1449617328767820231,6.61952,6.03528947368,0.0
1449617328801999332,6.61952,6.03528947368,0.0
1449617328834037993,6.61952,6.03528947368,0.0
1449617328866826038,6.61952,6.03528947368,0.0
1449617328900368943,6.61952,6.03528947368,0.0
1449617328933801704,6.61952,6.03528947368,0.0
1449617328967816853,6.61952,6.03528947368,0.0
1449617329000305648,6.61952,6.03528947368,0.0
1449617329033376404,6.61952,6.03528947368,0.0
1449617329067049526,6.61952,6.03528947368,0.0
1449617329100209386,6.61952,6.03528947368,0.0
1449617329133649640,6.61952,6.03528947368,0.0
1449617329170703835,6.61952,6.03528947368,0.0
1449617329201293177,6.61952,6.03528947368,0.0
1449617329234072080,6.61952,6.03528947368,0.0
1449617329267235366,6.61952,6.03528947368,0.0
1449617329300430514,6.61952,6.03528947368,0.0
1449617329333826262,6.61952,6.03528947368,0.0
1449617329367494587,6.61952,6.03528947368,0.0
1449617329400415588,6.61952,6.03528947368,0.0
1449617329433892783,6.61952,6.03528947368,0.0
1449617329467500522,6.61952,6.03528947368,0.0
1449617329500356989,6.61952,6.03528947368,0.0
1449617329533753802,6.61952,6.03528947368,0.0
1449617329567586202,6.61952,6.03528947368,0.0
1449617329600327666,6.61952,6.03528947368,0.0
1449617329634111456,6.61952,6.03528947368,0.0
1449617329668527495,6.61952,6.0,0.0
1449617329701946995,6.61952,6.0,0.0
1449617329734449720,6.61952,6.0,0.0
1449617329770363614,6.61952,6.0,0.0
1449617329800614316,6.61952,6.03528947368,0.0
1449617329833651934,6.61952,6.03528947368,0.0
1449617329866927485,6.61952,6.03528947368,0.0
1449617329906413263,6.61952,6.03528947368,0.0
1449617329934274161,6.61952,6.03528947368,0.0
1449617329968033500,6.61952,6.03528947368,0.0
1449617330000621641,6.61952,6.0,0.0
1449617330034446871,6.61952,6.0,0.0
1449617330070583709,6.61952,6.0,0.0
1449617330100583047,6.61952,6.0,0.0
1449617330141669606,6.61952,6.0,0.0
1449617330167655385,6.61952,6.0,0.0
1449617330201924559,6.61952,6.0,0.0
1449617330234812219,6.61952,6.0,0.0
1449617330266957920,6.61952,6.0,0.0
1449617330300742018,6.61952,6.0,0.0
1449617330333850243,6.61952,6.0,0.0
1449617330368455795,6.61952,5.96471052632,0.0
1449617330401659166,6.61952,5.96471052632,0.0
1449617330433803177,6.61952,5.96471052632,0.0
1449617330467770433,6.61952,5.96471052632,0.0
1449617330500105134,6.61952,5.96471052632,0.0
1449617330533819241,6.61952,5.96471052632,0.0
1449617330575322258,6.61952,5.96471052632,0.0
1449617330602364297,6.61952,5.96471052632,0.0
1449617330634380951,6.61952,5.96471052632,0.0
1449617330667409022,6.61952,5.96471052632,0.0
1449617330700726710,6.61952,5.96471052632,0.0
1449617330734763423,6.61952,5.96471052632,0.0
1449617330767335224,6.61952,5.96471052632,0.0
1449617330800693829,6.61952,5.96471052632,0.0
1449617330834275553,6.61952,5.89413157895,0.0
1449617330871159308,6.61952,5.89413157895,0.0
1449617330900384759,6.61952,5.89413157895,0.0
1449617330934150257,6.61952,5.89413157895,0.0
1449617330976777056,6.61952,5.89413157895,0.0
1449617331000303993,6.61952,5.89413157895,0.0
1449617331033812397,6.61952,5.89413157895,0.0
1449617331067049874,6.61952,5.89413157895,0.0
1449617331100778985,6.61952,5.89413157895,0.0
1449617331133672480,6.61952,5.89413157895,0.0
1449617331167202252,6.61952,5.89413157895,0.0
1449617331200856047,6.61952,5.89413157895,0.0
1449617331233579081,6.61952,5.89413157895,0.0
1449617331267283365,6.61952,5.89413157895,0.0
1449617331300589146,6.61952,5.89413157895,0.0
1449617331333483230,6.61952,5.89413157895,0.0
1449617331369778375,6.61952,5.89413157895,0.0
1449617331400629422,6.61952,5.89413157895,0.0
1449617331433728140,6.61952,5.89413157895,0.0
1449617331475194250,6.61952,5.89413157895,0.0
1449617331500787952,6.61952,5.89413157895,0.0
1449617331533870824,6.61952,5.89413157895,0.0
1449617331581975117,6.61952,5.89413157895,0.0
1449617331600339395,6.61952,5.89413157895,0.0
1449617331633665678,6.61952,5.89413157895,0.0
1449617331667491779,6.61952,5.89413157895,0.0
1449617331700555376,6.61952,5.89413157895,0.0
1449617331733561349,6.61952,5.89413157895,0.0
1449617331771292395,6.61952,5.89413157895,0.0
1449617331802140567,6.61952,5.89413157895,0.0
1449617331833659767,6.61952,5.89413157895,0.0
1449617331867106128,6.61952,5.89413157895,0.0
1449617331900221034,6.61952,5.89413157895,0.0
1449617331933761004,6.61952,5.89413157895,0.0
1449617331967138552,6.61952,5.89413157895,0.0
1449617332000369290,6.61952,5.89413157895,0.0
1449617332033495417,6.61952,5.89413157895,0.0
1449617332067432323,6.61952,5.89413157895,0.0
1449617332100573517,6.61952,5.89413157895,0.0
1449617332133653877,6.61952,5.89413157895,0.0
1449617332168182082,6.61952,5.82355263158,0.0
1449617332200295933,6.61952,5.82355263158,0.0
1449617332237963525,6.61952,5.82355263158,0.0
1449617332267180184,6.61952,5.82355263158,0.0
1449617332300469877,6.61952,5.82355263158,0.0
1449617332334210202,6.61952,5.82355263158,0.0
1449617332367053599,6.61952,5.82355263158,0.0
1449617332400228006,6.61952,5.82355263158,0.0
1449617332433688110,6.61952,5.82355263158,0.0
1449617332467658052,6.61952,5.82355263158,0.0
1449617332500853859,6.61952,5.82355263158,0.0
1449617332533857916,6.61952,5.82355263158,0.0
1449617332568160424,6.61952,5.82355263158,0.0
1449617332600817639,6.61952,5.82355263158,0.0
1449617332633451334,6.61952,5.82355263158,0.0
1449617332667674072,6.61952,5.75297368421,0.0
1449617332700732641,6.61952,5.75297368421,0.0
1449617332733914188,6.61952,5.75297368421,0.0
1449617332767336776,6.61952,5.75297368421,0.0
1449617332800556755,6.61952,5.75297368421,0.0
1449617332833582454,6.61952,5.75297368421,0.0
1449617332867024011,6.61952,5.75297368421,0.0
1449617332900632004,6.61952,5.75297368421,0.0
1449617332933881910,6.61952,5.75297368421,0.0
1449617332968769523,6.61952,5.75297368421,0.0
1449617333000274291,6.61952,5.75297368421,0.0
1449617333034191639,6.61952,5.75297368421,0.0
1449617333067844047,6.61952,5.75297368421,0.0
1449617333101230527,6.61952,5.75297368421,0.0
1449617333133689745,6.61952,5.75297368421,0.0
1449617333167796866,6.61952,5.75297368421,0.0
1449617333200337415,6.61952,5.82355263158,0.0
1449617333233640078,6.61952,5.82355263158,0.0
1449617333267136372,6.61952,5.75297368421,0.0
1449617333300964816,6.61952,5.75297368421,0.0
1449617333334796898,6.61952,5.75297368421,0.0
1449617333367379119,6.61952,5.75297368421,0.0
1449617333406595918,6.61952,5.68239473684,0.0
1449617333434112041,6.61952,5.68239473684,0.0
1449617333467495669,6.61952,5.75297368421,0.0
1449617333500543230,6.61952,5.75297368421,0.0
1449617333535062161,6.61952,5.75297368421,0.0
1449617333567031449,6.61952,5.75297368421,0.0
1449617333600363008,6.61952,5.75297368421,0.0
1449617333634079455,6.61952,5.75297368421,0.0
1449617333668135615,6.61952,5.68239473684,0.0
1449617333700270567,6.61952,5.68239473684,0.0
1449617333735114207,6.61952,5.68239473684,0.0
1449617333766898646,6.61952,5.68239473684,0.0
1449617333800258105,6.61952,5.68239473684,0.0
1449617333833857012,6.61952,5.68239473684,0.0
1449617333867092793,6.61952,5.68239473684,0.0
1449617333901916576,6.61952,5.68239473684,0.0
1449617333934079861,6.61952,5.68239473684,0.0
1449617333967613607,6.61952,5.68239473684,0.0
1449617334000050118,6.61952,5.68239473684,0.0
1449617334033746895,6.61952,5.68239473684,0.0
1449617334068286234,6.61952,5.68239473684,0.0
1449617334100171094,6.61952,5.68239473684,0.0
1449617334138825981,6.61952,5.68239473684,0.0
1449617334168582458,6.61952,5.68239473684,0.0
1449617334200405435,6.61952,5.68239473684,0.0
1449617334234024786,6.61952,5.68239473684,0.0
1449617334267830995,6.61952,5.61181578947,0.0
1449617334301305384,6.61952,5.61181578947,0.0
1449617334335644567,6.61952,5.61181578947,0.0
1449617334367436276,6.61952,5.61181578947,0.0
1449617334400829155,6.61952,5.61181578947,0.0
1449617334434822736,6.61952,5.68239473684,0.0
1449617334468461509,6.61952,5.68239473684,0.0
1449617334500442165,6.61952,5.68239473684,0.0
1449617334534197258,6.61952,5.68239473684,0.0
1449617334567264396,6.61952,5.61181578947,0.0
1449617334600388657,6.61952,5.61181578947,0.0
1449617334633864581,6.61952,5.61181578947,0.0
1449617334667910559,6.61952,5.61181578947,0.0
1449617334700136799,6.61952,5.61181578947,0.0
1449617334734371987,6.61952,5.61181578947,0.0
1449617334768242048,6.61952,5.61181578947,0.0
1449617334804422878,6.61952,5.61181578947,0.0
1449617334833922571,6.61952,5.61181578947,0.0
1449617334867235820,6.61952,5.61181578947,0.0
1449617334906379547,6.61952,5.61181578947,0.0
1449617334934230516,6.61952,5.61181578947,0.0
1449617334967093863,6.61952,5.61181578947,0.0
1449617335000471665,6.61952,5.61181578947,0.0
1449617335034142902,6.61952,5.61181578947,0.0
1449617335067273958,6.61952,5.61181578947,0.0
1449617335100619017,6.61952,5.61181578947,0.0
1449617335134045510,6.61952,5.61181578947,0.0
1449617335167335037,6.61952,5.61181578947,0.0
1449617335204563369,6.61952,5.61181578947,0.0
1449617335233930557,6.61952,5.61181578947,0.0
1449617335266949214,6.61952,5.61181578947,0.0
1449617335300666047,6.61952,5.61181578947,0.0
1449617335333680920,6.61952,5.61181578947,0.0
1449617335385240586,6.61952,5.61181578947,0.0
1449617335400248240,6.61952,5.61181578947,0.0
1449617335433654452,6.61952,5.61181578947,0.0
1449617335467341792,6.61952,5.61181578947,0.0
1449617335500410028,6.61952,5.61181578947,0.0
1449617335533797518,6.61952,5.61181578947,0.0
1449617335569629005,6.61952,5.61181578947,0.0
1449617335600488571,6.61952,5.61181578947,0.0
1449617335634816746,6.61952,5.61181578947,0.0
1449617335669972192,6.61952,5.61181578947,0.0
1449617335700114791,6.61952,5.61181578947,0.0
1449617335733835651,6.61952,5.61181578947,0.0
1449617335769077934,6.61952,5.61181578947,0.0
1449617335802155437,6.61952,5.61181578947,0.0
1449617335834218877,6.61952,5.68239473684,0.0
1449617335868143871,6.61952,5.68239473684,0.0
1449617335900469697,6.61952,5.68239473684,0.0
1449617335933658173,6.61952,5.68239473684,0.0
1449617335968637476,6.61952,5.68239473684,0.0
1449617336006329993,6.61952,5.68239473684,0.0
1449617336033516430,6.61952,5.68239473684,0.0
1449617336067317854,6.61952,5.68239473684,0.0
1449617336101435406,6.61952,5.68239473684,0.0
1449617336134074135,6.61952,5.68239473684,0.0
1449617336166811902,6.61952,5.68239473684,0.0
1449617336201287627,6.61952,5.68239473684,0.0
1449617336237017475,6.61952,5.68239473684,0.0
1449617336268075382,6.61952,5.68239473684,0.0
1449617336300706721,6.61952,5.68239473684,0.0
1449617336333816281,6.61952,5.68239473684,0.0
1449617336366828529,6.61952,5.68239473684,0.0
1449617336400457715,6.61952,5.68239473684,0.0
1449617336434707274,6.61952,5.68239473684,0.0
1449617336466788324,6.61952,5.68239473684,0.0
1449617336500302546,6.61952,5.68239473684,0.0
1449617336533528524,6.61952,5.68239473684,0.0
1449617336567185955,6.61952,5.68239473684,0.0
1449617336603155273,6.61952,5.75297368421,0.0
1449617336633610990,6.61952,5.68239473684,0.0
1449617336666946178,6.61952,5.75297368421,0.0
1449617336700087364,6.61952,5.75297368421,0.0
1449617336734472591,6.61952,5.75297368421,0.0
1449617336766976986,6.61952,5.75297368421,0.0
1449617336800554330,6.61952,5.75297368421,0.0
1449617336833712302,6.61952,5.75297368421,0.0
1449617336867036800,6.61952,5.75297368421,0.0
1449617336900811363,6.61952,5.75297368421,0.0
1449617336935646676,6.61952,5.75297368421,0.0
1449617336967084268,6.61952,5.75297368421,0.0
1449617337008191457,6.61952,5.75297368421,0.0
1449617337033820831,6.61952,5.75297368421,0.0
1449617337067510331,6.61952,5.75297368421,0.0
1449617337100173292,6.61952,5.75297368421,0.0
1449617337133893461,6.61952,5.75297368421,0.0
1449617337172819473,6.61952,5.82355263158,0.0
1449617337200559049,6.61952,5.82355263158,0.0
1449617337233700592,6.61952,5.82355263158,0.0
1449617337267097656,6.61391492038,5.82355263158,0.0
1449617337303246519,6.61391492038,5.82355263158,0.0
1449617337340401320,6.61391492038,5.82355263158,0.0
1449617337375888417,6.60224201375,5.82355263158,0.0
1449617337401079646,6.58886587411,5.82355263158,0.0
1449617337433612370,6.58048887821,5.82355263158,0.0
1449617337467259012,6.58048887821,5.82355263158,0.0
1449617337500400897,6.58048887821,5.82355263158,0.0
1449617337536176006,6.57547092686,5.82355263158,0.0
1449617337567626745,6.56036884334,5.89413157895,0.0
1449617337600188258,6.55701172373,5.89413157895,0.0
1449617337638018175,6.55701172373,5.89413157895,0.0
1449617337666984523,6.54861013421,5.89413157895,0.0
1449617337700338526,6.54861013421,5.89413157895,0.0
1449617337733909472,6.54861013421,5.89413157895,0.0
1449617337767736121,6.53684496439,5.89413157895,0.0
1449617337801656017,6.52842934014,5.89413157895,0.0
1449617337835214450,6.51663874309,5.89413157895,0.0
1449617337866827783,6.51158217009,5.89413157895,0.0
1449617337900381154,6.51158217009,5.89413157895,0.0
1449617337934023972,6.50314937004,5.96471052632,0.0
1449617337969984426,6.50314937004,5.96471052632,0.0
1449617338000679210,6.49808687938,5.96471052632,0.0
1449617338033930503,6.49808687938,5.96471052632,0.0
1449617338067172268,6.49808687938,5.96471052632,0.0
1449617338100821745,6.49808687938,5.96471052632,0.0
1449617338134153245,6.48458786412,5.96471052632,0.0
1449617338167043789,6.47445546493,6.0,0.0
1449617338201844201,6.46263142831,5.96471052632,0.0
1449617338233893119,6.46263142831,5.96471052632,0.0
1449617338266960097,6.45756317148,6.0,0.0
1449617338302872436,6.45756317148,6.0,0.0
1449617338335029931,6.45756317148,6.0,0.0
1449617338366916385,6.44573714637,6.0,0.0
1449617338400241403,6.44573714637,6.0,0.0
1449617338433615046,6.0,6.01064285776,0.0
1449617338467800697,6.0,6.01064285776,0.0
1449617338500730599,6.43053280928,6.0,0.0
1449617338534920669,6.43053280928,6.0,0.0
1449617338567668150,6.43053280928,6.0,0.0
1449617338600367277,6.42546578209,6.03528947368,0.0
1449617338633628071,6.0,6.0,0.0
1449617338667845162,6.0,6.0,0.0
1449617338701545009,6.0,6.0,0.0
1449617338735362145,6.0,6.0,0.0
1449617338768665150,6.0,6.0,0.0
1449617338800543821,6.0,6.0,0.0
1449617338835394969,6.0,6.0,0.0
1449617338867419978,6.0,6.0,0.0
1449617338900335493,6.0,6.0,0.0
1449617338934183131,6.0,6.0,0.0
1449617338967502150,6.0,6.0,0.0
1449617339000433000,6.0,6.0,0.0
1449617339035388101,6.0,6.0,0.0
1449617339067477610,6.0,6.0,0.0
1449617339100679422,6.0,6.0,0.0
1449617339134114600,6.0,6.0,0.0
1449617339168245014,6.0,6.0,0.0
1449617339200566852,6.0,6.0,0.0
1449617339233875487,6.0,6.0,0.0
1449617339266827810,6.0,6.0,0.0
1449617339309753838,6.0,6.0,0.0
1449617339335511162,6.0,6.0,0.0
1449617339366793366,6.0,6.0,0.0
1449617339400615852,6.0,6.0,0.0
1449617339434200206,6.0,6.0,0.0
1449617339467158267,6.0,6.0,0.0
1449617339501794776,6.0,6.0,0.0
1449617339535638681,6.0,6.0,0.0
1449617339566991570,6.0,6.0,0.0
1449617339601165872,6.0,6.0,0.0
1449617339633617768,6.0,6.0,0.0
1449617339667217721,6.0,6.0,0.0
1449617339701165883,6.0,6.0,0.0
1449617339734425878,6.0,6.0,0.0
1449617339767549179,6.0,6.0,0.0
1449617339800267568,6.0,6.0,0.0
1449617339833702394,6.0,6.0,0.0
1449617339867090675,6.0,6.0,0.0
1449617339900978524,6.0,6.0,0.0
1449617339934511789,6.0,6.0,0.0
1449617339968105897,6.0,6.0,0.0
1449617340000305380,6.0,6.0,0.0
1449617340033689548,6.0,6.0,0.0
1449617340066841997,6.0,6.0,0.0
1449617340102134687,6.0,6.0,0.0
1449617340134025200,6.0,6.0,0.0
1449617340167622007,6.0,6.0,0.0
1449617340200459272,6.0,6.0,0.0
1449617340233924023,6.0,6.0,0.0
1449617340267724759,6.0,6.0,0.0
1449617340312208614,6.0,6.0,0.0
1449617340335778290,6.0,6.0,0.0
1449617340367209015,6.0,6.0,0.0
1449617340400273768,6.0,6.0,0.0
1449617340433497745,6.0,6.0,0.0
1449617340469990590,6.0,6.0,0.0
1449617340500641347,6.0,6.0,0.0
1449617340533713632,6.0,6.0,0.0
1449617340567139673,6.0,6.0,0.0
1449617340600507467,6.0,6.0,0.0
1449617340633991267,6.0,6.0,0.0
1449617340667178338,6.0,6.0,0.0
1449617340701268515,6.0,6.0,0.0
1449617340733781329,6.0,6.0,0.0
1449617340767303692,6.0,6.0,0.0
1449617340800256450,6.0,6.0,0.0
1449617340837274355,6.0,6.0,0.0
1449617340868160728,6.0,6.0,0.0
1449617340900350721,6.0,6.0,0.0
1449617340934433263,6.0,6.0,0.0
1449617340970949055,6.0,6.0,0.0
1449617341000134542,6.0,6.0,0.0
1449617341033662242,6.0,6.0,0.0
1449617341067823638,6.0,6.0,0.0
1449617341100151629,6.0,6.0,0.0
1449617341133994964,6.0,6.0,0.0
1449617341167704092,6.0,6.0,0.0
1449617341200619418,6.0,6.0,0.0
1449617341234070192,6.0,6.0,0.0
1449617341268803402,6.0,6.0,0.0
1449617341300112085,6.0,6.0,0.0
1449617341333746544,6.0,6.0,0.0
1449617341366983180,6.0,6.0,0.0
1449617341401086034,6.0,6.0,0.0
1449617341435846120,6.0,6.0,0.0
1449617341468939641,6.0,6.0,0.0
1449617341500936405,6.0,6.0,0.0
1449617341534392827,6.0,6.0,0.0
1449617341567477200,6.0,6.0,0.0
1449617341600824209,6.0,6.0,0.0
1449617341633874709,6.0,6.0,0.0
1449617341667335496,6.0,6.0,0.0
1449617341700384895,6.0,6.0,0.0
1449617341733631540,6.0,6.0,0.0
1449617341767007639,6.0,6.0,0.0
1449617341806411871,6.0,6.0,0.0
1449617341833893548,6.0,6.0,0.0
1449617341867146736,6.0,6.0,0.0
1449617341900469989,6.0,6.0,0.0
1449617341933973190,6.0,6.0,0.0
1449617341966988262,6.0,6.0,0.0
1449617342000908892,6.0,6.0,0.0
1449617342033390629,6.0,6.0,0.0
1449617342077496192,6.0,6.0,0.0
1449617342101511650,6.0,6.0,0.0
1449617342134301456,6.0,6.0,0.0
1449617342167282084,6.0,6.0,0.0
1449617342200611062,6.0,6.0,0.0
1449617342233639382,6.0,6.0,0.0
1449617342271027899,6.0,6.0,0.0
1449617342300487973,6.0,6.0,0.0
1449617342333429810,6.0,6.0,0.0
1449617342368037798,6.0,6.0,0.0
1449617342400726031,6.0,6.0,0.0
1449617342433863110,6.0,6.0,0.0
1449617342467082023,6.0,6.0,0.0
1449617342500821358,6.0,6.0,0.0
1449617342534064395,6.0,6.0,0.0
1449617342566976751,6.0,6.0,0.0
1449617342602109101,6.0,6.0,0.0
1449617342634161566,6.0,6.0,0.0
1449617342667157856,6.0,6.0,0.0
1449617342700389997,6.0,6.0,0.0
1449617342734200354,6.0,6.0,0.0
1449617342767778494,6.0,6.0,0.0
1449617342800470864,6.0,6.0,0.0
1449617342833428499,6.0,6.0,0.0
1449617342867254656,6.0,6.0,0.0
1449617342901195197,6.0,6.0,0.0
1449617342934367911,6.0,6.0,0.0
1449617342967393332,6.0,6.0,0.0
1449617343002310218,6.0,6.0,0.0
1449617343035126328,6.0,6.0,0.0
1449617343066797934,6.0,6.0,0.0
1449617343100581249,6.0,6.0,0.0
1449617343134564969,6.0,6.0,0.0
1449617343167107112,6.0,6.0,0.0
1449617343200447736,6.0,6.0,0.0
1449617343234007798,6.0,6.0,0.0
1449617343267332172,6.0,6.0,0.0
1449617343305373585,6.0,6.0,0.0
1449617343333739718,6.0,6.0,0.0
1449617343367157097,6.0,6.0,0.0
1449617343401732384,6.0,6.0,0.0
1449617343433553958,6.0,6.0,0.0
1449617343467551121,6.0,6.0,0.0
1449617343501306070,6.0,6.0,0.0
1449617343533749840,6.0,6.0,0.0
1449617343567601965,6.0,6.0,0.0
1449617343600673020,6.0,6.0,0.0
1449617343636853299,6.0,6.0,0.0
1449617343667275986,6.0,6.0,0.0
1449617343700348424,6.0,6.0,0.0
1449617343734691525,6.0,6.0,0.0
1449617343767444937,6.0,6.0,0.0
1449617343800524005,6.0,6.0,0.0
1449617343836656730,6.0,6.0,0.0
1449617343866902625,6.0,6.0,0.0
1449617343900534199,6.0,6.0,0.0
1449617343933658323,6.0,6.0,0.0
1449617343978002297,6.0,6.0,0.0
1449617344000069690,6.0,6.0,0.0
1449617344033750268,6.0,6.0,0.0
1449617344069758830,6.0,6.0,0.0
1449617344100524416,6.0,6.0,0.0
1449617344139042543,6.0,6.0,0.0
1449617344167072366,6.0,6.0,0.0
1449617344200227006,6.0,6.0,0.0
1449617344233675885,6.0,6.0,0.0
1449617344267197855,6.0,6.0,0.0
1449617344300826918,6.0,6.0,0.0
1449617344334709923,6.0,6.0,0.0
1449617344367282342,6.0,6.0,0.0
1449617344404432793,6.0,6.0,0.0
1449617344433698512,6.0,6.0,0.0
1449617344467456141,6.0,6.0,0.0
1449617344500343075,6.0,6.0,0.0
1449617344533619832,6.0,6.0,0.0
1449617344566968796,6.0,6.0,0.0
1449617344600540445,6.0,6.0,0.0
1449617344633616297,6.0,6.0,0.0
1449617344667250373,6.0,6.0,0.0
1449617344700628681,6.0,6.0,0.0
1449617344734521420,6.0,6.0,0.0
1449617344767128348,6.0,6.0,0.0
1449617344800243073,6.0,6.0,0.0
1449617344833780497,6.0,6.0,0.0
1449617344866928450,6.0,6.0,0.0
1449617344902749647,6.0,6.0,0.0
1449617344938227112,6.0,6.0,0.0
1449617344968098479,6.0,6.0,0.0
1449617345000957558,6.0,6.0,0.0
1449617345034301973,6.0,6.0,0.0
1449617345067199149,6.0,6.0,0.0
1449617345102036501,6.0,6.0,0.0
1449617345133377049,6.0,6.0,0.0
1449617345167802325,6.0,6.0,0.0
1449617345200160020,6.0,6.0,0.0
1449617345234935573,6.0,6.0,0.0
1449617345266879905,6.0,6.0,0.0
1449617345300148926,6.0,6.0,0.0
1449617345333524301,6.0,6.0,0.0
1449617345367180172,6.0,6.0,0.0
1449617345400356369,6.0,6.0,0.0
1449617345434194486,6.0,6.0,0.0
1449617345467323409,6.0,6.0,0.0
1449617345500119601,6.0,6.0,0.0
1449617345533746644,6.0,6.0,0.0
1449617345567014591,6.0,6.0,0.0
1449617345601013257,6.0,6.0,0.0
1449617345633983687,6.0,6.0,0.0
1449617345667511447,6.0,6.0,0.0
1449617345700759754,6.0,6.0,0.0
1449617345734023811,6.0,6.0,0.0
1449617345768239881,6.0,6.0,0.0
1449617345802505785,6.0,6.0,0.0
1449617345834217649,6.0,6.0,0.0
1449617345868434932,6.0,6.0,0.0
1449617345902929707,6.0,6.0,0.0
1449617345933643198,6.0,6.0,0.0
1449617345967575265,6.0,6.0,0.0
1449617346000972965,6.0,6.0,0.0
1449617346033436651,6.0,6.0,0.0
1449617346067237273,6.0,6.0,0.0
1449617346100520833,6.0,6.0,0.0
1449617346135033323,6.0,6.0,0.0
1449617346167988803,6.0,6.0,0.0
1449617346200512289,6.0,6.0,0.0
1449617346233467865,6.0,6.0,0.0
1449617346268434726,6.0,6.0,0.0
1449617346300263591,6.0,6.0,0.0
1449617346333916362,6.0,6.0,0.0
1449617346367271531,6.0,6.0,0.0
1449617346402021779,6.0,6.0,0.0
1449617346435776655,6.0,6.0,0.0
1449617346469522304,6.0,6.0,0.0
1449617346500798408,6.0,6.0,0.0
1449617346533635550,6.0,6.0,0.0
1449617346569766728,6.0,6.0,0.0
1449617346605582446,6.0,6.0,0.0
1449617346639777060,6.0,6.0,0.0
1449617346668303767,6.0,6.0,0.0
1449617346700402980,6.0,6.0,0.0
1449617346733899565,6.0,6.0,0.0
1449617346769974559,6.0,6.0,0.0
1449617346806155935,6.0,6.0,0.0
1449617346834546129,6.0,6.0,0.0
1449617346867150965,6.0,6.0,0.0
1449617346902686688,6.0,6.0,0.0
1449617346935042784,6.0,6.0,0.0
1449617346967336899,6.0,6.0,0.0
1449617347000354744,6.0,6.0,0.0
1449617347033543944,6.0,6.0,0.0
1449617347067732161,6.0,6.0,0.0
1449617347101754866,6.0,6.0,0.0
1449617347133519604,6.0,6.0,0.0
1449617347167016500,6.0,6.0,0.0
1449617347200527913,6.0,6.0,0.0
1449617347234290314,6.0,6.0,0.0
1449617347268307534,6.0,6.0,0.0
1449617347300686269,6.0,6.0,0.0
1449617347333979052,6.0,6.0,0.0
1449617347366905728,6.0,6.0,0.0
1449617347406409799,6.0,6.0,0.0
1449617347440562920,6.0,6.0,0.0
1449617347467579344,6.0,6.0,0.0
1449617347502727738,6.0,6.0,0.0
1449617347534432318,6.0,6.0,0.0
1449617347567325646,6.0,6.0,0.0
1449617347601423533,6.0,6.0,0.0
1449617347640559773,6.0,6.0,0.0
1449617347667016759,6.0,6.0,0.0
1449617347702586186,6.0,6.0,0.0
1449617347733852309,6.0,6.0,0.0
1449617347767333802,6.0,6.0,0.0
1449617347800750001,6.0,6.0,0.0
1449617347833961032,6.0,6.0,0.0
1449617347867812117,6.0,6.0,0.0
1449617347900203746,6.0,6.0,0.0
1449617347936081536,6.0,6.0,0.0
1449617347968007090,6.0,6.0,0.0
1449617348011572257,6.0,6.0,0.0
1449617348035159622,6.0,6.0,0.0
1449617348068766734,6.0,6.0,0.0
1449617348101539561,6.0,6.0,0.0
1449617348139505821,6.0,6.0,0.0
1449617348167120858,6.0,6.0,0.0
1449617348200953395,6.0,6.0,0.0
1449617348233612846,6.0,6.0,0.0
1449617348268287791,6.0,6.0,0.0
1449617348300510986,6.0,6.0,0.0
1449617348334781446,6.0,6.0,0.0
1449617348367010991,6.0,6.0,0.0
1449617348402600736,6.0,6.0,0.0
1449617348433471476,6.0,6.0,0.0
1449617348467143101,6.0,6.0,0.0
1449617348500177850,6.0,6.0,0.0
1449617348535014600,6.0,6.0,0.0
1449617348567502737,6.0,6.0,0.0
1449617348600603329,6.0,6.0,0.0
1449617348634271007,6.0,6.0,0.0
1449617348667718577,6.0,6.0,0.0
1449617348700184465,6.0,6.0,0.0
1449617348734925849,6.0,6.0,0.0
1449617348767574347,6.0,6.0,0.0
1449617348804153697,6.0,6.0,0.0
1449617348835970273,6.0,6.0,0.0
1449617348867821335,6.0,6.0,0.0
1449617348901899552,6.0,6.0,0.0
1449617348934232227,6.0,6.0,0.0
1449617348966899851,6.0,6.0,0.0
1449617349000635034,6.0,6.0,0.0
1449617349035593754,6.0,6.0,0.0
1449617349066984512,6.0,6.0,0.0
1449617349100788397,6.0,6.0,0.0
1449617349134358416,6.0,6.0,0.0
1449617349167308354,6.0,6.0,0.0
1449617349200181985,6.0,6.0,0.0
1449617349233826651,6.0,6.0,0.0
1449617349274984486,6.0,6.0,0.0
1449617349300926071,6.0,6.0,0.0
1449617349337768303,6.0,6.0,0.0
1449617349373692144,6.0,6.0,0.0
1449617349401073570,6.0,6.0,0.0
1449617349433762854,6.0,6.0,0.0
1449617349467119547,6.0,6.0,0.0
1449617349500801649,6.0,6.06119642992,0.0
1449617349533963335,6.0,6.06119642992,0.0
1449617349567167675,6.0,6.06119642992,0.0
1449617349600978188,6.0,6.06119642992,0.0
1449617349633653965,6.0,6.06119642992,0.0
1449617349667941863,6.0,6.06119642992,0.0
1449617349700419834,6.0,6.06119642992,0.0
1449617349734453423,6.0,6.07982142881,0.0
1449617349766877276,6.0,6.07982142881,0.0
1449617349800523948,6.0,6.06385714405,0.0
1449617349835026855,6.0,6.06385714405,0.0
1449617349867272430,6.0,6.04257143103,0.0
1449617349900110288,6.0,6.04257143103,0.0
1449617349933796960,6.0,6.04257143103,0.0
1449617349967831353,6.0,6.04257143103,0.0
1449617350000353079,6.0,6.04257143103,0.0
1449617350033609898,6.0,6.04257143103,0.0
1449617350067783311,6.0,6.04257143103,0.0
1449617350101325101,6.0,6.05321428754,0.0
1449617350133706521,6.0,6.05321428754,0.0
1449617350167127397,6.0,6.05321428754,0.0
1449617350200278355,6.0,6.05321428754,0.0
1449617350233671768,6.0,6.05321428754,0.0
1449617350266959070,6.0,6.04257143103,0.0
1449617350300664398,6.0,6.04257143103,0.0
1449617350333643353,6.0,6.04257143103,0.0
1449617350366903085,6.0,6.04257143103,0.0
1449617350400920440,6.0,6.03192857202,0.0
1449617350433560273,6.0,6.03192857202,0.0
1449617350467002901,6.0,6.03192857202,0.0
1449617350500884551,6.0,6.03192857202,0.0
1449617350533520455,6.0,6.03192857202,0.0
1449617350566798913,6.0,6.03192857202,0.0
1449617350600178921,6.0,6.03192857202,0.0
1449617350635208943,6.0,6.06119642992,0.0
1449617350667152291,6.0,6.06119642992,0.0
1449617350700419724,6.0,6.06119642992,0.0
1449617350734353669,6.0,6.0,0.0
1449617350767354261,6.0,6.0,0.0
1449617350800299433,6.0,6.0,0.0
1449617350834258941,6.0,6.0,0.0
1449617350866974550,6.0,6.0,0.0
1449617350900809918,6.0,6.0,0.0
1449617350933842479,6.0,6.0,0.0
1449617350966997462,6.0,6.0,0.0
1449617351000186848,6.0,6.0,0.0
1449617351033495033,6.0,6.0,0.0
1449617351066781624,6.0,6.0,0.0
1449617351100870713,6.0,6.0,0.0
1449617351133498570,6.0,6.0,0.0
1449617351167195515,6.0,6.0,0.0
1449617351200905343,6.0,6.0,0.0
1449617351233649390,6.0,6.0,0.0
1449617351267356359,6.0,6.0,0.0
1449617351300883589,6.0,6.0,0.0
1449617351333869588,6.0,6.0,0.0
1449617351366961964,6.0,6.0,0.0
1449617351400092691,6.0,6.0,0.0
1449617351434482857,6.0,6.0,0.0
1449617351467310174,6.0,6.0,0.0
1449617351500219251,6.0,6.0,0.0
1449617351533551803,6.0,6.0,0.0
1449617351567047178,6.0,6.0,0.0
1449617351600751385,6.0,6.0,0.0
1449617351633607419,6.0,6.0,0.0
1449617351668931251,6.0,6.0,0.0
1449617351702191061,6.0,6.0,0.0
1449617351733668476,6.0,6.0,0.0
1449617351767404050,6.0,6.0,0.0
1449617351800312448,6.0,6.0,0.0
1449617351833632540,6.0,6.0,0.0
1449617351866841871,6.0,6.0,0.0
1449617351900889050,6.0,6.0,0.0
1449617351936314740,6.0,6.0,0.0
1449617351968020410,6.0,6.0,0.0
1449617352000512499,6.0,6.0,0.0
1449617352034919860,6.0,6.0,0.0
1449617352067586057,6.0,6.0,0.0
1449617352101072683,6.0,6.0,0.0
1449617352134479990,6.0,6.0,0.0
1449617352167197620,6.0,6.0,0.0
1449617352200199767,6.0,6.0,0.0
1449617352233961169,6.0,6.0,0.0
1449617352267612035,6.0,6.0,0.0
1449617352300456537,6.0,6.0,0.0
1449617352333801318,6.0,6.0,0.0
1449617352367116929,6.0,6.0,0.0
1449617352400240120,6.0,6.0,0.0
1449617352434558659,6.0,6.0,0.0
1449617352467383492,6.0,6.0,0.0
1449617352500787459,6.0,6.0,0.0
1449617352533608416,6.0,6.0,0.0
1449617352567430898,6.0,6.0,0.0
1449617352600225234,6.0,6.0,0.0
1449617352633706419,6.0,6.0,0.0
1449617352667736343,6.0,6.0,0.0
1449617352701521123,6.0,6.0,0.0
1449617352733508860,6.0,6.0,0.0
1449617352766815668,6.0,6.0,0.0
1449617352800181186,6.0,6.0,0.0
1449617352833820790,6.0,6.0,0.0
1449617352867494600,6.0,6.0,0.0
1449617352900412196,6.0,6.0,0.0
1449617352936004012,6.0,6.0,0.0
1449617352972757779,6.0,6.0,0.0
1449617353000464019,6.0,6.0,0.0
1449617353033948450,6.0,6.0,0.0
1449617353067368142,6.0,6.0,0.0
1449617353100692200,6.0,6.0,0.0
1449617353134108304,6.0,6.0,0.0
1449617353167970461,6.0,6.0,0.0
1449617353200171303,6.0,6.0,0.0
1449617353234303329,6.0,6.0,0.0
1449617353267141562,6.0,6.0,0.0
1449617353300460217,6.0,6.0,0.0
1449617353335510794,6.0,6.0,0.0
1449617353547488488,6.0,6.0,0.0
1449617353547497308,6.0,6.0,0.0
1449617353572562772,6.0,6.0,0.0
1449617353605680826,6.0,6.0,0.0
1449617353637565052,6.0,6.0,0.0
1449617353671338973,6.0,6.0,0.0
1449617353704655917,6.0,6.0,0.0
1449617353744756049,6.0,6.0,0.0
1449617353771355248,6.0,6.0,0.0
1449617353804072404,6.0,6.0,0.0
1449617353841336784,6.0,6.0,0.0
1449617353870769610,6.0,6.0,0.0
1449617353904438082,6.0,6.0,0.0
1449617353937671013,6.0,6.0,0.0
1449617353972778796,6.0,6.0,0.0
1449617354004233296,6.0,6.0,0.0
1449617354037438165,6.0,6.0,0.0
1449617354071089086,6.0,6.0,0.0
1449617354104503803,6.0,6.0,0.0
1449617354138890612,6.0,6.0,0.0
1449617354171548162,6.0,6.0,0.0
1449617354205349425,6.0,6.0,0.0
1449617354237636514,6.0,6.0,0.0
1449617354272360284,6.0,6.0,0.0
1449617354304162892,6.0,6.0,0.0
1449617354338103419,6.0,6.0,0.0
1449617354376981842,6.0,6.0,0.0
1449617354406919603,6.0,6.0,0.0
1449617354437792400,6.0,6.0,0.0
1449617354470758325,6.0,6.0,0.0
1449617354504279052,6.0,6.0,0.0
1449617354537595180,6.0,6.0,0.0
1449617354571411434,6.0,6.0,0.0
1449617354604255841,6.0,6.0,0.0
1449617354641763781,6.0,6.0,0.0
1449617354670853581,6.0,6.0,0.0
1449617354704834950,6.0,6.0,0.0
1449617354738286873,6.0,6.0,0.0
1449617354770885447,6.0,6.0,0.0
1449617354815175058,6.0,6.0,0.0
1449617354837537805,6.0,6.0,0.0
1449617354876085938,6.0,6.0,0.0
1449617354905865670,6.0,6.0,0.0
1449617354939777416,6.0,6.0,0.0
1449617354977671340,6.0,6.0,0.0
1449617355006042553,6.0,6.0,0.0
1449617355037779915,6.0,6.0,0.0
1449617355078500461,6.0,6.0,0.0
1449617355104079214,6.0,6.0,0.0
1449617355137627850,6.0,6.0,0.0
1449617355171184760,6.0,6.0,0.0
1449617355205541029,6.0,6.0,0.0
1449617355248969333,6.0,6.0,0.0
1449617355273620193,6.0,6.0,0.0
1449617355304324473,6.0,6.0,0.0
1449617355338389072,6.0,6.0,0.0
1449617355370644268,6.0,6.0,0.0
1449617355404119211,6.0,6.0,0.0
1449617355439073286,6.0,6.0,0.0
1449617355471298989,6.0,6.0,0.0
1449617355505702673,6.0,6.0,0.0
1449617355543035205,6.0,6.0,0.0
1449617355570834263,6.0,6.0,0.0
1449617355603999797,6.0,6.0,0.0
1449617355637947210,6.0,6.0,0.0
1449617355670824356,6.0,6.0,0.0
1449617355704234900,6.0,6.0,0.0
1449617355738046661,6.0,6.0,0.0
1449617355770699518,6.0,6.0,0.0
1449617355804278572,6.0,6.0,0.0
1449617355837284350,6.0,6.0,0.0
1449617355870838492,6.0,6.0,0.0
1449617355909699149,6.0,6.0,0.0
1449617355937550326,6.0,6.0,0.0
1449617355970922795,6.0,6.0,0.0
1449617356004206805,6.0,6.0,0.0
1449617356040439424,6.0,6.0,0.0
1449617356071023407,6.0,6.0,0.0
1449617356104283687,6.0,6.0,0.0
1449617356154204230,6.0,6.0,0.0
1449617356170972747,6.0,6.0,0.0
1449617356204929735,6.0,6.0,0.0
1449617356237943537,6.0,6.0,0.0
1449617356270883496,6.0,6.0,0.0
1449617356305507752,6.0,6.0,0.0
1449617356337722068,6.0,6.0,0.0
1449617356370859622,6.0,6.0,0.0
1449617356404546371,6.0,6.0,0.0
1449617356438039892,6.0,6.0,0.0
1449617356471062054,6.0,6.0,0.0
1449617356504602520,6.0,6.0,0.0
1449617356537396825,6.0,6.0,0.0
1449617356572208402,6.0,6.0,0.0
1449617356604940891,6.0,6.0,0.0
1449617356637684285,6.0,6.0,0.0
1449617356671003733,6.0,6.0,0.0
1449617356705477301,6.0,6.0,0.0
1449617356737830694,6.09756825648,6.03458928615,0.0
1449617356774074803,6.09756825648,6.03458928615,0.0
1449617356804368718,6.51134984772,6.05321428754,0.0
1449617356837819438,6.51134984772,6.05321428754,0.0
1449617356870716955,6.59001904938,6.09578571857,0.0
1449617356904378228,6.59001904938,6.09578571857,0.0
1449617356937820558,6.59001904938,6.09578571857,0.0
1449617356971951554,6.59001904938,6.09578571857,0.0
1449617357004535245,6.59985269958,6.09578571857,0.0
1449617357037381002,6.59985269958,6.09578571857,0.0
1449617357070877386,6.59985269958,6.09578571857,0.0
1449617357104222438,6.59985269958,6.09578571857,0.0
1449617357137570013,6.59985269958,6.09578571857,0.0
1449617357171802929,6.59985269958,6.09578571857,0.0
1449617357204260273,6.59001904938,6.12771428809,0.0
1449617357237847870,6.59001904938,6.12771428809,0.0
1449617357271258380,6.59001904938,6.12771428809,0.0
1449617357304486194,6.59001904938,6.12771428809,0.0
1449617357337644766,6.58018539917,6.21285715015,0.0
1449617357373497039,6.58018539917,6.21285715015,0.0
1449617357407882745,6.58018539917,6.21285715015,0.0
1449617357437758908,6.58018539917,6.21285715015,0.0
1449617357471394725,6.58018539917,6.21285715015,0.0
1449617357504960646,6.2112,6.24702631579,0.0
1449617357537564916,6.2112,6.24702631579,0.0
1449617357571635162,6.2112,6.24702631579,0.0
1449617357604083432,6.43521399463,6.38818421053,0.0
1449617357637582609,6.43521399463,6.38818421053,0.0
1449617357670658731,6.43521399463,6.38818421053,0.0
1449617357704162940,6.43361666436,6.38818421053,0.0
1449617357738109219,6.43202576951,6.31760526316,0.0
1449617357771074481,6.43202576951,6.31760526316,0.0
1449617357804343912,6.43202576951,6.31760526316,0.0
1449617357838306062,6.43202576951,6.31760526316,0.0
1449617357870694143,6.43202576951,6.31760526316,0.0
1449617357909862447,6.0,6.0,0.0
1449617357939795338,6.0,6.0,0.0
1449617357971288393,6.42565814504,6.38818421053,0.0
1449617358004951569,6.42565814504,6.38818421053,0.0
1449617358037529399,6.42565814504,6.38818421053,0.0
1449617358071788505,6.42565814504,6.38818421053,0.0
1449617358104248181,6.42565814504,6.38818421053,0.0
1449617358137646252,6.42088131527,6.38818421053,0.0
1449617358170872477,6.42088131527,6.38818421053,0.0
1449617358204105278,6.42088131527,6.38818421053,0.0
1449617358237843304,6.42790251771,6.31760526316,0.0
1449617358272250072,6.42790251771,6.31760526316,0.0
1449617358306164759,6.42497311557,6.31760526316,0.0
1449617358337712194,6.42497311557,6.31760526316,0.0
1449617358371562990,6.42204137649,6.38818421053,0.0
1449617358405085823,6.42204137649,6.38818421053,0.0
1449617358437746191,6.42204137649,6.38818421053,0.0
1449617358471334122,6.41911650951,6.38818421053,0.0
1449617358506480326,6.41911650951,6.38818421053,0.0
1449617358538399634,6.4118074005,6.31760526316,0.0
1449617358570818302,6.40888869526,6.38818421053,0.0
1449617358607749157,6.40888869526,6.38818421053,0.0
1449617358637412836,6.40888869526,6.38818421053,0.0
1449617358671194421,6.40157814957,6.31760526316,0.0
1449617358704216714,6.40157814957,6.31760526316,0.0
1449617358738487413,6.40157814957,6.31760526316,0.0
1449617358770832204,6.2112,6.17644736842,0.0
1449617358804973957,6.2112,6.17644736842,0.0
1449617358837607432,6.2112,6.17644736842,0.0
1449617358870806927,6.2112,6.17644736842,0.0
1449617358904677777,6.2112,6.17644736842,0.0
1449617358938075143,6.2112,6.17644736842,0.0
1449617358972259006,6.2112,6.17644736842,0.0
1449617359004479403,6.2112,6.10586842105,0.0
1449617359037985291,6.2112,6.10586842105,0.0
1449617359070955522,6.2112,6.10586842105,0.0
1449617359104481670,6.0,5.4803625,0.0
1449617359141844528,6.0,5.4803625,0.0
1449617359172174345,6.00443492089,5.77257544675,0.0
1449617359204288572,6.00443492089,5.77257544675,0.0
1449617359237882113,6.00443492089,5.77257544675,0.0
1449617359270798773,6.00443492089,5.77257544675,0.0
1449617359304366894,6.00443492089,5.76459330436,0.0
1449617359337555792,6.00443492089,5.76459330436,0.0
1449617359371647346,6.00886984178,5.77257544675,0.0
1449617359404947434,6.00886984178,5.77257544675,0.0
1449617359437794493,6.00886984178,5.77257544675,0.0
1449617359476205921,6.00886984178,5.77257544675,0.0
1449617359504576645,6.00443492089,5.77523616087,0.0
1449617359537795171,6.00443492089,5.77523616087,0.0
1449617359574622399,6.00443492089,5.77257544675,0.0
1449617359604579054,6.00443492089,5.77257544675,0.0
1449617359638262304,6.00443492089,5.77257544675,0.0
1449617359671251741,6.00443492089,5.77257544675,0.0
1449617359706117135,6.00886984178,5.77523616087,0.0
1449617359737854130,6.00886984178,5.77523616087,0.0
1449617359775093711,6.00886984178,5.77523616087,0.0
1449617359804331783,6.00443492089,5.77523616087,0.0
1449617359837569498,6.00886984178,5.77523616087,0.0
1449617359871118707,6.00886984178,5.77523616087,0.0
1449617359904166736,6.00886984178,5.77523616087,0.0
1449617359943741654,6.00886984178,5.77523616087,0.0
1449617359971839429,6.00886984178,5.77523616087,0.0
1449617360004506497,6.00886984178,5.77523616087,0.0
1449617360038564913,6.00443492089,5.77523616087,0.0
1449617360071820140,6.00443492089,5.77523616087,0.0
1449617360105177384,6.00443492089,5.77523616087,0.0
1449617360138616506,6.00443492089,5.77523616087,0.0
1449617360171227019,6.00443492089,5.77523616087,0.0
1449617360204300636,6.00443492089,5.77523616087,0.0
1449617360237626071,6.00886984178,5.77257544675,0.0
1449617360270995363,6.00886984178,5.77257544675,0.0
1449617360304643727,6.00443492089,5.75927187611,0.0
1449617360339378738,6.00443492089,5.75927187611,0.0
1449617360377514528,6.00886984178,5.77523616087,0.0
1449617360405665113,6.00886984178,5.77523616087,0.0
1449617360437456618,6.00886984178,5.77523616087,0.0
1449617360471050812,6.00886984178,5.77523616087,0.0
1449617360504746132,6.00443492089,5.77523616087,0.0
1449617360542229756,6.00443492089,5.77523616087,0.0
1449617360571056636,6.00443492089,5.77523616087,0.0
1449617360605109171,6.00443492089,5.77523616087,0.0
1449617360637401921,6.00443492089,5.77523616087,0.0
1449617360671044642,6.00443492089,5.77523616087,0.0
1449617360704132186,6.00886984178,5.77523616087,0.0
1449617360737520093,6.00886984178,5.77523616087,0.0
1449617360773029989,6.01330476215,5.77257544675,0.0
1449617360805144720,6.01330476215,5.77257544675,0.0
1449617360839757714,6.01330476215,5.77257544675,0.0
1449617360870976486,6.26059174896,6.02221696746,0.0
1449617360904441129,6.26059174896,6.02221696746,0.0
1449617360937844584,6.26059174896,6.02221696746,0.0
1449617360971073464,6.26059174896,6.02221696746,0.0
1449617361004450382,6.26550857407,6.02221696746,0.0
1449617361037396094,6.26550857407,6.02221696746,0.0
1449617361071071904,6.26550857407,6.02221696746,0.0
1449617361104316812,6.26059174896,6.02753839571,0.0
1449617361139872553,6.26059174896,6.02753839571,0.0
1449617361177320315,6.26059174896,6.02753839571,0.0
1449617361204689731,6.23600762344,5.99560982619,0.0
1449617361243175776,6.23600762344,5.99560982619,0.0
1449617361271025630,6.26059174896,6.02221696746,0.0
1449617361304324157,6.26059174896,6.02221696746,0.0
1449617361338095125,6.26059174896,6.02221696746,0.0
1449617361371858358,6.26059174896,6.02221696746,0.0
1449617361404528970,6.26059174896,6.02753839571,0.0
1449617361450229094,6.26550857407,6.02221696746,0.0
1449617361474902233,6.26550857407,6.02221696746,0.0
1449617361509371619,6.26550857407,6.02221696746,0.0
1449617361537541743,6.29009738451,6.24702631579,0.0
1449617361570977623,6.29009738451,6.24702631579,0.0
1449617361604227328,6.29009738451,6.24702631579,0.0
1449617361637781368,6.29009738451,6.24702631579,0.0
1449617361674697194,6.29009738451,6.24702631579,0.0
1449617361704526434,6.29009738451,6.24702631579,0.0
1449617361739273817,6.29009738451,6.24702631579,0.0
1449617361771778716,6.29009738451,6.24702631579,0.0
1449617361804609127,6.29009738451,6.24702631579,0.0
1449617361838134440,6.28853935985,6.24702631579,0.0
1449617361872418125,6.28853935985,6.24702631579,0.0
1449617361910790248,6.28697578388,6.24702631579,0.0
1449617361937637654,6.28697578388,6.24702631579,0.0
1449617361973955047,6.28697578388,6.24702631579,0.0
1449617362004265271,6.28697578388,6.24702631579,0.0
1449617362037585595,6.28697578388,6.24702631579,0.0
1449617362071767019,6.28697578388,6.24702631579,0.0
1449617362104056381,6.28697578388,6.24702631579,0.0
1449617362138785534,6.28697578388,6.24702631579,0.0
1449617362171154935,6.28384627614,6.24702631579,0.0
1449617362206213602,6.27915273467,6.24702631579,0.0
1449617362237992423,6.27915273467,6.24702631579,0.0
1449617362271348830,6.27915273467,6.24702631579,0.0
1449617362304178844,6.27915273467,6.24702631579,0.0
1449617362342098417,6.27915273467,6.24702631579,0.0
1449617362371253964,6.27915273467,6.24702631579,0.0
1449617362407278376,6.27445199799,6.24702631579,0.0
1449617362439040024,6.27445199799,6.24702631579,0.0
1449617362470991237,6.26975772916,6.24702631579,0.0
1449617362506328690,6.26662677557,6.24702631579,0.0
1449617362537634468,6.26662677557,6.24702631579,0.0
1449617362570893932,6.26662677557,6.24702631579,0.0
1449617362606272948,6.26505691292,6.24702631579,0.0
1449617362637552444,6.25879238436,6.31760526316,0.0
1449617362671134324,6.25879238436,6.31760526316,0.0
1449617362704786019,6.25879238436,6.31760526316,0.0
1449617362738590140,6.23881399913,6.24702631579,0.0
1449617362771165147,6.23881399913,6.24702631579,0.0
1449617362804277109,6.23599145925,6.24702631579,0.0
1449617362837776255,6.23599145925,6.24702631579,0.0
1449617362871317134,6.23599145925,6.24702631579,0.0
1449617362904422435,6.23599145925,6.24702631579,0.0
1449617362937884863,6.2112,6.24702631579,0.0
1449617362971229644,6.2112,6.24702631579,0.0
1449617363007118756,6.2112,6.24702631579,0.0
1449617363037960428,6.22458985253,6.24702631579,0.0
1449617363070755351,6.22458985253,6.24702631579,0.0
1449617363104765931,6.21695102916,6.24702631579,0.0
1449617363138308008,6.21695102916,6.24702631579,0.0
1449617363171066735,6.21695102916,6.24702631579,0.0
1449617363204165053,6.21695102916,6.24702631579,0.0
1449617363237470671,6.2112,6.24702631579,0.0
1449617363271070017,6.2112,6.24702631579,0.0
1449617363305782850,6.2112,6.24702631579,0.0
1449617363337771768,6.2112,6.24702631579,0.0
1449617363371121386,6.2112,6.24702631579,0.0
1449617363404126830,6.2112,6.24702631579,0.0
1449617363438083109,6.22184055773,6.24702631579,0.0
1449617363471429009,6.22184055773,6.24702631579,0.0
1449617363504547878,6.21411721231,6.24702631579,0.0
1449617363537574212,6.21900290592,6.17644736842,0.0
1449617363571435363,6.21900290592,6.17644736842,0.0
1449617363604188253,6.21900290592,6.17644736842,0.0
1449617363639317729,6.21900290592,6.17644736842,0.0
1449617363671520986,6.2112,6.24702631579,0.0
1449617363704448282,6.2112,6.24702631579,0.0
1449617363737469933,6.2112,6.24702631579,0.0
1449617363780595083,6.2112,6.24702631579,0.0
1449617363804126648,6.2112,6.24702631579,0.0
1449617363837327161,6.2112,6.24702631579,0.0
1449617363878095708,6.2112,6.24702631579,0.0
1449617363907455558,6.21324152048,6.24702631579,0.0
1449617363942155283,6.21324152048,6.24702631579,0.0
1449617363978189925,6.21324152048,6.24702631579,0.0
1449617364004697998,6.21324152048,6.24702631579,0.0
1449617364037927333,6.21324152048,6.24702631579,0.0
1449617364071423865,6.2133118242,6.24702631579,0.0
1449617364104679500,6.59001904938,6.12771428809,0.0
1449617364138249445,6.59001904938,6.12771428809,0.0
1449617364170916912,6.59001904938,6.12771428809,0.0
1449617364204511962,6.4916825473,6.10642857508,0.0
1449617364239685497,6.4916825473,6.10642857508,0.0
1449617364271275565,6.59985269958,6.09578571857,0.0
1449617364306471523,6.59985269958,6.09578571857,0.0
1449617364338509585,6.59985269958,6.09578571857,0.0
1449617364371306780,6.59985269958,6.09578571857,0.0
1449617364404766353,6.59985269958,6.09578571857,0.0
1449617364438126457,6.59985269958,6.09578571857,0.0
1449617364471088025,6.59985269958,6.09578571857,0.0
1449617364509359544,6.59985269958,6.09578571857,0.0
1449617364538846186,6.59985269958,6.09578571857,0.0
1449617364571136686,6.59985269958,6.09578571857,0.0
1449617364605866766,6.59985269958,6.09578571857,0.0
1449617364637502306,6.59985269958,6.09578571857,0.0
1449617364670760605,6.59985269958,6.09578571857,0.0
1449617364704251289,6.59001904938,6.09578571857,0.0
1449617364738409300,6.59001904938,6.09578571857,0.0
1449617364772920378,6.59001904938,6.09578571857,0.0
1449617364804492246,6.54085079834,6.07450000056,0.0
1449617364838563909,6.54085079834,6.07450000056,0.0
1449617364882488819,6.54085079834,6.07450000056,0.0
1449617364904074213,6.54085079834,6.07450000056,0.0
1449617364937709958,6.2112,6.17644736842,0.0
1449617364971285027,6.2112,6.17644736842,0.0
1449617365004294738,6.2112,6.10586842105,0.0
1449617365038374920,6.2112,6.10586842105,0.0
1449617365070772976,6.2112,6.03528947368,0.0
1449617365105894680,6.2112,6.03528947368,0.0
1449617365138184201,6.2112,6.24702631579,0.0
1449617365171444911,6.2112,6.17644736842,0.0
1449617365204659624,6.2112,6.17644736842,0.0
1449617365237507340,5.6825,6.0,0.0
1449617365271064116,6.44988952469,5.90201919827,0.0
1449617365304752766,6.44988952469,5.90201919827,0.0
1449617365338022991,6.44988952469,5.90201919827,0.0
1449617365371343970,6.44988952469,5.90201919827,0.0
1449617365404389640,6.44988952469,5.90201919827,0.0
1449617365437856864,6.44988952469,5.90201919827,0.0
1449617365471307902,6.3048431749,5.76146696551,0.0
1449617365510690615,6.60968634979,6.04257143103,0.0
1449617365540752227,6.60968634979,6.04257143103,0.0
1449617365574156286,6.45726476234,5.90201919827,0.0
1449617365604564708,6.45726476234,5.88605491164,0.0
1449617365640527295,6.45726476234,5.88605491164,0.0
1449617365671661157,6.45726476234,5.89403705402,0.0
1449617365705615430,6.60968634979,6.03192857202,0.0
1449617365737434970,6.60968634979,6.03192857202,0.0
1449617365771296598,6.60968634979,6.03192857202,0.0
1449617365804787973,6.45726476234,5.87807276832,0.0
1449617365837532963,6.45726476234,5.87807276832,0.0
1449617365871160456,6.60968634979,6.02128571551,0.0
1449617365904180093,6.60968634979,6.02128571551,0.0
1449617365937533929,6.60968634979,6.02128571551,0.0
1449617365971100978,6.59985269958,6.02128571551,0.0
1449617366006862393,6.59985269958,6.02128571551,0.0
1449617366041111032,6.59985269958,6.02128571551,0.0
1449617366070981321,6.59985269958,6.02128571551,0.0
1449617366107417612,6.59985269958,6.02128571551,0.0
1449617366139253430,6.60968634979,6.02128571551,0.0
1449617366171188310,6.60968634979,6.02128571551,0.0
1449617366204599662,6.54085079834,6.02128571551,0.0
1449617366238023711,6.54085079834,6.02128571551,0.0
1449617366271094451,6.60968634979,6.02128571551,0.0
1449617366304414468,6.51006476234,6.16594454979,0.0
1449617366338015963,6.51006476234,6.16594454979,0.0
1449617366372355974,6.51006476234,6.16594454979,0.0
1449617366404291369,6.53101714813,6.01064285776,0.0
1449617366437535463,6.53101714813,6.01064285776,0.0
1449617366472066688,6.51744,6.12267293279,0.0
1449617366504426711,6.46464,6.17560714332,0.0
1449617366539186703,6.46464,6.17560714332,0.0
1449617366571238961,6.46464,6.17560714332,0.0
1449617366613691342,6.52118349792,6.01064285776,0.0
1449617366637625466,6.52118349792,6.01064285776,0.0
1449617366671015566,6.45726476234,6.17560714332,0.0
1449617366705318021,6.45726476234,6.00798214332,0.0
1449617366738081762,6.45726476234,6.00798214332,0.0
1449617366771513321,6.54085079834,6.01064285776,0.0
