%time,field.header.seq,field.header.stamp,field.header.frame_id,field.ns,field.id,field.type,field.action,field.pose.position.x,field.pose.position.y,field.pose.position.z,field.pose.orientation.x,field.pose.orientation.y,field.pose.orientation.z,field.pose.orientation.w,field.scale.x,field.scale.y,field.scale.z,field.color.r,field.color.g,field.color.b,field.color.a,field.lifetime,field.frame_locked,field.text,field.mesh_resource,field.mesh_use_embedded_materials
1449618709106063113,0,0,/odom,acmd_vector,0,0,0,0.0,0.0,0.0,0.0,0.0,0.0,1.0,1e-05,0.05,0.05,1.0,0.0,0.0,1.0,0,0,,,0
1449618709141317830,1,0,/odom,acmd_vector,0,0,0,0.0,0.0,0.0,0.0,0.0,0.0,1.0,1e-05,0.05,0.05,1.0,0.0,0.0,1.0,0,0,,,0
1449618709205012111,2,0,/odom,acmd_vector,0,0,0,0.0,0.0,0.0,0.0,0.0,0.0,1.0,1e-05,0.05,0.05,1.0,0.0,0.0,1.0,0,0,,,0
1449618709231044949,3,0,/odom,acmd_vector,0,0,0,0.0,0.0,0.0,0.0,0.0,0.0,1.0,1e-05,0.05,0.05,1.0,0.0,0.0,1.0,0,0,,,0
1449618709270607670,4,0,/odom,acmd_vector,0,0,0,0.0,0.0,0.0,0.0,0.0,0.0,1.0,1e-05,0.05,0.05,1.0,0.0,0.0,1.0,0,0,,,0
1449618709375547457,5,0,/odom,acmd_vector,0,0,0,0.0,0.0,0.0,0.0,0.0,0.0,1.0,1e-05,0.05,0.05,1.0,0.0,0.0,1.0,0,0,,,0
1449618709392830965,6,0,/odom,acmd_vector,0,0,0,0.0,0.0,0.0,0.0,0.0,0.0,1.0,1e-05,0.05,0.05,1.0,0.0,0.0,1.0,0,0,,,0
1449618709436077126,7,0,/odom,acmd_vector,0,0,0,0.0,0.0,0.0,0.0,0.0,0.0,1.0,1e-05,0.05,0.05,1.0,0.0,0.0,1.0,0,0,,,0
1449618709477110364,8,0,/odom,acmd_vector,0,0,0,0.0,0.0,0.0,0.0,0.0,0.0,1.0,1e-05,0.05,0.05,1.0,0.0,0.0,1.0,0,0,,,0
1449618709515838138,9,0,/odom,acmd_vector,0,0,0,0.0,0.0,0.0,0.0,0.0,0.0,1.0,1e-05,0.05,0.05,1.0,0.0,0.0,1.0,0,0,,,0
1449618709549950511,10,0,/odom,acmd_vector,0,0,0,0.0,0.0,0.0,0.0,0.0,0.0,1.0,1e-05,0.05,0.05,1.0,0.0,0.0,1.0,0,0,,,0
1449618709588159938,11,0,/odom,acmd_vector,0,0,0,0.0,0.0,0.0,0.0,0.0,0.0,1.0,1e-05,0.05,0.05,1.0,0.0,0.0,1.0,0,0,,,0
1449618709627451583,12,0,/odom,acmd_vector,0,0,0,0.0,0.0,0.0,0.0,0.0,0.0,1.0,1e-05,0.05,0.05,1.0,0.0,0.0,1.0,0,0,,,0
1449618709685873576,13,0,/odom,acmd_vector,0,0,0,0.0,0.0,0.0,0.0,0.0,-0.0105261213988,0.99994459885,0.12001,0.05,0.05,1.0,0.0,0.0,1.0,0,0,,,0
1449618709714449565,14,0,/odom,acmd_vector,0,0,0,0.0,0.0,0.0,0.0,0.0,-0.0105261213988,0.99994459885,0.12001,0.05,0.05,1.0,0.0,0.0,1.0,0,0,,,0
1449618709789038310,15,0,/odom,acmd_vector,0,0,0,0.0,0.0,0.0,0.0,0.0,-0.0105261213988,0.99994459885,0.188510232132,0.05,0.05,1.0,0.0,0.0,1.0,0,0,,,0
1449618709806176127,16,0,/odom,acmd_vector,0,0,0,0.0,0.0,0.0,0.0,0.0,-0.0105261213988,0.99994459885,0.188510232132,0.05,0.05,1.0,0.0,0.0,1.0,0,0,,,0
1449618709831508695,17,0,/odom,acmd_vector,0,0,0,0.0,0.0,0.0,0.0,0.0,-0.0105261213988,0.99994459885,0.188510232132,0.05,0.05,1.0,0.0,0.0,1.0,0,0,,,0
1449618709884690330,18,0,/odom,acmd_vector,0,0,0,0.0,0.0,0.0,0.0,0.0,-0.0105261213988,0.99994459885,0.188510232132,0.05,0.05,1.0,0.0,0.0,1.0,0,0,,,0
1449618709919708061,19,0,/odom,acmd_vector,0,0,0,0.0,0.0,0.0,0.0,0.0,-0.0105261213988,0.99994459885,0.188510232132,0.05,0.05,1.0,0.0,0.0,1.0,0,0,,,0
1449618709955490066,20,0,/odom,acmd_vector,0,0,0,0.0,0.0,0.0,0.0,0.0,-0.0105261213988,0.99994459885,0.188510232132,0.05,0.05,1.0,0.0,0.0,1.0,0,0,,,0
1449618710006322436,21,0,/odom,acmd_vector,0,0,0,0.0,0.0,0.0,0.0,0.0,-0.0105261213988,0.99994459885,0.188510232132,0.05,0.05,1.0,0.0,0.0,1.0,0,0,,,0
1449618710025928772,22,0,/odom,acmd_vector,0,0,0,0.0,0.0,0.0,0.0,0.0,-0.0105261213988,0.99994459885,0.188510232132,0.05,0.05,1.0,0.0,0.0,1.0,0,0,,,0
1449618710074579065,23,0,/odom,acmd_vector,0,0,0,0.0,0.0,0.0,0.0,0.0,-0.0105261213988,0.99994459885,0.188510232132,0.05,0.05,1.0,0.0,0.0,1.0,0,0,,,0
1449618710170473075,24,0,/odom,acmd_vector,0,0,0,0.00287963245437,3.04332289367e-05,0.0,0.0,0.0,-0.0052422674375,0.999986259222,0.188510232132,0.05,0.05,1.0,0.0,0.0,1.0,0,0,,,0
1449618710201739040,25,0,/odom,acmd_vector,0,0,0,0.00575942572016,3.04332289367e-05,0.0,0.0,0.0,-0.0105261213988,0.99994459885,0.188510232132,0.05,0.05,1.0,0.0,0.0,1.0,0,0,,,0
1449618710223987986,26,0,/odom,acmd_vector,0,0,0,0.00575942572016,3.04332289367e-05,0.0,0.0,0.0,-0.0105261213988,0.99994459885,0.188510232132,0.05,0.05,1.0,0.0,0.0,1.0,0,0,,,0
1449618710242314859,27,0,/odom,acmd_vector,0,0,0,0.00863905817453,6.08664578733e-05,0.0,0.0,0.0,-0.0052422674375,0.999986259222,0.18755053621,0.05,0.05,1.0,0.0,0.0,1.0,0,0,,,0
1449618710268471375,28,0,/odom,acmd_vector,0,0,0,0.00863905817453,6.08664578733e-05,0.0,0.0,0.0,-0.0052422674375,0.999986259222,0.18755053621,0.05,0.05,1.0,0.0,0.0,1.0,0,0,,,0
1449618710354406298,29,0,/odom,acmd_vector,0,0,0,0.00863905817453,6.08664578733e-05,0.0,0.0,0.0,-0.0052422674375,0.999986259222,0.18755053621,0.05,0.05,1.0,0.0,0.0,1.0,0,0,,,0
1449618710381014514,30,0,/odom,acmd_vector,0,0,0,0.0143983230833,0.000121732915747,0.0,0.0,0.0,-0.0052422674375,0.999986259222,0.186590670214,0.05,0.05,1.0,0.0,0.0,1.0,0,0,,,0
1449618710402986519,31,0,/odom,acmd_vector,0,0,0,0.0172774731214,0.000182595974757,0.0,0.0,0.0,4.17328923147e-05,0.999999999129,0.185630978077,0.05,0.05,1.0,0.0,0.0,1.0,0,0,,,0
1449618710469834314,32,0,/odom,acmd_vector,0,0,0,0.0172774731214,0.000182595974757,0.0,0.0,0.0,4.17328923147e-05,0.999999999129,0.185630978077,0.05,0.05,1.0,0.0,0.0,1.0,0,0,,,0
1449618710507317453,33,0,/odom,acmd_vector,0,0,0,0.0230362556138,0.000273892262705,0.0,0.0,0.0,4.17328923147e-05,0.999999999129,0.185630978077,0.05,0.05,1.0,0.0,0.0,1.0,0,0,,,0
1449618710539361137,34,0,/odom,acmd_vector,0,0,0,0.0259158880682,0.000304325491641,0.0,0.0,0.0,-0.0052422674375,0.999986259222,0.183711600981,0.05,0.05,1.0,0.0,0.0,1.0,0,0,,,0
1449618710564711308,35,0,/odom,acmd_vector,0,0,0,0.0259158880682,0.000304325491641,0.0,0.0,0.0,-0.0052422674375,0.999986259222,0.183711600981,0.05,0.05,1.0,0.0,0.0,1.0,0,0,,,0
1449618710621669041,36,0,/odom,acmd_vector,0,0,0,0.0287950381062,0.000365188550652,0.0,0.0,0.0,4.17328923147e-05,0.999999999129,0.182752200578,0.05,0.05,1.0,0.0,0.0,1.0,0,0,,,0
1449618710657808283,37,0,/odom,acmd_vector,0,0,0,0.0316746705606,0.000395621779589,0.0,0.0,0.0,-0.0052422674375,0.999986259222,0.182752200578,0.05,0.05,1.0,0.0,0.0,1.0,0,0,,,0
1449618710689132385,38,0,/odom,acmd_vector,0,0,0,0.0345538205987,0.0004564848386,0.0,0.0,0.0,4.17328923147e-05,0.999999999129,0.179873455083,0.05,0.05,1.0,0.0,0.0,1.0,0,0,,,0
1449618710731039629,39,0,/odom,acmd_vector,0,0,0,0.0403121206748,0.000578210956621,0.0,0.0,0.0,4.17328923147e-05,0.999999999129,0.179873455083,0.05,0.05,1.0,0.0,0.0,1.0,0,0,,,0
1449618710806010798,40,0,/odom,acmd_vector,0,0,0,0.0431904667456,0.00066949704836,0.0,0.0,0.0,0.00532573205691,0.999985818188,0.177954405869,0.05,0.05,1.0,0.0,0.0,1.0,0,0,,,0
1449618710834922416,41,0,/odom,acmd_vector,0,0,0,0.0547038510287,0.00103464141532,0.0,0.0,0.0,0.00532573205691,0.999985818188,0.177954405869,0.05,0.05,1.0,0.0,0.0,1.0,0,0,,,0
1449618710881173360,42,0,/odom,acmd_vector,0,0,0,0.0604605431703,0.0012172135988,0.0,0.0,0.0,-0.0788029804216,0.996890209741,0.35201,0.05,0.05,1.0,0.0,0.0,1.0,0,0,,,0
1449618710939756927,43,0,/odom,acmd_vector,0,0,0,0.0662172353118,0.00139978578228,0.0,0.0,0.0,-0.0788029804216,0.996890209741,0.35201,0.05,0.05,1.0,0.0,0.0,1.0,0,0,,,0
1449618710974836810,44,0,/odom,acmd_vector,0,0,0,0.0748488972386,0.00176488257047,0.0,0.0,0.0,-0.0525239329472,0.998619665572,0.35201,0.05,0.05,1.0,0.0,0.0,1.0,0,0,,,0
1449618711040332961,45,0,/odom,acmd_vector,0,0,0,0.0748488972386,0.00176488257047,0.0,0.0,0.0,-0.0525239329472,0.998619665572,0.35201,0.05,0.05,1.0,0.0,0.0,1.0,0,0,,,0
1449618711057546633,46,0,/odom,acmd_vector,0,0,0,0.0863577798077,0.00225167828807,0.0,0.0,0.0,-0.0525239329472,0.998619665572,0.35201,0.05,0.05,1.0,0.0,0.0,1.0,0,0,,,0
1449618711166325937,47,0,/odom,acmd_vector,0,0,0,0.0863577798077,0.00225167828807,0.0,0.0,0.0,-0.0525239329472,0.998619665572,0.35201,0.05,0.05,1.0,0.0,0.0,1.0,0,0,,,0
1449618711223409429,48,0,/odom,acmd_vector,0,0,0,0.112244085004,0.00352936412868,0.0,0.0,0.0,-0.0472464936258,0.998883260867,0.35201,0.05,0.05,1.0,0.0,0.0,1.0,0,0,,,0
1449618711243009512,49,0,/odom,acmd_vector,0,0,0,0.129498728273,0.0044419531811,0.0,0.0,0.0,-0.0472464936258,0.998883260867,0.35201,0.05,0.05,1.0,0.0,0.0,1.0,0,0,,,0
1449618711290232459,50,0,/odom,acmd_vector,0,0,0,0.129498728273,0.0044419531811,0.0,0.0,0.0,-0.0472464936258,0.998883260867,0.35201,0.05,0.05,1.0,0.0,0.0,1.0,0,0,,,0
1449618711322559555,51,0,/odom,acmd_vector,0,0,0,0.138120746094,0.00498939448516,0.0,0.0,0.0,-0.0419677351422,0.999118966493,0.35201,0.05,0.05,1.0,0.0,0.0,1.0,0,0,,,0
1449618711347604805,52,0,/odom,acmd_vector,0,0,0,0.143868757975,0.00535435535454,0.0,0.0,0.0,-0.0419677351422,0.999118966493,0.35201,0.05,0.05,1.0,0.0,0.0,1.0,0,0,,,0
1449618711403380031,53,0,/odom,acmd_vector,0,0,0,0.155364781736,0.00608427709328,0.0,0.0,0.0,-0.0419677351422,0.999118966493,0.35201,0.05,0.05,1.0,0.0,0.0,1.0,0,0,,,0
1449618711429163416,54,0,/odom,acmd_vector,0,0,0,0.161112793616,0.00644923796266,0.0,0.0,0.0,-0.0629909649319,0.998014097264,0.35201,0.05,0.05,1.0,0.0,0.0,1.0,0,0,,,0
1449618711481136214,55,0,/odom,acmd_vector,0,0,0,0.172608817377,0.0071791597014,0.0,0.0,0.0,-0.0629909649319,0.998014097264,0.35201,0.05,0.05,1.0,0.0,0.0,1.0,0,0,,,0
1449618711546088629,56,0,/odom,acmd_vector,0,0,0,0.184104841138,0.00790908144015,0.0,0.0,0.0,-0.0629909649319,0.998014097264,0.35201,0.05,0.05,1.0,0.0,0.0,1.0,0,0,,,0
1449618711583365477,57,0,/odom,acmd_vector,0,0,0,0.20134887678,0.00900396404827,0.0,0.0,0.0,-0.0629909649319,0.998014097264,0.35201,0.05,0.05,1.0,0.0,0.0,1.0,0,0,,,0
1449618711619745502,58,0,/odom,acmd_vector,0,0,0,0.212844900541,0.00973388578701,0.0,0.0,0.0,-0.0629909649319,0.998014097264,0.35201,0.05,0.05,1.0,0.0,0.0,1.0,0,0,,,0
1449618711656475390,59,0,/odom,acmd_vector,0,0,0,0.22720448567,0.0107980973574,0.0,0.0,0.0,-0.057716579309,0.998333008807,0.35201,0.05,0.05,1.0,0.0,0.0,1.0,0,0,,,0
1449618711694751217,60,0,/odom,acmd_vector,0,0,0,0.22720448567,0.0107980973574,0.0,0.0,0.0,-0.057716579309,0.998333008807,0.35201,0.05,0.05,1.0,0.0,0.0,1.0,0,0,,,0
1449618711808693321,61,0,/odom,acmd_vector,0,0,0,0.232948319721,0.0112237819856,0.0,0.0,0.0,-0.057716579309,0.998333008807,0.35201,0.05,0.05,1.0,0.0,0.0,1.0,0,0,,,0
1449618711907394229,62,0,/odom,acmd_vector,0,0,0,0.264545673748,0.0134739618022,0.0,0.0,0.0,-0.0839862773195,0.996466911253,0.35201,0.05,0.05,1.0,0.0,0.0,1.0,0,0,,,0
1449618711948370607,63,0,/odom,acmd_vector,0,0,0,0.296153472348,0.015572332222,0.0,0.0,0.0,-0.0787197739237,0.996896783621,0.35201,0.05,0.05,1.0,0.0,0.0,1.0,0,0,,,0
1449618712060504412,64,0,/odom,acmd_vector,0,0,0,0.307641140451,0.0164237014783,0.0,0.0,0.0,-0.0787197739237,0.996896783621,0.35201,0.05,0.05,1.0,0.0,0.0,1.0,0,0,,,0
1449618712103226071,65,0,/odom,acmd_vector,0,0,0,0.339262277546,0.0183094572227,0.0,0.0,0.0,-0.0839862773195,0.996466911253,0.35201,0.05,0.05,1.0,0.0,0.0,1.0,0,0,,,0
1449618712177860245,66,0,/odom,acmd_vector,0,0,0,0.353641146937,0.0190699480997,0.0,0.0,0.0,-0.0892504357472,0.996009216684,0.35201,0.05,0.05,1.0,0.0,0.0,1.0,0,0,,,0
1449618712204747599,67,0,/odom,acmd_vector,0,0,0,0.359392694693,0.0193741444505,0.0,0.0,0.0,-0.0892504357472,0.996009216684,0.35201,0.05,0.05,1.0,0.0,0.0,1.0,0,0,,,0
1449618712263825654,68,0,/odom,acmd_vector,0,0,0,0.370895790206,0.0199825371521,0.0,0.0,0.0,-0.0892504357472,0.996009216684,0.35201,0.05,0.05,1.0,0.0,0.0,1.0,0,0,,,0
1449618712355657207,69,0,/odom,acmd_vector,0,0,0,0.391040836416,0.0207127783073,0.0,0.0,0.0,-0.094512102227,0.995523712692,0.35201,0.05,0.05,1.0,0.0,0.0,1.0,0,0,,,0
1449618712423149167,70,0,/odom,acmd_vector,0,0,0,0.414074036721,0.0211996827794,0.0,0.0,0.0,-0.105027371776,0.994469331442,0.35201,0.05,0.05,1.0,0.0,0.0,1.0,0,0,,,0
1449618712519923756,71,0,/odom,acmd_vector,0,0,0,0.434231463901,0.0214127153819,0.0,0.0,0.0,-0.11028068125,0.993900483622,0.35201,0.05,0.05,1.0,0.0,0.0,1.0,0,0,,,0
1449618712552899548,72,0,/odom,acmd_vector,0,0,0,0.457268523536,0.0211692495504,0.0,0.0,0.0,-0.0998541788259,0.995002081893,0.35201,0.05,0.05,1.0,0.0,0.0,1.0,0,0,,,0
1449618712656793648,73,0,/odom,acmd_vector,0,0,0,0.465905973651,0.0209866603734,0.0,0.0,0.0,-0.105110375573,0.994460561786,0.35201,0.05,0.05,1.0,0.0,0.0,1.0,0,0,,,0
1449618712772217679,74,0,/odom,acmd_vector,0,0,0,0.488929365931,0.0201651331265,0.0,0.0,0.0,-0.115613818079,0.993294238919,0.35201,0.05,0.05,1.0,0.0,0.0,1.0,0,0,,,0
1449618712781161455,75,0,/odom,acmd_vector,0,0,0,0.520542468345,0.0181579094846,0.0,0.0,0.0,-0.13134440555,0.991336798031,0.35201,0.05,0.05,1.0,0.0,0.0,1.0,0,0,,,0
1449618712814336810,76,0,/odom,acmd_vector,0,0,0,0.53200957729,0.0170639439956,0.0,0.0,0.0,-0.141813371641,0.989893412254,0.35201,0.05,0.05,1.0,0.0,0.0,1.0,0,0,,,0
1449618712861557491,77,0,/odom,acmd_vector,0,0,0,0.53200957729,0.0170639439956,0.0,0.0,0.0,-0.141813371641,0.989893412254,0.35201,0.05,0.05,1.0,0.0,0.0,1.0,0,0,,,0
1449618712948733775,78,0,/odom,acmd_vector,0,0,0,0.55491811346,0.0146339054788,0.0,0.0,0.0,-0.131427147796,0.991325831814,0.35201,0.05,0.05,1.0,0.0,0.0,1.0,0,0,,,0
1449618712984478874,79,0,/odom,acmd_vector,0,0,0,0.572049461483,0.0123882852463,0.0,0.0,0.0,-0.141895993377,0.989881572242,0.35201,0.05,0.05,1.0,0.0,0.0,1.0,0,0,,,0
1449618713006284033,80,0,/odom,acmd_vector,0,0,0,0.58059445565,0.0111147241066,0.0,0.0,0.0,-0.126269945726,0.991995917737,0.35201,0.05,0.05,1.0,0.0,0.0,1.0,0,0,,,0
1449618713025034687,81,0,/odom,acmd_vector,0,0,0,0.58059445565,0.0111147241066,0.0,0.0,0.0,-0.126269945726,0.991995917737,0.35201,0.05,0.05,1.0,0.0,0.0,1.0,0,0,,,0
1449618713114890511,82,0,/odom,acmd_vector,0,0,0,0.591987781205,0.00941664258706,0.0,0.0,0.0,-0.126269945726,0.991995917737,0.35201,0.05,0.05,1.0,0.0,0.0,1.0,0,0,,,0
1449618713127443806,83,0,/odom,acmd_vector,0,0,0,0.60902012012,0.00650890046698,0.0,0.0,0.0,-0.13674616066,0.990606121294,0.35201,0.05,0.05,1.0,0.0,0.0,1.0,0,0,,,0
1449618713136586746,84,0,/odom,acmd_vector,0,0,0,0.60902012012,0.00650890046698,0.0,0.0,0.0,-0.13674616066,0.990606121294,0.35201,0.05,0.05,1.0,0.0,0.0,1.0,0,0,,,0
1449618713198180473,85,0,/odom,acmd_vector,0,0,0,0.60902012012,0.00650890046698,0.0,0.0,0.0,-0.13674616066,0.990606121294,0.35201,0.05,0.05,1.0,0.0,0.0,1.0,0,0,,,0
1449618713222227899,86,0,/odom,acmd_vector,0,0,0,0.631670876557,0.00230238980334,0.0,0.0,0.0,-0.147207103426,0.98910569137,0.35201,0.05,0.05,1.0,0.0,0.0,1.0,0,0,,,0
1449618713254993106,87,0,/odom,acmd_vector,0,0,0,0.631670876557,0.00230238980334,0.0,0.0,0.0,-0.126352743003,0.991985375061,0.35201,0.05,0.05,1.0,0.0,0.0,1.0,0,0,,,0
1449618713349596683,88,0,/odom,acmd_vector,0,0,0,0.640136680327,0.000579296712465,0.0,0.0,0.0,-0.131592629541,0.991303878662,0.35201,0.05,0.05,1.0,0.0,0.0,1.0,0,0,,,0
1449618713407065575,89,0,/odom,acmd_vector,0,0,0,0.662629628806,-0.00440254710789,0.0,0.0,0.0,-0.142061233884,0.989857871529,0.35201,0.05,0.05,1.0,0.0,0.0,1.0,0,0,,,0
1449618713442795328,90,0,/odom,acmd_vector,0,0,0,0.671036558176,-0.00639313040269,0.0,0.0,0.0,-0.147289659396,0.989093401168,0.35201,0.05,0.05,1.0,0.0,0.0,1.0,0,0,,,0
1449618713513552914,91,0,/odom,acmd_vector,0,0,0,0.679421981902,-0.00847244572582,0.0,0.0,0.0,-0.152513972456,0.988301314481,0.35201,0.05,0.05,1.0,0.0,0.0,1.0,0,0,,,0
1449618713561641065,92,0,/odom,acmd_vector,0,0,0,0.693375245963,-0.0120264710693,0.0,0.0,0.0,-0.136911522189,0.99058328024,0.35201,0.05,0.05,1.0,0.0,0.0,1.0,0,0,,,0
1449618713590768554,93,0,/odom,acmd_vector,0,0,0,0.698950567015,-0.0134716811547,0.0,0.0,0.0,-0.136911522189,0.99058328024,0.35201,0.05,0.05,1.0,0.0,0.0,1.0,0,0,,,0
1449618713626773288,94,0,/odom,acmd_vector,0,0,0,0.70173043549,-0.01422370543,0.0,0.0,0.0,-0.131716738444,0.99128739567,0.35201,0.05,0.05,1.0,0.0,0.0,1.0,0,0,,,0
1449618713692765607,95,0,/odom,acmd_vector,0,0,0,0.71004573338,-0.0165677839893,0.0,0.0,0.0,-0.136952861975,0.990577565664,0.35201,0.05,0.05,1.0,0.0,0.0,1.0,0,0,,,0
1449618713707602732,96,0,/odom,acmd_vector,0,0,0,0.715589265306,-0.0181305030289,0.0,0.0,0.0,-0.136952861975,0.990577565664,0.35201,0.05,0.05,1.0,0.0,0.0,1.0,0,0,,,0
1449618713779813741,97,0,/odom,acmd_vector,0,0,0,0.721132797233,-0.0196932220685,0.0,0.0,0.0,-0.136952861975,0.990577565664,0.35201,0.05,0.05,1.0,0.0,0.0,1.0,0,0,,,0
1449618713904630498,98,0,/odom,acmd_vector,0,0,0,0.732177492113,-0.0229648095182,0.0,0.0,0.0,-0.147413491427,0.989074952946,0.35201,0.05,0.05,1.0,0.0,0.0,1.0,0,0,,,0
1449618713957429815,99,0,/odom,acmd_vector,0,0,0,0.751414782864,-0.0289884824767,0.0,0.0,0.0,-0.142226470431,0.989834143232,0.35201,0.05,0.05,1.0,0.0,0.0,1.0,0,0,,,0
1449618713984184294,100,0,/odom,acmd_vector,0,0,0,0.754151052763,-0.0298862777179,0.0,0.0,0.0,-0.147454768257,0.989068800093,0.35201,0.05,0.05,1.0,0.0,0.0,1.0,0,0,,,0
1449618714026166071,101,0,/odom,acmd_vector,0,0,0,0.75962359256,-0.0316818682003,0.0,0.0,0.0,-0.147454768257,0.989068800093,0.35201,0.05,0.05,1.0,0.0,0.0,1.0,0,0,,,0
1449618714085488287,102,0,/odom,acmd_vector,0,0,0,0.767803480564,-0.0344618530074,0.0,0.0,0.0,-0.15267894902,0.988275841315,0.35201,0.05,0.05,1.0,0.0,0.0,1.0,0,0,,,0
1449618714157221251,103,0,/odom,acmd_vector,0,0,0,0.773256739233,-0.0363151762122,0.0,0.0,0.0,-0.15267894902,0.988275841315,0.35201,0.05,0.05,1.0,0.0,0.0,1.0,0,0,,,0
1449618714185219138,104,0,/odom,acmd_vector,0,0,0,0.786860050663,-0.0410347728316,0.0,0.0,0.0,-0.137076879902,0.990560411583,0.35201,0.05,0.05,1.0,0.0,0.0,1.0,0,0,,,0
1449618714236644977,105,0,/odom,acmd_vector,0,0,0,0.789566486428,-0.042018853468,0.0,0.0,0.0,-0.142309087219,0.989822268741,0.35201,0.05,0.05,1.0,0.0,0.0,1.0,0,0,,,0
1449618714332425239,106,0,/odom,acmd_vector,0,0,0,0.79497935796,-0.0439870147409,0.0,0.0,0.0,-0.142309087219,0.989822268741,0.35201,0.05,0.05,1.0,0.0,0.0,1.0,0,0,,,0
1449618714374168497,107,0,/odom,acmd_vector,0,0,0,0.808458783042,-0.0490501492241,0.0,0.0,0.0,-0.147537321146,0.98905648922,0.35201,0.05,0.05,1.0,0.0,0.0,1.0,0,0,,,0
1449618714402807275,108,0,/odom,acmd_vector,0,0,0,0.813850553075,-0.0510754030174,0.0,0.0,0.0,-0.147537321146,0.98905648922,0.35201,0.05,0.05,1.0,0.0,0.0,1.0,0,0,,,0
1449618714503714405,109,0,/odom,acmd_vector,0,0,0,0.821905652626,-0.0541985832094,0.0,0.0,0.0,-0.152761435706,0.988263094404,0.35201,0.05,0.05,1.0,0.0,0.0,1.0,0,0,,,0
1449618714546439382,110,0,/odom,acmd_vector,0,0,0,0.84062282298,-0.0616842219509,0.0,0.0,0.0,-0.137159557326,0.990548966904,0.35201,0.05,0.05,1.0,0.0,0.0,1.0,0,0,,,0
1449618714583112708,111,0,/odom,acmd_vector,0,0,0,0.848610116426,-0.0649769452449,0.0,0.0,0.0,-0.142391703016,0.989810387353,0.35201,0.05,0.05,1.0,0.0,0.0,1.0,0,0,,,0
1449618714666657582,112,0,/odom,acmd_vector,0,0,0,0.853934978723,-0.0671720941075,0.0,0.0,0.0,-0.142391703016,0.989810387353,0.35201,0.05,0.05,1.0,0.0,0.0,1.0,0,0,,,0
1449618714689541735,113,0,/odom,acmd_vector,0,0,0,0.867188396078,-0.0728003407055,0.0,0.0,0.0,-0.147619873008,0.989044171457,0.35201,0.05,0.05,1.0,0.0,0.0,1.0,0,0,,,0
1449618714801715787,114,0,/odom,acmd_vector,0,0,0,0.867188396078,-0.0728003407055,0.0,0.0,0.0,-0.147619873008,0.989044171457,0.35201,0.05,0.05,1.0,0.0,0.0,1.0,0,0,,,0
1449618714854324685,115,0,/odom,acmd_vector,0,0,0,0.890936153899,-0.0831827271371,0.0,0.0,0.0,-0.152843921329,0.988250340609,0.35201,0.05,0.05,1.0,0.0,0.0,1.0,0,0,,,0
1449618714926136773,116,0,/odom,acmd_vector,0,0,0,0.898815057963,-0.0867269836221,0.0,0.0,0.0,-0.158063702117,0.987428916972,0.35201,0.05,0.05,1.0,0.0,0.0,1.0,0,0,,,0
1449618714959385393,117,0,/odom,acmd_vector,0,0,0,0.914572866092,-0.093815496592,0.0,0.0,0.0,-0.158063702117,0.987428916972,0.35201,0.05,0.05,1.0,0.0,0.0,1.0,0,0,,,0
1449618715008229069,118,0,/odom,acmd_vector,0,0,0,0.927641214288,-0.0998610326935,0.0,0.0,0.0,-0.14247431782,0.98979849907,0.35201,0.05,0.05,1.0,0.0,0.0,1.0,0,0,,,0
1449618715120648623,119,0,/odom,acmd_vector,0,0,0,0.935443452356,-0.103571014422,0.0,0.0,0.0,-0.147702423842,0.989031846803,0.35201,0.05,0.05,1.0,0.0,0.0,1.0,0,0,,,0
1449618715194667538,120,0,/odom,acmd_vector,0,0,0,0.953609032288,-0.11230988418,0.0,0.0,0.0,-0.152926405886,0.988237579928,0.35201,0.05,0.05,1.0,0.0,0.0,1.0,0,0,,,0
1449618715273603336,121,0,/odom,acmd_vector,0,0,0,0.984659415658,-0.127478793999,0.0,0.0,0.0,-0.152926405886,0.988237579928,0.35201,0.05,0.05,1.0,0.0,0.0,1.0,0,0,,,0
1449618715321660416,122,0,/odom,acmd_vector,0,0,0,1.0078796879,-0.138991846698,0.0,0.0,0.0,-0.158146118096,0.987415720622,0.35201,0.05,0.05,1.0,0.0,0.0,1.0,0,0,,,0
1449618715353530260,123,0,/odom,acmd_vector,0,0,0,1.01302774568,-0.141574546469,0.0,0.0,0.0,-0.158146118096,0.987415720622,0.35201,0.05,0.05,1.0,0.0,0.0,1.0,0,0,,,0
1449618715432574339,124,0,/odom,acmd_vector,0,0,0,1.02847191902,-0.14932264578,0.0,0.0,0.0,-0.158146118096,0.987415720622,0.35201,0.05,0.05,1.0,0.0,0.0,1.0,0,0,,,0
1449618715477266576,125,0,/odom,acmd_vector,0,0,0,1.04644874966,-0.158443484513,0.0,0.0,0.0,-0.163361414732,0.986566291831,0.35201,0.05,0.05,1.0,0.0,0.0,1.0,0,0,,,0
1449618715602912472,126,0,/odom,acmd_vector,0,0,0,1.05917955912,-0.165170796139,0.0,0.0,0.0,-0.147784973646,0.98901951526,0.35201,0.05,0.05,1.0,0.0,0.0,1.0,0,0,,,0
1449618715647199566,127,0,/odom,acmd_vector,0,0,0,1.08980388417,-0.181181431069,0.0,0.0,0.0,-0.147784973646,0.98901951526,0.35201,0.05,0.05,1.0,0.0,0.0,1.0,0,0,,,0
1449618715719724875,128,0,/odom,acmd_vector,0,0,0,1.10508085553,-0.18925420502,0.0,0.0,0.0,-0.147784973646,0.98901951526,0.35201,0.05,0.05,1.0,0.0,0.0,1.0,0,0,,,0
1449618715769002300,129,0,/odom,acmd_vector,0,0,0,1.12280346298,-0.198860267603,0.0,0.0,0.0,-0.153008889379,0.988224812364,0.35201,0.05,0.05,1.0,0.0,0.0,1.0,0,0,,,0
1449618715810690006,130,0,/odom,acmd_vector,0,0,0,1.13799426937,-0.207094035531,0.0,0.0,0.0,-0.153008889379,0.988224812364,0.35201,0.05,0.05,1.0,0.0,0.0,1.0,0,0,,,0
1449618715963017223,131,0,/odom,acmd_vector,0,0,0,1.1430578715,-0.209838624841,0.0,0.0,0.0,-0.153008889379,0.988224812364,0.35201,0.05,0.05,1.0,0.0,0.0,1.0,0,0,,,0
1449618716011261315,132,0,/odom,acmd_vector,0,0,0,1.18863029068,-0.234539928627,0.0,0.0,0.0,-0.153008889379,0.988224812364,0.35201,0.05,0.05,1.0,0.0,0.0,1.0,0,0,,,0
1449618716154832843,133,0,/odom,acmd_vector,0,0,0,1.19618176312,-0.238736849795,0.0,0.0,0.0,-0.137407583864,0.990514591461,0.35201,0.05,0.05,1.0,0.0,0.0,1.0,0,0,,,0
1449618716192645393,134,0,/odom,acmd_vector,0,0,0,1.2391491633,-0.262199254267,0.0,0.0,0.0,-0.13217178674,0.991226825096,0.35201,0.05,0.05,1.0,0.0,0.0,1.0,0,0,,,0
1449618716230390243,135,0,/odom,acmd_vector,0,0,0,1.2517349507,-0.269194122881,0.0,0.0,0.0,-0.137407583864,0.990514591461,0.35201,0.05,0.05,1.0,0.0,0.0,1.0,0,0,,,0
1449618716258146970,136,0,/odom,acmd_vector,0,0,0,1.26180358061,-0.274790017773,0.0,0.0,0.0,-0.137407583864,0.990514591461,0.35201,0.05,0.05,1.0,0.0,0.0,1.0,0,0,,,0
1449618716353919535,137,0,/odom,acmd_vector,0,0,0,1.26180358061,-0.274790017773,0.0,0.0,0.0,-0.116525736136,0.993187672506,0.35201,0.05,0.05,1.0,0.0,0.0,1.0,0,0,,,0
1449618716384686240,138,0,/odom,acmd_vector,0,0,0,1.29211197547,-0.291390948971,0.0,0.0,0.0,-0.116525736136,0.993187672506,0.35201,0.05,0.05,1.0,0.0,0.0,1.0,0,0,,,0
1449618716411767726,139,0,/odom,acmd_vector,0,0,0,1.29211197547,-0.291390948971,0.0,0.0,0.0,-0.116525736136,0.993187672506,0.35201,0.05,0.05,1.0,0.0,0.0,1.0,0,0,,,0
1449618716478430471,140,0,/odom,acmd_vector,0,0,0,1.29970737866,-0.295507832935,0.0,0.0,0.0,-0.0903311079761,0.99591178873,0.35201,0.05,0.05,1.0,0.0,0.0,1.0,0,0,,,0
1449618716529397437,141,0,/odom,acmd_vector,0,0,0,1.31996178719,-0.306486190173,0.0,0.0,0.0,-0.0903311079761,0.99591178873,0.35201,0.05,0.05,1.0,0.0,0.0,1.0,0,0,,,0
1449618716592421230,142,0,/odom,acmd_vector,0,0,0,1.33008899145,-0.311975368792,0.0,0.0,0.0,-0.0903311079761,0.99591178873,0.35201,0.05,0.05,1.0,0.0,0.0,1.0,0,0,,,0
1449618716645702862,143,0,/odom,acmd_vector,0,0,0,1.35294700517,-0.324191859037,0.0,0.0,0.0,-0.0850674492711,0.996375194931,0.35201,0.05,0.05,1.0,0.0,0.0,1.0,0,0,,,0
1449618716767923737,144,0,/odom,acmd_vector,0,0,0,1.36054240837,-0.328308743001,0.0,0.0,0.0,-0.111276105972,0.993789529146,0.35201,0.05,0.05,1.0,0.0,0.0,1.0,0,0,,,0
1449618716893632210,145,0,/odom,acmd_vector,0,0,0,1.39113858048,-0.34437334312,0.0,0.0,0.0,-0.100767671536,0.994909984055,0.35201,0.05,0.05,1.0,0.0,0.0,1.0,0,0,,,0
1449618716958789547,146,0,/odom,acmd_vector,0,0,0,1.42201227421,-0.359896238924,0.0,0.0,0.0,-0.0902479831027,0.995919324818,0.35201,0.05,0.05,1.0,0.0,0.0,1.0,0,0,,,0
1449618716981867019,147,0,/odom,acmd_vector,0,0,0,1.44536613211,-0.371135845077,0.0,0.0,0.0,-0.0849842857374,0.996382291682,0.35201,0.05,0.05,1.0,0.0,0.0,1.0,0,0,,,0
1449618717025382372,148,0,/odom,acmd_vector,0,0,0,1.44536613211,-0.371135845077,0.0,0.0,0.0,-0.0849842857374,0.996382291682,0.35201,0.05,0.05,1.0,0.0,0.0,1.0,0,0,,,0
1449618717058100060,149,0,/odom,acmd_vector,0,0,0,1.4557691162,-0.376082487381,0.0,0.0,0.0,-0.0849842857374,0.996382291682,0.35201,0.05,0.05,1.0,0.0,0.0,1.0,0,0,,,0
1449618717083473176,150,0,/odom,acmd_vector,0,0,0,1.46617210029,-0.381029129685,0.0,0.0,0.0,-0.0849842857374,0.996382291682,0.35201,0.05,0.05,1.0,0.0,0.0,1.0,0,0,,,0
1449618717172975102,151,0,/odom,acmd_vector,0,0,0,1.47401310921,-0.384656451346,0.0,0.0,0.0,-0.0587164699669,0.998274699747,0.35201,0.05,0.05,1.0,0.0,0.0,1.0,0,0,,,0
1449618717196488904,152,0,/odom,acmd_vector,0,0,0,1.50033781477,-0.396331537949,0.0,0.0,0.0,-0.0481635719103,0.998839461746,0.35201,0.05,0.05,1.0,0.0,0.0,1.0,0,0,,,0
1449618717244635025,153,0,/odom,acmd_vector,0,0,0,1.51359123213,-0.401959784547,0.0,0.0,0.0,-0.0428850320584,0.999080013825,0.35201,0.05,0.05,1.0,0.0,0.0,1.0,0,0,,,0
1449618717304366271,154,0,/odom,acmd_vector,0,0,0,1.51889259907,-0.404211083187,0.0,0.0,0.0,-0.0428850320584,0.999080013825,0.35201,0.05,0.05,1.0,0.0,0.0,1.0,0,0,,,0
1449618717343171173,155,0,/odom,acmd_vector,0,0,0,1.53220475481,-0.409698955343,0.0,0.0,0.0,-0.0376052948201,0.999292670743,0.35201,0.05,0.05,1.0,0.0,0.0,1.0,0,0,,,0
1449618717379345351,156,0,/odom,acmd_vector,0,0,0,1.54557416221,-0.415045840159,0.0,0.0,0.0,-0.03232450761,0.999477426562,0.35201,0.05,0.05,1.0,0.0,0.0,1.0,0,0,,,0
1449618717456021499,157,0,/odom,acmd_vector,0,0,0,1.55626968813,-0.419323348011,0.0,0.0,0.0,-0.03232450761,0.999477426562,0.35201,0.05,0.05,1.0,0.0,0.0,1.0,0,0,,,0
1449618717484521585,158,0,/odom,acmd_vector,0,0,0,1.58317427913,-0.429591782814,0.0,0.0,0.0,-0.0217603730762,0.999763215048,0.35201,0.05,0.05,1.0,0.0,0.0,1.0,0,0,,,0
1449618717516462899,159,0,/odom,acmd_vector,0,0,0,1.59129358642,-0.432544024723,0.0,0.0,0.0,-0.0375218879423,0.999295806018,0.35201,0.05,0.05,1.0,0.0,0.0,1.0,0,0,,,0
1449618717575153636,160,0,/odom,acmd_vector,0,0,0,1.60487700769,-0.437321147081,0.0,0.0,0.0,-0.0322410853299,0.999480121071,0.35201,0.05,0.05,1.0,0.0,0.0,1.0,0,0,,,0
1449618717598318412,161,0,/odom,acmd_vector,0,0,0,1.61305689569,-0.440101131888,0.0,0.0,0.0,-0.026959382519,0.999636529792,0.35201,0.05,0.05,1.0,0.0,0.0,1.0,0,0,,,0
1449618717632510561,162,0,/odom,acmd_vector,0,0,0,1.62396341303,-0.443807778298,0.0,0.0,0.0,-0.026959382519,0.999636529792,0.35201,0.05,0.05,1.0,0.0,0.0,1.0,0,0,,,0
1449618717645700700,163,0,/odom,acmd_vector,0,0,0,1.63764476253,-0.448296754504,0.0,0.0,0.0,-0.0216769269793,0.999765027812,0.35201,0.05,0.05,1.0,0.0,0.0,1.0,0,0,,,0
1449618717757711959,164,0,/odom,acmd_vector,0,0,0,1.63764476253,-0.448296754504,0.0,0.0,0.0,-0.0216769269793,0.999765027812,0.35201,0.05,0.05,1.0,0.0,0.0,1.0,0,0,,,0
1449618717831702644,165,0,/odom,acmd_vector,0,0,0,1.67345345594,-0.459213229912,0.0,0.0,0.0,-0.00582651897389,0.999983025694,0.35201,0.05,0.05,1.0,0.0,0.0,1.0,0,0,,,0
1449618717890856709,166,0,/odom,acmd_vector,0,0,0,1.69565189119,-0.465376100337,0.0,0.0,0.0,-0.0163104115765,0.999866976389,0.30561,0.05,0.05,1.0,0.0,0.0,1.0,0,0,,,0
1449618717929382935,167,0,/odom,acmd_vector,0,0,0,1.70959019381,-0.46898912555,0.0,0.0,0.0,-0.0110268870212,0.999939202033,0.30561,0.05,0.05,1.0,0.0,0.0,1.0,0,0,,,0
1449618718010053071,168,0,/odom,acmd_vector,0,0,0,1.72356590003,-0.472454651089,0.0,0.0,0.0,-0.00574305458581,0.999983508526,0.30561,0.05,0.05,1.0,0.0,0.0,1.0,0,0,,,0
1449618718026210012,169,0,/odom,acmd_vector,0,0,0,1.74600494508,-0.477673918866,0.0,0.0,0.0,0.00482494380426,0.999988359891,0.30561,0.05,0.05,1.0,0.0,0.0,1.0,0,0,,,0
1449618718061844893,170,0,/odom,acmd_vector,0,0,0,1.74600494508,-0.477673918866,0.0,0.0,0.0,0.00482494380426,0.999988359891,0.30561,0.05,0.05,1.0,0.0,0.0,1.0,0,0,,,0
1449618718101899749,171,0,/odom,acmd_vector,0,0,0,1.76008348114,-0.480694689253,0.0,0.0,0.0,0.0101088146915,0.999948904627,0.30561,0.05,0.05,1.0,0.0,0.0,1.0,0,0,,,0
1449618718147336396,172,0,/odom,acmd_vector,0,0,0,1.76854928491,-0.482417782344,0.0,0.0,0.0,0.015392403332,0.999881529942,0.30561,0.05,0.05,1.0,0.0,0.0,1.0,0,0,,,0
1449618718173335101,173,0,/odom,acmd_vector,0,0,0,1.79118884856,-0.486684122353,0.0,0.0,0.0,0.00490840860046,0.99998795369,0.25921,0.05,0.05,1.0,0.0,0.0,1.0,0,0,,,0
1449618718217937421,174,0,/odom,acmd_vector,0,0,0,1.79118884856,-0.486684122353,0.0,0.0,0.0,0.00490840860046,0.99998795369,0.25921,0.05,0.05,1.0,0.0,0.0,1.0,0,0,,,0
1449618718260612429,175,0,/odom,acmd_vector,0,0,0,1.80252262137,-0.488742505676,0.0,0.0,0.0,0.00490840860046,0.99998795369,0.25921,0.05,0.05,1.0,0.0,0.0,1.0,0,0,,,0
1449618718341971490,176,0,/odom,acmd_vector,0,0,0,1.81389736563,-0.49056089535,0.0,0.0,0.0,0.0154758591747,0.99988024172,0.25921,0.05,0.05,1.0,0.0,0.0,1.0,0,0,,,0
1449618718372666669,177,0,/odom,acmd_vector,0,0,0,1.83953234813,-0.494381578769,0.0,0.0,0.0,0.0207590100743,0.999784508532,0.25921,0.05,0.05,1.0,0.0,0.0,1.0,0,0,,,0
1449618718416081775,178,0,/odom,acmd_vector,0,0,0,1.84809032394,-0.495564766558,0.0,0.0,0.0,0.0260415813646,0.999660860512,0.25921,0.05,0.05,1.0,0.0,0.0,1.0,0,0,,,0
1449618718488077385,179,0,/odom,acmd_vector,0,0,0,1.85666032561,-0.496657448855,0.0,0.0,0.0,0.0313234255519,0.999509301113,0.25921,0.05,0.05,1.0,0.0,0.0,1.0,0,0,,,0
1449618718520538811,180,0,/odom,acmd_vector,0,0,0,1.87954190225,-0.499329445694,0.0,0.0,0.0,0.0418843427476,0.999122465883,0.25921,0.05,0.05,1.0,0.0,0.0,1.0,0,0,,,0
1449618718610179927,181,0,/odom,acmd_vector,0,0,0,1.89099681,-0.500544532805,0.0,0.0,0.0,0.0418843427476,0.999122465883,0.25921,0.05,0.05,1.0,0.0,0.0,1.0,0,0,,,0
1449618718641398671,182,0,/odom,acmd_vector,0,0,0,1.90820566381,-0.50209454819,0.0,0.0,0.0,0.073451072605,0.997298821785,0.21281,0.05,0.05,1.0,0.0,0.0,1.0,0,0,,,0
1449618718690260559,183,0,/odom,acmd_vector,0,0,0,1.91682141489,-0.502733075132,0.0,0.0,0.0,0.0366878048838,0.999326775871,0.25921,0.05,0.05,1.0,0.0,0.0,1.0,0,0,,,0
1449618718727546991,184,0,/odom,acmd_vector,0,0,0,1.92830908299,-0.503584444388,0.0,0.0,0.0,0.0366878048838,0.999326775871,0.25921,0.05,0.05,1.0,0.0,0.0,1.0,0,0,,,0
1449618718766165752,185,0,/odom,acmd_vector,0,0,0,1.93405291704,-0.504010129016,0.0,0.0,0.0,0.0366878048838,0.999326775871,0.25921,0.05,0.05,1.0,0.0,0.0,1.0,0,0,,,0
1449618718809653963,186,0,/odom,acmd_vector,0,0,0,1.94267493486,-0.50455757032,0.0,0.0,0.0,0.0419677351422,0.999118966493,0.21281,0.05,0.05,1.0,0.0,0.0,1.0,0,0,,,0
1449618718867431685,187,0,/odom,acmd_vector,0,0,0,1.9513022565,-0.505013864847,0.0,0.0,0.0,0.0472464936258,0.998883260867,0.21281,0.05,0.05,1.0,0.0,0.0,1.0,0,0,,,0
1449618718910390014,188,0,/odom,acmd_vector,0,0,0,1.96568835971,-0.505622359494,0.0,0.0,0.0,0.0525239329472,0.998619665572,0.21281,0.05,0.05,1.0,0.0,0.0,1.0,0,0,,,0
1449618719014854141,189,0,/odom,acmd_vector,0,0,0,1.97432339792,-0.505896217769,0.0,0.0,0.0,0.0577999057558,0.99832818797,0.21281,0.05,0.05,1.0,0.0,0.0,1.0,0,0,,,0
1449618719047547363,190,0,/odom,acmd_vector,0,0,0,1.98871914811,-0.506200533064,0.0,0.0,0.0,0.0630742647421,0.998008836197,0.21281,0.05,0.05,1.0,0.0,0.0,1.0,0,0,,,0
1449618719102796217,191,0,/odom,acmd_vector,0,0,0,1.99447744819,-0.506322259182,0.0,0.0,0.0,0.0630742647421,0.998008836197,0.21281,0.05,0.05,1.0,0.0,0.0,1.0,0,0,,,0
1449618719148101857,192,0,/odom,acmd_vector,0,0,0,2.00311634555,-0.506413558869,0.0,0.0,0.0,0.0683468626413,0.997661619171,0.21281,0.05,0.05,1.0,0.0,0.0,1.0,0,0,,,0
1449618719199572673,193,0,/odom,acmd_vector,0,0,0,2.01751531188,-0.506413558869,0.0,0.0,0.0,0.0736175522382,0.997286546587,0.21281,0.05,0.05,1.0,0.0,0.0,1.0,0,0,,,0
1449618719215975554,194,0,/odom,acmd_vector,0,0,0,2.02327489841,-0.506413558869,0.0,0.0,0.0,0.0526072833381,0.998615278143,0.21281,0.05,0.05,1.0,0.0,0.0,1.0,0,0,,,0
1449618719296673105,195,0,/odom,acmd_vector,0,0,0,2.02327489841,-0.506413558869,0.0,0.0,0.0,0.0526072833381,0.998615278143,0.21281,0.05,0.05,1.0,0.0,0.0,1.0,0,0,,,0
1449618719337001136,196,0,/odom,acmd_vector,0,0,0,2.03479294581,-0.506261396123,0.0,0.0,0.0,0.0631575641129,0.998003568178,0.21281,0.05,0.05,1.0,0.0,0.0,1.0,0,0,,,0
1449618719374011063,197,0,/odom,acmd_vector,0,0,0,2.04342798402,-0.505987537848,0.0,0.0,0.0,0.0158514091245,0.999874358521,0.35201,0.05,0.05,1.0,0.0,0.0,1.0,0,0,,,0
1449618719415813491,198,0,/odom,acmd_vector,0,0,0,2.04342798402,-0.505987537848,0.0,0.0,0.0,0.0158514091245,0.999874358521,0.35201,0.05,0.05,1.0,0.0,0.0,1.0,0,0,,,0
1449618719472506668,199,0,/odom,acmd_vector,0,0,0,2.05494136831,-0.505622393481,0.0,0.0,0.0,0.0263753298195,0.999652110475,0.35201,0.05,0.05,1.0,0.0,0.0,1.0,0,0,,,0
1449618719501005026,200,0,/odom,acmd_vector,0,0,0,2.0664496082,-0.505135624946,0.0,0.0,0.0,0.0369380325115,0.999317558014,0.35201,0.05,0.05,1.0,0.0,0.0,1.0,0,0,,,0
1449618719578817126,201,0,/odom,acmd_vector,0,0,0,2.0664496082,-0.505135624946,0.0,0.0,0.0,0.0369380325115,0.999317558014,0.35201,0.05,0.05,1.0,0.0,0.0,1.0,0,0,,,0
1449618719609851910,202,0,/odom,acmd_vector,0,0,0,2.07795270372,-0.504527232245,0.0,0.0,0.0,0.0369380325115,0.999317558014,0.35201,0.05,0.05,1.0,0.0,0.0,1.0,0,0,,,0
1449618719635634214,203,0,/odom,acmd_vector,0,0,0,2.08370425147,-0.504223035894,0.0,0.0,0.0,0.07896939177,0.996877041146,0.21281,0.05,0.05,1.0,0.0,0.0,1.0,0,0,,,0
1449618719683851207,204,0,/odom,acmd_vector,0,0,0,2.08657825741,-0.504040555459,0.0,0.0,0.0,0.126104348532,0.992016982355,0.16641,0.05,0.05,1.0,0.0,0.0,1.0,0,0,,,0
1449618719784832135,205,0,/odom,acmd_vector,0,0,0,2.09519400849,-0.503402028517,0.0,0.0,0.0,0.13134440555,0.991336798031,0.16641,0.05,0.05,1.0,0.0,0.0,1.0,0,0,,,0
1449618719824244587,206,0,/odom,acmd_vector,0,0,0,2.1066816766,-0.502550659261,0.0,0.0,0.0,0.0369797368913,0.999316015612,-0.09999,0.05,0.05,1.0,0.0,0.0,1.0,0,0,,,0
1449618719841757676,207,0,/odom,acmd_vector,0,0,0,2.11242551065,-0.502124974633,0.0,0.0,0.0,0.0369797368913,0.999316015612,-0.09999,0.05,0.05,1.0,0.0,0.0,1.0,0,0,,,0
1449618719875768092,208,0,/odom,acmd_vector,0,0,0,2.12103403275,-0.501395433365,0.0,0.0,0.0,0.042259606217,0.999106663816,-0.09999,0.05,0.05,1.0,0.0,0.0,1.0,0,0,,,0
1449618719914077645,209,0,/odom,acmd_vector,0,0,0,2.12103403275,-0.501395433365,0.0,0.0,0.0,0.042259606217,0.999106663816,-0.09999,0.05,0.05,1.0,0.0,0.0,1.0,0,0,,,0
1449618719977214314,210,0,/odom,acmd_vector,0,0,0,2.12963436446,-0.500574959248,0.0,0.0,0.0,0.0475382956186,0.998869416115,-0.09999,0.05,0.05,1.0,0.0,0.0,1.0,0,0,,,0
1449618719996589220,211,0,/odom,acmd_vector,0,0,0,2.13536791893,-0.500027976503,0.0,0.0,0.0,0.0475382956186,0.998869416115,-0.09999,0.05,0.05,1.0,0.0,0.0,1.0,0,0,,,0
1449618720049150252,212,0,/odom,acmd_vector,0,0,0,2.14395909974,-0.49911666117,0.0,0.0,0.0,0.0528156577107,0.998604279132,-0.09999,0.05,0.05,1.0,0.0,0.0,1.0,0,0,,,0
1449618720099686779,213,0,/odom,acmd_vector,0,0,0,2.14968655361,-0.498509117615,0.0,0.0,0.0,0.0528156577107,0.998604279132,-0.09999,0.05,0.05,1.0,0.0,0.0,1.0,0,0,,,0
1449618720124819144,214,0,/odom,acmd_vector,0,0,0,2.15254691042,-0.498175099358,0.0,0.0,0.0,0.0580915451448,0.99831126027,-0.09999,0.05,0.05,1.0,0.0,0.0,1.0,0,0,,,0
1449618720158352091,215,0,/odom,acmd_vector,0,0,0,2.15541063735,-0.497871327581,0.0,0.0,0.0,0.0528156577107,0.998604279132,-0.09999,0.05,0.05,1.0,0.0,0.0,1.0,0,0,,,0
1449618720216583380,216,0,/odom,acmd_vector,0,0,0,2.15541063735,-0.497871327581,0.0,0.0,0.0,0.0528156577107,0.998604279132,-0.09999,0.05,0.05,1.0,0.0,0.0,1.0,0,0,,,0
1449618720247715727,217,0,/odom,acmd_vector,0,0,0,2.16683730625,-0.496414417852,0.0,0.0,0.0,0.0633658106137,0.997990367712,-0.09999,0.05,0.05,1.0,0.0,0.0,1.0,0,0,,,0
1449618720278319760,218,0,/odom,acmd_vector,0,0,0,2.1725506407,-0.495685962987,0.0,0.0,0.0,0.0633658106137,0.997990367712,-0.09999,0.05,0.05,1.0,0.0,0.0,1.0,0,0,,,0
1449618720320995368,219,0,/odom,acmd_vector,0,0,0,2.17826397515,-0.494957508123,0.0,0.0,0.0,0.0633658106137,0.997990367712,-0.09999,0.05,0.05,1.0,0.0,0.0,1.0,0,0,,,0
1449618720375702195,220,0,/odom,acmd_vector,0,0,0,2.18111663375,-0.494563112193,0.0,0.0,0.0,0.0686383068554,0.997641610415,-0.09999,0.05,0.05,1.0,0.0,0.0,1.0,0,0,,,0
1449618720413864368,221,0,/odom,acmd_vector,0,0,0,2.18397330097,-0.494198884761,0.0,0.0,0.0,0.0633658106137,0.997990367712,-0.09999,0.05,0.05,1.0,0.0,0.0,1.0,0,0,,,0
1449618720471174579,222,0,/odom,acmd_vector,0,0,0,2.18682595958,-0.493804488831,0.0,0.0,0.0,0.0686383068554,0.997641610415,-0.09999,0.05,0.05,1.0,0.0,0.0,1.0,0,0,,,0
1449618720494090254,223,0,/odom,acmd_vector,0,0,0,2.19253127678,-0.493015696972,0.0,0.0,0.0,0.0686383068554,0.997641610415,-0.09999,0.05,0.05,1.0,0.0,0.0,1.0,0,0,,,0
1449618720512940275,224,0,/odom,acmd_vector,0,0,0,2.19253127678,-0.493015696972,0.0,0.0,0.0,0.0686383068554,0.997641610415,-0.09999,0.05,0.05,1.0,0.0,0.0,1.0,0,0,,,0
1449618720563026912,225,0,/odom,acmd_vector,0,0,0,2.19537960817,-0.492591176592,0.0,0.0,0.0,0.0739088866573,0.997264998119,-0.09999,0.05,0.05,1.0,0.0,0.0,1.0,0,0,,,0
1449618720592008633,226,0,/odom,acmd_vector,0,0,0,2.19537960817,-0.492591176592,0.0,0.0,0.0,0.0739088866573,0.997264998119,-0.09999,0.05,0.05,1.0,0.0,0.0,1.0,0,0,,,0
1449618720674889682,227,0,/odom,acmd_vector,0,0,0,2.19823226677,-0.492196780663,0.0,0.0,0.0,0.121026476761,0.992649279415,0.35201,0.05,0.05,1.0,0.0,0.0,1.0,0,0,,,0
1449618720724198172,228,0,/odom,acmd_vector,0,0,0,2.20108059816,-0.491772260283,0.0,0.0,0.0,0.126269945726,0.991995917737,0.35201,0.05,0.05,1.0,0.0,0.0,1.0,0,0,,,0
1449618720768549768,229,0,/odom,acmd_vector,0,0,0,2.20108059816,-0.491772260283,0.0,0.0,0.0,0.147124546431,0.989117974681,0.35201,0.05,0.05,1.0,0.0,0.0,1.0,0,0,,,0
1449618720836483691,230,0,/odom,acmd_vector,0,0,0,2.20108059816,-0.491772260283,0.0,0.0,0.0,0.147124546431,0.989117974681,0.35201,0.05,0.05,1.0,0.0,0.0,1.0,0,0,,,0
1449618720854108755,231,0,/odom,acmd_vector,0,0,0,2.20108059816,-0.491772260283,0.0,0.0,0.0,0.147124546431,0.989117974681,0.35201,0.05,0.05,1.0,0.0,0.0,1.0,0,0,,,0
1449618720898659347,232,0,/odom,acmd_vector,0,0,0,2.20108059816,-0.491772260283,0.0,0.0,0.0,0.105359382569,0.99443421125,0.35201,0.05,0.05,1.0,0.0,0.0,1.0,0,0,,,0
1449618720919976737,233,0,/odom,acmd_vector,0,0,0,2.20108059816,-0.491772260283,0.0,0.0,0.0,0.105359382569,0.99443421125,0.35201,0.05,0.05,1.0,0.0,0.0,1.0,0,0,,,0
1449618720972136603,234,0,/odom,acmd_vector,0,0,0,2.20108059816,-0.491772260283,0.0,0.0,0.0,0.105359382569,0.99443421125,0.35201,0.05,0.05,1.0,0.0,0.0,1.0,0,0,,,0
1449618721008476359,235,0,/odom,acmd_vector,0,0,0,2.20108059816,-0.491772260283,0.0,0.0,0.0,0.105359382569,0.99443421125,0.35201,0.05,0.05,1.0,0.0,0.0,1.0,0,0,,,0
1449618721090040638,236,0,/odom,acmd_vector,0,0,0,2.20108059816,-0.491772260283,0.0,0.0,0.0,0.105359382569,0.99443421125,0.35201,0.05,0.05,1.0,0.0,0.0,1.0,0,0,,,0
1449618721148443244,237,0,/odom,acmd_vector,0,0,0,2.20108059816,-0.491772260283,0.0,0.0,0.0,0.105359382569,0.99443421125,0.35201,0.05,0.05,1.0,0.0,0.0,1.0,0,0,,,0
1449618721195012113,238,0,/odom,acmd_vector,0,0,0,2.20108059816,-0.491772260283,0.0,0.0,0.0,0.167913941989,0.985801657579,0.35201,0.05,0.05,1.0,0.0,0.0,1.0,0,0,,,0
1449618721244319831,239,0,/odom,acmd_vector,0,0,0,2.20108059816,-0.491772260283,0.0,0.0,0.0,0.167913941989,0.985801657579,0.35201,0.05,0.05,1.0,0.0,0.0,1.0,0,0,,,0
1449618721275361328,240,0,/odom,acmd_vector,0,0,0,2.20108059816,-0.491772260283,0.0,0.0,0.0,0.167913941989,0.985801657579,0.35201,0.05,0.05,1.0,0.0,0.0,1.0,0,0,,,0
1449618721327155442,241,0,/odom,acmd_vector,0,0,0,2.20108059816,-0.491772260283,0.0,0.0,0.0,0.167913941989,0.985801657579,0.35201,0.05,0.05,1.0,0.0,0.0,1.0,0,0,,,0
1449618721346877937,242,0,/odom,acmd_vector,0,0,0,2.20108059816,-0.491772260283,0.0,0.0,0.0,0.167913941989,0.985801657579,0.35201,0.05,0.05,1.0,0.0,0.0,1.0,0,0,,,0
1449618721397883835,243,0,/odom,acmd_vector,0,0,0,2.20108059816,-0.491772260283,0.0,0.0,0.0,0.167913941989,0.985801657579,0.35201,0.05,0.05,1.0,0.0,0.0,1.0,0,0,,,0
1449618721454001327,244,0,/odom,acmd_vector,0,0,0,2.20108059816,-0.491772260283,0.0,0.0,0.0,0.167913941989,0.985801657579,0.35201,0.05,0.05,1.0,0.0,0.0,1.0,0,0,,,0
1449618721490564945,245,0,/odom,acmd_vector,0,0,0,2.20108059816,-0.491772260283,0.0,0.0,0.0,0.167913941989,0.985801657579,0.35201,0.05,0.05,1.0,0.0,0.0,1.0,0,0,,,0
1449618721534041327,246,0,/odom,acmd_vector,0,0,0,2.20392428423,-0.491317662864,0.0,0.0,0.0,0.173120573553,0.984900638142,0.35201,0.05,0.05,1.0,0.0,0.0,1.0,0,0,,,0
1449618721562230077,247,0,/odom,acmd_vector,0,0,0,2.20677261562,-0.490893142484,0.0,0.0,0.0,0.167913941989,0.985801657579,0.35201,0.05,0.05,1.0,0.0,0.0,1.0,0,0,,,0
1449618721620815939,248,0,/odom,acmd_vector,0,0,0,2.20961630168,-0.490438545066,0.0,0.0,0.0,0.173120573553,0.984900638142,0.35201,0.05,0.05,1.0,0.0,0.0,1.0,0,0,,,0
1449618721654048208,249,0,/odom,acmd_vector,0,0,0,2.20961630168,-0.490438545066,0.0,0.0,0.0,0.110612501832,0.993863609575,0.35201,0.05,0.05,1.0,0.0,0.0,1.0,0,0,,,0
1449618721664124800,250,0,/odom,acmd_vector,0,0,0,2.21245502484,-0.489953921379,0.0,0.0,0.0,0.115862532701,0.993265258386,0.35201,0.05,0.05,1.0,0.0,0.0,1.0,0,0,,,0
1449618721690286875,251,0,/odom,acmd_vector,0,0,0,2.21245502484,-0.489953921379,0.0,0.0,0.0,0.115862532701,0.993265258386,0.35201,0.05,0.05,1.0,0.0,0.0,1.0,0,0,,,0
1449618721742910308,252,0,/odom,acmd_vector,0,0,0,2.2152987109,-0.48949932396,0.0,0.0,0.0,0.110612501832,0.993863609575,0.35201,0.05,0.05,1.0,0.0,0.0,1.0,0,0,,,0
1449618721785516721,253,0,/odom,acmd_vector,0,0,0,2.21813743405,-0.489014700274,0.0,0.0,0.0,0.115862532701,0.993265258386,0.35201,0.05,0.05,1.0,0.0,0.0,1.0,0,0,,,0
1449618721802608666,254,0,/odom,acmd_vector,0,0,0,2.22381488036,-0.4880454529,0.0,0.0,0.0,0.13674616066,0.990606121294,0.35201,0.05,0.05,1.0,0.0,0.0,1.0,0,0,,,0
1449618721889122204,255,0,/odom,acmd_vector,0,0,0,2.22664832356,-0.487530857069,0.0,0.0,0.0,0.141978614125,0.989869725333,0.35201,0.05,0.05,1.0,0.0,0.0,1.0,0,0,,,0
1449618721942356655,256,0,/odom,acmd_vector,0,0,0,2.23514305678,-0.485957154905,0.0,0.0,0.0,0.147207103426,0.98910569137,0.35201,0.05,0.05,1.0,0.0,0.0,1.0,0,0,,,0
1449618722001819776,257,0,/odom,acmd_vector,0,0,0,2.23797649998,-0.485442559074,0.0,0.0,0.0,0.204172070531,0.978935016033,0.35201,0.05,0.05,1.0,0.0,0.0,1.0,0,0,,,0
1449618722035883890,258,0,/odom,acmd_vector,0,0,0,2.24928197499,-0.4832346632,0.0,0.0,0.0,0.19389731139,0.981021830866,0.35201,0.05,0.05,1.0,0.0,0.0,1.0,0,0,,,0
1449618722049069734,259,0,/odom,acmd_vector,0,0,0,2.25776551541,-0.48160113169,0.0,0.0,0.0,0.147207103426,0.98910569137,0.35201,0.05,0.05,1.0,0.0,0.0,1.0,0,0,,,0
1449618722092764863,260,0,/odom,acmd_vector,0,0,0,2.25776551541,-0.48160113169,0.0,0.0,0.0,0.147207103426,0.98910569137,0.35201,0.05,0.05,1.0,0.0,0.0,1.0,0,0,,,0
1449618722154817956,261,0,/odom,acmd_vector,0,0,0,2.26058745,-0.481026767327,0.0,0.0,0.0,0.15243148258,0.988314040737,0.35201,0.05,0.05,1.0,0.0,0.0,1.0,0,0,,,0
1449618722178149590,262,0,/odom,acmd_vector,0,0,0,2.27466598606,-0.47800599694,0.0,0.0,0.0,0.157651605718,0.987494795538,0.35201,0.05,0.05,1.0,0.0,0.0,1.0,0,0,,,0
1449618722221673546,263,0,/odom,acmd_vector,0,0,0,2.27466598606,-0.47800599694,0.0,0.0,0.0,0.157651605718,0.987494795538,0.35201,0.05,0.05,1.0,0.0,0.0,1.0,0,0,,,0
1449618722296758142,264,0,/odom,acmd_vector,0,0,0,2.28309348217,-0.476104367987,0.0,0.0,0.0,0.162867327089,0.986647978646,0.35201,0.05,0.05,1.0,0.0,0.0,1.0,0,0,,,0
1449618722349096068,265,0,/odom,acmd_vector,0,0,0,2.29711874228,-0.472846032057,0.0,0.0,0.0,0.168078501067,0.985773613706,0.35201,0.05,0.05,1.0,0.0,0.0,1.0,0,0,,,0
1449618722375570174,266,0,/odom,acmd_vector,0,0,0,2.31110878558,-0.469439661204,0.0,0.0,0.0,0.193979192472,0.981005643658,0.35201,0.05,0.05,1.0,0.0,0.0,1.0,0,0,,,0
1449618722405137314,267,0,/odom,acmd_vector,0,0,0,2.31110878558,-0.469439661204,0.0,0.0,0.0,0.193979192472,0.981005643658,0.35201,0.05,0.05,1.0,0.0,0.0,1.0,0,0,,,0
1449618722427323035,268,0,/odom,acmd_vector,0,0,0,2.31947176716,-0.467271846076,0.0,0.0,0.0,0.178486624969,0.983942338101,0.35201,0.05,0.05,1.0,0.0,0.0,1.0,0,0,,,0
1449618722472569964,269,0,/odom,acmd_vector,0,0,0,2.31947176716,-0.467271846076,0.0,0.0,0.0,0.178486624969,0.983942338101,0.35201,0.05,0.05,1.0,0.0,0.0,1.0,0,0,,,0
1449618722498146748,270,0,/odom,acmd_vector,0,0,0,2.33338669364,-0.463570563164,0.0,0.0,0.0,0.18368328429,0.982985478566,0.35201,0.05,0.05,1.0,0.0,0.0,1.0,0,0,,,0
1449618722552446784,271,0,/odom,acmd_vector,0,0,0,2.33338669364,-0.463570563164,0.0,0.0,0.0,0.204335482844,0.978900919629,0.35201,0.05,0.05,1.0,0.0,0.0,1.0,0,0,,,0
1449618722572970934,272,0,/odom,acmd_vector,0,0,0,2.34726172848,-0.459722436055,0.0,0.0,0.0,0.20950514245,0.977807545117,0.35201,0.05,0.05,1.0,0.0,0.0,1.0,0,0,,,0
1449618722607671260,273,0,/odom,acmd_vector,0,0,0,2.34726172848,-0.459722436055,0.0,0.0,0.0,0.20950514245,0.977807545117,0.35201,0.05,0.05,1.0,0.0,0.0,1.0,0,0,,,0
1449618722670487164,274,0,/odom,acmd_vector,0,0,0,2.35834879233,-0.456596997975,0.0,0.0,0.0,0.20950514245,0.977807545117,0.35201,0.05,0.05,1.0,0.0,0.0,1.0,0,0,,,0
1449618722691040200,275,0,/odom,acmd_vector,0,0,0,2.37490275362,-0.451645880627,0.0,0.0,0.0,0.199241911035,0.979950335929,0.35201,0.05,0.05,1.0,0.0,0.0,1.0,0,0,,,0
1449618722726858953,276,0,/odom,acmd_vector,0,0,0,2.37490275362,-0.451645880627,0.0,0.0,0.0,0.219826768801,0.975538923733,0.35201,0.05,0.05,1.0,0.0,0.0,1.0,0,0,,,0
1449618722769179551,277,0,/odom,acmd_vector,0,0,0,2.38592128643,-0.448286820828,0.0,0.0,0.0,0.219826768801,0.975538923733,0.35201,0.05,0.05,1.0,0.0,0.0,1.0,0,0,,,0
1449618722812307642,278,0,/odom,acmd_vector,0,0,0,2.39415810104,-0.445680334993,0.0,0.0,0.0,0.224978447357,0.974363740204,0.35201,0.05,0.05,1.0,0.0,0.0,1.0,0,0,,,0
1449618722850022947,279,0,/odom,acmd_vector,0,0,0,2.40236691073,-0.442986949269,0.0,0.0,0.0,0.230123844324,0.973161351613,0.347628592502,0.05,0.05,1.0,0.0,0.0,1.0,0,0,,,0
1449618722899913785,280,0,/odom,acmd_vector,0,0,0,2.41331199033,-0.439395768304,0.0,0.0,0.0,0.230123844324,0.973161351613,0.347628592502,0.05,0.05,1.0,0.0,0.0,1.0,0,0,,,0
1449618722964815188,281,0,/odom,acmd_vector,0,0,0,2.42149187833,-0.436615783497,0.0,0.0,0.0,0.235262816038,0.971931791532,0.344806729576,0.05,0.05,1.0,0.0,0.0,1.0,0,0,,,0
1449618722973712530,282,0,/odom,acmd_vector,0,0,0,2.44054844843,-0.430042863673,0.0,0.0,0.0,0.240395219014,0.97067509429,0.341979883436,0.05,0.05,1.0,0.0,0.0,1.0,0,0,,,0
1449618723012947663,283,0,/odom,acmd_vector,0,0,0,2.44054844843,-0.430042863673,0.0,0.0,0.0,0.240395219014,0.97067509429,0.335381583455,0.05,0.05,1.0,0.0,0.0,1.0,0,0,,,0
1449618723050442707,284,0,/odom,acmd_vector,0,0,0,2.45141518544,-0.426221165787,0.0,0.0,0.0,0.240395219014,0.97067509429,0.335381583455,0.05,0.05,1.0,0.0,0.0,1.0,0,0,,,0
1449618723087278745,285,0,/odom,acmd_vector,0,0,0,2.45953449274,-0.423268923878,0.0,0.0,0.0,0.245520909952,0.969391294976,0.335381583455,0.05,0.05,1.0,0.0,0.0,1.0,0,0,,,0
1449618723128819963,286,0,/odom,acmd_vector,0,0,0,2.47036023581,-0.419332601332,0.0,0.0,0.0,0.245520909952,0.969391294976,0.331608867229,0.05,0.05,1.0,0.0,0.0,1.0,0,0,,,0
1449618723168373933,287,0,/odom,acmd_vector,0,0,0,2.47577310734,-0.417364440059,0.0,0.0,0.0,0.245520909952,0.969391294976,0.331608867229,0.05,0.05,1.0,0.0,0.0,1.0,0,0,,,0
1449618723208860317,288,0,/odom,acmd_vector,0,0,0,2.4865988504,-0.413428117513,0.0,0.0,0.0,0.225059772607,0.974344958808,0.322159606484,0.05,0.05,1.0,0.0,0.0,1.0,0,0,,,0
1449618723283282120,289,0,/odom,acmd_vector,0,0,0,2.50007827548,-0.40836498303,0.0,0.0,0.0,0.250639745738,0.968080429436,0.316486706534,0.05,0.05,1.0,0.0,0.0,1.0,0,0,,,0
1449618723323342572,290,0,/odom,acmd_vector,0,0,0,2.51625358558,-0.40228922165,0.0,0.0,0.0,0.250639745738,0.968080429436,0.312706509854,0.05,0.05,1.0,0.0,0.0,1.0,0,0,,,0
1449618723353179976,291,0,/odom,acmd_vector,0,0,0,2.52703712565,-0.398238714064,0.0,0.0,0.0,0.230205069198,0.973142140756,0.307974613372,0.05,0.05,1.0,0.0,0.0,1.0,0,0,,,0
1449618723385008078,292,0,/odom,acmd_vector,0,0,0,2.53782066571,-0.394188206477,0.0,0.0,0.0,0.230205069198,0.973142140756,0.307974613372,0.05,0.05,1.0,0.0,0.0,1.0,0,0,,,0
1449618723411484466,293,0,/odom,acmd_vector,0,0,0,2.53782066571,-0.394188206477,0.0,0.0,0.0,0.230205069198,0.973142140756,0.302299101579,0.05,0.05,1.0,0.0,0.0,1.0,0,0,,,0
1449618723454262200,294,0,/odom,acmd_vector,0,0,0,2.54321243575,-0.392162952684,0.0,0.0,0.0,0.230205069198,0.973142140756,0.302299101579,0.05,0.05,1.0,0.0,0.0,1.0,0,0,,,0
1449618723504997772,295,0,/odom,acmd_vector,0,0,0,2.55399597581,-0.388112445097,0.0,0.0,0.0,0.230205069198,0.973142140756,0.302299101579,0.05,0.05,1.0,0.0,0.0,1.0,0,0,,,0
1449618723543333327,296,0,/odom,acmd_vector,0,0,0,2.56477951588,-0.384061937511,0.0,0.0,0.0,0.250639745738,0.968080429436,0.294736805031,0.05,0.05,1.0,0.0,0.0,1.0,0,0,,,0
1449618723593802993,297,0,/odom,acmd_vector,0,0,0,2.57556305594,-0.380011429924,0.0,0.0,0.0,0.250639745738,0.968080429436,0.289069089493,0.05,0.05,1.0,0.0,0.0,1.0,0,0,,,0
1449618723626183278,298,0,/odom,acmd_vector,0,0,0,2.59713013607,-0.371910414751,0.0,0.0,0.0,0.250639745738,0.968080429436,0.289069089493,0.05,0.05,1.0,0.0,0.0,1.0,0,0,,,0
1449618723671882330,299,0,/odom,acmd_vector,0,0,0,2.59713013607,-0.371910414751,0.0,0.0,0.0,0.250639745738,0.968080429436,0.289069089493,0.05,0.05,1.0,0.0,0.0,1.0,0,0,,,0
1449618723709687716,300,0,/odom,acmd_vector,0,0,0,2.61330544617,-0.365834653371,0.0,0.0,0.0,0.250639745738,0.968080429436,0.281518071251,0.05,0.05,1.0,0.0,0.0,1.0,0,0,,,0
1449618723794060497,301,0,/odom,acmd_vector,0,0,0,2.62408898624,-0.361784145785,0.0,0.0,0.0,0.250639745738,0.968080429436,0.273974121468,0.05,0.05,1.0,0.0,0.0,1.0,0,0,,,0
1449618723808372904,302,0,/odom,acmd_vector,0,0,0,2.64288421852,-0.354496725337,0.0,0.0,0.0,0.25575158345,0.966742534268,0.273974121468,0.05,0.05,1.0,0.0,0.0,1.0,0,0,,,0
1449618723815956133,303,0,/odom,acmd_vector,0,0,0,2.64288421852,-0.354496725337,0.0,0.0,0.0,0.235343938268,0.971912151751,0.268321220273,0.05,0.05,1.0,0.0,0.0,1.0,0,0,,,0
1449618723851801810,304,0,/odom,acmd_vector,0,0,0,2.64288421852,-0.354496725337,0.0,0.0,0.0,0.235343938268,0.971912151751,0.268321220273,0.05,0.05,1.0,0.0,0.0,1.0,0,0,,,0
1449618723885690364,305,0,/odom,acmd_vector,0,0,0,2.64825428489,-0.352414605209,0.0,0.0,0.0,0.235343938268,0.971912151751,0.268321220273,0.05,0.05,1.0,0.0,0.0,1.0,0,0,,,0
1449618723930928440,306,0,/odom,acmd_vector,0,0,0,2.65899441763,-0.348250364952,0.0,0.0,0.0,0.25575158345,0.966742534268,0.261726155121,0.05,0.05,1.0,0.0,0.0,1.0,0,0,,,0
1449618723973275380,307,0,/odom,acmd_vector,0,0,0,2.66973455036,-0.344086124696,0.0,0.0,0.0,0.25575158345,0.966742534268,0.261726155121,0.05,0.05,1.0,0.0,0.0,1.0,0,0,,,0
1449618724008220631,308,0,/odom,acmd_vector,0,0,0,2.68047468309,-0.33992188444,0.0,0.0,0.0,0.25575158345,0.966742534268,0.261726155121,0.05,0.05,1.0,0.0,0.0,1.0,0,0,,,0
1449618724047641075,309,0,/odom,acmd_vector,0,0,0,2.68584474946,-0.337839764312,0.0,0.0,0.0,0.183888394426,0.982947128993,0.13213819209,0.05,0.05,1.0,0.0,0.0,1.0,0,0,,,0
1449618724094193931,310,0,/odom,acmd_vector,0,0,0,2.6965848822,-0.333675524056,0.0,0.0,0.0,0.183888394426,0.982947128993,0.13213819209,0.05,0.05,1.0,0.0,0.0,1.0,0,0,,,0
1449618724133670317,311,0,/odom,acmd_vector,0,0,0,2.70460652663,-0.330467393167,0.0,0.0,0.0,0.189079719651,0.981961740404,0.123002371378,0.05,0.05,1.0,0.0,0.0,1.0,0,0,,,0
1449618724182327817,312,0,/odom,acmd_vector,0,0,0,2.71266162618,-0.327344212975,0.0,0.0,0.0,0.183888394426,0.982947128993,0.121122231304,0.05,0.05,1.0,0.0,0.0,1.0,0,0,,,0
1449618724211647124,313,0,/odom,acmd_vector,0,0,0,2.72068327062,-0.324136082086,0.0,0.0,0.0,0.189079719651,0.981961740404,0.121122231304,0.05,0.05,1.0,0.0,0.0,1.0,0,0,,,0
1449618724250265459,314,0,/odom,acmd_vector,0,0,0,2.73137879654,-0.319858574234,0.0,0.0,0.0,0.189079719651,0.981961740404,0.12001,0.05,0.05,1.0,0.0,0.0,1.0,0,0,,,0
1449618724294127912,315,0,/odom,acmd_vector,0,0,0,2.7367265595,-0.317719820307,0.0,0.0,0.0,0.178732995929,0.983897614677,0.12001,0.05,0.05,1.0,0.0,0.0,1.0,0,0,,,0
1449618724328129787,316,0,/odom,acmd_vector,0,0,0,2.74471385294,-0.314427097013,0.0,0.0,0.0,0.183929415492,0.982939453942,0.12001,0.05,0.05,1.0,0.0,0.0,1.0,0,0,,,0
1449618724371357878,317,0,/odom,acmd_vector,0,0,0,2.75273549738,-0.311218966124,0.0,0.0,0.0,0.178732995929,0.983897614677,0.12001,0.05,0.05,1.0,0.0,0.0,1.0,0,0,,,0
1449618724407401987,318,0,/odom,acmd_vector,0,0,0,2.75808326034,-0.309080212198,0.0,0.0,0.0,0.178732995929,0.983897614677,0.12001,0.05,0.05,1.0,0.0,0.0,1.0,0,0,,,0
1449618724447497552,319,0,/odom,acmd_vector,0,0,0,2.76607055378,-0.305787488904,0.0,0.0,0.0,0.194265765611,0.98094893461,0.12001,0.05,0.05,1.0,0.0,0.0,1.0,0,0,,,0
1449618724491956173,320,0,/odom,acmd_vector,0,0,0,2.77672027838,-0.301397191179,0.0,0.0,0.0,0.194265765611,0.98094893461,0.12001,0.05,0.05,1.0,0.0,0.0,1.0,0,0,,,0
1449618724529013291,321,0,/odom,acmd_vector,0,0,0,2.78204514068,-0.299202042316,0.0,0.0,0.0,0.194265765611,0.98094893461,0.12001,0.05,0.05,1.0,0.0,0.0,1.0,0,0,,,0
1449618724569159401,322,0,/odom,acmd_vector,0,0,0,2.79269486527,-0.294811744591,0.0,0.0,0.0,0.142391703016,0.989810387353,0.12001,0.05,0.05,1.0,0.0,0.0,1.0,0,0,,,0
1449618724609616677,323,0,/odom,acmd_vector,0,0,0,2.80334458986,-0.290421446866,0.0,0.0,0.0,0.142391703016,0.989810387353,0.12001,0.05,0.05,1.0,0.0,0.0,1.0,0,0,,,0
1449618724651885578,324,0,/odom,acmd_vector,0,0,0,2.80866945216,-0.288226298003,0.0,0.0,0.0,0.142391703016,0.989810387353,0.12001,0.05,0.05,1.0,0.0,0.0,1.0,0,0,,,0
1449618724689908925,325,0,/odom,acmd_vector,0,0,0,2.81662150257,-0.284849350044,0.0,0.0,0.0,0.147619873008,0.989044171457,0.12001,0.05,0.05,1.0,0.0,0.0,1.0,0,0,,,0
1449618724733764214,326,0,/odom,acmd_vector,0,0,0,2.82460879602,-0.28155662675,0.0,0.0,0.0,0.142391703016,0.989810387353,0.12001,0.05,0.05,1.0,0.0,0.0,1.0,0,0,,,0
1449618724774743454,327,0,/odom,acmd_vector,0,0,0,2.82993365832,-0.279361477888,0.0,0.0,0.0,0.121523575069,0.992588545522,0.12001,0.05,0.05,1.0,0.0,0.0,1.0,0,0,,,0
1449618724822532180,328,0,/odom,acmd_vector,0,0,0,2.82993365832,-0.279361477888,0.0,0.0,0.0,0.121523575069,0.992588545522,0.12001,0.05,0.05,1.0,0.0,0.0,1.0,0,0,,,0
1449618724845965582,329,0,/odom,acmd_vector,0,0,0,2.85378980956,-0.269230634011,0.0,0.0,0.0,0.126766716177,0.991932558025,0.12001,0.05,0.05,1.0,0.0,0.0,1.0,0,0,,,0
1449618724902906631,330,0,/odom,acmd_vector,0,0,0,2.86439254344,-0.264728036733,0.0,0.0,0.0,0.126766716177,0.991932558025,0.12001,0.05,0.05,1.0,0.0,0.0,1.0,0,0,,,0
1449618724928867228,331,0,/odom,acmd_vector,0,0,0,2.87499527732,-0.260225439454,0.0,0.0,0.0,0.126766716177,0.991932558025,0.12001,0.05,0.05,1.0,0.0,0.0,1.0,0,0,,,0
1449618724967850915,332,0,/odom,acmd_vector,0,0,0,2.88029664427,-0.257974140815,0.0,0.0,0.0,0.0428850320584,0.999080013825,1e-05,0.05,0.05,1.0,0.0,0.0,1.0,0,0,,,0
1449618725012523297,333,0,/odom,acmd_vector,0,0,0,2.89089937815,-0.253471543537,0.0,0.0,0.0,0.0428850320584,0.999080013825,1e-05,0.05,0.05,1.0,0.0,0.0,1.0,0,0,,,0
1449618725051317751,334,0,/odom,acmd_vector,0,0,0,2.90150211203,-0.248968946259,0.0,0.0,0.0,0.0218438190215,0.999761395319,1e-05,0.05,0.05,1.0,0.0,0.0,1.0,0,0,,,0
1449618725094598750,335,0,/odom,acmd_vector,0,0,0,2.91210484592,-0.24446634898,0.0,0.0,0.0,0.0218438190215,0.999761395319,1e-05,0.05,0.05,1.0,0.0,0.0,1.0,0,0,,,0
1449618725127730632,336,0,/odom,acmd_vector,0,0,0,2.91740621286,-0.242215050341,0.0,0.0,0.0,0.199446387505,0.979908739889,1e-05,0.05,0.05,1.0,0.0,0.0,1.0,0,0,,,0
1449618725165146395,337,0,/odom,acmd_vector,0,0,0,2.92800894674,-0.237712453063,0.0,0.0,0.0,0.199446387505,0.979908739889,1e-05,0.05,0.05,1.0,0.0,0.0,1.0,0,0,,,0
1449618725206981783,338,0,/odom,acmd_vector,0,0,0,2.93861168063,-0.233209855784,0.0,0.0,0.0,0.199446387505,0.979908739889,1e-05,0.05,0.05,1.0,0.0,0.0,1.0,0,0,,,0
1449618725245266806,339,0,/odom,acmd_vector,0,0,0,2.94921441451,-0.228707258506,0.0,0.0,0.0,0.199446387505,0.979908739889,1e-05,0.05,0.05,1.0,0.0,0.0,1.0,0,0,,,0
1449618725286657531,340,0,/odom,acmd_vector,0,0,0,2.95720170796,-0.225414535212,0.0,0.0,0.0,0.194265765611,0.98094893461,1e-05,0.05,0.05,1.0,0.0,0.0,1.0,0,0,,,0
1449618725325187779,341,0,/odom,acmd_vector,0,0,0,2.96785143255,-0.221024237487,0.0,0.0,0.0,0.194265765611,0.98094893461,1e-05,0.05,0.05,1.0,0.0,0.0,1.0,0,0,,,0
1449618725365697072,342,0,/odom,acmd_vector,0,0,0,2.97317629485,-0.218829088624,0.0,0.0,0.0,0.194265765611,0.98094893461,1e-05,0.05,0.05,1.0,0.0,0.0,1.0,0,0,,,0
1449618725406563297,343,0,/odom,acmd_vector,0,0,0,2.98382601944,-0.214438790899,0.0,0.0,0.0,0.194265765611,0.98094893461,1e-05,0.05,0.05,1.0,0.0,0.0,1.0,0,0,,,0
1449618725447852398,344,0,/odom,acmd_vector,0,0,0,2.99719542684,-0.209091906083,0.0,0.0,0.0,0.189079719651,0.981961740404,1e-05,0.05,0.05,1.0,0.0,0.0,1.0,0,0,,,0
1449618725492882236,345,0,/odom,acmd_vector,0,0,0,3.00789095275,-0.204814398231,0.0,0.0,0.0,0.189079719651,0.981961740404,1e-05,0.05,0.05,1.0,0.0,0.0,1.0,0,0,,,0
1449618725528731670,346,0,/odom,acmd_vector,0,0,0,3.01323871571,-0.202675644305,0.0,0.0,0.0,0.189079719651,0.981961740404,1e-05,0.05,0.05,1.0,0.0,0.0,1.0,0,0,,,0
1449618725570568284,347,0,/odom,acmd_vector,0,0,0,3.02129381526,-0.199552464113,0.0,0.0,0.0,0.183888394426,0.982947128993,1e-05,0.05,0.05,1.0,0.0,0.0,1.0,0,0,,,0
1449618725610873766,348,0,/odom,acmd_vector,0,0,0,3.032033948,-0.195388223857,0.0,0.0,0.0,0.183888394426,0.982947128993,1e-05,0.05,0.05,1.0,0.0,0.0,1.0,0,0,,,0
1449618725654170369,349,0,/odom,acmd_vector,0,0,0,3.04012160305,-0.192350343167,0.0,0.0,0.0,0.17869193488,0.983905072865,1e-05,0.05,0.05,1.0,0.0,0.0,1.0,0,0,,,0
1449618725689176445,350,0,/odom,acmd_vector,0,0,0,3.05365378188,-0.187429939985,0.0,0.0,0.0,0.173490486104,0.984835545272,1e-05,0.05,0.05,1.0,0.0,0.0,1.0,0,0,,,0
1449618725736678043,351,0,/odom,acmd_vector,0,0,0,3.05906665341,-0.185461778712,0.0,0.0,0.0,0.173490486104,0.984835545272,1e-05,0.05,0.05,1.0,0.0,0.0,1.0,0,0,,,0
1449618725770383267,352,0,/odom,acmd_vector,0,0,0,3.07265007468,-0.180684656354,0.0,0.0,0.0,0.168284193326,0.985738520236,1e-05,0.05,0.05,1.0,0.0,0.0,1.0,0,0,,,0
1449618725812313493,353,0,/odom,acmd_vector,0,0,0,3.08082996268,-0.177904671547,0.0,0.0,0.0,0.163073201911,0.986613972544,1e-05,0.05,0.05,1.0,0.0,0.0,1.0,0,0,,,0
1449618725859667236,354,0,/odom,acmd_vector,0,0,0,3.08903877238,-0.175211285823,0.0,0.0,0.0,0.157857657354,0.987461877753,1e-05,0.05,0.05,1.0,0.0,0.0,1.0,0,0,,,0
1449618725902560019,355,0,/odom,acmd_vector,0,0,0,3.10276679672,-0.170867142764,0.0,0.0,0.0,0.152637705278,0.988282212188,1e-05,0.05,0.05,1.0,0.0,0.0,1.0,0,0,,,0
1449618725929417980,356,0,/odom,acmd_vector,0,0,0,3.1137492162,-0.167391828316,0.0,0.0,0.0,0.152637705278,0.988282212188,1e-05,0.05,0.05,1.0,0.0,0.0,1.0,0,0,,,0
1449618725966675632,357,0,/odom,acmd_vector,0,0,0,3.12480263177,-0.164149398316,0.0,0.0,0.0,0.142185161666,0.989840077892,1e-05,0.05,0.05,1.0,0.0,0.0,1.0,0,0,,,0
1449618726010813063,358,0,/odom,acmd_vector,0,0,0,3.13585604734,-0.160906968316,0.0,0.0,0.0,0.142185161666,0.989840077892,1e-05,0.05,0.05,1.0,0.0,0.0,1.0,0,0,,,0
1449618726043923169,359,0,/odom,acmd_vector,0,0,0,3.14417134523,-0.158562889756,0.0,0.0,0.0,0.136952861975,0.990577565664,1e-05,0.05,0.05,1.0,0.0,0.0,1.0,0,0,,,0
1449618726087318877,360,0,/odom,acmd_vector,0,0,0,3.15251095065,-0.156306816931,0.0,0.0,0.0,0.131716738444,0.99128739567,1e-05,0.05,0.05,1.0,0.0,0.0,1.0,0,0,,,0
1449618726127477712,361,0,/odom,acmd_vector,0,0,0,3.16644925328,-0.152693791717,0.0,0.0,0.0,0.126476937269,0.991969548091,1e-05,0.05,0.05,1.0,0.0,0.0,1.0,0,0,,,0
1449618726167574096,362,0,/odom,acmd_vector,0,0,0,3.17765849244,-0.150039680657,0.0,0.0,0.0,0.115986887289,0.993250744765,1e-05,0.05,0.05,1.0,0.0,0.0,1.0,0,0,,,0
1449618726209886529,363,0,/odom,acmd_vector,0,0,0,3.18326311202,-0.148712625128,0.0,0.0,0.0,0.115986887289,0.993250744765,1e-05,0.05,0.05,1.0,0.0,0.0,1.0,0,0,,,0
