%time,field.header.seq,field.header.stamp,field.header.frame_id,field.ns,field.id,field.type,field.action,field.pose.position.x,field.pose.position.y,field.pose.position.z,field.pose.orientation.x,field.pose.orientation.y,field.pose.orientation.z,field.pose.orientation.w,field.scale.x,field.scale.y,field.scale.z,field.color.r,field.color.g,field.color.b,field.color.a,field.lifetime,field.frame_locked,field.text,field.mesh_resource,field.mesh_use_embedded_materials
1449618709106068627,0,0,/odom,bcmd_vector,0,0,0,0.0,0.0,0.0,0.0,0.0,0.0,1.0,0.00559730190992,0.05,0.05,0.0,1.0,0.0,1.0,0,0,,,0
1449618709141364574,1,0,/odom,bcmd_vector,0,0,0,0.0,0.0,0.0,0.0,0.0,0.0,1.0,0.00559730190992,0.05,0.05,0.0,1.0,0.0,1.0,0,0,,,0
1449618709205068648,2,0,/odom,bcmd_vector,0,0,0,0.0,0.0,0.0,0.0,0.0,-0.00317459802558,0.999994960951,0.128517939339,0.05,0.05,0.0,1.0,0.0,1.0,0,0,,,0
1449618709231076141,3,0,/odom,bcmd_vector,0,0,0,0.0,0.0,0.0,0.0,0.0,-0.00317459802558,0.999994960951,0.128517939339,0.05,0.05,0.0,1.0,0.0,1.0,0,0,,,0
1449618709270644868,4,0,/odom,bcmd_vector,0,0,0,0.0,0.0,0.0,0.0,0.0,-0.00476188704027,0.999988662152,0.259819524059,0.05,0.05,0.0,1.0,0.0,1.0,0,0,,,0
1449618709376726745,5,0,/odom,bcmd_vector,0,0,0,0.0,0.0,0.0,0.0,0.0,-0.00476188704027,0.999988662152,0.259819524059,0.05,0.05,0.0,1.0,0.0,1.0,0,0,,,0
1449618709392862276,6,0,/odom,bcmd_vector,0,0,0,0.0,0.0,0.0,0.0,0.0,-0.00476188704027,0.999988662152,0.259819524059,0.05,0.05,0.0,1.0,0.0,1.0,0,0,,,0
1449618709436110805,7,0,/odom,bcmd_vector,0,0,0,0.0,0.0,0.0,0.0,0.0,-0.00238095026886,0.999997165534,0.226295716534,0.05,0.05,0.0,1.0,0.0,1.0,0,0,,,0
1449618709477203386,8,0,/odom,bcmd_vector,0,0,0,0.0,0.0,0.0,0.0,0.0,-0.00238095026886,0.999997165534,0.226295716534,0.05,0.05,0.0,1.0,0.0,1.0,0,0,,,0
1449618709515857264,9,0,/odom,bcmd_vector,0,0,0,0.0,0.0,0.0,0.0,0.0,-0.00476188704027,0.999988662152,0.259819524059,0.05,0.05,0.0,1.0,0.0,1.0,0,0,,,0
1449618709550015575,10,0,/odom,bcmd_vector,0,0,0,0.0,0.0,0.0,0.0,0.0,-0.00476188704027,0.999988662152,0.259819524059,0.05,0.05,0.0,1.0,0.0,1.0,0,0,,,0
1449618709588175618,11,0,/odom,bcmd_vector,0,0,0,0.0,0.0,0.0,0.0,0.0,-0.00238095026886,0.999997165534,0.222105240593,0.05,0.05,0.0,1.0,0.0,1.0,0,0,,,0
1449618709627465014,12,0,/odom,bcmd_vector,0,0,0,0.0,0.0,0.0,0.0,0.0,-0.00238095026886,0.999997165534,0.222105240593,0.05,0.05,0.0,1.0,0.0,1.0,0,0,,,0
1449618709685991295,13,0,/odom,bcmd_vector,0,0,0,0.0,0.0,0.0,0.0,0.0,-0.00501251047546,0.99998743729,0.252105240593,0.05,0.05,0.0,1.0,0.0,1.0,0,0,,,0
1449618709714534263,14,0,/odom,bcmd_vector,0,0,0,0.0,0.0,0.0,0.0,0.0,-0.00843766113079,0.999964402304,0.233216349373,0.05,0.05,0.0,1.0,0.0,1.0,0,0,,,0
1449618709789107478,15,0,/odom,bcmd_vector,0,0,0,0.0,0.0,0.0,0.0,0.0,-0.00843766113079,0.999964402304,0.267466465439,0.05,0.05,0.0,1.0,0.0,1.0,0,0,,,0
1449618709806190273,16,0,/odom,bcmd_vector,0,0,0,0.0,0.0,0.0,0.0,0.0,-0.00501251047546,0.99998743729,0.273420774567,0.05,0.05,0.0,1.0,0.0,1.0,0,0,,,0
1449618709831572290,17,0,/odom,bcmd_vector,0,0,0,0.0,0.0,0.0,0.0,0.0,-0.00501251047546,0.99998743729,0.273420774567,0.05,0.05,0.0,1.0,0.0,1.0,0,0,,,0
1449618709884746715,18,0,/odom,bcmd_vector,0,0,0,0.0,0.0,0.0,0.0,0.0,-0.00843766113079,0.999964402304,0.267466465439,0.05,0.05,0.0,1.0,0.0,1.0,0,0,,,0
1449618709919728736,19,0,/odom,bcmd_vector,0,0,0,0.0,0.0,0.0,0.0,0.0,-0.00843766113079,0.999964402304,0.267466465439,0.05,0.05,0.0,1.0,0.0,1.0,0,0,,,0
1449618709955505119,20,0,/odom,bcmd_vector,0,0,0,0.0,0.0,0.0,0.0,0.0,-0.00843766113079,0.999964402304,0.267466465439,0.05,0.05,0.0,1.0,0.0,1.0,0,0,,,0
1449618710006345021,21,0,/odom,bcmd_vector,0,0,0,0.0,0.0,0.0,0.0,0.0,-0.00739341662534,0.999972668322,0.29018267833,0.05,0.05,0.0,1.0,0.0,1.0,0,0,,,0
1449618710025942992,22,0,/odom,bcmd_vector,0,0,0,0.0,0.0,0.0,0.0,0.0,-0.00739341662534,0.999972668322,0.29018267833,0.05,0.05,0.0,1.0,0.0,1.0,0,0,,,0
1449618710074613171,23,0,/odom,bcmd_vector,0,0,0,0.0,0.0,0.0,0.0,0.0,-0.00843766113079,0.999964402304,0.267466465439,0.05,0.05,0.0,1.0,0.0,1.0,0,0,,,0
1449618710170711052,24,0,/odom,bcmd_vector,0,0,0,0.00287963245437,3.04332289367e-05,0.0,0.0,0.0,-0.00315373168388,0.999995026976,0.267466465439,0.05,0.05,0.0,1.0,0.0,1.0,0,0,,,0
1449618710201759496,25,0,/odom,bcmd_vector,0,0,0,0.00575942572016,3.04332289367e-05,0.0,0.0,0.0,-0.00843766113079,0.999964402304,0.267466465439,0.05,0.05,0.0,1.0,0.0,1.0,0,0,,,0
1449618710224040738,26,0,/odom,bcmd_vector,0,0,0,0.00575942572016,3.04332289367e-05,0.0,0.0,0.0,-0.00843766113079,0.999964402304,0.267466465439,0.05,0.05,0.0,1.0,0.0,1.0,0,0,,,0
1449618710242331542,27,0,/odom,bcmd_vector,0,0,0,0.00863905817453,6.08664578733e-05,0.0,0.0,0.0,-0.00315373168388,0.999995026976,0.266986617478,0.05,0.05,0.0,1.0,0.0,1.0,0,0,,,0
1449618710268496239,28,0,/odom,bcmd_vector,0,0,0,0.00863905817453,6.08664578733e-05,0.0,0.0,0.0,-0.00315373168388,0.999995026976,0.266986617478,0.05,0.05,0.0,1.0,0.0,1.0,0,0,,,0
1449618710354543191,29,0,/odom,bcmd_vector,0,0,0,0.00863905817453,6.08664578733e-05,0.0,0.0,0.0,-0.00315373168388,0.999995026976,0.266986617478,0.05,0.05,0.0,1.0,0.0,1.0,0,0,,,0
1449618710381131947,30,0,/odom,bcmd_vector,0,0,0,0.0143983230833,0.000121732915747,0.0,0.0,0.0,-0.00315373168388,0.999995026976,0.26650668448,0.05,0.05,0.0,1.0,0.0,1.0,0,0,,,0
1449618710403013527,31,0,/odom,bcmd_vector,0,0,0,0.0172774731214,0.000182595974757,0.0,0.0,0.0,0.0021302858179,0.999997730939,0.266026838411,0.05,0.05,0.0,1.0,0.0,1.0,0,0,,,0
1449618710469873051,32,0,/odom,bcmd_vector,0,0,0,0.0172774731214,0.000182595974757,0.0,0.0,0.0,0.0021302858179,0.999997730939,0.266026838411,0.05,0.05,0.0,1.0,0.0,1.0,0,0,,,0
1449618710507412796,33,0,/odom,bcmd_vector,0,0,0,0.0230362556138,0.000273892262705,0.0,0.0,0.0,0.0021302858179,0.999997730939,0.266026838411,0.05,0.05,0.0,1.0,0.0,1.0,0,0,,,0
1449618710539546071,34,0,/odom,bcmd_vector,0,0,0,0.0259158880682,0.000304325491641,0.0,0.0,0.0,-0.00315373168388,0.999995026976,0.265067149864,0.05,0.05,0.0,1.0,0.0,1.0,0,0,,,0
1449618710564779779,35,0,/odom,bcmd_vector,0,0,0,0.0259158880682,0.000304325491641,0.0,0.0,0.0,-0.00315373168388,0.999995026976,0.265067149864,0.05,0.05,0.0,1.0,0.0,1.0,0,0,,,0
1449618710621742512,36,0,/odom,bcmd_vector,0,0,0,0.0287950381062,0.000365188550652,0.0,0.0,0.0,0.0021302858179,0.999997730939,0.264587449662,0.05,0.05,0.0,1.0,0.0,1.0,0,0,,,0
1449618710657943698,37,0,/odom,bcmd_vector,0,0,0,0.0316746705606,0.000395621779589,0.0,0.0,0.0,-0.00120679015722,0.999999271828,0.340874109086,0.05,0.05,0.0,1.0,0.0,1.0,0,0,,,0
1449618710689217407,38,0,/odom,bcmd_vector,0,0,0,0.0345538205987,0.0004564848386,0.0,0.0,0.0,0.00407605441276,0.999991692856,0.34072993881,0.05,0.05,0.0,1.0,0.0,1.0,0,0,,,0
1449618710731183816,39,0,/odom,bcmd_vector,0,0,0,0.0403121206748,0.000578210956621,0.0,0.0,0.0,0.00407369091173,0.999991702487,0.340635700769,0.05,0.05,0.0,1.0,0.0,1.0,0,0,,,0
1449618710806173606,40,0,/odom,bcmd_vector,0,0,0,0.0431904667456,0.00066949704836,0.0,0.0,0.0,0.00933374066964,0.999956439694,0.33960710583,0.05,0.05,0.0,1.0,0.0,1.0,0,0,,,0
1449618710834933097,41,0,/odom,bcmd_vector,0,0,0,0.0547038510287,0.00103464141532,0.0,0.0,0.0,0.0093281780611,0.999956491601,0.334028929548,0.05,0.05,0.0,1.0,0.0,1.0,0,0,,,0
1449618710881238071,42,0,/odom,bcmd_vector,0,0,0,0.0604605431703,0.0012172135988,0.0,0.0,0.0,0.00574907689668,0.999983473921,0.346659987313,0.05,0.05,0.0,1.0,0.0,1.0,0,0,,,0
1449618710939778180,43,0,/odom,bcmd_vector,0,0,0,0.0662172353118,0.00139978578228,0.0,0.0,0.0,0.00568792858046,0.999983823603,0.346663852781,0.05,0.05,0.0,1.0,0.0,1.0,0,0,,,0
1449618710975081560,44,0,/odom,bcmd_vector,0,0,0,0.0748488972386,0.00176488257047,0.0,0.0,0.0,0.0126673346136,0.999919766098,0.34659854644,0.05,0.05,0.0,1.0,0.0,1.0,0,0,,,0
1449618711040455596,45,0,/odom,bcmd_vector,0,0,0,0.0748488972386,0.00176488257047,0.0,0.0,0.0,0.00959283675258,0.999953987683,0.34659854644,0.05,0.05,0.0,1.0,0.0,1.0,0,0,,,0
1449618711057562482,46,0,/odom,bcmd_vector,0,0,0,0.0863577798077,0.00225167828807,0.0,0.0,0.0,0.00952545640713,0.999954631811,0.346604414413,0.05,0.05,0.0,1.0,0.0,1.0,0,0,,,0
1449618711166356278,47,0,/odom,bcmd_vector,0,0,0,0.0863577798077,0.00225167828807,0.0,0.0,0.0,0.00921433226837,0.999957547139,0.346631509328,0.05,0.05,0.0,1.0,0.0,1.0,0,0,,,0
1449618711223430577,48,0,/odom,bcmd_vector,0,0,0,0.112244085004,0.00352936412868,0.0,0.0,0.0,0.0143164642066,0.999897514175,0.346647317886,0.05,0.05,0.0,1.0,0.0,1.0,0,0,,,0
1449618711243377345,49,0,/odom,bcmd_vector,0,0,0,0.129498728273,0.0044419531811,0.0,0.0,0.0,0.0172796676424,0.999850695397,0.346654238564,0.05,0.05,0.0,1.0,0.0,1.0,0,0,,,0
1449618711290466798,50,0,/odom,bcmd_vector,0,0,0,0.129498728273,0.0044419531811,0.0,0.0,0.0,0.0142370004028,0.999898648774,0.346654238564,0.05,0.05,0.0,1.0,0.0,1.0,0,0,,,0
1449618711322594161,51,0,/odom,bcmd_vector,0,0,0,0.138120746094,0.00498939448516,0.0,0.0,0.0,0.0194552428808,0.99981072885,0.346659902057,0.05,0.05,0.0,1.0,0.0,1.0,0,0,,,0
1449618711347816033,52,0,/odom,bcmd_vector,0,0,0,0.143868757975,0.00535435535454,0.0,0.0,0.0,0.0194110619255,0.999811587588,0.346663750208,0.05,0.05,0.0,1.0,0.0,1.0,0,0,,,0
1449618711403404731,53,0,/odom,bcmd_vector,0,0,0,0.155364781736,0.00608427709328,0.0,0.0,0.0,-0.134956672671,0.990851500731,0.298626233496,0.05,0.05,0.0,1.0,0.0,1.0,0,0,,,0
1449618711429234122,54,0,/odom,bcmd_vector,0,0,0,0.161112793616,0.00644923796266,0.0,0.0,0.0,-0.135831208431,0.990731993435,0.298666500045,0.05,0.05,0.0,1.0,0.0,1.0,0,0,,,0
1449618711481179462,55,0,/odom,bcmd_vector,0,0,0,0.172608817377,0.0071791597014,0.0,0.0,0.0,-0.13571918273,0.990747345916,0.304074990312,0.05,0.05,0.0,1.0,0.0,1.0,0,0,,,0
1449618711546224315,56,0,/odom,bcmd_vector,0,0,0,0.184104841138,0.00790908144015,0.0,0.0,0.0,-0.134538450883,0.990908373783,0.304856346532,0.05,0.05,0.0,1.0,0.0,1.0,0,0,,,0
1449618711583392727,57,0,/odom,bcmd_vector,0,0,0,0.20134887678,0.00900396404827,0.0,0.0,0.0,-0.134311653622,0.990939140261,0.305006416441,0.05,0.05,0.0,1.0,0.0,1.0,0,0,,,0
1449618711619765044,58,0,/odom,bcmd_vector,0,0,0,0.212844900541,0.00973388578701,0.0,0.0,0.0,-0.131220317586,0.991353230818,0.305110076746,0.05,0.05,0.0,1.0,0.0,1.0,0,0,,,0
1449618711656501796,59,0,/odom,bcmd_vector,0,0,0,0.22720448567,0.0107980973574,0.0,0.0,0.0,-0.127413904828,0.991849634197,0.304121438881,0.05,0.05,0.0,1.0,0.0,1.0,0,0,,,0
1449618711694998666,60,0,/odom,bcmd_vector,0,0,0,0.22720448567,0.0107980973574,0.0,0.0,0.0,-0.130411944979,0.991459895612,0.298800487645,0.05,0.05,0.0,1.0,0.0,1.0,0,0,,,0
1449618711808722397,61,0,/odom,bcmd_vector,0,0,0,0.232948319721,0.0112237819856,0.0,0.0,0.0,-0.130353729352,0.991467551281,0.298843265234,0.05,0.05,0.0,1.0,0.0,1.0,0,0,,,0
1449618711907453327,62,0,/odom,bcmd_vector,0,0,0,0.264545673748,0.0134739618022,0.0,0.0,0.0,-0.136357252516,0.990659729517,0.299090396143,0.05,0.05,0.0,1.0,0.0,1.0,0,0,,,0
1449618711948426889,63,0,/odom,bcmd_vector,0,0,0,0.296153472348,0.015572332222,0.0,0.0,0.0,-0.127889445514,0.991788429921,0.29935866774,0.05,0.05,0.0,1.0,0.0,1.0,0,0,,,0
1449618712060533344,64,0,/odom,bcmd_vector,0,0,0,0.307641140451,0.0164237014783,0.0,0.0,0.0,-0.130754343922,0.991414797925,0.299461490477,0.05,0.05,0.0,1.0,0.0,1.0,0,0,,,0
1449618712103247939,65,0,/odom,bcmd_vector,0,0,0,0.339262277546,0.0183094572227,0.0,0.0,0.0,-0.13517206528,0.990822139825,0.300291688745,0.05,0.05,0.0,1.0,0.0,1.0,0,0,,,0
1449618712177981019,66,0,/odom,bcmd_vector,0,0,0,0.353641146937,0.0190699480997,0.0,0.0,0.0,-0.137343730704,0.990523447293,0.300455026201,0.05,0.05,0.0,1.0,0.0,1.0,0,0,,,0
1449618712205584582,67,0,/odom,bcmd_vector,0,0,0,0.359392694693,0.0193741444505,0.0,0.0,0.0,-0.13728148011,0.990532076825,0.30052195506,0.05,0.05,0.0,1.0,0.0,1.0,0,0,,,0
1449618712263894093,68,0,/odom,bcmd_vector,0,0,0,0.370895790206,0.0199825371521,0.0,0.0,0.0,-0.137154375334,0.990549684431,0.300658610224,0.05,0.05,0.0,1.0,0.0,1.0,0,0,,,0
1449618712355690424,69,0,/odom,bcmd_vector,0,0,0,0.391040836416,0.0207127783073,0.0,0.0,0.0,-0.142154868203,0.989844428911,0.306018067284,0.05,0.05,0.0,1.0,0.0,1.0,0,0,,,0
1449618712423291726,70,0,/odom,bcmd_vector,0,0,0,0.414074036721,0.0211996827794,0.0,0.0,0.0,-0.152328421502,0.988329930743,0.306288681074,0.05,0.05,0.0,1.0,0.0,1.0,0,0,,,0
1449618712520016998,71,0,/odom,bcmd_vector,0,0,0,0.434231463901,0.0214127153819,0.0,0.0,0.0,-0.157291536394,0.987552212584,0.306538209127,0.05,0.05,0.0,1.0,0.0,1.0,0,0,,,0
1449618712553005735,72,0,/odom,bcmd_vector,0,0,0,0.457268523536,0.0211692495504,0.0,0.0,0.0,-0.0206221304773,0.999787341255,0.346991011917,0.05,0.05,0.0,1.0,0.0,1.0,0,0,,,0
1449618712656907283,73,0,/odom,bcmd_vector,0,0,0,0.465905973651,0.0209866603734,0.0,0.0,0.0,-0.0232672029644,0.999729281989,0.347004033022,0.05,0.05,0.0,1.0,0.0,1.0,0,0,,,0
1449618712772261618,74,0,/odom,bcmd_vector,0,0,0,0.488929365931,0.0201651331265,0.0,0.0,0.0,-0.0344216833014,0.999407398271,0.34704010507,0.05,0.05,0.0,1.0,0.0,1.0,0,0,,,0
1449618712781182829,75,0,/odom,bcmd_vector,0,0,0,0.520542468345,0.0181579094846,0.0,0.0,0.0,-0.0503048105243,0.998733911529,0.0639170932938,0.05,0.05,0.0,1.0,0.0,1.0,0,0,,,0
1449618712817636536,76,0,/odom,bcmd_vector,0,0,0,0.53200957729,0.0170639439956,0.0,0.0,0.0,-0.0639727158476,0.99795164794,0.0650173922175,0.05,0.05,0.0,1.0,0.0,1.0,0,0,,,0
1449618712861616789,77,0,/odom,bcmd_vector,0,0,0,0.53200957729,0.0170639439956,0.0,0.0,0.0,-0.0639727158476,0.99795164794,0.0650173922175,0.05,0.05,0.0,1.0,0.0,1.0,0,0,,,0
1449618712948765608,78,0,/odom,bcmd_vector,0,0,0,0.55491811346,0.0146339054788,0.0,0.0,0.0,-0.0725878247911,0.997362024388,0.0673059923452,0.05,0.05,0.0,1.0,0.0,1.0,0,0,,,0
1449618712984520767,79,0,/odom,bcmd_vector,0,0,0,0.572049461483,0.0123882852463,0.0,0.0,0.0,-0.0839497041549,0.996469993112,0.0712950298623,0.05,0.05,0.0,1.0,0.0,1.0,0,0,,,0
1449618713006294466,80,0,/odom,bcmd_vector,0,0,0,0.58059445565,0.0111147241066,0.0,0.0,0.0,-0.0865459095241,0.996247863508,0.101199450736,0.05,0.05,0.0,1.0,0.0,1.0,0,0,,,0
1449618713025070241,81,0,/odom,bcmd_vector,0,0,0,0.58059445565,0.0111147241066,0.0,0.0,0.0,-0.0865459095241,0.996247863508,0.101199450736,0.05,0.05,0.0,1.0,0.0,1.0,0,0,,,0
1449618713115118153,82,0,/odom,bcmd_vector,0,0,0,0.591987781205,0.00941664258706,0.0,0.0,0.0,-0.0840151448844,0.996464477756,0.159984768755,0.05,0.05,0.0,1.0,0.0,1.0,0,0,,,0
1449618713127503030,83,0,/odom,bcmd_vector,0,0,0,0.60902012012,0.00650890046698,0.0,0.0,0.0,-0.0948494618578,0.995491627079,0.16138523614,0.05,0.05,0.0,1.0,0.0,1.0,0,0,,,0
1449618713136598420,84,0,/odom,bcmd_vector,0,0,0,0.60902012012,0.00650890046698,0.0,0.0,0.0,-0.0975446416729,0.995231150478,0.213807052689,0.05,0.05,0.0,1.0,0.0,1.0,0,0,,,0
1449618713199045414,85,0,/odom,bcmd_vector,0,0,0,0.60902012012,0.00650890046698,0.0,0.0,0.0,-0.0975446416729,0.995231150478,0.213807052689,0.05,0.05,0.0,1.0,0.0,1.0,0,0,,,0
1449618713224952439,86,0,/odom,bcmd_vector,0,0,0,0.631670876557,0.00230238980334,0.0,0.0,0.0,-0.108457042408,0.994101136682,0.215217088268,0.05,0.05,0.0,1.0,0.0,1.0,0,0,,,0
1449618713255072795,87,0,/odom,bcmd_vector,0,0,0,0.631670876557,0.00230238980334,0.0,0.0,0.0,-0.10519655217,0.994451449499,0.215217088268,0.05,0.05,0.0,1.0,0.0,1.0,0,0,,,0
1449618713349772417,88,0,/odom,bcmd_vector,0,0,0,0.640136680327,0.000579296712465,0.0,0.0,0.0,-0.110512348337,0.993874751095,0.347306947971,0.05,0.05,0.0,1.0,0.0,1.0,0,0,,,0
1449618713407663618,89,0,/odom,bcmd_vector,0,0,0,0.662629628806,-0.00440254710789,0.0,0.0,0.0,-0.121240021928,0.992623220101,0.347358422282,0.05,0.05,0.0,1.0,0.0,1.0,0,0,,,0
1449618713442902766,90,0,/odom,bcmd_vector,0,0,0,0.671036558176,-0.00639313040269,0.0,0.0,0.0,-0.123961472015,0.992287031789,0.347378300457,0.05,0.05,0.0,1.0,0.0,1.0,0,0,,,0
1449618713513565147,91,0,/odom,bcmd_vector,0,0,0,0.679421981902,-0.00847244572582,0.0,0.0,0.0,-0.129304758177,0.991604900912,0.342786978028,0.05,0.05,0.0,1.0,0.0,1.0,0,0,,,0
1449618713562419600,92,0,/odom,bcmd_vector,0,0,0,0.693375245963,-0.0120264710693,0.0,0.0,0.0,-0.130943205971,0.991389871246,0.342855675272,0.05,0.05,0.0,1.0,0.0,1.0,0,0,,,0
1449618713590793940,93,0,/odom,bcmd_vector,0,0,0,0.698950567015,-0.0134716811547,0.0,0.0,0.0,-0.130961450858,0.991387461283,0.347446824193,0.05,0.05,0.0,1.0,0.0,1.0,0,0,,,0
1449618713626863118,94,0,/odom,bcmd_vector,0,0,0,0.70173043549,-0.01422370543,0.0,0.0,0.0,-0.134282452741,0.990943097703,0.34745386576,0.05,0.05,0.0,1.0,0.0,1.0,0,0,,,0
1449618713692790095,95,0,/odom,bcmd_vector,0,0,0,0.71004573338,-0.0165677839893,0.0,0.0,0.0,-0.139504726277,0.990221405215,0.347475185284,0.05,0.05,0.0,1.0,0.0,1.0,0,0,,,0
1449618713707635137,96,0,/odom,bcmd_vector,0,0,0,0.715589265306,-0.0181305030289,0.0,0.0,0.0,-0.136952861975,0.990577565664,0.22091772732,0.05,0.05,0.0,1.0,0.0,1.0,0,0,,,0
1449618713779844265,97,0,/odom,bcmd_vector,0,0,0,0.721132797233,-0.0196932220685,0.0,0.0,0.0,-0.136952861975,0.990577565664,0.221339234267,0.05,0.05,0.0,1.0,0.0,1.0,0,0,,,0
1449618713904882556,98,0,/odom,bcmd_vector,0,0,0,0.732177492113,-0.0229648095182,0.0,0.0,0.0,-0.144897377732,0.989446688774,0.316198556929,0.05,0.05,0.0,1.0,0.0,1.0,0,0,,,0
1449618713957495334,99,0,/odom,bcmd_vector,0,0,0,0.751414782864,-0.0289884824767,0.0,0.0,0.0,-0.147985394947,0.988989546397,0.31662113623,0.05,0.05,0.0,1.0,0.0,1.0,0,0,,,0
1449618713984268441,100,0,/odom,bcmd_vector,0,0,0,0.754151052763,-0.0298862777179,0.0,0.0,0.0,-0.15319917224,0.988195331716,0.316682522819,0.05,0.05,0.0,1.0,0.0,1.0,0,0,,,0
1449618714026390580,101,0,/odom,bcmd_vector,0,0,0,0.75962359256,-0.0316818682003,0.0,0.0,0.0,-0.153179081653,0.988198446135,0.316806132566,0.05,0.05,0.0,1.0,0.0,1.0,0,0,,,0
1449618714085557972,102,0,/odom,bcmd_vector,0,0,0,0.767803480564,-0.0344618530074,0.0,0.0,0.0,-0.158368179739,0.987380129254,0.316993350873,0.05,0.05,0.0,1.0,0.0,1.0,0,0,,,0
1449618714157358219,103,0,/odom,bcmd_vector,0,0,0,0.773256739233,-0.0363151762122,0.0,0.0,0.0,-0.158347686469,0.987383415999,0.347648692783,0.05,0.05,0.0,1.0,0.0,1.0,0,0,,,0
1449618714185370804,104,0,/odom,bcmd_vector,0,0,0,0.786860050663,-0.0410347728316,0.0,0.0,0.0,-0.15880307325,0.987310277434,0.347688688246,0.05,0.05,0.0,1.0,0.0,1.0,0,0,,,0
1449618714236673943,105,0,/odom,bcmd_vector,0,0,0,0.789566486428,-0.042018853468,0.0,0.0,0.0,-0.163977276701,0.986464116289,0.317504156245,0.05,0.05,0.0,1.0,0.0,1.0,0,0,,,0
1449618714332565740,106,0,/odom,bcmd_vector,0,0,0,0.79497935796,-0.0439870147409,0.0,0.0,0.0,-0.163895716115,0.986477670421,0.317634264056,0.05,0.05,0.0,1.0,0.0,1.0,0,0,,,0
1449618714374302888,107,0,/odom,bcmd_vector,0,0,0,0.808458783042,-0.0490501492241,0.0,0.0,0.0,-0.168899730621,0.985633238581,0.347754194739,0.05,0.05,0.0,1.0,0.0,1.0,0,0,,,0
1449618714402824959,108,0,/odom,bcmd_vector,0,0,0,0.813850553075,-0.0510754030174,0.0,0.0,0.0,-0.16644157507,0.986051318182,0.339292667464,0.05,0.05,0.0,1.0,0.0,1.0,0,0,,,0
1449618714503727818,109,0,/odom,bcmd_vector,0,0,0,0.821905652626,-0.0541985832094,0.0,0.0,0.0,-0.171537295724,0.985177626713,0.339368366312,0.05,0.05,0.0,1.0,0.0,1.0,0,0,,,0
1449618714546522117,110,0,/odom,bcmd_vector,0,0,0,0.84062282298,-0.0616842219509,0.0,0.0,0.0,-0.171156248241,0.985243898072,0.339547932276,0.05,0.05,0.0,1.0,0.0,1.0,0,0,,,0
1449618714583134250,111,0,/odom,bcmd_vector,0,0,0,0.848610116426,-0.0649769452449,0.0,0.0,0.0,-0.176147435402,0.984363795048,0.347882032957,0.05,0.05,0.0,1.0,0.0,1.0,0,0,,,0
1449618714666683359,112,0,/odom,bcmd_vector,0,0,0,0.853934978723,-0.0671720941075,0.0,0.0,0.0,-0.17600456787,0.984389349845,0.347899553951,0.05,0.05,0.0,1.0,0.0,1.0,0,0,,,0
1449618714689652736,113,0,/odom,bcmd_vector,0,0,0,0.867188396078,-0.0728003407055,0.0,0.0,0.0,-0.180843461346,0.983511892398,0.347943763898,0.05,0.05,0.0,1.0,0.0,1.0,0,0,,,0
1449618714801777048,114,0,/odom,bcmd_vector,0,0,0,0.867188396078,-0.0728003407055,0.0,0.0,0.0,-0.180843461346,0.983511892398,0.347943763898,0.05,0.05,0.0,1.0,0.0,1.0,0,0,,,0
1449618714854422738,115,0,/odom,bcmd_vector,0,0,0,0.890936153899,-0.0831827271371,0.0,0.0,0.0,-0.185377301871,0.98266741879,0.348024913766,0.05,0.05,0.0,1.0,0.0,1.0,0,0,,,0
1449618714926194015,116,0,/odom,bcmd_vector,0,0,0,0.898815057963,-0.0867269836221,0.0,0.0,0.0,-0.190343825134,0.981717489013,0.348052374014,0.05,0.05,0.0,1.0,0.0,1.0,0,0,,,0
1449618714959458668,117,0,/odom,bcmd_vector,0,0,0,0.914572866092,-0.093815496592,0.0,0.0,0.0,-0.189891580023,0.981805066109,0.348107984214,0.05,0.05,0.0,1.0,0.0,1.0,0,0,,,0
1449618715008266362,118,0,/odom,bcmd_vector,0,0,0,0.927641214288,-0.0998610326935,0.0,0.0,0.0,-0.188290055033,0.982113463494,0.348154859392,0.05,0.05,0.0,1.0,0.0,1.0,0,0,,,0
1449618715120712009,119,0,/odom,bcmd_vector,0,0,0,0.935443452356,-0.103571014422,0.0,0.0,0.0,-0.193142127942,0.981170789625,0.348183173194,0.05,0.05,0.0,1.0,0.0,1.0,0,0,,,0
1449618715194782980,120,0,/odom,bcmd_vector,0,0,0,0.953609032288,-0.11230988418,0.0,0.0,0.0,-0.197535698274,0.980295694119,0.344489799144,0.05,0.05,0.0,1.0,0.0,1.0,0,0,,,0
1449618715273740697,121,0,/odom,bcmd_vector,0,0,0,0.984659415658,-0.127478793999,0.0,0.0,0.0,-0.196160606092,0.980571780451,0.344722557183,0.05,0.05,0.0,1.0,0.0,1.0,0,0,,,0
1449618715321855697,122,0,/odom,bcmd_vector,0,0,0,1.0078796879,-0.138991846698,0.0,0.0,0.0,-0.200292309487,0.979736184266,0.348454954251,0.05,0.05,0.0,1.0,0.0,1.0,0,0,,,0
1449618715353749987,123,0,/odom,bcmd_vector,0,0,0,1.01302774568,-0.141574546469,0.0,0.0,0.0,-0.20005817566,0.979784020257,0.348474783471,0.05,0.05,0.0,1.0,0.0,1.0,0,0,,,0
1449618715432723860,124,0,/odom,bcmd_vector,0,0,0,1.02847191902,-0.14932264578,0.0,0.0,0.0,-0.199352256515,0.979927894196,0.345059126388,0.05,0.05,0.0,1.0,0.0,1.0,0,0,,,0
1449618715477290424,125,0,/odom,bcmd_vector,0,0,0,1.04644874966,-0.158443484513,0.0,0.0,0.0,-0.203700298289,0.979033292834,0.345199342299,0.05,0.05,0.0,1.0,0.0,1.0,0,0,,,0
1449618715602946359,126,0,/odom,bcmd_vector,0,0,0,1.05917955912,-0.165170796139,0.0,0.0,0.0,-0.198180012161,0.980165640481,0.348654691122,0.05,0.05,0.0,1.0,0.0,1.0,0,0,,,0
1449618715647292245,127,0,/odom,bcmd_vector,0,0,0,1.08980388417,-0.181181431069,0.0,0.0,0.0,-0.196373914098,0.980529084659,0.348775488439,0.05,0.05,0.0,1.0,0.0,1.0,0,0,,,0
1449618715719743402,128,0,/odom,bcmd_vector,0,0,0,1.10508085553,-0.18925420502,0.0,0.0,0.0,-0.197238274346,0.980355579947,0.348835932556,0.05,0.05,0.0,1.0,0.0,1.0,0,0,,,0
1449618715769031246,129,0,/odom,bcmd_vector,0,0,0,1.12280346298,-0.198860267603,0.0,0.0,0.0,-0.201328007816,0.979523880908,0.34890613609,0.05,0.05,0.0,1.0,0.0,1.0,0,0,,,0
1449618715810702123,130,0,/odom,bcmd_vector,0,0,0,1.13799426937,-0.207094035531,0.0,0.0,0.0,-0.200397051257,0.979714765555,0.348966209546,0.05,0.05,0.0,1.0,0.0,1.0,0,0,,,0
1449618715963456393,131,0,/odom,bcmd_vector,0,0,0,1.1430578715,-0.209838624841,0.0,0.0,0.0,-0.200087225528,0.979778088232,0.348986199618,0.05,0.05,0.0,1.0,0.0,1.0,0,0,,,0
1449618716011286327,132,0,/odom,bcmd_vector,0,0,0,1.18863029068,-0.234539928627,0.0,0.0,0.0,-0.198902567,0.980019269627,0.349164812453,0.05,0.05,0.0,1.0,0.0,1.0,0,0,,,0
1449618716154991475,133,0,/odom,bcmd_vector,0,0,0,1.19618176312,-0.238736849795,0.0,0.0,0.0,-0.191803053179,0.981433435741,0.349194133334,0.05,0.05,0.0,1.0,0.0,1.0,0,0,,,0
1449618716192664443,134,0,/odom,bcmd_vector,0,0,0,1.2391491633,-0.262199254267,0.0,0.0,0.0,-0.183450435168,0.983028960833,0.346707014353,0.05,0.05,0.0,1.0,0.0,1.0,0,0,,,0
1449618716230498619,135,0,/odom,bcmd_vector,0,0,0,1.2517349507,-0.269194122881,0.0,0.0,0.0,-0.189185773276,0.981941313516,0.34940577866,0.05,0.05,0.0,1.0,0.0,1.0,0,0,,,0
1449618716258164973,136,0,/odom,bcmd_vector,0,0,0,1.26180358061,-0.274790017773,0.0,0.0,0.0,-0.188443766456,0.982083981584,0.34944326708,0.05,0.05,0.0,1.0,0.0,1.0,0,0,,,0
1449618716354045089,137,0,/odom,bcmd_vector,0,0,0,1.26180358061,-0.274790017773,0.0,0.0,0.0,-0.175818883904,0.984422531265,0.328909487646,0.05,0.05,0.0,1.0,0.0,1.0,0,0,,,0
1449618716384711045,138,0,/odom,bcmd_vector,0,0,0,1.29211197547,-0.291390948971,0.0,0.0,0.0,-0.173270015204,0.984874358399,0.329907030377,0.05,0.05,0.0,1.0,0.0,1.0,0,0,,,0
1449618716411818177,139,0,/odom,bcmd_vector,0,0,0,1.29211197547,-0.291390948971,0.0,0.0,0.0,-0.173270015204,0.984874358399,0.349554123811,0.05,0.05,0.0,1.0,0.0,1.0,0,0,,,0
1449618716478460043,140,0,/odom,bcmd_vector,0,0,0,1.29970737866,-0.295507832935,0.0,0.0,0.0,-0.0903311079761,0.99591178873,0.35201,0.05,0.05,0.0,1.0,0.0,1.0,0,0,,,0
1449618716529741170,141,0,/odom,bcmd_vector,0,0,0,1.31996178719,-0.306486190173,0.0,0.0,0.0,-0.0903311079761,0.99591178873,0.35201,0.05,0.05,0.0,1.0,0.0,1.0,0,0,,,0
1449618716592536360,142,0,/odom,bcmd_vector,0,0,0,1.33008899145,-0.311975368792,0.0,0.0,0.0,-0.0903311079761,0.99591178873,0.35201,0.05,0.05,0.0,1.0,0.0,1.0,0,0,,,0
1449618716645759092,143,0,/odom,bcmd_vector,0,0,0,1.35294700517,-0.324191859037,0.0,0.0,0.0,-0.0850674492711,0.996375194931,0.35201,0.05,0.05,0.0,1.0,0.0,1.0,0,0,,,0
1449618716767939033,144,0,/odom,bcmd_vector,0,0,0,1.36054240837,-0.328308743001,0.0,0.0,0.0,-0.111276105972,0.993789529146,0.35201,0.05,0.05,0.0,1.0,0.0,1.0,0,0,,,0
1449618716896082726,145,0,/odom,bcmd_vector,0,0,0,1.39113858048,-0.34437334312,0.0,0.0,0.0,-0.100767671536,0.994909984055,0.35201,0.05,0.05,0.0,1.0,0.0,1.0,0,0,,,0
1449618716958901300,146,0,/odom,bcmd_vector,0,0,0,1.42201227421,-0.359896238924,0.0,0.0,0.0,-0.0902479831027,0.995919324818,0.35201,0.05,0.05,0.0,1.0,0.0,1.0,0,0,,,0
1449618716981875154,147,0,/odom,bcmd_vector,0,0,0,1.44536613211,-0.371135845077,0.0,0.0,0.0,-0.0849842857374,0.996382291682,0.35201,0.05,0.05,0.0,1.0,0.0,1.0,0,0,,,0
1449618717025557784,148,0,/odom,bcmd_vector,0,0,0,1.44536613211,-0.371135845077,0.0,0.0,0.0,-0.0849842857374,0.996382291682,0.35201,0.05,0.05,0.0,1.0,0.0,1.0,0,0,,,0
1449618717058118195,149,0,/odom,bcmd_vector,0,0,0,1.4557691162,-0.376082487381,0.0,0.0,0.0,-0.0849842857374,0.996382291682,0.35201,0.05,0.05,0.0,1.0,0.0,1.0,0,0,,,0
1449618717083560207,150,0,/odom,bcmd_vector,0,0,0,1.46617210029,-0.381029129685,0.0,0.0,0.0,-0.0849842857374,0.996382291682,0.35201,0.05,0.05,0.0,1.0,0.0,1.0,0,0,,,0
1449618717173030549,151,0,/odom,bcmd_vector,0,0,0,1.47401310921,-0.384656451346,0.0,0.0,0.0,-0.0587164699669,0.998274699747,0.35201,0.05,0.05,0.0,1.0,0.0,1.0,0,0,,,0
1449618717197699987,152,0,/odom,bcmd_vector,0,0,0,1.50033781477,-0.396331537949,0.0,0.0,0.0,-0.0481635719103,0.998839461746,0.35201,0.05,0.05,0.0,1.0,0.0,1.0,0,0,,,0
1449618717244696377,153,0,/odom,bcmd_vector,0,0,0,1.51359123213,-0.401959784547,0.0,0.0,0.0,-0.0428850320584,0.999080013825,0.35201,0.05,0.05,0.0,1.0,0.0,1.0,0,0,,,0
1449618717304457564,154,0,/odom,bcmd_vector,0,0,0,1.51889259907,-0.404211083187,0.0,0.0,0.0,-0.0428850320584,0.999080013825,0.35201,0.05,0.05,0.0,1.0,0.0,1.0,0,0,,,0
1449618717343317056,155,0,/odom,bcmd_vector,0,0,0,1.53220475481,-0.409698955343,0.0,0.0,0.0,-0.0376052948201,0.999292670743,0.35201,0.05,0.05,0.0,1.0,0.0,1.0,0,0,,,0
1449618717379373487,156,0,/odom,bcmd_vector,0,0,0,1.54557416221,-0.415045840159,0.0,0.0,0.0,-0.03232450761,0.999477426562,0.35201,0.05,0.05,0.0,1.0,0.0,1.0,0,0,,,0
1449618717456102137,157,0,/odom,bcmd_vector,0,0,0,1.55626968813,-0.419323348011,0.0,0.0,0.0,-0.03232450761,0.999477426562,0.35201,0.05,0.05,0.0,1.0,0.0,1.0,0,0,,,0
1449618717484612285,158,0,/odom,bcmd_vector,0,0,0,1.58317427913,-0.429591782814,0.0,0.0,0.0,-0.0217603730762,0.999763215048,0.35201,0.05,0.05,0.0,1.0,0.0,1.0,0,0,,,0
1449618717516486673,159,0,/odom,bcmd_vector,0,0,0,1.59129358642,-0.432544024723,0.0,0.0,0.0,-0.0375218879423,0.999295806018,0.35201,0.05,0.05,0.0,1.0,0.0,1.0,0,0,,,0
1449618717575236750,160,0,/odom,bcmd_vector,0,0,0,1.60487700769,-0.437321147081,0.0,0.0,0.0,-0.0322410853299,0.999480121071,0.35201,0.05,0.05,0.0,1.0,0.0,1.0,0,0,,,0
1449618717598758694,161,0,/odom,bcmd_vector,0,0,0,1.61305689569,-0.440101131888,0.0,0.0,0.0,-0.026959382519,0.999636529792,0.35201,0.05,0.05,0.0,1.0,0.0,1.0,0,0,,,0
1449618717632568202,162,0,/odom,bcmd_vector,0,0,0,1.62396341303,-0.443807778298,0.0,0.0,0.0,-0.026959382519,0.999636529792,0.35201,0.05,0.05,0.0,1.0,0.0,1.0,0,0,,,0
1449618717645736301,163,0,/odom,bcmd_vector,0,0,0,1.63764476253,-0.448296754504,0.0,0.0,0.0,-0.0216769269793,0.999765027812,0.35201,0.05,0.05,0.0,1.0,0.0,1.0,0,0,,,0
1449618717757783472,164,0,/odom,bcmd_vector,0,0,0,1.63764476253,-0.448296754504,0.0,0.0,0.0,-0.0216769269793,0.999765027812,0.35201,0.05,0.05,0.0,1.0,0.0,1.0,0,0,,,0
1449618717831814982,165,0,/odom,bcmd_vector,0,0,0,1.67345345594,-0.459213229912,0.0,0.0,0.0,-0.00582651897389,0.999983025694,0.35201,0.05,0.05,0.0,1.0,0.0,1.0,0,0,,,0
1449618717890874041,166,0,/odom,bcmd_vector,0,0,0,1.69565189119,-0.465376100337,0.0,0.0,0.0,-0.0163104115765,0.999866976389,0.30561,0.05,0.05,0.0,1.0,0.0,1.0,0,0,,,0
1449618717929522804,167,0,/odom,bcmd_vector,0,0,0,1.70959019381,-0.46898912555,0.0,0.0,0.0,-0.0110268870212,0.999939202033,0.30561,0.05,0.05,0.0,1.0,0.0,1.0,0,0,,,0
1449618718010130601,168,0,/odom,bcmd_vector,0,0,0,1.72356590003,-0.472454651089,0.0,0.0,0.0,-0.00574305458581,0.999983508526,0.30561,0.05,0.05,0.0,1.0,0.0,1.0,0,0,,,0
1449618718026441297,169,0,/odom,bcmd_vector,0,0,0,1.74600494508,-0.477673918866,0.0,0.0,0.0,0.00482494380426,0.999988359891,0.30561,0.05,0.05,0.0,1.0,0.0,1.0,0,0,,,0
1449618718061869744,170,0,/odom,bcmd_vector,0,0,0,1.74600494508,-0.477673918866,0.0,0.0,0.0,0.00482494380426,0.999988359891,0.30561,0.05,0.05,0.0,1.0,0.0,1.0,0,0,,,0
1449618718101939051,171,0,/odom,bcmd_vector,0,0,0,1.76008348114,-0.480694689253,0.0,0.0,0.0,0.0101088146915,0.999948904627,0.30561,0.05,0.05,0.0,1.0,0.0,1.0,0,0,,,0
1449618718147356650,172,0,/odom,bcmd_vector,0,0,0,1.76854928491,-0.482417782344,0.0,0.0,0.0,0.015392403332,0.999881529942,0.30561,0.05,0.05,0.0,1.0,0.0,1.0,0,0,,,0
1449618718173398560,173,0,/odom,bcmd_vector,0,0,0,1.79118884856,-0.486684122353,0.0,0.0,0.0,0.00490840860046,0.99998795369,0.25921,0.05,0.05,0.0,1.0,0.0,1.0,0,0,,,0
1449618718218050939,174,0,/odom,bcmd_vector,0,0,0,1.79118884856,-0.486684122353,0.0,0.0,0.0,0.00490840860046,0.99998795369,0.25921,0.05,0.05,0.0,1.0,0.0,1.0,0,0,,,0
1449618718260644234,175,0,/odom,bcmd_vector,0,0,0,1.80252262137,-0.488742505676,0.0,0.0,0.0,0.00490840860046,0.99998795369,0.25921,0.05,0.05,0.0,1.0,0.0,1.0,0,0,,,0
1449618718342003204,176,0,/odom,bcmd_vector,0,0,0,1.81389736563,-0.49056089535,0.0,0.0,0.0,-0.00286521604602,0.99999589526,0.277307886076,0.05,0.05,0.0,1.0,0.0,1.0,0,0,,,0
1449618718372774183,177,0,/odom,bcmd_vector,0,0,0,1.83953234813,-0.494381578769,0.0,0.0,0.0,0.00299123906576,0.999995526234,0.276743056356,0.05,0.05,0.0,1.0,0.0,1.0,0,0,,,0
1449618718416108445,178,0,/odom,bcmd_vector,0,0,0,1.84809032394,-0.495564766558,0.0,0.0,0.0,0.00909054706255,0.999958680123,0.275450063097,0.05,0.05,0.0,1.0,0.0,1.0,0,0,,,0
1449618718488109033,179,0,/odom,bcmd_vector,0,0,0,1.85666032561,-0.496657448855,0.0,0.0,0.0,0.0145484877841,0.999894165151,0.27528310243,0.05,0.05,0.0,1.0,0.0,1.0,0,0,,,0
1449618718521398359,180,0,/odom,bcmd_vector,0,0,0,1.87954190225,-0.499329445694,0.0,0.0,0.0,0.0255632259073,0.999673207344,0.274853038193,0.05,0.05,0.0,1.0,0.0,1.0,0,0,,,0
1449618718610198839,181,0,/odom,bcmd_vector,0,0,0,1.89099681,-0.500544532805,0.0,0.0,0.0,0.0257790717682,0.999667664506,0.274646201273,0.05,0.05,0.0,1.0,0.0,1.0,0,0,,,0
1449618718641426128,182,0,/odom,bcmd_vector,0,0,0,1.90820566381,-0.50209454819,0.0,0.0,0.0,0.0537875261444,0.998552403247,0.23758446113,0.05,0.05,0.0,1.0,0.0,1.0,0,0,,,0
1449618718690284566,183,0,/odom,bcmd_vector,0,0,0,1.91682141489,-0.502733075132,0.0,0.0,0.0,0.0249121670413,0.999689643806,0.275224222342,0.05,0.05,0.0,1.0,0.0,1.0,0,0,,,0
1449618718727573406,184,0,/odom,bcmd_vector,0,0,0,1.92830908299,-0.503584444388,0.0,0.0,0.0,0.0250618782224,0.999685901801,0.275020657622,0.05,0.05,0.0,1.0,0.0,1.0,0,0,,,0
1449618718766225418,185,0,/odom,bcmd_vector,0,0,0,1.93405291704,-0.504010129016,0.0,0.0,0.0,0.0251350401333,0.999684064971,0.274921183263,0.05,0.05,0.0,1.0,0.0,1.0,0,0,,,0
1449618718809705436,186,0,/odom,bcmd_vector,0,0,0,1.94267493486,-0.50455757032,0.0,0.0,0.0,0.0310914839574,0.999516542947,0.236654618045,0.05,0.05,0.0,1.0,0.0,1.0,0,0,,,0
1449618718867463723,187,0,/odom,bcmd_vector,0,0,0,1.9513022565,-0.505013864847,0.0,0.0,0.0,0.0364734747759,0.999334621455,0.236433236512,0.05,0.05,0.0,1.0,0.0,1.0,0,0,,,0
1449618718910459559,188,0,/odom,bcmd_vector,0,0,0,1.96568835971,-0.505622359494,0.0,0.0,0.0,0.0413651379632,0.999144096395,0.235100910881,0.05,0.05,0.0,1.0,0.0,1.0,0,0,,,0
1449618719014918198,189,0,/odom,bcmd_vector,0,0,0,1.97432339792,-0.505896217769,0.0,0.0,0.0,0.0467448190254,0.998906863473,0.234899587178,0.05,0.05,0.0,1.0,0.0,1.0,0,0,,,0
1449618719047583277,190,0,/odom,bcmd_vector,0,0,0,1.98871914811,-0.506200533064,0.0,0.0,0.0,0.0521859185353,0.998637386596,0.234572839314,0.05,0.05,0.0,1.0,0.0,1.0,0,0,,,0
1449618719102813874,191,0,/odom,bcmd_vector,0,0,0,1.99447744819,-0.506322259182,0.0,0.0,0.0,0.0527852791701,0.998605885374,0.235389986959,0.05,0.05,0.0,1.0,0.0,1.0,0,0,,,0
1449618719148411594,192,0,/odom,bcmd_vector,0,0,0,2.00311634555,-0.506413558869,0.0,0.0,0.0,0.0581504858756,0.998307828774,0.23519397617,0.05,0.05,0.0,1.0,0.0,1.0,0,0,,,0
1449618719199622281,193,0,/odom,bcmd_vector,0,0,0,2.01751531188,-0.506413558869,0.0,0.0,0.0,0.0635695389663,0.997977411426,0.233953329125,0.05,0.05,0.0,1.0,0.0,1.0,0,0,,,0
1449618719216053672,194,0,/odom,bcmd_vector,0,0,0,2.02327489841,-0.506413558869,0.0,0.0,0.0,0.046057263988,0.998938801145,0.233834950818,0.05,0.05,0.0,1.0,0.0,1.0,0,0,,,0
1449618719296777691,195,0,/odom,bcmd_vector,0,0,0,2.02327489841,-0.506413558869,0.0,0.0,0.0,0.046057263988,0.998938801145,0.233834950818,0.05,0.05,0.0,1.0,0.0,1.0,0,0,,,0
1449618719337848501,196,0,/odom,bcmd_vector,0,0,0,2.03479294581,-0.506261396123,0.0,0.0,0.0,0.0566837377696,0.998392184401,0.234509863178,0.05,0.05,0.0,1.0,0.0,1.0,0,0,,,0
1449618719374043230,197,0,/odom,bcmd_vector,0,0,0,2.04342798402,-0.505987537848,0.0,0.0,0.0,0.0178964940135,0.999839844926,0.351110034465,0.05,0.05,0.0,1.0,0.0,1.0,0,0,,,0
1449618719415852246,198,0,/odom,bcmd_vector,0,0,0,2.04342798402,-0.505987537848,0.0,0.0,0.0,0.0184077538113,0.999830562945,0.351110034465,0.05,0.05,0.0,1.0,0.0,1.0,0,0,,,0
1449618719472579962,199,0,/odom,bcmd_vector,0,0,0,2.05494136831,-0.505622393481,0.0,0.0,0.0,0.0272269914623,0.99962927675,0.351119688479,0.05,0.05,0.0,1.0,0.0,1.0,0,0,,,0
1449618719501241110,200,0,/odom,bcmd_vector,0,0,0,2.0664496082,-0.505135624946,0.0,0.0,0.0,0.0382805905363,0.999267029571,0.351129074571,0.05,0.05,0.0,1.0,0.0,1.0,0,0,,,0
1449618719578885541,201,0,/odom,bcmd_vector,0,0,0,2.0664496082,-0.505135624946,0.0,0.0,0.0,0.0382805905363,0.999267029571,0.351129074571,0.05,0.05,0.0,1.0,0.0,1.0,0,0,,,0
1449618719610040188,202,0,/odom,bcmd_vector,0,0,0,2.07795270372,-0.504527232245,0.0,0.0,0.0,0.0377717103445,0.999286394332,0.351138192908,0.05,0.05,0.0,1.0,0.0,1.0,0,0,,,0
1449618719635662617,203,0,/odom,bcmd_vector,0,0,0,2.08370425147,-0.504223035894,0.0,0.0,0.0,0.0732796369626,0.997311433208,0.233551743395,0.05,0.05,0.0,1.0,0.0,1.0,0,0,,,0
1449618719683862156,204,0,/odom,bcmd_vector,0,0,0,2.08657825741,-0.504040555459,0.0,0.0,0.0,0.115934419568,0.993256870281,0.193418619848,0.05,0.05,0.0,1.0,0.0,1.0,0,0,,,0
1449618719784874054,205,0,/odom,bcmd_vector,0,0,0,2.09519400849,-0.503402028517,0.0,0.0,0.0,0.121257956223,0.992621029423,0.193214686169,0.05,0.05,0.0,1.0,0.0,1.0,0,0,,,0
1449618719824318833,206,0,/odom,bcmd_vector,0,0,0,2.1066816766,-0.502550659261,0.0,0.0,0.0,0.0413239213543,0.999145801935,-0.0329125774387,0.05,0.05,0.0,1.0,0.0,1.0,0,0,,,0
1449618719841786142,207,0,/odom,bcmd_vector,0,0,0,2.11242551065,-0.502124974633,0.0,0.0,0.0,0.0413029341842,0.999146669728,-0.0332366673032,0.05,0.05,0.0,1.0,0.0,1.0,0,0,,,0
1449618719875795964,208,0,/odom,bcmd_vector,0,0,0,2.12103403275,-0.501395433365,0.0,0.0,0.0,0.046550905826,0.998915918968,-0.0337145927445,0.05,0.05,0.0,1.0,0.0,1.0,0,0,,,0
1449618719914181495,209,0,/odom,bcmd_vector,0,0,0,2.12103403275,-0.501395433365,0.0,0.0,0.0,0.046550905826,0.998915918968,-0.0337145927445,0.05,0.05,0.0,1.0,0.0,1.0,0,0,,,0
1449618719977235456,210,0,/odom,bcmd_vector,0,0,0,2.12963436446,-0.500574959248,0.0,0.0,0.0,0.0517982625732,0.998657568937,-0.03418217678,0.05,0.05,0.0,1.0,0.0,1.0,0,0,,,0
1449618719996612577,211,0,/odom,bcmd_vector,0,0,0,2.13536791893,-0.500027976503,0.0,0.0,0.0,0.0517785548077,0.998658590942,-0.0353168853474,0.05,0.05,0.0,1.0,0.0,1.0,0,0,,,0
1449618720049314161,212,0,/odom,bcmd_vector,0,0,0,2.14395909974,-0.49911666117,0.0,0.0,0.0,0.0570257082436,0.998372710264,-0.0357599104946,0.05,0.05,0.0,1.0,0.0,1.0,0,0,,,0
1449618720099878014,213,0,/odom,bcmd_vector,0,0,0,2.14968655361,-0.498509117615,0.0,0.0,0.0,0.0570068132783,0.998373789339,-0.0360482112934,0.05,0.05,0.0,1.0,0.0,1.0,0,0,,,0
1449618720124877321,214,0,/odom,bcmd_vector,0,0,0,2.15254691042,-0.498175099358,0.0,0.0,0.0,0.0622720581838,0.998059212056,-0.0353721612585,0.05,0.05,0.0,1.0,0.0,1.0,0,0,,,0
1449618720158564585,215,0,/odom,bcmd_vector,0,0,0,2.15541063735,-0.497871327581,0.0,0.0,0.0,0.0569882264578,0.998374850467,-0.0355146094986,0.05,0.05,0.0,1.0,0.0,1.0,0,0,,,0
1449618720216604865,216,0,/odom,bcmd_vector,0,0,0,2.15541063735,-0.497871327581,0.0,0.0,0.0,0.0569882264578,0.998374850467,-0.0355146094986,0.05,0.05,0.0,1.0,0.0,1.0,0,0,,,0
1449618720247744343,217,0,/odom,bcmd_vector,0,0,0,2.16683730625,-0.496414417852,0.0,0.0,0.0,0.0674993108449,0.997719320769,-0.0360776777607,0.05,0.05,0.0,1.0,0.0,1.0,0,0,,,0
1449618720278362488,218,0,/odom,bcmd_vector,0,0,0,2.1725506407,-0.495685962987,0.0,0.0,0.0,0.0674816494775,0.997720515467,-0.0363507927754,0.05,0.05,0.0,1.0,0.0,1.0,0,0,,,0
1449618720321305886,219,0,/odom,bcmd_vector,0,0,0,2.17826397515,-0.494957508123,0.0,0.0,0.0,0.0674643495746,0.99772168541,-0.0366183222028,0.05,0.05,0.0,1.0,0.0,1.0,0,0,,,0
1449618720375762166,220,0,/odom,bcmd_vector,0,0,0,2.18111663375,-0.494563112193,0.0,0.0,0.0,0.0727267983531,0.997351900184,-0.03675090707,0.05,0.05,0.0,1.0,0.0,1.0,0,0,,,0
1449618720413994952,221,0,/odom,bcmd_vector,0,0,0,2.18397330097,-0.494198884761,0.0,0.0,0.0,0.0674473516685,0.997722834635,-0.0376810610131,0.05,0.05,0.0,1.0,0.0,1.0,0,0,,,0
1449618720471191280,222,0,/odom,bcmd_vector,0,0,0,2.18682595958,-0.493804488831,0.0,0.0,0.0,0.0727099867854,0.99735312594,-0.037809215541,0.05,0.05,0.0,1.0,0.0,1.0,0,0,,,0
1449618720494107056,223,0,/odom,bcmd_vector,0,0,0,2.19253127678,-0.493015696972,0.0,0.0,0.0,0.0740449344441,0.997254906071,-0.0380614047804,0.05,0.05,0.0,1.0,0.0,1.0,0,0,,,0
1449618720513119696,224,0,/odom,bcmd_vector,0,0,0,2.19253127678,-0.493015696972,0.0,0.0,0.0,0.0740449344441,0.997254906071,-0.0380614047804,0.05,0.05,0.0,1.0,0.0,1.0,0,0,,,0
1449618720563109301,225,0,/odom,bcmd_vector,0,0,0,2.19537960817,-0.492591176592,0.0,0.0,0.0,0.0793024938349,0.996850597869,-0.0381863534299,0.05,0.05,0.0,1.0,0.0,1.0,0,0,,,0
1449618720592030118,226,0,/odom,bcmd_vector,0,0,0,2.19537960817,-0.492591176592,0.0,0.0,0.0,0.0779543035387,0.996956933152,-0.0373929587072,0.05,0.05,0.0,1.0,0.0,1.0,0,0,,,0
1449618720675011464,227,0,/odom,bcmd_vector,0,0,0,2.19823226677,-0.492196780663,0.0,0.0,0.0,0.117641093125,0.993056178274,0.35042636509,0.05,0.05,0.0,1.0,0.0,1.0,0,0,,,0
1449618720724419429,228,0,/odom,bcmd_vector,0,0,0,2.20108059816,-0.491772260283,0.0,0.0,0.0,0.122893461957,0.992419869313,0.350429492066,0.05,0.05,0.0,1.0,0.0,1.0,0,0,,,0
1449618720779330299,229,0,/odom,bcmd_vector,0,0,0,2.20108059816,-0.491772260283,0.0,0.0,0.0,0.13725324564,0.990535989534,0.351219743411,0.05,0.05,0.0,1.0,0.0,1.0,0,0,,,0
1449618720836492922,230,0,/odom,bcmd_vector,0,0,0,2.20108059816,-0.491772260283,0.0,0.0,0.0,0.137697988885,0.990474262087,0.350429492066,0.05,0.05,0.0,1.0,0.0,1.0,0,0,,,0
1449618720854246691,231,0,/odom,bcmd_vector,0,0,0,2.20108059816,-0.491772260283,0.0,0.0,0.0,0.137697988885,0.990474262087,0.350429492066,0.05,0.05,0.0,1.0,0.0,1.0,0,0,,,0
1449618720898786066,232,0,/odom,bcmd_vector,0,0,0,2.20108059816,-0.491772260283,0.0,0.0,0.0,0.102256823154,0.994758031945,0.350429492066,0.05,0.05,0.0,1.0,0.0,1.0,0,0,,,0
1449618720920006700,233,0,/odom,bcmd_vector,0,0,0,2.20108059816,-0.491772260283,0.0,0.0,0.0,0.102256823154,0.994758031945,0.350429492066,0.05,0.05,0.0,1.0,0.0,1.0,0,0,,,0
1449618720972148669,234,0,/odom,bcmd_vector,0,0,0,2.20108059816,-0.491772260283,0.0,0.0,0.0,0.102256823154,0.994758031945,0.350429492066,0.05,0.05,0.0,1.0,0.0,1.0,0,0,,,0
1449618721008948308,235,0,/odom,bcmd_vector,0,0,0,2.20108059816,-0.491772260283,0.0,0.0,0.0,0.102256823154,0.994758031945,0.350429492066,0.05,0.05,0.0,1.0,0.0,1.0,0,0,,,0
1449618721090069737,236,0,/odom,bcmd_vector,0,0,0,2.20108059816,-0.491772260283,0.0,0.0,0.0,0.102256823154,0.994758031945,0.350429492066,0.05,0.05,0.0,1.0,0.0,1.0,0,0,,,0
1449618721148499420,237,0,/odom,bcmd_vector,0,0,0,2.20108059816,-0.491772260283,0.0,0.0,0.0,0.104936365753,0.994478938511,0.349639240722,0.05,0.05,0.0,1.0,0.0,1.0,0,0,,,0
1449618721195050507,238,0,/odom,bcmd_vector,0,0,0,2.20108059816,-0.491772260283,0.0,0.0,0.0,0.158681354149,0.987329847541,0.349639240722,0.05,0.05,0.0,1.0,0.0,1.0,0,0,,,0
1449618721244416747,239,0,/odom,bcmd_vector,0,0,0,2.20108059816,-0.491772260283,0.0,0.0,0.0,0.163112914764,0.986607407755,0.348848989378,0.05,0.05,0.0,1.0,0.0,1.0,0,0,,,0
1449618721275374758,240,0,/odom,bcmd_vector,0,0,0,2.20108059816,-0.491772260283,0.0,0.0,0.0,0.163112914764,0.986607407755,0.348848989378,0.05,0.05,0.0,1.0,0.0,1.0,0,0,,,0
1449618721327195781,241,0,/odom,bcmd_vector,0,0,0,2.20108059816,-0.491772260283,0.0,0.0,0.0,0.15602087642,0.987753757837,0.313287676665,0.05,0.05,0.0,1.0,0.0,1.0,0,0,,,0
1449618721347055626,242,0,/odom,bcmd_vector,0,0,0,2.20108059816,-0.491772260283,0.0,0.0,0.0,0.15602087642,0.987753757837,0.313287676665,0.05,0.05,0.0,1.0,0.0,1.0,0,0,,,0
1449618721397894297,243,0,/odom,bcmd_vector,0,0,0,2.20108059816,-0.491772260283,0.0,0.0,0.0,0.15602087642,0.987753757837,0.351219743411,0.05,0.05,0.0,1.0,0.0,1.0,0,0,,,0
1449618721454076389,244,0,/odom,bcmd_vector,0,0,0,2.20108059816,-0.491772260283,0.0,0.0,0.0,0.15602087642,0.987753757837,0.351219743411,0.05,0.05,0.0,1.0,0.0,1.0,0,0,,,0
1449618721490613452,245,0,/odom,bcmd_vector,0,0,0,2.20108059816,-0.491772260283,0.0,0.0,0.0,0.15602087642,0.987753757837,0.351219743411,0.05,0.05,0.0,1.0,0.0,1.0,0,0,,,0
1449618721534094631,246,0,/odom,bcmd_vector,0,0,0,2.20392428423,-0.491317662864,0.0,0.0,0.0,0.165240467235,0.986253308227,0.350432612133,0.05,0.05,0.0,1.0,0.0,1.0,0,0,,,0
1449618721562238122,247,0,/odom,bcmd_vector,0,0,0,2.20677261562,-0.490893142484,0.0,0.0,0.0,0.160042145307,0.987110182161,0.35043568441,0.05,0.05,0.0,1.0,0.0,1.0,0,0,,,0
1449618721620865525,248,0,/odom,bcmd_vector,0,0,0,2.20961630168,-0.490438545066,0.0,0.0,0.0,0.165271074807,0.986248179634,0.349653117046,0.05,0.05,0.0,1.0,0.0,1.0,0,0,,,0
1449618721654358650,249,0,/odom,bcmd_vector,0,0,0,2.20961630168,-0.490438545066,0.0,0.0,0.0,0.11152308529,0.993761843425,0.349653117046,0.05,0.05,0.0,1.0,0.0,1.0,0,0,,,0
1449618721664178841,250,0,/odom,bcmd_vector,0,0,0,2.21245502484,-0.489953921379,0.0,0.0,0.0,0.116770803072,0.993158889378,0.349657675881,0.05,0.05,0.0,1.0,0.0,1.0,0,0,,,0
1449618721690396943,251,0,/odom,bcmd_vector,0,0,0,2.21245502484,-0.489953921379,0.0,0.0,0.0,0.116770803072,0.993158889378,0.349657675881,0.05,0.05,0.0,1.0,0.0,1.0,0,0,,,0
1449618721743028531,252,0,/odom,bcmd_vector,0,0,0,2.2152987109,-0.48949932396,0.0,0.0,0.0,0.111519592007,0.993762235446,0.349662152792,0.05,0.05,0.0,1.0,0.0,1.0,0,0,,,0
1449618721785523771,253,0,/odom,bcmd_vector,0,0,0,2.21813743405,-0.489014700274,0.0,0.0,0.0,0.116767353539,0.993159294951,0.349666616714,0.05,0.05,0.0,1.0,0.0,1.0,0,0,,,0
1449618721802707701,254,0,/odom,bcmd_vector,0,0,0,2.22381488036,-0.4880454529,0.0,0.0,0.0,0.134740257292,0.990880953024,0.349675380708,0.05,0.05,0.0,1.0,0.0,1.0,0,0,,,0
1449618721889229730,255,0,/odom,bcmd_vector,0,0,0,2.22664832356,-0.487530857069,0.0,0.0,0.0,0.139977911993,0.990154626386,0.349679709753,0.05,0.05,0.0,1.0,0.0,1.0,0,0,,,0
1449618721942389875,256,0,/odom,bcmd_vector,0,0,0,2.23514305678,-0.485957154905,0.0,0.0,0.0,0.145218846866,0.989399558578,0.349692423139,0.05,0.05,0.0,1.0,0.0,1.0,0,0,,,0
1449618722001867033,257,0,/odom,bcmd_vector,0,0,0,2.23797649998,-0.485442559074,0.0,0.0,0.0,0.193663186253,0.981068076277,0.34969654937,0.05,0.05,0.0,1.0,0.0,1.0,0,0,,,0
1449618722035917206,258,0,/odom,bcmd_vector,0,0,0,2.24928197499,-0.4832346632,0.0,0.0,0.0,0.184565540016,0.982820208094,0.350478435606,0.05,0.05,0.0,1.0,0.0,1.0,0,0,,,0
1449618722049086587,259,0,/odom,bcmd_vector,0,0,0,2.25776551541,-0.48160113169,0.0,0.0,0.0,0.143960951004,0.989583369194,0.350486106099,0.05,0.05,0.0,1.0,0.0,1.0,0,0,,,0
1449618722092794837,260,0,/odom,bcmd_vector,0,0,0,2.25776551541,-0.48160113169,0.0,0.0,0.0,0.143960951004,0.989583369194,0.350486106099,0.05,0.05,0.0,1.0,0.0,1.0,0,0,,,0
1449618722154958149,261,0,/odom,bcmd_vector,0,0,0,2.26058745,-0.481026767327,0.0,0.0,0.0,0.149193228124,0.988808060587,0.350488604067,0.05,0.05,0.0,1.0,0.0,1.0,0,0,,,0
1449618722178181589,262,0,/odom,bcmd_vector,0,0,0,2.27466598606,-0.47800599694,0.0,0.0,0.0,0.154441690316,0.988001905004,0.350500687195,0.05,0.05,0.0,1.0,0.0,1.0,0,0,,,0
1449618722221901526,263,0,/odom,bcmd_vector,0,0,0,2.27466598606,-0.47800599694,0.0,0.0,0.0,0.15401803718,0.988068036232,0.350500687195,0.05,0.05,0.0,1.0,0.0,1.0,0,0,,,0
1449618722296794536,264,0,/odom,bcmd_vector,0,0,0,2.28309348217,-0.476104367987,0.0,0.0,0.0,0.159253334726,0.987237750179,0.350507533441,0.05,0.05,0.0,1.0,0.0,1.0,0,0,,,0
1449618722349129980,265,0,/odom,bcmd_vector,0,0,0,2.29711874228,-0.472846032057,0.0,0.0,0.0,0.164911422597,0.986308381135,0.350518240993,0.05,0.05,0.0,1.0,0.0,1.0,0,0,,,0
1449618722375645995,266,0,/odom,bcmd_vector,0,0,0,2.31110878558,-0.469439661204,0.0,0.0,0.0,0.188106606799,0.982148616289,0.350528046203,0.05,0.05,0.0,1.0,0.0,1.0,0,0,,,0
1449618722405199928,267,0,/odom,bcmd_vector,0,0,0,2.31110878558,-0.469439661204,0.0,0.0,0.0,0.186452358807,0.982464003359,0.351269025724,0.05,0.05,0.0,1.0,0.0,1.0,0,0,,,0
1449618722427668565,268,0,/odom,bcmd_vector,0,0,0,2.31947176716,-0.467271846076,0.0,0.0,0.0,0.173705623163,0.984797622094,0.351271740078,0.05,0.05,0.0,1.0,0.0,1.0,0,0,,,0
1449618722472600243,269,0,/odom,bcmd_vector,0,0,0,2.31947176716,-0.467271846076,0.0,0.0,0.0,0.17246623651,0.985015429962,0.351271740078,0.05,0.05,0.0,1.0,0.0,1.0,0,0,,,0
1449618722498185037,270,0,/odom,bcmd_vector,0,0,0,2.33338669364,-0.463570563164,0.0,0.0,0.0,0.177702305093,0.984084290477,0.351275884125,0.05,0.05,0.0,1.0,0.0,1.0,0,0,,,0
1449618722552564619,271,0,/odom,bcmd_vector,0,0,0,2.33338669364,-0.463570563164,0.0,0.0,0.0,0.195667054296,0.980670384922,0.351275884125,0.05,0.05,0.0,1.0,0.0,1.0,0,0,,,0
1449618722573017279,272,0,/odom,bcmd_vector,0,0,0,2.34726172848,-0.459722436055,0.0,0.0,0.0,0.200888465852,0.979614120094,0.351279455196,0.05,0.05,0.0,1.0,0.0,1.0,0,0,,,0
1449618722607700050,273,0,/odom,bcmd_vector,0,0,0,2.34726172848,-0.459722436055,0.0,0.0,0.0,0.200888465852,0.979614120094,0.351279455196,0.05,0.05,0.0,1.0,0.0,1.0,0,0,,,0
1449618722670517773,274,0,/odom,bcmd_vector,0,0,0,2.35834879233,-0.456596997975,0.0,0.0,0.0,0.200916962629,0.979608275857,0.351281879315,0.05,0.05,0.0,1.0,0.0,1.0,0,0,,,0
1449618722691355267,275,0,/odom,bcmd_vector,0,0,0,2.37490275362,-0.451645880627,0.0,0.0,0.0,0.192947067584,0.98120916685,0.351284776335,0.05,0.05,0.0,1.0,0.0,1.0,0,0,,,0
1449618722727013285,276,0,/odom,bcmd_vector,0,0,0,2.37490275362,-0.451645880627,0.0,0.0,0.0,0.210889446847,0.977509918726,0.351284776335,0.05,0.05,0.0,1.0,0.0,1.0,0,0,,,0
1449618722769202667,277,0,/odom,bcmd_vector,0,0,0,2.38592128643,-0.448286820828,0.0,0.0,0.0,0.210906216365,0.977506300695,0.351286130598,0.05,0.05,0.0,1.0,0.0,1.0,0,0,,,0
1449618722812385870,278,0,/odom,bcmd_vector,0,0,0,2.39415810104,-0.445680334993,0.0,0.0,0.0,0.216077438497,0.976376229008,0.351286862929,0.05,0.05,0.0,1.0,0.0,1.0,0,0,,,0
1449618722850126958,279,0,/odom,bcmd_vector,0,0,0,2.40236691073,-0.442986949269,0.0,0.0,0.0,0.221239565269,0.975219490556,0.347472619135,0.05,0.05,0.0,1.0,0.0,1.0,0,0,,,0
1449618722899940510,280,0,/odom,bcmd_vector,0,0,0,2.41331199033,-0.439395768304,0.0,0.0,0.0,0.22084154826,0.97530969982,0.347472670141,0.05,0.05,0.0,1.0,0.0,1.0,0,0,,,0
1449618722964837103,281,0,/odom,bcmd_vector,0,0,0,2.42149187833,-0.436615783497,0.0,0.0,0.0,0.225989926455,0.974129638776,0.34501572326,0.05,0.05,0.0,1.0,0.0,1.0,0,0,,,0
1449618722973839094,282,0,/odom,bcmd_vector,0,0,0,2.44054844843,-0.430042863673,0.0,0.0,0.0,0.230714877073,0.973021400329,0.342555653846,0.05,0.05,0.0,1.0,0.0,1.0,0,0,,,0
1449618723013231526,283,0,/odom,bcmd_vector,0,0,0,2.44054844843,-0.430042863673,0.0,0.0,0.0,0.230714877073,0.973021400329,0.336812473803,0.05,0.05,0.0,1.0,0.0,1.0,0,0,,,0
1449618723050519428,284,0,/odom,bcmd_vector,0,0,0,2.45141518544,-0.426221165787,0.0,0.0,0.0,0.230694777795,0.973026165886,0.336815456669,0.05,0.05,0.0,1.0,0.0,1.0,0,0,,,0
1449618723087444910,285,0,/odom,bcmd_vector,0,0,0,2.45953449274,-0.423268923878,0.0,0.0,0.0,0.23621571401,0.971700641378,0.336818207185,0.05,0.05,0.0,1.0,0.0,1.0,0,0,,,0
1449618723128916408,286,0,/odom,bcmd_vector,0,0,0,2.47036023581,-0.419332601332,0.0,0.0,0.0,0.236186672664,0.971707700729,0.333542391407,0.05,0.05,0.0,1.0,0.0,1.0,0,0,,,0
1449618723168412581,287,0,/odom,bcmd_vector,0,0,0,2.47577310734,-0.417364440059,0.0,0.0,0.0,0.236170054348,0.971711739885,0.33354584519,0.05,0.05,0.0,1.0,0.0,1.0,0,0,,,0
1449618723208899433,288,0,/odom,bcmd_vector,0,0,0,2.4865988504,-0.413428117513,0.0,0.0,0.0,0.218322555082,0.975876663284,0.325344712683,0.05,0.05,0.0,1.0,0.0,1.0,0,0,,,0
1449618723283332133,289,0,/odom,bcmd_vector,0,0,0,2.50007827548,-0.40836498303,0.0,0.0,0.0,0.241211422152,0.97047259097,0.320438570824,0.05,0.05,0.0,1.0,0.0,1.0,0,0,,,0
1449618723323376332,290,0,/odom,bcmd_vector,0,0,0,2.51625358558,-0.40228922165,0.0,0.0,0.0,0.241138618167,0.970490683535,0.317935009093,0.05,0.05,0.0,1.0,0.0,1.0,0,0,,,0
1449618723353210632,291,0,/odom,bcmd_vector,0,0,0,2.52703712565,-0.398238714064,0.0,0.0,0.0,0.223347315294,0.974738927483,0.313865793504,0.05,0.05,0.0,1.0,0.0,1.0,0,0,,,0
1449618723385019430,292,0,/odom,bcmd_vector,0,0,0,2.53782066571,-0.394188206477,0.0,0.0,0.0,0.223305697882,0.974748462576,0.289836918877,0.05,0.05,0.0,1.0,0.0,1.0,0,0,,,0
1449618723411504973,293,0,/odom,bcmd_vector,0,0,0,2.53782066571,-0.394188206477,0.0,0.0,0.0,0.223305697882,0.974748462576,0.284925298742,0.05,0.05,0.0,1.0,0.0,1.0,0,0,,,0
1449618723454271801,294,0,/odom,bcmd_vector,0,0,0,2.54321243575,-0.392162952684,0.0,0.0,0.0,0.223283830995,0.974753471815,0.284870279437,0.05,0.05,0.0,1.0,0.0,1.0,0,0,,,0
1449618723505070782,295,0,/odom,bcmd_vector,0,0,0,2.55399597581,-0.388112445097,0.0,0.0,0.0,0.22323804808,0.974763958038,0.287033247437,0.05,0.05,0.0,1.0,0.0,1.0,0,0,,,0
1449618723543396992,296,0,/odom,bcmd_vector,0,0,0,2.56477951588,-0.384061937511,0.0,0.0,0.0,0.240864831327,0.970558670576,0.280399831259,0.05,0.05,0.0,1.0,0.0,1.0,0,0,,,0
1449618723595347889,297,0,/odom,bcmd_vector,0,0,0,2.57556305594,-0.380011429924,0.0,0.0,0.0,0.240793683336,0.970576324699,0.275409210685,0.05,0.05,0.0,1.0,0.0,1.0,0,0,,,0
1449618723626320720,298,0,/odom,bcmd_vector,0,0,0,2.59713013607,-0.371910414751,0.0,0.0,0.0,0.241072082979,0.970507213166,0.297880214319,0.05,0.05,0.0,1.0,0.0,1.0,0,0,,,0
1449618723672208079,299,0,/odom,bcmd_vector,0,0,0,2.59713013607,-0.371910414751,0.0,0.0,0.0,0.241072082979,0.970507213166,0.297880214319,0.05,0.05,0.0,1.0,0.0,1.0,0,0,,,0
1449618723709770616,300,0,/odom,bcmd_vector,0,0,0,2.61330544617,-0.365834653371,0.0,0.0,0.0,0.240516879728,0.970644955978,0.266169280437,0.05,0.05,0.0,1.0,0.0,1.0,0,0,,,0
1449618723794151114,301,0,/odom,bcmd_vector,0,0,0,2.62408898624,-0.361784145785,0.0,0.0,0.0,0.240429943483,0.970666493847,0.259572010404,0.05,0.05,0.0,1.0,0.0,1.0,0,0,,,0
1449618723808453589,302,0,/odom,bcmd_vector,0,0,0,2.64288421852,-0.354496725337,0.0,0.0,0.0,0.180767005788,0.983525947608,0.346422698746,0.05,0.05,0.0,1.0,0.0,1.0,0,0,,,0
1449618723815990025,303,0,/odom,bcmd_vector,0,0,0,2.64288421852,-0.354496725337,0.0,0.0,0.0,0.180767005788,0.983525947608,0.346422698746,0.05,0.05,0.0,1.0,0.0,1.0,0,0,,,0
1449618723851855631,304,0,/odom,bcmd_vector,0,0,0,2.64288421852,-0.354496725337,0.0,0.0,0.0,0.180767005788,0.983525947608,0.346422698746,0.05,0.05,0.0,1.0,0.0,1.0,0,0,,,0
1449618723885718290,305,0,/odom,bcmd_vector,0,0,0,2.64825428489,-0.352414605209,0.0,0.0,0.0,0.180767005788,0.983525947608,0.346422698746,0.05,0.05,0.0,1.0,0.0,1.0,0,0,,,0
1449618723931069031,306,0,/odom,bcmd_vector,0,0,0,2.65899441763,-0.348250364952,0.0,0.0,0.0,0.180767005788,0.983525947608,0.346422698746,0.05,0.05,0.0,1.0,0.0,1.0,0,0,,,0
1449618723973469106,307,0,/odom,bcmd_vector,0,0,0,2.66973455036,-0.344086124696,0.0,0.0,0.0,0.180767005788,0.983525947608,0.346422698746,0.05,0.05,0.0,1.0,0.0,1.0,0,0,,,0
1449618724008248291,308,0,/odom,bcmd_vector,0,0,0,2.68047468309,-0.33992188444,0.0,0.0,0.0,0.180767005788,0.983525947608,0.346422698746,0.05,0.05,0.0,1.0,0.0,1.0,0,0,,,0
1449618724047766152,309,0,/odom,bcmd_vector,0,0,0,2.68584474946,-0.337839764312,0.0,0.0,0.0,0.180767005788,0.983525947608,0.346422698746,0.05,0.05,0.0,1.0,0.0,1.0,0,0,,,0
1449618724094267243,310,0,/odom,bcmd_vector,0,0,0,2.6965848822,-0.333675524056,0.0,0.0,0.0,0.180767005788,0.983525947608,0.346422698746,0.05,0.05,0.0,1.0,0.0,1.0,0,0,,,0
1449618724133781707,311,0,/odom,bcmd_vector,0,0,0,2.70460652663,-0.330467393167,0.0,0.0,0.0,0.185961433067,0.982557044355,0.346422698746,0.05,0.05,0.0,1.0,0.0,1.0,0,0,,,0
1449618724182416662,312,0,/odom,bcmd_vector,0,0,0,2.71266162618,-0.327344212975,0.0,0.0,0.0,0.180767005788,0.983525947608,0.346422698746,0.05,0.05,0.0,1.0,0.0,1.0,0,0,,,0
1449618724211703331,313,0,/odom,bcmd_vector,0,0,0,2.72068327062,-0.324136082086,0.0,0.0,0.0,0.185961433067,0.982557044355,0.346422698746,0.05,0.05,0.0,1.0,0.0,1.0,0,0,,,0
1449618724250429713,314,0,/odom,bcmd_vector,0,0,0,2.73137879654,-0.319858574234,0.0,0.0,0.0,0.185961433067,0.982557044355,0.346422698746,0.05,0.05,0.0,1.0,0.0,1.0,0,0,,,0
1449618724294153291,315,0,/odom,bcmd_vector,0,0,0,2.7367265595,-0.317719820307,0.0,0.0,0.0,0.185961433067,0.982557044355,0.346422698746,0.05,0.05,0.0,1.0,0.0,1.0,0,0,,,0
1449618724328594255,316,0,/odom,bcmd_vector,0,0,0,2.74471385294,-0.314427097013,0.0,0.0,0.0,0.191150668145,0.981560707276,0.346422698746,0.05,0.05,0.0,1.0,0.0,1.0,0,0,,,0
1449618724371398721,317,0,/odom,bcmd_vector,0,0,0,2.75273549738,-0.311218966124,0.0,0.0,0.0,0.185961433067,0.982557044355,0.346422698746,0.05,0.05,0.0,1.0,0.0,1.0,0,0,,,0
1449618724407408477,318,0,/odom,bcmd_vector,0,0,0,2.75808326034,-0.309080212198,0.0,0.0,0.0,0.182841272345,0.983142446,0.346422698746,0.05,0.05,0.0,1.0,0.0,1.0,0,0,,,0
1449618724447523695,319,0,/odom,bcmd_vector,0,0,0,2.76607055378,-0.305787488904,0.0,0.0,0.0,0.188033644244,0.982162587677,0.346422698746,0.05,0.05,0.0,1.0,0.0,1.0,0,0,,,0
1449618724491977441,320,0,/odom,bcmd_vector,0,0,0,2.77672027838,-0.301397191179,0.0,0.0,0.0,0.181793942811,0.983336647521,0.340835397491,0.05,0.05,0.0,1.0,0.0,1.0,0,0,,,0
1449618724529040383,321,0,/odom,bcmd_vector,0,0,0,2.78204514068,-0.299202042316,0.0,0.0,0.0,0.181793942811,0.983336647521,0.340835397491,0.05,0.05,0.0,1.0,0.0,1.0,0,0,,,0
1449618724569231118,322,0,/odom,bcmd_vector,0,0,0,2.79269486527,-0.294811744591,0.0,0.0,0.0,0.181793942811,0.983336647521,0.340835397491,0.05,0.05,0.0,1.0,0.0,1.0,0,0,,,0
1449618724609728397,323,0,/odom,bcmd_vector,0,0,0,2.80334458986,-0.290421446866,0.0,0.0,0.0,0.103261012699,0.994654293338,0.324073493729,0.05,0.05,0.0,1.0,0.0,1.0,0,0,,,0
1449618724652689949,324,0,/odom,bcmd_vector,0,0,0,2.80866945216,-0.288226298003,0.0,0.0,0.0,0.103261012699,0.994654293338,0.324073493729,0.05,0.05,0.0,1.0,0.0,1.0,0,0,,,0
1449618724689971543,325,0,/odom,bcmd_vector,0,0,0,2.81662150257,-0.284849350044,0.0,0.0,0.0,0.0579033733641,0.998322192157,0.251438577423,0.05,0.05,0.0,1.0,0.0,1.0,0,0,,,0
1449618724733921700,326,0,/odom,bcmd_vector,0,0,0,2.82460879602,-0.28155662675,0.0,0.0,0.0,0.0526274307929,0.998614216566,0.251438577423,0.05,0.05,0.0,1.0,0.0,1.0,0,0,,,0
1449618724774835781,327,0,/odom,bcmd_vector,0,0,0,2.82993365832,-0.279361477888,0.0,0.0,0.0,0.0526274307929,0.998614216566,0.251438577423,0.05,0.05,0.0,1.0,0.0,1.0,0,0,,,0
1449618724822561499,328,0,/odom,bcmd_vector,0,0,0,2.82993365832,-0.279361477888,0.0,0.0,0.0,0.0272515562902,0.999628607374,0.301724288712,0.05,0.05,0.0,1.0,0.0,1.0,0,0,,,0
1449618724846043331,329,0,/odom,bcmd_vector,0,0,0,2.85378980956,-0.269230634011,0.0,0.0,0.0,0.0325332131602,0.999470654918,0.301724288712,0.05,0.05,0.0,1.0,0.0,1.0,0,0,,,0
1449618724902936648,330,0,/odom,bcmd_vector,0,0,0,2.86439254344,-0.264728036733,0.0,0.0,0.0,0.0325332131602,0.999470654918,0.296136987457,0.05,0.05,0.0,1.0,0.0,1.0,0,0,,,0
1449618724928954345,331,0,/odom,bcmd_vector,0,0,0,2.87499527732,-0.260225439454,0.0,0.0,0.0,0.0325332131602,0.999470654918,0.296136987457,0.05,0.05,0.0,1.0,0.0,1.0,0,0,,,0
1449618724968004001,332,0,/odom,bcmd_vector,0,0,0,2.88029664427,-0.257974140815,0.0,0.0,0.0,0.0325332131602,0.999470654918,0.296136987457,0.05,0.05,0.0,1.0,0.0,1.0,0,0,,,0
1449618725012595947,333,0,/odom,bcmd_vector,0,0,0,2.89089937815,-0.253471543537,0.0,0.0,0.0,0.0325332131602,0.999470654918,0.296136987457,0.05,0.05,0.0,1.0,0.0,1.0,0,0,,,0
1449618725051450004,334,0,/odom,bcmd_vector,0,0,0,2.90150211203,-0.248968946259,0.0,0.0,0.0,0.0325332131602,0.999470654918,0.296136987457,0.05,0.05,0.0,1.0,0.0,1.0,0,0,,,0
1449618725094642901,335,0,/odom,bcmd_vector,0,0,0,2.91210484592,-0.24446634898,0.0,0.0,0.0,0.0325332131602,0.999470654918,0.296136987457,0.05,0.05,0.0,1.0,0.0,1.0,0,0,,,0
1449618725127763161,336,0,/odom,bcmd_vector,0,0,0,2.91740621286,-0.242215050341,0.0,0.0,0.0,0.0325332131602,0.999470654918,0.296136987457,0.05,0.05,0.0,1.0,0.0,1.0,0,0,,,0
1449618725165193005,337,0,/odom,bcmd_vector,0,0,0,2.92800894674,-0.237712453063,0.0,0.0,0.0,0.0325332131602,0.999470654918,0.296136987457,0.05,0.05,0.0,1.0,0.0,1.0,0,0,,,0
1449618725207032968,338,0,/odom,bcmd_vector,0,0,0,2.93861168063,-0.233209855784,0.0,0.0,0.0,0.0325332131602,0.999470654918,0.296136987457,0.05,0.05,0.0,1.0,0.0,1.0,0,0,,,0
1449618725245287847,339,0,/odom,bcmd_vector,0,0,0,2.94921441451,-0.228707258506,0.0,0.0,0.0,0.0325332131602,0.999470654918,0.296136987457,0.05,0.05,0.0,1.0,0.0,1.0,0,0,,,0
1449618725286713017,340,0,/odom,bcmd_vector,0,0,0,2.95720170796,-0.225414535212,0.0,0.0,0.0,0.0240780003374,0.999710082924,0.301724288712,0.05,0.05,0.0,1.0,0.0,1.0,0,0,,,0
1449618725325206416,341,0,/odom,bcmd_vector,0,0,0,2.96785143255,-0.221024237487,0.0,0.0,0.0,0.0240780003374,0.999710082924,0.301724288712,0.05,0.05,0.0,1.0,0.0,1.0,0,0,,,0
1449618725365731225,342,0,/odom,bcmd_vector,0,0,0,2.97317629485,-0.218829088624,0.0,0.0,0.0,0.0240780003374,0.999710082924,0.301724288712,0.05,0.05,0.0,1.0,0.0,1.0,0,0,,,0
1449618725406611357,343,0,/odom,bcmd_vector,0,0,0,2.98382601944,-0.214438790899,0.0,0.0,0.0,0.0272515562902,0.999628607374,0.296136987457,0.05,0.05,0.0,1.0,0.0,1.0,0,0,,,0
1449618725447871895,344,0,/odom,bcmd_vector,0,0,0,2.99719542684,-0.209091906083,0.0,0.0,0.0,0.0219691385336,0.999758649351,0.296136987457,0.05,0.05,0.0,1.0,0.0,1.0,0,0,,,0
1449618725492969498,345,0,/odom,bcmd_vector,0,0,0,3.00789095275,-0.204814398231,0.0,0.0,0.0,0.0187951963682,0.999823354695,0.301724288712,0.05,0.05,0.0,1.0,0.0,1.0,0,0,,,0
1449618725528757479,346,0,/odom,bcmd_vector,0,0,0,3.01323871571,-0.202675644305,0.0,0.0,0.0,0.0187951963682,0.999823354695,0.301724288712,0.05,0.05,0.0,1.0,0.0,1.0,0,0,,,0
1449618725570595803,347,0,/odom,bcmd_vector,0,0,0,3.02129381526,-0.199552464113,0.0,0.0,0.0,0.0135118676213,0.99990871055,0.301724288712,0.05,0.05,0.0,1.0,0.0,1.0,0,0,,,0
1449618725612729666,348,0,/odom,bcmd_vector,0,0,0,3.032033948,-0.195388223857,0.0,0.0,0.0,0.0135118676213,0.99990871055,0.301724288712,0.05,0.05,0.0,1.0,0.0,1.0,0,0,,,0
1449618725654186176,349,0,/odom,bcmd_vector,0,0,0,3.04012160305,-0.192350343167,0.0,0.0,0.0,0.0082281616115,0.999966148105,0.301724288712,0.05,0.05,0.0,1.0,0.0,1.0,0,0,,,0
