%time,field.robot_pose.position.x,field.robot_pose.position.y,field.robot_pose.position.z,field.robot_pose.orientation.x,field.robot_pose.orientation.y,field.robot_pose.orientation.z,field.robot_pose.orientation.w,field.ctime,field.hasac,field.acmd.linear.x,field.acmd.linear.y,field.acmd.linear.z,field.acmd.angular.x,field.acmd.angular.y,field.acmd.angular.z,field.hasuc,field.ucmd.linear.x,field.ucmd.linear.y,field.ucmd.linear.z,field.ucmd.angular.x,field.ucmd.angular.y,field.ucmd.angular.z,field.bcmd.linear.x,field.bcmd.linear.y,field.bcmd.linear.z,field.bcmd.angular.x,field.bcmd.angular.y,field.bcmd.angular.z,field.blending,field.blendingno,field.controlstate,field.alpha,field.source,field.sxb
1449618706887513983,0.0,0.0,0.0,0.0,0.0,0.0,1.0,1449618706886589721,1,0.0,0.0,0.0,0.0,0.0,0.0,1,-0.0,0.0,0.0,0.0,0.0,-0.0,-0.0,0.0,0.0,0.0,0.0,-0.0,,0,Sharing Zero Relinquish,10.0,,0
1449618706925913186,0.0,0.0,0.0,0.0,0.0,0.0,1.0,1449618706925456507,1,0.0,0.0,0.0,0.0,0.0,0.0,1,-0.0,0.0,0.0,0.0,0.0,-0.0,-0.0,0.0,0.0,0.0,0.0,-0.0,,0,Sharing Zero Relinquish,10.0,user,0
1449618706966046123,0.0,0.0,0.0,0.0,0.0,0.0,1.0,1449618706965418733,1,0.0,0.0,0.0,0.0,0.0,0.0,1,-0.0,0.0,0.0,0.0,0.0,-0.0,-0.0,0.0,0.0,0.0,0.0,-0.0,,0,Sharing Zero Relinquish,10.0,user,0
1449618707006601945,0.0,0.0,0.0,0.0,0.0,0.0,1.0,1449618707005418894,1,0.0,0.0,0.0,0.0,0.0,0.0,1,-0.0,0.0,0.0,0.0,0.0,-0.0,-0.0,0.0,0.0,0.0,0.0,-0.0,,0,Sharing Zero Relinquish,10.0,user,0
1449618707046188026,0.0,0.0,0.0,0.0,0.0,0.0,1.0,1449618707045431068,1,0.0,0.0,0.0,0.0,0.0,0.0,1,-0.0,0.0,0.0,0.0,0.0,-0.0,-0.0,0.0,0.0,0.0,0.0,-0.0,,0,Sharing Zero Relinquish,10.0,user,0
1449618707089275783,0.0,0.0,0.0,0.0,0.0,0.0,1.0,1449618707085442912,1,0.0,0.0,0.0,0.0,0.0,0.0,1,-0.0,0.0,0.0,0.0,0.0,-0.0,-0.0,0.0,0.0,0.0,0.0,-0.0,,0,Sharing Zero Relinquish,10.0,user,0
1449618707126977483,0.0,0.0,0.0,0.0,0.0,0.0,1.0,1449618707125439434,1,0.0,0.0,0.0,0.0,0.0,0.0,1,-0.0,0.0,0.0,0.0,0.0,-0.0,-0.0,0.0,0.0,0.0,0.0,-0.0,,0,Sharing Zero Relinquish,10.0,user,0
1449618707166649899,0.0,0.0,0.0,0.0,0.0,0.0,1.0,1449618707165422554,1,0.0,0.0,0.0,0.0,0.0,0.0,1,-0.0,0.0,0.0,0.0,0.0,-0.0,-0.0,0.0,0.0,0.0,0.0,-0.0,,0,Allway Blend,10.0,user,0
1449618707205990592,0.0,0.0,0.0,0.0,0.0,0.0,1.0,1449618707205434331,1,0.0,0.0,0.0,0.0,0.0,0.0,1,-0.0,0.0,0.0,0.0,0.0,-0.0,-0.0,0.0,0.0,0.0,0.0,-0.0,,0,Allway Blend,10.0,user,0
1449618707245897331,0.0,0.0,0.0,0.0,0.0,0.0,1.0,1449618707245439837,1,0.0,0.0,0.0,0.0,0.0,0.0,1,-0.0,0.0,0.0,0.0,0.0,-0.0,-0.0,0.0,0.0,0.0,0.0,-0.0,,0,Allway Blend,10.0,user,0
1449618707285972059,0.0,0.0,0.0,0.0,0.0,0.0,1.0,1449618707285439600,1,0.0,0.0,0.0,0.0,0.0,0.0,1,-0.0,0.0,0.0,0.0,0.0,-0.0,-0.0,0.0,0.0,0.0,0.0,-0.0,,0,Allway Blend,10.0,user,0
1449618707326458922,0.0,0.0,0.0,0.0,0.0,0.0,1.0,1449618707325461391,1,0.0,0.0,0.0,0.0,0.0,0.0,1,-0.0,0.0,0.0,0.0,0.0,-0.0,-0.0,0.0,0.0,0.0,0.0,-0.0,,0,Allway Blend,10.0,user,0
1449618707366116310,0.0,0.0,0.0,0.0,0.0,0.0,1.0,1449618707365443606,1,0.0,0.0,0.0,0.0,0.0,0.0,1,-0.0,0.0,0.0,0.0,0.0,-0.0,-0.0,0.0,0.0,0.0,0.0,-0.0,,0,Allway Blend,10.0,user,0
1449618707406326618,0.0,0.0,0.0,0.0,0.0,0.0,1.0,1449618707405434974,1,0.0,0.0,0.0,0.0,0.0,0.0,1,-0.0,0.0,0.0,0.0,0.0,-0.0,-0.0,0.0,0.0,0.0,0.0,-0.0,,0,Allway Blend,10.0,user,0
1449618707445803006,0.0,0.0,0.0,0.0,0.0,0.0,1.0,1449618707445434256,1,0.0,0.0,0.0,0.0,0.0,0.0,1,-0.0,0.0,0.0,0.0,0.0,-0.0,-0.0,0.0,0.0,0.0,0.0,-0.0,,0,Allway Blend,10.0,user,0
1449618707488973807,0.0,0.0,0.0,0.0,0.0,0.0,1.0,1449618707485454139,1,0.0,0.0,0.0,0.0,0.0,0.0,1,-0.0,0.0,0.0,0.0,0.0,-0.0,-0.0,0.0,0.0,0.0,0.0,-0.0,,0,Allway Blend,10.0,user,0
1449618707526635645,0.0,0.0,0.0,0.0,0.0,0.0,1.0,1449618707525441465,1,0.0,0.0,0.0,0.0,0.0,0.0,1,-0.0,0.0,0.0,0.0,0.0,-0.0,-0.0,0.0,0.0,0.0,0.0,-0.0,,0,Allway Blend,10.0,user,0
1449618707565841483,0.0,0.0,0.0,0.0,0.0,0.0,1.0,1449618707565426685,1,0.0,0.0,0.0,0.0,0.0,0.0,1,-0.0,0.0,0.0,0.0,0.0,-0.0,-0.0,0.0,0.0,0.0,0.0,-0.0,,0,Allway Blend,10.0,user,0
1449618707606014561,0.0,0.0,0.0,0.0,0.0,0.0,1.0,1449618707605434178,1,0.0,0.0,0.0,0.0,0.0,0.0,1,-0.0,0.0,0.0,0.0,0.0,-0.0,-0.0,0.0,0.0,0.0,0.0,-0.0,,0,Allway Blend,10.0,user,0
1449618707647677152,0.0,0.0,0.0,0.0,0.0,0.0,1.0,1449618707645452043,1,0.0,0.0,0.0,0.0,0.0,0.0,1,-0.0,0.0,0.0,0.0,0.0,-0.0,-0.0,0.0,0.0,0.0,0.0,-0.0,,0,Allway Blend,10.0,user,0
1449618707686080827,0.0,0.0,0.0,0.0,0.0,0.0,1.0,1449618707685421855,1,0.0,0.0,0.0,0.0,0.0,0.0,1,-0.0,0.0,0.0,0.0,0.0,-0.0,-0.0,0.0,0.0,0.0,0.0,-0.0,,0,Allway Blend,10.0,user,0
1449618707727261969,0.0,0.0,0.0,0.0,0.0,0.0,1.0,1449618707725438420,1,0.0,0.0,0.0,0.0,0.0,0.0,1,-0.0,0.0,0.0,0.0,0.0,-0.0,-0.0,0.0,0.0,0.0,0.0,-0.0,,0,Allway Blend,10.0,user,0
1449618707766612068,0.0,0.0,0.0,0.0,0.0,0.0,1.0,1449618707765441456,1,0.0,0.0,0.0,0.0,0.0,0.0,1,-0.0,0.0,0.0,0.0,0.0,-0.0,-0.0,0.0,0.0,0.0,0.0,-0.0,,0,Allway Blend,10.0,user,0
1449618707806343021,0.0,0.0,0.0,0.0,0.0,0.0,1.0,1449618707805437144,1,0.0,0.0,0.0,0.0,0.0,0.0,1,-0.0,0.0,0.0,0.0,0.0,-0.0,-0.0,0.0,0.0,0.0,0.0,-0.0,,0,Allway Blend,10.0,user,0
1449618707846694234,0.0,0.0,0.0,0.0,0.0,0.0,1.0,1449618707845775435,1,0.0,0.0,0.0,0.0,0.0,0.0,1,-0.0,0.0,0.0,0.0,0.0,-0.0,-0.0,0.0,0.0,0.0,0.0,-0.0,,0,Allway Blend,10.0,user,0
1449618707887927704,0.0,0.0,0.0,0.0,0.0,0.0,1.0,1449618707885457234,1,0.0,0.0,0.0,0.0,0.0,0.0,1,-0.0,0.0,0.0,0.0,0.0,-0.0,-0.0,0.0,0.0,0.0,0.0,-0.0,,0,Allway Blend,10.0,user,0
1449618707927164457,0.0,0.0,0.0,0.0,0.0,0.0,1.0,1449618707925436419,1,0.0,0.0,0.0,0.0,0.0,0.0,1,-0.0,0.0,0.0,0.0,0.0,-0.0,-0.0,0.0,0.0,0.0,0.0,-0.0,,0,Allway Blend,10.0,user,0
1449618707966872241,0.0,0.0,0.0,0.0,0.0,0.0,1.0,1449618707965479077,1,0.0,0.0,0.0,0.0,0.0,0.0,1,-0.0,0.0,0.0,0.0,0.0,-0.0,-0.0,0.0,0.0,0.0,0.0,-0.0,,0,Allway Blend,10.0,user,0
1449618708006668818,0.0,0.0,0.0,0.0,0.0,0.0,1.0,1449618708005434668,1,0.0,0.0,0.0,0.0,0.0,0.0,1,-0.0,0.0,0.0,0.0,0.0,-0.0,-0.0,0.0,0.0,0.0,0.0,-0.0,,0,Allway Blend,10.0,user,0
1449618708047394505,0.0,0.0,0.0,0.0,0.0,0.0,1.0,1449618708045462549,1,0.0,0.0,0.0,0.0,0.0,0.0,1,-0.0,0.0,0.0,0.0,0.0,-0.0,-0.0,0.0,0.0,0.0,0.0,-0.0,,0,Allway Blend,10.0,user,0
1449618708087572314,0.0,0.0,0.0,0.0,0.0,0.0,1.0,1449618708085438917,1,0.0,0.0,0.0,0.0,0.0,0.0,1,-0.0,0.0,0.0,0.0,0.0,-0.0,-0.0,0.0,0.0,0.0,0.0,-0.0,,0,Allway Blend,10.0,user,0
1449618708126000694,0.0,0.0,0.0,0.0,0.0,0.0,1.0,1449618708125437172,1,0.0,0.0,0.0,0.0,0.0,0.0,1,-0.0,0.0,0.0,0.0,0.0,-0.0,-0.0,0.0,0.0,0.0,0.0,-0.0,,0,Allway Blend,10.0,user,0
1449618708168886212,0.0,0.0,0.0,0.0,0.0,0.0,1.0,1449618708168014169,1,0.0,0.0,0.0,0.0,0.0,0.0,1,-0.0,0.0,0.0,0.0,0.0,-0.0,-0.0,0.0,0.0,0.0,0.0,-0.0,,0,Allway Blend,10.0,user,0
1449618708206111200,0.0,0.0,0.0,0.0,0.0,0.0,1.0,1449618708205434344,1,0.0,0.0,0.0,0.0,0.0,0.0,1,-0.0,0.0,0.0,0.0,0.0,-0.0,-0.0,0.0,0.0,0.0,0.0,-0.0,,0,Allway Blend,10.0,user,0
1449618708245836530,0.0,0.0,0.0,0.0,0.0,0.0,1.0,1449618708245431978,1,0.0,0.0,0.0,0.0,0.0,0.0,1,-0.0,0.0,0.0,0.0,0.0,-0.0,-0.0,0.0,0.0,0.0,0.0,-0.0,,0,Allway Blend,10.0,user,0
1449618708286120665,0.0,0.0,0.0,0.0,0.0,0.0,1.0,1449618708285420732,1,0.0,0.0,0.0,0.0,0.0,0.0,1,-0.0,0.0,0.0,0.0,0.0,-0.0,-0.0,0.0,0.0,0.0,0.0,-0.0,,0,Allway Blend,10.0,user,0
1449618708326064488,0.0,0.0,0.0,0.0,0.0,0.0,1.0,1449618708325573929,1,0.0,0.0,0.0,0.0,0.0,0.0,1,-0.0,0.0,0.0,0.0,0.0,-0.0,-0.0,0.0,0.0,0.0,0.0,-0.0,,0,Allway Blend,10.0,user,0
1449618708367019481,0.0,0.0,0.0,0.0,0.0,0.0,1.0,1449618708365459506,1,0.0,0.0,0.0,0.0,0.0,0.0,1,-0.0,0.0,0.0,0.0,0.0,-0.0,-0.0,0.0,0.0,0.0,0.0,-0.0,,0,Allway Blend,10.0,user,0
1449618708407511181,0.0,0.0,0.0,0.0,0.0,0.0,1.0,1449618708405430803,1,0.0,0.0,0.0,0.0,0.0,0.0,1,-0.0,0.0,0.0,0.0,0.0,-0.0,-0.0,0.0,0.0,0.0,0.0,-0.0,,0,Allway Blend,10.0,user,0
1449618708446901487,0.0,0.0,0.0,0.0,0.0,0.0,1.0,1449618708445432223,1,0.0,0.0,0.0,0.0,0.0,0.0,1,-0.0,0.0,0.0,0.0,0.0,-0.0,-0.0,0.0,0.0,0.0,0.0,-0.0,,0,Allway Blend,10.0,user,0
1449618708486076862,0.0,0.0,0.0,0.0,0.0,0.0,1.0,1449618708485438577,1,0.0,0.0,0.0,0.0,0.0,0.0,1,-0.0,0.0,0.0,0.0,0.0,-0.0,-0.0,0.0,0.0,0.0,0.0,-0.0,,0,Allway Blend,10.0,user,0
1449618708526302193,0.0,0.0,0.0,0.0,0.0,0.0,1.0,1449618708525423580,1,0.0,0.0,0.0,0.0,0.0,0.0,1,-0.0,0.0,0.0,0.0,0.0,-0.0,-0.0,0.0,0.0,0.0,0.0,-0.0,,0,Allway Blend,10.0,user,0
1449618708566205022,0.0,0.0,0.0,0.0,0.0,0.0,1.0,1449618708565433386,1,0.0,0.0,0.0,0.0,0.0,0.0,1,-0.0,0.0,0.0,0.0,0.0,-0.0,-0.0,0.0,0.0,0.0,0.0,-0.0,,0,Allway Blend,10.0,user,0
1449618708605724879,0.0,0.0,0.0,0.0,0.0,0.0,1.0,1449618708605423643,1,0.0,0.0,0.0,0.0,0.0,0.0,1,-0.0,0.0,0.0,0.0,0.0,-0.0,-0.0,0.0,0.0,0.0,0.0,-0.0,,0,Allway Blend,10.0,user,0
1449618708646933297,0.0,0.0,0.0,0.0,0.0,0.0,1.0,1449618708645454564,1,0.0,0.0,0.0,0.0,0.0,0.0,1,-0.0,0.0,0.0,0.0,0.0,-0.0,-0.0,0.0,0.0,0.0,0.0,-0.0,,0,Allway Blend,10.0,user,0
1449618708693884392,0.0,0.0,0.0,0.0,0.0,0.0,1.0,1449618708685459815,1,0.0,0.0,0.0,0.0,0.0,0.0,1,-0.0,0.0,0.0,0.0,0.0,-0.0,-0.0,0.0,0.0,0.0,0.0,-0.0,,0,Allway Blend,10.0,user,0
1449618708726412184,0.0,0.0,0.0,0.0,0.0,0.0,1.0,1449618708725437887,1,0.0,0.0,0.0,0.0,0.0,0.0,1,-0.0,0.0,0.0,0.0,0.0,-0.0,-0.0,0.0,0.0,0.0,0.0,-0.0,,0,Allway Blend,10.0,user,0
1449618708766750208,0.0,0.0,0.0,0.0,0.0,0.0,1.0,1449618708765445104,1,0.0,0.0,0.0,0.0,0.0,0.0,1,-0.0,0.0,0.0,0.0,0.0,-0.0,-0.0,0.0,0.0,0.0,0.0,-0.0,,0,Allway Blend,10.0,user,0
1449618708806053488,0.0,0.0,0.0,0.0,0.0,0.0,1.0,1449618708805444426,1,0.0,0.0,0.0,0.0,0.0,0.0,1,-0.0,0.0,0.0,0.0,0.0,-0.0,-0.0,0.0,0.0,0.0,0.0,-0.0,,0,Allway Blend,10.0,user,0
1449618708847516318,0.0,0.0,0.0,0.0,0.0,0.0,1.0,1449618708845442946,1,0.0,0.0,0.0,0.0,0.0,0.0,1,-0.0,0.0,0.0,0.0,0.0,-0.0,-0.0,0.0,0.0,0.0,0.0,-0.0,,0,Allway Blend,10.0,user,0
1449618708887176327,0.0,0.0,0.0,0.0,0.0,0.0,1.0,1449618708885440152,1,0.0,0.0,0.0,0.0,0.0,0.0,1,-0.0,0.0,0.0,0.0,0.0,-0.0,-0.0,0.0,0.0,0.0,0.0,-0.0,,0,Allway Blend,10.0,user,0
1449618708925581198,0.0,0.0,0.0,0.0,0.0,0.0,1.0,1449618708925417029,1,0.0,0.0,0.0,0.0,0.0,0.0,1,-0.0,0.0,0.0,0.0,0.0,-0.0,-0.0,0.0,0.0,0.0,0.0,-0.0,,0,Allway Blend,10.0,user,0
1449618708965842443,0.0,0.0,0.0,0.0,0.0,0.0,1.0,1449618708965433194,1,0.0,0.0,0.0,0.0,0.0,0.0,1,-0.0,0.0,0.0,0.0,0.0,-0.0,-0.0,0.0,0.0,0.0,0.0,-0.0,,0,Allway Blend,10.0,user,0
1449618709006866727,0.0,0.0,0.0,0.0,0.0,0.0,1.0,1449618709005816076,1,0.0,0.0,0.0,0.0,0.0,0.0,1,-0.0,0.0,0.0,0.0,0.0,-0.0,-0.0,0.0,0.0,0.0,0.0,-0.0,,0,Allway Blend,10.0,user,0
1449618709049003937,0.0,0.0,0.0,0.0,0.0,0.0,1.0,1449618709045437958,1,0.0,0.0,0.0,0.0,0.0,0.0,1,-0.0,0.0,0.0,0.0,0.0,-0.0,-0.0,0.0,0.0,0.0,0.0,-0.0,,0,Allway Blend,10.0,user,0
1449618709106822917,0.0,0.0,0.0,0.0,0.0,0.0,1.0,1449618709105862450,1,0.0,0.0,0.0,0.0,0.0,0.0,1,0.00558730190992,0.0,0.0,0.0,0.0,0.0,0.00558730190992,0.0,0.0,0.0,0.0,0.0,Linear,2,Allway Blend,1.0,user,0
1449618709143033035,0.0,0.0,0.0,0.0,0.0,0.0,1.0,1449618709140760976,1,0.0,0.0,0.0,0.0,0.0,0.0,1,0.00558730190992,0.0,0.0,0.0,0.0,0.0,0.00558730190992,0.0,0.0,0.0,0.0,0.0,Linear,2,Allway Blend,1.0,user,0
1449618709205088913,0.0,0.0,0.0,0.0,0.0,0.0,1.0,1449618709204518841,1,0.0,0.0,0.0,0.0,0.0,0.0,1,0.128507939339,0.0,0.0,0.0,0.0,-0.00634920671582,0.128507939339,0.0,0.0,0.0,0.0,-0.00634920671582,Linear,2,Allway Blend,1.0,user,0
1449618709231204634,0.0,0.0,0.0,0.0,0.0,0.0,1.0,1449618709230246981,1,0.0,0.0,0.0,0.0,0.0,0.0,1,0.128507939339,0.0,0.0,0.0,0.0,-0.00634920671582,0.128507939339,0.0,0.0,0.0,0.0,-0.00634920671582,Linear,2,Allway Blend,1.0,user,0
1449618709270654279,0.0,0.0,0.0,0.0,0.0,0.0,1.0,1449618709269779929,1,0.0,0.0,0.0,0.0,0.0,0.0,1,0.346412698746,0.0,0.0,0.0,0.0,-0.0126984134316,0.259809524059,0.0,0.0,0.0,0.0,-0.00952381007373,Linear,2,Allway Blend,0.75,user,0
1449618709376929997,0.0,0.0,0.0,0.0,0.0,0.0,1.0,1449618709374932602,1,0.0,0.0,0.0,0.0,0.0,0.0,1,0.346412698746,0.0,0.0,0.0,0.0,-0.0126984134316,0.259809524059,0.0,0.0,0.0,0.0,-0.00952381007373,Linear,2,Allway Blend,0.75,user,0
1449618709392899655,0.0,0.0,0.0,0.0,0.0,0.0,1.0,1449618709391233246,1,0.0,0.0,0.0,0.0,0.0,0.0,1,0.346412698746,0.0,0.0,0.0,0.0,-0.0126984134316,0.259809524059,0.0,0.0,0.0,0.0,-0.00952381007373,Linear,2,Allway Blend,0.75,user,0
1449618709436138643,0.0,0.0,0.0,0.0,0.0,0.0,1.0,1449618709435530459,1,0.0,0.0,0.0,0.0,0.0,0.0,1,0.301714288712,0.0,0.0,0.0,0.0,-0.00634920671582,0.226285716534,0.0,0.0,0.0,0.0,-0.00476190503687,Linear,2,Allway Blend,0.75,user,0
1449618709477236740,0.0,0.0,0.0,0.0,0.0,0.0,1.0,1449618709475393393,1,0.0,0.0,0.0,0.0,0.0,0.0,1,0.301714288712,0.0,0.0,0.0,0.0,-0.00634920671582,0.226285716534,0.0,0.0,0.0,0.0,-0.00476190503687,Linear,2,Allway Blend,0.75,user,0
1449618709515867821,0.0,0.0,0.0,0.0,0.0,0.0,1.0,1449618709515408160,1,0.0,0.0,0.0,0.0,0.0,0.0,1,0.346412698746,0.0,0.0,0.0,0.0,-0.0126984134316,0.259809524059,0.0,0.0,0.0,0.0,-0.00952381007373,Linear,2,Allway Blend,0.75,user,0
1449618709550080912,0.0,0.0,0.0,0.0,0.0,0.0,1.0,1449618709547136305,1,0.0,0.0,0.0,0.0,0.0,0.0,1,0.346412698746,0.0,0.0,0.0,0.0,-0.0126984134316,0.259809524059,0.0,0.0,0.0,0.0,-0.00952381007373,Linear,2,Allway Blend,0.75,user,0
1449618709588183678,0.0,0.0,0.0,0.0,0.0,0.0,1.0,1449618709586672454,1,0.0,0.0,0.0,0.0,0.0,0.0,1,0.296126987457,0.0,0.0,0.0,0.0,-0.00634920671582,0.222095240593,0.0,0.0,0.0,0.0,-0.00476190503687,Linear,2,Allway Blend,0.75,user,0
1449618709627648428,0.0,0.0,0.0,0.0,0.0,0.0,1.0,1449618709627149479,1,0.0,0.0,0.0,0.0,0.0,0.0,1,0.296126987457,0.0,0.0,0.0,0.0,-0.00634920671582,0.222095240593,0.0,0.0,0.0,0.0,-0.00476190503687,Linear,2,Allway Blend,0.75,user,0
1449618709686080018,0.0,0.0,0.0,0.0,0.0,0.0,1.0,1449618709685617612,1,0.12,0.0,0.0,0.0,0.0,-0.0210526315789,1,0.296126987457,0.0,0.0,0.0,0.0,-0.00634920671582,0.252095240593,0.0,0.0,0.0,0.0,-0.0100250629316,Linear,2,Allway Blend,0.75,user,0
1449618709714566448,0.0,0.0,0.0,0.0,0.0,0.0,1.0,1449618709713173209,1,0.12,0.0,0.0,0.0,0.0,-0.0210526315789,1,0.346412698746,0.0,0.0,0.0,0.0,-0.0126984134316,0.233206349373,0.0,0.0,0.0,0.0,-0.0168755225053,Linear,2,Allway Blend,0.5,user,0
1449618709789170805,0.0,0.0,0.0,0.0,0.0,0.0,1.0,1449618709788189509,1,0.188500232132,0.0,0.0,0.0,0.0,-0.0210526315789,1,0.346412698746,0.0,0.0,0.0,0.0,-0.0126984134316,0.267456465439,0.0,0.0,0.0,0.0,-0.0168755225053,Linear,2,Allway Blend,0.5,user,0
1449618709806197588,0.0,0.0,0.0,0.0,0.0,0.0,1.0,1449618709803864934,1,0.188500232132,0.0,0.0,0.0,0.0,-0.0210526315789,1,0.301714288712,0.0,0.0,0.0,0.0,-0.00634920671582,0.273410774567,0.0,0.0,0.0,0.0,-0.0100250629316,Linear,2,Allway Blend,0.75,user,0
1449618709831609013,0.0,0.0,0.0,0.0,0.0,0.0,1.0,1449618709830074233,1,0.188500232132,0.0,0.0,0.0,0.0,-0.0210526315789,1,0.301714288712,0.0,0.0,0.0,0.0,-0.00634920671582,0.273410774567,0.0,0.0,0.0,0.0,-0.0100250629316,Linear,2,Allway Blend,0.75,user,0
1449618709884764701,0.0,0.0,0.0,0.0,0.0,0.0,1.0,1449618709882651705,1,0.188500232132,0.0,0.0,0.0,0.0,-0.0210526315789,1,0.346412698746,0.0,0.0,0.0,0.0,-0.0126984134316,0.267456465439,0.0,0.0,0.0,0.0,-0.0168755225053,Linear,2,Allway Blend,0.5,user,0
1449618709919738579,0.0,0.0,0.0,0.0,0.0,0.0,1.0,1449618709918879572,1,0.188500232132,0.0,0.0,0.0,0.0,-0.0210526315789,1,0.346412698746,0.0,0.0,0.0,0.0,-0.0126984134316,0.267456465439,0.0,0.0,0.0,0.0,-0.0168755225053,Linear,2,Allway Blend,0.5,user,0
1449618709955560553,0.0,0.0,0.0,0.0,0.0,0.0,1.0,1449618709954111345,1,0.188500232132,0.0,0.0,0.0,0.0,-0.0210526315789,1,0.346412698746,0.0,0.0,0.0,0.0,-0.0126984134316,0.267456465439,0.0,0.0,0.0,0.0,-0.0168755225053,Linear,2,Allway Blend,0.5,user,0
1449618710006353632,0.0,0.0,0.0,0.0,0.0,0.0,1.0,1449618710005754481,1,0.188500232132,0.0,0.0,0.0,0.0,-0.0210526315789,1,0.324063493729,0.0,0.0,0.0,0.0,-0.0126984134316,0.29017267833,0.0,0.0,0.0,0.0,-0.0147869679685,Linear,2,Allway Blend,0.75,user,0
1449618710025947688,0.0,0.0,0.0,0.0,0.0,0.0,1.0,1449618710025231875,1,0.188500232132,0.0,0.0,0.0,0.0,-0.0210526315789,1,0.324063493729,0.0,0.0,0.0,0.0,-0.0126984134316,0.29017267833,0.0,0.0,0.0,0.0,-0.0147869679685,Linear,2,Allway Blend,0.75,user,0
1449618710074660099,0.0,0.0,0.0,0.0,0.0,0.0,1.0,1449618710073548355,1,0.188500232132,0.0,0.0,0.0,0.0,-0.0210526315789,1,0.346412698746,0.0,0.0,0.0,0.0,-0.0126984134316,0.267456465439,0.0,0.0,0.0,0.0,-0.0168755225053,Linear,2,Allway Blend,0.5,user,0
1449618710171087448,0.00287963245437,3.04332289367e-05,0.0,0.0,0.0,0.0052839997518,0.999986039576,1449618710169508750,1,0.188500232132,0.0,0.0,0.0,0.0,-0.0210526315789,1,0.346412698746,0.0,0.0,0.0,0.0,-0.0126984134316,0.267456465439,0.0,0.0,0.0,0.0,-0.0168755225053,Linear,2,Allway Blend,0.5,user,0
1449618710201769950,0.00575942572016,3.04332289367e-05,0.0,0.0,0.0,0.0,1.0,1449618710200383896,1,0.188500232132,0.0,0.0,0.0,0.0,-0.0210526315789,1,0.346412698746,0.0,0.0,0.0,0.0,-0.0126984134316,0.267456465439,0.0,0.0,0.0,0.0,-0.0168755225053,Linear,2,Allway Blend,0.5,user,0
1449618710224053187,0.00575942572016,3.04332289367e-05,0.0,0.0,0.0,0.0,1.0,1449618710223188047,1,0.188500232132,0.0,0.0,0.0,0.0,-0.0210526315789,1,0.346412698746,0.0,0.0,0.0,0.0,-0.0126984134316,0.267456465439,0.0,0.0,0.0,0.0,-0.0168755225053,Linear,2,Allway Blend,0.5,user,0
1449618710242450230,0.00863905817453,6.08664578733e-05,0.0,0.0,0.0,0.0052839997518,0.999986039576,1449618710241730099,1,0.18754053621,0.0,0.0,0.0,0.0,-0.0210526315789,1,0.346412698746,0.0,0.0,0.0,0.0,-0.0126984134316,0.266976617478,0.0,0.0,0.0,0.0,-0.0168755225053,Linear,2,Allway Blend,0.5,user,0
1449618710268507751,0.00863905817453,6.08664578733e-05,0.0,0.0,0.0,0.0052839997518,0.999986039576,1449618710267854880,1,0.18754053621,0.0,0.0,0.0,0.0,-0.0210526315789,1,0.346412698746,0.0,0.0,0.0,0.0,-0.0126984134316,0.266976617478,0.0,0.0,0.0,0.0,-0.0168755225053,Linear,2,Allway Blend,0.5,user,0
1449618710354865211,0.00863905817453,6.08664578733e-05,0.0,0.0,0.0,0.0052839997518,0.999986039576,1449618710353493625,1,0.18754053621,0.0,0.0,0.0,0.0,-0.0210526315789,1,0.346412698746,0.0,0.0,0.0,0.0,-0.0126984134316,0.266976617478,0.0,0.0,0.0,0.0,-0.0168755225053,Linear,2,Allway Blend,0.5,user,0
1449618710381186484,0.0143983230833,0.000121732915747,0.0,0.0,0.0,0.0052839997518,0.999986039576,1449618710379852865,1,0.186580670214,0.0,0.0,0.0,0.0,-0.0210526315789,1,0.346412698746,0.0,0.0,0.0,0.0,-0.0126984134316,0.26649668448,0.0,0.0,0.0,0.0,-0.0168755225053,Linear,2,Allway Blend,0.5,user,0
1449618710403122826,0.0172774731214,0.000182595974757,0.0,0.0,0.0,0.0105678519699,0.999944158693,1449618710402350639,1,0.185620978077,0.0,0.0,0.0,0.0,-0.0210526315789,1,0.346412698746,0.0,0.0,0.0,0.0,-0.0126984134316,0.266016838411,0.0,0.0,0.0,0.0,-0.0168755225053,Linear,2,Allway Blend,0.5,user,0
1449618710469907321,0.0172774731214,0.000182595974757,0.0,0.0,0.0,0.0105678519699,0.999944158693,1449618710467874911,1,0.185620978077,0.0,0.0,0.0,0.0,-0.0210526315789,1,0.346412698746,0.0,0.0,0.0,0.0,-0.0126984134316,0.266016838411,0.0,0.0,0.0,0.0,-0.0168755225053,Linear,2,Allway Blend,0.5,user,0
1449618710507519123,0.0230362556138,0.000273892262705,0.0,0.0,0.0,0.0105678519699,0.999944158693,1449618710504791354,1,0.185620978077,0.0,0.0,0.0,0.0,-0.0210526315789,1,0.346412698746,0.0,0.0,0.0,0.0,-0.0126984134316,0.266016838411,0.0,0.0,0.0,0.0,-0.0168755225053,Linear,2,Allway Blend,0.5,user,0
1449618710539567923,0.0259158880682,0.000304325491641,0.0,0.0,0.0,0.0052839997518,0.999986039576,1449618710537430100,1,0.183701600981,0.0,0.0,0.0,0.0,-0.0210526315789,1,0.346412698746,0.0,0.0,0.0,0.0,-0.0126984134316,0.265057149864,0.0,0.0,0.0,0.0,-0.0168755225053,Linear,2,Allway Blend,0.5,user,0
1449618710564818594,0.0259158880682,0.000304325491641,0.0,0.0,0.0,0.0052839997518,0.999986039576,1449618710563342117,1,0.183701600981,0.0,0.0,0.0,0.0,-0.0210526315789,1,0.346412698746,0.0,0.0,0.0,0.0,-0.0126984134316,0.265057149864,0.0,0.0,0.0,0.0,-0.0168755225053,Linear,2,Allway Blend,0.5,user,0
1449618710621750862,0.0287950381062,0.000365188550652,0.0,0.0,0.0,0.0105678519699,0.999944158693,1449618710613143563,1,0.182742200578,0.0,0.0,0.0,0.0,-0.0210526315789,1,0.346412698746,0.0,0.0,0.0,0.0,-0.0126984134316,0.264577449662,0.0,0.0,0.0,0.0,-0.0168755225053,Linear,2,Allway Blend,0.5,user,0
1449618710657963308,0.0316746705606,0.000395621779589,0.0,0.0,0.0,0.0052839997518,0.999986039576,1449618710657316125,1,0.182742200578,0.0,0.0,0.0,0.0,-0.0210526315789,1,0.346412698746,0.0,0.0,0.0,0.0,-0.0126984134316,0.340864109086,0.0,0.0,0.0,0.0,-0.0129816295821,Hybrid-Dynamic Alpha,2,Allway Blend,0.966099023819,doorway_assistance,2
1449618710689230409,0.0345538205987,0.0004564848386,0.0,0.0,0.0,0.0105678519699,0.999944158693,1449618710688289464,1,0.179863455083,0.0,0.0,0.0,0.0,-0.0210526315789,1,0.346412698746,0.0,0.0,0.0,0.0,-0.0126984134316,0.34071993881,0.0,0.0,0.0,0.0,-0.0129839659644,Hybrid-Dynamic Alpha,2,Allway Blend,0.965819358826,doorway_assistance,2
1449618710731287438,0.0403121206748,0.000578210956621,0.0,0.0,0.0,0.0105678519699,0.999944158693,1449618710729679179,1,0.179863455083,0.0,0.0,0.0,0.0,-0.0210526315789,1,0.346412698746,0.0,0.0,0.0,0.0,-0.0126984134316,0.340625700769,0.0,0.0,0.0,0.0,-0.0129886930057,Hybrid-Dynamic Alpha,2,Allway Blend,0.965253531933,doorway_assistance,2
1449618710806261291,0.0431904667456,0.00066949704836,0.0,0.0,0.0,0.0158514091245,0.999874358521,1449618710801586139,1,0.177944405869,0.0,0.0,0.0,0.0,-0.0210526315789,1,0.346412698746,0.0,0.0,0.0,0.0,-0.0126984134316,0.33959710583,0.0,0.0,0.0,0.0,-0.0130363936477,Hybrid-Dynamic Alpha,2,Allway Blend,0.959543764591,doorway_assistance,2
1449618710834940710,0.0547038510287,0.00103464141532,0.0,0.0,0.0,0.0158514091245,0.999874358521,1449618710834190719,1,0.177944405869,0.0,0.0,0.0,0.0,-0.0210526315789,1,0.340825397491,0.0,0.0,0.0,0.0,-0.0126984134316,0.334018929548,0.0,0.0,0.0,0.0,-0.0130475193491,Hybrid-Dynamic Alpha,2,Allway Blend,0.958212018013,doorway_assistance,2
1449618710881285389,0.0604605431703,0.0012172135988,0.0,0.0,0.0,0.0158514091245,0.999874358521,1449618710880049339,1,0.352,0.0,0.0,0.0,0.0,-0.189473684211,1,0.346412698746,0.0,0.0,0.0,0.0,-0.0126984134316,0.346649987313,0.0,0.0,0.0,0.0,-0.0202059289118,Hybrid-Dynamic Alpha,2,Allway Blend,0.957530736923,doorway_assistance,2
1449618710939787316,0.0662172353118,0.00139978578228,0.0,0.0,0.0,0.0158514091245,0.999874358521,1449618710939161497,1,0.352,0.0,0.0,0.0,0.0,-0.189473684211,1,0.346412698746,0.0,0.0,0.0,0.0,-0.0126984134316,0.346653852781,0.0,0.0,0.0,0.0,-0.020328227544,Hybrid-Dynamic Alpha,2,Allway Blend,0.956838905811,doorway_assistance,2
1449618710975216933,0.0748488972386,0.00176488257047,0.0,0.0,0.0,0.0211345236944,0.999776641009,1449618710974058527,1,0.352,0.0,0.0,0.0,0.0,-0.147368421053,1,0.346412698746,0.0,0.0,0.0,0.0,-0.0126984134316,0.34658854644,0.0,0.0,0.0,0.0,-0.0169368479117,Hybrid-Dynamic Alpha,2,Allway Blend,0.968527257442,doorway_assistance,2
1449618711040531584,0.0748488972386,0.00176488257047,0.0,0.0,0.0,0.0211345236944,0.999776641009,1449618711029819360,1,0.352,0.0,0.0,0.0,0.0,-0.147368421053,1,0.346412698746,0.0,0.0,0.0,0.0,-0.0190476194024,0.34658854644,0.0,0.0,0.0,0.0,-0.0230862269575,Hybrid-Dynamic Alpha,2,Allway Blend,0.968527257442,doorway_assistance,2
1449618711057570880,0.0863577798077,0.00225167828807,0.0,0.0,0.0,0.0211345236944,0.999776641009,1449618711056444343,1,0.352,0.0,0.0,0.0,0.0,-0.147368421053,1,0.346412698746,0.0,0.0,0.0,0.0,-0.0190476194024,0.346594414413,0.0,0.0,0.0,0.0,-0.0232209938059,Hybrid-Dynamic Alpha,2,Allway Blend,0.967477023602,doorway_assistance,2
1449618711166375318,0.0863577798077,0.00225167828807,0.0,0.0,0.0,0.0211345236944,0.999776641009,1449618711161946335,1,0.352,0.0,0.0,0.0,0.0,-0.147368421053,1,0.346412698746,0.0,0.0,0.0,0.0,-0.0190476194024,0.346621509328,0.0,0.0,0.0,0.0,-0.0238432694029,Hybrid-Dynamic Alpha,2,Allway Blend,0.962627649307,doorway_assistance,2
1449618711223439799,0.112244085004,0.00352936412868,0.0,0.0,0.0,0.0264170481704,0.999651008886,1449618711222492215,1,0.352,0.0,0.0,0.0,0.0,-0.147368421053,1,0.346412698746,0.0,0.0,0.0,0.0,-0.0190476194024,0.346637317886,0.0,0.0,0.0,0.0,-0.0242063367993,Hybrid-Dynamic Alpha,2,Allway Blend,0.959798276424,doorway_assistance,2
1449618711243392477,0.129498728273,0.0044419531811,0.0,0.0,0.0,0.0264170481704,0.999651008886,1449618711242732611,1,0.352,0.0,0.0,0.0,0.0,-0.147368421053,1,0.346412698746,0.0,0.0,0.0,0.0,-0.0126984134316,0.346644238564,0.0,0.0,0.0,0.0,-0.0182791880654,Hybrid-Dynamic Alpha,2,Allway Blend,0.958559632301,doorway_assistance,2
1449618711291999811,0.129498728273,0.0044419531811,0.0,0.0,0.0,0.0264170481704,0.999651008886,1449618711287057947,1,0.352,0.0,0.0,0.0,0.0,-0.147368421053,1,0.346412698746,0.0,0.0,0.0,0.0,-0.0190476194024,0.346644238564,0.0,0.0,0.0,0.0,-0.0243652806062,Hybrid-Dynamic Alpha,2,Allway Blend,0.958559632301,doorway_assistance,2
1449618711322609023,0.138120746094,0.00498939448516,0.0,0.0,0.0,0.0316988350601,0.999497465658,1449618711321865608,1,0.352,0.0,0.0,0.0,0.0,-0.147368421053,1,0.346412698746,0.0,0.0,0.0,0.0,-0.0190476194024,0.346649902057,0.0,0.0,0.0,0.0,-0.0244953512659,Hybrid-Dynamic Alpha,2,Allway Blend,0.957545995712,doorway_assistance,2
1449618711347858053,0.143868757975,0.00535435535454,0.0,0.0,0.0,0.0316988350601,0.999497465658,1449618711347346795,1,0.352,0.0,0.0,0.0,0.0,-0.147368421053,1,0.346412698746,0.0,0.0,0.0,0.0,-0.0190476194024,0.346653750208,0.0,0.0,0.0,0.0,-0.0245837298659,Hybrid-Dynamic Alpha,2,Allway Blend,0.956857264042,doorway_assistance,2
1449618711403414466,0.155364781736,0.00608427709328,0.0,0.0,0.0,0.0316988350601,0.999497465658,1449618711401426369,1,0.352,0.0,0.0,0.0,0.0,-0.147368421053,1,0.296126987457,0.0,0.0,0.0,0.0,-0.342857146263,0.298616233496,0.0,0.0,0.0,0.0,-0.334147762025,Hybrid-Dynamic Alpha,2,Allway Blend,0.955448150635,doorway_assistance,2
1449618711429291099,0.161112793616,0.00644923796266,0.0,0.0,0.0,0.0316988350601,0.999497465658,1449618711426949364,1,0.352,0.0,0.0,0.0,0.0,-0.189473684211,1,0.296126987457,0.0,0.0,0.0,0.0,-0.342857146263,0.298656500045,0.0,0.0,0.0,0.0,-0.33591308901,Hybrid-Dynamic Alpha,2,Allway Blend,0.954727470875,doorway_assistance,2
1449618711481196427,0.172608817377,0.0071791597014,0.0,0.0,0.0,0.0316988350601,0.999497465658,1449618711480088771,1,0.352,0.0,0.0,0.0,0.0,-0.189473684211,1,0.301714288712,0.0,0.0,0.0,0.0,-0.342857146263,0.304064990312,0.0,0.0,0.0,0.0,-0.335686943426,Hybrid-Dynamic Alpha,2,Allway Blend,0.953253090382,doorway_assistance,2
1449618711546375236,0.184104841138,0.00790908144015,0.0,0.0,0.0,0.0316988350601,0.999497465658,1449618711545241256,1,0.352,0.0,0.0,0.0,0.0,-0.189473684211,1,0.301714288712,0.0,0.0,0.0,0.0,-0.342857146263,0.304846346532,0.0,0.0,0.0,0.0,-0.333303619832,Hybrid-Dynamic Alpha,2,Allway Blend,0.937714755535,doorway_assistance,2
1449618711583476372,0.20134887678,0.00900396404827,0.0,0.0,0.0,0.0316988350601,0.999497465658,1449618711582817193,1,0.352,0.0,0.0,0.0,0.0,-0.189473684211,1,0.301714288712,0.0,0.0,0.0,0.0,-0.342857146263,0.304996416441,0.0,0.0,0.0,0.0,-0.33284587067,Hybrid-Dynamic Alpha,2,Allway Blend,0.934730410576,doorway_assistance,2
1449618711619775751,0.212844900541,0.00973388578701,0.0,0.0,0.0,0.0316988350601,0.999497465658,1449618711619203230,1,0.352,0.0,0.0,0.0,0.0,-0.189473684211,1,0.301714288712,0.0,0.0,0.0,0.0,-0.336507940292,0.305100076746,0.0,0.0,0.0,0.0,-0.326607974434,Hybrid-Dynamic Alpha,2,Allway Blend,0.932668983936,doorway_assistance,2
1449618711656519571,0.22720448567,0.0107980973574,0.0,0.0,0.0,0.0369797368913,0.999316015612,1449618711655264939,1,0.352,0.0,0.0,0.0,0.0,-0.189473684211,1,0.301714288712,0.0,0.0,0.0,0.0,-0.336507940292,0.304111438881,0.0,0.0,0.0,0.0,-0.329498728673,Hybrid-Dynamic Alpha,2,Allway Blend,0.952329397202,doorway_assistance,2
1449618711695146778,0.22720448567,0.0107980973574,0.0,0.0,0.0,0.0369797368913,0.999316015612,1449618711693862900,1,0.352,0.0,0.0,0.0,0.0,-0.189473684211,1,0.296126987457,0.0,0.0,0.0,0.0,-0.342857146263,0.298790487645,0.0,0.0,0.0,0.0,-0.335545264168,Hybrid-Dynamic Alpha,2,Allway Blend,0.952329397202,doorway_assistance,2
1449618711808799344,0.232948319721,0.0112237819856,0.0,0.0,0.0,0.0369797368913,0.999316015612,1449618711807895954,1,0.352,0.0,0.0,0.0,0.0,-0.189473684211,1,0.296126987457,0.0,0.0,0.0,0.0,-0.342857146263,0.298833265234,0.0,0.0,0.0,0.0,-0.335427830467,Hybrid-Dynamic Alpha,2,Allway Blend,0.951563775539,doorway_assistance,2
1449618711907477839,0.264545673748,0.0134739618022,0.0,0.0,0.0,0.0316988350601,0.999497465658,1449618711906689300,1,0.352,0.0,0.0,0.0,0.0,-0.231578947368,1,0.296126987457,0.0,0.0,0.0,0.0,-0.342857146263,0.299080396143,0.0,0.0,0.0,0.0,-0.336975057859,Hybrid-Dynamic Alpha,2,Allway Blend,0.947140693665,doorway_assistance,2
1449618711948639500,0.296153472348,0.015572332222,0.0,0.0,0.0,0.0369797368913,0.999316015612,1449618711941652977,1,0.352,0.0,0.0,0.0,0.0,-0.231578947368,1,0.296126987457,0.0,0.0,0.0,0.0,-0.336507940292,0.29934866774,0.0,0.0,0.0,0.0,-0.330457654972,Hybrid-Dynamic Alpha,2,Allway Blend,0.942339241505,doorway_assistance,2
1449618712060623136,0.307641140451,0.0164237014783,0.0,0.0,0.0,0.0369797368913,0.999316015612,1449618712059895109,1,0.352,0.0,0.0,0.0,0.0,-0.231578947368,1,0.296126987457,0.0,0.0,0.0,0.0,-0.342857146263,0.299451490477,0.0,0.0,0.0,0.0,-0.336235976375,Hybrid-Dynamic Alpha,2,Allway Blend,0.940498948097,doorway_assistance,2
1449618712103255139,0.339262277546,0.0183094572227,0.0,0.0,0.0,0.0316988350601,0.999497465658,1449618712101583251,1,0.352,0.0,0.0,0.0,0.0,-0.231578947368,1,0.296126987457,0.0,0.0,0.0,0.0,-0.342857146263,0.300281688745,0.0,0.0,0.0,0.0,-0.334582531109,Hybrid-Dynamic Alpha,2,Allway Blend,0.925640285015,doorway_assistance,2
1449618712178006104,0.353641146937,0.0190699480997,0.0,0.0,0.0,0.0264170481704,0.999651008886,1449618712177022079,1,0.352,0.0,0.0,0.0,0.0,-0.231578947368,1,0.296126987457,0.0,0.0,0.0,0.0,-0.336507940292,0.300445026201,0.0,0.0,0.0,0.0,-0.328398704077,Hybrid-Dynamic Alpha,2,Allway Blend,0.922716915607,doorway_assistance,2
1449618712205743798,0.359392694693,0.0193741444505,0.0,0.0,0.0,0.0264170481704,0.999651008886,1449618712204302635,1,0.352,0.0,0.0,0.0,0.0,-0.231578947368,1,0.296126987457,0.0,0.0,0.0,0.0,-0.336507940292,0.30051195506,0.0,0.0,0.0,0.0,-0.328273012307,Hybrid-Dynamic Alpha,2,Allway Blend,0.921519041061,doorway_assistance,2
1449618712263960221,0.370895790206,0.0199825371521,0.0,0.0,0.0,0.0264170481704,0.999651008886,1449618712260171882,1,0.352,0.0,0.0,0.0,0.0,-0.231578947368,1,0.296126987457,0.0,0.0,0.0,0.0,-0.336507940292,0.300648610224,0.0,0.0,0.0,0.0,-0.328016375193,Hybrid-Dynamic Alpha,2,Allway Blend,0.919073224068,doorway_assistance,2
1449618712355708976,0.391040836416,0.0207127783073,0.0,0.0,0.0,0.0211345236944,0.999776641009,1449618712354043424,1,0.352,0.0,0.0,0.0,0.0,-0.231578947368,1,0.301714288712,0.0,0.0,0.0,0.0,-0.336507940292,0.306008067284,0.0,0.0,0.0,0.0,-0.327548300469,Hybrid-Dynamic Alpha,2,Allway Blend,0.914612352848,doorway_assistance,2
1449618712423702989,0.414074036721,0.0211996827794,0.0,0.0,0.0,0.0105678519699,0.999944158693,1449618712422520681,1,0.352,0.0,0.0,0.0,0.0,-0.231578947368,1,0.301714288712,0.0,0.0,0.0,0.0,-0.336507940292,0.306278681074,0.0,0.0,0.0,0.0,-0.326983622516,Hybrid-Dynamic Alpha,2,Allway Blend,0.909230828285,doorway_assistance,2
1449618712520074188,0.434231463901,0.0214127153819,0.0,0.0,0.0,0.0052839997518,0.999986039576,1449618712500106079,1,0.352,0.0,0.0,0.0,0.0,-0.231578947368,1,0.301714288712,0.0,0.0,0.0,0.0,-0.336507940292,0.306528209127,0.0,0.0,0.0,0.0,-0.326462943249,Hybrid-Dynamic Alpha,2,Allway Blend,0.904268622398,doorway_assistance,2
1449618712553057927,0.457268523536,0.0211692495504,0.0,0.0,0.0,-0.0052839997518,0.999986039576,1449618712551028800,1,0.352,0.0,0.0,0.0,0.0,-0.189473684211,1,0.346412698746,0.0,0.0,0.0,0.0,-0.0126984134316,0.346981011917,0.0,0.0,0.0,0.0,-0.0306791361724,Hybrid-Dynamic Alpha,2,Allway Blend,0.898284852505,doorway_assistance,2
1449618712656914020,0.465905973651,0.0209866603734,0.0,0.0,0.0,-0.0105678519699,0.999944158693,1449618712655551584,1,0.352,0.0,0.0,0.0,0.0,-0.189473684211,1,0.346412698746,0.0,0.0,0.0,0.0,-0.00634920671582,0.346994033022,0.0,0.0,0.0,0.0,-0.0254025082539,Hybrid-Dynamic Alpha,2,Allway Blend,0.895954370499,doorway_assistance,2
1449618712774093533,0.488929365931,0.0201651331265,0.0,0.0,0.0,-0.0211345236944,0.999776641009,1449618712765664119,1,0.352,0.0,0.0,0.0,0.0,-0.189473684211,1,0.346412698746,0.0,0.0,0.0,0.0,-0.00634920671582,0.34703010507,0.0,0.0,0.0,0.0,-0.0265847739993,Hybrid-Dynamic Alpha,2,Allway Blend,0.8894982934,doorway_assistance,2
1449618712781314824,0.520542468345,0.0181579094846,0.0,0.0,0.0,-0.0369797368913,0.999316015612,1449618712780548567,1,0.352,0.0,0.0,0.0,0.0,-0.189473684211,1,0.027936508894,0.0,0.0,0.0,0.0,-0.00634920671582,0.0639070932938,0.0,0.0,0.0,0.0,-0.026675762018,Hybrid-Dynamic Alpha,2,Allway Blend,0.889001429081,doorway_assistance,2
1449618712817665165,0.53200957729,0.0170639439956,0.0,0.0,0.0,-0.0475382956186,0.998869416115,1449618712813951735,1,0.352,0.0,0.0,0.0,0.0,-0.189473684211,1,0.027936508894,0.0,0.0,0.0,0.0,-0.0126984134316,0.0650073922175,0.0,0.0,0.0,0.0,-0.0329204242949,Hybrid-Dynamic Alpha,2,Allway Blend,0.885606110096,doorway_assistance,2
1449618712861636310,0.53200957729,0.0170639439956,0.0,0.0,0.0,-0.0475382956186,0.998869416115,1449618712860954873,1,0.352,0.0,0.0,0.0,0.0,-0.189473684211,1,0.027936508894,0.0,0.0,0.0,0.0,-0.0126984134316,0.0650073922175,0.0,0.0,0.0,0.0,-0.0329204242949,Hybrid-Dynamic Alpha,2,Allway Blend,0.885606110096,doorway_assistance,2
1449618712948778754,0.55491811346,0.0146339054788,0.0,0.0,0.0,-0.0580915451448,0.99831126027,1449618712946518035,1,0.352,0.0,0.0,0.0,0.0,-0.147368421053,1,0.027936508894,0.0,0.0,0.0,0.0,-0.0126984134316,0.0672959923452,0.0,0.0,0.0,0.0,-0.0290549055445,Hybrid-Dynamic Alpha,2,Allway Blend,0.878543913364,doorway_assistance,2
1449618712984531183,0.572049461483,0.0123882852463,0.0,0.0,0.0,-0.0686383068554,0.997641610415,1449618712983287304,1,0.352,0.0,0.0,0.0,0.0,-0.147368421053,1,0.027936508894,0.0,0.0,0.0,0.0,-0.0126984134316,0.0712850298623,0.0,0.0,0.0,0.0,-0.0307126168497,Hybrid-Dynamic Alpha,2,Allway Blend,0.866234481335,doorway_assistance,2
1449618713006438282,0.58059445565,0.0111147241066,0.0,0.0,0.0,-0.0739088866573,0.997264998119,1449618713005240168,1,0.352,0.0,0.0,0.0,0.0,-0.105263157895,1,0.0614603190422,0.0,0.0,0.0,0.0,-0.0126984134316,0.101189450736,0.0,0.0,0.0,0.0,-0.0253559509869,Hybrid-Dynamic Alpha,2,Allway Blend,0.863257467747,doorway_assistance,2
1449618713025086491,0.58059445565,0.0111147241066,0.0,0.0,0.0,-0.0739088866573,0.997264998119,1449618713024619477,1,0.352,0.0,0.0,0.0,0.0,-0.105263157895,1,0.0614603190422,0.0,0.0,0.0,0.0,-0.0126984134316,0.101189450736,0.0,0.0,0.0,0.0,-0.0253559509869,Hybrid-Dynamic Alpha,2,Allway Blend,0.863257467747,doorway_assistance,2
1449618713115126359,0.591987781205,0.00941664258706,0.0,0.0,0.0,-0.0739088866573,0.997264998119,1449618713113863004,1,0.352,0.0,0.0,0.0,0.0,-0.105263157895,1,0.128507939339,0.0,0.0,0.0,0.0,-0.00634920671582,0.159974768755,0.0,0.0,0.0,0.0,-0.0202759136396,Hybrid-Dynamic Alpha,2,Allway Blend,0.85920381546,doorway_assistance,2
1449618713127541852,0.60902012012,0.00650890046698,0.0,0.0,0.0,-0.0844437083633,0.996428251365,1449618713125709640,1,0.352,0.0,0.0,0.0,0.0,-0.105263157895,1,0.128507939339,0.0,0.0,0.0,0.0,-0.00634920671582,0.16137523614,0.0,0.0,0.0,0.0,-0.0208957377273,Hybrid-Dynamic Alpha,2,Allway Blend,0.85293751955,doorway_assistance,2
1449618713136684507,0.60902012012,0.00650890046698,0.0,0.0,0.0,-0.0844437083633,0.996428251365,1449618713136417021,1,0.352,0.0,0.0,0.0,0.0,-0.105263157895,1,0.189968263626,0.0,0.0,0.0,0.0,-0.0126984134316,0.213797052689,0.0,0.0,0.0,0.0,-0.0263112143546,Hybrid-Dynamic Alpha,2,Allway Blend,0.85293751955,doorway_assistance,2
1449618713199111605,0.60902012012,0.00650890046698,0.0,0.0,0.0,-0.0844437083633,0.996428251365,1449618713197768877,1,0.352,0.0,0.0,0.0,0.0,-0.105263157895,1,0.189968263626,0.0,0.0,0.0,0.0,-0.0126984134316,0.213797052689,0.0,0.0,0.0,0.0,-0.0263112143546,Hybrid-Dynamic Alpha,2,Allway Blend,0.85293751955,doorway_assistance,2
1449618713225191403,0.631670876557,0.00230238980334,0.0,0.0,0.0,-0.0949690991753,0.995480220899,1449618713212526966,1,0.352,0.0,0.0,0.0,0.0,-0.105263157895,1,0.189968263626,0.0,0.0,0.0,0.0,-0.0126984134316,0.215207088268,0.0,0.0,0.0,0.0,-0.0271167329893,Hybrid-Dynamic Alpha,2,Allway Blend,0.844235301018,doorway_assistance,2
1449618713255149969,0.631670876557,0.00230238980334,0.0,0.0,0.0,-0.0949690991753,0.995480220899,1449618713253714944,1,0.352,0.0,0.0,0.0,0.0,-0.0631578947368,1,0.189968263626,0.0,0.0,0.0,0.0,-0.0126984134316,0.215207088268,0.0,0.0,0.0,0.0,-0.0205582193479,Hybrid-Dynamic Alpha,2,Allway Blend,0.844235301018,doorway_assistance,2
1449618713349796875,0.640136680327,0.000579296712465,0.0,0.0,0.0,-0.100227890607,0.994964506877,1449618713348683179,1,0.352,0.0,0.0,0.0,0.0,-0.0631578947368,1,0.346412698746,0.0,0.0,0.0,0.0,-0.0126984134316,0.347296947971,0.0,0.0,0.0,0.0,-0.0206841573975,Hybrid-Dynamic Alpha,2,Allway Blend,0.841739475727,doorway_assistance,2
1449618713407710539,0.662629628806,-0.00440254710789,0.0,0.0,0.0,-0.110736931374,0.993849753247,1449618713405802269,1,0.352,0.0,0.0,0.0,0.0,-0.0631578947368,1,0.346412698746,0.0,0.0,0.0,0.0,-0.0126984134316,0.347348422282,0.0,0.0,0.0,0.0,-0.0211490270916,Hybrid-Dynamic Alpha,2,Allway Blend,0.832526743412,doorway_assistance,2
1449618713442978440,0.671036558176,-0.00639313040269,0.0,0.0,0.0,-0.115986887289,0.993250744765,1449618713434340722,1,0.352,0.0,0.0,0.0,0.0,-0.0631578947368,1,0.346412698746,0.0,0.0,0.0,0.0,-0.00634920671582,0.347368300457,0.0,0.0,0.0,0.0,-0.0160652533362,Hybrid-Dynamic Alpha,2,Allway Blend,0.82896900177,doorway_assistance,2
1449618713513577805,0.679421981902,-0.00847244572582,0.0,0.0,0.0,-0.121233604752,0.99262400388,1449618713512708698,1,0.352,0.0,0.0,0.0,0.0,-0.0631578947368,1,0.340825397491,0.0,0.0,0.0,0.0,-0.00634920671582,0.342776978028,0.0,0.0,0.0,0.0,-0.0162705197807,Hybrid-Dynamic Alpha,2,Allway Blend,0.825355708599,doorway_assistance,2
1449618713562575571,0.693375245963,-0.0120264710693,0.0,0.0,0.0,-0.126476937269,0.991969548091,1449618713552582001,1,0.352,0.0,0.0,0.0,0.0,-0.0210526315789,1,0.340825397491,0.0,0.0,0.0,0.0,-0.00634920671582,0.342845675272,0.0,0.0,0.0,0.0,-0.00900746704599,Hybrid-Dynamic Alpha,2,Allway Blend,0.819208085537,doorway_assistance,2
1449618713590849947,0.698950567015,-0.0134716811547,0.0,0.0,0.0,-0.126476937269,0.991969548091,1449618713589665639,1,0.352,0.0,0.0,0.0,0.0,-0.0210526315789,1,0.346412698746,0.0,0.0,0.0,0.0,-0.00634920671582,0.347436824193,0.0,0.0,0.0,0.0,-0.00904427377468,Hybrid-Dynamic Alpha,2,Allway Blend,0.816704809666,doorway_assistance,2
1449618713626935418,0.70173043549,-0.01422370543,0.0,0.0,0.0,-0.131716738444,0.99128739567,1449618713623932795,1,0.352,0.0,0.0,0.0,0.0,0.0,1,0.346412698746,0.0,0.0,0.0,0.0,-0.00634920671582,0.34744386576,0.0,0.0,0.0,0.0,-0.00517742588027,Hybrid-Dynamic Alpha,2,Allway Blend,0.815444529057,doorway_assistance,2
1449618713692860871,0.71004573338,-0.0165677839893,0.0,0.0,0.0,-0.136952861975,0.990577565664,1449618713692138225,1,0.352,0.0,0.0,0.0,0.0,0.0,1,0.346412698746,0.0,0.0,0.0,0.0,-0.00634920671582,0.347465185284,0.0,0.0,0.0,0.0,-0.00515319914525,Hybrid-Dynamic Alpha,2,Allway Blend,0.811628818512,doorway_assistance,2
1449618713707839231,0.715589265306,-0.0181305030289,0.0,0.0,0.0,-0.136952861975,0.990577565664,1449618713707052589,1,0.352,0.0,0.0,0.0,0.0,0.0,1,0.189968263626,0.0,0.0,0.0,0.0,0.0,0.22090772732,0.0,0.0,0.0,0.0,0.0,Hybrid-Dynamic Alpha,2,Allway Blend,0.809053063393,doorway_assistance,2
1449618713779879596,0.721132797233,-0.0196932220685,0.0,0.0,0.0,-0.136952861975,0.990577565664,1449618713779134195,1,0.352,0.0,0.0,0.0,0.0,0.0,1,0.189968263626,0.0,0.0,0.0,0.0,0.0,0.221329234267,0.0,0.0,0.0,0.0,0.0,Hybrid-Dynamic Alpha,2,Allway Blend,0.806451678276,doorway_assistance,2
1449618713904898700,0.732177492113,-0.0229648095182,0.0,0.0,0.0,-0.147413491427,0.989074952946,1449618713902934552,1,0.352,0.0,0.0,0.0,0.0,0.0,1,0.307301589966,0.0,0.0,0.0,0.0,0.00634920671582,0.316188556929,0.0,0.0,0.0,0.0,0.00508685330593,Hybrid-Dynamic Alpha,2,Allway Blend,0.801179349422,doorway_assistance,2
1449618713965645675,0.751414782864,-0.0289884824767,0.0,0.0,0.0,-0.152637705278,0.988282212188,1449618713956435891,1,0.352,0.0,0.0,0.0,0.0,0.0210526315789,1,0.307301589966,0.0,0.0,0.0,0.0,0.00634920671582,0.31661113623,0.0,0.0,0.0,0.0,0.00941155756671,Hybrid-Dynamic Alpha,2,Allway Blend,0.791725337505,doorway_assistance,2
1449618713984309918,0.754151052763,-0.0298862777179,0.0,0.0,0.0,-0.157857657354,0.987461877753,1449618713983141721,1,0.352,0.0,0.0,0.0,0.0,0.0210526315789,1,0.307301589966,0.0,0.0,0.0,0.0,0.00634920671582,0.316672522819,0.0,0.0,0.0,0.0,0.00943175052436,Hybrid-Dynamic Alpha,2,Allway Blend,0.790351986885,doorway_assistance,2
1449618714026438546,0.75962359256,-0.0316818682003,0.0,0.0,0.0,-0.157857657354,0.987461877753,1449618714025810260,1,0.352,0.0,0.0,0.0,0.0,0.0210526315789,1,0.307301589966,0.0,0.0,0.0,0.0,0.00634920671582,0.316796132566,0.0,0.0,0.0,0.0,0.00947241162689,Hybrid-Dynamic Alpha,2,Allway Blend,0.787586569786,doorway_assistance,2
1449618714085587620,0.767803480564,-0.0344618530074,0.0,0.0,0.0,-0.163073201911,0.986613972544,1449618714080703614,1,0.352,0.0,0.0,0.0,0.0,0.0210526315789,1,0.307301589966,0.0,0.0,0.0,0.0,0.00634920671582,0.316983350873,0.0,0.0,0.0,0.0,0.00953399659835,Hybrid-Dynamic Alpha,2,Allway Blend,0.783398091793,doorway_assistance,2
1449618714157473632,0.773256739233,-0.0363151762122,0.0,0.0,0.0,-0.163073201911,0.986613972544,1449618714156168673,1,0.352,0.0,0.0,0.0,0.0,0.0210526315789,1,0.346412698746,0.0,0.0,0.0,0.0,0.00634920671582,0.347638692783,0.0,0.0,0.0,0.0,0.00957550692513,Hybrid-Dynamic Alpha,2,Allway Blend,0.780574917793,doorway_assistance,2
1449618714186252476,0.786860050663,-0.0410347728316,0.0,0.0,0.0,-0.168284193326,0.985738520236,1449618714184231169,1,0.352,0.0,0.0,0.0,0.0,0.0631578947368,1,0.346412698746,0.0,0.0,0.0,0.0,0.00634920671582,0.347678688246,0.0,0.0,0.0,0.0,0.0192211102172,Hybrid-Dynamic Alpha,2,Allway Blend,0.773416638374,doorway_assistance,2
1449618714236701700,0.789566486428,-0.042018853468,0.0,0.0,0.0,-0.173490486104,0.984835545272,1449618714236090608,1,0.352,0.0,0.0,0.0,0.0,0.0631578947368,1,0.307301589966,0.0,0.0,0.0,0.0,0.00634920671582,0.317494156245,0.0,0.0,0.0,0.0,0.0193032763896,Hybrid-Dynamic Alpha,2,Allway Blend,0.771970272064,doorway_assistance,2
1449618714332617512,0.79497935796,-0.0439870147409,0.0,0.0,0.0,-0.173490486104,0.984835545272,1449618714328608851,1,0.352,0.0,0.0,0.0,0.0,0.0631578947368,1,0.307301589966,0.0,0.0,0.0,0.0,0.00634920671582,0.317624264056,0.0,0.0,0.0,0.0,0.0194686347113,Hybrid-Dynamic Alpha,2,Allway Blend,0.769059479237,doorway_assistance,2
1449618714374379524,0.808458783042,-0.0490501492241,0.0,0.0,0.0,-0.17869193488,0.983905072865,1449618714372008492,1,0.352,0.0,0.0,0.0,0.0,0.0631578947368,1,0.346412698746,0.0,0.0,0.0,0.0,0.00634920671582,0.347744194739,0.0,0.0,0.0,0.0,0.0198871451615,Hybrid-Dynamic Alpha,2,Allway Blend,0.761692464352,doorway_assistance,2
1449618714402834436,0.813850553075,-0.0510754030174,0.0,0.0,0.0,-0.17869193488,0.983905072865,1449618714398632720,1,0.352,0.0,0.0,0.0,0.0,0.0631578947368,1,0.335238096237,0.0,0.0,0.0,0.0,0.0126984134316,0.339282667464,0.0,0.0,0.0,0.0,0.0248740570274,Hybrid-Dynamic Alpha,2,Allway Blend,0.758704543114,doorway_assistance,2
1449618714503735048,0.821905652626,-0.0541985832094,0.0,0.0,0.0,-0.183888394426,0.982947128993,1449618714502638636,1,0.352,0.0,0.0,0.0,0.0,0.0631578947368,1,0.335238096237,0.0,0.0,0.0,0.0,0.0126984134316,0.339358366312,0.0,0.0,0.0,0.0,0.0251019383386,Hybrid-Dynamic Alpha,2,Allway Blend,0.754188418388,doorway_assistance,2
1449618714546558639,0.84062282298,-0.0616842219509,0.0,0.0,0.0,-0.189079719651,0.981961740404,1449618714541415689,1,0.352,0.0,0.0,0.0,0.0,0.105263157895,1,0.335238096237,0.0,0.0,0.0,0.0,0.0126984134316,0.339537932276,0.0,0.0,0.0,0.0,0.0364435219699,Hybrid-Dynamic Alpha,2,Allway Blend,0.743475675583,doorway_assistance,2
1449618714583142493,0.848610116426,-0.0649769452449,0.0,0.0,0.0,-0.194265765611,0.98094893461,1449618714581167274,1,0.352,0.0,0.0,0.0,0.0,0.105263157895,1,0.346412698746,0.0,0.0,0.0,0.0,0.0126984134316,0.347872032957,0.0,0.0,0.0,0.0,0.0368751836042,Hybrid-Dynamic Alpha,2,Allway Blend,0.738812327385,doorway_assistance,2
1449618714666703732,0.853934978723,-0.0671720941075,0.0,0.0,0.0,-0.194265765611,0.98094893461,1449618714665895721,1,0.352,0.0,0.0,0.0,0.0,0.105263157895,1,0.346412698746,0.0,0.0,0.0,0.0,0.0126984134316,0.347889553951,0.0,0.0,0.0,0.0,0.0371654536806,Hybrid-Dynamic Alpha,2,Allway Blend,0.735676467419,doorway_assistance,2
1449618714689629993,0.867188396078,-0.0728003407055,0.0,0.0,0.0,-0.199446387505,0.979908739889,1449618714689226502,1,0.352,0.0,0.0,0.0,0.0,0.105263157895,1,0.346412698746,0.0,0.0,0.0,0.0,0.0126984134316,0.347933763898,0.0,0.0,0.0,0.0,0.0378978792745,Hybrid-Dynamic Alpha,2,Allway Blend,0.72776389122,doorway_assistance,2
1449618714801822044,0.867188396078,-0.0728003407055,0.0,0.0,0.0,-0.199446387505,0.979908739889,1449618714791187144,1,0.352,0.0,0.0,0.0,0.0,0.105263157895,1,0.346412698746,0.0,0.0,0.0,0.0,0.0126984134316,0.347933763898,0.0,0.0,0.0,0.0,0.0378978792745,Hybrid-Dynamic Alpha,2,Allway Blend,0.72776389122,doorway_assistance,2
1449618714854863528,0.890936153899,-0.0831827271371,0.0,0.0,0.0,-0.204621440688,0.978841185285,1449618714853806419,1,0.352,0.0,0.0,0.0,0.0,0.105263157895,1,0.346412698746,0.0,0.0,0.0,0.0,0.0126984134316,0.348014913766,0.0,0.0,0.0,0.0,0.0392422880496,Hybrid-Dynamic Alpha,2,Allway Blend,0.713239908218,doorway_assistance,2
1449618714926218528,0.898815057963,-0.0867269836221,0.0,0.0,0.0,-0.209790780666,0.977746300606,1449618714923719124,1,0.352,0.0,0.0,0.0,0.0,0.105263157895,1,0.346412698746,0.0,0.0,0.0,0.0,0.0126984134316,0.348042374014,0.0,0.0,0.0,0.0,0.0396972216077,Hybrid-Dynamic Alpha,2,Allway Blend,0.708325147629,doorway_assistance,2
1449618714959493481,0.914572866092,-0.093815496592,0.0,0.0,0.0,-0.209790780666,0.977746300606,1449618714958278493,1,0.352,0.0,0.0,0.0,0.0,0.105263157895,1,0.346412698746,0.0,0.0,0.0,0.0,0.0126984134316,0.348097984214,0.0,0.0,0.0,0.0,0.0406185150288,Hybrid-Dynamic Alpha,2,Allway Blend,0.69837218523,doorway_assistance,2
1449618715008284743,0.927641214288,-0.0998610326935,0.0,0.0,0.0,-0.214954263107,0.976624116419,1449618715006181298,1,0.352,0.0,0.0,0.0,0.0,0.147368421053,1,0.346412698746,0.0,0.0,0.0,0.0,0.0126984134316,0.348144859392,0.0,0.0,0.0,0.0,0.054448459987,Hybrid-Dynamic Alpha,2,Allway Blend,0.68998259306,doorway_assistance,2
1449618715120745796,0.935443452356,-0.103571014422,0.0,0.0,0.0,-0.220111743843,0.97547466406,1449618715093518178,1,0.352,0.0,0.0,0.0,0.0,0.147368421053,1,0.346412698746,0.0,0.0,0.0,0.0,0.0126984134316,0.348173173194,0.0,0.0,0.0,0.0,0.0551309039263,Hybrid-Dynamic Alpha,2,Allway Blend,0.684915065765,doorway_assistance,2
1449618715194839439,0.953609032288,-0.11230988418,0.0,0.0,0.0,-0.225263078873,0.97429797562,1449618715194208343,1,0.352,0.0,0.0,0.0,0.0,0.147368421053,1,0.340825397491,0.0,0.0,0.0,0.0,0.0126984134316,0.344479799144,0.0,0.0,0.0,0.0,0.0567392012783,Hybrid-Dynamic Alpha,2,Allway Blend,0.672972559929,doorway_assistance,2
1449618715274080204,0.984659415658,-0.127478793999,0.0,0.0,0.0,-0.225263078873,0.97429797562,1449618715272845085,1,0.352,0.0,0.0,0.0,0.0,0.147368421053,1,0.340825397491,0.0,0.0,0.0,0.0,0.0126984134316,0.344712557183,0.0,0.0,0.0,0.0,0.0595442699013,Hybrid-Dynamic Alpha,2,Allway Blend,0.652143359184,doorway_assistance,2
1449618715321929978,1.0078796879,-0.138991846698,0.0,0.0,0.0,-0.230408124366,0.973094083954,1449618715319786281,1,0.352,0.0,0.0,0.0,0.0,0.147368421053,1,0.346412698746,0.0,0.0,0.0,0.0,0.0126984134316,0.348444954251,0.0,0.0,0.0,0.0,0.061681607999,Hybrid-Dynamic Alpha,2,Allway Blend,0.63627243042,doorway_assistance,2
1449618715353765346,1.01302774568,-0.141574546469,0.0,0.0,0.0,-0.230408124366,0.973094083954,1449618715353041439,1,0.352,0.0,0.0,0.0,0.0,0.147368421053,1,0.346412698746,0.0,0.0,0.0,0.0,0.0126984134316,0.348464783471,0.0,0.0,0.0,0.0,0.0621595491302,Hybrid-Dynamic Alpha,2,Allway Blend,0.632723450661,doorway_assistance,2
1449618715432757354,1.02847191902,-0.14932264578,0.0,0.0,0.0,-0.230408124366,0.973094083954,1449618715429112851,1,0.352,0.0,0.0,0.0,0.0,0.147368421053,1,0.340825397491,0.0,0.0,0.0,0.0,0.0126984134316,0.345049126388,0.0,0.0,0.0,0.0,0.063600412166,Hybrid-Dynamic Alpha,2,Allway Blend,0.62202423811,doorway_assistance,2
1449618715477313313,1.04644874966,-0.158443484513,0.0,0.0,0.0,-0.235546736669,0.971863022676,1449618715477018298,1,0.352,0.0,0.0,0.0,0.0,0.147368421053,1,0.340825397491,0.0,0.0,0.0,0.0,0.0126984134316,0.345189342299,0.0,0.0,0.0,0.0,0.0652902152492,Hybrid-Dynamic Alpha,2,Allway Blend,0.60947650671,doorway_assistance,2
1449618715603013927,1.05917955912,-0.165170796139,0.0,0.0,0.0,-0.240678772307,0.970604826158,1449618715602324395,1,0.352,0.0,0.0,0.0,0.0,0.189473684211,1,0.346412698746,0.0,0.0,0.0,0.0,0.0190476194024,0.348644691122,0.0,0.0,0.0,0.0,0.0871287304994,Hybrid-Dynamic Alpha,2,Allway Blend,0.600524067879,doorway_assistance,2
1449618715647303836,1.08980388417,-0.181181431069,0.0,0.0,0.0,-0.240678772307,0.970604826158,1449618715646403189,1,0.352,0.0,0.0,0.0,0.0,0.189473684211,1,0.346412698746,0.0,0.0,0.0,0.0,0.0190476194024,0.348765488439,0.0,0.0,0.0,0.0,0.0908133378565,Hybrid-Dynamic Alpha,2,Allway Blend,0.578904092312,doorway_assistance,2
1449618715719776848,1.10508085553,-0.18925420502,0.0,0.0,0.0,-0.240678772307,0.970604826158,1449618715718048136,1,0.352,0.0,0.0,0.0,0.0,0.189473684211,1,0.346412698746,0.0,0.0,0.0,0.0,0.0126984134316,0.348825932556,0.0,0.0,0.0,0.0,0.0890501333042,Hybrid-Dynamic Alpha,2,Allway Blend,0.568085968494,doorway_assistance,2
1449618715769054882,1.12280346298,-0.198860267603,0.0,0.0,0.0,-0.24580408799,0.96931952953,1449618715766752981,1,0.352,0.0,0.0,0.0,0.0,0.189473684211,1,0.346412698746,0.0,0.0,0.0,0.0,0.0126984134316,0.34889613609,0.0,0.0,0.0,0.0,0.0912712859321,Hybrid-Dynamic Alpha,2,Allway Blend,0.555521130562,doorway_assistance,2
1449618715811423653,1.13799426937,-0.207094035531,0.0,0.0,0.0,-0.24580408799,0.96931952953,1449618715809462517,1,0.352,0.0,0.0,0.0,0.0,0.189473684211,1,0.346412698746,0.0,0.0,0.0,0.0,0.0126984134316,0.348956209546,0.0,0.0,0.0,0.0,0.0931719354331,Hybrid-Dynamic Alpha,2,Allway Blend,0.544769346714,doorway_assistance,2
1449618715963515939,1.1430578715,-0.209838624841,0.0,0.0,0.0,-0.24580408799,0.96931952953,1449618715962083984,1,0.352,0.0,0.0,0.0,0.0,0.189473684211,1,0.346412698746,0.0,0.0,0.0,0.0,0.0126984134316,0.348976199618,0.0,0.0,0.0,0.0,0.093804396482,Hybrid-Dynamic Alpha,2,Allway Blend,0.541191577911,doorway_assistance,2
1449618716011848636,1.18863029068,-0.234539928627,0.0,0.0,0.0,-0.24580408799,0.96931952953,1449618716009420767,1,0.352,0.0,0.0,0.0,0.0,0.189473684211,1,0.346412698746,0.0,0.0,0.0,0.0,0.00634920671582,0.349154812453,0.0,0.0,0.0,0.0,0.0962223166386,Hybrid-Dynamic Alpha,2,Allway Blend,0.509223937988,doorway_assistance,2
1449618716155009236,1.19618176312,-0.238736849795,0.0,0.0,0.0,-0.250922540614,0.968007168678,1449618716153929165,1,0.352,0.0,0.0,0.0,0.0,0.231578947368,1,0.346412698746,0.0,0.0,0.0,0.0,0.0126984134316,0.349184133334,0.0,0.0,0.0,0.0,0.121268375009,Hybrid-Dynamic Alpha,2,Allway Blend,0.503976166248,doorway_assistance,2
1449618716192673238,1.2391491633,-0.262199254267,0.0,0.0,0.0,-0.24580408799,0.96931952953,1449618716191865462,1,0.352,0.0,0.0,0.0,0.0,0.231578947368,1,0.340825397491,0.0,0.0,0.0,0.0,0.0126984134316,0.346697014353,0.0,0.0,0.0,0.0,0.127707661652,Hybrid-Dynamic Alpha,2,Allway Blend,0.474556982517,doorway_assistance,2
1449618716230602220,1.2517349507,-0.269194122881,0.0,0.0,0.0,-0.250922540614,0.968007168678,1449618716229897079,1,0.352,0.0,0.0,0.0,0.0,0.231578947368,1,0.346412698746,0.0,0.0,0.0,0.0,0.00634920671582,0.34939577866,0.0,0.0,0.0,0.0,0.126600578357,Hybrid-Dynamic Alpha,2,Allway Blend,0.466094583273,doorway_assistance,2
1449618716258319571,1.26180358061,-0.274790017773,0.0,0.0,0.0,-0.250922540614,0.968007168678,1449618716257825624,1,0.352,0.0,0.0,0.0,0.0,0.231578947368,1,0.346412698746,0.0,0.0,0.0,0.0,0.00634920671582,0.34943326708,0.0,0.0,0.0,0.0,0.128111774341,Hybrid-Dynamic Alpha,2,Allway Blend,0.45938500762,doorway_assistance,2
1449618716354057970,1.26180358061,-0.274790017773,0.0,0.0,0.0,-0.250922540614,0.968007168678,1449618716350289976,1,0.352,0.0,0.0,0.0,0.0,0.273684210526,1,0.301714288712,0.0,0.0,0.0,0.0,0.0126984134316,0.328899487646,0.0,0.0,0.0,0.0,0.153791239983,Hybrid-Dynamic Alpha,2,Allway Blend,0.45938500762,doorway_assistance,2
1449618716384763667,1.29211197547,-0.291390948971,0.0,0.0,0.0,-0.250922540614,0.968007168678,1449618716384389420,1,0.352,0.0,0.0,0.0,0.0,0.273684210526,1,0.301714288712,0.0,0.0,0.0,0.0,0.0126984134316,0.329897030377,0.0,0.0,0.0,0.0,0.158968452805,Hybrid-Dynamic Alpha,2,Allway Blend,0.439547926188,doorway_assistance,2
1449618716411833926,1.29211197547,-0.291390948971,0.0,0.0,0.0,-0.250922540614,0.968007168678,1449618716409992656,1,0.352,0.0,0.0,0.0,0.0,0.273684210526,1,0.346412698746,0.0,0.0,0.0,0.0,0.0126984134316,0.349544123811,0.0,0.0,0.0,0.0,0.158968452805,Hybrid-Dynamic Alpha,2,Allway Blend,0.439547926188,doorway_assistance,2
1449618716478472823,1.29970737866,-0.295507832935,0.0,0.0,0.0,-0.24580408799,0.96931952953,1449618716476986534,1,0.352,0.0,0.0,0.0,0.0,0.315789473684,1,0.346412698746,0.0,0.0,0.0,0.0,0.0126984134316,0.352,0.0,0.0,0.0,0.0,0.315789473684,Linear,2,Allway Blend,0.0,user,0
1449618716529760209,1.31996178719,-0.306486190173,0.0,0.0,0.0,-0.24580408799,0.96931952953,1449618716527455660,1,0.352,0.0,0.0,0.0,0.0,0.315789473684,1,0.296126987457,0.0,0.0,0.0,0.0,0.00634920671582,0.352,0.0,0.0,0.0,0.0,0.315789473684,Linear,2,Allway Blend,0.0,user,0
1449618716592605774,1.33008899145,-0.311975368792,0.0,0.0,0.0,-0.24580408799,0.96931952953,1449618716590694438,1,0.352,0.0,0.0,0.0,0.0,0.315789473684,1,0.296126987457,0.0,0.0,0.0,0.0,0.00634920671582,0.352,0.0,0.0,0.0,0.0,0.315789473684,Linear,2,Allway Blend,0.0,user,0
1449618716645781869,1.35294700517,-0.324191859037,0.0,0.0,0.0,-0.240678772307,0.970604826158,1449618716644285708,1,0.352,0.0,0.0,0.0,0.0,0.315789473684,1,0.346412698746,0.0,0.0,0.0,0.0,0.0126984134316,0.352,0.0,0.0,0.0,0.0,0.315789473684,Linear,2,Allway Blend,0.0,user,0
1449618716767992834,1.36054240837,-0.328308743001,0.0,0.0,0.0,-0.24580408799,0.96931952953,1449618716767006514,1,0.352,0.0,0.0,0.0,0.0,0.273684210526,1,0.346412698746,0.0,0.0,0.0,0.0,0.0126984134316,0.352,0.0,0.0,0.0,0.0,0.273684210526,Linear,2,Allway Blend,0.0,user,0
1449618716896136809,1.39113858048,-0.34437334312,0.0,0.0,0.0,-0.235546736669,0.971863022676,1449618716892810232,1,0.352,0.0,0.0,0.0,0.0,0.273684210526,1,0.296126987457,0.0,0.0,0.0,0.0,0.00634920671582,0.352,0.0,0.0,0.0,0.0,0.273684210526,Linear,2,Allway Blend,0.0,user,0
1449618716958915875,1.42201227421,-0.359896238924,0.0,0.0,0.0,-0.225263078873,0.97429797562,1449618716957177919,1,0.352,0.0,0.0,0.0,0.0,0.273684210526,1,0.346412698746,0.0,0.0,0.0,0.0,0.0126984134316,0.352,0.0,0.0,0.0,0.0,0.273684210526,Linear,2,Allway Blend,0.0,user,0
1449618716981880394,1.44536613211,-0.371135845077,0.0,0.0,0.0,-0.220111743843,0.97547466406,1449618716980586071,1,0.352,0.0,0.0,0.0,0.0,0.273684210526,1,0.296126987457,0.0,0.0,0.0,0.0,0.0126984134316,0.352,0.0,0.0,0.0,0.0,0.273684210526,Linear,2,Allway Blend,0.0,user,0
1449618717025572780,1.44536613211,-0.371135845077,0.0,0.0,0.0,-0.220111743843,0.97547466406,1449618717021313537,1,0.352,0.0,0.0,0.0,0.0,0.273684210526,1,0.346412698746,0.0,0.0,0.0,0.0,0.00634920671582,0.352,0.0,0.0,0.0,0.0,0.273684210526,Linear,2,Allway Blend,0.0,user,0
1449618717058126860,1.4557691162,-0.376082487381,0.0,0.0,0.0,-0.220111743843,0.97547466406,1449618717056809642,1,0.352,0.0,0.0,0.0,0.0,0.273684210526,1,0.346412698746,0.0,0.0,0.0,0.0,0.00634920671582,0.352,0.0,0.0,0.0,0.0,0.273684210526,Linear,2,Allway Blend,0.0,user,0
1449618717083616853,1.46617210029,-0.381029129685,0.0,0.0,0.0,-0.220111743843,0.97547466406,1449618717081845446,1,0.352,0.0,0.0,0.0,0.0,0.273684210526,1,0.346412698746,0.0,0.0,0.0,0.0,0.0126984134316,0.352,0.0,0.0,0.0,0.0,0.273684210526,Linear,2,Allway Blend,0.0,user,0
1449618717173118937,1.47401310921,-0.384656451346,0.0,0.0,0.0,-0.214954263107,0.976624116419,1449618717172534616,1,0.352,0.0,0.0,0.0,0.0,0.315789473684,1,0.346412698746,0.0,0.0,0.0,0.0,0.0126984134316,0.352,0.0,0.0,0.0,0.0,0.315789473684,Linear,2,Allway Blend,0.0,user,0
1449618717197731195,1.50033781477,-0.396331537949,0.0,0.0,0.0,-0.204621440688,0.978841185285,1449618717194345282,1,0.352,0.0,0.0,0.0,0.0,0.315789473684,1,0.346412698746,0.0,0.0,0.0,0.0,0.0126984134316,0.352,0.0,0.0,0.0,0.0,0.315789473684,Linear,2,Allway Blend,0.0,user,0
1449618717244721198,1.51359123213,-0.401959784547,0.0,0.0,0.0,-0.199446387505,0.979908739889,1449618717243784897,1,0.352,0.0,0.0,0.0,0.0,0.315789473684,1,0.346412698746,0.0,0.0,0.0,0.0,0.0126984134316,0.352,0.0,0.0,0.0,0.0,0.315789473684,Linear,2,Allway Blend,0.0,user,0
1449618717304483473,1.51889259907,-0.404211083187,0.0,0.0,0.0,-0.199446387505,0.979908739889,1449618717301049189,1,0.352,0.0,0.0,0.0,0.0,0.315789473684,1,0.346412698746,0.0,0.0,0.0,0.0,0.0126984134316,0.352,0.0,0.0,0.0,0.0,0.315789473684,Linear,2,Allway Blend,0.0,user,0
1449618717343332854,1.53220475481,-0.409698955343,0.0,0.0,0.0,-0.194265765611,0.98094893461,1449618717342675959,1,0.352,0.0,0.0,0.0,0.0,0.315789473684,1,0.346412698746,0.0,0.0,0.0,0.0,0.0126984134316,0.352,0.0,0.0,0.0,0.0,0.315789473684,Linear,2,Allway Blend,0.0,user,0
1449618717379396402,1.54557416221,-0.415045840159,0.0,0.0,0.0,-0.189079719651,0.981961740404,1449618717377605177,1,0.352,0.0,0.0,0.0,0.0,0.315789473684,1,0.340825397491,0.0,0.0,0.0,0.0,0.0190476194024,0.352,0.0,0.0,0.0,0.0,0.315789473684,Linear,2,Allway Blend,0.0,user,0
1449618717456122438,1.55626968813,-0.419323348011,0.0,0.0,0.0,-0.189079719651,0.981961740404,1449618717449461298,1,0.352,0.0,0.0,0.0,0.0,0.315789473684,1,0.340825397491,0.0,0.0,0.0,0.0,0.0190476194024,0.352,0.0,0.0,0.0,0.0,0.315789473684,Linear,2,Allway Blend,0.0,user,0
1449618717484638607,1.58317427913,-0.429591782814,0.0,0.0,0.0,-0.17869193488,0.983905072865,1449618717481148668,1,0.352,0.0,0.0,0.0,0.0,0.315789473684,1,0.340825397491,0.0,0.0,0.0,0.0,0.0190476194024,0.352,0.0,0.0,0.0,0.0,0.315789473684,Linear,2,Allway Blend,0.0,user,0
1449618717516496206,1.59129358642,-0.432544024723,0.0,0.0,0.0,-0.173490486104,0.984835545272,1449618717515602645,1,0.352,0.0,0.0,0.0,0.0,0.273684210526,1,0.346412698746,0.0,0.0,0.0,0.0,0.0126984134316,0.352,0.0,0.0,0.0,0.0,0.273684210526,Linear,2,Allway Blend,0.0,user,0
1449618717575287929,1.60487700769,-0.437321147081,0.0,0.0,0.0,-0.168284193326,0.985738520236,1449618717574781934,1,0.352,0.0,0.0,0.0,0.0,0.273684210526,1,0.346412698746,0.0,0.0,0.0,0.0,0.0126984134316,0.352,0.0,0.0,0.0,0.0,0.273684210526,Linear,2,Allway Blend,0.0,user,0
1449618717598895301,1.61305689569,-0.440101131888,0.0,0.0,0.0,-0.163073201911,0.986613972544,1449618717597840913,1,0.352,0.0,0.0,0.0,0.0,0.273684210526,1,0.346412698746,0.0,0.0,0.0,0.0,0.0126984134316,0.352,0.0,0.0,0.0,0.0,0.273684210526,Linear,2,Allway Blend,0.0,user,0
1449618717632578055,1.62396341303,-0.443807778298,0.0,0.0,0.0,-0.163073201911,0.986613972544,1449618717631641770,1,0.352,0.0,0.0,0.0,0.0,0.273684210526,1,0.346412698746,0.0,0.0,0.0,0.0,0.0126984134316,0.352,0.0,0.0,0.0,0.0,0.273684210526,Linear,2,Allway Blend,0.0,user,0
1449618717645749988,1.63764476253,-0.448296754504,0.0,0.0,0.0,-0.157857657354,0.987461877753,1449618717645340346,1,0.352,0.0,0.0,0.0,0.0,0.273684210526,1,0.346412698746,0.0,0.0,0.0,0.0,0.0126984134316,0.352,0.0,0.0,0.0,0.0,0.273684210526,Linear,2,Allway Blend,0.0,user,0
1449618717757800227,1.63764476253,-0.448296754504,0.0,0.0,0.0,-0.157857657354,0.987461877753,1449618717752450091,1,0.352,0.0,0.0,0.0,0.0,0.273684210526,1,0.346412698746,0.0,0.0,0.0,0.0,0.0126984134316,0.352,0.0,0.0,0.0,0.0,0.273684210526,Linear,2,Allway Blend,0.0,user,0
