%time,field.linear.x,field.linear.y,field.linear.z,field.angular.x,field.angular.y,field.angular.z
1449618703937289808,0.0,0.0,0.0,0.0,0.0,0.0
1449618703978007704,0.0,0.0,0.0,0.0,0.0,0.0
1449618704017725105,0.0,0.0,0.0,0.0,0.0,0.0
1449618704057290619,0.0,0.0,0.0,0.0,0.0,0.0
1449618704097289822,0.0,0.0,0.0,0.0,0.0,0.0
1449618704137259542,0.0,0.0,0.0,0.0,0.0,0.0
1449618704178464301,0.0,0.0,0.0,0.0,0.0,0.0
1449618704217509867,0.0,0.0,0.0,0.0,0.0,0.0
1449618704257498296,0.0,0.0,0.0,0.0,0.0,0.0
1449618704297681164,0.0,0.0,0.0,0.0,0.0,0.0
1449618704337480121,0.0,0.0,0.0,0.0,0.0,0.0
1449618704377665104,0.0,0.0,0.0,0.0,0.0,0.0
1449618704419150767,0.0,0.0,0.0,0.0,0.0,0.0
1449618704457306577,0.0,0.0,0.0,0.0,0.0,0.0
1449618704497428178,0.0,0.0,0.0,0.0,0.0,0.0
1449618704537468035,0.0,0.0,0.0,0.0,0.0,0.0
1449618704577436195,0.0,0.0,0.0,0.0,0.0,0.0
1449618704619129275,0.0,0.0,0.0,0.0,0.0,0.0
1449618704657320261,0.0,0.0,0.0,0.0,0.0,0.0
1449618704697711195,0.0,0.0,0.0,0.0,0.0,0.0
1449618704737400626,0.0,0.0,0.0,0.0,0.0,0.0
1449618704777448535,0.0,0.0,0.0,0.0,0.0,0.0
1449618704817388413,0.0,0.0,0.0,0.0,0.0,0.0
1449618704857562945,0.0,0.0,0.0,0.0,0.0,0.0
1449618704897652583,0.0,0.0,0.0,0.0,0.0,0.0
1449618704938015254,0.0,0.0,0.0,0.0,0.0,0.0
1449618704978031437,0.0,0.0,0.0,0.0,0.0,0.0
1449618705018951890,0.0,0.0,0.0,0.0,0.0,0.0
1449618705060013885,0.0,0.0,0.0,0.0,0.0,0.0
1449618705099538645,0.0,0.0,0.0,0.0,0.0,0.0
1449618705137723887,0.0,0.0,0.0,0.0,0.0,0.0
1449618705177394193,0.0,0.0,0.0,0.0,0.0,0.0
1449618705217550237,0.0,0.0,0.0,0.0,0.0,0.0
1449618705257600883,0.0,0.0,0.0,0.0,0.0,0.0
1449618705297674576,0.0,0.0,0.0,0.0,0.0,0.0
1449618705339301080,0.0,0.0,0.0,0.0,0.0,0.0
1449618705377687647,0.0,0.0,0.0,0.0,0.0,0.0
1449618705417797973,0.0,0.0,0.0,0.0,0.0,0.0
1449618705457984808,0.0,0.0,0.0,0.0,0.0,0.0
1449618705498162670,0.0,0.0,0.0,0.0,0.0,0.0
1449618705537748925,0.0,0.0,0.0,0.0,0.0,0.0
1449618705577845838,0.0,0.0,0.0,0.0,0.0,0.0
1449618705619988794,0.0,0.0,0.0,0.0,0.0,0.0
1449618705658420434,0.0,0.0,0.0,0.0,0.0,0.0
1449618705697908906,0.0,0.0,0.0,0.0,0.0,0.0
1449618705737800023,0.0,0.0,0.0,0.0,0.0,0.0
1449618705778302544,0.0,0.0,0.0,0.0,0.0,0.0
1449618705817811568,0.0,0.0,0.0,0.0,0.0,0.0
1449618705858046906,0.0,0.0,0.0,0.0,0.0,0.0
1449618705897882112,0.0,0.0,0.0,0.0,0.0,0.0
1449618705937781355,0.0,0.0,0.0,0.0,0.0,0.0
1449618705977765678,0.0,0.0,0.0,0.0,0.0,0.0
1449618706017549207,0.0,0.0,0.0,0.0,0.0,0.0
1449618706057563782,0.0,0.0,0.0,0.0,0.0,0.0
1449618706098120522,0.0,0.0,0.0,0.0,0.0,0.0
1449618706137677104,0.0,0.0,0.0,0.0,0.0,0.0
1449618706181249894,0.0,0.0,0.0,0.0,0.0,0.0
1449618706219234646,0.0,0.0,0.0,0.0,0.0,0.0
1449618706257543826,0.0,0.0,0.0,0.0,0.0,0.0
1449618706297958640,0.0,0.0,0.0,0.0,0.0,0.0
1449618706338032859,0.0,0.0,0.0,0.0,0.0,0.0
1449618706378228961,0.0,0.0,0.0,0.0,0.0,0.0
1449618706417927824,0.0,0.0,0.0,0.0,0.0,0.0
1449618706458045077,0.0,0.0,0.0,0.0,0.0,0.0
1449618706497583057,0.0,0.0,0.0,0.0,0.0,0.0
1449618706538401386,0.0,0.0,0.0,0.0,0.0,0.0
1449618706579219426,0.0,0.0,0.0,0.0,0.0,0.0
1449618706617843109,0.0,0.0,0.0,0.0,0.0,0.0
1449618706657546703,0.0,0.0,0.0,0.0,0.0,0.0
1449618706697906891,0.0,0.0,0.0,0.0,0.0,0.0
1449618706737807130,0.0,0.0,0.0,0.0,0.0,0.0
1449618706778275056,0.0,0.0,0.0,0.0,0.0,0.0
1449618706817673753,0.0,0.0,0.0,0.0,0.0,0.0
1449618706858196841,0.0,0.0,0.0,0.0,0.0,0.0
1449618706897817195,0.0,0.0,0.0,0.0,0.0,0.0
1449618706939157487,-0.0,0.0,0.0,0.0,0.0,-0.0
1449618706977616481,-0.0,0.0,0.0,0.0,0.0,-0.0
1449618707017559104,-0.0,0.0,0.0,0.0,0.0,-0.0
1449618707062575551,-0.0,0.0,0.0,0.0,0.0,-0.0
1449618707098660968,-0.0,0.0,0.0,0.0,0.0,-0.0
1449618707137481703,-0.0,0.0,0.0,0.0,0.0,-0.0
1449618707178693930,-0.0,0.0,0.0,0.0,0.0,-0.0
1449618707217797654,-0.0,0.0,0.0,0.0,0.0,-0.0
1449618707257467601,-0.0,0.0,0.0,0.0,0.0,-0.0
1449618707298165347,-0.0,0.0,0.0,0.0,0.0,-0.0
1449618707340258412,-0.0,0.0,0.0,0.0,0.0,-0.0
1449618707377689388,-0.0,0.0,0.0,0.0,0.0,-0.0
1449618707418038019,-0.0,0.0,0.0,0.0,0.0,-0.0
1449618707457910687,-0.0,0.0,0.0,0.0,0.0,-0.0
1449618707498433915,-0.0,0.0,0.0,0.0,0.0,-0.0
1449618707538562616,-0.0,0.0,0.0,0.0,0.0,-0.0
1449618707577417554,-0.0,0.0,0.0,0.0,0.0,-0.0
1449618707617824808,-0.0,0.0,0.0,0.0,0.0,-0.0
1449618707657502686,-0.0,0.0,0.0,0.0,0.0,-0.0
1449618707697957115,-0.0,0.0,0.0,0.0,0.0,-0.0
1449618707737767496,-0.0,0.0,0.0,0.0,0.0,-0.0
1449618707778480951,-0.0,0.0,0.0,0.0,0.0,-0.0
1449618707818493693,-0.0,0.0,0.0,0.0,0.0,-0.0
1449618707858813144,-0.0,0.0,0.0,0.0,0.0,-0.0
1449618707898190146,-0.0,0.0,0.0,0.0,0.0,-0.0
1449618707944765813,-0.0,0.0,0.0,0.0,0.0,-0.0
1449618707977506513,-0.0,0.0,0.0,0.0,0.0,-0.0
1449618708017669183,-0.0,0.0,0.0,0.0,0.0,-0.0
1449618708057974124,-0.0,0.0,0.0,0.0,0.0,-0.0
1449618708098099888,-0.0,0.0,0.0,0.0,0.0,-0.0
1449618708138429342,-0.0,0.0,0.0,0.0,0.0,-0.0
1449618708179442737,-0.0,0.0,0.0,0.0,0.0,-0.0
1449618708218988378,-0.0,0.0,0.0,0.0,0.0,-0.0
1449618708257822677,-0.0,0.0,0.0,0.0,0.0,-0.0
1449618708297628508,-0.0,0.0,0.0,0.0,0.0,-0.0
1449618708337818973,-0.0,0.0,0.0,0.0,0.0,-0.0
1449618708377722506,-0.0,0.0,0.0,0.0,0.0,-0.0
1449618708417931426,-0.0,0.0,0.0,0.0,0.0,-0.0
1449618708462892514,-0.0,0.0,0.0,0.0,0.0,-0.0
1449618708497646695,-0.0,0.0,0.0,0.0,0.0,-0.0
1449618708538410434,-0.0,0.0,0.0,0.0,0.0,-0.0
1449618708577563755,-0.0,0.0,0.0,0.0,0.0,-0.0
1449618708617350998,-0.0,0.0,0.0,0.0,0.0,-0.0
1449618708657676866,-0.0,0.0,0.0,0.0,0.0,-0.0
1449618708701376934,-0.0,0.0,0.0,0.0,0.0,-0.0
1449618708737880207,-0.0,0.0,0.0,0.0,0.0,-0.0
1449618708778162094,-0.0,0.0,0.0,0.0,0.0,-0.0
1449618708817543087,-0.0,0.0,0.0,0.0,0.0,-0.0
1449618708858468434,-0.0,0.0,0.0,0.0,0.0,-0.0
1449618708897780042,-0.0,0.0,0.0,0.0,0.0,-0.0
1449618708937646895,-0.0,0.0,0.0,0.0,0.0,-0.0
1449618708977791027,-0.0,0.0,0.0,0.0,0.0,-0.0
1449618709017729611,-0.0,0.0,0.0,0.0,0.0,-0.0
1449618709057740442,-0.0,0.0,0.0,0.0,0.0,-0.0
1449618709097844443,-0.0,0.0,0.0,0.0,0.0,-0.0
1449618709138626427,-0.0,0.0,0.0,0.0,0.0,-0.0
1449618709178138010,0.00558730190992,0.0,0.0,0.0,0.0,0.0
1449618709219759521,0.00558730190992,0.0,0.0,0.0,0.0,0.0
1449618709257892038,0.128507939339,0.0,0.0,0.0,0.0,-0.00634920671582
1449618709297907176,0.128507939339,0.0,0.0,0.0,0.0,-0.00634920671582
1449618709337710204,0.259809524059,0.0,0.0,0.0,0.0,-0.00952381007373
1449618709377693726,0.259809524059,0.0,0.0,0.0,0.0,-0.00952381007373
1449618709418123819,0.259809524059,0.0,0.0,0.0,0.0,-0.00952381007373
1449618709460055355,0.259809524059,0.0,0.0,0.0,0.0,-0.00952381007373
1449618709498019389,0.226285716534,0.0,0.0,0.0,0.0,-0.00476190503687
1449618709537777626,0.226285716534,0.0,0.0,0.0,0.0,-0.00476190503687
1449618709580220656,0.259809524059,0.0,0.0,0.0,0.0,-0.00952381007373
1449618709617741615,0.259809524059,0.0,0.0,0.0,0.0,-0.00952381007373
1449618709659298540,0.222095240593,0.0,0.0,0.0,0.0,-0.00476190503687
1449618709697980317,0.222095240593,0.0,0.0,0.0,0.0,-0.00476190503687
1449618709737826865,0.252095240593,0.0,0.0,0.0,0.0,-0.0100250629316
1449618709777718765,0.233206349373,0.0,0.0,0.0,0.0,-0.0168755225053
1449618709817471271,0.233206349373,0.0,0.0,0.0,0.0,-0.0168755225053
1449618709858184175,0.273410774567,0.0,0.0,0.0,0.0,-0.0100250629316
1449618709897686614,0.273410774567,0.0,0.0,0.0,0.0,-0.0100250629316
1449618709937744618,0.267456465439,0.0,0.0,0.0,0.0,-0.0168755225053
1449618709980014392,0.267456465439,0.0,0.0,0.0,0.0,-0.0168755225053
1449618710017635445,0.267456465439,0.0,0.0,0.0,0.0,-0.0168755225053
1449618710057699211,0.29017267833,0.0,0.0,0.0,0.0,-0.0147869679685
1449618710097533153,0.29017267833,0.0,0.0,0.0,0.0,-0.0147869679685
1449618710138008784,0.267456465439,0.0,0.0,0.0,0.0,-0.0168755225053
1449618710179996252,0.267456465439,0.0,0.0,0.0,0.0,-0.0168755225053
1449618710219275210,0.267456465439,0.0,0.0,0.0,0.0,-0.0168755225053
1449618710257574009,0.267456465439,0.0,0.0,0.0,0.0,-0.0168755225053
1449618710298240176,0.266976617478,0.0,0.0,0.0,0.0,-0.0168755225053
1449618710338796607,0.266976617478,0.0,0.0,0.0,0.0,-0.0168755225053
1449618710378485371,0.266976617478,0.0,0.0,0.0,0.0,-0.0168755225053
1449618710417954390,0.266976617478,0.0,0.0,0.0,0.0,-0.0168755225053
1449618710457818309,0.266016838411,0.0,0.0,0.0,0.0,-0.0168755225053
1449618710498425009,0.266016838411,0.0,0.0,0.0,0.0,-0.0168755225053
1449618710539346514,0.266016838411,0.0,0.0,0.0,0.0,-0.0168755225053
1449618710577774616,0.266016838411,0.0,0.0,0.0,0.0,-0.0168755225053
1449618710621501389,0.265057149864,0.0,0.0,0.0,0.0,-0.0168755225053
1449618710657803030,0.264577449662,0.0,0.0,0.0,0.0,-0.0168755225053
1449618710698716853,0.264577449662,0.0,0.0,0.0,0.0,-0.0168755225053
1449618710739285027,0.34071993881,0.0,0.0,0.0,0.0,-0.0129839659644
1449618710777489848,0.340625700769,0.0,0.0,0.0,0.0,-0.0129886930057
1449618710817816887,0.340625700769,0.0,0.0,0.0,0.0,-0.0129886930057
1449618710857496953,0.33959710583,0.0,0.0,0.0,0.0,-0.0130363936477
1449618710919975834,0.334018929548,0.0,0.0,0.0,0.0,-0.0130475193491
1449618710937738832,0.346649987313,0.0,0.0,0.0,0.0,-0.0202059289118
1449618710979274702,0.346649987313,0.0,0.0,0.0,0.0,-0.0202059289118
1449618711020753860,0.34658854644,0.0,0.0,0.0,0.0,-0.0169368479117
1449618711057613457,0.34658854644,0.0,0.0,0.0,0.0,-0.0169368479117
1449618711098872785,0.34658854644,0.0,0.0,0.0,0.0,-0.0230862269575
1449618711138680060,0.346594414413,0.0,0.0,0.0,0.0,-0.0232209938059
1449618711179364356,0.346594414413,0.0,0.0,0.0,0.0,-0.0232209938059
1449618711217812753,0.346621509328,0.0,0.0,0.0,0.0,-0.0238432694029
1449618711261584262,0.346621509328,0.0,0.0,0.0,0.0,-0.0238432694029
1449618711298066041,0.346644238564,0.0,0.0,0.0,0.0,-0.0182791880654
1449618711338233032,0.346644238564,0.0,0.0,0.0,0.0,-0.0243652806062
1449618711379729584,0.346649902057,0.0,0.0,0.0,0.0,-0.0244953512659
1449618711418902835,0.346653750208,0.0,0.0,0.0,0.0,-0.0245837298659
1449618711457924318,0.298616233496,0.0,0.0,0.0,0.0,-0.334147762025
1449618711498887513,0.298656500045,0.0,0.0,0.0,0.0,-0.33591308901
1449618711538231755,0.304064990312,0.0,0.0,0.0,0.0,-0.335686943426
1449618711581934395,0.304064990312,0.0,0.0,0.0,0.0,-0.335686943426
1449618711618076460,0.304846346532,0.0,0.0,0.0,0.0,-0.333303619832
1449618711657992366,0.304996416441,0.0,0.0,0.0,0.0,-0.33284587067
1449618711698095430,0.304111438881,0.0,0.0,0.0,0.0,-0.329498728673
1449618711738695018,0.298790487645,0.0,0.0,0.0,0.0,-0.335545264168
1449618711778370658,0.298790487645,0.0,0.0,0.0,0.0,-0.335545264168
1449618711817961938,0.298790487645,0.0,0.0,0.0,0.0,-0.335545264168
1449618711858232933,0.298833265234,0.0,0.0,0.0,0.0,-0.335427830467
1449618711897813094,0.298833265234,0.0,0.0,0.0,0.0,-0.335427830467
1449618711937567716,0.298833265234,0.0,0.0,0.0,0.0,-0.335427830467
1449618711977645744,0.299080396143,0.0,0.0,0.0,0.0,-0.336975057859
1449618712038022989,0.29934866774,0.0,0.0,0.0,0.0,-0.330457654972
1449618712057984653,0.29934866774,0.0,0.0,0.0,0.0,-0.330457654972
1449618712100447825,0.29934866774,0.0,0.0,0.0,0.0,-0.330457654972
1449618712138453134,0.299451490477,0.0,0.0,0.0,0.0,-0.336235976375
1449618712178138629,0.300281688745,0.0,0.0,0.0,0.0,-0.334582531109
1449618712218239632,0.300281688745,0.0,0.0,0.0,0.0,-0.334582531109
1449618712263540241,0.30051195506,0.0,0.0,0.0,0.0,-0.328273012307
1449618712297983987,0.30051195506,0.0,0.0,0.0,0.0,-0.328273012307
1449618712338033309,0.300648610224,0.0,0.0,0.0,0.0,-0.328016375193
1449618712380761909,0.300648610224,0.0,0.0,0.0,0.0,-0.328016375193
1449618712421481142,0.306008067284,0.0,0.0,0.0,0.0,-0.327548300469
1449618712458653490,0.306008067284,0.0,0.0,0.0,0.0,-0.327548300469
1449618712498368435,0.306278681074,0.0,0.0,0.0,0.0,-0.326983622516
1449618712538129944,0.306278681074,0.0,0.0,0.0,0.0,-0.326983622516
1449618712577972401,0.306528209127,0.0,0.0,0.0,0.0,-0.326462943249
1449618712619016693,0.346981011917,0.0,0.0,0.0,0.0,-0.0306791361724
1449618712658886939,0.346981011917,0.0,0.0,0.0,0.0,-0.0306791361724
1449618712705817445,0.346981011917,0.0,0.0,0.0,0.0,-0.0306791361724
1449618712738486779,0.346994033022,0.0,0.0,0.0,0.0,-0.0254025082539
1449618712777463743,0.346994033022,0.0,0.0,0.0,0.0,-0.0254025082539
1449618712817974664,0.34703010507,0.0,0.0,0.0,0.0,-0.0265847739993
1449618712858127506,0.0650073922175,0.0,0.0,0.0,0.0,-0.0329204242949
1449618712898507555,0.0650073922175,0.0,0.0,0.0,0.0,-0.0329204242949
1449618712938523400,0.0650073922175,0.0,0.0,0.0,0.0,-0.0329204242949
1449618712978500572,0.0650073922175,0.0,0.0,0.0,0.0,-0.0329204242949
1449618713019850400,0.0672959923452,0.0,0.0,0.0,0.0,-0.0290549055445
1449618713058423842,0.101189450736,0.0,0.0,0.0,0.0,-0.0253559509869
1449618713098930572,0.101189450736,0.0,0.0,0.0,0.0,-0.0253559509869
1449618713138304121,0.101189450736,0.0,0.0,0.0,0.0,-0.0253559509869
1449618713185827586,0.213797052689,0.0,0.0,0.0,0.0,-0.0263112143546
1449618713221116719,0.213797052689,0.0,0.0,0.0,0.0,-0.0263112143546
1449618713259183337,0.215207088268,0.0,0.0,0.0,0.0,-0.0271167329893
1449618713298243259,0.215207088268,0.0,0.0,0.0,0.0,-0.0205582193479
1449618713338032352,0.215207088268,0.0,0.0,0.0,0.0,-0.0205582193479
1449618713378037697,0.215207088268,0.0,0.0,0.0,0.0,-0.0205582193479
1449618713418450193,0.347296947971,0.0,0.0,0.0,0.0,-0.0206841573975
1449618713457960034,0.347348422282,0.0,0.0,0.0,0.0,-0.0211490270916
1449618713497809210,0.347368300457,0.0,0.0,0.0,0.0,-0.0160652533362
1449618713538314212,0.347368300457,0.0,0.0,0.0,0.0,-0.0160652533362
1449618713581464269,0.342776978028,0.0,0.0,0.0,0.0,-0.0162705197807
1449618713617929959,0.342845675272,0.0,0.0,0.0,0.0,-0.00900746704599
1449618713659019684,0.347436824193,0.0,0.0,0.0,0.0,-0.00904427377468
1449618713698828870,0.34744386576,0.0,0.0,0.0,0.0,-0.00517742588027
1449618713739820516,0.347465185284,0.0,0.0,0.0,0.0,-0.00515319914525
1449618713778709574,0.22090772732,0.0,0.0,0.0,0.0,0.0
1449618713829908673,0.22090772732,0.0,0.0,0.0,0.0,0.0
1449618713858374872,0.221329234267,0.0,0.0,0.0,0.0,0.0
1449618713898386481,0.221329234267,0.0,0.0,0.0,0.0,0.0
1449618713939601478,0.221329234267,0.0,0.0,0.0,0.0,0.0
1449618713977987429,0.316188556929,0.0,0.0,0.0,0.0,0.00508685330593
1449618714017936531,0.31661113623,0.0,0.0,0.0,0.0,0.00941155756671
1449618714059588540,0.316672522819,0.0,0.0,0.0,0.0,0.00943175052436
1449618714098374827,0.316796132566,0.0,0.0,0.0,0.0,0.00947241162689
1449618714146031176,0.316983350873,0.0,0.0,0.0,0.0,0.00953399659835
1449618714178072533,0.316983350873,0.0,0.0,0.0,0.0,0.00953399659835
1449618714217852878,0.347638692783,0.0,0.0,0.0,0.0,0.00957550692513
1449618714258288805,0.347678688246,0.0,0.0,0.0,0.0,0.0192211102172
1449618714300224061,0.317494156245,0.0,0.0,0.0,0.0,0.0193032763896
1449618714340287354,0.317494156245,0.0,0.0,0.0,0.0,0.0193032763896
1449618714377872651,0.317624264056,0.0,0.0,0.0,0.0,0.0194686347113
1449618714417852175,0.347744194739,0.0,0.0,0.0,0.0,0.0198871451615
1449618714457793329,0.339282667464,0.0,0.0,0.0,0.0,0.0248740570274
1449618714498324492,0.339282667464,0.0,0.0,0.0,0.0,0.0248740570274
1449618714538972284,0.339282667464,0.0,0.0,0.0,0.0,0.0248740570274
1449618714579100945,0.339358366312,0.0,0.0,0.0,0.0,0.0251019383386
1449618714618471708,0.339537932276,0.0,0.0,0.0,0.0,0.0364435219699
1449618714658156522,0.347872032957,0.0,0.0,0.0,0.0,0.0368751836042
1449618714698060191,0.347872032957,0.0,0.0,0.0,0.0,0.0368751836042
1449618714737704044,0.347933763898,0.0,0.0,0.0,0.0,0.0378978792745
1449618714779813202,0.347933763898,0.0,0.0,0.0,0.0,0.0378978792745
1449618714819996020,0.347933763898,0.0,0.0,0.0,0.0,0.0378978792745
1449618714857691170,0.347933763898,0.0,0.0,0.0,0.0,0.0378978792745
1449618714898696027,0.348014913766,0.0,0.0,0.0,0.0,0.0392422880496
1449618714940606601,0.348014913766,0.0,0.0,0.0,0.0,0.0392422880496
1449618714977852774,0.348042374014,0.0,0.0,0.0,0.0,0.0396972216077
1449618715018317915,0.348097984214,0.0,0.0,0.0,0.0,0.0406185150288
1449618715058508430,0.348144859392,0.0,0.0,0.0,0.0,0.054448459987
1449618715120615607,0.348144859392,0.0,0.0,0.0,0.0,0.054448459987
1449618715138216992,0.348173173194,0.0,0.0,0.0,0.0,0.0551309039263
1449618715177865348,0.348173173194,0.0,0.0,0.0,0.0,0.0551309039263
1449618715222376133,0.348173173194,0.0,0.0,0.0,0.0,0.0551309039263
1449618715258034948,0.344479799144,0.0,0.0,0.0,0.0,0.0567392012783
1449618715298706415,0.344479799144,0.0,0.0,0.0,0.0,0.0567392012783
1449618715337639966,0.344712557183,0.0,0.0,0.0,0.0,0.0595442699013
1449618715377703375,0.348444954251,0.0,0.0,0.0,0.0,0.061681607999
1449618715423318714,0.348464783471,0.0,0.0,0.0,0.0,0.0621595491302
1449618715458044611,0.348464783471,0.0,0.0,0.0,0.0,0.0621595491302
1449618715497771952,0.345049126388,0.0,0.0,0.0,0.0,0.063600412166
1449618715542128756,0.345189342299,0.0,0.0,0.0,0.0,0.0652902152492
1449618715578083842,0.345189342299,0.0,0.0,0.0,0.0,0.0652902152492
1449618715617920300,0.345189342299,0.0,0.0,0.0,0.0,0.0652902152492
1449618715658033799,0.348644691122,0.0,0.0,0.0,0.0,0.0871287304994
1449618715699969203,0.348765488439,0.0,0.0,0.0,0.0,0.0908133378565
1449618715739169244,0.348765488439,0.0,0.0,0.0,0.0,0.0908133378565
1449618715779351574,0.348825932556,0.0,0.0,0.0,0.0,0.0890501333042
1449618715817806491,0.34889613609,0.0,0.0,0.0,0.0,0.0912712859321
1449618715860270596,0.348956209546,0.0,0.0,0.0,0.0,0.0931719354331
1449618715897944018,0.348956209546,0.0,0.0,0.0,0.0,0.0931719354331
1449618715938608267,0.348956209546,0.0,0.0,0.0,0.0,0.0931719354331
1449618715978350038,0.348956209546,0.0,0.0,0.0,0.0,0.0931719354331
1449618716027183251,0.348976199618,0.0,0.0,0.0,0.0,0.093804396482
1449618716058065612,0.349154812453,0.0,0.0,0.0,0.0,0.0962223166386
1449618716097662999,0.349154812453,0.0,0.0,0.0,0.0,0.0962223166386
1449618716141140155,0.349154812453,0.0,0.0,0.0,0.0,0.0962223166386
1449618716178037454,0.349154812453,0.0,0.0,0.0,0.0,0.0962223166386
1449618716218322086,0.349184133334,0.0,0.0,0.0,0.0,0.121268375009
1449618716258139633,0.346697014353,0.0,0.0,0.0,0.0,0.127707661652
1449618716298221290,0.34939577866,0.0,0.0,0.0,0.0,0.126600578357
1449618716353892102,0.34943326708,0.0,0.0,0.0,0.0,0.128111774341
1449618716380324006,0.34943326708,0.0,0.0,0.0,0.0,0.128111774341
1449618716417789127,0.328899487646,0.0,0.0,0.0,0.0,0.153791239983
1449618716458003976,0.349544123811,0.0,0.0,0.0,0.0,0.158968452805
1449618716497758408,0.349544123811,0.0,0.0,0.0,0.0,0.158968452805
1449618716544425407,0.352,0.0,0.0,0.0,0.0,0.315789473684
1449618716578281375,0.352,0.0,0.0,0.0,0.0,0.315789473684
1449618716627896580,0.352,0.0,0.0,0.0,0.0,0.315789473684
1449618716658301740,0.352,0.0,0.0,0.0,0.0,0.315789473684
1449618716698143304,0.352,0.0,0.0,0.0,0.0,0.315789473684
1449618716737933925,0.352,0.0,0.0,0.0,0.0,0.315789473684
1449618716778398964,0.352,0.0,0.0,0.0,0.0,0.315789473684
1449618716821678421,0.352,0.0,0.0,0.0,0.0,0.273684210526
1449618716858435370,0.352,0.0,0.0,0.0,0.0,0.273684210526
1449618716897613458,0.352,0.0,0.0,0.0,0.0,0.273684210526
1449618716937760519,0.352,0.0,0.0,0.0,0.0,0.273684210526
1449618716977885267,0.352,0.0,0.0,0.0,0.0,0.273684210526
1449618717022350690,0.352,0.0,0.0,0.0,0.0,0.273684210526
1449618717058095382,0.352,0.0,0.0,0.0,0.0,0.273684210526
1449618717105159253,0.352,0.0,0.0,0.0,0.0,0.273684210526
1449618717139456853,0.352,0.0,0.0,0.0,0.0,0.273684210526
1449618717177831162,0.352,0.0,0.0,0.0,0.0,0.273684210526
1449618717221931515,0.352,0.0,0.0,0.0,0.0,0.315789473684
1449618717257696127,0.352,0.0,0.0,0.0,0.0,0.315789473684
1449618717298785153,0.352,0.0,0.0,0.0,0.0,0.315789473684
1449618717338412578,0.352,0.0,0.0,0.0,0.0,0.315789473684
1449618717377895016,0.352,0.0,0.0,0.0,0.0,0.315789473684
1449618717417891335,0.352,0.0,0.0,0.0,0.0,0.315789473684
1449618717457745138,0.352,0.0,0.0,0.0,0.0,0.315789473684
1449618717499931416,0.352,0.0,0.0,0.0,0.0,0.315789473684
1449618717537994876,0.352,0.0,0.0,0.0,0.0,0.315789473684
1449618717578181195,0.352,0.0,0.0,0.0,0.0,0.273684210526
1449618717618320163,0.352,0.0,0.0,0.0,0.0,0.273684210526
1449618717658215072,0.352,0.0,0.0,0.0,0.0,0.273684210526
1449618717698395424,0.352,0.0,0.0,0.0,0.0,0.273684210526
1449618717738320433,0.352,0.0,0.0,0.0,0.0,0.273684210526
1449618717779590633,0.352,0.0,0.0,0.0,0.0,0.273684210526
1449618717818716530,0.352,0.0,0.0,0.0,0.0,0.273684210526
1449618717858137360,0.352,0.0,0.0,0.0,0.0,0.273684210526
1449618717901095783,0.352,0.0,0.0,0.0,0.0,0.273684210526
1449618717937973257,0.3056,0.0,0.0,0.0,0.0,0.231578947368
1449618717980477657,0.3056,0.0,0.0,0.0,0.0,0.231578947368
1449618718018663565,0.3056,0.0,0.0,0.0,0.0,0.231578947368
1449618718058931002,0.3056,0.0,0.0,0.0,0.0,0.231578947368
1449618718098722251,0.3056,0.0,0.0,0.0,0.0,0.231578947368
1449618718138420974,0.3056,0.0,0.0,0.0,0.0,0.231578947368
1449618718179284335,0.3056,0.0,0.0,0.0,0.0,0.231578947368
1449618718217927161,0.2592,0.0,0.0,0.0,0.0,0.189473684211
1449618718257633121,0.2592,0.0,0.0,0.0,0.0,0.189473684211
1449618718297604523,0.2592,0.0,0.0,0.0,0.0,0.189473684211
1449618718338431559,0.2592,0.0,0.0,0.0,0.0,0.189473684211
1449618718377765358,0.2592,0.0,0.0,0.0,0.0,0.189473684211
1449618718417679227,0.276733056356,0.0,0.0,0.0,0.0,0.153935168598
1449618718458379370,0.275440063097,0.0,0.0,0.0,0.0,0.155565977406
1449618718497690446,0.275440063097,0.0,0.0,0.0,0.0,0.155565977406
1449618718539000532,0.27527310243,0.0,0.0,0.0,0.0,0.155914586285
1449618718578685289,0.274843038193,0.0,0.0,0.0,0.0,0.15681250861
1449618718617753436,0.274843038193,0.0,0.0,0.0,0.0,0.15681250861
1449618718657884451,0.274636201273,0.0,0.0,0.0,0.0,0.157244342648
1449618718698435828,0.23757446113,0.0,0.0,0.0,0.0,0.192171380251
1449618718739787793,0.275214222342,0.0,0.0,0.0,0.0,0.123805829925
1449618718777915032,0.275010657622,0.0,0.0,0.0,0.0,0.124105345804
1449618718818415545,0.274911183263,0.0,0.0,0.0,0.0,0.124251715735
1449618718859967759,0.236644618045,0.0,0.0,0.0,0.0,0.125601282875
1449618718898271314,0.236644618045,0.0,0.0,0.0,0.0,0.125601282875
1449618718938468279,0.236423236512,0.0,0.0,0.0,0.0,0.12580337638
1449618718977949974,0.235090910881,0.0,0.0,0.0,0.0,0.125026081785
1449618719017906702,0.235090910881,0.0,0.0,0.0,0.0,0.125026081785
1449618719057796277,0.234889587178,0.0,0.0,0.0,0.0,0.125227864645
1449618719097921718,0.234562839314,0.0,0.0,0.0,0.0,0.125555366443
1449618719141418890,0.234562839314,0.0,0.0,0.0,0.0,0.125555366443
1449618719179398350,0.235379986959,0.0,0.0,0.0,0.0,0.126755742231
1449618719217904072,0.23518397617,0.0,0.0,0.0,0.0,0.126934665254
1449618719258316062,0.233824950818,0.0,0.0,0.0,0.0,0.0921471257574
1449618719298200083,0.233824950818,0.0,0.0,0.0,0.0,0.0921471257574
1449618719341813226,0.233824950818,0.0,0.0,0.0,0.0,0.0921471257574
1449618719377754719,0.234499863178,0.0,0.0,0.0,0.0,0.0922921752762
1449618719417882669,0.351100034465,0.0,0.0,0.0,0.0,0.00409075291352
1449618719458012263,0.351100034465,0.0,0.0,0.0,0.0,0.00409075291352
1449618719497900622,0.351100034465,0.0,0.0,0.0,0.0,0.00511344102189
1449618719552060110,0.351109688479,0.0,0.0,0.0,0.0,0.0227565669964
1449618719578092622,0.351119074571,0.0,0.0,0.0,0.0,0.0237396488436
1449618719617777444,0.351119074571,0.0,0.0,0.0,0.0,0.0237396488436
1449618719658070678,0.351128192908,0.0,0.0,0.0,0.0,0.0227211518151
1449618719697899090,0.233541743395,0.0,0.0,0.0,0.0,0.0938505167298
1449618719741990215,0.193408619848,0.0,0.0,0.0,0.0,0.168983130743
1449618719778183297,0.193408619848,0.0,0.0,0.0,0.0,0.168983130743
1449618719817939954,0.193408619848,0.0,0.0,0.0,0.0,0.168983130743
1449618719857761892,0.193204686169,0.0,0.0,0.0,0.0,0.169137843828
1449618719899106209,-0.0332466673032,0.0,0.0,0.0,0.0,0.00865303231502
1449618719938285291,-0.0337245927445,0.0,0.0,0.0,0.0,0.00859108009597
1449618719977408973,-0.0337245927445,0.0,0.0,0.0,0.0,0.00859108009597
1449618720017914609,-0.0337245927445,0.0,0.0,0.0,0.0,0.00859108009597
1449618720058077205,-0.0353268853474,0.0,0.0,0.0,0.0,0.00849100048693
1449618720097854397,-0.0357699104946,0.0,0.0,0.0,0.0,0.00843283486598
1449618720141623605,-0.0357699104946,0.0,0.0,0.0,0.0,0.00843283486598
1449618720177979032,-0.0353821612585,0.0,0.0,0.0,0.0,0.00837621470839
1449618720219663073,-0.0355246094986,0.0,0.0,0.0,0.0,0.00835774918861
1449618720258893003,-0.0355246094986,0.0,0.0,0.0,0.0,0.00835774918861
1449618720298036886,-0.0360876777607,0.0,0.0,0.0,0.0,0.00828476074334
1449618720342118598,-0.0363607927754,0.0,0.0,0.0,0.0,0.00824935728575
1449618720378050316,-0.0366283222028,0.0,0.0,0.0,0.0,0.00821467845037
1449618720417831271,-0.03676090707,0.0,0.0,0.0,0.0,0.00819749187603
1449618720461613786,-0.0376910610131,0.0,0.0,0.0,0.0,0.00818060502792
1449618720498065451,-0.0376910610131,0.0,0.0,0.0,0.0,0.00818060502792
1449618720538582637,-0.0380714047804,0.0,0.0,0.0,0.0,0.0108408918583
1449618720577772210,-0.0380714047804,0.0,0.0,0.0,0.0,0.0108408918583
1449618720617567685,-0.0381963534299,0.0,0.0,0.0,0.0,0.0108190197916
1449618720658610816,-0.0374029587072,0.0,0.0,0.0,0.0,0.00811426505531
1449618720698110640,-0.0374029587072,0.0,0.0,0.0,0.0,0.00811426505531
1449618720755225679,0.35041636509,0.0,0.0,0.0,0.0,0.0984436563566
1449618720782032684,0.350419492066,0.0,0.0,0.0,0.0,0.098457163844
1449618720818726703,0.351209743411,0.0,0.0,0.0,0.0,0.12742307877
1449618720858085661,0.351209743411,0.0,0.0,0.0,0.0,0.12742307877
1449618720898340178,0.350419492066,0.0,0.0,0.0,0.0,0.128321091766
1449618720938845828,0.350419492066,0.0,0.0,0.0,0.0,0.128321091766
1449618720977635888,0.350419492066,0.0,0.0,0.0,0.0,0.0569190670727
1449618721017559733,0.350419492066,0.0,0.0,0.0,0.0,0.0569190670727
1449618721058146642,0.350419492066,0.0,0.0,0.0,0.0,0.0569190670727
1449618721098561166,0.350419492066,0.0,0.0,0.0,0.0,0.0569190670727
1449618721138503245,0.350419492066,0.0,0.0,0.0,0.0,0.0569190670727
1449618721178052314,0.350419492066,0.0,0.0,0.0,0.0,0.0569190670727
1449618721232049927,0.349629240722,0.0,0.0,0.0,0.0,0.0623071450516
1449618721257848793,0.349629240722,0.0,0.0,0.0,0.0,0.170757201429
1449618721297877911,0.348838989378,0.0,0.0,0.0,0.0,0.179737331183
1449618721337787540,0.348838989378,0.0,0.0,0.0,0.0,0.179737331183
1449618721377935442,0.313277676665,0.0,0.0,0.0,0.0,0.16536912345
1449618721417507627,0.313277676665,0.0,0.0,0.0,0.0,0.16536912345
1449618721457974896,0.351209743411,0.0,0.0,0.0,0.0,0.16536912345
1449618721501507696,0.351209743411,0.0,0.0,0.0,0.0,0.16536912345
1449618721537934004,0.351209743411,0.0,0.0,0.0,0.0,0.16536912345
1449618721578303772,0.350422612133,0.0,0.0,0.0,0.0,0.173482920314
1449618721620257721,0.35042568441,0.0,0.0,0.0,0.0,0.173514015355
1449618721660193951,0.35042568441,0.0,0.0,0.0,0.0,0.173514015355
1449618721699881774,0.349643117046,0.0,0.0,0.0,0.0,0.0649903997347
1449618721737977671,0.349647675881,0.0,0.0,0.0,0.0,0.0649868501657
1449618721778006389,0.349647675881,0.0,0.0,0.0,0.0,0.0649868501657
1449618721822209181,0.349652152792,0.0,0.0,0.0,0.0,0.0649833693138
1449618721857462078,0.349665380708,0.0,0.0,0.0,0.0,0.101213870449
1449618721898665516,0.349665380708,0.0,0.0,0.0,0.0,0.101213870449
1449618721938024985,0.349669709753,0.0,0.0,0.0,0.0,0.10122138649
1449618721981505967,0.349669709753,0.0,0.0,0.0,0.0,0.10122138649
1449618722017277642,0.349682423139,0.0,0.0,0.0,0.0,0.101243444749
1449618722062606451,0.34968654937,0.0,0.0,0.0,0.0,0.210132484106
1449618722098846892,0.350476106099,0.0,0.0,0.0,0.0,0.0987009353106
1449618722137834593,0.350476106099,0.0,0.0,0.0,0.0,0.0987009353106
1449618722178147416,0.350476106099,0.0,0.0,0.0,0.0,0.0987009353106
1449618722221630040,0.350478604067,0.0,0.0,0.0,0.0,0.0987117131294
1449618722258500131,0.350490687195,0.0,0.0,0.0,0.0,0.0987637037038
1449618722297820474,0.350490687195,0.0,0.0,0.0,0.0,0.09790613663
1449618722337960853,0.350490687195,0.0,0.0,0.0,0.0,0.09790613663
1449618722378589701,0.350497533441,0.0,0.0,0.0,0.0,0.0979395559816
1449618722417818515,0.350518046203,0.0,0.0,0.0,0.0,0.135402844479
1449618722457788974,0.351259025724,0.0,0.0,0.0,0.0,0.132034755351
1449618722498137688,0.351261740078,0.0,0.0,0.0,0.0,0.0955493460068
1449618722537538718,0.351261740078,0.0,0.0,0.0,0.0,0.0930325863826
1449618722578076862,0.351265884125,0.0,0.0,0.0,0.0,0.0931009847785
1449618722617875444,0.351269455196,0.0,0.0,0.0,0.0,0.129760317303
1449618722657569904,0.351269455196,0.0,0.0,0.0,0.0,0.129760317303
1449618722701074104,0.351269455196,0.0,0.0,0.0,0.0,0.129760317303
1449618722737836304,0.351274776335,0.0,0.0,0.0,0.0,0.0924241780466
1449618722777925067,0.351274776335,0.0,0.0,0.0,0.0,0.129064199722
1449618722818596330,0.351276130598,0.0,0.0,0.0,0.0,0.129098510471
1449618722858067961,0.351276862929,0.0,0.0,0.0,0.0,0.129116993946
1449618722898109572,0.347462619135,0.0,0.0,0.0,0.0,0.129129240519
1449618722939960965,0.347462619135,0.0,0.0,0.0,0.0,0.129129240519
1449618722977786773,0.347462670141,0.0,0.0,0.0,0.0,0.128313016891
1449618723018206935,0.342545653846,0.0,0.0,0.0,0.0,0.127447076476
1449618723057500645,0.336802473803,0.0,0.0,0.0,0.0,0.127447076476
1449618723097653742,0.336805456669,0.0,0.0,0.0,0.0,0.127405763451
1449618723138778578,0.336808207185,0.0,0.0,0.0,0.0,0.128193389742
1449618723178615464,0.333532391407,0.0,0.0,0.0,0.0,0.128133615695
1449618723218157715,0.33353584519,0.0,0.0,0.0,0.0,0.128099411412
1449618723258204360,0.325334712683,0.0,0.0,0.0,0.0,0.091444849968
1449618723299736504,0.325334712683,0.0,0.0,0.0,0.0,0.091444849968
1449618723338872036,0.320428570824,0.0,0.0,0.0,0.0,0.127914221663
1449618723378593427,0.317925009093,0.0,0.0,0.0,0.0,0.127764184851
1449618723426964227,0.313855793504,0.0,0.0,0.0,0.0,0.0911807261015
1449618723459204366,0.284915298742,0.0,0.0,0.0,0.0,0.0910953346052
1449618723504866004,0.284860279437,0.0,0.0,0.0,0.0,0.0910504679931
1449618723538744169,0.287023247437,0.0,0.0,0.0,0.0,0.0909565310729
1449618723577893023,0.287023247437,0.0,0.0,0.0,0.0,0.0909565310729
1449618723618401097,0.280389831259,0.0,0.0,0.0,0.0,0.127199981087
1449618723661318252,0.275399210685,0.0,0.0,0.0,0.0,0.127053369974
1449618723697810289,0.297870214319,0.0,0.0,0.0,0.0,0.127627069427
1449618723739527679,0.297870214319,0.0,0.0,0.0,0.0,0.127627069427
1449618723778214174,0.266159280437,0.0,0.0,0.0,0.0,0.126482999952
1449618723818788633,0.266159280437,0.0,0.0,0.0,0.0,0.126482999952
1449618723857835868,0.346412698746,0.0,0.0,0.0,0.0,-0.00634920671582
1449618723898391275,0.346412698746,0.0,0.0,0.0,0.0,-0.00634920671582
1449618723939071179,0.346412698746,0.0,0.0,0.0,0.0,-0.00634920671582
1449618723977621344,0.346412698746,0.0,0.0,0.0,0.0,-0.00634920671582
1449618724018299727,0.346412698746,0.0,0.0,0.0,0.0,-0.00634920671582
1449618724057757012,0.346412698746,0.0,0.0,0.0,0.0,-0.00634920671582
1449618724097877311,0.346412698746,0.0,0.0,0.0,0.0,-0.00634920671582
1449618724141374277,0.346412698746,0.0,0.0,0.0,0.0,-0.00634920671582
1449618724178203397,0.346412698746,0.0,0.0,0.0,0.0,-0.00634920671582
1449618724219469404,0.346412698746,0.0,0.0,0.0,0.0,-0.00634920671582
1449618724259350309,0.346412698746,0.0,0.0,0.0,0.0,-0.00634920671582
1449618724298780462,0.346412698746,0.0,0.0,0.0,0.0,-0.00634920671582
1449618724341024949,0.346412698746,0.0,0.0,0.0,0.0,-0.00634920671582
1449618724378651362,0.346412698746,0.0,0.0,0.0,0.0,-0.00634920671582
1449618724423880361,0.346412698746,0.0,0.0,0.0,0.0,-0.00634920671582
1449618724457934714,0.346412698746,0.0,0.0,0.0,0.0,-0.0126984134316
1449618724498402302,0.346412698746,0.0,0.0,0.0,0.0,-0.0126984134316
1449618724538407771,0.340825397491,0.0,0.0,0.0,0.0,-0.0253968268633
1449618724578119892,0.340825397491,0.0,0.0,0.0,0.0,-0.0253968268633
1449618724630589849,0.340825397491,0.0,0.0,0.0,0.0,-0.0253968268633
1449618724657569403,0.324063493729,0.0,0.0,0.0,0.0,-0.184126985073
1449618724698317273,0.324063493729,0.0,0.0,0.0,0.0,-0.184126985073
1449618724739068096,0.251428577423,0.0,0.0,0.0,0.0,-0.285714292526
1449618724777769380,0.251428577423,0.0,0.0,0.0,0.0,-0.285714292526
1449618724818236927,0.251428577423,0.0,0.0,0.0,0.0,-0.285714292526
1449618724857623227,0.251428577423,0.0,0.0,0.0,0.0,-0.285714292526
1449618724898135433,0.301714288712,0.0,0.0,0.0,0.0,-0.336507940292
1449618724938824430,0.301714288712,0.0,0.0,0.0,0.0,-0.336507940292
1449618724977673691,0.296126987457,0.0,0.0,0.0,0.0,-0.336507940292
1449618725017825011,0.296126987457,0.0,0.0,0.0,0.0,-0.336507940292
1449618725057660706,0.296126987457,0.0,0.0,0.0,0.0,-0.336507940292
1449618725097531489,0.296126987457,0.0,0.0,0.0,0.0,-0.336507940292
1449618725141535791,0.296126987457,0.0,0.0,0.0,0.0,-0.336507940292
1449618725177612535,0.296126987457,0.0,0.0,0.0,0.0,-0.336507940292
1449618725218398906,0.296126987457,0.0,0.0,0.0,0.0,-0.336507940292
1449618725259681218,0.296126987457,0.0,0.0,0.0,0.0,-0.336507940292
1449618725297892827,0.296126987457,0.0,0.0,0.0,0.0,-0.336507940292
1449618725338534922,0.301714288712,0.0,0.0,0.0,0.0,-0.342857146263
1449618725377701877,0.301714288712,0.0,0.0,0.0,0.0,-0.342857146263
1449618725417930110,0.301714288712,0.0,0.0,0.0,0.0,-0.342857146263
1449618725457637486,0.296126987457,0.0,0.0,0.0,0.0,-0.336507940292
1449618725497813318,0.296126987457,0.0,0.0,0.0,0.0,-0.336507940292
1449618725538079887,0.301714288712,0.0,0.0,0.0,0.0,-0.342857146263
1449618725577933824,0.301714288712,0.0,0.0,0.0,0.0,-0.342857146263
1449618725619843361,0.301714288712,0.0,0.0,0.0,0.0,-0.342857146263
1449618725657845149,0.301714288712,0.0,0.0,0.0,0.0,-0.342857146263
1449618725697938058,0.301714288712,0.0,0.0,0.0,0.0,-0.342857146263
1449618725737757183,0.296126987457,0.0,0.0,0.0,0.0,-0.342857146263
1449618725777551788,0.296126987457,0.0,0.0,0.0,0.0,-0.342857146263
1449618725818384230,0.296126987457,0.0,0.0,0.0,0.0,-0.342857146263
1449618725859576277,0.296126987457,0.0,0.0,0.0,0.0,-0.342857146263
1449618725898203998,0.296126987457,0.0,0.0,0.0,0.0,-0.342857146263
1449618725937862194,0.296126987457,0.0,0.0,0.0,0.0,-0.342857146263
1449618725977784078,0.296126987457,0.0,0.0,0.0,0.0,-0.336507940292
1449618726018070723,0.245841276169,0.0,0.0,0.0,0.0,-0.285714292526
1449618726058963117,0.245841276169,0.0,0.0,0.0,0.0,-0.285714292526
1449618726098373327,0.245841276169,0.0,0.0,0.0,0.0,-0.285714292526
1449618726138229763,0.296126987457,0.0,0.0,0.0,0.0,-0.336507940292
1449618726178001809,0.296126987457,0.0,0.0,0.0,0.0,-0.336507940292
1449618726217747517,0.296126987457,0.0,0.0,0.0,0.0,-0.336507940292
1449618726257624877,0.296126987457,0.0,0.0,0.0,0.0,-0.336507940292
1449618726302281997,0.296126987457,0.0,0.0,0.0,0.0,-0.336507940292
1449618726337559272,0.27377778244,0.0,0.0,0.0,0.0,-0.15873016119
1449618726378042786,0.27377778244,0.0,0.0,0.0,0.0,-0.15873016119
1449618726417494959,0.27377778244,0.0,0.0,0.0,0.0,-0.15873016119
1449618726457815091,0.346412698746,0.0,0.0,0.0,0.0,0.0
1449618726498124617,0.346412698746,0.0,0.0,0.0,0.0,0.0
1449618726546695502,0.296126987457,0.0,0.0,0.0,0.0,0.0190476194024
1449618726577931380,0.296126987457,0.0,0.0,0.0,0.0,0.0190476194024
1449618726617511702,0.296126987457,0.0,0.0,0.0,0.0,0.0190476194024
1449618726657838045,0.340825397491,0.0,0.0,0.0,0.0,0.0317460328341
1449618726701150095,0.340825397491,0.0,0.0,0.0,0.0,0.0317460328341
1449618726737487937,0.301714288712,0.0,0.0,0.0,0.0,0.0317460328341
1449618726777851405,0.301714288712,0.0,0.0,0.0,0.0,0.0317460328341
1449618726817837666,0.301714288712,0.0,0.0,0.0,0.0,0.0317460328341
1449618726857612159,0.340825397491,0.0,0.0,0.0,0.0,0.0571428596973
1449618726898440122,0.340825397491,0.0,0.0,0.0,0.0,0.0571428596973
1449618726938384907,0.340825397491,0.0,0.0,0.0,0.0,0.0571428596973
1449618726977735277,0.340825397491,0.0,0.0,0.0,0.0,0.0571428596973
1449618727018782306,0.340825397491,0.0,0.0,0.0,0.0,0.0571428596973
1449618727057984732,0.301714288712,0.0,0.0,0.0,0.0,0.342857146263
1449618727102041480,0.301714288712,0.0,0.0,0.0,0.0,0.342857146263
1449618727138622762,0.296126987457,0.0,0.0,0.0,0.0,0.336507940292
1449618727178116593,0.296126987457,0.0,0.0,0.0,0.0,0.336507940292
1449618727217489803,0.296126987457,0.0,0.0,0.0,0.0,0.336507940292
1449618727257696328,0.251428577423,0.0,0.0,0.0,0.0,0.285714292526
1449618727300946303,0.251428577423,0.0,0.0,0.0,0.0,0.285714292526
1449618727339931201,0.296126987457,0.0,0.0,0.0,0.0,0.336507940292
1449618727378180602,0.296126987457,0.0,0.0,0.0,0.0,0.336507940292
1449618727421354537,0.296126987457,0.0,0.0,0.0,0.0,0.336507940292
1449618727458182679,0.301714288712,0.0,0.0,0.0,0.0,0.342857146263
1449618727498166901,0.301714288712,0.0,0.0,0.0,0.0,0.342857146263
1449618727539764735,0.301714288712,0.0,0.0,0.0,0.0,0.342857146263
1449618727577738468,0.251428577423,0.0,0.0,0.0,0.0,0.285714292526
1449618727617710650,0.251428577423,0.0,0.0,0.0,0.0,0.285714292526
1449618727658472657,0.301714288712,0.0,0.0,0.0,0.0,0.336507940292
1449618727697510169,0.301714288712,0.0,0.0,0.0,0.0,0.336507940292
1449618727739685567,0.301714288712,0.0,0.0,0.0,0.0,0.336507940292
1449618727778000715,0.296126987457,0.0,0.0,0.0,0.0,0.336507940292
1449618727818192257,0.296126987457,0.0,0.0,0.0,0.0,0.336507940292
1449618727858389620,0.301714288712,0.0,0.0,0.0,0.0,0.342857146263
1449618727898177898,0.301714288712,0.0,0.0,0.0,0.0,0.342857146263
1449618727938201750,0.301714288712,0.0,0.0,0.0,0.0,0.342857146263
1449618727977876540,0.296126987457,0.0,0.0,0.0,0.0,0.342857146263
1449618728018843285,0.301714288712,0.0,0.0,0.0,0.0,0.336507940292
1449618728058310349,0.301714288712,0.0,0.0,0.0,0.0,0.336507940292
1449618728097817073,0.301714288712,0.0,0.0,0.0,0.0,0.336507940292
1449618728137649687,0.301714288712,0.0,0.0,0.0,0.0,0.342857146263
1449618728177988138,0.301714288712,0.0,0.0,0.0,0.0,0.342857146263
1449618728217831241,0.301714288712,0.0,0.0,0.0,0.0,0.342857146263
1449618728259869214,0.301714288712,0.0,0.0,0.0,0.0,0.342857146263
1449618728298968704,0.296126987457,0.0,0.0,0.0,0.0,0.336507940292
1449618728337617884,0.296126987457,0.0,0.0,0.0,0.0,0.342857146263
1449618728385196781,0.296126987457,0.0,0.0,0.0,0.0,0.342857146263
1449618728418215502,0.296126987457,0.0,0.0,0.0,0.0,0.342857146263
1449618728457816345,0.301714288712,0.0,0.0,0.0,0.0,0.336507940292
1449618728497702457,0.301714288712,0.0,0.0,0.0,0.0,0.336507940292
1449618728538889077,0.301714288712,0.0,0.0,0.0,0.0,0.342857146263
1449618728579324492,0.301714288712,0.0,0.0,0.0,0.0,0.342857146263
1449618728617655030,0.301714288712,0.0,0.0,0.0,0.0,0.342857146263
1449618728658250569,0.301714288712,0.0,0.0,0.0,0.0,0.336507940292
1449618728698696540,0.301714288712,0.0,0.0,0.0,0.0,0.336507940292
1449618728737963664,0.296126987457,0.0,0.0,0.0,0.0,0.342857146263
1449618728778104919,0.296126987457,0.0,0.0,0.0,0.0,0.342857146263
1449618728819950006,0.296126987457,0.0,0.0,0.0,0.0,0.342857146263
1449618728858295861,0.296126987457,0.0,0.0,0.0,0.0,0.342857146263
1449618728898316307,0.251428577423,0.0,0.0,0.0,0.0,0.285714292526
1449618728937538064,0.251428577423,0.0,0.0,0.0,0.0,0.285714292526
1449618728978065114,0.296126987457,0.0,0.0,0.0,0.0,0.342857146263
1449618729017984775,0.301714288712,0.0,0.0,0.0,0.0,0.336507940292
1449618729058203474,0.301714288712,0.0,0.0,0.0,0.0,0.336507940292
1449618729097877747,0.301714288712,0.0,0.0,0.0,0.0,0.336507940292
1449618729137954142,0.251428577423,0.0,0.0,0.0,0.0,0.285714292526
1449618729177379305,0.251428577423,0.0,0.0,0.0,0.0,0.285714292526
1449618729217813523,0.251428577423,0.0,0.0,0.0,0.0,0.285714292526
1449618729258079610,0.251428577423,0.0,0.0,0.0,0.0,0.285714292526
1449618729299491046,0.296126987457,0.0,0.0,0.0,0.0,0.342857146263
1449618729338153153,0.301714288712,0.0,0.0,0.0,0.0,0.342857146263
1449618729377786028,0.301714288712,0.0,0.0,0.0,0.0,0.342857146263
1449618729417959220,0.301714288712,0.0,0.0,0.0,0.0,0.342857146263
1449618729457639478,0.296126987457,0.0,0.0,0.0,0.0,0.336507940292
1449618729498366921,0.296126987457,0.0,0.0,0.0,0.0,0.336507940292
1449618729538180370,0.296126987457,0.0,0.0,0.0,0.0,0.336507940292
1449618729581488625,0.301714288712,0.0,0.0,0.0,0.0,0.342857146263
1449618729618791401,0.296126987457,0.0,0.0,0.0,0.0,0.342857146263
1449618729657432660,0.296126987457,0.0,0.0,0.0,0.0,0.342857146263
1449618729698410403,0.296126987457,0.0,0.0,0.0,0.0,0.342857146263
1449618729738791506,0.301714288712,0.0,0.0,0.0,0.0,0.342857146263
1449618729780979701,0.301714288712,0.0,0.0,0.0,0.0,0.342857146263
1449618729817836838,0.301714288712,0.0,0.0,0.0,0.0,0.342857146263
1449618729857933065,0.296126987457,0.0,0.0,0.0,0.0,0.342857146263
1449618729897921393,0.296126987457,0.0,0.0,0.0,0.0,0.342857146263
1449618729937861942,0.301714288712,0.0,0.0,0.0,0.0,0.342857146263
1449618729977679967,0.301714288712,0.0,0.0,0.0,0.0,0.342857146263
1449618730021427941,0.301714288712,0.0,0.0,0.0,0.0,0.342857146263
1449618730057953981,0.301714288712,0.0,0.0,0.0,0.0,0.342857146263
1449618730098870779,0.296126987457,0.0,0.0,0.0,0.0,0.342857146263
1449618730137846929,0.301714288712,0.0,0.0,0.0,0.0,0.336507940292
1449618730177682216,0.301714288712,0.0,0.0,0.0,0.0,0.336507940292
1449618730217482381,0.301714288712,0.0,0.0,0.0,0.0,0.336507940292
1449618730257503095,0.301714288712,0.0,0.0,0.0,0.0,0.336507940292
1449618730297773327,0.296126987457,0.0,0.0,0.0,0.0,0.342857146263
1449618730338165920,0.301714288712,0.0,0.0,0.0,0.0,0.342857146263
1449618730377582922,0.301714288712,0.0,0.0,0.0,0.0,0.342857146263
1449618730418461842,0.301714288712,0.0,0.0,0.0,0.0,0.342857146263
1449618730457717571,0.301714288712,0.0,0.0,0.0,0.0,0.342857146263
1449618730497974593,0.301714288712,0.0,0.0,0.0,0.0,0.342857146263
1449618730538139428,0.301714288712,0.0,0.0,0.0,0.0,0.342857146263
1449618730582478828,0.301714288712,0.0,0.0,0.0,0.0,0.336507940292
1449618730619926805,0.301714288712,0.0,0.0,0.0,0.0,0.336507940292
1449618730657826793,0.301714288712,0.0,0.0,0.0,0.0,0.336507940292
1449618730697703180,0.340825397491,0.0,0.0,0.0,0.0,0.0190476194024
1449618730741196728,0.346412698746,0.0,0.0,0.0,0.0,0.00634920671582
1449618730778061229,0.346412698746,0.0,0.0,0.0,0.0,0.00634920671582
1449618730817435670,0.346412698746,0.0,0.0,0.0,0.0,0.00634920671582
1449618730857580536,0.346412698746,0.0,0.0,0.0,0.0,0.00634920671582
1449618730898382293,0.346412698746,0.0,0.0,0.0,0.0,0.00634920671582
1449618730939020892,0.346412698746,0.0,0.0,0.0,0.0,0.00634920671582
1449618730977582773,0.346412698746,0.0,0.0,0.0,0.0,0.00634920671582
1449618731019339751,0.346412698746,0.0,0.0,0.0,0.0,0.00634920671582
1449618731058164797,0.346412698746,0.0,0.0,0.0,0.0,0.00634920671582
1449618731097583099,0.346412698746,0.0,0.0,0.0,0.0,0.00634920671582
1449618731137642802,0.346412698746,0.0,0.0,0.0,0.0,0.0
1449618731177455337,0.346412698746,0.0,0.0,0.0,0.0,0.0
1449618731220248484,0.346412698746,0.0,0.0,0.0,0.0,0.0
1449618731257840161,0.346412698746,0.0,0.0,0.0,0.0,0.0
1449618731297784473,0.31288889122,0.0,0.0,0.0,0.0,0.0
1449618731337704183,0.352,0.0,0.0,0.0,0.0,0.0
1449618731378208549,0.352,0.0,0.0,0.0,0.0,0.0
1449618731418412902,0.352,0.0,0.0,0.0,0.0,0.0
1449618731457780579,0.31288889122,0.0,0.0,0.0,0.0,0.0
1449618731497986162,0.31288889122,0.0,0.0,0.0,0.0,0.0
1449618731538094444,0.346412698746,0.0,0.0,0.0,0.0,0.0
1449618731577497370,0.346412698746,0.0,0.0,0.0,0.0,0.0
1449618731619555172,0.346412698746,0.0,0.0,0.0,0.0,0.0
1449618731657975379,0.346412698746,0.0,0.0,0.0,0.0,0.0
1449618731697491712,0.346412698746,0.0,0.0,0.0,0.0,0.0
1449618731738342267,0.346412698746,0.0,0.0,0.0,0.0,0.0
1449618731777414550,0.346412698746,0.0,0.0,0.0,0.0,0.0
1449618731817872626,0.346412698746,0.0,0.0,0.0,0.0,0.0
1449618731858456642,0.346412698746,0.0,0.0,0.0,0.0,0.0
1449618731898685592,0.346412698746,0.0,0.0,0.0,0.0,0.0
1449618731938000329,0.352,0.0,0.0,0.0,0.0,0.0
1449618731978769124,0.352,0.0,0.0,0.0,0.0,0.0
1449618732018088287,0.352,0.0,0.0,0.0,0.0,0.0
1449618732057925885,0.346412698746,0.0,0.0,0.0,0.0,0.0
1449618732099065834,0.346412698746,0.0,0.0,0.0,0.0,0.0
1449618732137952363,0.346412698746,0.0,0.0,0.0,0.0,0.0
1449618732177779580,0.346412698746,0.0,0.0,0.0,0.0,0.0
1449618732217848701,0.346412698746,0.0,0.0,0.0,0.0,0.0
1449618732257662218,0.346412698746,0.0,0.0,0.0,0.0,0.0
1449618732299104955,0.346412698746,0.0,0.0,0.0,0.0,0.0
1449618732338543334,0.352,0.0,0.0,0.0,0.0,0.0
1449618732378274402,0.352,0.0,0.0,0.0,0.0,0.0
1449618732417639217,0.352,0.0,0.0,0.0,0.0,0.0
1449618732458003446,0.352,0.0,0.0,0.0,0.0,0.0
1449618732499344591,0.346412698746,0.0,0.0,0.0,0.0,0.0
1449618732538124481,0.346412698746,0.0,0.0,0.0,0.0,0.0
1449618732577606609,0.340825397491,0.0,0.0,0.0,0.0,0.0
1449618732617682820,0.340825397491,0.0,0.0,0.0,0.0,0.0
1449618732657786526,-0.0,0.0,0.0,0.0,0.0,-0.0
1449618732697987263,-0.0,0.0,0.0,0.0,0.0,-0.0
1449618732737507042,0.31288889122,0.0,0.0,0.0,0.0,0.0
1449618732777832787,0.31288889122,0.0,0.0,0.0,0.0,0.0
1449618732818219280,0.31288889122,0.0,0.0,0.0,0.0,0.0
1449618732857813463,0.189968263626,0.0,0.0,0.0,0.0,0.0
1449618732899203882,0.189968263626,0.0,0.0,0.0,0.0,0.0
1449618732949935296,0.189968263626,0.0,0.0,0.0,0.0,0.0
1449618732977904805,0.346412698746,0.0,0.0,0.0,0.0,0.0
1449618733018616948,0.346412698746,0.0,0.0,0.0,0.0,0.0
1449618733057844217,0.346412698746,0.0,0.0,0.0,0.0,0.0
1449618733098831624,0.346412698746,0.0,0.0,0.0,0.0,0.0
1449618733138107432,0.346412698746,0.0,0.0,0.0,0.0,0.0
1449618733179473821,0.346412698746,0.0,0.0,0.0,0.0,0.0
1449618733218074043,0.346412698746,0.0,0.0,0.0,0.0,0.0
1449618733272000726,0.346412698746,0.0,0.0,0.0,0.0,0.0
1449618733301983764,0.346412698746,0.0,0.0,0.0,0.0,0.0
1449618733340046468,0.352,0.0,0.0,0.0,0.0,0.0
1449618733377600871,0.352,0.0,0.0,0.0,0.0,0.0
1449618733417675536,0.352,0.0,0.0,0.0,0.0,0.0
1449618733459049553,0.346412698746,0.0,0.0,0.0,0.0,0.0
1449618733498039129,0.346412698746,0.0,0.0,0.0,0.0,0.0
1449618733542118727,0.329650794983,0.0,0.0,0.0,0.0,0.126984131336
1449618733578289267,0.329650794983,0.0,0.0,0.0,0.0,0.126984131336
1449618733618481749,0.329650794983,0.0,0.0,0.0,0.0,0.126984131336
1449618733664670286,0.301714288712,0.0,0.0,0.0,0.0,0.342857146263
1449618733698053371,0.301714288712,0.0,0.0,0.0,0.0,0.342857146263
1449618733738392292,0.301714288712,0.0,0.0,0.0,0.0,0.342857146263
1449618733777701957,0.251428577423,0.0,0.0,0.0,0.0,0.279365086555
1449618733818312429,0.251428577423,0.0,0.0,0.0,0.0,0.279365086555
1449618733857924227,0.301714288712,0.0,0.0,0.0,0.0,0.336507940292
1449618733898683039,0.301714288712,0.0,0.0,0.0,0.0,0.336507940292
1449618733939070556,0.296126987457,0.0,0.0,0.0,0.0,0.336507940292
1449618733978203168,0.296126987457,0.0,0.0,0.0,0.0,0.336507940292
1449618734018854354,0.296126987457,0.0,0.0,0.0,0.0,0.336507940292
1449618734057861522,0.301714288712,0.0,0.0,0.0,0.0,0.342857146263
1449618734098824268,0.301714288712,0.0,0.0,0.0,0.0,0.342857146263
1449618734138303390,0.296126987457,0.0,0.0,0.0,0.0,0.342857146263
1449618734179156029,0.296126987457,0.0,0.0,0.0,0.0,0.342857146263
1449618734218559139,0.296126987457,0.0,0.0,0.0,0.0,0.342857146263
1449618734257560417,0.301714288712,0.0,0.0,0.0,0.0,0.342857146263
1449618734298693054,0.301714288712,0.0,0.0,0.0,0.0,0.342857146263
1449618734338668575,0.296126987457,0.0,0.0,0.0,0.0,0.336507940292
1449618734377685226,0.296126987457,0.0,0.0,0.0,0.0,0.336507940292
1449618734422312180,0.296126987457,0.0,0.0,0.0,0.0,0.336507940292
1449618734457844050,0.296126987457,0.0,0.0,0.0,0.0,0.336507940292
1449618734497613409,0.301714288712,0.0,0.0,0.0,0.0,0.336507940292
1449618734538777585,0.296126987457,0.0,0.0,0.0,0.0,0.336507940292
1449618734577670767,0.296126987457,0.0,0.0,0.0,0.0,0.336507940292
1449618734618708404,0.296126987457,0.0,0.0,0.0,0.0,0.336507940292
1449618734659022757,0.301714288712,0.0,0.0,0.0,0.0,0.342857146263
1449618734698936487,0.301714288712,0.0,0.0,0.0,0.0,0.342857146263
1449618734738289399,0.301714288712,0.0,0.0,0.0,0.0,0.342857146263
1449618734778117904,0.301714288712,0.0,0.0,0.0,0.0,0.342857146263
1449618734821087373,0.301714288712,0.0,0.0,0.0,0.0,0.342857146263
1449618734857524181,0.301714288712,0.0,0.0,0.0,0.0,0.336507940292
1449618734898308411,0.301714288712,0.0,0.0,0.0,0.0,0.336507940292
1449618734937607300,0.296126987457,0.0,0.0,0.0,0.0,0.342857146263
1449618734978166342,0.296126987457,0.0,0.0,0.0,0.0,0.342857146263
1449618735018090253,0.296126987457,0.0,0.0,0.0,0.0,0.342857146263
1449618735057951056,0.251428577423,0.0,0.0,0.0,0.0,0.279365086555
1449618735098277450,0.251428577423,0.0,0.0,0.0,0.0,0.279365086555
1449618735139253808,0.296126987457,0.0,0.0,0.0,0.0,0.342857146263
1449618735179172685,0.296126987457,0.0,0.0,0.0,0.0,0.342857146263
1449618735217894339,0.296126987457,0.0,0.0,0.0,0.0,0.342857146263
1449618735258438325,0.296126987457,0.0,0.0,0.0,0.0,0.336507940292
1449618735297468462,0.296126987457,0.0,0.0,0.0,0.0,0.336507940292
1449618735337873737,0.296126987457,0.0,0.0,0.0,0.0,0.342857146263
1449618735382480180,0.296126987457,0.0,0.0,0.0,0.0,0.342857146263
1449618735418635107,0.296126987457,0.0,0.0,0.0,0.0,0.342857146263
1449618735458560188,0.296126987457,0.0,0.0,0.0,0.0,0.336507940292
1449618735497831035,0.296126987457,0.0,0.0,0.0,0.0,0.336507940292
1449618735538327054,0.301714288712,0.0,0.0,0.0,0.0,0.342857146263
1449618735577549025,0.301714288712,0.0,0.0,0.0,0.0,0.342857146263
1449618735617809155,0.301714288712,0.0,0.0,0.0,0.0,0.342857146263
1449618735658434903,0.296126987457,0.0,0.0,0.0,0.0,0.336507940292
1449618735697909605,0.296126987457,0.0,0.0,0.0,0.0,0.336507940292
1449618735740964724,0.296126987457,0.0,0.0,0.0,0.0,0.336507940292
1449618735777986746,0.301714288712,0.0,0.0,0.0,0.0,0.342857146263
1449618735817900609,0.301714288712,0.0,0.0,0.0,0.0,0.342857146263
1449618735859199894,0.296126987457,0.0,0.0,0.0,0.0,0.336507940292
1449618735897505550,0.296126987457,0.0,0.0,0.0,0.0,0.336507940292
1449618735940583115,0.301714288712,0.0,0.0,0.0,0.0,0.342857146263
1449618735979145606,0.301714288712,0.0,0.0,0.0,0.0,0.342857146263
1449618736026744265,0.301714288712,0.0,0.0,0.0,0.0,0.342857146263
1449618736059148554,0.346412698746,0.0,0.0,0.0,0.0,0.0126984134316
1449618736098643359,0.346412698746,0.0,0.0,0.0,0.0,0.0126984134316
1449618736137815885,0.346412698746,0.0,0.0,0.0,0.0,0.0126984134316
1449618736177830580,0.346412698746,0.0,0.0,0.0,0.0,0.00634920671582
1449618736217974382,0.346412698746,0.0,0.0,0.0,0.0,0.00634920671582
1449618736257620107,0.346412698746,0.0,0.0,0.0,0.0,0.00634920671582
1449618736297828479,0.346412698746,0.0,0.0,0.0,0.0,0.00634920671582
1449618736338452817,0.352,0.0,0.0,0.0,0.0,0.00634920671582
1449618736377478287,0.352,0.0,0.0,0.0,0.0,0.00634920671582
1449618736418171791,0.352,0.0,0.0,0.0,0.0,0.00634920671582
1449618736460016824,0.352,0.0,0.0,0.0,0.0,0.0
1449618736498417787,0.352,0.0,0.0,0.0,0.0,0.0
1449618736538392065,0.340825397491,0.0,0.0,0.0,0.0,-0.00634920671582
1449618736577678907,0.340825397491,0.0,0.0,0.0,0.0,-0.00634920671582
1449618736620011669,0.340825397491,0.0,0.0,0.0,0.0,-0.00634920671582
1449618736659026056,0.340825397491,0.0,0.0,0.0,0.0,-0.00634920671582
1449618736697625141,0.340825397491,0.0,0.0,0.0,0.0,-0.0571428596973
1449618736738345430,0.340825397491,0.0,0.0,0.0,0.0,-0.0571428596973
1449618736785560741,0.340825397491,0.0,0.0,0.0,0.0,-0.0571428596973
1449618736826449319,0.340825397491,0.0,0.0,0.0,0.0,-0.0571428596973
1449618736858600421,0.340825397491,0.0,0.0,0.0,0.0,-0.0571428596973
1449618736899499420,0.335238096237,0.0,0.0,0.0,0.0,-0.0761904776096
1449618736943401725,0.284952384949,0.0,0.0,0.0,0.0,-0.0761904776096
1449618736977718324,0.284952384949,0.0,0.0,0.0,0.0,-0.0761904776096
1449618737018333280,0.284952384949,0.0,0.0,0.0,0.0,-0.0761904776096
1449618737057992396,0.301714288712,0.0,0.0,0.0,0.0,-0.342857146263
1449618737097925838,0.301714288712,0.0,0.0,0.0,0.0,-0.342857146263
1449618737137800714,0.296126987457,0.0,0.0,0.0,0.0,-0.336507940292
1449618737183421668,0.296126987457,0.0,0.0,0.0,0.0,-0.336507940292
1449618737218250079,0.296126987457,0.0,0.0,0.0,0.0,-0.336507940292
1449618737257967859,0.296126987457,0.0,0.0,0.0,0.0,-0.336507940292
1449618737297476289,0.296126987457,0.0,0.0,0.0,0.0,-0.336507940292
1449618737338194046,0.296126987457,0.0,0.0,0.0,0.0,-0.336507940292
1449618737381969930,0.296126987457,0.0,0.0,0.0,0.0,-0.336507940292
1449618737422420947,0.296126987457,0.0,0.0,0.0,0.0,-0.336507940292
1449618737457676942,0.296126987457,0.0,0.0,0.0,0.0,-0.336507940292
1449618737498343146,0.296126987457,0.0,0.0,0.0,0.0,-0.336507940292
1449618737538240075,0.296126987457,0.0,0.0,0.0,0.0,-0.342857146263
1449618737578561368,0.296126987457,0.0,0.0,0.0,0.0,-0.342857146263
1449618737618173525,0.296126987457,0.0,0.0,0.0,0.0,-0.342857146263
1449618737658480691,0.296126987457,0.0,0.0,0.0,0.0,-0.336507940292
1449618737698438593,0.296126987457,0.0,0.0,0.0,0.0,-0.336507940292
1449618737738925506,0.296126987457,0.0,0.0,0.0,0.0,-0.336507940292
1449618737779190607,0.296126987457,0.0,0.0,0.0,0.0,-0.342857146263
1449618737818820862,0.296126987457,0.0,0.0,0.0,0.0,-0.342857146263
1449618737857456295,0.296126987457,0.0,0.0,0.0,0.0,-0.342857146263
1449618737899168112,0.296126987457,0.0,0.0,0.0,0.0,-0.342857146263
1449618737938452375,0.279365083694,0.0,0.0,0.0,0.0,-0.31746032238
1449618737981814604,0.279365083694,0.0,0.0,0.0,0.0,-0.31746032238
1449618738018287194,0.279365083694,0.0,0.0,0.0,0.0,-0.31746032238
1449618738058350594,0.279365083694,0.0,0.0,0.0,0.0,-0.31746032238
1449618738099560159,0.296126987457,0.0,0.0,0.0,0.0,-0.336507940292
1449618738138627804,0.301714288712,0.0,0.0,0.0,0.0,-0.336507940292
1449618738183132702,0.301714288712,0.0,0.0,0.0,0.0,-0.336507940292
1449618738217607905,0.301714288712,0.0,0.0,0.0,0.0,-0.336507940292
1449618738258279751,0.301714288712,0.0,0.0,0.0,0.0,-0.336507940292
1449618738297586612,0.296126987457,0.0,0.0,0.0,0.0,-0.336507940292
1449618738337539014,0.259809524059,0.0,0.0,0.0,0.0,-0.00952381007373
1449618738378327151,0.259809524059,0.0,0.0,0.0,0.0,-0.00952381007373
1449618738417880643,0.259809524059,0.0,0.0,0.0,0.0,-0.00952381007373
1449618738467462165,0.259809524059,0.0,0.0,0.0,0.0,-0.00952381007373
1449618738498272349,0.259809524059,0.0,0.0,0.0,0.0,-0.00476190503687
1449618738539004374,0.259809524059,0.0,0.0,0.0,0.0,0.0
1449618738594993262,0.259809524059,0.0,0.0,0.0,0.0,0.0
1449618738620968326,0.259809524059,0.0,0.0,0.0,0.0,0.0
1449618738658177303,0.31288889122,0.0,0.0,0.0,0.0,0.0
1449618738697863811,0.31288889122,0.0,0.0,0.0,0.0,0.0
1449618738737556314,0.31288889122,0.0,0.0,0.0,0.0,0.0
1449618738778292538,0.259809524059,0.0,0.0,0.0,0.0,0.0
1449618738817809452,0.259809524059,0.0,0.0,0.0,0.0,0.0
1449618738857768059,0.259809524059,0.0,0.0,0.0,0.0,0.0
1449618738898148542,0.296126987457,0.0,0.0,0.0,0.0,0.0126984134316
1449618738938254119,0.296126987457,0.0,0.0,0.0,0.0,0.0126984134316
1449618738978906520,0.148063493729,0.0,0.0,0.0,0.0,0.171428573132
1449618739020810632,0.148063493729,0.0,0.0,0.0,0.0,0.168253970146
1449618739058440875,0.148063493729,0.0,0.0,0.0,0.0,0.168253970146
1449618739098010746,0.148063493729,0.0,0.0,0.0,0.0,0.168253970146
1449618739148965511,0.148063493729,0.0,0.0,0.0,0.0,0.168253970146
1449618739185447401,0.148063493729,0.0,0.0,0.0,0.0,0.168253970146
1449618739217539532,0.150857144356,0.0,0.0,0.0,0.0,0.171428573132
1449618739259508352,0.148063493729,0.0,0.0,0.0,0.0,0.168253970146
1449618739299045052,0.148063493729,0.0,0.0,0.0,0.0,0.168253970146
1449618739342325800,0.148063493729,0.0,0.0,0.0,0.0,0.168253970146
1449618739379426669,0.148063493729,0.0,0.0,0.0,0.0,0.171428573132
1449618739421960000,0.148063493729,0.0,0.0,0.0,0.0,0.171428573132
1449618739458905082,0.148063493729,0.0,0.0,0.0,0.0,0.171428573132
1449618739497930370,0.148063493729,0.0,0.0,0.0,0.0,0.171428573132
1449618739542937407,0.131301589966,0.0,0.0,0.0,0.0,0.152380955219
1449618739579796812,0.150857144356,0.0,0.0,0.0,0.0,0.171428573132
1449618739617743689,0.150857144356,0.0,0.0,0.0,0.0,0.171428573132
1449618739657823391,0.148063493729,0.0,0.0,0.0,0.0,0.168253970146
1449618739698259589,0.148063493729,0.0,0.0,0.0,0.0,0.168253970146
1449618739737965953,0.148063493729,0.0,0.0,0.0,0.0,0.168253970146
1449618739779503679,0.148063493729,0.0,0.0,0.0,0.0,0.168253970146
1449618739817525401,0.128507939339,0.0,0.0,0.0,0.0,0.146031749249
1449618739857472249,0.128507939339,0.0,0.0,0.0,0.0,0.146031749249
1449618739897584304,0.128507939339,0.0,0.0,0.0,0.0,0.146031749249
1449618739939025987,0.128507939339,0.0,0.0,0.0,0.0,0.146031749249
1449618739979758922,0.150857144356,0.0,0.0,0.0,0.0,0.171428573132
1449618740026036599,0.150857144356,0.0,0.0,0.0,0.0,0.171428573132
1449618740068948320,0.150857144356,0.0,0.0,0.0,0.0,0.171428573132
1449618740099485568,0.148063493729,0.0,0.0,0.0,0.0,0.171428573132
1449618740137845266,0.148063493729,0.0,0.0,0.0,0.0,0.171428573132
1449618740177688855,0.150857144356,0.0,0.0,0.0,0.0,0.171428573132
1449618740218369395,0.150857144356,0.0,0.0,0.0,0.0,0.171428573132
1449618740257670692,0.148063493729,0.0,0.0,0.0,0.0,0.171428573132
1449618740298348088,0.148063493729,0.0,0.0,0.0,0.0,0.171428573132
1449618740337713362,-0.0,0.0,0.0,0.0,0.0,-0.0
1449618740383016225,-0.0,0.0,0.0,0.0,0.0,0.0
1449618740418536934,-0.0,0.0,0.0,0.0,0.0,0.0
1449618740457399803,-0.0,0.0,0.0,0.0,0.0,0.0
1449618740502118930,0.150857144356,0.0,0.0,0.0,0.0,0.171428573132
1449618740542336263,0.150857144356,0.0,0.0,0.0,0.0,0.171428573132
1449618740577861458,0.150857144356,0.0,0.0,0.0,0.0,0.171428573132
1449618740617309041,0.150857144356,0.0,0.0,0.0,0.0,0.171428573132
1449618740659558622,0.148063493729,0.0,0.0,0.0,0.0,0.171428573132
1449618740698181565,0.148063493729,0.0,0.0,0.0,0.0,0.171428573132
1449618740737834511,0.150857144356,0.0,0.0,0.0,0.0,0.171428573132
1449618740777944246,0.150857144356,0.0,0.0,0.0,0.0,0.171428573132
1449618740818623187,0.150857144356,0.0,0.0,0.0,0.0,0.171428573132
1449618740860196595,0.150857144356,0.0,0.0,0.0,0.0,0.171428573132
1449618740901649278,0.150857144356,0.0,0.0,0.0,0.0,0.171428573132
1449618740938247506,0.150857144356,0.0,0.0,0.0,0.0,0.171428573132
1449618740978115294,0.150857144356,0.0,0.0,0.0,0.0,0.171428573132
1449618741017581339,0.150857144356,0.0,0.0,0.0,0.0,0.171428573132
1449618741058393886,0.150857144356,0.0,0.0,0.0,0.0,0.171428573132
1449618741097623578,0.150857144356,0.0,0.0,0.0,0.0,0.171428573132
1449618741138601279,0.150857144356,0.0,0.0,0.0,0.0,0.171428573132
1449618741178145224,0.150857144356,0.0,0.0,0.0,0.0,0.168253970146
1449618741218440371,0.150857144356,0.0,0.0,0.0,0.0,0.168253970146
1449618741257657985,0.150857144356,0.0,0.0,0.0,0.0,0.171428573132
1449618741298259144,0.150857144356,0.0,0.0,0.0,0.0,0.171428573132
1449618741341010878,0.148063493729,0.0,0.0,0.0,0.0,0.168253970146
1449618741377715872,0.148063493729,0.0,0.0,0.0,0.0,0.168253970146
1449618741420175326,0.148063493729,0.0,0.0,0.0,0.0,0.168253970146
1449618741458964803,0.150857144356,0.0,0.0,0.0,0.0,0.171428573132
1449618741501111917,0.150857144356,0.0,0.0,0.0,0.0,0.171428573132
1449618741539960125,0.150857144356,0.0,0.0,0.0,0.0,0.171428573132
1449618741578631300,0.150857144356,0.0,0.0,0.0,0.0,0.168253970146
1449618741618104832,0.150857144356,0.0,0.0,0.0,0.0,0.168253970146
1449618741658293797,0.125714288712,0.0,0.0,0.0,0.0,0.142857146263
1449618741700153402,0.125714288712,0.0,0.0,0.0,0.0,0.142857146263
1449618741738759936,0.148063493729,0.0,0.0,0.0,0.0,0.168253970146
1449618741780010323,0.148063493729,0.0,0.0,0.0,0.0,0.168253970146
1449618741817785114,0.148063493729,0.0,0.0,0.0,0.0,0.168253970146
1449618741857959809,0.148063493729,0.0,0.0,0.0,0.0,0.168253970146
1449618741897805360,0.150857144356,0.0,0.0,0.0,0.0,0.168253970146
1449618741940157288,0.122920638084,0.0,0.0,0.0,0.0,0.142857146263
1449618741980899448,0.122920638084,0.0,0.0,0.0,0.0,0.142857146263
1449618742017767415,0.122920638084,0.0,0.0,0.0,0.0,0.142857146263
1449618742057780603,0.122920638084,0.0,0.0,0.0,0.0,0.142857146263
1449618742100133788,0.150857144356,0.0,0.0,0.0,0.0,0.171428573132
1449618742138641644,0.148063493729,0.0,0.0,0.0,0.0,0.168253970146
1449618742177930508,0.148063493729,0.0,0.0,0.0,0.0,0.168253970146
1449618742224683797,0.148063493729,0.0,0.0,0.0,0.0,0.168253970146
1449618742262275228,0.148063493729,0.0,0.0,0.0,0.0,0.168253970146
1449618742298266054,0.150857144356,0.0,0.0,0.0,0.0,0.171428573132
1449618742337956271,0.150857144356,0.0,0.0,0.0,0.0,0.171428573132
1449618742377782775,0.0740317468643,0.0,0.0,0.0,0.0,0.0857142865658
1449618742417718062,0.0740317468643,0.0,0.0,0.0,0.0,0.0857142865658
1449618742458213614,0.0740317468643,0.0,0.0,0.0,0.0,0.0857142865658
