%time,field.header.seq,field.header.stamp,field.header.frame_id,field.polygon.points0.x,field.polygon.points0.y,field.polygon.points0.z,field.polygon.points1.x,field.polygon.points1.y,field.polygon.points1.z,field.polygon.points2.x,field.polygon.points2.y,field.polygon.points2.z,field.polygon.points3.x,field.polygon.points3.y,field.polygon.points3.z,field.polygon.points4.x,field.polygon.points4.y,field.polygon.points4.z
1449618704329343028,1,1449618704329226929,odom,0.569999992847,0.0,0.0,0.469999998808,-0.305000007153,0.0,-0.730000019073,-0.305000007153,0.0,-0.730000019073,0.305000007153,0.0,0.469999998808,0.305000007153,0.0
1449618704529272439,2,1449618704529181922,odom,0.569999992847,0.0,0.0,0.469999998808,-0.305000007153,0.0,-0.730000019073,-0.305000007153,0.0,-0.730000019073,0.305000007153,0.0,0.469999998808,0.305000007153,0.0
1449618704729387507,3,1449618704729221520,odom,0.569999992847,0.0,0.0,0.469999998808,-0.305000007153,0.0,-0.730000019073,-0.305000007153,0.0,-0.730000019073,0.305000007153,0.0,0.469999998808,0.305000007153,0.0
1449618704929526211,4,1449618704929341102,odom,0.569999992847,0.0,0.0,0.469999998808,-0.305000007153,0.0,-0.730000019073,-0.305000007153,0.0,-0.730000019073,0.305000007153,0.0,0.469999998808,0.305000007153,0.0
1449618705129866991,5,1449618705129443766,odom,0.569999992847,0.0,0.0,0.469999998808,-0.305000007153,0.0,-0.730000019073,-0.305000007153,0.0,-0.730000019073,0.305000007153,0.0,0.469999998808,0.305000007153,0.0
1449618705329804338,6,1449618705329554894,odom,0.569999992847,0.0,0.0,0.469999998808,-0.305000007153,0.0,-0.730000019073,-0.305000007153,0.0,-0.730000019073,0.305000007153,0.0,0.469999998808,0.305000007153,0.0
1449618705529564521,7,1449618705529274346,odom,0.569999992847,0.0,0.0,0.469999998808,-0.305000007153,0.0,-0.730000019073,-0.305000007153,0.0,-0.730000019073,0.305000007153,0.0,0.469999998808,0.305000007153,0.0
1449618705730048848,8,1449618705729576378,odom,0.569999992847,0.0,0.0,0.469999998808,-0.305000007153,0.0,-0.730000019073,-0.305000007153,0.0,-0.730000019073,0.305000007153,0.0,0.469999998808,0.305000007153,0.0
1449618705930550917,9,1449618705929778996,odom,0.569999992847,0.0,0.0,0.469999998808,-0.305000007153,0.0,-0.730000019073,-0.305000007153,0.0,-0.730000019073,0.305000007153,0.0,0.469999998808,0.305000007153,0.0
1449618706129892213,10,1449618706129465724,odom,0.569999992847,0.0,0.0,0.469999998808,-0.305000007153,0.0,-0.730000019073,-0.305000007153,0.0,-0.730000019073,0.305000007153,0.0,0.469999998808,0.305000007153,0.0
1449618706444665658,11,1449618706444460670,odom,0.569999992847,0.0,0.0,0.469999998808,-0.305000007153,0.0,-0.730000019073,-0.305000007153,0.0,-0.730000019073,0.305000007153,0.0,0.469999998808,0.305000007153,0.0
1449618706815503490,12,1449618706815347586,odom,0.569999992847,0.0,0.0,0.469999998808,-0.305000007153,0.0,-0.730000019073,-0.305000007153,0.0,-0.730000019073,0.305000007153,0.0,0.469999998808,0.305000007153,0.0
1449618707030964369,13,1449618707027213211,odom,0.569999992847,0.0,0.0,0.469999998808,-0.305000007153,0.0,-0.730000019073,-0.305000007153,0.0,-0.730000019073,0.305000007153,0.0,0.469999998808,0.305000007153,0.0
1449618707194189402,14,1449618707193619700,odom,0.569999992847,0.0,0.0,0.469999998808,-0.305000007153,0.0,-0.730000019073,-0.305000007153,0.0,-0.730000019073,0.305000007153,0.0,0.469999998808,0.305000007153,0.0
1449618707305976879,15,1449618707301508438,odom,0.569999992847,0.0,0.0,0.469999998808,-0.305000007153,0.0,-0.730000019073,-0.305000007153,0.0,-0.730000019073,0.305000007153,0.0,0.469999998808,0.305000007153,0.0
1449618707502364080,16,1449618707480833682,odom,0.569999992847,0.0,0.0,0.469999998808,-0.305000007153,0.0,-0.730000019073,-0.305000007153,0.0,-0.730000019073,0.305000007153,0.0,0.469999998808,0.305000007153,0.0
1449618707625842279,17,1449618707624989389,odom,0.569999992847,0.0,0.0,0.469999998808,-0.305000007153,0.0,-0.730000019073,-0.305000007153,0.0,-0.730000019073,0.305000007153,0.0,0.469999998808,0.305000007153,0.0
1449618707835581852,18,1449618707835362672,odom,0.569999992847,0.0,0.0,0.469999998808,-0.305000007153,0.0,-0.730000019073,-0.305000007153,0.0,-0.730000019073,0.305000007153,0.0,0.469999998808,0.305000007153,0.0
1449618708057614486,19,1449618708056833107,odom,0.569999992847,0.0,0.0,0.469999998808,-0.305000007153,0.0,-0.730000019073,-0.305000007153,0.0,-0.730000019073,0.305000007153,0.0,0.469999998808,0.305000007153,0.0
1449618708296527907,20,1449618708295026856,odom,0.569999992847,0.0,0.0,0.469999998808,-0.305000007153,0.0,-0.730000019073,-0.305000007153,0.0,-0.730000019073,0.305000007153,0.0,0.469999998808,0.305000007153,0.0
1449618708462911516,21,1449618708455725211,odom,0.569999992847,0.0,0.0,0.469999998808,-0.305000007153,0.0,-0.730000019073,-0.305000007153,0.0,-0.730000019073,0.305000007153,0.0,0.469999998808,0.305000007153,0.0
1449618708625940013,22,1449618708625434124,odom,0.569999992847,0.0,0.0,0.469999998808,-0.305000007153,0.0,-0.730000019073,-0.305000007153,0.0,-0.730000019073,0.305000007153,0.0,0.469999998808,0.305000007153,0.0
1449618708844959310,23,1449618708844702849,odom,0.569999992847,0.0,0.0,0.469999998808,-0.305000007153,0.0,-0.730000019073,-0.305000007153,0.0,-0.730000019073,0.305000007153,0.0,0.469999998808,0.305000007153,0.0
1449618709022922153,24,1449618709021968587,odom,0.569999992847,0.0,0.0,0.469999998808,-0.305000007153,0.0,-0.730000019073,-0.305000007153,0.0,-0.730000019073,0.305000007153,0.0,0.469999998808,0.305000007153,0.0
1449618709251206595,25,1449618709250835171,odom,0.569999992847,0.0,0.0,0.469999998808,-0.305000007153,0.0,-0.730000019073,-0.305000007153,0.0,-0.730000019073,0.305000007153,0.0,0.469999998808,0.305000007153,0.0
1449618709512834430,26,1449618709510596909,odom,0.569999992847,0.0,0.0,0.469999998808,-0.305000007153,0.0,-0.730000019073,-0.305000007153,0.0,-0.730000019073,0.305000007153,0.0,0.469999998808,0.305000007153,0.0
1449618709661468371,27,1449618709659203967,odom,0.569999992847,0.0,0.0,0.469999998808,-0.305000007153,0.0,-0.730000019073,-0.305000007153,0.0,-0.730000019073,0.305000007153,0.0,0.469999998808,0.305000007153,0.0
1449618709840600958,28,1449618709839750182,odom,0.569999992847,0.0,0.0,0.469999998808,-0.305000007153,0.0,-0.730000019073,-0.305000007153,0.0,-0.730000019073,0.305000007153,0.0,0.469999998808,0.305000007153,0.0
1449618710034126632,29,1449618710033039109,odom,0.569999992847,0.0,0.0,0.469999998808,-0.305000007153,0.0,-0.730000019073,-0.305000007153,0.0,-0.730000019073,0.305000007153,0.0,0.469999998808,0.305000007153,0.0
1449618710287411671,30,1449618710284158977,odom,0.572847783566,0.00605410896242,0.0,0.476076573133,-0.299985647202,0.0,-0.723856449127,-0.312667071819,0.0,-0.730302810669,0.297298878431,0.0,0.469630181789,0.309980303049,0.0
1449618710484621868,31,1449618710477141009,odom,0.584366500378,0.00614540837705,0.0,0.487595260143,-0.299894362688,0.0,-0.712337732315,-0.312575787306,0.0,-0.718784153461,0.297390162945,0.0,0.481148868799,0.310071587563,0.0
1449618710629089920,32,1449618710628846644,odom,0.595884025097,0.00632800115272,0.0,0.499112844467,-0.299711763859,0.0,-0.700820147991,-0.312393188477,0.0,-0.707266569138,0.297572761774,0.0,0.492666453123,0.310254186392,0.0
1449618710869548896,33,1449618710852293763,odom,0.612904012203,0.0187378320843,0.0,0.522622406483,-0.289278775454,0.0,-0.676774561405,-0.327317386866,0.0,-0.696110844612,0.282376080751,0.0,0.503286123276,0.320414692163,0.0
1449618711081936940,34,1449618711078585863,odom,0.638585269451,0.025609459728,0.0,0.551563739777,-0.28334403038,0.0,-0.647364258766,-0.334055572748,0.0,-0.67314261198,0.275399506092,0.0,0.525785386562,0.32611104846,0.0
1449618711312862715,35,1449618711309624659,odom,0.673107564449,0.027161045,0.0,0.586086094379,-0.281792461872,0.0,-0.612841963768,-0.332503974438,0.0,-0.638620316982,0.276951104403,0.0,0.560307741165,0.327662616968,0.0
1449618711477999919,36,1449618711474540627,odom,0.712723255157,0.0414728671312,0.0,0.632250785828,-0.269250780344,0.0,-0.565337657928,-0.345289766788,0.0,-0.603990793228,0.26348438859,0.0,0.593597650528,0.339523345232,0.0
1449618711650421056,37,1449618711647534685,odom,0.764455378056,0.044757515192,0.0,0.683982908726,-0.265966147184,0.0,-0.51360553503,-0.342005103827,0.0,-0.55225867033,0.266769021749,0.0,0.645329773426,0.342808008194,0.0
1449618711872877307,38,1449618711868967949,odom,0.812877058983,0.0542032159865,0.0,0.735692739487,-0.257353514433,0.0,-0.461025267839,-0.346044182777,0.0,-0.506109714508,0.26228749752,0.0,0.69060832262,0.350978165865,0.0
1449618712072786842,39,1449618712072595077,odom,0.864594519138,0.0577003955841,0.0,0.787410259247,-0.25385633111,0.0,-0.409307777882,-0.342546999454,0.0,-0.454392194748,0.265784680843,0.0,0.742325782776,0.354475349188,0.0
1449618712272399880,40,1449618712271725865,odom,0.922845602036,0.0491748712957,0.0,0.839093923569,-0.260681003332,0.0,-0.359231233597,-0.324059784412,0.0,-0.391448765993,0.285088837147,0.0,0.80687636137,0.348467618227,0.0
1449618712450189411,41,1449618712448156159,odom,0.972430109978,0.0330029092729,0.0,0.878898501396,-0.27404242754,0.0,-0.3208335042,-0.299403846264,0.0,-0.333725571632,0.310459911823,0.0,0.866006433964,0.335821330547,0.0
1449618712654270460,42,1449618712653508887,odom,1.02723670006,0.015145573765,0.0,0.924019098282,-0.288780629635,0.0,-0.275913923979,-0.276099205017,0.0,-0.269467532635,0.333866745234,0.0,0.930465459824,0.321185320616,0.0
1449618712869493430,43,1449618712869143841,odom,1.08078122139,-0.0173220746219,0.0,0.96165561676,-0.315372556448,0.0,-0.235932841897,-0.239333584905,0.0,-0.197279691696,0.369440555573,0.0,1.00030875206,0.293401569128,0.0
1449618713094313548,44,1449618713093659560,odom,1.12679171562,-0.0521466545761,0.0,0.992090702057,-0.343489438295,0.0,-0.199810236692,-0.204305186868,0.0,-0.129058226943,0.40157777071,0.0,1.06284272671,0.262393504381,0.0
1449618713276219531,45,1449618713271499346,odom,1.17089104652,-0.0894130915403,0.0,1.02099049091,-0.373234927654,0.0,-0.161895692348,-0.171293884516,0.0,-0.0592423379421,0.430006623268,0.0,1.12364387512,0.22806558013,0.0
1449618713458986806,46,1449618713448175455,odom,1.21303188801,-0.128598481417,0.0,1.04835033417,-0.404107093811,0.0,-0.122219309211,-0.139972999692,0.0,0.0120488582179,0.455066561699,0.0,1.1826184988,0.19093246758,0.0
1449618713679531034,47,1449618713674824238,odom,1.24513936043,-0.155052319169,0.0,1.07180726528,-0.425202250481,0.0,-0.0898013859987,-0.124095201492,0.0,0.0632613673806,0.46638917923,0.0,1.22486996651,0.165282130241,0.0
1449618713879985647,48,1449618713874755570,odom,1.26975083351,-0.174348399043,0.0,1.09074795246,-0.440774708986,0.0,-0.0642374232411,-0.115184858441,0.0,0.101270750165,0.471932739019,0.0,1.25625610352,0.146342888474,0.0
1449618714066000572,49,1449618714065216056,odom,1.29485476017,-0.200956493616,0.0,1.10749638081,-0.461574733257,0.0,-0.0365877337754,-0.0995368137956,0.0,0.147448211908,0.482039302588,0.0,1.29153239727,0.120001398027,0.0
1449618714274229999,50,1449618714273280382,odom,1.3183940649,-0.2215834409,0.0,1.12556958199,-0.478183746338,0.0,-0.0106075163931,-0.0920470133424,0.0,0.18567866087,0.485509693623,0.0,1.32185578346,0.0993729755282,0.0
1449618714516361552,51,1449618714515113405,odom,1.34205770493,-0.2494802773,0.0,1.14119613171,-0.499839305878,0.0,0.0178300421685,-0.0778811424971,0.0,0.232325449586,0.49316328764,0.0,1.35569155216,0.0712051168084,0.0
1449618714655099179,52,1449618714654533013,odom,1.36986649036,-0.273346930742,0.0,1.16375863552,-0.519404947758,0.0,0.0495613478124,-0.0737992152572,0.0,0.276077598333,0.49258440733,0.0,1.39027488232,0.0469786822796,0.0
1449618714898446549,53,1449618714894725807,odom,1.39737260342,-0.304593890905,0.0,1.18356847763,-0.54399484396,0.0,0.084056340158,-0.063294313848,0.0,0.328412473202,0.495624393225,0.0,1.42792463303,0.014923831448,0.0
1449618715067046265,54,1449618715061818200,odom,1.43439900875,-0.327654749155,0.0,1.21807694435,-0.5647829175,0.0,0.123706102371,-0.0724897161126,0.0,0.373955130577,0.483815431595,0.0,1.46832597256,-0.00847774464637,0.0
1449618715334770813,55,1449618715334321079,odom,1.47611165047,-0.36756581068,0.0,1.25238156319,-0.597717642784,0.0,0.174165830016,-0.0709815695882,0.0,0.441923350096,0.477111428976,0.0,1.52013909817,-0.0496246479452,0.0
1449618715452569645,56,1449618715443750855,odom,1.52250754833,-0.397172570229,0.0,1.29635775089,-0.624947190285,0.0,0.22376871109,-0.0868460983038,0.0,0.497303426266,0.458386659622,0.0,1.56989252567,-0.0797144174576,0.0
1449618715730214805,57,1449618715729076714,odom,1.57873094082,-0.432731032372,0.0,1.35018670559,-0.658103048801,0.0,0.28334414959,-0.108697034419,0.0,0.562625527382,0.433614611626,0.0,1.62946808338,-0.115791380405,0.0
1449618715870551289,58,1449618715856717177,odom,1.63911581039,-0.478713512421,0.0,1.40585958958,-0.699204981327,0.0,0.350866675377,-0.127374500036,0.0,0.641547203064,0.408913552761,0.0,1.69653999805,-0.162916958332,0.0
1449618716155118241,59,1449618716153586841,odom,1.6796246767,-0.50067025423,0.0,1.44636833668,-0.721161723137,0.0,0.391375511885,-0.149331212044,0.0,0.682056009769,0.386956810951,0.0,1.73704886436,-0.18487367034,0.0
1449618716310122804,60,1449618716305981820,odom,1.74027073383,-0.533818721771,0.0,1.50701439381,-0.754310190678,0.0,0.452021569014,-0.182479724288,0.0,0.742702066898,0.353808313608,0.0,1.79769492149,-0.218022167683,0.0
1449618716505439752,61,1449618716497787093,odom,1.78064775467,-0.55601555109,0.0,1.54739141464,-0.776507019997,0.0,0.492398619652,-0.204676538706,0.0,0.783079087734,0.331611484289,0.0,1.83807194233,-0.240218997002,0.0
1449618716665211719,62,1449618716658681270,odom,1.83121061325,-0.583594858646,0.0,1.59795427322,-0.804086327553,0.0,0.542961418629,-0.232255831361,0.0,0.833641886711,0.304032206535,0.0,1.88863480091,-0.267798274755,0.0
1449618716881450176,63,1449618716877543386,odom,1.8874219656,-0.606726408005,0.0,1.65650868416,-0.829670608044,0.0,0.595531761646,-0.269021064043,0.0,0.880528628826,0.270308881998,0.0,1.94150555134,-0.290340662003,0.0
1449618717037884992,64,1449618717031840338,odom,1.94451487064,-0.615152180195,0.0,1.72078478336,-0.845304012299,0.0,0.642569065094,-0.318567931652,0.0,0.910326600075,0.229525074363,0.0,1.98854231834,-0.297210991383,0.0
1449618717284972522,65,1449618717275012436,odom,2.006970644,-0.624402821064,0.0,1.79064869881,-0.861530959606,0.0,0.696277856827,-0.369237780571,0.0,0.946526885033,0.187067404389,0.0,2.0408976078,-0.305225789547,0.0
1449618717479394725,66,1449618717478709694,odom,2.07481789589,-0.626708567142,0.0,1.86870992184,-0.872766554356,0.0,0.754512667656,-0.427160829306,0.0,0.981028914452,0.13922278583,0.0,2.09522628784,-0.306382924318,0.0
1449618717699476784,67,1449618717693602525,odom,2.14259266853,-0.626429140568,0.0,1.94706726074,-0.880977392197,0.0,0.815034210682,-0.482855260372,0.0,1.01741290092,0.0925948768854,0.0,2.14944601059,-0.305527240038,0.0
1449618717877386549,68,1449618717870287496,odom,2.20486354828,-0.621375620365,0.0,2.02026987076,-0.883959233761,0.0,0.872423708439,-0.534032046795,0.0,1.05030333996,0.0494564399123,0.0,2.19814968109,-0.300470739603,0.0
1449618718027436097,69,1449618718027000255,odom,2.27681064606,-0.609641551971,0.0,2.10634303093,-0.881608128548,0.0,0.941617310047,-0.592793643475,0.0,1.08843135834,-0.00072466378333,0.0,2.25315713882,-0.289539188147,0.0
1449618718209755080,70,1449618718207114144,odom,2.34240674973,-0.592915773392,0.0,2.18654131889,-0.873506128788,0.0,1.00818705559,-0.646610498428,0.0,1.12352573872,-0.047613799572,0.0,2.30187988281,-0.274509459734,0.0
1449618718437921423,71,1449618718434684977,odom,2.40330505371,-0.578407287598,0.0,2.25943636894,-0.865333795547,0.0,1.07254648209,-0.688437581062,0.0,1.1624686718,-0.0851018577814,0.0,2.34935879707,-0.261998057365,0.0
1449618718647801863,72,1449618718647447294,odom,2.45781683922,-0.560670316219,0.0,2.32620215416,-0.853420376778,0.0,1.13289690018,-0.726839721203,0.0,1.19724202156,-0.120242878795,0.0,2.39054727554,-0.246823549271,0.0
1449618718809568062,73,1449618718807926214,odom,2.50249385834,-0.546138167381,0.0,2.38022518158,-0.842913150787,0.0,1.18350720406,-0.754222452641,0.0,1.22859168053,-0.145890802145,0.0,2.42530965805,-0.23458147049,0.0
1449618719041773043,74,1449618719040694743,odom,2.54403686523,-0.523964524269,0.0,2.43441915512,-0.825641393661,0.0,1.23502206802,-0.787602782249,0.0,1.25435841084,-0.177909329534,0.0,2.45375537872,-0.215947940946,0.0
1449618719210897452,75,1449618719210687596,odom,2.58175563812,-0.506413578987,0.0,2.48175573349,-0.81141358614,0.0,1.28175568581,-0.81141358614,0.0,1.28175568581,-0.201413556933,0.0,2.48175573349,-0.201413556933,0.0
1449618719432201767,76,1449618719429155908,odom,2.61314153671,-0.487919211388,0.0,2.5228600502,-0.795935809612,0.0,1.3234629631,-0.833974421024,0.0,1.30412662029,-0.224280953407,0.0,2.50352358818,-0.186242356896,0.0
1449618719681878220,77,1449618719680994416,odom,2.64140558243,-0.474726498127,0.0,2.55765390396,-0.78458237648,0.0,1.3593287468,-0.847961187363,0.0,1.3271112442,-0.238812550902,0.0,2.52543640137,-0.175433754921,0.0
1449618719837369803,78,1449618719835682107,odom,2.6693789959,-0.460848271847,0.0,2.59219455719,-0.772405028343,0.0,1.39547657967,-0.861095666885,0.0,1.3503922224,-0.252763986588,0.0,2.54711008072,-0.164073333144,0.0
1449618720033729619,79,1449618720030420295,odom,2.69705820084,-0.446442574263,0.0,2.62647557259,-0.75956094265,0.0,1.43189930916,-0.873523890972,0.0,1.3739682436,-0.266280919313,0.0,2.56854438782,-0.152318015695,0.0
1449618720220137063,80,1449618720214676137,odom,2.72223067284,-0.437745511532,0.0,2.65496110916,-0.751592338085,0.0,1.46165585518,-0.87817299366,0.0,1.3973107338,-0.271576136351,0.0,2.59061598778,-0.144995480776,0.0
1449618720423133229,81,1449618720422727341,odom,2.74574589729,-0.416499972343,0.0,2.68845868111,-0.732321441174,0.0,1.49976563454,-0.896664857864,0.0,1.41622436047,-0.292412549257,0.0,2.60491752625,-0.128069102764,0.0
1449618720598791974,82,1449618720595847162,odom,2.75915241241,-0.408565491438,0.0,2.70520591736,-0.724974691868,0.0,1.5183160305,-0.901870906353,0.0,1.42839372158,-0.298535168171,0.0,2.61528372765,-0.121638968587,0.0
1449618720811253541,83,1449618720807713762,odom,2.76485323906,-0.407746583223,0.0,2.71090698242,-0.724155783653,0.0,1.52401697636,-0.901051998138,0.0,1.43409478664,-0.297716230154,0.0,2.62098479271,-0.120820052922,0.0
1449618720994562282,84,1449618720991043567,odom,2.76485323906,-0.407746583223,0.0,2.71090698242,-0.724155783653,0.0,1.52401697636,-0.901051998138,0.0,1.43409478664,-0.297716230154,0.0,2.62098479271,-0.120820052922,0.0
1449618721200964787,85,1449618721199478283,odom,2.76485323906,-0.407746583223,0.0,2.71090698242,-0.724155783653,0.0,1.52401697636,-0.901051998138,0.0,1.43409478664,-0.297716230154,0.0,2.62098479271,-0.120820052922,0.0
1449618721404100865,86,1449618721403979372,odom,2.76485323906,-0.407746583223,0.0,2.71090698242,-0.724155783653,0.0,1.52401697636,-0.901051998138,0.0,1.43409478664,-0.297716230154,0.0,2.62098479271,-0.120820052922,0.0
1449618721586043620,87,1449618721585433367,odom,2.77054524422,-0.406867444515,0.0,2.71659898758,-0.723276674747,0.0,1.52970898151,-0.900172889233,0.0,1.4397867918,-0.296837121248,0.0,2.62667679787,-0.119940936565,0.0
1449618721827553900,88,1449618721827174320,odom,2.78000831604,-0.393092721701,0.0,2.73276114464,-0.710571408272,0.0,1.54987502098,-0.912512421608,0.0,1.44722163677,-0.311211913824,0.0,2.63010787964,-0.109270870686,0.0
1449618722012983718,89,1449618722005749687,odom,2.79880237579,-0.383588165045,0.0,2.75491285324,-0.701548397541,0.0,1.57422685623,-0.915978729725,0.0,1.46522474289,-0.315796613693,0.0,2.6459107399,-0.101366296411,0.0
1449618722238851032,90,1449618722227889351,odom,2.82634997368,-0.359633564949,0.0,2.79256153107,-0.678825259209,0.0,1.61926591396,-0.930574178696,0.0,1.49129354954,-0.334148943424,0.0,2.66458916664,-0.0824000090361,0.0
1449618722388501440,91,1449618722379354509,odom,2.85738706589,-0.340186357498,0.0,2.83035206795,-0.660020887852,0.0,1.66263914108,-0.936510622501,0.0,1.52209019661,-0.342923223972,0.0,2.68980312347,-0.0664334520698,0.0
1449618722570888794,92,1449618722569155795,odom,2.88916826248,-0.313217699528,0.0,2.87228536606,-0.633748471737,0.0,1.71392357349,-0.947114408016,0.0,1.55462920666,-0.358280539513,0.0,2.71299099922,-0.0449145846069,0.0
1449618722781998615,93,1449618722781118368,odom,2.93114829063,-0.28207141161,0.0,2.92443418503,-0.602976262569,0.0,1.7765879631,-0.952903449535,0.0,1.59870827198,-0.369414925575,0.0,2.74655461311,-0.0194877516478,0.0
1449618723031195775,94,1449618723030848950,odom,2.9720826149,-0.249494194984,0.0,2.97554421425,-0.570450603962,0.0,1.83936703205,-0.956587314606,0.0,1.64308083057,-0.379030615091,0.0,2.77925801277,0.00710610067472,0.0
1449618723194902958,95,1449618723194408289,odom,3.01146030426,-0.222584500909,0.0,3.02170443535,-0.543396055698,0.0,1.89394187927,-0.953459084034,0.0,1.68549323082,-0.380179822445,0.0,2.8132557869,0.0298832282424,0.0
1449618723432190530,96,1449618723430325687,odom,3.06063604355,-0.197808593512,0.0,3.07426977158,-0.518494009972,0.0,1.95090377331,-0.940452158451,0.0,1.73640835285,-0.369407713413,0.0,2.85977435112,0.0525504462421,0.0
1449618723583215223,97,1449618723577934717,odom,3.10916185379,-0.179581299424,0.0,3.12279582024,-0.500266671181,0.0,1.99942970276,-0.922224879265,0.0,1.7849342823,-0.351180434227,0.0,2.90830039978,0.0707777291536,0.0
1449618723795829928,98,1449618723793611322,odom,3.15768790245,-0.161354020238,0.0,3.17132163048,-0.482039421797,0.0,2.04795575142,-0.903997600079,0.0,1.83346021175,-0.332953155041,0.0,2.95682621002,0.0890050157905,0.0
1449618723994368284,99,1449618723994067668,odom,3.20118546486,-0.138028204441,0.0,3.21820759773,-0.458551615477,0.0,2.09936332703,-0.892357766628,0.0,1.87884533405,-0.323612004519,0.0,2.99768948555,0.110194183886,0.0
1449618724185909043,100,1449618724185527034,odom,3.24411249161,-0.121286287904,0.0,3.26113462448,-0.441809684038,0.0,2.14229059219,-0.87561583519,0.0,1.9217723608,-0.30687007308,0.0,3.0406165123,0.126936092973,0.0
1449618724381945808,101,1449618724381288633,odom,3.28197908401,-0.0995562523603,0.0,3.30238747597,-0.419881880283,0.0,2.18819022179,-0.865487575531,0.0,1.96167397499,-0.299103975296,0.0,3.07587122917,0.146501749754,0.0
1449618724583466363,102,1449618724580044677,odom,3.3196721077,-0.0775678828359,0.0,3.34346461296,-0.397659927607,0.0,2.23403859138,-0.855015456676,0.0,2.00154948235,-0.291057258844,0.0,3.11097550392,0.166298270226,0.0
1449618724795226491,103,1449618724792585764,odom,3.35691094398,-0.062117613852,0.0,3.38070344925,-0.382209658623,0.0,2.27127742767,-0.839565217495,0.0,2.03878831863,-0.275606989861,0.0,3.14821434021,0.181748539209,0.0
1449618724977512196,104,1449618724976123393,odom,3.4049487114,-0.0351733900607,0.0,3.43212246895,-0.354996144772,0.0,2.32759165764,-0.824050366879,0.0,2.0891559124,-0.262580573559,0.0,3.19368648529,0.206473663449,0.0
1449618725184460610,105,1449618725184230890,odom,3.45266103745,-0.0149117019027,0.0,3.479834795,-0.33473443985,0.0,2.37530398369,-0.803788661957,0.0,2.13686800003,-0.242318883538,0.0,3.24139881134,0.22673535347,0.0
1449618725376793816,106,1449618725376612859,odom,3.50015354156,-0.00158522417769,0.0,3.52394604683,-0.321677297354,0.0,2.41452002525,-0.779032826424,0.0,2.18203091621,-0.215074598789,0.0,3.29145693779,0.24228091538,0.0
1449618725614232764,107,1449618725613217933,odom,3.55274486542,0.00650546234101,0.0,3.56976675987,-0.314017951488,0.0,2.45092272758,-0.747824132442,0.0,2.2304046154,-0.179078325629,0.0,3.34924864769,0.254727840424,0.0
1449618725776313288,108,1449618725775647036,odom,3.61036586761,0.0084233423695,0.0,3.61721897125,-0.31247857213,0.0,2.48518610001,-0.710600674152,0.0,2.28280735016,-0.135150536895,0.0,3.41484022141,0.262971580029,0.0
1449618725981893997,109,1449618725980487195,odom,3.67175579071,-0.00370514881797,0.0,3.66165065765,-0.324521124363,0.0,2.51017069817,-0.662298500538,0.0,2.33846712112,-0.0769627690315,0.0,3.48994731903,0.260814607143,0.0
1449618726192894155,110,1449618726192374463,odom,3.73232221603,-0.0187070518732,0.0,3.70528721809,-0.338541567326,0.0,2.53757429123,-0.615031301975,0.0,2.39702534676,-0.0214439127594,0.0,3.56473827362,0.255045831203,0.0
1449618726400264931,111,1449618726399899387,odom,3.78806734085,-0.0314499884844,0.0,3.74754071236,-0.349856287241,0.0,2.56918644905,-0.576751947403,0.0,2.45384788513,0.0222447104752,0.0,3.63220191002,0.249140381813,0.0
1449618726617261379,112,1449618726616826827,odom,3.84136223793,-0.0537357591093,0.0,3.78407502174,-0.369557201862,0.0,2.59538197517,-0.533900618553,0.0,2.51184082031,0.0703516826034,0.0,3.70053386688,0.234695121646,0.0
1449618726790819433,113,1449618726790340281,odom,3.88423418999,-0.0732928514481,0.0,3.81365180016,-0.386411249638,0.0,2.61907529831,-0.500374138355,0.0,2.56114435196,0.106868796051,0.0,3.75572061539,0.22083170712,0.0
1449618726993622165,114,1449618726991568521,odom,3.92623996735,-0.0946443155408,0.0,3.84248828888,-0.404500186443,0.0,2.64416313171,-0.467878967524,0.0,2.61194562912,0.141269639134,0.0,3.81027078629,0.204648435116,0.0
1449618727197476381,115,1449618727194943806,odom,3.97007799149,-0.111211642623,0.0,3.8765463829,-0.41825696826,0.0,2.6768143177,-0.443618416786,0.0,2.66392230988,0.166245356202,0.0,3.86365437508,0.191606789827,0.0
1449618727401371600,116,1449618727396749006,odom,4.01628065109,-0.122984424233,0.0,3.91628050804,-0.427984446287,0.0,2.71628046036,-0.427984446287,0.0,2.71628046036,0.182015582919,0.0,3.91628050804,0.182015582919,0.0
1449618727595995881,117,1449618727591414363,odom,4.05944395065,-0.129281997681,0.0,3.9562265873,-0.433208197355,0.0,2.75629353523,-0.420526772738,0.0,2.76273989677,0.189439177513,0.0,3.96267294884,0.176757767797,0.0
1449618727861168211,118,1449618727859829705,odom,4.11127758026,-0.129829794168,0.0,4.00805997849,-0.433755993843,0.0,2.80812692642,-0.421074569225,0.0,2.81457328796,0.188891381025,0.0,4.01450634003,0.176209956408,0.0
1449618728014632112,119,1449618728013598289,odom,4.1602640152,-0.124171324074,0.0,4.06026411057,-0.429171323776,0.0,2.86026382446,-0.429171323776,0.0,2.86026382446,0.180828690529,0.0,4.06026411057,0.180828690529,0.0
1449618728185134400,120,1449618728184940572,odom,4.21196508408,-0.111394286156,0.0,4.11843347549,-0.418439626694,0.0,2.91870164871,-0.443801045418,0.0,2.90580940247,0.166062712669,0.0,4.10554170609,0.191424146295,0.0
1449618728443788621,121,1449618728442192015,odom,4.26596498489,-0.091084651649,0.0,4.18221330643,-0.400940537453,0.0,2.98388791084,-0.464319318533,0.0,2.95167040825,0.144829303026,0.0,4.149995327,0.208208099008,0.0
1449618728625138478,122,1449618728614321094,odom,4.31587266922,-0.0631959661841,0.0,4.24529027939,-0.376314342022,0.0,3.05071377754,-0.490277260542,0.0,2.99278283119,0.116965673864,0.0,4.1873588562,0.230928599834,0.0
1449618728791530832,123,1449618728788205293,odom,4.36252450943,-0.0398307666183,0.0,4.30190324783,-0.355029165745,0.0,3.1115398407,-0.506801486015,0.0,3.03438878059,0.0982999280095,0.0,4.22475242615,0.250072270632,0.0
1449618729004687203,124,1449618728999334071,odom,4.40270519257,-0.015756841749,0.0,4.35210561752,-0.332718491554,0.0,3.16715145111,-0.522147655487,0.0,3.07085824013,0.0802040845156,0.0,4.25581264496,0.26963326335,0.0
1449618729223429605,125,1449618729223031124,odom,4.45801401138,0.0320343412459,0.0,4.42760038376,-0.287496596575,0.0,3.2570309639,-0.551630735397,0.0,3.12276268005,0.0434088520706,0.0,4.29333257675,0.307542949915,0.0
1449618729401565420,126,1449618729398476355,odom,4.50129985809,0.0612601339817,0.0,4.48103094101,-0.259074300528,0.0,3.31942224503,-0.560181379318,0.0,3.16635942459,0.0303030218929,0.0,4.32796812057,0.331410080194,0.0
1449618729616036192,127,1449618729615249394,odom,4.53992366791,0.10406909138,0.0,4.53660106659,-0.216888800263,0.0,3.39251685143,-0.578926742077,0.0,3.20848083496,0.0026494115591,0.0,4.35256528854,0.36468732357,0.0
1449618729808646620,128,1449618729805677727,odom,4.56892490387,0.126520290971,0.0,4.57238674164,-0.194436118007,0.0,3.43620967865,-0.580572843552,0.0,3.23992347717,-0.0030161307659,0.0,4.37610054016,0.383120596409,0.0
1449618729991432973,129,1449618729990868248,odom,4.60980319977,0.181451946497,0.0,4.63359546661,-0.138640120625,0.0,3.52416968346,-0.595995604992,0.0,3.29168057442,-0.0320374295115,0.0,4.40110635757,0.425318092108,0.0
1449618730186442393,130,1449618730186148977,odom,4.64195299149,0.236306279898,0.0,4.68598031998,-0.0816348865628,0.0,3.60776472092,-0.608370959759,0.0,3.34000730515,-0.0602779611945,0.0,4.41822290421,0.466458112001,0.0
1449618730383227144,131,1449618730382879762,odom,4.6656165123,0.290129899979,0.0,4.72970199585,-0.0243824906647,0.0,3.6870303154,-0.618382036686,0.0,3.38508057594,-0.0883571729064,0.0,4.42775249481,0.505642354488,0.0
1449618730582837223,132,1449618730578705459,odom,4.68590164185,0.345215141773,0.0,4.76978778839,0.0353956483305,0.0,3.7668504715,-0.623479902744,0.0,3.43192195892,-0.113653503358,0.0,4.43485927582,0.545222043991,0.0
1449618730791554532,133,1449618730790542464,odom,4.70727729797,0.404912054539,0.0,4.81062698364,0.101030685008,0.0,3.85145545006,-0.620072722435,0.0,3.4848947525,-0.132493883371,0.0,4.44406604767,0.588609516621,0.0
1449618730985848582,134,1449618730983813860,odom,4.72039318085,0.462166965008,0.0,4.84279060364,0.165445104241,0.0,3.93124008179,-0.614987790585,0.0,3.53452014923,-0.151616260409,0.0,4.44607067108,0.628816664219,0.0
1449618731177395707,135,1449618731175117118,odom,4.72985458374,0.520137906075,0.0,4.87080812454,0.231768161058,0.0,4.01054191589,-0.604857504368,0.0,3.58525729179,-0.167555660009,0.0,4.44552326202,0.669070005417,0.0
1449618731381313276,136,1449618731381138069,odom,4.74635028839,0.580466091633,0.0,4.90233755112,0.299943357706,0.0,4.08745956421,-0.580950140953,0.0,3.63967180252,-0.166720315814,0.0,4.45455026627,0.714173197746,0.0
1449618731565967058,137,1449618731565291084,odom,4.7653002739,0.629216611385,0.0,4.93010139465,0.353779494762,0.0,4.14355564117,-0.552502036095,0.0,3.68286252022,-0.152674719691,0.0,4.46940803528,0.753606796265,0.0
1449618731811868522,138,1449618731811114740,odom,4.7833366394,0.689116597176,0.0,4.95963048935,0.420889943838,0.0,4.21208667755,-0.517821073532,0.0,3.73490858078,-0.137819632888,0.0,4.48245239258,0.800891399384,0.0
1449618731974448359,139,1449618731973787196,odom,4.80889797211,0.742213129997,0.0,4.9908208847,0.477772325277,0.0,4.26328325272,-0.476527988911,0.0,3.77818083763,-0.106696382165,0.0,4.5057182312,0.847603917122,0.0
1449618732176205181,140,1449618732175961718,odom,4.82322692871,0.803047955036,0.0,5.01616287231,0.546531379223,0.0,4.32960367203,-0.437661916018,0.0,3.82930517197,-0.0886609256268,0.0,4.51586437225,0.895532310009,0.0
1449618732375357360,141,1449618732373581655,odom,4.8525428772,0.8562926054,0.0,5.04817867279,0.601829230785,0.0,4.37205839157,-0.38956451416,0.0,3.86810016632,-0.0458700917661,0.0,4.54422044754,0.945523679256,0.0
1449618732581713501,142,1449618732581407380,odom,4.87051391602,0.916872501373,0.0,5.07411766052,0.668738484383,0.0,4.42976331711,-0.343589305878,0.0,3.915163517,-0.0160425007343,0.0,4.55951786041,0.996285259724,0.0
1449618732816290441,143,1449618732812391917,odom,4.89059066772,0.972208976746,0.0,5.09939289093,0.728433430195,0.0,4.47657775879,-0.297286331654,0.0,3.95516991615,0.0193114727736,0.0,4.57798528671,1.04503130913,0.0
1449618732989622743,144,1449618732987680706,odom,4.91248226166,1.0328810215,0.0,5.12639045715,0.793572902679,0.0,4.52539205551,-0.245080679655,0.0,3.99741005898,0.0604267194867,0.0,4.5984082222,1.09908032417,0.0
1449618733218089741,145,1449618733214622601,odom,4.92461824417,1.07894039154,0.0,5.14353609085,0.844206571579,0.0,4.56462335587,-0.206916809082,0.0,4.03030252457,0.0873636901379,0.0,4.60921478271,1.1384871006,0.0
1449618733388005344,146,1449618733382702065,odom,4.94259691238,1.12489032745,0.0,5.16398286819,0.892483055592,0.0,4.59621095657,-0.164699494839,0.0,4.05880975723,0.12391795963,0.0,4.62658166885,1.18110048771,0.0
1449618733570388647,147,1449618733570063253,odom,4.9599814415,1.17108464241,0.0,5.18381118774,0.941029965878,0.0,4.62724304199,-0.122093677521,0.0,4.08682203293,0.160828471184,0.0,4.64339017868,1.22395217419,0.0
1449618733797006279,148,1449618733794693744,odom,4.97002458572,1.21768593788,0.0,5.19866657257,0.992413163185,0.0,4.66469144821,-0.0822358652949,0.0,4.11841154099,0.189201548696,0.0,4.65238666534,1.26385056973,0.0
1449618733994969677,149,1449618733994712089,odom,4.98199939728,1.26947367191,0.0,5.21535158157,1.0490834713,0.0,4.70420742035,-0.0366108641028,0.0,4.15231323242,0.223220556974,0.0,4.66345691681,1.30891489983,0.0
1449618734181815423,150,1449618734180026524,odom,4.99730634689,1.31634223461,0.0,5.23297452927,1.09843039513,0.0,4.73333263397,0.00739501370117,0.0,4.17872285843,0.261379599571,0.0,4.67836475372,1.35241496563,0.0
1449618734385142195,151,1449618734384968377,odom,5.00955247879,1.3582085371,0.0,5.2475104332,1.14279937744,0.0,4.75942611694,0.0465447790921,0.0,4.20216369629,0.294654130936,0.0,4.69024753571,1.39090871811,0.0
1449618734592291707,152,1449618734591913761,odom,5.00960493088,1.40514314175,0.0,5.25427150726,1.19738519192,0.0,4.80118274689,0.086209833622,0.0,4.23633527756,0.316529929638,0.0,4.68942403793,1.42770528793,0.0
1449618734787007373,153,1449618734785484552,odom,5.00548934937,1.46223092079,0.0,5.25871658325,1.26499807835,0.0,4.85299062729,0.135668024421,0.0,4.2789144516,0.341912120581,0.0,4.6846408844,1.47124218941,0.0
1449618735003435942,154,1449618735000572668,odom,5.00396251678,1.51448118687,0.0,5.26331472397,1.32537436485,0.0,4.89359092712,0.18375082314,0.0,4.31326580048,0.371693730354,0.0,4.68298959732,1.51331734657,0.0
1449618735194006581,155,1449618735193813997,odom,4.98852968216,1.57006859779,0.0,5.25750780106,1.39492368698,0.0,4.94859552383,0.235366329551,0.0,4.35915374756,0.392396658659,0.0,4.66806602478,1.55195403099,0.0
1449618735405007269,156,1449618735401728792,odom,4.96487379074,1.62878763676,0.0,5.24440956116,1.47103869915,0.0,5.00959444046,0.294237136841,0.0,4.41138696671,0.413601458073,0.0,4.6462020874,1.59040307999,0.0
1449618735613468468,157,1449618735612387901,odom,4.94232988358,1.6764960289,0.0,5.22980737686,1.53373110294,0.0,5.05747365952,0.346170067787,0.0,4.45379686356,0.433773070574,0.0,4.6261305809,1.62133407593,0.0
1449618735823481963,158,1449618735822856074,odom,4.9114074707,1.72634625435,0.0,5.20735311508,1.60208439827,0.0,5.11061668396,0.405989915133,0.0,4.50260162354,0.455164402723,0.0,4.59933853149,1.65125894547,0.0
1449618736005629819,159,1449618736002566965,odom,4.87738800049,1.77413773537,0.0,5.18061304092,1.6688785553,0.0,5.15986251831,0.4690579772,0.0,4.54995346069,0.47960627079,0.0,4.57070446014,1.67942690849,0.0
1449618736241314628,160,1449618736241119432,odom,4.84656000137,1.81704771519,0.0,5.15492153168,1.72795045376,0.0,5.19756889343,0.528708517551,0.0,4.58795404434,0.507029414177,0.0,4.54530668259,1.70627129078,0.0
1449618736439266410,161,1449618736435184961,odom,4.80085325241,1.8570253849,0.0,5.11495637894,1.79096245766,0.0,5.24612188339,0.598152518272,0.0,4.6397767067,0.531476736069,0.0,4.50861120224,1.72428667545,0.0
1449618736645710976,162,1449618736643532179,odom,4.75826072693,1.89750099182,0.0,5.07591819763,1.85147416592,0.0,5.28240346909,0.669372737408,0.0,4.68150186539,0.564409375191,0.0,4.47501659393,1.7465108633,0.0
1449618736910657074,163,1449618736902538122,odom,4.72546577454,1.93800914288,0.0,5.0447845459,1.90544760227,0.0,5.30104064941,0.733128130436,0.0,4.7051115036,0.602864682674,0.0,4.44885587692,1.77518415451,0.0
1449618737053852027,164,1449618737051292961,odom,4.68402481079,1.97821140289,0.0,5.00461769104,1.96256029606,0.0,5.32243299484,0.805411398411,0.0,4.73421573639,0.643855392933,0.0,4.41640043259,1.80100429058,0.0
1449618737305869340,165,1449618737302378066,odom,4.64606380463,2.02099347115,0.0,4.96703195572,2.01890468597,0.0,5.33346366882,0.876220166683,0.0,4.75259923935,0.68995064497,0.0,4.38616752625,1.83263504505,0.0
1449618737433536697,166,1449618737432121427,odom,4.62006998062,2.06090760231,0.0,4.94101047516,2.06560254097,0.0,5.33151102066,0.930917799473,0.0,4.75471258163,0.73241353035,0.0,4.36421251297,1.86709845066,0.0
1449618737698025532,167,1449618737685737924,odom,4.60018396378,2.09971261024,0.0,4.92105722427,2.10779905319,0.0,5.32352638245,0.977304399014,0.0,4.74885845184,0.772715747356,0.0,4.34638881683,1.90321052074,0.0
1449618737873018646,168,1449618737872762504,odom,4.59189891815,2.14257788658,0.0,4.91283941269,2.14727306366,0.0,5.30333948135,1.01258814335,0.0,4.72654151917,0.814083993435,0.0,4.3360414505,1.94876885414,0.0
1449618738077627317,169,1449618738076695119,odom,4.59588670731,2.18931865692,0.0,4.91681528091,2.18383789062,0.0,5.27115106583,1.03734493256,0.0,4.68835020065,0.857224285603,0.0,4.33401441574,2.00371742249,0.0
1449618738304108363,170,1449618738300134745,odom,4.60470867157,2.24575185776,0.0,4.92511892319,2.22671365738,0.0,5.23068761826,1.06627070904,0.0,4.6407957077,0.910939872265,0.0,4.33522701263,2.071382761,0.0
1449618738425943117,171,1449618738420984576,odom,4.61772966385,2.29627537727,0.0,4.93704891205,2.26371383667,0.0,5.19330501556,1.09139442444,0.0,4.59737586975,0.961131036282,0.0,4.34112024307,2.13345050812,0.0
1449618738674971784,172,1449618738671506351,odom,4.64536237717,2.34825921059,0.0,4.96197652817,2.29552912712,0.0,5.14343261719,1.10932779312,0.0,4.54044675827,1.01708757877,0.0,4.35899066925,2.20328903198,0.0
1449618738832908648,173,1449618738831010337,odom,4.67614269257,2.39837479591,0.0,4.98877906799,2.3256881237,0.0,5.0947060585,1.13037252426,0.0,4.48708724976,1.07652640343,0.0,4.38116025925,2.27184200287,0.0
1449618739049751672,174,1449618739048846482,odom,4.69816303253,2.43449091911,0.0,5.00744867325,2.3486571312,0.0,5.06276702881,1.14993298054,0.0,4.45341587067,1.12181270123,0.0,4.39809703827,2.3205370903,0.0
1449618739237928323,175,1449618739229661206,odom,4.72138595581,2.46963739395,0.0,5.02676773071,2.37081027031,0.0,5.03137922287,1.17081904411,0.0,4.42138385773,1.16847491264,0.0,4.41677236557,2.36846613884,0.0
1449618739543342553,176,1449618739536597386,odom,4.73365688324,2.49835252762,0.0,5.03688240051,2.39309334755,0.0,5.01613140106,1.19327282906,0.0,4.40622282028,1.20382118225,0.0,4.4269733429,2.40364170074,0.0
1449618739779532845,177,1449618739771781565,odom,4.74027967453,2.52412748337,0.0,5.04237556458,2.41566967964,0.0,5.00894641876,1.21613538265,0.0,4.39918279648,1.23312854767,0.0,4.43261194229,2.43266296387,0.0
1449618739925689891,178,1449618739924548393,odom,4.74704408646,2.54407262802,0.0,5.04797697067,2.43242835999,0.0,5.00187301636,1.23331427574,0.0,4.39232349396,1.25675034523,0.0,4.43842744827,2.45586442947,0.0
1449618740240558449,179,1449618740240346924,odom,4.74773836136,2.56133723259,0.0,5.04867124557,2.44969296455,0.0,5.00256729126,1.25057899952,0.0,4.39301776886,1.27401506901,0.0,4.43912172318,2.47312903404,0.0
1449618740437566341,180,1449618740436004273,odom,4.74818086624,2.57284784317,0.0,5.04911375046,2.46120357513,0.0,5.00300979614,1.2620896101,0.0,4.39346027374,1.28552567959,0.0,4.43956422806,2.48463964462,0.0
1449618740643072736,181,1449618740642713529,odom,4.74859285355,2.58435964584,0.0,5.04952573776,2.47271537781,0.0,5.00342226028,1.27360129356,0.0,4.39387226105,1.29703736305,0.0,4.43997621536,2.4961514473,0.0
1449618740817047872,182,1449618740816571096,odom,4.74900531769,2.5958712101,0.0,5.0499382019,2.48422694206,0.0,5.00383424759,1.28511297703,0.0,4.39428472519,1.30854904652,0.0,4.44038820267,2.50766301155,0.0
1449618741042086949,183,1449618741038219292,odom,4.74922657013,2.6016266346,0.0,5.05015945435,2.48998236656,0.0,5.00405550003,1.29086828232,0.0,4.39450597763,1.31430435181,0.0,4.44060945511,2.51341843605,0.0
1449618741240995271,184,1449618741240694177,odom,4.74347686768,2.61046123505,0.0,5.04557275772,2.50200343132,0.0,5.01214361191,1.30246913433,0.0,4.40238046646,1.31946229935,0.0,4.43580961227,2.51899647713,0.0
1449618741430411929,185,1449618741430216424,odom,4.74392795563,2.62773394585,0.0,5.04602384567,2.51927614212,0.0,5.01259469986,1.31974184513,0.0,4.40283155441,1.33673501015,0.0,4.43626070023,2.53626942635,0.0
1449618741663428737,186,1449618741661514968,odom,4.73815488815,2.64226675034,0.0,5.04137992859,2.53700757027,0.0,5.02062940598,1.33718693256,0.0,4.41072034836,1.34773528576,0.0,4.43147134781,2.54755592346,0.0
1449618741871000796,187,1449618741865147457,odom,4.73235845566,2.66249608994,0.0,5.03667879105,2.56044721603,0.0,5.02860879898,1.36047434807,0.0,4.41862249374,1.36457657814,0.0,4.42669248581,2.56454944611,0.0
1449618742041335102,188,1449618742041083271,odom,4.72637033463,2.67690348625,0.0,5.03175258636,2.57807636261,0.0,5.03636407852,1.37808513641,0.0,4.42636871338,1.37574100494,0.0,4.42175722122,2.57573223114,0.0
1449618742274472400,189,1449618742272175807,odom,4.72627353668,2.6941819191,0.0,5.03165578842,2.59535479546,0.0,5.03626728058,1.39536356926,0.0,4.42627191544,1.39301931858,0.0,4.42166042328,2.59301042557,0.0
1449618742487226640,190,1449618742485956911,odom,4.72007322311,2.70852470398,0.0,5.02648258209,2.61293029785,0.0,5.04377508163,1.41305482388,0.0,4.43383836746,1.40426445007,0.0,4.41654586792,2.60413980484,0.0
1449618742688560479,191,1449618742681909068,odom,4.71372127533,2.72280097008,0.0,5.02112388611,2.6304500103,0.0,5.05109548569,1.43082439899,0.0,4.4412856102,1.41558873653,0.0,4.41131401062,2.61521434784,0.0
1449618742866475753,192,1449618742862884059,odom,4.71340322495,2.73431563377,0.0,5.02080583572,2.641964674,0.0,5.0507774353,1.44233906269,0.0,4.44096755981,1.42710340023,0.0,4.41099596024,2.62672901154,0.0
1449618743067041442,193,1449618743063320664,odom,4.71322870255,2.74007248878,0.0,5.02063131332,2.64772152901,0.0,5.0506029129,1.4480959177,0.0,4.44079351425,1.43286025524,0.0,4.41082191467,2.63248586655,0.0
1449618743325301356,194,1449618743325121531,odom,4.71322870255,2.74007248878,0.0,5.02063131332,2.64772152901,0.0,5.0506029129,1.4480959177,0.0,4.44079351425,1.43286025524,0.0,4.41082191467,2.63248586655,0.0
1449618743537247574,195,1449618743526893818,odom,4.71322870255,2.74007248878,0.0,5.02063131332,2.64772152901,0.0,5.0506029129,1.4480959177,0.0,4.44079351425,1.43286025524,0.0,4.41082191467,2.63248586655,0.0
1449618743654141504,196,1449618743643385805,odom,4.71322870255,2.74007248878,0.0,5.02063131332,2.64772152901,0.0,5.0506029129,1.4480959177,0.0,4.44079351425,1.43286025524,0.0,4.41082191467,2.63248586655,0.0
1449618743897839780,197,1449618743892369282,odom,4.71322870255,2.74007248878,0.0,5.02063131332,2.64772152901,0.0,5.0506029129,1.4480959177,0.0,4.44079351425,1.43286025524,0.0,4.41082191467,2.63248586655,0.0
1449618744122131706,198,1449618744106532308,odom,4.71322870255,2.74007248878,0.0,5.02063131332,2.64772152901,0.0,5.0506029129,1.4480959177,0.0,4.44079351425,1.43286025524,0.0,4.41082191467,2.63248586655,0.0
1449618744365767284,199,1449618744359443852,odom,4.71322870255,2.74007248878,0.0,5.02063131332,2.64772152901,0.0,5.0506029129,1.4480959177,0.0,4.44079351425,1.43286025524,0.0,4.41082191467,2.63248586655,0.0
1449618744475381114,200,1449618744472424326,odom,4.7071056366,2.74276828766,0.0,5.01546669006,2.65367102623,0.0,5.05811452866,1.45442914963,0.0,4.44849967957,1.43274998665,0.0,4.40585231781,2.63199186325,0.0
1449618744708542347,201,1449618744707395884,odom,4.69477510452,2.74796485901,0.0,5.00495052338,2.66540455818,0.0,5.0729341507,1.46733176708,0.0,4.4639134407,1.43277359009,0.0,4.39593029022,2.63084626198,0.0
1449618744853626217,202,1449618744850938854,odom,4.68117666245,2.77013874054,0.0,4.99302768707,2.69415211678,0.0,5.08631658554,1.49778389931,0.0,4.47816228867,1.45036196709,0.0,4.3848733902,2.64673042297,0.0
1449618745119229712,203,1449618745080472451,odom,4.66080665588,2.79425597191,0.0,4.97490930557,2.72819304466,0.0,5.10607481003,1.53538298607,0.0,4.49973011017,1.46870720387,0.0,4.36856460571,2.66151714325,0.0
1449618745308754109,204,1449618745302540197,odom,4.64467573166,2.82711672783,0.0,4.96010494232,2.76770710945,0.0,5.11645030975,1.57793557644,0.0,4.51165008545,1.49845981598,0.0,4.35530424118,2.68823122978,0.0
1449618745629453730,205,1449618745627852808,odom,4.62848377228,2.85390114784,0.0,4.94509792328,2.80117106438,0.0,5.1265540123,1.61496973038,0.0,4.52356863022,1.52272951603,0.0,4.3421125412,2.70893096924,0.0
1449618745757948290,206,1449618745752770056,odom,4.59472036362,2.90646743774,0.0,4.91328001022,2.8671643734,0.0,5.1447019577,1.68969094753,0.0,4.54615306854,1.5720512867,0.0,4.31473064423,2.74952483177,0.0
1449618745904840771,207,1449618745904514582,odom,4.58366823196,2.93067598343,0.0,4.90262556076,2.89474177361,0.0,5.14647817612,1.71977961063,0.0,4.54920578003,1.5958211422,0.0,4.30535316467,2.77078318596,0.0
1449618746089862175,208,1449618746086351033,odom,4.56346797943,2.96752715111,0.0,4.88311338425,2.938341856,0.0,5.15174388885,1.76879608631,0.0,4.55722475052,1.63224220276,0.0,4.28859424591,2.80178809166,0.0
1449618746310183237,209,1449618746301693450,odom,4.55165672302,3.01799917221,0.0,4.87130212784,2.98881387711,0.0,5.13993263245,1.8192679882,0.0,4.54541349411,1.68271410465,0.0,4.2767829895,2.85226011276,0.0
1449618746466226085,210,1449618746464041360,odom,4.51933097839,3.07231402397,0.0,4.83974075317,3.05327582359,0.0,5.14530992508,1.89283299446,0.0,4.55541801453,1.73750209808,0.0,4.24984931946,2.89794492722,0.0
1449618746625426392,211,1449618746624196545,odom,4.49758529663,3.12908911705,0.0,4.81817865372,3.11343812943,0.0,5.13599395752,1.95628917217,0.0,4.54777622223,1.79473316669,0.0,4.22996139526,2.95188212395,0.0
1449618746880708850,212,1449618746875924422,odom,4.46984100342,3.18105697632,0.0,4.79069375992,3.17218494415,0.0,5.13289356232,2.02201151848,0.0,4.54822206497,1.84805977345,0.0,4.20602178574,2.99823331833,0.0
1449618747061629357,213,1449618747057805650,odom,4.44123744965,3.23249864578,0.0,4.76220560074,3.23040986061,0.0,5.12863731384,2.08772540092,0.0,4.54777288437,1.90145587921,0.0,4.18134117126,3.0441403389,0.0
1449618747230283525,214,1449618747229597518,odom,4.41860055923,3.2826654911,0.0,4.73957300186,3.28396868706,0.0,5.118060112,2.14522051811,0.0,4.53919649124,1.95282280445,0.0,4.1607093811,3.09157109261,0.0
1449618747496948626,215,1449618747494966708,odom,4.39555025101,3.33262944221,0.0,4.71649074554,3.33732438087,0.0,5.10699081421,2.20263957977,0.0,4.53019285202,2.00413537025,0.0,4.13969278336,3.13882017136,0.0
1449618747652266008,216,1449618747650637310,odom,4.37191534042,3.38232684135,0.0,4.69278860092,3.3904132843,0.0,5.09525823593,2.25991845131,0.0,4.52058982849,2.05532979965,0.0,4.11812067032,3.18582463264,0.0
1449618747836181091,217,1449618747829003204,odom,4.35979557037,3.43605494499,0.0,4.68073606491,3.44074988365,0.0,5.07123613358,2.30606508255,0.0,4.49443817139,2.10756087303,0.0,4.10393810272,3.24224567413,0.0
1449618748045493651,218,1449618748041938685,odom,4.34119701385,3.49056458473,0.0,4.66213750839,3.49525976181,0.0,5.05263757706,2.36057496071,0.0,4.47583961487,2.16207075119,0.0,4.0853395462,3.29675555229,0.0
1449618748275853552,219,1449618748265185262,odom,4.33302259445,3.55460882187,0.0,4.65399122238,3.5525200367,0.0,5.02042293549,2.40983557701,0.0,4.43955850601,2.2235660553,0.0,4.07312631607,3.36625051498,0.0
1449618748474046199,220,1449618748459518747,odom,4.33277893066,3.61772871017,0.0,4.65351963043,3.60546660423,0.0,4.98354578018,2.45174098015,0.0,4.39706850052,2.28397774696,0.0,4.06704235077,3.43770337105,0.0
1449618748653863452,221,1449618748646641008,odom,4.32194757462,3.6774969101,0.0,4.64254045486,3.66184592247,0.0,4.96035575867,2.50469684601,0.0,4.37213850021,2.34314084053,0.0,4.05432319641,3.50028991699,0.0
1449618748894095437,222,1449618748893612357,odom,4.31658840179,3.72078704834,0.0,4.63699817657,3.70174884796,0.0,4.94256734848,2.54130601883,0.0,4.35267543793,2.38597512245,0.0,4.04710674286,3.54641819,0.0
1449618749135246002,223,1449618749129824751,odom,4.3184170723,3.76282501221,0.0,4.63835287094,3.73701930046,0.0,4.91932821274,2.57037758827,0.0,4.32628488541,2.42754864693,0.0,4.04531002045,3.59419035912,0.0
1449618749270473299,224,1449618749269221323,odom,4.32116317749,3.80482172966,0.0,4.64048194885,3.77226018906,0.0,4.89673805237,2.59994077682,0.0,4.30080890656,2.46967744827,0.0,4.04455327988,3.6419968605,0.0
1449618749435890712,225,1449618749435668129,odom,4.33030653,3.85073661804,0.0,4.64843320847,3.80806946754,0.0,4.8673992157,2.62821602821,0.0,4.26764059067,2.51690840721,0.0,4.04867458344,3.69676160812,0.0
1449618749716226677,226,1449618749714965302,odom,4.34579515457,3.9057943821,0.0,4.66183423996,3.84972143173,0.0,4.83074426651,2.66166853905,0.0,4.22681760788,2.57580590248,0.0,4.05790758133,3.76385879517,0.0
1449618749904841415,227,1449618749872063672,odom,4.38265132904,3.96465301514,0.0,4.69368219376,3.88537526131,0.0,4.77432250977,2.6880877018,0.0,4.16570138931,2.64709544182,0.0,4.0850610733,3.84438276291,0.0
1449618750074047815,228,1449618750073909406,odom,4.42330121994,4.02061080933,0.0,4.72762155533,3.91856169701,0.0,4.71955156326,2.71858882904,0.0,4.10956525803,2.72269129753,0.0,4.11763525009,3.9226641655,0.0
1449618750233999605,229,1449618750232904287,odom,4.4616150856,4.07100200653,0.0,4.75885772705,3.94987463951,0.0,4.67476654053,2.75282478333,0.0,4.06626605988,2.79557108879,0.0,4.1503572464,3.99262094498,0.0
1449618750498396202,230,1449618750494365212,odom,4.50908088684,4.11512422562,0.0,4.79655838013,3.97235941887,0.0,4.62422418594,2.78479838371,0.0,4.02054738998,2.87240123749,0.0,4.19288110733,4.05996227264,0.0
1449618750712503567,231,1449618750712265593,odom,4.55216026306,4.14841222763,0.0,4.83001375198,3.98771810532,0.0,4.5827755928,2.8134636879,0.0,3.98586273193,2.93914294243,0.0,4.23310089111,4.11339759827,0.0
1449618750893771159,232,1449618750892017212,odom,4.59169006348,4.18339300156,0.0,4.86066818237,4.00824832916,0.0,4.55175590515,2.84869098663,0.0,3.96231412888,3.00572133064,0.0,4.2712264061,4.16527843475,0.0
1449618751101920627,233,1449618751098341863,odom,4.63836765289,4.21144723892,0.0,4.89570713043,4.01961040497,0.0,4.51393938065,2.88195776939,0.0,3.93563270569,3.07602286339,0.0,4.31740045547,4.21367549896,0.0
1449618751245298848,234,1449618751240631289,odom,4.67269611359,4.23582983017,0.0,4.92169857025,4.03328895569,0.0,4.49219512939,2.91278600693,0.0,3.92260622978,3.13111686707,0.0,4.35210943222,4.25161981583,0.0
1449618751494502019,235,1449618751492853633,odom,4.69919395447,4.25311613083,0.0,4.94165086746,4.04278421402,0.0,4.4768447876,2.93645906448,0.0,3.91446280479,3.17273545265,0.0,4.37926912308,4.27906084061,0.0
1449618751673627138,236,1449618751672391304,odom,4.72393941879,4.26426839828,0.0,4.95960760117,4.04635667801,0.0,4.45996570587,2.95532107353,0.0,3.90535616875,3.20930576324,0.0,4.40499782562,4.3003411293,0.0
1449618751848870397,237,1449618751833112601,odom,4.7330827713,4.2695479393,0.0,4.9664349556,4.04915761948,0.0,4.45529127121,2.96346330643,0.0,3.90339660645,3.22329473495,0.0,4.41454029083,4.308989048,0.0
1449618752114448771,238,1449618752113934322,odom,4.7330827713,4.2695479393,0.0,4.9664349556,4.04915761948,0.0,4.45529127121,2.96346330643,0.0,3.90339660645,3.22329473495,0.0,4.41454029083,4.308989048,0.0
1449618752245567405,239,1449618752244847886,odom,4.7330827713,4.2695479393,0.0,4.9664349556,4.04915761948,0.0,4.45529127121,2.96346330643,0.0,3.90339660645,3.22329473495,0.0,4.41454029083,4.308989048,0.0
1449618752446672474,240,1449618752442742360,odom,4.7330827713,4.2695479393,0.0,4.9664349556,4.04915761948,0.0,4.45529127121,2.96346330643,0.0,3.90339660645,3.22329473495,0.0,4.41454029083,4.308989048,0.0
1449618752653990648,241,1449618752653871148,odom,4.7330827713,4.2695479393,0.0,4.9664349556,4.04915761948,0.0,4.45529127121,2.96346330643,0.0,3.90339660645,3.22329473495,0.0,4.41454029083,4.308989048,0.0
1449618752853036217,242,1449618752851659832,odom,4.73977327347,4.26954555511,0.0,4.97078323364,4.04670143127,0.0,4.44819450378,2.96646976471,0.0,3.89907670021,3.23211884499,0.0,4.42166519165,4.31235074997,0.0
1449618753071993871,243,1449618753071769470,odom,4.74897193909,4.27465724945,0.0,4.97761392593,4.04938459396,0.0,4.44363832474,2.97473549843,0.0,3.89735865593,3.24617290497,0.0,4.43133401871,4.32082223892,0.0
1449618753274006512,244,1449618753261848180,odom,4.76081371307,4.28481578827,0.0,4.98706245422,4.05713939667,0.0,4.44176006317,2.98819351196,0.0,3.89837908745,3.26538872719,0.0,4.44368124008,4.33433485031,0.0
1449618753506944100,245,1449618753502968386,odom,4.77950048447,4.29453611374,0.0,5.00088691711,4.06212854385,0.0,4.43311500549,3.00494599342,0.0,3.89571380615,3.29356360435,0.0,4.46348571777,4.35074615479,0.0
1449618753668056899,246,1449618753663279903,odom,4.80119419098,4.3088889122,0.0,5.017619133,4.07185459137,0.0,4.42763090134,3.02690768242,0.0,3.89644932747,3.32681822777,0.0,4.48643779755,4.37176513672,0.0
1449618753903691259,247,1449618753900654453,odom,4.82035398483,4.31776428223,0.0,5.03172111511,4.0762090683,0.0,4.41978025436,3.0439646244,0.0,3.89505600929,3.35503458977,0.0,4.50699663162,4.38727903366,0.0
1449618754097485977,248,1449618754091371916,odom,4.83969736099,4.32623338699,0.0,5.04591226578,4.08026456833,0.0,4.41229200363,3.06118392944,0.0,3.8942592144,3.38327431679,0.0,4.52787923813,4.40235471725,0.0
1449618754281770305,249,1449618754278526094,odom,4.85918951035,4.33430719376,0.0,5.06015968323,4.08403539658,0.0,4.40514326096,3.07857370377,0.0,3.89403367043,3.41154050827,0.0,4.54904985428,4.41700220108,0.0
1449618754568232719,250,1449618754553132716,odom,4.87877225876,4.34201860428,0.0,5.07440805435,4.08755540848,0.0,4.39828824997,3.09616160393,0.0,3.89432954788,3.4398560524,0.0,4.5704498291,4.43124961853,0.0
1449618754722489749,251,1449618754717437554,odom,4.89508867264,4.35525226593,0.0,5.08802461624,4.09873580933,0.0,4.40146541595,3.11454248428,0.0,3.90116715431,3.46354365349,0.0,4.58772611618,4.44773674011,0.0
1449618755160496084,252,1449618755160305650,odom,4.93475627899,4.41184997559,0.0,5.12769174576,4.15533351898,0.0,4.44113254547,3.17114043236,0.0,3.94083428383,3.52014136314,0.0,4.62739372253,4.50433444977,0.0
1449618755359347807,253,1449618755358403390,odom,4.96427249908,4.46495676041,0.0,5.15990829468,4.21049308777,0.0,4.48378801346,3.21909952164,0.0,3.97982954979,3.56279397011,0.0,4.65594959259,4.55418777466,0.0
1449618755485653538,254,1449618755483748595,odom,4.98609256744,4.51962852478,0.0,5.18706274033,4.2693567276,0.0,4.53204631805,3.26389503479,0.0,4.02093648911,3.59686160088,0.0,4.67595291138,4.6023235321,0.0
1449618755678599449,255,1449618755673825675,odom,4.99679994583,4.57072687149,0.0,5.20560216904,4.32695150375,0.0,4.5827870369,3.3012316227,0.0,4.06137943268,3.61782956123,0.0,4.68419456482,4.64354944229,0.0
1449618755859229505,256,1449618755858630820,odom,4.99183559418,4.62331056595,0.0,5.21322202682,4.3909034729,0.0,4.64544963837,3.33372092247,0.0,4.10804891586,3.62233829498,0.0,4.67582082748,4.67952060699,0.0
1449618756069726636,257,1449618756063832786,odom,4.97463035583,4.67044115067,0.0,5.21029853821,4.45252943039,0.0,4.71065664291,3.36149406433,0.0,4.15604686737,3.61547851562,0.0,4.65568876266,4.70651388168,0.0
1449618756265801423,258,1449618756263842357,odom,4.95693826675,4.70615816116,0.0,5.20378684998,4.50099754333,0.0,4.76246595383,3.38509607315,0.0,4.19521617889,3.60943412781,0.0,4.63653659821,4.72533559799,0.0
1449618756428225289,259,1449618756427825499,odom,4.95190191269,4.72659301758,0.0,5.20303106308,4.52669525146,0.0,4.78539276123,3.40171575546,0.0,4.21352863312,3.61401510239,0.0,4.63116645813,4.73899459839,0.0
1449618756677512863,260,1449618756674000758,odom,4.94919347763,4.73677968979,0.0,5.20242071152,4.53954696655,0.0,4.79669475555,3.41021680832,0.0,4.22261857986,3.61646103859,0.0,4.62834453583,4.7457909584,0.0
1449618756952271228,261,1449618756948404906,odom,4.94919347763,4.73677968979,0.0,5.20242071152,4.53954696655,0.0,4.79669475555,3.41021680832,0.0,4.22261857986,3.61646103859,0.0,4.62834453583,4.7457909584,0.0
1449618757071604894,262,1449618757069518140,odom,4.94919347763,4.73677968979,0.0,5.20242071152,4.53954696655,0.0,4.79669475555,3.41021680832,0.0,4.22261857986,3.61646103859,0.0,4.62834453583,4.7457909584,0.0
1449618757226045199,263,1449618757223939818,odom,4.94919347763,4.73677968979,0.0,5.20242071152,4.53954696655,0.0,4.79669475555,3.41021680832,0.0,4.22261857986,3.61646103859,0.0,4.62834453583,4.7457909584,0.0
1449618757480055713,264,1449618757477436528,odom,4.94919347763,4.73677968979,0.0,5.20242071152,4.53954696655,0.0,4.79669475555,3.41021680832,0.0,4.22261857986,3.61646103859,0.0,4.62834453583,4.7457909584,0.0
1449618757644711914,265,1449618757644530719,odom,4.94919347763,4.73677968979,0.0,5.20242071152,4.53954696655,0.0,4.79669475555,3.41021680832,0.0,4.22261857986,3.61646103859,0.0,4.62834453583,4.7457909584,0.0
1449618757856937939,266,1449618757854153733,odom,4.94919347763,4.73677968979,0.0,5.20242071152,4.53954696655,0.0,4.79669475555,3.41021680832,0.0,4.22261857986,3.61646103859,0.0,4.62834453583,4.7457909584,0.0
1449618758068119903,267,1449618758064588894,odom,4.94919347763,4.73677968979,0.0,5.20242071152,4.53954696655,0.0,4.79669475555,3.41021680832,0.0,4.22261857986,3.61646103859,0.0,4.62834453583,4.7457909584,0.0
1449618758218751614,268,1449618758216481458,odom,4.94919347763,4.73677968979,0.0,5.20242071152,4.53954696655,0.0,4.79669475555,3.41021680832,0.0,4.22261857986,3.61646103859,0.0,4.62834453583,4.7457909584,0.0
1449618758433836488,269,1449618758433390230,odom,4.94919347763,4.73677968979,0.0,5.20242071152,4.53954696655,0.0,4.79669475555,3.41021680832,0.0,4.22261857986,3.61646103859,0.0,4.62834453583,4.7457909584,0.0
1449618758617955286,270,1449618758617504462,odom,4.94919347763,4.73677968979,0.0,5.20242071152,4.53954696655,0.0,4.79669475555,3.41021680832,0.0,4.22261857986,3.61646103859,0.0,4.62834453583,4.7457909584,0.0
1449618758823511287,271,1449618758807477217,odom,4.94919347763,4.73677968979,0.0,5.20242071152,4.53954696655,0.0,4.79669475555,3.41021680832,0.0,4.22261857986,3.61646103859,0.0,4.62834453583,4.7457909584,0.0
1449618759033131301,272,1449618759028481794,odom,4.94919347763,4.73677968979,0.0,5.20242071152,4.53954696655,0.0,4.79669475555,3.41021680832,0.0,4.22261857986,3.61646103859,0.0,4.62834453583,4.7457909584,0.0
1449618759222037865,273,1449618759221650021,odom,4.94919347763,4.73677968979,0.0,5.20242071152,4.53954696655,0.0,4.79669475555,3.41021680832,0.0,4.22261857986,3.61646103859,0.0,4.62834453583,4.7457909584,0.0
1449618759468374782,274,1449618759466846382,odom,4.94919347763,4.73677968979,0.0,5.20242071152,4.53954696655,0.0,4.79669475555,3.41021680832,0.0,4.22261857986,3.61646103859,0.0,4.62834453583,4.7457909584,0.0
1449618759654870019,275,1449618759654285361,odom,4.94919347763,4.73677968979,0.0,5.20242071152,4.53954696655,0.0,4.79669475555,3.41021680832,0.0,4.22261857986,3.61646103859,0.0,4.62834453583,4.7457909584,0.0
1449618759840097586,276,1449618759837649570,odom,4.94919347763,4.73677968979,0.0,5.20242071152,4.53954696655,0.0,4.79669475555,3.41021680832,0.0,4.22261857986,3.61646103859,0.0,4.62834453583,4.7457909584,0.0
1449618760018560406,277,1449618760017273025,odom,4.94919347763,4.73677968979,0.0,5.20242071152,4.53954696655,0.0,4.79669475555,3.41021680832,0.0,4.22261857986,3.61646103859,0.0,4.62834453583,4.7457909584,0.0
1449618760286601431,278,1449618760285921612,odom,4.94919347763,4.73677968979,0.0,5.20242071152,4.53954696655,0.0,4.79669475555,3.41021680832,0.0,4.22261857986,3.61646103859,0.0,4.62834453583,4.7457909584,0.0
1449618760424672954,279,1449618760421833788,odom,4.94919347763,4.73677968979,0.0,5.20242071152,4.53954696655,0.0,4.79669475555,3.41021680832,0.0,4.22261857986,3.61646103859,0.0,4.62834453583,4.7457909584,0.0
1449618760713839299,280,1449618760713445512,odom,4.94919347763,4.73677968979,0.0,5.20242071152,4.53954696655,0.0,4.79669475555,3.41021680832,0.0,4.22261857986,3.61646103859,0.0,4.62834453583,4.7457909584,0.0
