%time,field.x,field.y,field.z
1449618703345076891,0.0,0.0,266.0
1449618703361482236,0.0,0.0,264.0
1449618703373781258,0.0,0.0,269.0
1449618703390135375,0.0,0.0,269.0
1449618703406486969,0.0,0.0,267.0
1449618703418774427,0.0,0.0,273.0
1449618703435181114,0.0,0.0,273.0
1449618703451557583,0.0,0.0,271.0
1449618703463832606,0.0,0.0,273.0
1449618703480221346,0.0,0.0,272.0
1449618703492517743,0.0,0.0,273.0
1449618703508926081,0.0,0.0,271.0
1449618703525269343,0.0,0.0,272.0
1449618703537637525,0.0,0.0,270.0
1449618703553984553,0.0,0.0,271.0
1449618703570395187,0.0,0.0,274.0
1449618703582633623,0.0,0.0,272.0
1449618703599063247,0.0,0.0,272.0
1449618703615462417,0.0,0.0,272.0
1449618703627689101,0.0,0.0,271.0
1449618703644136304,0.0,0.0,270.0
1449618703660514678,0.0,0.0,270.0
1449618703683670681,0.0,0.0,270.0
1449618703698087316,0.0,0.0,264.0
1449618703705488850,0.0,0.0,268.0
1449618703721937135,0.0,0.0,265.0
1449618703738293694,0.0,0.0,269.0
1449618703750578884,0.0,0.0,267.0
1449618703766997855,0.0,0.0,267.0
1449618703783442186,0.0,0.0,267.0
1449618703795637715,0.0,0.0,259.0
1449618703812187372,0.0,0.0,261.0
1449618703828443419,0.0,0.0,260.0
1449618703840761975,0.0,0.0,269.0
1449618703857150708,0.0,0.0,258.0
1449618703873518900,0.0,0.0,261.0
1449618703885902007,0.0,0.0,264.0
1449618703902152988,0.0,0.0,258.0
1449618703918539001,0.0,0.0,265.0
1449618703930892232,0.0,0.0,260.0
1449618703947466816,0.0,0.0,262.0
1449618703963619364,0.0,0.0,264.0
1449618703976040559,0.0,0.0,258.0
1449618703992306447,0.0,0.0,253.0
1449618704004581343,0.0,0.0,261.0
1449618704020993209,0.0,0.0,258.0
1449618704037341642,0.0,0.0,261.0
1449618704049731207,0.0,0.0,260.0
1449618704066001509,0.0,0.0,254.0
1449618704082438495,0.0,0.0,256.0
1449618704094668374,0.0,0.0,259.0
1449618704111231035,0.0,0.0,263.0
1449618704127517789,0.0,0.0,255.0
1449618704139747110,0.0,0.0,257.0
1449618704156162042,0.0,0.0,257.0
1449618704172515645,0.0,0.0,255.0
1449618704184943691,0.0,0.0,256.0
1449618704201236802,0.0,0.0,253.0
1449618704217821868,0.0,0.0,253.0
1449618704229986589,0.0,0.0,256.0
1449618704246610978,0.0,0.0,253.0
1449618704262656526,0.0,0.0,257.0
1449618704274972950,0.0,0.0,256.0
1449618704291375184,0.0,0.0,254.0
1449618704307713998,0.0,0.0,249.0
1449618704320307983,0.0,0.0,253.0
1449618704340987343,0.0,0.0,251.0
1449618704352914303,0.0,0.0,259.0
1449618704367740058,0.0,0.0,253.0
1449618704381753177,0.0,0.0,254.0
1449618704393875534,0.0,0.0,255.0
1449618704410169761,0.0,0.0,264.0
1449618704426553528,0.0,0.0,257.0
1449618704438783294,0.0,0.0,254.0
1449618704455243224,0.0,0.0,255.0
1449618704471595995,0.0,0.0,249.0
1449618704484109674,0.0,0.0,250.0
1449618704500486877,0.0,0.0,252.0
1449618704516799371,0.0,0.0,253.0
1449618704528963442,0.0,0.0,255.0
1449618704545675193,0.0,0.0,255.0
1449618704561760301,0.0,0.0,260.0
1449618704574056878,0.0,0.0,254.0
1449618704590401956,0.0,0.0,257.0
1449618704606951879,0.0,0.0,256.0
1449618704619450745,0.0,0.0,256.0
1449618704635736415,0.0,0.0,253.0
1449618704651993043,0.0,0.0,251.0
1449618704664251466,0.0,0.0,260.0
1449618704680814725,0.0,0.0,257.0
1449618704696925864,0.0,0.0,256.0
1449618704709202127,0.0,0.0,252.0
1449618704725633649,0.0,0.0,259.0
1449618704742129456,0.0,0.0,255.0
1449618704754791009,0.0,0.0,255.0
1449618704770599967,0.0,0.0,249.0
1449618704783139027,0.0,0.0,251.0
1449618704799470912,0.0,0.0,252.0
1449618704815897786,0.0,0.0,255.0
1449618704828056064,0.0,0.0,253.0
1449618704844477984,0.0,0.0,252.0
1449618704860777952,0.0,0.0,251.0
1449618704873204479,0.0,0.0,252.0
1449618704889692622,0.0,0.0,253.0
1449618704905859082,0.0,0.0,250.0
1449618704919232768,0.0,0.0,251.0
1449618704934552526,0.0,0.0,252.0
1449618704952163810,0.0,0.0,251.0
1449618704963748526,0.0,0.0,248.0
1449618704979681005,0.0,0.0,249.0
1449618704996700761,0.0,0.0,248.0
1449618705008810631,0.0,0.0,243.0
1449618705024812323,0.0,0.0,249.0
1449618705041253995,0.0,0.0,249.0
1449618705054613573,0.0,0.0,249.0
1449618705070059777,0.0,0.0,250.0
1449618705086267154,0.0,0.0,250.0
1449618705099908350,0.0,0.0,250.0
1449618705114902090,0.0,0.0,250.0
1449618705131350846,0.0,0.0,253.0
1449618705143668233,0.0,0.0,251.0
1449618705160172294,0.0,0.0,247.0
1449618705172631216,0.0,0.0,251.0
1449618705188526841,0.0,0.0,249.0
1449618705204846582,0.0,0.0,253.0
1449618705217505570,0.0,0.0,247.0
1449618705233818813,0.0,0.0,249.0
1449618705250039623,0.0,0.0,243.0
1449618705263630497,0.0,0.0,252.0
1449618705278884475,0.0,0.0,250.0
1449618705295850103,0.0,0.0,248.0
1449618705307770051,0.0,0.0,250.0
1449618705325728863,0.0,0.0,247.0
1449618705340305681,0.0,0.0,249.0
1449618705353588536,0.0,0.0,248.0
1449618705369444703,0.0,0.0,248.0
1449618705385999659,0.0,0.0,245.0
1449618705402630779,0.0,0.0,248.0
1449618705418529136,0.0,0.0,253.0
1449618705430641178,0.0,0.0,248.0
1449618705448898282,0.0,0.0,249.0
1449618705464748320,0.0,0.0,252.0
1449618705475607632,0.0,0.0,248.0
1449618705492245292,0.0,0.0,247.0
1449618705508601261,0.0,0.0,248.0
1449618705520965278,0.0,0.0,250.0
1449618705537089032,0.0,0.0,242.0
1449618705551301617,0.0,0.0,248.0
1449618705566090474,0.0,0.0,249.0
1449618705582780051,0.0,0.0,249.0
1449618705594741038,0.0,0.0,248.0
1449618705610663833,0.0,0.0,248.0
1449618705627065954,0.0,0.0,248.0
1449618705640466972,0.0,0.0,249.0
1449618705655871109,0.0,0.0,253.0
1449618705673679411,0.0,0.0,251.0
1449618705684567965,0.0,0.0,249.0
1449618705701179238,0.0,0.0,248.0
1449618705717341167,0.0,0.0,248.0
1449618705729909238,0.0,0.0,250.0
1449618705746623665,0.0,0.0,252.0
1449618705762276301,0.0,0.0,249.0
1449618705774382495,0.0,0.0,247.0
1449618705790921817,0.0,0.0,249.0
1449618705807321398,0.0,0.0,248.0
1449618705819779901,0.0,0.0,248.0
1449618705835757221,0.0,0.0,247.0
1449618705852475078,0.0,0.0,248.0
1449618705864919364,0.0,0.0,245.0
1449618705881079414,0.0,0.0,247.0
1449618705897618778,0.0,0.0,246.0
1449618705909648755,0.0,0.0,252.0
1449618705926240990,0.0,0.0,246.0
1449618705947266510,0.0,0.0,243.0
1449618705954982196,0.0,0.0,249.0
1449618705973986988,0.0,0.0,241.0
1449618705983890222,0.0,0.0,244.0
1449618706000587238,0.0,0.0,248.0
1449618706016448668,0.0,0.0,250.0
1449618706028350091,0.0,0.0,244.0
1449618706045010661,0.0,0.0,258.0
1449618706061325930,0.0,0.0,245.0
1449618706073754237,0.0,0.0,252.0
1449618706090008283,0.0,0.0,248.0
1449618706107150564,0.0,0.0,237.0
1449618706119026136,0.0,0.0,247.0
1449618706135619121,0.0,0.0,248.0
1449618706151684801,0.0,0.0,244.0
1449618706163923623,0.0,0.0,245.0
1449618706181341366,0.0,0.0,247.0
1449618706197067786,0.0,0.0,248.0
1449618706208946135,0.0,0.0,249.0
1449618706226545733,0.0,0.0,245.0
1449618706241872445,0.0,0.0,235.0
1449618706253926269,0.0,0.0,248.0
1449618706270287915,0.0,0.0,246.0
1449618706287570191,0.0,0.0,248.0
1449618706298803366,0.0,0.0,252.0
1449618706315683574,0.0,0.0,247.0
1449618706328307046,0.0,0.0,247.0
1449618706344036677,0.0,0.0,246.0
1449618706360494770,0.0,0.0,246.0
1449618706373247015,0.0,0.0,247.0
1449618706389388318,0.0,0.0,245.0
1449618706405435264,0.0,0.0,246.0
1449618706417810945,0.0,0.0,245.0
1449618706434054311,0.0,0.0,248.0
1449618706450550153,0.0,0.0,244.0
1449618706463178328,0.0,0.0,246.0
1449618706481211550,0.0,0.0,244.0
1449618706495662303,0.0,0.0,247.0
1449618706507735913,0.0,0.0,247.0
1449618706524865004,0.0,0.0,243.0
1449618706540650344,0.0,0.0,243.0
1449618706552729415,0.0,0.0,245.0
1449618706571663163,0.0,0.0,245.0
1449618706586015965,0.0,0.0,245.0
1449618706598372281,0.0,0.0,243.0
1449618706614326948,0.0,0.0,240.0
1449618706630532063,0.0,0.0,246.0
1449618706642842173,0.0,0.0,243.0
1449618706659277918,0.0,0.0,244.0
1449618706675523848,0.0,0.0,247.0
1449618706688090988,0.0,0.0,249.0
1449618706704859259,0.0,0.0,243.0
1449618706716857410,0.0,0.0,242.0
1449618706733159980,0.0,0.0,248.0
1449618706750019893,0.0,0.0,247.0
1449618706761977698,0.0,0.0,245.0
1449618706779416374,0.0,0.0,244.0
1449618706794959053,0.0,0.0,245.0
1449618706806733526,0.0,0.0,249.0
1449618706823160507,0.0,0.0,251.0
1449618706840173707,0.0,0.0,242.0
1449618706853166139,0.0,0.0,243.0
1449618706868219130,0.0,0.0,244.0
1449618706884664901,0.0,0.0,245.0
1449618706897395179,0.0,0.0,246.0
1449618706913546049,0.0,0.0,245.0
1449618706929916087,0.0,0.0,248.0
1449618706942433857,0.0,0.0,250.0
1449618706958548833,0.0,0.0,237.0
1449618706975519841,0.0,0.0,242.0
1449618706987233364,0.0,0.0,243.0
1449618707004875071,0.0,0.0,243.0
1449618707019814166,0.0,0.0,245.0
1449618707031923302,0.0,0.0,243.0
1449618707062470473,0.0,0.0,246.0
1449618707065005015,0.0,0.0,242.0
1449618707081039135,0.0,0.0,249.0
1449618707093701048,0.0,0.0,243.0
1449618707106789436,0.0,0.0,241.0
1449618707123546902,0.0,0.0,246.0
1449618707138840242,0.0,0.0,244.0
1449618707152136901,0.0,0.0,245.0
1449618707168715909,0.0,0.0,238.0
1449618707185114496,0.0,0.0,241.0
1449618707202120916,0.0,0.0,245.0
1449618707213613776,0.0,0.0,249.0
1449618707228869054,0.0,0.0,246.0
1449618707240857448,0.0,0.0,242.0
1449618707257332072,0.0,0.0,246.0
1449618707273674912,0.0,0.0,242.0
1449618707285952460,0.0,0.0,242.0
1449618707302546063,0.0,0.0,243.0
1449618707319344625,0.0,0.0,243.0
1449618707331580368,0.0,0.0,246.0
1449618707348961874,0.0,0.0,244.0
1449618707364369033,0.0,0.0,244.0
1449618707376152535,0.0,0.0,244.0
1449618707392524625,0.0,0.0,236.0
1449618707408928730,0.0,0.0,241.0
1449618707421310892,0.0,0.0,244.0
1449618707437510639,0.0,0.0,239.0
1449618707454335904,0.0,0.0,243.0
1449618707466435565,0.0,0.0,248.0
1449618707482644461,0.0,0.0,245.0
1449618707495149158,0.0,0.0,245.0
1449618707511691141,0.0,0.0,243.0
1449618707530654462,0.0,0.0,240.0
1449618707540197660,0.0,0.0,244.0
1449618707556350720,0.0,0.0,243.0
1449618707572796329,0.0,0.0,246.0
1449618707587372091,0.0,0.0,238.0
1449618707601651448,0.0,0.0,249.0
1449618707619073467,0.0,0.0,241.0
1449618707630416169,0.0,0.0,242.0
1449618707647629288,0.0,0.0,245.0
1449618707663061451,0.0,0.0,244.0
1449618707675714406,0.0,0.0,242.0
1449618707691506967,0.0,0.0,242.0
1449618707710452600,0.0,0.0,244.0
1449618707720914513,0.0,0.0,247.0
1449618707736886793,0.0,0.0,237.0
1449618707754087293,0.0,0.0,241.0
1449618707765317903,0.0,0.0,241.0
1449618707781891707,0.0,0.0,241.0
1449618707800049128,0.0,0.0,237.0
1449618707810366722,0.0,0.0,240.0
1449618707827057071,0.0,0.0,227.0
1449618707845800540,0.0,0.0,243.0
1449618707855491062,0.0,0.0,243.0
1449618707871804464,0.0,0.0,239.0
1449618707888291751,0.0,0.0,239.0
1449618707905869215,0.0,0.0,242.0
1449618707917047727,0.0,0.0,244.0
1449618707944656438,0.0,0.0,242.0
1449618707950214251,0.0,0.0,241.0
1449618707966413891,0.0,0.0,245.0
1449618707979681856,0.0,0.0,247.0
1449618707994963042,0.0,0.0,248.0
1449618708008641812,0.0,0.0,246.0
1449618708024817300,0.0,0.0,246.0
1449618708040329053,0.0,0.0,246.0
1449618708055288600,0.0,0.0,244.0
1449618708069119568,0.0,0.0,242.0
1449618708085137069,0.0,0.0,247.0
1449618708097402757,0.0,0.0,243.0
1449618708118148590,0.0,0.0,246.0
1449618708133582816,0.0,0.0,247.0
1449618708146420666,0.0,0.0,247.0
1449618708159104992,0.0,0.0,245.0
1449618708175967300,0.0,0.0,245.0
1449618708188065964,0.0,0.0,244.0
1449618708203810937,0.0,0.0,243.0
1449618708220070102,0.0,0.0,239.0
1449618708232484862,0.0,0.0,243.0
1449618708261413296,0.0,0.0,243.0
1449618708339052136,0.0,0.0,241.0
1449618708356670606,0.0,0.0,241.0
1449618708372053966,0.0,0.0,244.0
1449618708383831010,0.0,0.0,247.0
1449618708400238306,0.0,0.0,245.0
1449618708417872850,0.0,0.0,243.0
1449618708429647418,0.0,0.0,244.0
1449618708445486659,0.0,0.0,243.0
1449618708462795031,0.0,0.0,243.0
1449618708479651805,0.0,0.0,241.0
1449618708490693519,0.0,0.0,243.0
1449618708507844778,0.0,0.0,243.0
1449618708519202402,0.0,0.0,243.0
1449618708535688116,0.0,0.0,243.0
1449618708548461063,0.0,0.0,244.0
1449618708566175293,0.0,0.0,241.0
1449618708580558749,0.0,0.0,246.0
1449618708592684832,0.0,0.0,242.0
1449618708609968051,0.0,0.0,240.0
1449618708625940044,0.0,0.0,239.0
1449618708638037699,0.0,0.0,246.0
1449618708657556612,0.0,0.0,237.0
1449618708671271919,0.0,0.0,241.0
1449618708693667886,0.0,0.0,241.0
1449618708701341497,0.0,0.0,236.0
1449618708719078399,0.0,0.0,243.0
1449618708728227839,0.0,0.0,241.0
1449618708747613887,0.0,0.0,239.0
1449618708762112042,0.0,0.0,240.0
1449618708773007391,0.0,0.0,243.0
1449618708789284339,0.0,0.0,236.0
1449618708805952605,0.0,0.0,237.0
1449618708818046439,0.0,0.0,235.0
1449618708834946235,0.0,0.0,232.0
1449618708847228330,0.0,0.0,230.0
1449618708863390791,0.0,0.0,232.0
1449618708880303888,0.0,0.0,226.0
1449618708893685042,0.0,0.0,224.0
1449618708909648718,0.0,0.0,217.0
1449618708924515419,0.0,0.0,214.0
1449618708937565803,0.0,0.0,210.0
1449618708954253244,0.0,0.0,214.0
1449618708969814026,0.0,0.0,218.0
1449618708984406309,0.0,0.0,222.0
1449618709000815668,0.0,0.0,230.0
1449618709017389907,0.0,0.0,231.0
1449618709027266538,0.0,0.0,239.0
1449618709043411269,0.0,0.0,238.0
1449618709060323731,0.0,0.0,239.0
1449618709075363090,0.0,0.0,238.0
1449618709090120043,0.0,0.0,236.0
1449618709105166083,0.0,0.0,237.0
1449618709117888835,0.0,0.0,231.0
1449618709134005041,0.0,0.0,233.0
1449618709150824892,0.0,0.0,233.0
1449618709163880754,0.0,0.0,234.0
1449618709178615006,0.0,0.0,224.0
1449618709196314831,0.0,0.0,233.0
1449618709207315557,0.0,0.0,230.0
1449618709223848044,0.0,0.0,233.0
1449618709236078438,0.0,0.0,233.0
1449618709252697572,0.0,0.0,235.0
1449618709269244178,0.0,0.0,233.0
1449618709287137436,0.0,0.0,237.0
1449618709297475922,0.0,0.0,234.0
1449618709315073959,0.0,0.0,233.0
1449618709327833564,0.0,0.0,237.0
1449618709342906322,0.0,0.0,234.0
1449618709360106767,0.0,0.0,226.0
1449618709371386676,0.0,0.0,234.0
1449618709387721725,0.0,0.0,235.0
1449618709404199911,0.0,0.0,233.0
1449618709418328774,0.0,0.0,235.0
1449618709432615311,0.0,0.0,234.0
1449618709449433261,0.0,0.0,236.0
1449618709461450704,0.0,0.0,238.0
1449618709478351169,0.0,0.0,243.0
1449618709496196861,0.0,0.0,241.0
1449618709506970789,0.0,0.0,234.0
1449618709522629079,0.0,0.0,237.0
1449618709540098325,0.0,0.0,233.0
1449618709553232948,0.0,0.0,237.0
1449618709568325518,0.0,0.0,237.0
1449618709585521665,0.0,0.0,235.0
1449618709598494762,0.0,0.0,237.0
1449618709617520251,0.0,0.0,276.0
1449618709625132150,0.0,0.0,231.0
1449618709641535782,0.0,0.0,237.0
1449618709663496662,0.0,0.0,237.0
1449618709671846277,0.0,0.0,237.0
1449618709688313292,0.0,0.0,238.0
1449618709703461569,0.0,0.0,237.0
1449618709715481883,0.0,0.0,235.0
1449618709731644094,0.0,0.0,239.0
1449618709748886270,0.0,0.0,230.0
1449618709760531729,0.0,0.0,236.0
1449618709777667410,0.0,0.0,234.0
1449618709794156660,0.0,0.0,234.0
1449618709807035590,0.0,0.0,236.0
1449618709823137748,0.0,0.0,239.0
1449618709843245279,0.0,0.0,237.0
1449618709850644673,0.0,0.0,236.0
1449618709867164622,0.0,0.0,239.0
1449618709884662368,0.0,0.0,287.0
1449618709897667051,0.0,0.0,243.0
1449618709911833965,0.0,0.0,244.0
1449618709928305060,0.0,0.0,247.0
1449618709940726676,0.0,0.0,245.0
1449618709957235289,0.0,0.0,238.0
1449618709974282726,0.0,0.0,247.0
1449618709986708440,0.0,0.0,244.0
1449618710001915605,0.0,0.0,240.0
1449618710015536903,-2.0,0.0,274.0
1449618710032200740,-2.0,0.0,235.0
1449618710048741619,-2.0,0.0,274.0
1449618710059710287,-2.0,-2.0,232.0
1449618710075759929,-2.0,-2.0,226.0
1449618710092381102,-2.0,-2.0,225.0
1449618710106894037,-2.0,-2.0,229.0
1449618710121005867,-2.0,-2.0,224.0
1449618710139368739,-2.0,-2.0,231.0
1449618710154242583,-4.0,-2.0,238.0
1449618710166526906,-4.0,-2.0,239.0
1449618710186048791,-4.0,-2.0,242.0
1449618710201713534,-4.0,-2.0,245.0
1449618710213356889,-4.0,-2.0,245.0
1449618710227193240,-4.0,-4.0,248.0
1449618710239554304,-4.0,-4.0,240.0
1449618710257547767,-6.0,-4.0,237.0
1449618710287309831,-6.0,-4.0,236.0
1449618710287333422,-6.0,-4.0,228.0
1449618710302488219,-6.0,-4.0,227.0
1449618710317614033,-6.0,-4.0,228.0
1449618710331855834,-8.0,-4.0,241.0
1449618710348900316,-8.0,-6.0,246.0
1449618710362865673,-8.0,-6.0,238.0
1449618710376626194,-8.0,-6.0,257.0
1449618710391504393,-8.0,-6.0,252.0
1449618710406078250,-10.0,-6.0,243.0
1449618710419879787,-10.0,-6.0,238.0
1449618710436238422,-10.0,-8.0,234.0
1449618710449619018,-10.0,-8.0,239.0
1449618710465842707,-12.0,-8.0,240.0
1449618710484571512,-12.0,-8.0,251.0
1449618710494295534,-12.0,-8.0,256.0
1449618710510902478,-12.0,-8.0,261.0
1449618710528750380,-12.0,-10.0,250.0
1449618710541083547,-14.0,-10.0,251.0
1449618710555511575,-14.0,-10.0,243.0
1449618710571608296,-14.0,-10.0,242.0
1449618710584381056,-16.0,-10.0,262.0
1449618710601165834,-16.0,-12.0,304.0
1449618710621473877,-16.0,-12.0,266.0
1449618710629073126,-18.0,-12.0,301.0
1449618710645779616,-18.0,-12.0,254.0
1449618710661619054,-18.0,-14.0,300.0
1449618710675537153,-20.0,-14.0,266.0
1449618710690546840,-20.0,-14.0,267.0
1449618710706572842,-20.0,-14.0,273.0
1449618710719084633,-22.0,-16.0,307.0
1449618710735736121,-22.0,-16.0,264.0
1449618710752228728,-22.0,-16.0,303.0
1449618710764351108,-24.0,-18.0,283.0
1449618710781458948,-24.0,-18.0,283.0
1449618710796686259,-26.0,-18.0,275.0
1449618710813478914,-26.0,-20.0,273.0
1449618710825531405,-26.0,-20.0,269.0
1449618710842956489,-28.0,-20.0,288.0
1449618710858409586,-28.0,-22.0,332.0
1449618710874428843,-30.0,-22.0,280.0
1449618710919896982,-30.0,-22.0,320.0
1449618710919900321,-30.0,-24.0,335.0
1449618710919902765,-32.0,-24.0,339.0
1449618710932866262,-32.0,-24.0,302.0
1449618710949208424,-34.0,-26.0,282.0
1449618710961028335,-34.0,-26.0,288.0
1449618710977527716,-36.0,-28.0,344.0
1449618710993749424,-36.0,-28.0,306.0
1449618711006965991,-38.0,-28.0,299.0
1449618711023550961,-38.0,-30.0,292.0
1449618711041058634,-40.0,-30.0,353.0
1449618711052996412,-40.0,-32.0,312.0
1449618711068009727,-42.0,-32.0,347.0
1449618711083742079,-42.0,-34.0,302.0
1449618711096604061,-44.0,-34.0,318.0
1449618711112732009,-46.0,-36.0,313.0
1449618711128646535,-46.0,-36.0,346.0
1449618711141490985,-48.0,-38.0,307.0
1449618711158040132,-48.0,-38.0,368.0
1449618711170516401,-50.0,-40.0,316.0
1449618711185991287,-50.0,-40.0,356.0
1449618711204330859,-52.0,-42.0,328.0
1449618711215877824,-54.0,-42.0,363.0
1449618711232889429,-54.0,-44.0,314.0
1449618711247622574,-56.0,-44.0,371.0
1449618711265958398,-56.0,-46.0,330.0
1449618711276149118,-58.0,-46.0,362.0
1449618711292491195,-60.0,-48.0,331.0
1449618711305392905,-60.0,-50.0,383.0
1449618711322545773,-62.0,-50.0,324.0
1449618711338193444,-64.0,-52.0,377.0
1449618711353642067,-64.0,-52.0,343.0
1449618711366598902,-66.0,-54.0,324.0
1449618711382872758,-68.0,-56.0,341.0
1449618711396150060,-68.0,-56.0,388.0
1449618711412285499,-70.0,-58.0,330.0
1449618711429159832,-72.0,-58.0,382.0
1449618711442203135,-72.0,-60.0,350.0
1449618711457887620,-74.0,-62.0,379.0
1449618711472938138,-76.0,-62.0,349.0
1449618711489102823,-76.0,-64.0,399.0
1449618711501732247,-78.0,-66.0,332.0
1449618711522506589,-80.0,-66.0,391.0
1449618711532151576,-80.0,-68.0,357.0
1449618711550946777,-82.0,-70.0,384.0
1449618711558597285,-84.0,-70.0,356.0
1449618711575247077,-86.0,-72.0,397.0
1449618711594365178,-86.0,-74.0,342.0
1449618711606186660,-88.0,-74.0,401.0
1449618711619982644,-90.0,-76.0,353.0
1449618711638198343,-90.0,-78.0,346.0
1449618711650410382,-92.0,-78.0,363.0
1449618711668493080,-94.0,-80.0,392.0
1449618711681753864,-94.0,-82.0,348.0
1449618711695387402,-96.0,-82.0,386.0
1449618711712123118,-98.0,-84.0,357.0
1449618711728201904,-98.0,-86.0,370.0
1449618711742143172,-100.0,-86.0,374.0
1449618711759344651,-102.0,-88.0,380.0
1449618711772295099,-102.0,-90.0,352.0
1449618711784025210,-104.0,-90.0,395.0
1449618711801005515,-106.0,-92.0,357.0
1449618711816905643,-106.0,-94.0,377.0
1449618711829031841,-108.0,-94.0,374.0
1449618711845807534,-110.0,-96.0,382.0
1449618711868250163,-110.0,-98.0,357.0
1449618711876758566,-112.0,-100.0,394.0
1449618711890823390,-114.0,-100.0,365.0
1449618711907380515,-114.0,-102.0,355.0
1449618711920104927,-116.0,-104.0,369.0
1449618711936370101,-116.0,-106.0,391.0
1449618711949126533,-118.0,-106.0,356.0
1449618711964726452,-120.0,-108.0,391.0
1449618711981455409,-120.0,-110.0,378.0
1449618711993032314,-122.0,-110.0,382.0
1449618712037495989,-124.0,-112.0,368.0
1449618712037515247,-124.0,-114.0,396.0
1449618712038238889,-126.0,-116.0,361.0
1449618712054672144,-128.0,-118.0,390.0
1449618712071486601,-128.0,-118.0,377.0
1449618712084059449,-130.0,-120.0,386.0
1449618712100356429,-130.0,-122.0,359.0
1449618712116181021,-132.0,-124.0,395.0
1449618712128691012,-134.0,-124.0,366.0
1449618712144923350,-134.0,-126.0,380.0
1449618712160905807,-136.0,-128.0,372.0
1449618712173778369,-136.0,-130.0,400.0
1449618712190059558,-138.0,-132.0,358.0
1449618712206208023,-140.0,-132.0,392.0
1449618712218433992,-140.0,-134.0,377.0
1449618712236254947,-142.0,-136.0,386.0
1449618712252327275,-142.0,-138.0,358.0
1449618712263782852,-144.0,-140.0,415.0
1449618712281865415,-144.0,-140.0,379.0
1449618712297945783,-146.0,-142.0,375.0
1449618712309621185,-148.0,-144.0,369.0
1449618712326715624,-148.0,-146.0,398.0
1449618712337669233,-150.0,-148.0,362.0
1449618712354088468,-150.0,-150.0,380.0
1449618712377659201,-152.0,-150.0,371.0
1449618712383531191,-152.0,-152.0,400.0
1449618712398679276,-154.0,-154.0,357.0
1449618712416004838,-154.0,-156.0,382.0
1449618712427212621,-156.0,-158.0,376.0
1449618712444196120,-158.0,-160.0,385.0
1449618712460788388,-158.0,-162.0,352.0
1449618712473424110,-160.0,-164.0,392.0
1449618712491802031,-160.0,-164.0,375.0
1449618712519801376,-162.0,-166.0,384.0
1449618712519841576,-162.0,-168.0,357.0
1449618712534897725,-164.0,-170.0,390.0
1449618712550645830,-164.0,-172.0,371.0
1449618712563873252,-166.0,-174.0,380.0
1449618712582071931,-166.0,-176.0,353.0
1449618712595472984,-168.0,-178.0,386.0
1449618712607506539,-168.0,-178.0,369.0
1449618712624025958,-170.0,-180.0,376.0
1449618712640774519,-170.0,-182.0,349.0
1449618712652782089,-172.0,-184.0,381.0
1449618712671410855,-172.0,-186.0,363.0
1449618712701083538,-174.0,-188.0,360.0
1449618712701093501,-174.0,-190.0,344.0
1449618712725213311,-176.0,-192.0,397.0
1449618712727005594,-176.0,-194.0,359.0
1449618712743331323,-178.0,-194.0,345.0
1449618712759887344,-178.0,-196.0,336.0
1449618712774355257,-180.0,-198.0,346.0
1449618712788328880,-180.0,-200.0,352.0
1449618712806736823,-182.0,-202.0,341.0
1449618712817913090,-182.0,-204.0,329.0
1449618712833329210,-184.0,-206.0,331.0
1449618712848976646,-184.0,-206.0,343.0
1449618712861826893,-184.0,-208.0,337.0
1449618712880584661,-186.0,-210.0,319.0
1449618712897659286,-186.0,-212.0,323.0
1449618712906861079,-188.0,-214.0,336.0
1449618712922912823,-188.0,-216.0,328.0
1449618712939174428,-190.0,-218.0,319.0
1449618712951863194,-190.0,-218.0,318.0
1449618712970426859,-192.0,-220.0,327.0
1449618712984466683,-192.0,-222.0,329.0
1449618712996472451,-194.0,-224.0,309.0
1449618713019469585,-194.0,-226.0,305.0
1449618713029723689,-196.0,-226.0,319.0
1449618713041649104,-196.0,-228.0,325.0
1449618713058312800,-198.0,-230.0,308.0
1449618713074600571,-198.0,-232.0,300.0
1449618713086826021,-200.0,-234.0,310.0
1449618713103072330,-200.0,-234.0,318.0
1449618713115327571,-202.0,-236.0,309.0
1449618713131665627,-202.0,-238.0,299.0
1449618713148337684,-202.0,-238.0,291.0
1449618713160566245,-204.0,-240.0,306.0
1449618713185665510,-204.0,-242.0,309.0
1449618713194927297,-206.0,-244.0,295.0
1449618713208488115,-206.0,-246.0,284.0
1449618713228956195,-206.0,-246.0,288.0
1449618713238339912,-208.0,-248.0,296.0
1449618713251142861,-208.0,-250.0,301.0
1449618713267457280,-210.0,-250.0,285.0
1449618713291629230,-210.0,-252.0,279.0
1449618713306161098,-210.0,-254.0,280.0
1449618713317444596,-212.0,-254.0,289.0
1449618713330696178,-212.0,-256.0,292.0
1449618713345650688,-212.0,-258.0,292.0
1449618713362458194,-214.0,-258.0,274.0
1449618713377129501,-214.0,-260.0,266.0
1449618713395643543,-216.0,-260.0,271.0
1449618713407056777,-216.0,-262.0,275.0
1449618713420114806,-216.0,-262.0,281.0
1449618713436511545,-216.0,-264.0,279.0
1449618713451754803,-218.0,-266.0,263.0
1449618713464161338,-218.0,-266.0,265.0
1449618713481426330,-218.0,-268.0,259.0
1449618713492566508,-220.0,-268.0,270.0
1449618713509064875,-220.0,-270.0,271.0
1449618713525180645,-220.0,-270.0,271.0
1449618713537502824,-222.0,-272.0,259.0
1449618713557369725,-222.0,-272.0,253.0
1449618713571675407,-222.0,-274.0,250.0
1449618713585614452,-224.0,-274.0,256.0
1449618713598908487,-224.0,-276.0,260.0
1449618713615161541,-224.0,-276.0,260.0
1449618713627751242,-224.0,-278.0,265.0
1449618713644216887,-226.0,-278.0,250.0
1449618713661552456,-226.0,-280.0,242.0
1449618713673147130,-226.0,-280.0,242.0
1449618713690515034,-228.0,-282.0,252.0
1449618713705390406,-228.0,-282.0,252.0
1449618713718339993,-228.0,-284.0,255.0
1449618713735038945,-228.0,-284.0,254.0
1449618713750450550,-230.0,-286.0,246.0
1449618713762504271,-230.0,-286.0,235.0
1449618713779807666,-230.0,-288.0,231.0
1449618713795463639,-232.0,-288.0,245.0
1449618713808190277,-232.0,-290.0,247.0
1449618713829795510,-232.0,-290.0,251.0
1449618713840606746,-232.0,-290.0,248.0
1449618713853475339,-234.0,-292.0,246.0
1449618713871379537,-234.0,-294.0,236.0
1449618713884302449,-234.0,-294.0,237.0
1449618713899744903,-236.0,-294.0,247.0
1449618713914990557,-236.0,-296.0,258.0
1449618713928052331,-236.0,-296.0,253.0
1449618713948389323,-238.0,-298.0,242.0
1449618713972967184,-238.0,-298.0,240.0
1449618713972977005,-238.0,-300.0,234.0
1449618713989637899,-240.0,-300.0,244.0
1449618714005186960,-240.0,-302.0,247.0
1449618714019660480,-240.0,-302.0,255.0
1449618714034306195,-240.0,-304.0,254.0
1449618714054074929,-242.0,-304.0,243.0
1449618714063625910,-242.0,-306.0,235.0
1449618714080704656,-242.0,-306.0,239.0
1449618714095641675,-244.0,-308.0,247.0
1449618714109647645,-244.0,-308.0,248.0
1449618714130106482,-244.0,-310.0,260.0
1449618714145935613,-246.0,-310.0,249.0
1449618714155486801,-246.0,-312.0,244.0
1449618714170819605,-246.0,-312.0,237.0
1449618714185210730,-246.0,-314.0,245.0
1449618714201783397,-248.0,-314.0,249.0
1449618714217102765,-248.0,-316.0,260.0
1449618714229956486,-248.0,-316.0,258.0
1449618714242206283,-250.0,-318.0,242.0
1449618714258506943,-250.0,-318.0,241.0
1449618714271179063,-250.0,-320.0,241.0
1449618714288090706,-252.0,-320.0,247.0
1449618714304226853,-252.0,-322.0,256.0
1449618714316691352,-252.0,-322.0,260.0
1449618714334626402,-254.0,-324.0,244.0
1449618714348936797,-254.0,-324.0,239.0
1449618714361635134,-254.0,-326.0,241.0
1449618714377808309,-256.0,-326.0,247.0
1449618714394805930,-256.0,-328.0,255.0
1449618714406848874,-256.0,-328.0,250.0
1449618714422955456,-258.0,-330.0,245.0
1449618714441204983,-258.0,-330.0,237.0
1449618714450674421,-260.0,-332.0,249.0
1449618714467321040,-260.0,-334.0,257.0
1449618714485989008,-260.0,-334.0,255.0
1449618714496592820,-262.0,-336.0,246.0
1449618714512411125,-262.0,-336.0,242.0
1449618714531283306,-264.0,-338.0,251.0
1449618714540947502,-264.0,-338.0,255.0
1449618714557282481,-264.0,-340.0,256.0
1449618714574774588,-266.0,-342.0,245.0
1449618714587052033,-266.0,-342.0,237.0
1449618714603666128,-268.0,-344.0,249.0
1449618714619109121,-268.0,-344.0,257.0
1449618714632107016,-270.0,-346.0,244.0
1449618714648493465,-270.0,-348.0,236.0
1449618714661267881,-272.0,-348.0,254.0
1449618714678506071,-272.0,-350.0,257.0
1449618714692381887,-274.0,-352.0,242.0
1449618714710395672,-274.0,-352.0,234.0
1449618714722824221,-276.0,-354.0,249.0
1449618714737674620,-276.0,-356.0,255.0
1449618714752484542,-278.0,-356.0,246.0
1449618714769813770,-278.0,-358.0,237.0
1449618714782775466,-280.0,-360.0,252.0
1449618714802257824,-280.0,-360.0,259.0
1449618714811911758,-282.0,-362.0,293.0
1449618714829403782,-282.0,-364.0,239.0
1449618714843074894,-284.0,-364.0,295.0
1449618714860036367,-284.0,-366.0,255.0
1449618714872709927,-286.0,-368.0,281.0
1449618714898136639,-288.0,-370.0,253.0
1449618714901625256,-288.0,-370.0,296.0
1449618714918080174,-290.0,-372.0,250.0
1449618714930067227,-290.0,-374.0,293.0
1449618714946421438,-292.0,-376.0,257.0
1449618714963927502,-294.0,-376.0,293.0
1449618714977616454,-294.0,-378.0,240.0
1449618714994436338,-296.0,-380.0,294.0
1449618715009694972,-296.0,-382.0,254.0
1449618715021605692,-298.0,-382.0,276.0
1449618715038591662,-300.0,-384.0,251.0
1449618715050057247,-300.0,-386.0,303.0
1449618715065615540,-302.0,-388.0,230.0
1449618715083038227,-304.0,-390.0,297.0
1449618715120501528,-304.0,-390.0,259.0
1449618715120505481,-306.0,-392.0,288.0
1449618715127622049,-308.0,-394.0,252.0
1449618715139784656,-308.0,-396.0,305.0
1449618715155785819,-310.0,-398.0,240.0
1449618715171989951,-312.0,-398.0,300.0
1449618715184526475,-314.0,-400.0,254.0
1449618715207574936,-314.0,-402.0,289.0
1449618715222228976,-316.0,-404.0,269.0
1449618715230375521,-318.0,-406.0,298.0
1449618715245881233,-318.0,-406.0,254.0
1449618715261899909,-320.0,-408.0,312.0
1449618715275237878,-322.0,-410.0,252.0
1449618715296385152,-324.0,-412.0,306.0
1449618715307323050,-324.0,-414.0,262.0
1449618715319321626,-326.0,-416.0,291.0
1449618715335731945,-328.0,-416.0,257.0
1449618715353509145,-328.0,-418.0,307.0
1449618715369559370,-330.0,-420.0,246.0
1449618715381232482,-332.0,-422.0,301.0
1449618715394528457,-334.0,-424.0,250.0
1449618715410382040,-334.0,-426.0,293.0
1449618715427729333,-336.0,-426.0,262.0
1449618715439117981,-338.0,-428.0,291.0
1449618715456994114,-340.0,-430.0,256.0
1449618715471240459,-340.0,-432.0,305.0
1449618715483092620,-342.0,-434.0,240.0
1449618715501500390,-344.0,-436.0,299.0
1449618715517598204,-346.0,-438.0,249.0
1449618715540576008,-346.0,-438.0,293.0
1449618715544499048,-348.0,-440.0,265.0
1449618715567518331,-350.0,-442.0,292.0
1449618715575758854,-352.0,-444.0,258.0
1449618715591153697,-352.0,-446.0,308.0
1449618715605917708,-354.0,-448.0,245.0
1449618715618322913,-356.0,-448.0,307.0
1449618715636059500,-358.0,-450.0,255.0
1449618715651265734,-358.0,-452.0,255.0
1449618715663248039,-360.0,-454.0,272.0
1449618715680064977,-362.0,-456.0,293.0
1449618715699935682,-364.0,-458.0,276.0
1449618715709695289,-366.0,-458.0,308.0
1449618715725913336,-366.0,-460.0,255.0
1449618715741717003,-368.0,-462.0,322.0
1449618715753999673,-370.0,-464.0,269.0
1449618715770455932,-372.0,-466.0,323.0
1449618715786658314,-372.0,-466.0,280.0
1449618715803444184,-374.0,-468.0,290.0
1449618715815335916,-376.0,-470.0,333.0
1449618715833065690,-378.0,-472.0,280.0
1449618715856801022,-380.0,-474.0,329.0
1449618715860577786,-380.0,-476.0,297.0
1449618715877145374,-382.0,-476.0,327.0
1449618715894427217,-384.0,-478.0,295.0
1449618715905647279,-386.0,-480.0,331.0
1449618715921703337,-386.0,-482.0,285.0
1449618715940556757,-388.0,-484.0,306.0
1449618715952569992,-390.0,-484.0,296.0
1449618715967177685,-392.0,-486.0,348.0
1449618715983068416,-392.0,-488.0,312.0
1449618715995605438,-394.0,-490.0,337.0
1449618716011866493,-396.0,-490.0,306.0
1449618716028893706,-398.0,-492.0,340.0
1449618716044960194,-398.0,-494.0,294.0
1449618716056668144,-400.0,-496.0,355.0
1449618716073902050,-402.0,-498.0,300.0
1449618716085282457,-404.0,-498.0,352.0
1449618716102445864,-404.0,-500.0,312.0
1449618716118751330,-406.0,-502.0,339.0
1449618716132432363,-408.0,-504.0,312.0
1449618716146870047,-410.0,-504.0,339.0
1449618716163443845,-412.0,-506.0,304.0
1449618716177457578,-412.0,-508.0,304.0
1449618716192630971,-414.0,-510.0,297.0
1449618716204010888,-416.0,-510.0,351.0
1449618716221032507,-418.0,-512.0,303.0
1449618716238829311,-418.0,-514.0,340.0
1449618716249584327,-420.0,-514.0,314.0
1449618716266288645,-422.0,-516.0,346.0
1449618716281950927,-424.0,-518.0,309.0
1449618716294729166,-424.0,-520.0,362.0
1449618716312599749,-426.0,-520.0,297.0
1449618716333155471,-428.0,-522.0,310.0
1449618716353684410,-430.0,-524.0,305.0
1449618716357511048,-430.0,-526.0,346.0
1449618716372930547,-432.0,-526.0,318.0
1449618716384232963,-434.0,-528.0,348.0
1449618716401169564,-436.0,-530.0,314.0
1449618716417336426,-438.0,-530.0,353.0
1449618716441673797,-438.0,-532.0,302.0
1449618716446619114,-440.0,-534.0,362.0
1449618716463589713,-442.0,-536.0,308.0
1449618716476456885,-444.0,-536.0,352.0
1449618716490895431,-444.0,-538.0,309.0
1449618716508164755,-446.0,-540.0,336.0
1449618716521625170,-448.0,-540.0,312.0
1449618716544284056,-450.0,-542.0,343.0
1449618716556363983,-452.0,-544.0,308.0
1449618716566278189,-452.0,-546.0,349.0
1449618716582336322,-454.0,-546.0,294.0
1449618716593586218,-456.0,-548.0,310.0
1449618716611887822,-458.0,-550.0,289.0
1449618716627861615,-460.0,-550.0,341.0
1449618716643088849,-460.0,-552.0,293.0
1449618716655466354,-462.0,-554.0,327.0
1449618716681684286,-464.0,-554.0,301.0
1449618716689683108,-466.0,-556.0,323.0
1449618716700411815,-468.0,-558.0,292.0
1449618716716312386,-470.0,-558.0,326.0
1449618716728949804,-470.0,-560.0,281.0
1449618716745142461,-472.0,-562.0,324.0
1449618716761714963,-474.0,-562.0,273.0
1449618716773912580,-476.0,-564.0,309.0
1449618716790720912,-478.0,-566.0,277.0
1449618716809360956,-480.0,-566.0,301.0
1449618716819643712,-482.0,-568.0,268.0
1449618716835639576,-482.0,-570.0,282.0
1449618716851578348,-484.0,-570.0,278.0
1449618716865626402,-486.0,-572.0,252.0
1449618716881443950,-488.0,-574.0,270.0
1449618716896650053,-490.0,-574.0,272.0
1449618716913158129,-492.0,-576.0,257.0
1449618716927799111,-494.0,-578.0,267.0
1449618716944538921,-496.0,-578.0,250.0
1449618716954066774,-498.0,-580.0,266.0
1449618716971043258,-498.0,-582.0,236.0
1449618716983486803,-500.0,-582.0,266.0
1449618716999701247,-502.0,-584.0,233.0
1449618717020376303,-504.0,-586.0,241.0
1449618717032514193,-506.0,-586.0,228.0
1449618717044889468,-508.0,-588.0,267.0
1449618717061217423,-510.0,-590.0,229.0
1449618717072620673,-512.0,-590.0,263.0
1449618717090992511,-514.0,-592.0,230.0
1449618717107709420,-516.0,-594.0,259.0
1449618717118164057,-518.0,-594.0,237.0
1449618717135405780,-520.0,-596.0,243.0
1449618717150885915,-520.0,-598.0,252.0
1449618717163437329,-522.0,-598.0,253.0
1449618717178923635,-524.0,-600.0,255.0
1449618717200503933,-526.0,-602.0,258.0
1449618717210801216,-528.0,-602.0,254.0
1449618717224026375,-530.0,-604.0,264.0
1449618717240591661,-532.0,-606.0,260.0
1449618717252670494,-534.0,-606.0,263.0
1449618717270244705,-536.0,-608.0,261.0
1449618717287776194,-538.0,-610.0,245.0
1449618717299895075,-540.0,-610.0,256.0
1449618717316936905,-542.0,-612.0,269.0
1449618717327248647,-544.0,-614.0,258.0
1449618717343161357,-546.0,-614.0,271.0
1449618717359626932,-548.0,-616.0,257.0
1449618717371639379,-550.0,-618.0,273.0
1449618717391527205,-552.0,-618.0,256.0
1449618717405140835,-554.0,-620.0,272.0
1449618717417157892,-556.0,-622.0,253.0
1449618717433293349,-558.0,-622.0,274.0
1449618717452533914,-560.0,-624.0,259.0
1449618717465628870,-560.0,-626.0,279.0
1449618717479304611,-564.0,-626.0,254.0
1449618717499899205,-564.0,-628.0,276.0
1449618717507025475,-566.0,-628.0,245.0
1449618717524253391,-568.0,-630.0,276.0
1449618717540901901,-570.0,-632.0,247.0
1449618717554792442,-572.0,-632.0,255.0
1449618717569623364,-574.0,-634.0,238.0
1449618717587370484,-576.0,-636.0,272.0
1449618717598155489,-578.0,-636.0,231.0
1449618717613319122,-580.0,-638.0,268.0
1449618717629691040,-582.0,-638.0,229.0
1449618717641990895,-584.0,-640.0,265.0
1449618717658664773,-586.0,-642.0,224.0
1449618717675531796,-588.0,-642.0,263.0
1449618717692235361,-590.0,-644.0,226.0
1449618717703825915,-592.0,-646.0,264.0
1449618717717531811,-594.0,-646.0,225.0
1449618717733553051,-596.0,-648.0,268.0
1449618717750956389,-598.0,-648.0,228.0
1449618717762783021,-600.0,-650.0,251.0
1449618717777614272,-602.0,-652.0,233.0
1449618717799227224,-604.0,-652.0,253.0
1449618717809627119,-606.0,-654.0,240.0
1449618717825838208,-608.0,-654.0,258.0
1449618717839936040,-610.0,-656.0,242.0
1449618717851297468,-612.0,-658.0,261.0
1449618717872082061,-614.0,-658.0,250.0
1449618717885947906,-616.0,-660.0,269.0
1449618717896333953,-618.0,-662.0,243.0
1449618717912736206,-620.0,-662.0,253.0
1449618717929311970,-622.0,-664.0,250.0
1449618717944577833,-624.0,-664.0,263.0
1449618717957633193,-626.0,-666.0,255.0
1449618717980327943,-628.0,-668.0,261.0
1449618717986936622,-630.0,-668.0,261.0
1449618718004900330,-632.0,-670.0,268.0
1449618718025337021,-634.0,-670.0,266.0
1449618718031519346,-636.0,-672.0,271.0
1449618718048307159,-638.0,-674.0,271.0
1449618718065731460,-640.0,-674.0,278.0
1449618718076306596,-640.0,-676.0,282.0
1449618718092929673,-642.0,-676.0,272.0
1449618718105121471,-644.0,-678.0,291.0
1449618718124430590,-646.0,-680.0,276.0
1449618718138934005,-648.0,-680.0,293.0
1449618718149871090,-650.0,-682.0,274.0
1449618718166677770,-652.0,-682.0,291.0
1449618718183058990,-654.0,-684.0,280.0
1449618718198381054,-656.0,-684.0,285.0
1449618718211245877,-658.0,-686.0,277.0
1449618718228303161,-660.0,-688.0,286.0
1449618718240523220,-660.0,-688.0,288.0
1449618718256747469,-662.0,-690.0,268.0
1449618718276138407,-664.0,-690.0,283.0
1449618718289526935,-666.0,-692.0,257.0
1449618718305538677,-668.0,-692.0,271.0
1449618718318028406,-670.0,-694.0,259.0
1449618718338506811,-672.0,-694.0,263.0
1449618718352946665,-674.0,-696.0,253.0
1449618718363387692,-674.0,-698.0,250.0
1449618718380836205,-676.0,-698.0,266.0
1449618718396526989,-678.0,-700.0,244.0
1449618718408354905,-680.0,-700.0,255.0
1449618718424759409,-682.0,-702.0,252.0
1449618718440932049,-682.0,-702.0,244.0
1449618718454592604,-684.0,-704.0,265.0
1449618718471122642,-686.0,-704.0,255.0
1449618718486180103,-688.0,-706.0,262.0
1449618718497987213,-688.0,-706.0,265.0
1449618718515182653,-690.0,-706.0,244.0
1449618718527659817,-692.0,-708.0,257.0
1449618718543030372,-692.0,-708.0,255.0
1449618718559858131,-694.0,-710.0,234.0
1449618718571860691,-696.0,-710.0,250.0
1449618718588473285,-698.0,-712.0,223.0
1449618718604977274,-698.0,-712.0,228.0
1449618718617006851,-700.0,-714.0,244.0
1449618718636693181,-702.0,-714.0,234.0
1449618718649703197,-702.0,-716.0,218.0
1449618718662324485,-704.0,-716.0,248.0
1449618718678483123,-706.0,-716.0,241.0
1449618718694759593,-706.0,-718.0,242.0
1449618718710594044,-708.0,-718.0,256.0
1449618718724615261,-710.0,-720.0,248.0
1449618718739866381,-710.0,-720.0,248.0
1449618718753628524,-712.0,-720.0,267.0
1449618718769484852,-714.0,-722.0,255.0
1449618718785618258,-714.0,-722.0,250.0
1449618718797334536,-716.0,-724.0,263.0
1449618718816933219,-716.0,-724.0,272.0
1449618718830027943,-718.0,-724.0,259.0
1449618718843237353,-720.0,-726.0,276.0
1449618718859889210,-720.0,-726.0,279.0
1449618718876329260,-722.0,-728.0,272.0
1449618718888979332,-724.0,-728.0,283.0
1449618718905515655,-724.0,-728.0,294.0
1449618718916781828,-726.0,-730.0,288.0
1449618718933202530,-726.0,-730.0,276.0
1449618718951088172,-728.0,-730.0,306.0
1449618718964240078,-728.0,-732.0,308.0
1449618718977831502,-730.0,-732.0,293.0
1449618718996429039,-732.0,-734.0,310.0
1449618719006339642,-732.0,-734.0,322.0
1449618719024490531,-734.0,-734.0,314.0
1449618719039030039,-734.0,-736.0,309.0
1449618719051989166,-736.0,-736.0,325.0
1449618719067613797,-736.0,-736.0,333.0
1449618719084841902,-738.0,-738.0,322.0
1449618719096209245,-738.0,-738.0,323.0
1449618719113083428,-740.0,-738.0,339.0
1449618719128949937,-740.0,-740.0,338.0
1449618719141896898,-742.0,-740.0,329.0
1449618719157531213,-744.0,-740.0,343.0
1449618719174676501,-744.0,-742.0,348.0
1449618719186600519,-746.0,-742.0,340.0
1449618719203502251,-746.0,-742.0,333.0
1449618719219268447,-748.0,-744.0,347.0
1449618719247933792,-750.0,-744.0,347.0
1449618719325630830,-754.0,-748.0,343.0
1449618719341753321,-756.0,-748.0,348.0
1449618719357394988,-756.0,-748.0,358.0
1449618719370554565,-756.0,-750.0,365.0
1449618719384042878,-758.0,-750.0,349.0
1449618719400851557,-758.0,-750.0,349.0
1449618719415960000,-760.0,-750.0,360.0
1449618719432192114,-760.0,-752.0,366.0
1449618719445925125,-762.0,-752.0,357.0
1449618719458309329,-762.0,-752.0,350.0
1449618719480690115,-764.0,-754.0,362.0
1449618719490627337,-764.0,-754.0,368.0
1449618719501799993,-764.0,-754.0,364.0
1449618719518547045,-766.0,-754.0,356.0
1449618719551938402,-766.0,-756.0,351.0
1449618719551977798,-768.0,-756.0,357.0
1449618719563972396,-768.0,-756.0,370.0
1449618719581819835,-770.0,-758.0,356.0
1449618719591875172,-770.0,-758.0,347.0
1449618719609803843,-772.0,-758.0,361.0
1449618719626119025,-772.0,-760.0,369.0
1449618719636908654,-772.0,-760.0,367.0
1449618719654646913,-774.0,-760.0,364.0
1449618719669998661,-774.0,-760.0,348.0
1449618719681887839,-776.0,-762.0,362.0
1449618719698272806,-776.0,-762.0,366.0
1449618719715837059,-778.0,-762.0,357.0
1449618719730490118,-778.0,-764.0,346.0
1449618719744520343,-780.0,-764.0,362.0
1449618719761641406,-780.0,-764.0,367.0
1449618719772898259,-782.0,-766.0,359.0
1449618719790518666,-782.0,-766.0,349.0
1449618719810760787,-782.0,-766.0,348.0
1449618719817904820,-784.0,-768.0,353.0
1449618719833973476,-784.0,-768.0,365.0
1449618719846280999,-786.0,-768.0,354.0
1449618719864631423,-786.0,-768.0,346.0
1449618719879018677,-788.0,-770.0,359.0
1449618719891206910,-788.0,-770.0,363.0
1449618719907594117,-790.0,-770.0,355.0
1449618719924033733,-790.0,-772.0,342.0
1449618719938253271,-792.0,-772.0,355.0
1449618719955678903,-792.0,-772.0,365.0
1449618719971452676,-794.0,-774.0,346.0
1449618719981647368,-794.0,-774.0,344.0
1449618719997860031,-796.0,-774.0,351.0
1449618720016641453,-796.0,-774.0,359.0
1449618720026381885,-796.0,-776.0,358.0
1449618720133501903,-802.0,-778.0,328.0
1449618720149182354,-804.0,-780.0,341.0
1449618720165455273,-804.0,-780.0,335.0
1449618720181625250,-804.0,-780.0,367.0
1449618720194412268,-806.0,-780.0,329.0
1449618720213853146,-806.0,-782.0,325.0
1449618720223216826,-806.0,-782.0,316.0
1449618720247525486,-808.0,-782.0,324.0
1449618720258872500,-808.0,-782.0,327.0
1449618720267873881,-808.0,-782.0,333.0
1449618720284613745,-808.0,-784.0,327.0
1449618720300496813,-810.0,-784.0,314.0
1449618720316267229,-810.0,-784.0,308.0
1449618720329564664,-810.0,-784.0,304.0
1449618720346929690,-810.0,-784.0,311.0
1449618720358217718,-812.0,-784.0,316.0
1449618720375445227,-812.0,-786.0,314.0
1449618720394909994,-812.0,-786.0,309.0
1449618720404150329,-812.0,-786.0,317.0
1449618720420207685,-812.0,-786.0,313.0
1449618720438209310,-814.0,-786.0,301.0
1449618720448199635,-814.0,-786.0,300.0
1449618720465623483,-814.0,-786.0,300.0
1449618720477614447,-814.0,-786.0,296.0
1449618720493956702,-814.0,-786.0,294.0
1449618720510223051,-814.0,-786.0,295.0
1449618720523281830,-814.0,-788.0,295.0
1449618720539266719,-816.0,-788.0,297.0
1449618720555310766,-816.0,-788.0,296.0
1449618720566758935,-816.0,-788.0,300.0
1449618720583557166,-816.0,-788.0,296.0
1449618720604419310,-816.0,-788.0,294.0
1449618720612206202,-816.0,-788.0,295.0
1449618720628465836,-816.0,-788.0,294.0
1449618720645941936,-816.0,-788.0,294.0
1449618720657962534,-816.0,-788.0,303.0
1449618720674876833,-816.0,-788.0,295.0
1449618720692025688,-816.0,-788.0,294.0
1449618720702351284,-816.0,-788.0,296.0
1449618720719850121,-816.0,-788.0,293.0
1449618720735058074,-816.0,-788.0,292.0
1449618720760798569,-816.0,-788.0,291.0
1449618720763521825,-816.0,-788.0,292.0
1449618720782552939,-816.0,-788.0,291.0
1449618720795342868,-816.0,-788.0,292.0
1449618720810007891,-816.0,-788.0,292.0
1449618720820965021,-816.0,-788.0,292.0
1449618720837736522,-816.0,-788.0,291.0
1449618720854062928,-816.0,-788.0,291.0
1449618720866788072,-816.0,-788.0,293.0
1449618720898050396,-816.0,-788.0,294.0
1449618720898634665,-816.0,-788.0,295.0
1449618720910866285,-816.0,-788.0,292.0
1449618720930585903,-816.0,-788.0,292.0
1449618720943774852,-816.0,-788.0,293.0
1449618720957542195,-816.0,-788.0,290.0
1449618720973129418,-816.0,-788.0,294.0
1449618720991226938,-816.0,-788.0,289.0
1449618721002727842,-816.0,-788.0,292.0
1449618721017440503,-816.0,-788.0,292.0
1449618721034152517,-816.0,-788.0,291.0
1449618721047041913,-816.0,-788.0,289.0
1449618721068793297,-816.0,-788.0,288.0
1449618721079516938,-816.0,-788.0,291.0
1449618721092593954,-816.0,-788.0,288.0
1449618721107992102,-816.0,-788.0,289.0
1449618721125369869,-816.0,-788.0,290.0
1449618721137059453,-816.0,-788.0,287.0
1449618721158143571,-816.0,-788.0,288.0
1449618721169627199,-816.0,-788.0,288.0
1449618721182144071,-816.0,-788.0,287.0
1449618721198099825,-816.0,-788.0,284.0
1449618721221069455,-816.0,-788.0,282.0
1449618721232229372,-816.0,-788.0,282.0
1449618721243597802,-816.0,-788.0,285.0
1449618721255669994,-816.0,-788.0,286.0
1449618721273404371,-816.0,-788.0,285.0
1449618721290666390,-816.0,-788.0,290.0
1449618721300439314,-816.0,-788.0,288.0
1449618721325983132,-816.0,-788.0,287.0
1449618721334127627,-816.0,-788.0,287.0
1449618721345607823,-816.0,-788.0,286.0
1449618721365903010,-816.0,-788.0,282.0
1449618721379438979,-818.0,-788.0,280.0
1449618721390954615,-818.0,-788.0,273.0
1449618721409276497,-818.0,-788.0,270.0
1449618721423135074,-818.0,-788.0,269.0
1449618721436155777,-818.0,-788.0,259.0
1449618721453986157,-818.0,-790.0,265.0
1449618721471704147,-818.0,-790.0,260.0
1449618721481784671,-820.0,-790.0,266.0
1449618721501418318,-820.0,-790.0,272.0
1449618721513674030,-820.0,-790.0,270.0
1449618721526370913,-820.0,-790.0,275.0
1449618721541775430,-820.0,-790.0,272.0
1449618721564251115,-820.0,-790.0,269.0
1449618721573791666,-822.0,-790.0,258.0
1449618721589694267,-822.0,-792.0,255.0
1449618721602497272,-822.0,-792.0,248.0
1449618721620148345,-822.0,-792.0,245.0
1449618721635417444,-824.0,-792.0,260.0
1449618721644274866,-824.0,-792.0,266.0
1449618721662765683,-824.0,-792.0,263.0
1449618721678961765,-826.0,-794.0,255.0
1449618721689679732,-826.0,-794.0,253.0
1449618721706045856,-826.0,-794.0,241.0
1449618721727898388,-828.0,-794.0,248.0
1449618721738401645,-828.0,-794.0,251.0
1449618721751057031,-828.0,-796.0,255.0
1449618721773709811,-830.0,-796.0,244.0
1449618721779457039,-830.0,-796.0,240.0
1449618721795862207,-830.0,-796.0,238.0
1449618721813154005,-832.0,-796.0,250.0
1449618721824825609,-832.0,-798.0,254.0
1449618721840930150,-832.0,-798.0,248.0
1449618721857342801,-834.0,-798.0,238.0
1449618721869813087,-834.0,-800.0,235.0
1449618721885998018,-836.0,-800.0,237.0
1449618721904828703,-836.0,-800.0,255.0
1449618721918020191,-838.0,-800.0,241.0
1449618721930791036,-838.0,-802.0,235.0
1449618721947445450,-838.0,-802.0,234.0
1449618721961586650,-840.0,-802.0,246.0
1449618721976666432,-840.0,-804.0,251.0
1449618721989617394,-842.0,-804.0,239.0
1449618722006673103,-842.0,-804.0,228.0
1449618722021652709,-844.0,-806.0,244.0
1449618722033650728,-844.0,-806.0,247.0
1449618722049799944,-846.0,-806.0,232.0
1449618722066412424,-846.0,-806.0,229.0
1449618722081911301,-848.0,-808.0,247.0
1449618722096058695,-848.0,-808.0,250.0
1449618722111664665,-850.0,-808.0,233.0
1449618722128577976,-852.0,-810.0,242.0
1449618722139921106,-852.0,-810.0,250.0
1449618722156661296,-854.0,-810.0,242.0
1449618722168517922,-854.0,-812.0,233.0
1449618722188116297,-856.0,-812.0,244.0
1449618722202013573,-856.0,-814.0,253.0
1449618722221580652,-858.0,-814.0,240.0
1449618722233888527,-860.0,-814.0,244.0
1449618722247138205,-860.0,-816.0,255.0
1449618722261115239,-862.0,-816.0,248.0
1449618722276985954,-862.0,-818.0,243.0
1449618722296016610,-864.0,-818.0,261.0
1449618722304242882,-864.0,-818.0,262.0
1449618722320145886,-866.0,-820.0,250.0
1449618722336419839,-868.0,-820.0,263.0
1449618722349034547,-868.0,-822.0,271.0
1449618722374092375,-870.0,-822.0,253.0
1449618722378570045,-872.0,-822.0,269.0
1449618722395738162,-872.0,-824.0,275.0
1449618722410271545,-874.0,-824.0,248.0
1449618722424218323,-876.0,-826.0,274.0
1449618722438887537,-876.0,-826.0,282.0
1449618722457569239,-878.0,-826.0,265.0
1449618722469870415,-880.0,-828.0,275.0
1449618722484224977,-880.0,-828.0,281.0
1449618722500632258,-882.0,-830.0,259.0
1449618722513126610,-884.0,-830.0,270.0
1449618722532365130,-884.0,-832.0,276.0
1449618722547316725,-886.0,-832.0,253.0
1449618722559977303,-888.0,-834.0,267.0
1449618722575061388,-888.0,-834.0,271.0
1449618722592464908,-890.0,-836.0,296.0
1449618722607651680,-892.0,-836.0,268.0
1449618722624213959,-894.0,-838.0,248.0
1449618722636407417,-894.0,-838.0,242.0
1449618722652319068,-896.0,-840.0,260.0
1449618722669363856,-898.0,-840.0,245.0
1449618722685640133,-900.0,-842.0,247.0
1449618722699915402,-900.0,-842.0,250.0
1449618722713686043,-902.0,-844.0,232.0
1449618722727984689,-904.0,-844.0,237.0
1449618722742241365,-906.0,-846.0,230.0
1449618722754338104,-906.0,-846.0,216.0
1449618722770653406,-908.0,-848.0,232.0
1449618722788159986,-910.0,-848.0,207.0
1449618722799438443,-912.0,-850.0,213.0
1449618722818499401,-912.0,-850.0,215.0
1449618722832195154,-914.0,-852.0,190.0
1449618722845001500,-916.0,-854.0,195.0
1449618722861101940,-916.0,-854.0,188.0
1449618722877365168,-918.0,-856.0,167.0
1449618722890633021,-920.0,-856.0,186.0
1449618722906016098,-922.0,-858.0,167.0
1449618722939908814,-922.0,-858.0,154.0
1449618722939916010,-924.0,-860.0,165.0
1449618722951372049,-926.0,-862.0,149.0
1449618722967814083,-928.0,-862.0,155.0
1449618722980158675,-928.0,-864.0,154.0
1449618722996125615,-930.0,-864.0,133.0
1449618723012937610,-932.0,-866.0,143.0
1449618723024997353,-932.0,-866.0,144.0
1449618723042259456,-934.0,-868.0,125.0
1449618723058154736,-936.0,-870.0,142.0
1449618723073229137,-938.0,-870.0,127.0
1449618723086642634,-938.0,-872.0,125.0
1449618723104925688,-940.0,-872.0,149.0
1449618723114768156,-942.0,-874.0,129.0
1449618723131390933,-944.0,-876.0,138.0
1449618723143951598,-944.0,-876.0,143.0
1449618723164293381,-946.0,-878.0,129.0
1449618723176647548,-948.0,-880.0,142.0
1449618723192875572,-948.0,-880.0,153.0
1449618723205736980,-950.0,-882.0,179.0
1449618723221421051,-952.0,-882.0,148.0
1449618723234751914,-952.0,-884.0,160.0
1449618723251168048,-954.0,-886.0,141.0
1449618723268692143,-956.0,-886.0,156.0
1449618723280034362,-956.0,-888.0,164.0
1449618723295735106,-958.0,-890.0,152.0
1449618723311855862,-960.0,-890.0,162.0
1449618723324073754,-960.0,-892.0,168.0
1449618723340388563,-962.0,-894.0,155.0
1449618723356529223,-964.0,-894.0,162.0
1449618723369024278,-964.0,-896.0,171.0
1449618723385142766,-966.0,-898.0,160.0
1449618723401521331,-968.0,-900.0,164.0
1449618723426937655,-968.0,-900.0,180.0
1449618723430576493,-970.0,-902.0,159.0
1449618723446586848,-972.0,-904.0,163.0
1449618723459140548,-972.0,-904.0,172.0
1449618723475860602,-974.0,-906.0,201.0
1449618723504812303,-976.0,-908.0,157.0
1449618723504815882,-976.0,-908.0,174.0
1449618723521406959,-978.0,-910.0,157.0
1449618723533017250,-980.0,-912.0,164.0
1449618723549327336,-980.0,-914.0,175.0
1449618723565861035,-982.0,-914.0,163.0
1449618723577867066,-984.0,-916.0,170.0
1449618723603893875,-984.0,-918.0,174.0
1449618723613739501,-986.0,-918.0,164.0
1449618723623279621,-988.0,-920.0,172.0
1449618723639271973,-988.0,-920.0,178.0
1449618723659136074,-990.0,-922.0,159.0
1449618723671871890,-992.0,-924.0,176.0
1449618723684325520,-994.0,-924.0,169.0
1449618723700749145,-994.0,-926.0,161.0
1449618723713045654,-996.0,-928.0,182.0
1449618723731059612,-998.0,-928.0,171.0
1449618723749656568,-998.0,-930.0,189.0
1449618723762296409,-1000.0,-930.0,190.0
1449618723781350812,-1002.0,-932.0,177.0
1449618723791678789,-1002.0,-934.0,176.0
1449618723804617853,-1004.0,-934.0,196.0
1449618723820768238,-1006.0,-936.0,186.0
1449618723838688447,-1006.0,-938.0,181.0
1449618723848146598,-1008.0,-938.0,202.0
1449618723865669559,-1010.0,-940.0,191.0
1449618723883194437,-1010.0,-940.0,191.0
1449618723893078645,-1012.0,-942.0,211.0
1449618723909698462,-1014.0,-942.0,200.0
1449618723922381441,-1014.0,-944.0,192.0
1449618723939080596,-1016.0,-946.0,214.0
1449618723955792595,-1018.0,-946.0,204.0
1449618723968666324,-1018.0,-948.0,198.0
1449618723985945242,-1020.0,-948.0,215.0
1449618723999658337,-1020.0,-950.0,219.0
1449618724014109844,-1022.0,-950.0,204.0
1449618724029036128,-1024.0,-952.0,216.0
1449618724045303879,-1024.0,-954.0,227.0
1449618724057266391,-1026.0,-954.0,215.0
1449618724074148210,-1026.0,-954.0,215.0
1449618724094095875,-1028.0,-956.0,232.0
1449618724105646789,-1030.0,-958.0,218.0
1449618724118603025,-1030.0,-958.0,208.0
1449618724141317875,-1032.0,-960.0,222.0
1449618724148073296,-1032.0,-960.0,232.0
1449618724163491400,-1034.0,-962.0,259.0
1449618724179936610,-1036.0,-962.0,225.0
1449618724192606908,-1036.0,-964.0,234.0
1449618724210422155,-1038.0,-964.0,223.0
1449618724227092551,-1038.0,-966.0,213.0
1449618724237540953,-1040.0,-966.0,230.0
1449618724254886372,-1040.0,-968.0,238.0
1449618724271449930,-1042.0,-968.0,227.0
1449618724285955507,-1042.0,-970.0,221.0
1449618724298926545,-1044.0,-970.0,234.0
1449618724311164943,-1044.0,-972.0,227.0
1449618724328028030,-1046.0,-972.0,216.0
1449618724345037616,-1048.0,-974.0,230.0
1449618724356108986,-1048.0,-974.0,242.0
1449618724372474381,-1050.0,-976.0,227.0
1449618724391874177,-1050.0,-978.0,222.0
1449618724402716133,-1052.0,-978.0,243.0
1449618724423859127,-1054.0,-980.0,230.0
1449618724436368454,-1054.0,-980.0,274.0
1449618724446837935,-1056.0,-982.0,243.0
1449618724463515724,-1056.0,-982.0,254.0
1449618724484081564,-1058.0,-984.0,240.0
1449618724498109494,-1060.0,-986.0,255.0
1449618724512752069,-1060.0,-986.0,259.0
1449618724526322216,-1062.0,-988.0,251.0
1449618724536234616,-1062.0,-988.0,243.0
1449618724556467918,-1064.0,-990.0,263.0
1449618724570270225,-1066.0,-990.0,253.0
1449618724583459649,-1066.0,-992.0,246.0
1449618724598139113,-1068.0,-994.0,266.0
1449618724631077381,-1070.0,-996.0,247.0
1449618724704957815,-1078.0,-1002.0,253.0
1449618724725646756,-1078.0,-1004.0,250.0
1449618724733748629,-1080.0,-1004.0,268.0
1449618724750721332,-1082.0,-1006.0,256.0
1449618724767879756,-1084.0,-1008.0,256.0
1449618724777815702,-1084.0,-1008.0,267.0
1449618724797422401,-1086.0,-1010.0,249.0
1449618724815093658,-1088.0,-1012.0,257.0
1449618724825159907,-1088.0,-1012.0,268.0
1449618724840944398,-1090.0,-1014.0,246.0
1449618724857231325,-1092.0,-1016.0,261.0
1449618724868153283,-1092.0,-1016.0,272.0
1449618724884790803,-1094.0,-1018.0,250.0
1449618724903314049,-1096.0,-1020.0,265.0
1449618724913926531,-1096.0,-1020.0,268.0
1449618724930055929,-1098.0,-1022.0,256.0
1449618724943168037,-1100.0,-1024.0,263.0
1449618724959340680,-1100.0,-1024.0,272.0
1449618724974840665,-1102.0,-1026.0,253.0
1449618724987096204,-1104.0,-1028.0,264.0
1449618725004021468,-1104.0,-1028.0,271.0
1449618725019860629,-1106.0,-1030.0,259.0
1449618725034400334,-1108.0,-1032.0,259.0
1449618725051677593,-1108.0,-1032.0,268.0
1449618725066067183,-1110.0,-1034.0,252.0
1449618725079179610,-1112.0,-1036.0,260.0
1449618725094593563,-1112.0,-1036.0,268.0
1449618725109868046,-1114.0,-1038.0,252.0
1449618725122223059,-1114.0,-1040.0,247.0
1449618725140731763,-1116.0,-1040.0,266.0
1449618725154834176,-1118.0,-1042.0,249.0
1449618725167558322,-1118.0,-1044.0,242.0
1449618725184163027,-1120.0,-1044.0,254.0
1449618725200248523,-1120.0,-1046.0,253.0
1449618725213417640,-1122.0,-1048.0,239.0
1449618725229224690,-1124.0,-1050.0,251.0
1449618725245254619,-1124.0,-1050.0,255.0
1449618725260448669,-1126.0,-1052.0,238.0
1449618725278139580,-1126.0,-1054.0,237.0
1449618725287853831,-1128.0,-1054.0,253.0
1449618725302419092,-1130.0,-1056.0,235.0
1449618725319125950,-1130.0,-1058.0,233.0
1449618725332213460,-1132.0,-1060.0,243.0
1449618725347649785,-1132.0,-1060.0,252.0
1449618725364263465,-1134.0,-1062.0,239.0
1449618725376891006,-1136.0,-1064.0,242.0
1449618725392374101,-1136.0,-1064.0,251.0
1449618725409001201,-1138.0,-1066.0,240.0
1449618725421657378,-1138.0,-1068.0,237.0
1449618725437482357,-1140.0,-1070.0,247.0
1449618725455183359,-1140.0,-1070.0,253.0
1449618725467967698,-1142.0,-1072.0,240.0
1449618725483544085,-1144.0,-1074.0,243.0
1449618725499100659,-1144.0,-1076.0,253.0
1449618725511460768,-1146.0,-1078.0,240.0
1449618725528612742,-1146.0,-1078.0,236.0
1449618725545685731,-1148.0,-1080.0,245.0
1449618725560872836,-1148.0,-1082.0,259.0
1449618725572883262,-1150.0,-1084.0,243.0
1449618725589372302,-1150.0,-1086.0,240.0
1449618725602287342,-1152.0,-1086.0,251.0
1449618725619749091,-1154.0,-1088.0,239.0
1449618725634224512,-1154.0,-1090.0,231.0
1449618725647546769,-1156.0,-1092.0,243.0
1449618725666137654,-1156.0,-1094.0,255.0
1449618725675214867,-1158.0,-1094.0,234.0
1449618725691561897,-1158.0,-1096.0,227.0
1449618725709274225,-1160.0,-1098.0,240.0
1449618725724546743,-1160.0,-1100.0,240.0
1449618725737004615,-1162.0,-1102.0,225.0
1449618725753152488,-1164.0,-1104.0,241.0
1449618725765317430,-1164.0,-1106.0,243.0
1449618725783342231,-1166.0,-1106.0,232.0
1449618725800442485,-1166.0,-1108.0,221.0
1449618725811858236,-1168.0,-1110.0,260.0
1449618725828667437,-1168.0,-1112.0,240.0
1449618725843781310,-1170.0,-1114.0,226.0
1449618725856341197,-1170.0,-1116.0,220.0
1449618725872924890,-1172.0,-1118.0,237.0
1449618725888719403,-1174.0,-1120.0,226.0
1449618725902551704,-1174.0,-1122.0,217.0
1449618725917547256,-1176.0,-1122.0,227.0
1449618725933726764,-1176.0,-1124.0,282.0
1449618725945771763,-1178.0,-1126.0,221.0
1449618725963178270,-1178.0,-1128.0,211.0
1449618725980912648,-1180.0,-1130.0,223.0
1449618725994396644,-1180.0,-1132.0,227.0
1449618726007318450,-1182.0,-1134.0,215.0
1449618726023452797,-1182.0,-1136.0,207.0
1449618726035594284,-1184.0,-1138.0,221.0
1449618726052127097,-1184.0,-1140.0,224.0
1449618726065680414,-1186.0,-1140.0,211.0
1449618726081217725,-1186.0,-1142.0,248.0
1449618726097200270,-1188.0,-1144.0,217.0
1449618726111560896,-1188.0,-1146.0,223.0
1449618726125771530,-1190.0,-1148.0,209.0
1449618726142431938,-1190.0,-1150.0,202.0
1449618726155150737,-1192.0,-1152.0,216.0
1449618726171226111,-1192.0,-1152.0,221.0
1449618726188631427,-1194.0,-1154.0,209.0
1449618726202564933,-1194.0,-1156.0,201.0
1449618726217200083,-1196.0,-1158.0,216.0
1449618726232228636,-1196.0,-1160.0,223.0
1449618726245352251,-1198.0,-1162.0,199.0
1449618726260815403,-1198.0,-1164.0,203.0
1449618726278468904,-1198.0,-1164.0,206.0
1449618726289722470,-1200.0,-1166.0,217.0
1449618726308126522,-1200.0,-1168.0,219.0
1449618726322893114,-1202.0,-1170.0,208.0
1449618726335632235,-1202.0,-1172.0,202.0
1449618726354491453,-1204.0,-1172.0,254.0
1449618726367356200,-1204.0,-1174.0,217.0
1449618726382088913,-1204.0,-1176.0,213.0
1449618726395968796,-1206.0,-1178.0,195.0
1449618726408689946,-1206.0,-1180.0,196.0
1449618726424801327,-1208.0,-1180.0,207.0
1449618726441770624,-1208.0,-1182.0,213.0
1449618726453912118,-1210.0,-1184.0,203.0
1449618726470155868,-1210.0,-1186.0,197.0
1449618726486514785,-1210.0,-1186.0,195.0
1449618726498657421,-1212.0,-1188.0,204.0
1449618726515313295,-1212.0,-1190.0,210.0
1449618726531382132,-1214.0,-1192.0,200.0
1449618726546111932,-1214.0,-1192.0,185.0
1449618726560499871,-1214.0,-1194.0,191.0
1449618726576815903,-1216.0,-1196.0,203.0
1449618726589764849,-1216.0,-1198.0,206.0
1449618726604887049,-1218.0,-1198.0,193.0
1449618726621961998,-1218.0,-1200.0,231.0
1449618726633606531,-1218.0,-1202.0,182.0
1449618726650162670,-1220.0,-1202.0,198.0
1449618726666474962,-1220.0,-1204.0,204.0
1449618726679021199,-1222.0,-1206.0,196.0
1449618726696419968,-1222.0,-1206.0,185.0
1449618726711869871,-1222.0,-1208.0,185.0
1449618726724525763,-1224.0,-1210.0,199.0
1449618726740248177,-1224.0,-1210.0,208.0
1449618726757360376,-1226.0,-1212.0,204.0
1449618726771285661,-1226.0,-1214.0,230.0
1449618726785363133,-1226.0,-1214.0,187.0
1449618726798025923,-1228.0,-1216.0,203.0
1449618726814029730,-1228.0,-1218.0,213.0
1449618726830599217,-1230.0,-1218.0,202.0
1449618726842584008,-1230.0,-1220.0,193.0
1449618726858970012,-1230.0,-1222.0,193.0
1449618726875490223,-1232.0,-1222.0,204.0
1449618726888103278,-1232.0,-1224.0,262.0
1449618726904192862,-1234.0,-1226.0,205.0
1449618726920798376,-1234.0,-1226.0,196.0
1449618726933284396,-1236.0,-1228.0,201.0
1449618726949632973,-1236.0,-1230.0,216.0
1449618726966558521,-1236.0,-1230.0,227.0
1449618726977739492,-1238.0,-1232.0,209.0
1449618726994239115,-1238.0,-1234.0,203.0
1449618727010598314,-1240.0,-1234.0,211.0
1449618727023230527,-1240.0,-1236.0,219.0
1449618727039452906,-1242.0,-1238.0,249.0
1449618727056010899,-1242.0,-1238.0,201.0
1449618727068237207,-1244.0,-1240.0,214.0
