%time,field.header.seq,field.header.stamp,field.header.frame_id,field.ns,field.id,field.type,field.action,field.pose.position.x,field.pose.position.y,field.pose.position.z,field.pose.orientation.x,field.pose.orientation.y,field.pose.orientation.z,field.pose.orientation.w,field.scale.x,field.scale.y,field.scale.z,field.color.r,field.color.g,field.color.b,field.color.a,field.lifetime,field.frame_locked,field.text,field.mesh_resource,field.mesh_use_embedded_materials
1449618707415846782,0,1449618707415215891,/odom,doorways,20,0,0,0.0,0.0,0.0,0.0,0.0,0.0,1.0,0.25,0.15,0.0,0.0,0.0,1.0,1.0,2000000000,0,,,0
1449618708107185696,1,1449618708106491774,/odom,doorways,20,0,0,0.0,0.0,0.0,0.0,0.0,0.0,1.0,0.25,0.15,0.0,0.0,0.0,1.0,1.0,2000000000,0,,,0
1449618708390737426,2,1449618708390593212,/odom,doorways,20,0,0,0.0,0.0,0.0,0.0,0.0,0.0,1.0,0.25,0.15,0.0,0.0,0.0,1.0,1.0,2000000000,0,,,0
1449618708909652608,3,1449618708908305469,/odom,doorways,20,0,0,0.0,0.0,0.0,0.0,0.0,0.0,1.0,0.25,0.15,0.0,0.0,0.0,1.0,1.0,2000000000,0,,,0
1449618709499066965,4,1449618709497253535,/odom,doorways,20,0,0,0.0,0.0,0.0,0.0,0.0,0.0,1.0,0.25,0.15,0.0,0.0,0.0,1.0,1.0,2000000000,0,,,0
1449618709598517811,5,1449618709595595270,/odom,doorways,20,0,0,0.0,0.0,0.0,0.0,0.0,0.0,1.0,0.25,0.15,0.0,0.0,0.0,1.0,1.0,2000000000,0,,,0
1449618710000209808,6,1449618709999437683,/odom,doorways,20,0,0,0.0,0.0,0.0,0.0,0.0,0.0,1.0,0.25,0.15,0.0,0.0,0.0,1.0,1.0,2000000000,0,,,0
1449618712324109358,7,1449618712322952992,/odom,doorways,20,0,0,0.391040836416,0.0207127783073,0.0,0.0,0.0,0.0211345236944,0.999776641009,0.25,0.15,0.0,0.0,0.0,1.0,1.0,2000000000,0,,,0
1449618712324112507,8,1449618712323078275,/odom,doorways,20,0,0,0.391040836416,0.0207127783073,0.0,0.0,0.0,0.0211345236944,0.999776641009,0.25,0.15,0.0,0.0,0.0,1.0,1.0,2000000000,0,,,0
1449618713436524956,9,1449618713433065312,/odom,doorways,20,0,0,0.671036558176,-0.00639313040269,0.0,0.0,0.0,-0.115986887289,0.993250744765,0.25,0.15,0.0,0.0,0.0,1.0,1.0,2000000000,0,,,0
1449618713436533205,10,1449618713433149297,/odom,doorways,20,0,0,0.671036558176,-0.00639313040269,0.0,0.0,0.0,-0.115986887289,0.993250744765,0.25,0.15,0.0,0.0,0.0,1.0,1.0,2000000000,0,,,0
1449618713630462912,11,1449618713628617545,/odom,doorways,20,0,0,0.70173043549,-0.01422370543,0.0,0.0,0.0,-0.131716738444,0.99128739567,0.25,0.15,0.0,0.0,0.0,1.0,1.0,2000000000,0,,,0
1449618713758395571,12,1449618713757005958,/odom,doorways,20,0,0,0.721132797233,-0.0196932220685,0.0,0.0,0.0,-0.136952861975,0.990577565664,0.25,0.15,0.0,0.0,0.0,1.0,1.0,2000000000,0,,,0
1449618713758398331,13,1449618713757021292,/odom,doorways,20,0,0,0.721132797233,-0.0196932220685,0.0,0.0,0.0,-0.136952861975,0.990577565664,0.25,0.15,0.0,0.0,0.0,1.0,1.0,2000000000,0,,,0
1449618713973017494,14,1449618713960660179,/odom,doorways,20,0,0,0.721132797233,-0.0196932220685,0.0,0.0,0.0,-0.136952861975,0.990577565664,0.25,0.15,0.0,0.0,0.0,1.0,1.0,2000000000,0,,,0
1449618714027257497,15,1449618714027062827,/odom,doorways,20,0,0,0.75962359256,-0.0316818682003,0.0,0.0,0.0,-0.157857657354,0.987461877753,0.25,0.15,0.0,0.0,0.0,1.0,1.0,2000000000,0,,,0
1449618714170845869,16,1449618714168398310,/odom,doorways,20,0,0,0.778709997902,-0.0381684994169,0.0,0.0,0.0,-0.163073201911,0.986613972544,0.25,0.15,0.0,0.0,0.0,1.0,1.0,2000000000,0,,,0
1449618714170849720,17,1449618714168462761,/odom,doorways,20,0,0,0.778709997902,-0.0381684994169,0.0,0.0,0.0,-0.163073201911,0.986613972544,0.25,0.15,0.0,0.0,0.0,1.0,1.0,2000000000,0,,,0
1449618714361662349,18,1449618714359975250,/odom,doorways,20,0,0,0.808458783042,-0.0490501492241,0.0,0.0,0.0,-0.17869193488,0.983905072865,0.25,0.15,0.0,0.0,0.0,1.0,1.0,2000000000,0,,,0
1449618714473946405,19,1449618714470115242,/odom,doorways,20,0,0,0.821905652626,-0.0541985832094,0.0,0.0,0.0,-0.183888394426,0.982947128993,0.25,0.15,0.0,0.0,0.0,1.0,1.0,2000000000,0,,,0
1449618714474023011,20,1449618714470154607,/odom,doorways,20,0,0,0.821905652626,-0.0541985832094,0.0,0.0,0.0,-0.183888394426,0.982947128993,0.25,0.15,0.0,0.0,0.0,1.0,1.0,2000000000,0,,,0
1449618714654871622,21,1449618714654299490,/odom,doorways,20,0,0,0.853934978723,-0.0671720941075,0.0,0.0,0.0,-0.194265765611,0.98094893461,0.25,0.15,0.0,0.0,0.0,1.0,1.0,2000000000,0,,,0
1449618714752495281,22,1449618714751924571,/odom,doorways,20,0,0,0.875104315352,-0.0762611361827,0.0,0.0,0.0,-0.204621440688,0.978841185285,0.25,0.15,0.0,0.0,0.0,1.0,1.0,2000000000,0,,,0
1449618729041272713,23,1449618729041088659,/odom,doorways,20,0,0,3.86251962069,-0.101618937754,0.0,0.0,0.0,0.0897076561262,0.99596814027,0.25,0.15,0.0,0.0,0.0,1.0,1.0,2000000000,0,,,0
1449618729041295846,24,1449618729041105440,/odom,doorways,20,0,0,3.86251962069,-0.101618937754,0.0,0.0,0.0,0.0897076561262,0.99596814027,0.25,0.15,0.0,0.0,0.0,1.0,1.0,2000000000,0,,,0
1449618729169431271,25,1449618729169281226,/odom,doorways,20,0,0,3.89075670324,-0.095964855699,0.0,0.0,0.0,0.100227890607,0.994964506877,0.25,0.15,0.0,0.0,0.0,1.0,1.0,2000000000,0,,,0
1449618729325003019,26,1449618729324667852,/odom,doorways,20,0,0,3.94396068191,-0.0832109213264,0.0,0.0,0.0,0.126476937269,0.991969548091,0.25,0.15,0.0,0.0,0.0,1.0,1.0,2000000000,0,,,0
1449618729453364831,27,1449618729452917720,/odom,doorways,20,0,0,3.96062306682,-0.0786402731619,0.0,0.0,0.0,0.136952861975,0.990577565664,0.25,0.15,0.0,0.0,0.0,1.0,1.0,2000000000,0,,,0
1449618729453369813,28,1449618729452927793,/odom,doorways,20,0,0,3.96062306682,-0.0786402731619,0.0,0.0,0.0,0.136952861975,0.990577565664,0.25,0.15,0.0,0.0,0.0,1.0,1.0,2000000000,0,,,0
1449618729613656233,29,1449618729613455569,/odom,doorways,20,0,0,4.00197467492,-0.0661612597755,0.0,0.0,0.0,0.152637705278,0.988282212188,0.25,0.15,0.0,0.0,0.0,1.0,1.0,2000000000,0,,,0
1449618729714484968,30,1449618729714367367,/odom,doorways,20,0,0,4.02924096827,-0.0568946437518,0.0,0.0,0.0,0.163073201911,0.986613972544,0.25,0.15,0.0,0.0,0.0,1.0,1.0,2000000000,0,,,0
1449618729807831906,31,1449618729807497319,/odom,doorways,20,0,0,4.02924096827,-0.0568946437518,0.0,0.0,0.0,0.163073201911,0.986613972544,0.25,0.15,0.0,0.0,0.0,1.0,1.0,2000000000,0,,,0
1449618729807835592,32,1449618729807644761,/odom,doorways,20,0,0,4.02924096827,-0.0568946437518,0.0,0.0,0.0,0.163073201911,0.986613972544,0.25,0.15,0.0,0.0,0.0,1.0,1.0,2000000000,0,,,0
1449618729936219774,33,1449618729934567634,/odom,doorways,20,0,0,4.07217620082,-0.0401822211001,0.0,0.0,0.0,0.194265765611,0.98094893461,0.25,0.15,0.0,0.0,0.0,1.0,1.0,2000000000,0,,,0
1449618730017402205,34,1449618730014180267,/odom,doorways,20,0,0,4.07217620082,-0.0401822211001,0.0,0.0,0.0,0.194265765611,0.98094893461,0.25,0.15,0.0,0.0,0.0,1.0,1.0,2000000000,0,,,0
1449618730114474618,35,1449618730114102017,/odom,doorways,20,0,0,4.11945052522,-0.0189496479864,0.0,0.0,0.0,0.225263078873,0.97429797562,0.25,0.15,0.0,0.0,0.0,1.0,1.0,2000000000,0,,,0
1449618730114561314,36,1449618730114119020,/odom,doorways,20,0,0,4.11945052522,-0.0189496479864,0.0,0.0,0.0,0.225263078873,0.97429797562,0.25,0.15,0.0,0.0,0.0,1.0,1.0,2000000000,0,,,0
1449618730232601411,37,1449618730232349552,/odom,doorways,20,0,0,4.14516208316,-0.00598246632859,0.0,0.0,0.0,0.235546736669,0.971863022676,0.25,0.15,0.0,0.0,0.0,1.0,1.0,2000000000,0,,,0
1449618730311473956,38,1449618730311274585,/odom,doorways,20,0,0,4.16284075986,0.00370363345914,0.0,0.0,0.0,0.250922540614,0.968007168678,0.25,0.15,0.0,0.0,0.0,1.0,1.0,2000000000,0,,,0
1449618730401721325,39,1449618730401413221,/odom,doorways,20,0,0,4.17780854399,0.012335703631,0.0,0.0,0.0,0.261138285236,0.965301401628,0.25,0.15,0.0,0.0,0.0,1.0,1.0,2000000000,0,,,0
1449618730508594369,40,1449618730508301929,/odom,doorways,20,0,0,4.20709946917,0.030668074599,0.0,0.0,0.0,0.281481142997,0.959566759604,0.25,0.15,0.0,0.0,0.0,1.0,1.0,2000000000,0,,,0
1449618730508779122,41,1449618730508313050,/odom,doorways,20,0,0,4.20709946917,0.030668074599,0.0,0.0,0.0,0.281481142997,0.959566759604,0.25,0.15,0.0,0.0,0.0,1.0,1.0,2000000000,0,,,0
1449618730593856221,42,1449618730593382571,/odom,doorways,20,0,0,4.21899803046,0.038776073829,0.0,0.0,0.0,0.296656262579,0.954984325459,0.25,0.15,0.0,0.0,0.0,1.0,1.0,2000000000,0,,,0
1449618730704773995,43,1449618730703984808,/odom,doorways,20,0,0,4.24476555545,0.0571963716328,0.0,0.0,0.0,0.311756837497,0.950161920029,0.25,0.15,0.0,0.0,0.0,1.0,1.0,2000000000,0,,,0
1449618730822081123,44,1449618730820476036,/odom,doorways,20,0,0,4.24476555545,0.0571963716328,0.0,0.0,0.0,0.311756837497,0.950161920029,0.25,0.15,0.0,0.0,0.0,1.0,1.0,2000000000,0,,,0
1449618730822086379,45,1449618730820482904,/odom,doorways,20,0,0,4.24476555545,0.0571963716328,0.0,0.0,0.0,0.311756837497,0.950161920029,0.25,0.15,0.0,0.0,0.0,1.0,1.0,2000000000,0,,,0
1449618730902780923,46,1449618730902418608,/odom,doorways,20,0,0,4.28084399783,0.085842617921,0.0,0.0,0.0,0.341719194964,0.939802102463,0.25,0.15,0.0,0.0,0.0,1.0,1.0,2000000000,0,,,0
1449618731007976905,47,1449618731007817934,/odom,doorways,20,0,0,4.29390963977,0.0971490849977,0.0,0.0,0.0,0.351631802417,0.936138384818,0.25,0.15,0.0,0.0,0.0,1.0,1.0,2000000000,0,,,0
1449618731102528441,48,1449618731101852486,/odom,doorways,20,0,0,4.31503474319,0.116717435535,0.0,0.0,0.0,0.371338101168,0.928497719233,0.25,0.15,0.0,0.0,0.0,1.0,1.0,2000000000,0,,,0
1449618731210383990,49,1449618731209938986,/odom,doorways,20,0,0,4.32948617349,0.130771737919,0.0,0.0,0.0,0.376239098848,0.926522606577,0.25,0.15,0.0,0.0,0.0,1.0,1.0,2000000000,0,,,0
1449618731210390537,50,1449618731209948478,/odom,doorways,20,0,0,4.32948617349,0.130771737919,0.0,0.0,0.0,0.376239098848,0.926522606577,0.25,0.15,0.0,0.0,0.0,1.0,1.0,2000000000,0,,,0
1449618731307410884,51,1449618731307103645,/odom,doorways,20,0,0,4.34950538033,0.151471698694,0.0,0.0,0.0,0.395736676445,0.918364025273,0.25,0.15,0.0,0.0,0.0,1.0,1.0,2000000000,0,,,0
1449618731397360961,52,1449618731396627704,/odom,doorways,20,0,0,4.36319435325,0.166269646991,0.0,0.0,0.0,0.400583787075,0.916260132022,0.25,0.15,0.0,0.0,0.0,1.0,1.0,2000000000,0,,,0
1449618731512533255,53,1449618731512295218,/odom,doorways,20,0,0,4.38414069472,0.1900332088,0.0,0.0,0.0,0.415057471353,0.909795194247,0.25,0.15,0.0,0.0,0.0,1.0,1.0,2000000000,0,,,0
1449618731512607831,54,1449618731512312509,/odom,doorways,20,0,0,4.38414069472,0.1900332088,0.0,0.0,0.0,0.415057471353,0.909795194247,0.25,0.15,0.0,0.0,0.0,1.0,1.0,2000000000,0,,,0
1449618731594342162,55,1449618731594134236,/odom,doorways,20,0,0,4.38414069472,0.1900332088,0.0,0.0,0.0,0.415057471353,0.909795194247,0.25,0.15,0.0,0.0,0.0,1.0,1.0,2000000000,0,,,0
1449618731730586604,56,1449618731729777656,/odom,doorways,20,0,0,4.42107761853,0.234217880054,0.0,0.0,0.0,0.434192852625,0.900819941348,0.25,0.15,0.0,0.0,0.0,1.0,1.0,2000000000,0,,,0
1449618731818689581,57,1449618731817767160,/odom,doorways,20,0,0,4.43356373165,0.25004359072,0.0,0.0,0.0,0.438946723455,0.898513090594,0.25,0.15,0.0,0.0,0.0,1.0,1.0,2000000000,0,,,0
1449618731818694158,58,1449618731817775661,/odom,doorways,20,0,0,4.43356373165,0.25004359072,0.0,0.0,0.0,0.438946723455,0.898513090594,0.25,0.15,0.0,0.0,0.0,1.0,1.0,2000000000,0,,,0
1449618731891671439,59,1449618731891019423,/odom,doorways,20,0,0,4.45633358834,0.27975988598,0.0,0.0,0.0,0.44368833852,0.896181152592,0.25,0.15,0.0,0.0,0.0,1.0,1.0,2000000000,0,,,0
1449618732016446279,60,1449618732015851013,/odom,doorways,20,0,0,4.47192577436,0.300462908958,0.0,0.0,0.0,0.448417565431,0.893824192453,0.25,0.15,0.0,0.0,0.0,1.0,1.0,2000000000,0,,,0
1449618732091744808,61,1449618732091263066,/odom,doorways,20,0,0,4.49216844974,0.328470475952,0.0,0.0,0.0,0.457838326961,0.889035469689,0.25,0.15,0.0,0.0,0.0,1.0,1.0,2000000000,0,,,0
1449618732188058505,62,1449618732186799074,/odom,doorways,20,0,0,4.50370181784,0.345003735572,0.0,0.0,0.0,0.462529598545,0.886603840771,0.25,0.15,0.0,0.0,0.0,1.0,1.0,2000000000,0,,,0
1449618732188063730,63,1449618732186804658,/odom,doorways,20,0,0,4.50370181784,0.345003735572,0.0,0.0,0.0,0.462529598545,0.886603840771,0.25,0.15,0.0,0.0,0.0,1.0,1.0,2000000000,0,,,0
1449618732293621409,64,1449618732292645768,/odom,doorways,20,0,0,4.52489546064,0.37586388018,0.0,0.0,0.0,0.46720795591,0.884147457122,0.25,0.15,0.0,0.0,0.0,1.0,1.0,2000000000,0,,,0
1449618732293627795,65,1449618732292653049,/odom,doorways,20,0,0,4.52489546064,0.37586388018,0.0,0.0,0.0,0.46720795591,0.884147457122,0.25,0.15,0.0,0.0,0.0,1.0,1.0,2000000000,0,,,0
1449618732399106098,66,1449618732398134636,/odom,doorways,20,0,0,4.52489546064,0.37586388018,0.0,0.0,0.0,0.46720795591,0.884147457122,0.25,0.15,0.0,0.0,0.0,1.0,1.0,2000000000,0,,,0
1449618732399115234,67,1449618732398142424,/odom,doorways,20,0,0,4.52489546064,0.37586388018,0.0,0.0,0.0,0.46720795591,0.884147457122,0.25,0.15,0.0,0.0,0.0,1.0,1.0,2000000000,0,,,0
1449618732496475585,68,1449618732493112685,/odom,doorways,20,0,0,4.55826044641,0.426299184722,0.0,0.0,0.0,0.481164238281,0.876630467073,0.25,0.15,0.0,0.0,0.0,1.0,1.0,2000000000,0,,,0
1449618732496479095,69,1449618732493203358,/odom,doorways,20,0,0,4.55826044641,0.426299184722,0.0,0.0,0.0,0.481164238281,0.876630467073,0.25,0.15,0.0,0.0,0.0,1.0,1.0,2000000000,0,,,0
1449618732589317037,70,1449618732589113280,/odom,doorways,20,0,0,4.55826044641,0.426299184722,0.0,0.0,0.0,0.481164238281,0.876630467073,0.25,0.15,0.0,0.0,0.0,1.0,1.0,2000000000,0,,,0
1449618732589332933,71,1449618732589126741,/odom,doorways,20,0,0,4.55826044641,0.426299184722,0.0,0.0,0.0,0.481164238281,0.876630467073,0.25,0.15,0.0,0.0,0.0,1.0,1.0,2000000000,0,,,0
1449618732693401904,72,1449618732692470811,/odom,doorways,20,0,0,4.59176386401,0.48006900412,0.0,0.0,0.0,0.490401470449,0.871496642438,0.25,0.15,0.0,0.0,0.0,1.0,1.0,2000000000,0,,,0
1449618732693571772,73,1449618732692481501,/odom,doorways,20,0,0,4.59176386401,0.48006900412,0.0,0.0,0.0,0.490401470449,0.871496642438,0.25,0.15,0.0,0.0,0.0,1.0,1.0,2000000000,0,,,0
1449618732799840000,74,1449618732798295103,/odom,doorways,20,0,0,4.60209592705,0.497378148082,0.0,0.0,0.0,0.494999612279,0.868893194727,0.25,0.15,0.0,0.0,0.0,1.0,1.0,2000000000,0,,,0
1449618732799850234,75,1449618732798318609,/odom,doorways,20,0,0,4.60209592705,0.497378148082,0.0,0.0,0.0,0.494999612279,0.868893194727,0.25,0.15,0.0,0.0,0.0,1.0,1.0,2000000000,0,,,0
1449618732897809851,76,1449618732887012168,/odom,doorways,20,0,0,4.61979685079,0.527057676779,0.0,0.0,0.0,0.494999612279,0.868893194727,0.25,0.15,0.0,0.0,0.0,1.0,1.0,2000000000,0,,,0
1449618732897838265,77,1449618732887017479,/odom,doorways,20,0,0,4.61979685079,0.527057676779,0.0,0.0,0.0,0.494999612279,0.868893194727,0.25,0.15,0.0,0.0,0.0,1.0,1.0,2000000000,0,,,0
1449618732999753934,78,1449618732993643635,/odom,doorways,20,0,0,4.62989289484,0.544505804124,0.0,0.0,0.0,0.4995839333,0.866265486782,0.25,0.15,0.0,0.0,0.0,1.0,1.0,2000000000,0,,,0
1449618732999757688,79,1449618732993648136,/odom,doorways,20,0,0,4.62989289484,0.544505804124,0.0,0.0,0.0,0.4995839333,0.866265486782,0.25,0.15,0.0,0.0,0.0,1.0,1.0,2000000000,0,,,0
1449618733111486587,80,1449618733111057768,/odom,doorways,20,0,0,4.64546683399,0.572089299818,0.0,0.0,0.0,0.504154305513,0.863613591968,0.25,0.15,0.0,0.0,0.0,1.0,1.0,2000000000,0,,,0
1449618733111499864,81,1449618733111090148,/odom,doorways,20,0,0,4.64546683399,0.572089299818,0.0,0.0,0.0,0.504154305513,0.863613591968,0.25,0.15,0.0,0.0,0.0,1.0,1.0,2000000000,0,,,0
1449618733195656372,82,1449618733194961594,/odom,doorways,20,0,0,4.65519186514,0.589746905049,0.0,0.0,0.0,0.508710601311,0.860937584331,0.25,0.15,0.0,0.0,0.0,1.0,1.0,2000000000,0,,,0
1449618733195661976,83,1449618733194967241,/odom,doorways,20,0,0,4.65519186514,0.589746905049,0.0,0.0,0.0,0.508710601311,0.860937584331,0.25,0.15,0.0,0.0,0.0,1.0,1.0,2000000000,0,,,0
1449618747894938311,84,1449618747892502853,/odom,doorways,20,0,0,4.54153442801,2.90797185732,0.0,0.0,0.0,0.814069024102,0.580768132732,0.25,0.15,0.0,0.0,0.0,1.0,1.0,2000000000,0,,,0
1449618747894944209,85,1449618747892597975,/odom,doorways,20,0,0,4.54153442801,2.90797185732,0.0,0.0,0.0,0.814069024102,0.580768132732,0.25,0.15,0.0,0.0,0.0,1.0,1.0,2000000000,0,,,0
1449618750119852189,86,1449618750119722142,/odom,doorways,20,0,0,4.42038059286,3.4822863744,0.0,0.0,0.0,0.693390290582,0.720562214473,0.25,0.15,0.0,0.0,0.0,1.0,1.0,2000000000,0,,,0
1449618750119868835,87,1449618750119796722,/odom,doorways,20,0,0,4.42038059286,3.4822863744,0.0,0.0,0.0,0.693390290582,0.720562214473,0.25,0.15,0.0,0.0,0.0,1.0,1.0,2000000000,0,,,0
1449618750561797656,88,1449618750560547357,/odom,doorways,20,0,0,4.43234902817,3.57936938021,0.0,0.0,0.0,0.638237915794,0.769839179857,0.25,0.15,0.0,0.0,0.0,1.0,1.0,2000000000,0,,,0
1449618750561800647,89,1449618750560613690,/odom,doorways,20,0,0,4.43234902817,3.57936938021,0.0,0.0,0.0,0.638237915794,0.769839179857,0.25,0.15,0.0,0.0,0.0,1.0,1.0,2000000000,0,,,0
1449618750772595870,90,1449618750772048716,/odom,doorways,20,0,0,4.44273257107,3.62425527438,0.0,0.0,0.0,0.613514174138,0.789683707653,0.25,0.15,0.0,0.0,0.0,1.0,1.0,2000000000,0,,,0
1449618751072328901,91,1449618751069432004,/odom,doorways,20,0,0,4.45886033513,3.67652263467,0.0,0.0,0.0,0.583892244284,0.811831169064,0.25,0.15,0.0,0.0,0.0,1.0,1.0,2000000000,0,,,0
1449618751072348187,92,1449618751069439574,/odom,doorways,20,0,0,4.45886033513,3.67652263467,0.0,0.0,0.0,0.583892244284,0.811831169064,0.25,0.15,0.0,0.0,0.0,1.0,1.0,2000000000,0,,,0
1449618751204947916,93,1449618751204813317,/odom,doorways,20,0,0,4.46868194301,3.70359086902,0.0,0.0,0.0,0.566604161624,0.823990123746,0.25,0.15,0.0,0.0,0.0,1.0,1.0,2000000000,0,,,0
1449618751398979921,94,1449618751388143759,/odom,doorways,20,0,0,4.47617996373,3.72230174622,0.0,0.0,0.0,0.553471568073,0.832868070786,0.25,0.15,0.0,0.0,0.0,1.0,1.0,2000000000,0,,,0
1449618751398988313,95,1449618751388253336,/odom,doorways,20,0,0,4.47617996373,3.72230174622,0.0,0.0,0.0,0.553471568073,0.832868070786,0.25,0.15,0.0,0.0,0.0,1.0,1.0,2000000000,0,,,0
1449618751570900800,96,1449618751566199088,/odom,doorways,20,0,0,4.48421159435,3.74079000484,0.0,0.0,0.0,0.54019989655,0.841536732274,0.25,0.15,0.0,0.0,0.0,1.0,1.0,2000000000,0,,,0
1449618751776781211,97,1449618751775400527,/odom,doorways,20,0,0,4.48421159435,3.74079000484,0.0,0.0,0.0,0.54019989655,0.841536732274,0.25,0.15,0.0,0.0,0.0,1.0,1.0,2000000000,0,,,0
1449618751776794415,98,1449618751775495486,/odom,doorways,20,0,0,4.48421159435,3.74079000484,0.0,0.0,0.0,0.54019989655,0.841536732274,0.25,0.15,0.0,0.0,0.0,1.0,1.0,2000000000,0,,,0
1449618752178081303,99,1449618752177967638,/odom,doorways,20,0,0,4.49028967368,3.75384303613,0.0,0.0,0.0,0.535745675246,0.844379400184,0.25,0.15,0.0,0.0,0.0,1.0,1.0,2000000000,0,,,0
1449618752178093956,100,1449618752178037049,/odom,doorways,20,0,0,4.49028967368,3.75384303613,0.0,0.0,0.0,0.535745675246,0.844379400184,0.25,0.15,0.0,0.0,0.0,1.0,1.0,2000000000,0,,,0
1449618752455283548,101,1449618752452544588,/odom,doorways,20,0,0,4.49028967368,3.75384303613,0.0,0.0,0.0,0.535745675246,0.844379400184,0.25,0.15,0.0,0.0,0.0,1.0,1.0,2000000000,0,,,0
1449618753273864686,102,1449618753263059952,/odom,doorways,20,0,0,4.50313076651,3.77961792372,0.0,0.0,0.0,0.517780455193,0.855513530121,0.25,0.15,0.0,0.0,0.0,1.0,1.0,2000000000,0,,,0
1449618753273883270,103,1449618753263065860,/odom,doorways,20,0,0,4.50313076651,3.77961792372,0.0,0.0,0.0,0.517780455193,0.855513530121,0.25,0.15,0.0,0.0,0.0,1.0,1.0,2000000000,0,,,0
1449618753584112130,104,1449618753581886443,/odom,doorways,20,0,0,4.51811780653,3.80752355618,0.0,0.0,0.0,0.504154305513,0.863613591968,0.25,0.15,0.0,0.0,0.0,1.0,1.0,2000000000,0,,,0
1449618753584125318,105,1449618753581972493,/odom,doorways,20,0,0,4.51811780653,3.80752355618,0.0,0.0,0.0,0.504154305513,0.863613591968,0.25,0.15,0.0,0.0,0.0,1.0,1.0,2000000000,0,,,0
1449618753584155077,106,1449618753582237837,/odom,doorways,20,0,0,4.51811780653,3.80752355618,0.0,0.0,0.0,0.504154305513,0.863613591968,0.25,0.15,0.0,0.0,0.0,1.0,1.0,2000000000,0,,,0
1449618753823391091,107,1449618753807186125,/odom,doorways,20,0,0,4.52968208121,3.82744833527,0.0,0.0,0.0,0.494999612279,0.868893194727,0.25,0.15,0.0,0.0,0.0,1.0,1.0,2000000000,0,,,0
1449618754076663276,108,1449618754073661684,/odom,doorways,20,0,0,4.54027410747,3.84459925375,0.0,0.0,0.0,0.481164238281,0.876630467073,0.25,0.15,0.0,0.0,0.0,1.0,1.0,2000000000,0,,,0
1449618754076683685,109,1449618754073685429,/odom,doorways,20,0,0,4.54027410747,3.84459925375,0.0,0.0,0.0,0.481164238281,0.876630467073,0.25,0.15,0.0,0.0,0.0,1.0,1.0,2000000000,0,,,0
1449618754357400067,110,1449618754355729750,/odom,doorways,20,0,0,4.54027410747,3.84459925375,0.0,0.0,0.0,0.481164238281,0.876630467073,0.25,0.15,0.0,0.0,0.0,1.0,1.0,2000000000,0,,,0
1449618754747336918,111,1449618754746955053,/odom,doorways,20,0,0,4.57885881317,3.90193201775,0.0,0.0,0.0,0.462529598545,0.886603840771,0.25,0.15,0.0,0.0,0.0,1.0,1.0,2000000000,0,,,0
1449618754747353061,112,1449618754746961510,/odom,doorways,20,0,0,4.57885881317,3.90193201775,0.0,0.0,0.0,0.462529598545,0.886603840771,0.25,0.15,0.0,0.0,0.0,1.0,1.0,2000000000,0,,,0
1449618755102813113,113,1449618755098651208,/odom,doorways,20,0,0,4.61193563417,3.94908218369,0.0,0.0,0.0,0.462529598545,0.886603840771,0.25,0.15,0.0,0.0,0.0,1.0,1.0,2000000000,0,,,0
1449618755102836290,114,1449618755098660851,/odom,doorways,20,0,0,4.61193563417,3.94908218369,0.0,0.0,0.0,0.462529598545,0.886603840771,0.25,0.15,0.0,0.0,0.0,1.0,1.0,2000000000,0,,,0
1449618755461871547,115,1449618755459987725,/odom,doorways,20,0,0,4.67024385872,4.03479545335,0.0,0.0,0.0,0.471873268433,0.881666387325,0.25,0.15,0.0,0.0,0.0,1.0,1.0,2000000000,0,,,0
1449618755461875420,116,1449618755460082900,/odom,doorways,20,0,0,4.67024385872,4.03479545335,0.0,0.0,0.0,0.471873268433,0.881666387325,0.25,0.15,0.0,0.0,0.0,1.0,1.0,2000000000,0,,,0
1449618755714385428,117,1449618755714103826,/odom,doorways,20,0,0,4.70972097595,4.09840353911,0.0,0.0,0.0,0.4995839333,0.866265486782,0.25,0.15,0.0,0.0,0.0,1.0,1.0,2000000000,0,,,0
1449618755909859880,118,1449618755907516968,/odom,doorways,20,0,0,4.72991328806,4.13658000462,0.0,0.0,0.0,0.531276495468,0.847198492304,0.25,0.15,0.0,0.0,0.0,1.0,1.0,2000000000,0,,,0
1449618755909870284,119,1449618755907585430,/odom,doorways,20,0,0,4.72991328806,4.13658000462,0.0,0.0,0.0,0.531276495468,0.847198492304,0.25,0.15,0.0,0.0,0.0,1.0,1.0,2000000000,0,,,0
1449618756100053799,120,1449618756099933667,/odom,doorways,20,0,0,4.74293382259,4.16545055617,0.0,0.0,0.0,0.553471568073,0.832868070786,0.25,0.15,0.0,0.0,0.0,1.0,1.0,2000000000,0,,,0
1449618756403710914,121,1449618756403331067,/odom,doorways,20,0,0,4.75352380881,4.19222787743,0.0,0.0,0.0,0.570950215199,0.820984684245,0.25,0.15,0.0,0.0,0.0,1.0,1.0,2000000000,0,,,0
1449618756404640846,122,1449618756403345594,/odom,doorways,20,0,0,4.75352380881,4.19222787743,0.0,0.0,0.0,0.570950215199,0.820984684245,0.25,0.15,0.0,0.0,0.0,1.0,1.0,2000000000,0,,,0
1449618756404644972,123,1449618756403792049,/odom,doorways,20,0,0,4.75352380881,4.19222787743,0.0,0.0,0.0,0.570950215199,0.820984684245,0.25,0.15,0.0,0.0,0.0,1.0,1.0,2000000000,0,,,0
1449618756640861943,124,1449618756640761441,/odom,doorways,20,0,0,4.75647341368,4.20034802902,0.0,0.0,0.0,0.575280327359,0.817956322155,0.25,0.15,0.0,0.0,0.0,1.0,1.0,2000000000,0,,,0
1449618756640943409,125,1449618756640831286,/odom,doorways,20,0,0,4.75647341368,4.20034802902,0.0,0.0,0.0,0.575280327359,0.817956322155,0.25,0.15,0.0,0.0,0.0,1.0,1.0,2000000000,0,,,0
1449618756802057912,126,1449618756799848565,/odom,doorways,20,0,0,4.75647341368,4.20034802902,0.0,0.0,0.0,0.575280327359,0.817956322155,0.25,0.15,0.0,0.0,0.0,1.0,1.0,2000000000,0,,,0
1449618756802062338,127,1449618756800331806,/odom,doorways,20,0,0,4.75647341368,4.20034802902,0.0,0.0,0.0,0.575280327359,0.817956322155,0.25,0.15,0.0,0.0,0.0,1.0,1.0,2000000000,0,,,0
1449618756802065885,128,1449618756800643750,/odom,doorways,20,0,0,4.75647341368,4.20034802902,0.0,0.0,0.0,0.575280327359,0.817956322155,0.25,0.15,0.0,0.0,0.0,1.0,1.0,2000000000,0,,,0
1449618757025619421,129,1449618757025126925,/odom,doorways,20,0,0,4.75647341368,4.20034802902,0.0,0.0,0.0,0.575280327359,0.817956322155,0.25,0.15,0.0,0.0,0.0,1.0,1.0,2000000000,0,,,0
1449618757025634899,130,1449618757025201346,/odom,doorways,20,0,0,4.75647341368,4.20034802902,0.0,0.0,0.0,0.575280327359,0.817956322155,0.25,0.15,0.0,0.0,0.0,1.0,1.0,2000000000,0,,,0
1449618757205551980,131,1449618757199640618,/odom,doorways,20,0,0,4.75647341368,4.20034802902,0.0,0.0,0.0,0.575280327359,0.817956322155,0.25,0.15,0.0,0.0,0.0,1.0,1.0,2000000000,0,,,0
1449618757205558930,132,1449618757199658830,/odom,doorways,20,0,0,4.75647341368,4.20034802902,0.0,0.0,0.0,0.575280327359,0.817956322155,0.25,0.15,0.0,0.0,0.0,1.0,1.0,2000000000,0,,,0
1449618757205562457,133,1449618757199708218,/odom,doorways,20,0,0,4.75647341368,4.20034802902,0.0,0.0,0.0,0.575280327359,0.817956322155,0.25,0.15,0.0,0.0,0.0,1.0,1.0,2000000000,0,,,0
1449618757535901447,134,1449618757531624472,/odom,doorways,20,0,0,4.75647341368,4.20034802902,0.0,0.0,0.0,0.575280327359,0.817956322155,0.25,0.15,0.0,0.0,0.0,1.0,1.0,2000000000,0,,,0
1449618757535905097,135,1449618757531887886,/odom,doorways,20,0,0,4.75647341368,4.20034802902,0.0,0.0,0.0,0.575280327359,0.817956322155,0.25,0.15,0.0,0.0,0.0,1.0,1.0,2000000000,0,,,0
1449618757535908191,136,1449618757532181939,/odom,doorways,20,0,0,4.75647341368,4.20034802902,0.0,0.0,0.0,0.575280327359,0.817956322155,0.25,0.15,0.0,0.0,0.0,1.0,1.0,2000000000,0,,,0
1449618757637217560,137,1449618757636168374,/odom,doorways,20,0,0,4.75647341368,4.20034802902,0.0,0.0,0.0,0.575280327359,0.817956322155,0.25,0.15,0.0,0.0,0.0,1.0,1.0,2000000000,0,,,0
1449618757637636385,138,1449618757636264967,/odom,doorways,20,0,0,4.75647341368,4.20034802902,0.0,0.0,0.0,0.575280327359,0.817956322155,0.25,0.15,0.0,0.0,0.0,1.0,1.0,2000000000,0,,,0
1449618757805240778,139,1449618757804907510,/odom,doorways,20,0,0,4.75647341368,4.20034802902,0.0,0.0,0.0,0.575280327359,0.817956322155,0.25,0.15,0.0,0.0,0.0,1.0,1.0,2000000000,0,,,0
1449618757805246110,140,1449618757804918994,/odom,doorways,20,0,0,4.75647341368,4.20034802902,0.0,0.0,0.0,0.575280327359,0.817956322155,0.25,0.15,0.0,0.0,0.0,1.0,1.0,2000000000,0,,,0
1449618757988416588,141,1449618757986497382,/odom,doorways,20,0,0,4.75647341368,4.20034802902,0.0,0.0,0.0,0.575280327359,0.817956322155,0.25,0.15,0.0,0.0,0.0,1.0,1.0,2000000000,0,,,0
1449618757988420948,143,1449618757986655992,/odom,doorways,20,0,0,4.75647341368,4.20034802902,0.0,0.0,0.0,0.575280327359,0.817956322155,0.25,0.15,0.0,0.0,0.0,1.0,1.0,2000000000,0,,,0
1449618758146076650,144,1449618758142194487,/odom,doorways,20,0,0,4.75647341368,4.20034802902,0.0,0.0,0.0,0.575280327359,0.817956322155,0.25,0.15,0.0,0.0,0.0,1.0,1.0,2000000000,0,,,0
1449618758146081046,145,1449618758142279470,/odom,doorways,20,0,0,4.75647341368,4.20034802902,0.0,0.0,0.0,0.575280327359,0.817956322155,0.25,0.15,0.0,0.0,0.0,1.0,1.0,2000000000,0,,,0
1449618758343832032,146,1449618758342756992,/odom,doorways,20,0,0,4.75647341368,4.20034802902,0.0,0.0,0.0,0.575280327359,0.817956322155,0.25,0.15,0.0,0.0,0.0,1.0,1.0,2000000000,0,,,0
1449618758343835908,147,1449618758342764623,/odom,doorways,20,0,0,4.75647341368,4.20034802902,0.0,0.0,0.0,0.575280327359,0.817956322155,0.25,0.15,0.0,0.0,0.0,1.0,1.0,2000000000,0,,,0
1449618758343838605,148,1449618758342878654,/odom,doorways,20,0,0,4.75647341368,4.20034802902,0.0,0.0,0.0,0.575280327359,0.817956322155,0.25,0.15,0.0,0.0,0.0,1.0,1.0,2000000000,0,,,0
1449618758506940237,149,1449618758503244159,/odom,doorways,20,0,0,4.75647341368,4.20034802902,0.0,0.0,0.0,0.575280327359,0.817956322155,0.25,0.15,0.0,0.0,0.0,1.0,1.0,2000000000,0,,,0
1449618758506959032,150,1449618758503262038,/odom,doorways,20,0,0,4.75647341368,4.20034802902,0.0,0.0,0.0,0.575280327359,0.817956322155,0.25,0.15,0.0,0.0,0.0,1.0,1.0,2000000000,0,,,0
1449618758643195009,151,1449618758642802558,/odom,doorways,20,0,0,4.75647341368,4.20034802902,0.0,0.0,0.0,0.575280327359,0.817956322155,0.25,0.15,0.0,0.0,0.0,1.0,1.0,2000000000,0,,,0
1449618758643198674,152,1449618758642810969,/odom,doorways,20,0,0,4.75647341368,4.20034802902,0.0,0.0,0.0,0.575280327359,0.817956322155,0.25,0.15,0.0,0.0,0.0,1.0,1.0,2000000000,0,,,0
1449618758643204556,153,1449618758642889936,/odom,doorways,20,0,0,4.75647341368,4.20034802902,0.0,0.0,0.0,0.575280327359,0.817956322155,0.25,0.15,0.0,0.0,0.0,1.0,1.0,2000000000,0,,,0
1449618758780980691,154,1449618758780863027,/odom,doorways,20,0,0,4.75647341368,4.20034802902,0.0,0.0,0.0,0.575280327359,0.817956322155,0.25,0.15,0.0,0.0,0.0,1.0,1.0,2000000000,0,,,0
1449618758781062018,155,1449618758780961907,/odom,doorways,20,0,0,4.75647341368,4.20034802902,0.0,0.0,0.0,0.575280327359,0.817956322155,0.25,0.15,0.0,0.0,0.0,1.0,1.0,2000000000,0,,,0
1449618758981117244,156,1449618758980764144,/odom,doorways,20,0,0,4.75647341368,4.20034802902,0.0,0.0,0.0,0.575280327359,0.817956322155,0.25,0.15,0.0,0.0,0.0,1.0,1.0,2000000000,0,,,0
1449618758981122477,158,1449618758980805190,/odom,doorways,20,0,0,4.75647341368,4.20034802902,0.0,0.0,0.0,0.575280327359,0.817956322155,0.25,0.15,0.0,0.0,0.0,1.0,1.0,2000000000,0,,,0
1449618759174014031,159,1449618759172120860,/odom,doorways,20,0,0,4.75647341368,4.20034802902,0.0,0.0,0.0,0.575280327359,0.817956322155,0.25,0.15,0.0,0.0,0.0,1.0,1.0,2000000000,0,,,0
1449618759174019303,160,1449618759172191045,/odom,doorways,20,0,0,4.75647341368,4.20034802902,0.0,0.0,0.0,0.575280327359,0.817956322155,0.25,0.15,0.0,0.0,0.0,1.0,1.0,2000000000,0,,,0
1449618759339514040,161,1449618759339018132,/odom,doorways,20,0,0,4.75647341368,4.20034802902,0.0,0.0,0.0,0.575280327359,0.817956322155,0.25,0.15,0.0,0.0,0.0,1.0,1.0,2000000000,0,,,0
1449618759339532284,162,1449618759339090825,/odom,doorways,20,0,0,4.75647341368,4.20034802902,0.0,0.0,0.0,0.575280327359,0.817956322155,0.25,0.15,0.0,0.0,0.0,1.0,1.0,2000000000,0,,,0
1449618759339548073,163,1449618759339284709,/odom,doorways,20,0,0,4.75647341368,4.20034802902,0.0,0.0,0.0,0.575280327359,0.817956322155,0.25,0.15,0.0,0.0,0.0,1.0,1.0,2000000000,0,,,0
1449618759546309068,164,1449618759546055134,/odom,doorways,20,0,0,4.75647341368,4.20034802902,0.0,0.0,0.0,0.575280327359,0.817956322155,0.25,0.15,0.0,0.0,0.0,1.0,1.0,2000000000,0,,,0
1449618759546733336,165,1449618759546165722,/odom,doorways,20,0,0,4.75647341368,4.20034802902,0.0,0.0,0.0,0.575280327359,0.817956322155,0.25,0.15,0.0,0.0,0.0,1.0,1.0,2000000000,0,,,0
1449618759761175701,166,1449618759760346707,/odom,doorways,20,0,0,4.75647341368,4.20034802902,0.0,0.0,0.0,0.575280327359,0.817956322155,0.25,0.15,0.0,0.0,0.0,1.0,1.0,2000000000,0,,,0
1449618759761179508,167,1449618759760441973,/odom,doorways,20,0,0,4.75647341368,4.20034802902,0.0,0.0,0.0,0.575280327359,0.817956322155,0.25,0.15,0.0,0.0,0.0,1.0,1.0,2000000000,0,,,0
1449618759761190996,168,1449618759760685812,/odom,doorways,20,0,0,4.75647341368,4.20034802902,0.0,0.0,0.0,0.575280327359,0.817956322155,0.25,0.15,0.0,0.0,0.0,1.0,1.0,2000000000,0,,,0
1449618759937846804,169,1449618759937548003,/odom,doorways,20,0,0,4.75647341368,4.20034802902,0.0,0.0,0.0,0.575280327359,0.817956322155,0.25,0.15,0.0,0.0,0.0,1.0,1.0,2000000000,0,,,0
1449618759938715464,170,1449618759937694320,/odom,doorways,20,0,0,4.75647341368,4.20034802902,0.0,0.0,0.0,0.575280327359,0.817956322155,0.25,0.15,0.0,0.0,0.0,1.0,1.0,2000000000,0,,,0
1449618760148057137,171,1449618760147929093,/odom,doorways,20,0,0,4.75647341368,4.20034802902,0.0,0.0,0.0,0.575280327359,0.817956322155,0.25,0.15,0.0,0.0,0.0,1.0,1.0,2000000000,0,,,0
1449618760148156693,172,1449618760148039156,/odom,doorways,20,0,0,4.75647341368,4.20034802902,0.0,0.0,0.0,0.575280327359,0.817956322155,0.25,0.15,0.0,0.0,0.0,1.0,1.0,2000000000,0,,,0
1449618760148267562,173,1449618760148159504,/odom,doorways,20,0,0,4.75647341368,4.20034802902,0.0,0.0,0.0,0.575280327359,0.817956322155,0.25,0.15,0.0,0.0,0.0,1.0,1.0,2000000000,0,,,0
1449618760396038191,174,1449618760394573409,/odom,doorways,20,0,0,4.75647341368,4.20034802902,0.0,0.0,0.0,0.575280327359,0.817956322155,0.25,0.15,0.0,0.0,0.0,1.0,1.0,2000000000,0,,,0
1449618760396043336,175,1449618760394700936,/odom,doorways,20,0,0,4.75647341368,4.20034802902,0.0,0.0,0.0,0.575280327359,0.817956322155,0.25,0.15,0.0,0.0,0.0,1.0,1.0,2000000000,0,,,0
1449618760691861308,176,1449618760681184009,/odom,doorways,20,0,0,4.75647341368,4.20034802902,0.0,0.0,0.0,0.575280327359,0.817956322155,0.25,0.15,0.0,0.0,0.0,1.0,1.0,2000000000,0,,,0
1449618760691876409,177,1449618760681260528,/odom,doorways,20,0,0,4.75647341368,4.20034802902,0.0,0.0,0.0,0.575280327359,0.817956322155,0.25,0.15,0.0,0.0,0.0,1.0,1.0,2000000000,0,,,0
1449618760691890412,178,1449618760681500169,/odom,doorways,20,0,0,4.75647341368,4.20034802902,0.0,0.0,0.0,0.575280327359,0.817956322155,0.25,0.15,0.0,0.0,0.0,1.0,1.0,2000000000,0,,,0
1449618760957053085,179,1449618760956176060,/odom,doorways,20,0,0,4.75647341368,4.20034802902,0.0,0.0,0.0,0.575280327359,0.817956322155,0.25,0.15,0.0,0.0,0.0,1.0,1.0,2000000000,0,,,0
1449618760957057648,180,1449618760956266597,/odom,doorways,20,0,0,4.75647341368,4.20034802902,0.0,0.0,0.0,0.575280327359,0.817956322155,0.25,0.15,0.0,0.0,0.0,1.0,1.0,2000000000,0,,,0
1449618761280877222,181,1449618761278544193,/odom,doorways,20,0,0,4.75833456766,4.20579853512,0.0,0.0,0.0,0.583892244284,0.811831169064,0.25,0.15,0.0,0.0,0.0,1.0,1.0,2000000000,0,,,0
1449618761280880766,182,1449618761279057663,/odom,doorways,20,0,0,4.75833456766,4.20579853512,0.0,0.0,0.0,0.583892244284,0.811831169064,0.25,0.15,0.0,0.0,0.0,1.0,1.0,2000000000,0,,,0
1449618761280884799,183,1449618761279474414,/odom,doorways,20,0,0,4.75833456766,4.20579853512,0.0,0.0,0.0,0.583892244284,0.811831169064,0.25,0.15,0.0,0.0,0.0,1.0,1.0,2000000000,0,,,0
1449618761654043182,184,1449618761649559968,/odom,doorways,20,0,0,4.76285754169,4.21946814075,0.0,0.0,0.0,0.588173808597,0.808734549083,0.25,0.15,0.0,0.0,0.0,1.0,1.0,2000000000,0,,,0
1449618761654046286,185,1449618761650014662,/odom,doorways,20,0,0,4.76285754169,4.21946814075,0.0,0.0,0.0,0.588173808597,0.808734549083,0.25,0.15,0.0,0.0,0.0,1.0,1.0,2000000000,0,,,0
1449618761654050310,186,1449618761650312521,/odom,doorways,20,0,0,4.76285754169,4.21946814075,0.0,0.0,0.0,0.588173808597,0.808734549083,0.25,0.15,0.0,0.0,0.0,1.0,1.0,2000000000,0,,,0
1449618761819667531,187,1449618761819319041,/odom,doorways,20,0,0,4.76540325674,4.22772382763,0.0,0.0,0.0,0.592438950598,0.805615348547,0.25,0.15,0.0,0.0,0.0,1.0,1.0,2000000000,0,,,0
1449618761819671128,188,1449618761819459186,/odom,doorways,20,0,0,4.76540325674,4.22772382763,0.0,0.0,0.0,0.592438950598,0.805615348547,0.25,0.15,0.0,0.0,0.0,1.0,1.0,2000000000,0,,,0
1449618762145929448,189,1449618762141218584,/odom,doorways,20,0,0,4.76863237618,4.23878101339,0.0,0.0,0.0,0.600919491781,0.799309554802,0.25,0.15,0.0,0.0,0.0,1.0,1.0,2000000000,0,,,0
1449618762145931927,190,1449618762141295029,/odom,doorways,20,0,0,4.76863237618,4.23878101339,0.0,0.0,0.0,0.600919491781,0.799309554802,0.25,0.15,0.0,0.0,0.0,1.0,1.0,2000000000,0,,,0
1449618762145934739,191,1449618762141538324,/odom,doorways,20,0,0,4.76863237618,4.23878101339,0.0,0.0,0.0,0.600919491781,0.799309554802,0.25,0.15,0.0,0.0,0.0,1.0,1.0,2000000000,0,,,0
1449618762392332819,192,1449618762391950553,/odom,doorways,20,0,0,4.77014441418,4.24433849951,0.0,0.0,0.0,0.609332920704,0.792914492077,0.25,0.15,0.0,0.0,0.0,1.0,1.0,2000000000,0,,,0
1449618762392571926,193,1449618762391956121,/odom,doorways,20,0,0,4.77014441418,4.24433849951,0.0,0.0,0.0,0.609332920704,0.792914492077,0.25,0.15,0.0,0.0,0.0,1.0,1.0,2000000000,0,,,0
1449618762606501893,194,1449618762606013515,/odom,doorways,20,0,0,4.77165645218,4.24989598562,0.0,0.0,0.0,0.609332920704,0.792914492077,0.25,0.15,0.0,0.0,0.0,1.0,1.0,2000000000,0,,,0
1449618762606505876,195,1449618762606021456,/odom,doorways,20,0,0,4.77165645218,4.24989598562,0.0,0.0,0.0,0.609332920704,0.792914492077,0.25,0.15,0.0,0.0,0.0,1.0,1.0,2000000000,0,,,0
1449618762607572601,196,1449618762607243396,/odom,doorways,20,0,0,4.77165645218,4.24989598562,0.0,0.0,0.0,0.609332920704,0.792914492077,0.25,0.15,0.0,0.0,0.0,1.0,1.0,2000000000,0,,,0
1449618762871831844,197,1449618762871104167,/odom,doorways,20,0,0,4.77305069763,4.25548418662,0.0,0.0,0.0,0.617678297735,0.78643087459,0.25,0.15,0.0,0.0,0.0,1.0,1.0,2000000000,0,,,0
1449618762871835678,198,1449618762871112904,/odom,doorways,20,0,0,4.77305069763,4.25548418662,0.0,0.0,0.0,0.617678297735,0.78643087459,0.25,0.15,0.0,0.0,0.0,1.0,1.0,2000000000,0,,,0
1449618763142366816,199,1449618763131776093,/odom,doorways,20,0,0,4.77444494308,4.26107238762,0.0,0.0,0.0,0.617678297735,0.78643087459,0.25,0.15,0.0,0.0,0.0,1.0,1.0,2000000000,0,,,0
1449618763142370405,200,1449618763131852632,/odom,doorways,20,0,0,4.77444494308,4.26107238762,0.0,0.0,0.0,0.617678297735,0.78643087459,0.25,0.15,0.0,0.0,0.0,1.0,1.0,2000000000,0,,,0
1449618763142373826,201,1449618763132212310,/odom,doorways,20,0,0,4.77444494308,4.26107238762,0.0,0.0,0.0,0.617678297735,0.78643087459,0.25,0.15,0.0,0.0,0.0,1.0,1.0,2000000000,0,,,0
1449618763664686125,202,1449618763645229312,/odom,doorways,20,0,0,4.77705588546,4.27229143029,0.0,0.0,0.0,0.625954690839,0.779859426446,0.25,0.15,0.0,0.0,0.0,1.0,1.0,2000000000,0,,,0
1449618763664690605,203,1449618763645390825,/odom,doorways,20,0,0,4.77705588546,4.27229143029,0.0,0.0,0.0,0.625954690839,0.779859426446,0.25,0.15,0.0,0.0,0.0,1.0,1.0,2000000000,0,,,0
1449618763664701316,204,1449618763645661846,/odom,doorways,20,0,0,4.77705588546,4.27229143029,0.0,0.0,0.0,0.625954690839,0.779859426446,0.25,0.15,0.0,0.0,0.0,1.0,1.0,2000000000,0,,,0
1449618763895508739,205,1449618763895355702,/odom,doorways,20,0,0,4.7788060593,4.28075156755,0.0,0.0,0.0,0.630066729261,0.776540994847,0.25,0.15,0.0,0.0,0.0,1.0,1.0,2000000000,0,,,0
1449618763895572298,206,1449618763895467114,/odom,doorways,20,0,0,4.7788060593,4.28075156755,0.0,0.0,0.0,0.630066729261,0.776540994847,0.25,0.15,0.0,0.0,0.0,1.0,1.0,2000000000,0,,,0
1449618764164809743,207,1449618764164431838,/odom,doorways,20,0,0,4.78188803542,4.29775237102,0.0,0.0,0.0,0.646337822248,0.763051387216,0.25,0.15,0.0,0.0,0.0,1.0,1.0,2000000000,0,,,0
1449618764164815233,208,1449618764164437730,/odom,doorways,20,0,0,4.78188803542,4.29775237102,0.0,0.0,0.0,0.646337822248,0.763051387216,0.25,0.15,0.0,0.0,0.0,1.0,1.0,2000000000,0,,,0
1449618764165537224,209,1449618764164646411,/odom,doorways,20,0,0,4.78188803542,4.29775237102,0.0,0.0,0.0,0.646337822248,0.763051387216,0.25,0.15,0.0,0.0,0.0,1.0,1.0,2000000000,0,,,0
1449618764506228637,210,1449618764485833777,/odom,doorways,20,0,0,4.7861262735,4.33204317733,0.0,0.0,0.0,0.670200855361,0.742179771668,0.25,0.15,0.0,0.0,0.0,1.0,1.0,2000000000,0,,,0
1449618764506236248,211,1449618764485846691,/odom,doorways,20,0,0,4.7861262735,4.33204317733,0.0,0.0,0.0,0.670200855361,0.742179771668,0.25,0.15,0.0,0.0,0.0,1.0,1.0,2000000000,0,,,0
1449618764506239610,212,1449618764486069585,/odom,doorways,20,0,0,4.7861262735,4.33204317733,0.0,0.0,0.0,0.670200855361,0.742179771668,0.25,0.15,0.0,0.0,0.0,1.0,1.0,2000000000,0,,,0
1449618764699022168,213,1449618764698031721,/odom,doorways,20,0,0,4.78814171069,4.3694169837,0.0,0.0,0.0,0.697188061122,0.716888280996,0.25,0.15,0.0,0.0,0.0,1.0,1.0,2000000000,0,,,0
1449618764699026655,214,1449618764698132600,/odom,doorways,20,0,0,4.78814171069,4.3694169837,0.0,0.0,0.0,0.697188061122,0.716888280996,0.25,0.15,0.0,0.0,0.0,1.0,1.0,2000000000,0,,,0
1449618764878618404,215,1449618764874435725,/odom,doorways,20,0,0,4.78767422598,4.4039654038,0.0,0.0,0.0,0.719562223554,0.69442797066,0.25,0.15,0.0,0.0,0.0,1.0,1.0,2000000000,0,,,0
1449618764878622269,216,1449618764875855553,/odom,doorways,20,0,0,4.78767422598,4.4039654038,0.0,0.0,0.0,0.719562223554,0.69442797066,0.25,0.15,0.0,0.0,0.0,1.0,1.0,2000000000,0,,,0
1449618764878625907,217,1449618764876426371,/odom,doorways,20,0,0,4.78767422598,4.4039654038,0.0,0.0,0.0,0.719562223554,0.69442797066,0.25,0.15,0.0,0.0,0.0,1.0,1.0,2000000000,0,,,0
1449618765058754340,218,1449618765058238174,/odom,doorways,20,0,0,4.78495772,4.43841132327,0.0,0.0,0.0,0.741213176528,0.671269712516,0.25,0.15,0.0,0.0,0.0,1.0,1.0,2000000000,0,,,0
1449618765058761857,219,1449618765058242260,/odom,doorways,20,0,0,4.78495772,4.43841132327,0.0,0.0,0.0,0.741213176528,0.671269712516,0.25,0.15,0.0,0.0,0.0,1.0,1.0,2000000000,0,,,0
1449618765167909930,220,1449618765161790200,/odom,doorways,20,0,0,4.78495772,4.43841132327,0.0,0.0,0.0,0.741213176528,0.671269712516,0.25,0.15,0.0,0.0,0.0,1.0,1.0,2000000000,0,,,0
1449618765167947074,221,1449618765161798792,/odom,doorways,20,0,0,4.78495772,4.43841132327,0.0,0.0,0.0,0.741213176528,0.671269712516,0.25,0.15,0.0,0.0,0.0,1.0,1.0,2000000000,0,,,0
1449618765282199026,222,1449618765282029726,/odom,doorways,20,0,0,4.77880491296,4.48406571909,0.0,0.0,0.0,0.76211915935,0.647436782205,0.25,0.15,0.0,0.0,0.0,1.0,1.0,2000000000,0,,,0
1449618765282305049,223,1449618765282147817,/odom,doorways,20,0,0,4.77880491296,4.48406571909,0.0,0.0,0.0,0.76211915935,0.647436782205,0.25,0.15,0.0,0.0,0.0,1.0,1.0,2000000000,0,,,0
1449618765282602907,224,1449618765282419906,/odom,doorways,20,0,0,4.77880491296,4.48406571909,0.0,0.0,0.0,0.76211915935,0.647436782205,0.25,0.15,0.0,0.0,0.0,1.0,1.0,2000000000,0,,,0
1449618765374290185,225,1449618765373576777,/odom,doorways,20,0,0,4.77368773584,4.50947069026,0.0,0.0,0.0,0.778956555198,0.627077893977,0.25,0.15,0.0,0.0,0.0,1.0,1.0,2000000000,0,,,0
1449618765374304557,226,1449618765373584598,/odom,doorways,20,0,0,4.77368773584,4.50947069026,0.0,0.0,0.0,0.778956555198,0.627077893977,0.25,0.15,0.0,0.0,0.0,1.0,1.0,2000000000,0,,,0
1449618765484146342,227,1449618765483911550,/odom,doorways,20,0,0,4.76987927143,4.52632362752,0.0,0.0,0.0,0.785539923603,0.618810979562,0.25,0.15,0.0,0.0,0.0,1.0,1.0,2000000000,0,,,0
1449618765484156269,228,1449618765483920219,/odom,doorways,20,0,0,4.76987927143,4.52632362752,0.0,0.0,0.0,0.785539923603,0.618810979562,0.25,0.15,0.0,0.0,0.0,1.0,1.0,2000000000,0,,,0
1449618765693847163,229,1449618765686843793,/odom,doorways,20,0,0,4.7584400262,4.56797334529,0.0,0.0,0.0,0.801612936605,0.597843374027,0.25,0.15,0.0,0.0,0.0,1.0,1.0,2000000000,0,,,0
1449618765693880763,231,1449618765686890477,/odom,doorways,20,0,0,4.7584400262,4.56797334529,0.0,0.0,0.0,0.801612936605,0.597843374027,0.25,0.15,0.0,0.0,0.0,1.0,1.0,2000000000,0,,,0
1449618765807025850,232,1449618765803444325,/odom,doorways,20,0,0,4.75336717744,4.58449018497,0.0,0.0,0.0,0.807886093769,0.58933866282,0.25,0.15,0.0,0.0,0.0,1.0,1.0,2000000000,0,,,0
1449618765807053553,233,1449618765803449695,/odom,doorways,20,0,0,4.75336717744,4.58449018497,0.0,0.0,0.0,0.807886093769,0.58933866282,0.25,0.15,0.0,0.0,0.0,1.0,1.0,2000000000,0,,,0
1449618766013654411,234,1449618766013577895,/odom,doorways,20,0,0,4.74510626284,4.60905521204,0.0,0.0,0.0,0.817126438023,0.576458484441,0.25,0.15,0.0,0.0,0.0,1.0,1.0,2000000000,0,,,0
1449618766017031256,235,1449618766013585731,/odom,doorways,20,0,0,4.74510626284,4.60905521204,0.0,0.0,0.0,0.817126438023,0.576458484441,0.25,0.15,0.0,0.0,0.0,1.0,1.0,2000000000,0,,,0
1449618766017045898,236,1449618766013841837,/odom,doorways,20,0,0,4.74510626284,4.60905521204,0.0,0.0,0.0,0.817126438023,0.576458484441,0.25,0.15,0.0,0.0,0.0,1.0,1.0,2000000000,0,,,0
1449618766176565179,237,1449618766175801534,/odom,doorways,20,0,0,4.74510626284,4.60905521204,0.0,0.0,0.0,0.817126438023,0.576458484441,0.25,0.15,0.0,0.0,0.0,1.0,1.0,2000000000,0,,,0
1449618766176605239,238,1449618766175809979,/odom,doorways,20,0,0,4.74510626284,4.60905521204,0.0,0.0,0.0,0.817126438023,0.576458484441,0.25,0.15,0.0,0.0,0.0,1.0,1.0,2000000000,0,,,0
1449618766304370262,239,1449618766294133590,/odom,doorways,20,0,0,4.73911102453,4.62526005408,0.0,0.0,0.0,0.823172736545,0.567791023008,0.25,0.15,0.0,0.0,0.0,1.0,1.0,2000000000,0,,,0
1449618766304374049,240,1449618766294141576,/odom,doorways,20,0,0,4.73911102453,4.62526005408,0.0,0.0,0.0,0.823172736545,0.567791023008,0.25,0.15,0.0,0.0,0.0,1.0,1.0,2000000000,0,,,0
1449618766518741990,241,1449618766517078745,/odom,doorways,20,0,0,4.73805965379,4.62794106673,0.0,0.0,0.0,0.826161452329,0.563433451869,0.25,0.15,0.0,0.0,0.0,1.0,1.0,2000000000,0,,,0
1449618766518746968,242,1449618766517210030,/odom,doorways,20,0,0,4.73805965379,4.62794106673,0.0,0.0,0.0,0.826161452329,0.563433451869,0.25,0.15,0.0,0.0,0.0,1.0,1.0,2000000000,0,,,0
1449618766518750314,243,1449618766517367698,/odom,doorways,20,0,0,4.73805965379,4.62794106673,0.0,0.0,0.0,0.826161452329,0.563433451869,0.25,0.15,0.0,0.0,0.0,1.0,1.0,2000000000,0,,,0
1449618766690611832,244,1449618766689648354,/odom,doorways,20,0,0,4.73908263328,4.62524909306,0.0,0.0,0.0,0.823172736545,0.567791023008,0.25,0.15,0.0,0.0,0.0,1.0,1.0,2000000000,0,,,0
1449618766690614949,245,1449618766689654161,/odom,doorways,20,0,0,4.73908263328,4.62524909306,0.0,0.0,0.0,0.823172736545,0.567791023008,0.25,0.15,0.0,0.0,0.0,1.0,1.0,2000000000,0,,,0
1449618766877216068,246,1449618766867087325,/odom,doorways,20,0,0,4.73908263328,4.62524909306,0.0,0.0,0.0,0.823172736545,0.567791023008,0.25,0.15,0.0,0.0,0.0,1.0,1.0,2000000000,0,,,0
1449618766877283253,248,1449618766867147272,/odom,doorways,20,0,0,4.73908263328,4.62524909306,0.0,0.0,0.0,0.823172736545,0.567791023008,0.25,0.15,0.0,0.0,0.0,1.0,1.0,2000000000,0,,,0
1449618767087929888,249,1449618767087812190,/odom,doorways,20,0,0,4.73908263328,4.62524909306,0.0,0.0,0.0,0.823172736545,0.567791023008,0.25,0.15,0.0,0.0,0.0,1.0,1.0,2000000000,0,,,0
1449618767088049366,250,1449618767087916031,/odom,doorways,20,0,0,4.73908263328,4.62524909306,0.0,0.0,0.0,0.823172736545,0.567791023008,0.25,0.15,0.0,0.0,0.0,1.0,1.0,2000000000,0,,,0
1449618767182492984,251,1449618767180640839,/odom,doorways,20,0,0,4.73908263328,4.62524909306,0.0,0.0,0.0,0.823172736545,0.567791023008,0.25,0.15,0.0,0.0,0.0,1.0,1.0,2000000000,0,,,0
1449618767182496524,252,1449618767180654171,/odom,doorways,20,0,0,4.73908263328,4.62524909306,0.0,0.0,0.0,0.823172736545,0.567791023008,0.25,0.15,0.0,0.0,0.0,1.0,1.0,2000000000,0,,,0
1449618767182499685,253,1449618767180944750,/odom,doorways,20,0,0,4.73908263328,4.62524909306,0.0,0.0,0.0,0.823172736545,0.567791023008,0.25,0.15,0.0,0.0,0.0,1.0,1.0,2000000000,0,,,0
1449618767422972254,254,1449618767419715091,/odom,doorways,20,0,0,4.73908263328,4.62524909306,0.0,0.0,0.0,0.823172736545,0.567791023008,0.25,0.15,0.0,0.0,0.0,1.0,1.0,2000000000,0,,,0
1449618767422976417,255,1449618767419723511,/odom,doorways,20,0,0,4.73908263328,4.62524909306,0.0,0.0,0.0,0.823172736545,0.567791023008,0.25,0.15,0.0,0.0,0.0,1.0,1.0,2000000000,0,,,0
1449618767613941413,256,1449618767609991777,/odom,doorways,20,0,0,4.73908263328,4.62524909306,0.0,0.0,0.0,0.823172736545,0.567791023008,0.25,0.15,0.0,0.0,0.0,1.0,1.0,2000000000,0,,,0
1449618767613945733,257,1449618767610194661,/odom,doorways,20,0,0,4.73908263328,4.62524909306,0.0,0.0,0.0,0.823172736545,0.567791023008,0.25,0.15,0.0,0.0,0.0,1.0,1.0,2000000000,0,,,0
1449618767613949719,258,1449618767610701012,/odom,doorways,20,0,0,4.73908263328,4.62524909306,0.0,0.0,0.0,0.823172736545,0.567791023008,0.25,0.15,0.0,0.0,0.0,1.0,1.0,2000000000,0,,,0
1449618767805730061,259,1449618767804892509,/odom,doorways,20,0,0,4.73908263328,4.62524909306,0.0,0.0,0.0,0.823172736545,0.567791023008,0.25,0.15,0.0,0.0,0.0,1.0,1.0,2000000000,0,,,0
1449618767805733394,260,1449618767804899116,/odom,doorways,20,0,0,4.73908263328,4.62524909306,0.0,0.0,0.0,0.823172736545,0.567791023008,0.25,0.15,0.0,0.0,0.0,1.0,1.0,2000000000,0,,,0
1449618767997902662,261,1449618767997133277,/odom,doorways,20,0,0,4.73908263328,4.62524909306,0.0,0.0,0.0,0.823172736545,0.567791023008,0.25,0.15,0.0,0.0,0.0,1.0,1.0,2000000000,0,,,0
1449618767997919816,262,1449618767997163343,/odom,doorways,20,0,0,4.73908263328,4.62524909306,0.0,0.0,0.0,0.823172736545,0.567791023008,0.25,0.15,0.0,0.0,0.0,1.0,1.0,2000000000,0,,,0
1449618767997935100,263,1449618767997292155,/odom,doorways,20,0,0,4.73908263328,4.62524909306,0.0,0.0,0.0,0.823172736545,0.567791023008,0.25,0.15,0.0,0.0,0.0,1.0,1.0,2000000000,0,,,0
1449618768193204559,264,1449618768193082943,/odom,doorways,20,0,0,4.73908263328,4.62524909306,0.0,0.0,0.0,0.823172736545,0.567791023008,0.25,0.15,0.0,0.0,0.0,1.0,1.0,2000000000,0,,,0
1449618768193224999,265,1449618768193153684,/odom,doorways,20,0,0,4.73908263328,4.62524909306,0.0,0.0,0.0,0.823172736545,0.567791023008,0.25,0.15,0.0,0.0,0.0,1.0,1.0,2000000000,0,,,0
1449618768390142685,266,1449618768388782101,/odom,doorways,20,0,0,4.73908263328,4.62524909306,0.0,0.0,0.0,0.823172736545,0.567791023008,0.25,0.15,0.0,0.0,0.0,1.0,1.0,2000000000,0,,,0
1449618768390156700,267,1449618768388797494,/odom,doorways,20,0,0,4.73908263328,4.62524909306,0.0,0.0,0.0,0.823172736545,0.567791023008,0.25,0.15,0.0,0.0,0.0,1.0,1.0,2000000000,0,,,0
1449618768390170963,268,1449618768388837678,/odom,doorways,20,0,0,4.73908263328,4.62524909306,0.0,0.0,0.0,0.823172736545,0.567791023008,0.25,0.15,0.0,0.0,0.0,1.0,1.0,2000000000,0,,,0
1449618768593236999,269,1449618768590224954,/odom,doorways,20,0,0,4.73908263328,4.62524909306,0.0,0.0,0.0,0.823172736545,0.567791023008,0.25,0.15,0.0,0.0,0.0,1.0,1.0,2000000000,0,,,0
1449618768593254306,270,1449618768590241212,/odom,doorways,20,0,0,4.73908263328,4.62524909306,0.0,0.0,0.0,0.823172736545,0.567791023008,0.25,0.15,0.0,0.0,0.0,1.0,1.0,2000000000,0,,,0
1449618768816363412,271,1449618768812110580,/odom,doorways,20,0,0,4.73908263328,4.62524909306,0.0,0.0,0.0,0.823172736545,0.567791023008,0.25,0.15,0.0,0.0,0.0,1.0,1.0,2000000000,0,,,0
1449618768816380546,273,1449618768812180593,/odom,doorways,20,0,0,4.73908263328,4.62524909306,0.0,0.0,0.0,0.823172736545,0.567791023008,0.25,0.15,0.0,0.0,0.0,1.0,1.0,2000000000,0,,,0
1449618769010896851,274,1449618769010211164,/odom,doorways,20,0,0,4.73908263328,4.62524909306,0.0,0.0,0.0,0.823172736545,0.567791023008,0.25,0.15,0.0,0.0,0.0,1.0,1.0,2000000000,0,,,0
1449618769010922519,275,1449618769010219273,/odom,doorways,20,0,0,4.73908263328,4.62524909306,0.0,0.0,0.0,0.823172736545,0.567791023008,0.25,0.15,0.0,0.0,0.0,1.0,1.0,2000000000,0,,,0
1449618769211106852,276,1449618769210849872,/odom,doorways,20,0,0,4.73908263328,4.62524909306,0.0,0.0,0.0,0.823172736545,0.567791023008,0.25,0.15,0.0,0.0,0.0,1.0,1.0,2000000000,0,,,0
1449618769211133711,277,1449618769210861853,/odom,doorways,20,0,0,4.73908263328,4.62524909306,0.0,0.0,0.0,0.823172736545,0.567791023008,0.25,0.15,0.0,0.0,0.0,1.0,1.0,2000000000,0,,,0
1449618769211873181,278,1449618769210904512,/odom,doorways,20,0,0,4.73908263328,4.62524909306,0.0,0.0,0.0,0.823172736545,0.567791023008,0.25,0.15,0.0,0.0,0.0,1.0,1.0,2000000000,0,,,0
1449618769393857805,279,1449618769392781601,/odom,doorways,20,0,0,4.73908263328,4.62524909306,0.0,0.0,0.0,0.823172736545,0.567791023008,0.25,0.15,0.0,0.0,0.0,1.0,1.0,2000000000,0,,,0
1449618769393861491,280,1449618769392880204,/odom,doorways,20,0,0,4.73908263328,4.62524909306,0.0,0.0,0.0,0.823172736545,0.567791023008,0.25,0.15,0.0,0.0,0.0,1.0,1.0,2000000000,0,,,0
1449618769644030616,281,1449618769643591275,/odom,doorways,20,0,0,4.73908263328,4.62524909306,0.0,0.0,0.0,0.823172736545,0.567791023008,0.25,0.15,0.0,0.0,0.0,1.0,1.0,2000000000,0,,,0
1449618769644034391,282,1449618769643608112,/odom,doorways,20,0,0,4.73908263328,4.62524909306,0.0,0.0,0.0,0.823172736545,0.567791023008,0.25,0.15,0.0,0.0,0.0,1.0,1.0,2000000000,0,,,0
1449618769644457619,283,1449618769643844495,/odom,doorways,20,0,0,4.73908263328,4.62524909306,0.0,0.0,0.0,0.823172736545,0.567791023008,0.25,0.15,0.0,0.0,0.0,1.0,1.0,2000000000,0,,,0
1449618769843000696,284,1449618769824716082,/odom,doorways,20,0,0,4.74414051968,4.61176790397,0.0,0.0,0.0,0.82016103708,0.57213274094,0.25,0.15,0.0,0.0,0.0,1.0,1.0,2000000000,0,,,0
1449618769843003966,285,1449618769824722062,/odom,doorways,20,0,0,4.74414051968,4.61176790397,0.0,0.0,0.0,0.82016103708,0.57213274094,0.25,0.15,0.0,0.0,0.0,1.0,1.0,2000000000,0,,,0
1449618769999687411,286,1449618769999516150,/odom,doorways,20,0,0,4.75007874699,4.59554174119,0.0,0.0,0.0,0.82016103708,0.57213274094,0.25,0.15,0.0,0.0,0.0,1.0,1.0,2000000000,0,,,0
1449618769999690541,288,1449618769999568392,/odom,doorways,20,0,0,4.75007874699,4.59554174119,0.0,0.0,0.0,0.82016103708,0.57213274094,0.25,0.15,0.0,0.0,0.0,1.0,1.0,2000000000,0,,,0
1449618770227159906,289,1449618770218254161,/odom,doorways,20,0,0,4.75007874699,4.59554174119,0.0,0.0,0.0,0.82016103708,0.57213274094,0.25,0.15,0.0,0.0,0.0,1.0,1.0,2000000000,0,,,0
1449618770227163475,290,1449618770218353091,/odom,doorways,20,0,0,4.75007874699,4.59554174119,0.0,0.0,0.0,0.82016103708,0.57213274094,0.25,0.15,0.0,0.0,0.0,1.0,1.0,2000000000,0,,,0
1449618770383985852,291,1449618770381523276,/odom,doorways,20,0,0,4.76837258889,4.54397477116,0.0,0.0,0.0,0.817126438023,0.576458484441,0.25,0.15,0.0,0.0,0.0,1.0,1.0,2000000000,0,,,0
1449618770383992199,292,1449618770381531448,/odom,doorways,20,0,0,4.76837258889,4.54397477116,0.0,0.0,0.0,0.817126438023,0.576458484441,0.25,0.15,0.0,0.0,0.0,1.0,1.0,2000000000,0,,,0
1449618770384020431,293,1449618770381913786,/odom,doorways,20,0,0,4.76837258889,4.54397477116,0.0,0.0,0.0,0.817126438023,0.576458484441,0.25,0.15,0.0,0.0,0.0,1.0,1.0,2000000000,0,,,0
1449618770622031074,294,1449618770615873882,/odom,doorways,20,0,0,4.78232350797,4.50614915864,0.0,0.0,0.0,0.823172736545,0.567791023008,0.25,0.15,0.0,0.0,0.0,1.0,1.0,2000000000,0,,,0
1449618770622034188,295,1449618770616096836,/odom,doorways,20,0,0,4.78232350797,4.50614915864,0.0,0.0,0.0,0.823172736545,0.567791023008,0.25,0.15,0.0,0.0,0.0,1.0,1.0,2000000000,0,,,0
1449618770787500841,296,1449618770785926394,/odom,doorways,20,0,0,4.8006200803,4.46074293989,0.0,0.0,0.0,0.832069599708,0.554671237078,0.25,0.15,0.0,0.0,0.0,1.0,1.0,2000000000,0,,,0
1449618770787505274,297,1449618770786109629,/odom,doorways,20,0,0,4.8006200803,4.46074293989,0.0,0.0,0.0,0.832069599708,0.554671237078,0.25,0.15,0.0,0.0,0.0,1.0,1.0,2000000000,0,,,0
1449618770787507940,298,1449618770786278486,/odom,doorways,20,0,0,4.8006200803,4.46074293989,0.0,0.0,0.0,0.832069599708,0.554671237078,0.25,0.15,0.0,0.0,0.0,1.0,1.0,2000000000,0,,,0
1449618771019320730,299,1449618771012914948,/odom,doorways,20,0,0,4.82597101722,4.40268146463,0.0,0.0,0.0,0.83788481938,0.545847075153,0.25,0.15,0.0,0.0,0.0,1.0,1.0,2000000000,0,,,0
1449618771019324084,300,1449618771012939646,/odom,doorways,20,0,0,4.82597101722,4.40268146463,0.0,0.0,0.0,0.83788481938,0.545847075153,0.25,0.15,0.0,0.0,0.0,1.0,1.0,2000000000,0,,,0
1449618771216566936,301,1449618771215310351,/odom,doorways,20,0,0,4.85279146942,4.34528483703,0.0,0.0,0.0,0.843606461885,0.5369619516,0.25,0.15,0.0,0.0,0.0,1.0,1.0,2000000000,0,,,0
1449618771216570638,302,1449618771215319269,/odom,doorways,20,0,0,4.85279146942,4.34528483703,0.0,0.0,0.0,0.843606461885,0.5369619516,0.25,0.15,0.0,0.0,0.0,1.0,1.0,2000000000,0,,,0
1449618771216584940,303,1449618771215359819,/odom,doorways,20,0,0,4.85279146942,4.34528483703,0.0,0.0,0.0,0.843606461885,0.5369619516,0.25,0.15,0.0,0.0,0.0,1.0,1.0,2000000000,0,,,0
1449618771382966361,304,1449618771381175704,/odom,doorways,20,0,0,4.88464101189,4.28071990166,0.0,0.0,0.0,0.852012073501,0.523522135739,0.25,0.15,0.0,0.0,0.0,1.0,1.0,2000000000,0,,,0
1449618771382970582,305,1449618771381183149,/odom,doorways,20,0,0,4.88464101189,4.28071990166,0.0,0.0,0.0,0.852012073501,0.523522135739,0.25,0.15,0.0,0.0,0.0,1.0,1.0,2000000000,0,,,0
1449618771633170189,306,1449618771632941766,/odom,doorways,20,0,0,4.91562558524,4.21894029575,0.0,0.0,0.0,0.852012073501,0.523522135739,0.25,0.15,0.0,0.0,0.0,1.0,1.0,2000000000,0,,,0
1449618771633173986,308,1449618771632984635,/odom,doorways,20,0,0,4.91562558524,4.21894029575,0.0,0.0,0.0,0.852012073501,0.523522135739,0.25,0.15,0.0,0.0,0.0,1.0,1.0,2000000000,0,,,0
1449618771779292896,309,1449618771778350752,/odom,doorways,20,0,0,4.95148992229,4.14995117433,0.0,0.0,0.0,0.854766469886,0.519012795563,0.25,0.15,0.0,0.0,0.0,1.0,1.0,2000000000,0,,,0
1449618771779298490,310,1449618771778361438,/odom,doorways,20,0,0,4.95148992229,4.14995117433,0.0,0.0,0.0,0.854766469886,0.519012795563,0.25,0.15,0.0,0.0,0.0,1.0,1.0,2000000000,0,,,0
1449618771971997869,311,1449618771971736877,/odom,doorways,20,0,0,4.9834501179,4.08867005101,0.0,0.0,0.0,0.854766469886,0.519012795563,0.25,0.15,0.0,0.0,0.0,1.0,1.0,2000000000,0,,,0
1449618771972007524,312,1449618771971747295,/odom,doorways,20,0,0,4.9834501179,4.08867005101,0.0,0.0,0.0,0.854766469886,0.519012795563,0.25,0.15,0.0,0.0,0.0,1.0,1.0,2000000000,0,,,0
1449618771972011054,313,1449618771971802638,/odom,doorways,20,0,0,4.9834501179,4.08867005101,0.0,0.0,0.0,0.854766469886,0.519012795563,0.25,0.15,0.0,0.0,0.0,1.0,1.0,2000000000,0,,,0
1449618772060421435,314,1449618772059260433,/odom,doorways,20,0,0,4.99673320569,4.06311852456,0.0,0.0,0.0,0.854766469886,0.519012795563,0.25,0.15,0.0,0.0,0.0,1.0,1.0,2000000000,0,,,0
1449618772060424712,315,1449618772059267482,/odom,doorways,20,0,0,4.99673320569,4.06311852456,0.0,0.0,0.0,0.854766469886,0.519012795563,0.25,0.15,0.0,0.0,0.0,1.0,1.0,2000000000,0,,,0
1449618772149198947,316,1449618772148554277,/odom,doorways,20,0,0,4.99673320569,4.06311852456,0.0,0.0,0.0,0.854766469886,0.519012795563,0.25,0.15,0.0,0.0,0.0,1.0,1.0,2000000000,0,,,0
1449618772149220280,317,1449618772148563172,/odom,doorways,20,0,0,4.99673320569,4.06311852456,0.0,0.0,0.0,0.854766469886,0.519012795563,0.25,0.15,0.0,0.0,0.0,1.0,1.0,2000000000,0,,,0
1449618772284070218,318,1449618772274873119,/odom,doorways,20,0,0,5.03332460685,3.99451226459,0.0,0.0,0.0,0.857497000467,0.514488964109,0.25,0.15,0.0,0.0,0.0,1.0,1.0,2000000000,0,,,0
1449618772284128861,320,1449618772274960718,/odom,doorways,20,0,0,5.03332460685,3.99451226459,0.0,0.0,0.0,0.857497000467,0.514488964109,0.25,0.15,0.0,0.0,0.0,1.0,1.0,2000000000,0,,,0
1449618773300820161,321,1449618773275960312,/odom,doorways,20,0,0,5.20462001779,3.67463899478,0.0,0.0,0.0,0.857497000467,0.514488964109,0.25,0.15,0.0,0.0,0.0,1.0,1.0,2000000000,0,,,0
1449618773300850539,325,1449618773276091690,/odom,doorways,20,0,0,5.20462001779,3.67463899478,0.0,0.0,0.0,0.857497000467,0.514488964109,0.25,0.15,0.0,0.0,0.0,1.0,1.0,2000000000,0,,,0
1449618773401259800,326,1449618773401014689,/odom,doorways,20,0,0,5.22630381107,3.63398343331,0.0,0.0,0.0,0.857497000467,0.514488964109,0.25,0.15,0.0,0.0,0.0,1.0,1.0,2000000000,0,,,0
1449618773403583286,327,1449618773401189686,/odom,doorways,20,0,0,5.22630381107,3.63398343331,0.0,0.0,0.0,0.857497000467,0.514488964109,0.25,0.15,0.0,0.0,0.0,1.0,1.0,2000000000,0,,,0
1449618773403586411,328,1449618773401390220,/odom,doorways,20,0,0,5.22630381107,3.63398343331,0.0,0.0,0.0,0.857497000467,0.514488964109,0.25,0.15,0.0,0.0,0.0,1.0,1.0,2000000000,0,,,0
1449618773625250876,329,1449618773618645717,/odom,doorways,20,0,0,5.26730902374,3.55794228543,0.0,0.0,0.0,0.857497000467,0.514488964109,0.25,0.15,0.0,0.0,0.0,1.0,1.0,2000000000,0,,,0
1449618773625265102,330,1449618773618657971,/odom,doorways,20,0,0,5.26730902374,3.55794228543,0.0,0.0,0.0,0.857497000467,0.514488964109,0.25,0.15,0.0,0.0,0.0,1.0,1.0,2000000000,0,,,0
1449618773625289358,331,1449618773619370998,/odom,doorways,20,0,0,5.26730902374,3.55794228543,0.0,0.0,0.0,0.857497000467,0.514488964109,0.25,0.15,0.0,0.0,0.0,1.0,1.0,2000000000,0,,,0
1449618773625305744,333,1449618773619402038,/odom,doorways,20,0,0,5.26730902374,3.55794228543,0.0,0.0,0.0,0.857497000467,0.514488964109,0.25,0.15,0.0,0.0,0.0,1.0,1.0,2000000000,0,,,0
1449618773944056185,334,1449618773943851021,/odom,doorways,20,0,0,5.33129971288,3.43867567583,0.0,0.0,0.0,0.860203589004,0.509950767687,0.25,0.15,0.0,0.0,0.0,1.0,1.0,2000000000,0,,,0
1449618773945184747,335,1449618773943960041,/odom,doorways,20,0,0,5.33129971288,3.43867567583,0.0,0.0,0.0,0.860203589004,0.509950767687,0.25,0.15,0.0,0.0,0.0,1.0,1.0,2000000000,0,,,0
1449618773945198697,338,1449618773944052806,/odom,doorways,20,0,0,5.33129971288,3.43867567583,0.0,0.0,0.0,0.860203589004,0.509950767687,0.25,0.15,0.0,0.0,0.0,1.0,1.0,2000000000,0,,,0
1449618774106979600,339,1449618774106070244,/odom,doorways,20,0,0,5.33129971288,3.43867567583,0.0,0.0,0.0,0.860203589004,0.509950767687,0.25,0.15,0.0,0.0,0.0,1.0,1.0,2000000000,0,,,0
1449618774106996651,340,1449618774106213119,/odom,doorways,20,0,0,5.33129971288,3.43867567583,0.0,0.0,0.0,0.860203589004,0.509950767687,0.25,0.15,0.0,0.0,0.0,1.0,1.0,2000000000,0,,,0
