%time,field.linear.x,field.linear.y,field.linear.z,field.angular.x,field.angular.y,field.angular.z
1449618707031440831,0.0,0.0,0.0,0.0,0.0,0.0
1449618707088757375,0.0,0.0,0.0,0.0,0.0,0.0
1449618707272348447,0.0,0.0,0.0,0.0,0.0,0.0
1449618707374818517,0.0,0.0,0.0,0.0,0.0,0.0
1449618707477697297,0.0,0.0,0.0,0.0,0.0,0.0
1449618707523466479,0.0,0.0,0.0,0.0,0.0,0.0
1449618707669264213,0.0,0.0,0.0,0.0,0.0,0.0
1449618707768004358,0.0,0.0,0.0,0.0,0.0,0.0
1449618707868444056,0.0,0.0,0.0,0.0,0.0,0.0
1449618707967903336,0.0,0.0,0.0,0.0,0.0,0.0
1449618708068511256,0.0,0.0,0.0,0.0,0.0,0.0
1449618708167929373,0.0,0.0,0.0,0.0,0.0,0.0
1449618708220075469,0.0,0.0,0.0,0.0,0.0,0.0
1449618708352932470,0.0,0.0,0.0,0.0,0.0,0.0
1449618708454056312,0.0,0.0,0.0,0.0,0.0,0.0
1449618708502640607,0.0,0.0,0.0,0.0,0.0,0.0
1449618708670215481,0.0,0.0,0.0,0.0,0.0,0.0
1449618708719880877,0.0,0.0,0.0,0.0,0.0,0.0
1449618708866428866,0.0,0.0,0.0,0.0,0.0,0.0
1449618708965565667,0.0,0.0,0.0,0.0,0.0,0.0
1449618709018736411,0.0,0.0,0.0,0.0,0.0,0.0
1449618709089380723,0.0,0.0,0.0,0.0,0.0,0.0
1449618709140856574,0.0,0.0,0.0,0.0,0.0,0.0
1449618709220383520,0.0,0.0,0.0,0.0,0.0,0.0
1449618709371146936,0.0,0.0,0.0,0.0,0.0,0.0
1449618709563238946,0.12,0.0,0.0,0.0,0.0,-0.0210526315789
1449618709657728582,0.188500232132,0.0,0.0,0.0,0.0,-0.0210526315789
1449618709723949198,0.188500232132,0.0,0.0,0.0,0.0,-0.0210526315789
1449618709804734702,0.188500232132,0.0,0.0,0.0,0.0,-0.0210526315789
1449618709870734309,0.188500232132,0.0,0.0,0.0,0.0,-0.0210526315789
1449618709942663209,0.188500232132,0.0,0.0,0.0,0.0,-0.0210526315789
1449618710055292569,0.188500232132,0.0,0.0,0.0,0.0,-0.0210526315789
1449618710112961306,0.188500232132,0.0,0.0,0.0,0.0,-0.0210526315789
1449618710189682623,0.18754053621,0.0,0.0,0.0,0.0,-0.0210526315789
1449618710264071395,0.186580670214,0.0,0.0,0.0,0.0,-0.0210526315789
1449618710309982606,0.185620978077,0.0,0.0,0.0,0.0,-0.0210526315789
1449618710406050541,0.183701600981,0.0,0.0,0.0,0.0,-0.0210526315789
1449618710518174207,0.182742200578,0.0,0.0,0.0,0.0,-0.0210526315789
1449618710601157375,0.179863455083,0.0,0.0,0.0,0.0,-0.0210526315789
1449618710676102182,0.177944405869,0.0,0.0,0.0,0.0,-0.0210526315789
1449618710783340291,0.352,0.0,0.0,0.0,0.0,-0.189473684211
1449618710839973169,0.352,0.0,0.0,0.0,0.0,-0.147368421053
1449618710916355694,0.352,0.0,0.0,0.0,0.0,-0.147368421053
1449618710993749107,0.352,0.0,0.0,0.0,0.0,-0.147368421053
1449618711139456901,0.352,0.0,0.0,0.0,0.0,-0.147368421053
1449618711258736813,0.352,0.0,0.0,0.0,0.0,-0.147368421053
1449618711326837959,0.352,0.0,0.0,0.0,0.0,-0.189473684211
1449618711401411235,0.352,0.0,0.0,0.0,0.0,-0.189473684211
1449618711489674958,0.352,0.0,0.0,0.0,0.0,-0.189473684211
1449618711584147007,0.352,0.0,0.0,0.0,0.0,-0.189473684211
1449618711675946128,0.352,0.0,0.0,0.0,0.0,-0.231578947368
1449618711759850634,0.352,0.0,0.0,0.0,0.0,-0.231578947368
1449618711851250606,0.352,0.0,0.0,0.0,0.0,-0.231578947368
1449618711937177626,0.352,0.0,0.0,0.0,0.0,-0.231578947368
1449618712006616550,0.352,0.0,0.0,0.0,0.0,-0.231578947368
1449618712089845717,0.352,0.0,0.0,0.0,0.0,-0.231578947368
1449618712172819918,0.352,0.0,0.0,0.0,0.0,-0.231578947368
1449618712257026876,0.352,0.0,0.0,0.0,0.0,-0.231578947368
1449618712343903524,0.352,0.0,0.0,0.0,0.0,-0.231578947368
1449618712421349731,0.352,0.0,0.0,0.0,0.0,-0.189473684211
1449618712479611828,0.352,0.0,0.0,0.0,0.0,-0.189473684211
1449618712572728914,0.352,0.0,0.0,0.0,0.0,-0.189473684211
1449618712700882819,0.352,0.0,0.0,0.0,0.0,-0.189473684211
1449618712802402025,0.352,0.0,0.0,0.0,0.0,-0.147368421053
1449618712886908936,0.352,0.0,0.0,0.0,0.0,-0.105263157895
1449618713017058237,0.352,0.0,0.0,0.0,0.0,-0.105263157895
1449618713078137892,0.352,0.0,0.0,0.0,0.0,-0.105263157895
1449618713166058216,0.352,0.0,0.0,0.0,0.0,-0.0631578947368
1449618713218747139,0.352,0.0,0.0,0.0,0.0,-0.0631578947368
1449618713280389994,0.352,0.0,0.0,0.0,0.0,-0.0631578947368
1449618713357101455,0.352,0.0,0.0,0.0,0.0,-0.0631578947368
1449618713427833252,0.352,0.0,0.0,0.0,0.0,-0.0210526315789
1449618713538431686,0.352,0.0,0.0,0.0,0.0,0.0
1449618713631800733,0.352,0.0,0.0,0.0,0.0,0.0
1449618713739712006,0.352,0.0,0.0,0.0,0.0,0.0210526315789
1449618713801893361,0.352,0.0,0.0,0.0,0.0,0.0210526315789
1449618713949267406,0.352,0.0,0.0,0.0,0.0,0.0210526315789
1449618714078768867,0.352,0.0,0.0,0.0,0.0,0.0631578947368
1449618714193829385,0.352,0.0,0.0,0.0,0.0,0.0631578947368
1449618714304241091,0.352,0.0,0.0,0.0,0.0,0.0631578947368
1449618714400446147,0.352,0.0,0.0,0.0,0.0,0.105263157895
1449618714474573731,0.352,0.0,0.0,0.0,0.0,0.105263157895
1449618714556795788,0.352,0.0,0.0,0.0,0.0,0.105263157895
1449618714680808689,0.352,0.0,0.0,0.0,0.0,0.105263157895
1449618714802142130,0.352,0.0,0.0,0.0,0.0,0.105263157895
1449618714857673246,0.352,0.0,0.0,0.0,0.0,0.147368421053
1449618715008116875,0.352,0.0,0.0,0.0,0.0,0.147368421053
1449618715125700033,0.352,0.0,0.0,0.0,0.0,0.147368421053
1449618715206877350,0.352,0.0,0.0,0.0,0.0,0.147368421053
1449618715298643550,0.352,0.0,0.0,0.0,0.0,0.147368421053
1449618715422835727,0.352,0.0,0.0,0.0,0.0,0.189473684211
1449618715532597487,0.352,0.0,0.0,0.0,0.0,0.189473684211
1449618715709658959,0.352,0.0,0.0,0.0,0.0,0.189473684211
1449618715838347897,0.352,0.0,0.0,0.0,0.0,0.231578947368
1449618715973540476,0.352,0.0,0.0,0.0,0.0,0.231578947368
1449618716069344708,0.352,0.0,0.0,0.0,0.0,0.231578947368
1449618716214820394,0.352,0.0,0.0,0.0,0.0,0.273684210526
1449618716329451465,0.352,0.0,0.0,0.0,0.0,0.315789473684
1449618716424836346,0.352,0.0,0.0,0.0,0.0,0.315789473684
1449618716544207051,0.352,0.0,0.0,0.0,0.0,0.273684210526
1449618716616830305,0.352,0.0,0.0,0.0,0.0,0.273684210526
1449618716681708547,0.352,0.0,0.0,0.0,0.0,0.273684210526
1449618716781416378,0.352,0.0,0.0,0.0,0.0,0.273684210526
1449618716867206586,0.352,0.0,0.0,0.0,0.0,0.273684210526
1449618716938414942,0.352,0.0,0.0,0.0,0.0,0.273684210526
1449618717031212358,0.352,0.0,0.0,0.0,0.0,0.315789473684
1449618717102109298,0.352,0.0,0.0,0.0,0.0,0.315789473684
1449618717201594852,0.352,0.0,0.0,0.0,0.0,0.315789473684
1449618717295233902,0.352,0.0,0.0,0.0,0.0,0.315789473684
1449618717389369911,0.352,0.0,0.0,0.0,0.0,0.273684210526
1449618717536260218,0.352,0.0,0.0,0.0,0.0,0.273684210526
1449618717664965020,0.352,0.0,0.0,0.0,0.0,0.273684210526
1449618717752106071,0.3056,0.0,0.0,0.0,0.0,0.231578947368
1449618717866657210,0.3056,0.0,0.0,0.0,0.0,0.231578947368
1449618717980245758,0.3056,0.0,0.0,0.0,0.0,0.231578947368
1449618718094212327,0.2592,0.0,0.0,0.0,0.0,0.189473684211
1449618718177829912,0.2592,0.0,0.0,0.0,0.0,0.189473684211
1449618718276741463,0.2592,0.0,0.0,0.0,0.0,0.189473684211
1449618718377885852,0.2592,0.0,0.0,0.0,0.0,0.189473684211
1449618718428080680,0.2592,0.0,0.0,0.0,0.0,0.189473684211
1449618718500412943,0.2128,0.0,0.0,0.0,0.0,0.231578947368
1449618718601450351,0.2592,0.0,0.0,0.0,0.0,0.147368421053
1449618718711941055,0.2128,0.0,0.0,0.0,0.0,0.147368421053
1449618718859873237,0.2128,0.0,0.0,0.0,0.0,0.147368421053
1449618718976991794,0.2128,0.0,0.0,0.0,0.0,0.147368421053
1449618719117935951,0.2128,0.0,0.0,0.0,0.0,0.105263157895
1449618719194238555,0.2128,0.0,0.0,0.0,0.0,0.105263157895
1449618719274957116,0.352,0.0,0.0,0.0,0.0,0.0
1449618719363352498,0.352,0.0,0.0,0.0,0.0,0.0210526315789
1449618719409804868,0.352,0.0,0.0,0.0,0.0,0.0210526315789
1449618719472837548,0.352,0.0,0.0,0.0,0.0,0.0210526315789
1449618719551016645,0.2128,0.0,0.0,0.0,0.0,0.105263157895
1449618719601485602,0.1664,0.0,0.0,0.0,0.0,0.189473684211
1449618719646712264,-0.1,0.0,0.0,0.0,0.0,0.0
1449618719689469827,-0.1,0.0,0.0,0.0,0.0,0.0
1449618719736381094,-0.1,0.0,0.0,0.0,0.0,0.0
1449618719810720306,-0.1,0.0,0.0,0.0,0.0,0.0
1449618719871352179,-0.1,0.0,0.0,0.0,0.0,0.0
1449618719948038578,-0.1,0.0,0.0,0.0,0.0,0.0
1449618720085794166,-0.1,0.0,0.0,0.0,0.0,0.0
1449618720156535129,-0.1,0.0,0.0,0.0,0.0,0.0
1449618720247436514,-0.1,0.0,0.0,0.0,0.0,0.0
1449618720320248936,-0.1,0.0,0.0,0.0,0.0,0.0
1449618720392211583,-0.1,0.0,0.0,0.0,0.0,0.0
1449618720492331055,-0.1,0.0,0.0,0.0,0.0,0.0
1449618720562739485,0.352,0.0,0.0,0.0,0.0,0.105263157895
1449618720642313056,0.352,0.0,0.0,0.0,0.0,0.147368421053
1449618720717948081,0.352,0.0,0.0,0.0,0.0,0.147368421053
1449618720815811762,0.352,0.0,0.0,0.0,0.0,0.0631578947368
1449618720897997938,0.352,0.0,0.0,0.0,0.0,0.0631578947368
1449618720957416327,0.352,0.0,0.0,0.0,0.0,0.0631578947368
1449618721046873775,0.352,0.0,0.0,0.0,0.0,0.189473684211
1449618721150986080,0.352,0.0,0.0,0.0,0.0,0.189473684211
1449618721213406139,0.352,0.0,0.0,0.0,0.0,0.189473684211
1449618721325913187,0.352,0.0,0.0,0.0,0.0,0.189473684211
1449618721366495797,0.352,0.0,0.0,0.0,0.0,0.189473684211
1449618721431307458,0.352,0.0,0.0,0.0,0.0,0.189473684211
1449618721555048943,0.352,0.0,0.0,0.0,0.0,0.0631578947368
1449618721600270897,0.352,0.0,0.0,0.0,0.0,0.0631578947368
1449618721696597688,0.352,0.0,0.0,0.0,0.0,0.105263157895
1449618721773700342,0.352,0.0,0.0,0.0,0.0,0.105263157895
1449618721815921156,0.352,0.0,0.0,0.0,0.0,0.231578947368
1449618721930510519,0.352,0.0,0.0,0.0,0.0,0.189473684211
1449618722001678039,0.352,0.0,0.0,0.0,0.0,0.105263157895
1449618722055060539,0.352,0.0,0.0,0.0,0.0,0.105263157895
1449618722119483200,0.352,0.0,0.0,0.0,0.0,0.105263157895
1449618722221501342,0.352,0.0,0.0,0.0,0.0,0.105263157895
1449618722286487788,0.352,0.0,0.0,0.0,0.0,0.147368421053
1449618722363127967,0.352,0.0,0.0,0.0,0.0,0.105263157895
1449618722463335535,0.352,0.0,0.0,0.0,0.0,0.147368421053
1449618722521143307,0.352,0.0,0.0,0.0,0.0,0.147368421053
1449618722601515963,0.352,0.0,0.0,0.0,0.0,0.105263157895
1449618722639649030,0.352,0.0,0.0,0.0,0.0,0.147368421053
1449618722711072194,0.352,0.0,0.0,0.0,0.0,0.147368421053
1449618722764095441,0.347618592502,0.0,0.0,0.0,0.0,0.147368421053
1449618722814418564,0.344796729576,0.0,0.0,0.0,0.0,0.147368421053
1449618722878991362,0.341969883436,0.0,0.0,0.0,0.0,0.147368421053
1449618722934922607,0.335371583455,0.0,0.0,0.0,0.0,0.147368421053
1449618723048018557,0.331598867229,0.0,0.0,0.0,0.0,0.147368421053
1449618723099545083,0.322149606484,0.0,0.0,0.0,0.0,0.105263157895
1449618723164181194,0.316476706534,0.0,0.0,0.0,0.0,0.147368421053
1449618723207991189,0.312696509854,0.0,0.0,0.0,0.0,0.147368421053
1449618723272154347,0.307964613372,0.0,0.0,0.0,0.0,0.105263157895
1449618723350149995,0.302289101579,0.0,0.0,0.0,0.0,0.105263157895
1449618723418014524,0.294726805031,0.0,0.0,0.0,0.0,0.147368421053
1449618723492399301,0.289059089493,0.0,0.0,0.0,0.0,0.147368421053
1449618723597652812,0.281508071251,0.0,0.0,0.0,0.0,0.147368421053
1449618723666086813,0.273964121468,0.0,0.0,0.0,0.0,0.147368421053
1449618723748593216,0.268311220273,0.0,0.0,0.0,0.0,0.105263157895
1449618723838657338,0.261716155121,0.0,0.0,0.0,0.0,0.147368421053
1449618723946558745,0.13212819209,0.0,0.0,0.0,0.0,0.0
1449618724031680223,0.122992371378,0.0,0.0,0.0,0.0,0.0
1449618724094013269,0.121112231304,0.0,0.0,0.0,0.0,0.0
1449618724134721199,0.12,0.0,0.0,0.0,0.0,0.0
1449618724198939412,0.12,0.0,0.0,0.0,0.0,-0.0210526315789
1449618724264757114,0.12,0.0,0.0,0.0,0.0,-0.0210526315789
1449618724368763502,0.12,0.0,0.0,0.0,0.0,0.0
1449618724421056306,0.12,0.0,0.0,0.0,0.0,0.0
1449618724477865060,0.12,0.0,0.0,0.0,0.0,-0.105263157895
1449618724576563187,0.12,0.0,0.0,0.0,0.0,-0.105263157895
1449618724689826054,0.12,0.0,0.0,0.0,0.0,-0.147368421053
1449618724743240978,0.12,0.0,0.0,0.0,0.0,-0.147368421053
1449618724814667751,0.12,0.0,0.0,0.0,0.0,-0.147368421053
1449618724876100645,0.0,0.0,0.0,0.0,0.0,-0.315789473684
1449618724961327489,0.0,0.0,0.0,0.0,0.0,-0.357894736842
1449618725034385878,0.0,0.0,0.0,0.0,0.0,-0.31
1449618725038147633,0.0,0.0,0.0,0.0,0.0,0.0
1449618725054316255,0.0,0.0,0.0,0.0,0.0,0.0
1449618732853530130,0.149067969808,0.0,0.0,0.0,0.0,-0.0210526315789
1449618732894623115,0.141389977097,0.0,0.0,0.0,0.0,-0.0210526315789
1449618732950232902,0.137551320878,0.0,0.0,0.0,0.0,-0.0210526315789
1449618733024675881,0.130203628291,0.0,0.0,0.0,0.0,0.0
1449618733129662774,0.122532617632,0.0,0.0,0.0,0.0,-0.0631578947368
1449618733200406786,0.12,0.0,0.0,0.0,0.0,-0.0631578947368
1449618733272408628,0.12,0.0,0.0,0.0,0.0,-0.0631578947368
1449618733329675152,0.12,0.0,0.0,0.0,0.0,-0.0631578947368
1449618733389142425,0.12,0.0,0.0,0.0,0.0,0.0
1449618733458381057,0.12,0.0,0.0,0.0,0.0,0.0
1449618733532526153,0.12,0.0,0.0,0.0,0.0,0.0
1449618733595028077,0.12,0.0,0.0,0.0,0.0,-0.0631578947368
1449618733660797940,0.12,0.0,0.0,0.0,0.0,0.0210526315789
1449618733747122394,0.12,0.0,0.0,0.0,0.0,0.0210526315789
1449618733819010005,0.12,0.0,0.0,0.0,0.0,0.0
1449618733867687286,0.12,0.0,0.0,0.0,0.0,0.0
1449618733938286264,0.0,0.0,0.0,0.0,0.0,-0.31
1449618733994871045,0.0,0.0,0.0,0.0,0.0,-0.315789473684
1449618733995181446,0.0,0.0,0.0,0.0,0.0,0.0
1449618734002340607,0.0,0.0,0.0,0.0,0.0,0.0
1449618743758642769,0.213795191284,0.0,0.0,0.0,0.0,0.315789473684
1449618743869555567,0.213795191284,0.0,0.0,0.0,0.0,0.315789473684
1449618744013522806,0.213795191284,0.0,0.0,0.0,0.0,0.315789473684
1449618744102357155,0.213795191284,0.0,0.0,0.0,0.0,0.315789473684
1449618744225817008,0.213795191284,0.0,0.0,0.0,0.0,0.315789473684
1449618744314515751,0.213795191284,0.0,0.0,0.0,0.0,0.315789473684
1449618744387002977,0.212909245107,0.0,0.0,0.0,0.0,0.315789473684
1449618744457399136,0.352,0.0,0.0,0.0,0.0,0.0
1449618744564534654,0.352,0.0,0.0,0.0,0.0,0.0
1449618744627994678,0.352,0.0,0.0,0.0,0.0,0.0
1449618744739839069,0.352,0.0,0.0,0.0,0.0,0.0
1449618744775313724,0.352,0.0,0.0,0.0,0.0,-0.0210526315789
1449618744851492975,0.352,0.0,0.0,0.0,0.0,-0.0210526315789
1449618744978547330,0.352,0.0,0.0,0.0,0.0,-0.0210526315789
1449618745062901204,0.352,0.0,0.0,0.0,0.0,-0.0631578947368
1449618745125542974,0.352,0.0,0.0,0.0,0.0,-0.0631578947368
1449618745218799202,0.352,0.0,0.0,0.0,0.0,-0.0631578947368
1449618745362580552,0.352,0.0,0.0,0.0,0.0,-0.0631578947368
1449618745396186534,0.352,0.0,0.0,0.0,0.0,-0.0631578947368
1449618745477949631,0.352,0.0,0.0,0.0,0.0,-0.105263157895
1449618745579351725,0.352,0.0,0.0,0.0,0.0,-0.105263157895
1449618745657869474,0.352,0.0,0.0,0.0,0.0,-0.147368421053
1449618745760219289,0.352,0.0,0.0,0.0,0.0,-0.105263157895
1449618745859150668,0.352,0.0,0.0,0.0,0.0,-0.147368421053
1449618745922670785,0.352,0.0,0.0,0.0,0.0,-0.147368421053
1449618745997844413,0.352,0.0,0.0,0.0,0.0,-0.147368421053
1449618746088242182,0.352,0.0,0.0,0.0,0.0,-0.147368421053
1449618746146449430,0.352,0.0,0.0,0.0,0.0,-0.147368421053
1449618746259870311,0.352,0.0,0.0,0.0,0.0,-0.189473684211
1449618746342214226,0.352,0.0,0.0,0.0,0.0,-0.189473684211
1449618746426645230,0.352,0.0,0.0,0.0,0.0,-0.189473684211
1449618746483564808,0.352,0.0,0.0,0.0,0.0,-0.231578947368
1449618746550585911,0.352,0.0,0.0,0.0,0.0,-0.231578947368
1449618746615012856,0.352,0.0,0.0,0.0,0.0,-0.231578947368
1449618746688460351,0.352,0.0,0.0,0.0,0.0,-0.273684210526
1449618746754891491,0.352,0.0,0.0,0.0,0.0,-0.231578947368
1449618746834294357,0.352,0.0,0.0,0.0,0.0,-0.231578947368
1449618747005704351,0.352,0.0,0.0,0.0,0.0,-0.231578947368
1449618747067719862,0.352,0.0,0.0,0.0,0.0,-0.273684210526
1449618747136091908,0.352,0.0,0.0,0.0,0.0,-0.273684210526
1449618747201901693,0.352,0.0,0.0,0.0,0.0,-0.273684210526
1449618747271389940,0.352,0.0,0.0,0.0,0.0,-0.273684210526
1449618747326377914,0.352,0.0,0.0,0.0,0.0,-0.273684210526
1449618747412278236,0.352,0.0,0.0,0.0,0.0,-0.315789473684
1449618747643165956,0.352,0.0,0.0,0.0,0.0,-0.315789473684
1449618747791933890,0.215962866216,0.0,0.0,0.0,0.0,0.0
1449618747841192264,0.20828359086,0.0,0.0,0.0,0.0,0.0
1449618748001780766,0.195804679977,0.0,0.0,0.0,0.0,0.0
1449618748119760095,0.184285653135,0.0,0.0,0.0,0.0,0.0
1449618748255084470,0.352,0.0,0.0,0.0,0.0,-0.315789473684
1449618748388101570,0.352,0.0,0.0,0.0,0.0,-0.357894736842
1449618748452168005,0.352,0.0,0.0,0.0,0.0,-0.357894736842
1449618748572579953,0.352,0.0,0.0,0.0,0.0,-0.357894736842
1449618748632672798,0.352,0.0,0.0,0.0,0.0,-0.4
1449618748711020636,0.352,0.0,0.0,0.0,0.0,-0.4
1449618748764391279,0.3056,0.0,0.0,0.0,0.0,-0.357894736842
1449618748827750360,0.3056,0.0,0.0,0.0,0.0,-0.357894736842
1449618748930818936,0.3056,0.0,0.0,0.0,0.0,-0.4
1449618749043511089,0.3056,0.0,0.0,0.0,0.0,-0.4
1449618749176852587,0.3056,0.0,0.0,0.0,0.0,-0.4
1449618749239255751,0.3056,0.0,0.0,0.0,0.0,-0.4
1449618749305142441,0.3056,0.0,0.0,0.0,0.0,-0.4
1449618749466308209,0.3056,0.0,0.0,0.0,0.0,-0.4
1449618749545401080,0.2592,0.0,0.0,0.0,0.0,-0.357894736842
1449618749633898440,0.2592,0.0,0.0,0.0,0.0,-0.357894736842
1449618749680895092,0.2592,0.0,0.0,0.0,0.0,-0.357894736842
1449618749780651264,0.2592,0.0,0.0,0.0,0.0,-0.357894736842
1449618749824891912,0.2592,0.0,0.0,0.0,0.0,-0.4
1449618749858963453,0.2128,0.0,0.0,0.0,0.0,-0.315789473684
1449618749947216274,0.2592,0.0,0.0,0.0,0.0,-0.31663512895
1449618750118571999,0.2592,0.0,0.0,0.0,0.0,-0.2797988475
1449618750164217932,0.2592,0.0,0.0,0.0,0.0,-0.283385422104
1449618750261628570,0.2128,0.0,0.0,0.0,0.0,-0.239021717122
1449618750327092980,0.2592,0.0,0.0,0.0,0.0,-0.279266287841
1449618750415410586,0.2592,0.0,0.0,0.0,0.0,-0.239021717122
1449618750469724650,0.2592,0.0,0.0,0.0,0.0,-0.239231067457
1449618750524285607,0.2128,0.0,0.0,0.0,0.0,-0.205222259383
1449618750591413520,0.2128,0.0,0.0,0.0,0.0,-0.205222259383
1449618750637891801,0.2128,0.0,0.0,0.0,0.0,-0.157918330996
1449618750686725436,0.2128,0.0,0.0,0.0,0.0,-0.191316134992
1449618750742321166,0.2128,0.0,0.0,0.0,0.0,-0.149579361991
1449618750833386470,0.2128,0.0,0.0,0.0,0.0,-0.189473684211
1449618750896202185,0.2128,0.0,0.0,0.0,0.0,-0.105263157895
1449618750981537143,0.2128,0.0,0.0,0.0,0.0,-0.105263157895
1449618751021466429,0.2128,0.0,0.0,0.0,0.0,-0.0631578947368
1449618751092628388,0.2128,0.0,0.0,0.0,0.0,-0.0631578947368
1449618751168946424,0.2128,0.0,0.0,0.0,0.0,-0.0631578947368
1449618751236092795,0.2128,0.0,0.0,0.0,0.0,-0.0210526315789
1449618751286711549,0.2128,0.0,0.0,0.0,0.0,0.0
1449618751340731685,0.2128,0.0,0.0,0.0,0.0,0.0210526315789
1449618751413398726,0.2128,0.0,0.0,0.0,0.0,0.0210526315789
1449618751490149415,0.2128,0.0,0.0,0.0,0.0,0.0210526315789
1449618751527468290,0.352,0.0,0.0,0.0,0.0,0.105263157895
1449618751605054889,0.2128,0.0,0.0,0.0,0.0,0.0631578947368
1449618751680231385,0.2128,0.0,0.0,0.0,0.0,0.0
1449618751737752998,0.2128,0.0,0.0,0.0,0.0,0.0
1449618751782137500,0.2128,0.0,0.0,0.0,0.0,0.0
1449618751868032746,0.2128,0.0,0.0,0.0,0.0,0.0
1449618751930021911,0.2128,0.0,0.0,0.0,0.0,0.0
1449618751985967284,0.2128,0.0,0.0,0.0,0.0,0.0
1449618752062238900,0.2128,0.0,0.0,0.0,0.0,0.0
1449618752104953199,0.2128,0.0,0.0,0.0,0.0,0.0
1449618752138590756,0.2128,0.0,0.0,0.0,0.0,0.0
1449618752208003366,0.2128,0.0,0.0,0.0,0.0,0.0
1449618752284431651,0.2128,0.0,0.0,0.0,0.0,0.0
1449618752353803767,0.2128,0.0,0.0,0.0,0.0,0.0
1449618752415020182,0.2128,0.0,0.0,0.0,0.0,0.0
1449618752456202374,0.1664,0.0,0.0,0.0,0.0,-0.0210526315789
1449618753304220804,0.1664,0.0,0.0,0.0,0.0,-0.0631578947368
1449618753409685555,0.2128,0.0,0.0,0.0,0.0,0.0
1449618753480255397,0.2128,0.0,0.0,0.0,0.0,0.0
1449618753544681074,0.2128,0.0,0.0,0.0,0.0,0.0210526315789
1449618753626089204,0.2128,0.0,0.0,0.0,0.0,0.0210526315789
1449618753684479389,0.1664,0.0,0.0,0.0,0.0,0.0
1449618753757181317,0.1664,0.0,0.0,0.0,0.0,0.0
1449618753858144030,0.1664,0.0,0.0,0.0,0.0,0.0210526315789
1449618753916707653,0.1664,0.0,0.0,0.0,0.0,0.0631578947368
1449618753992559969,0.3056,0.0,0.0,0.0,0.0,0.147368421053
1449618754052378964,0.3056,0.0,0.0,0.0,0.0,0.147368421053
1449618754154725824,0.352,0.0,0.0,0.0,0.0,0.231578947368
1449618754211845449,0.3056,0.0,0.0,0.0,0.0,0.189473684211
1449618754257717581,0.352,0.0,0.0,0.0,0.0,0.231578947368
1449618754310366608,0.352,0.0,0.0,0.0,0.0,0.273684210526
1449618754444859479,0.352,0.0,0.0,0.0,0.0,0.273684210526
1449618754523992188,0.352,0.0,0.0,0.0,0.0,0.315789473684
1449618754622535664,0.352,0.0,0.0,0.0,0.0,0.357894736842
1449618754720778368,0.352,0.0,0.0,0.0,0.0,0.357894736842
1449618754790160377,0.352,0.0,0.0,0.0,0.0,0.357894736842
1449618754869260278,0.352,0.0,0.0,0.0,0.0,0.357894736842
1449618754969723956,0.352,0.0,0.0,0.0,0.0,0.357894736842
1449618755100230977,0.3056,0.0,0.0,0.0,0.0,0.357894736842
1449618755183511955,0.3056,0.0,0.0,0.0,0.0,0.357894736842
1449618755246406051,0.3056,0.0,0.0,0.0,0.0,0.357894736842
1449618755329816215,0.3056,0.0,0.0,0.0,0.0,0.357894736842
1449618755384238348,-0.1,0.0,0.0,0.0,0.0,0.0
1449618758249393382,0.0,0.0,0.0,0.0,0.0,0.31
1449618758294155338,0.0,0.0,0.0,0.0,0.0,0.0
1449618758393783078,0.0,0.0,0.0,0.0,0.0,0.0
1449618758444463139,0.0,0.0,0.0,0.0,0.0,0.0
1449618758564031062,0.0,0.0,0.0,0.0,0.0,0.0
1449618758618226216,0.0,0.0,0.0,0.0,0.0,0.0
1449618758701230977,0.0,0.0,0.0,0.0,0.0,0.0
1449618758750992130,0.0,0.0,0.0,0.0,0.0,0.0
1449618758833607747,0.0,0.0,0.0,0.0,0.0,0.0
1449618758883976061,0.0,0.0,0.0,0.0,0.0,0.0
1449618759118447136,0.0,0.0,0.0,0.0,0.0,0.0
1449618759168768421,0.0,0.0,0.0,0.0,0.0,0.0
1449618759241324790,0.0,0.0,0.0,0.0,0.0,0.0
1449618759292012253,0.0,0.0,0.0,0.0,0.0,0.0
1449618759391427692,0.0,0.0,0.0,0.0,0.0,0.0
1449618759442173587,0.0,0.0,0.0,0.0,0.0,0.0
1449618759562741188,0.0,0.0,0.0,0.0,0.0,0.0
1449618759618086731,0.0,0.0,0.0,0.0,0.0,0.0
1449618759819786626,0.0,0.0,0.0,0.0,0.0,0.0
1449618759868507582,0.0,0.0,0.0,0.0,0.0,0.0
1449618760052957438,0.12,0.0,0.0,0.0,0.0,0.0631578947368
1449618760117781901,0.12,0.0,0.0,0.0,0.0,0.105263157895
1449618760220511184,0.12,0.0,0.0,0.0,0.0,0.105263157895
1449618760272238258,0.139784039365,0.0,0.0,0.0,0.0,0.105263157895
1449618760326003099,0.139784039365,0.0,0.0,0.0,0.0,0.105263157895
1449618760422551685,0.139784039365,0.0,0.0,0.0,0.0,0.105263157895
1449618760574014593,0.139784039365,0.0,0.0,0.0,0.0,0.105263157895
1449618760645904123,0.139784039365,0.0,0.0,0.0,0.0,0.105263157895
1449618760721008474,0.139784039365,0.0,0.0,0.0,0.0,0.105263157895
1449618760826154394,0.139784039365,0.0,0.0,0.0,0.0,0.105263157895
1449618760944791500,0.139784039365,0.0,0.0,0.0,0.0,0.105263157895
1449618761010990535,0.139784039365,0.0,0.0,0.0,0.0,0.105263157895
1449618761079026884,0.139016226798,0.0,0.0,0.0,0.0,0.105263157895
1449618761145212388,0.139016226798,0.0,0.0,0.0,0.0,0.0631578947368
1449618761247711439,0.139016226798,0.0,0.0,0.0,0.0,0.0631578947368
1449618761383341290,0.137480635198,0.0,0.0,0.0,0.0,0.0631578947368
1449618761492450727,0.136713065487,0.0,0.0,0.0,0.0,0.0631578947368
1449618761566970895,0.138013644906,0.0,0.0,0.0,0.0,0.0631578947368
1449618761661621273,0.138013644906,0.0,0.0,0.0,0.0,0.0631578947368
1449618761737113350,0.1370548804,0.0,0.0,0.0,0.0,0.105263157895
1449618761805035679,0.12965798965,0.0,0.0,0.0,0.0,0.0631578947368
1449618761882218829,0.135138071391,0.0,0.0,0.0,0.0,0.105263157895
1449618761958901630,0.128507931934,0.0,0.0,0.0,0.0,0.0631578947368
1449618762034657398,0.133222407018,0.0,0.0,0.0,0.0,0.0631578947368
1449618762097932649,0.131307762513,0.0,0.0,0.0,0.0,0.0631578947368
1449618762158900408,0.131307762513,0.0,0.0,0.0,0.0,0.0631578947368
1449618762251011233,0.131307762513,0.0,0.0,0.0,0.0,0.0631578947368
1449618762354483488,0.130351295468,0.0,0.0,0.0,0.0,0.0631578947368
1449618762406171279,0.121687874826,0.0,0.0,0.0,0.0,0.0631578947368
1449618762504298125,0.121687874826,0.0,0.0,0.0,0.0,0.0631578947368
1449618762554904655,0.127483935954,0.0,0.0,0.0,0.0,0.0631578947368
1449618762696990011,0.127483935954,0.0,0.0,0.0,0.0,0.0631578947368
1449618762766199235,0.126529645228,0.0,0.0,0.0,0.0,0.0631578947368
1449618762968124671,0.352,0.0,0.0,0.0,0.0,0.273684210526
1449618763058164438,0.2592,0.0,0.0,0.0,0.0,0.189473684211
1449618763138549861,0.2592,0.0,0.0,0.0,0.0,0.189473684211
1449618763191902251,0.2592,0.0,0.0,0.0,0.0,0.189473684211
1449618763254637085,0.2592,0.0,0.0,0.0,0.0,0.189473684211
1449618763357486827,0.2592,0.0,0.0,0.0,0.0,0.189473684211
1449618763449696860,0.2592,0.0,0.0,0.0,0.0,0.189473684211
1449618763542641926,0.2592,0.0,0.0,0.0,0.0,0.189473684211
1449618763636814762,0.2592,0.0,0.0,0.0,0.0,0.189473684211
1449618763735926616,0.2592,0.0,0.0,0.0,0.0,0.189473684211
1449618763779194128,0.2592,0.0,0.0,0.0,0.0,0.189473684211
1449618763868192085,0.2592,0.0,0.0,0.0,0.0,0.189473684211
1449618763936694515,0.352,0.0,0.0,0.0,0.0,0.147368421053
1449618764060768196,0.352,0.0,0.0,0.0,0.0,0.189473684211
1449618764122472079,0.352,0.0,0.0,0.0,0.0,0.231578947368
1449618764276190197,0.352,0.0,0.0,0.0,0.0,0.231578947368
1449618764403588703,0.352,0.0,0.0,0.0,0.0,0.315789473684
1449618764502490768,0.352,0.0,0.0,0.0,0.0,0.315789473684
1449618764589799070,0.352,0.0,0.0,0.0,0.0,0.315789473684
1449618764643431037,0.352,0.0,0.0,0.0,0.0,0.273684210526
1449618764713388711,0.352,0.0,0.0,0.0,0.0,0.315789473684
1449618764761529738,0.352,0.0,0.0,0.0,0.0,0.273684210526
1449618764834414136,0.352,0.0,0.0,0.0,0.0,0.273684210526
1449618764936855979,0.3491148056,0.0,0.0,0.0,0.0,0.273684210526
1449618765034677046,0.344569670765,0.0,0.0,0.0,0.0,0.233411502085
1449618765102518413,0.33816141469,0.0,0.0,0.0,0.0,0.233416283005
1449618765168346303,0.332638635558,0.0,0.0,0.0,0.0,0.191772463447
1449618765215506313,0.327086855564,0.0,0.0,0.0,0.0,0.199115685099
1449618765341766990,0.319623637358,0.0,0.0,0.0,0.0,0.165500079456
1449618765408314610,0.314923610292,0.0,0.0,0.0,0.0,0.166654361047
1449618765519063377,0.309274372572,0.0,0.0,0.0,0.0,0.11785962795
1449618765582072110,0.300752481136,0.0,0.0,0.0,0.0,0.117676166421
1449618765610855248,0.295051021967,0.0,0.0,0.0,0.0,0.11779326602
1449618765707151125,0.293149493083,0.0,0.0,0.0,0.0,0.11779326602
1449618765765131024,0.289340548209,0.0,0.0,0.0,0.0,0.105263157895
1449618765841509419,0.287434492492,0.0,0.0,0.0,0.0,0.105263157895
1449618765893816439,0.283617130251,0.0,0.0,0.0,0.0,0.0631578947368
1449618765991670337,0.281707148681,0.0,0.0,0.0,0.0,0.0631578947368
1449618766034253198,0.278838446555,0.0,0.0,0.0,0.0,0.0631578947368
1449618766141977602,0.277881634311,0.0,0.0,0.0,0.0,0.0631578947368
1449618766237298754,0.275010059645,0.0,0.0,0.0,0.0,0.0631578947368
1449618766304088274,0.275010059645,0.0,0.0,0.0,0.0,0.0631578947368
1449618766354476571,0.27405184487,0.0,0.0,0.0,0.0,0.0631578947368
1449618766417388420,0.27405184487,0.0,0.0,0.0,0.0,0.0631578947368
1449618766509996927,0.27405184487,0.0,0.0,0.0,0.0,0.0631578947368
1449618766578125791,0.27405184487,0.0,0.0,0.0,0.0,0.0631578947368
1449618766631670237,0.275009424996,0.0,0.0,0.0,0.0,0.0631578947368
1449618766718168832,0.275009424996,0.0,0.0,0.0,0.0,0.0631578947368
1449618766799281237,0.275009424996,0.0,0.0,0.0,0.0,0.0631578947368
1449618766830283442,0.275009424996,0.0,0.0,0.0,0.0,0.0631578947368
1449618766859837359,0.275009424996,0.0,0.0,0.0,0.0,0.0631578947368
1449618766931448034,0.275009424996,0.0,0.0,0.0,0.0,0.0631578947368
1449618766978338988,0.275009424996,0.0,0.0,0.0,0.0,0.0631578947368
1449618767038358507,0.275009424996,0.0,0.0,0.0,0.0,0.0631578947368
1449618767146951934,0.275009424996,0.0,0.0,0.0,0.0,0.0631578947368
1449618767213486801,0.275009424996,0.0,0.0,0.0,0.0,0.0631578947368
1449618767271285405,0.275009424996,0.0,0.0,0.0,0.0,0.0631578947368
1449618767334111832,0.275009424996,0.0,0.0,0.0,0.0,0.0631578947368
1449618767403829192,0.275009424996,0.0,0.0,0.0,0.0,0.0631578947368
1449618767442596626,0.275009424996,0.0,0.0,0.0,0.0,0.0631578947368
1449618767536067046,0.275009424996,0.0,0.0,0.0,0.0,0.0631578947368
1449618767606345790,0.275009424996,0.0,0.0,0.0,0.0,0.0631578947368
1449618767683631069,0.275009424996,0.0,0.0,0.0,0.0,0.0631578947368
1449618767770591823,0.275009424996,0.0,0.0,0.0,0.0,0.0631578947368
1449618767839195239,0.275009424996,0.0,0.0,0.0,0.0,0.0631578947368
1449618767897202842,0.275009424996,0.0,0.0,0.0,0.0,0.0631578947368
1449618767981372809,0.275009424996,0.0,0.0,0.0,0.0,0.0631578947368
1449618768063187008,0.275009424996,0.0,0.0,0.0,0.0,0.0631578947368
1449618768155851360,0.275009424996,0.0,0.0,0.0,0.0,0.0631578947368
1449618768259290355,0.275009424996,0.0,0.0,0.0,0.0,0.0631578947368
1449618768313356995,0.275009424996,0.0,0.0,0.0,0.0,0.0631578947368
1449618768409741202,0.275009424996,0.0,0.0,0.0,0.0,0.0631578947368
1449618768489658003,0.275009424996,0.0,0.0,0.0,0.0,0.0631578947368
1449618768562294635,0.275009424996,0.0,0.0,0.0,0.0,0.0631578947368
1449618768655674888,0.275009424996,0.0,0.0,0.0,0.0,0.0631578947368
1449618768715174679,0.275009424996,0.0,0.0,0.0,0.0,0.0631578947368
1449618768816201632,0.275009424996,0.0,0.0,0.0,0.0,0.0631578947368
1449618768867879939,0.275009424996,0.0,0.0,0.0,0.0,0.0631578947368
1449618768936918083,0.275009424996,0.0,0.0,0.0,0.0,0.0631578947368
1449618769026944208,0.275009424996,0.0,0.0,0.0,0.0,0.0631578947368
1449618769075817382,0.275009424996,0.0,0.0,0.0,0.0,0.0631578947368
1449618769261530445,0.275009424996,0.0,0.0,0.0,0.0,0.0631578947368
1449618769431174455,0.275009424996,0.0,0.0,0.0,0.0,0.0631578947368
1449618769494401360,0.275009424996,0.0,0.0,0.0,0.0,0.0631578947368
1449618769592949813,0.275009424996,0.0,0.0,0.0,0.0,0.0631578947368
1449618769677868149,0.27692435852,0.0,0.0,0.0,0.0,0.0631578947368
1449618769735730447,0.27788100748,0.0,0.0,0.0,0.0,0.0631578947368
1449618769802315600,0.279795424742,0.0,0.0,0.0,0.0,0.0631578947368
1449618769859894976,0.279795424742,0.0,0.0,0.0,0.0,0.0631578947368
1449618769955247849,0.282664953141,0.0,0.0,0.0,0.0,0.0631578947368
1449618770071634883,0.28553556797,0.0,0.0,0.0,0.0,0.0631578947368
1449618770144893416,0.290316250084,0.0,0.0,0.0,0.0,0.0631578947368
1449618770210594111,0.290316250084,0.0,0.0,0.0,0.0,0.0631578947368
1449618770281788455,0.296053899189,0.0,0.0,0.0,0.0,0.0631578947368
1449618770342259138,0.29987845476,0.0,0.0,0.0,0.0,0.0631578947368
1449618770461346936,0.300834008127,0.0,0.0,0.0,0.0,0.0631578947368
1449618770499178788,0.308488682111,0.0,0.0,0.0,0.0,0.0631578947368
1449618770584149602,0.314233361862,0.0,0.0,0.0,0.0,0.0631578947368
1449618770639571006,0.319024281088,0.0,0.0,0.0,0.0,0.0631578947368
1449618770721348096,0.321900721072,0.0,0.0,0.0,0.0,0.0210526315789
1449618770767506104,0.32861540545,0.0,0.0,0.0,0.0,0.0210526315789
1449618770848313813,0.333413325065,0.0,0.0,0.0,0.0,0.0210526315789
1449618770918362466,0.342051647449,0.0,0.0,0.0,0.0,0.0210526315789
1449618771001704965,0.35069100276,0.0,0.0,0.0,0.0,0.0
1449618771063071044,0.352,0.0,0.0,0.0,0.0,0.0210526315789
1449618771160899733,0.352,0.0,0.0,0.0,0.0,0.0
1449618771239326878,0.352,0.0,0.0,0.0,0.0,0.0
1449618771302678471,0.352,0.0,0.0,0.0,0.0,-0.0210526315789
1449618771358191000,0.352,0.0,0.0,0.0,0.0,0.0210526315789
1449618771443680046,0.352,0.0,0.0,0.0,0.0,0.0
1449618771506223380,0.352,0.0,0.0,0.0,0.0,0.0
1449618771573645629,0.352,0.0,0.0,0.0,0.0,-0.0210526315789
1449618771629884523,0.352,0.0,0.0,0.0,0.0,-0.0210526315789
1449618771698714002,0.352,0.0,0.0,0.0,0.0,-0.0210526315789
1449618771763571856,0.352,0.0,0.0,0.0,0.0,0.0
1449618771857291226,0.352,0.0,0.0,0.0,0.0,-0.0210526315789
1449618771912262012,0.352,0.0,0.0,0.0,0.0,-0.0210526315789
1449618771999396201,0.352,0.0,0.0,0.0,0.0,-0.0210526315789
1449618772094155254,0.352,0.0,0.0,0.0,0.0,-0.0210526315789
1449618772216158053,0.352,0.0,0.0,0.0,0.0,-0.0210526315789
1449618772323363245,0.352,0.0,0.0,0.0,0.0,0.0
1449618772412243771,0.352,0.0,0.0,0.0,0.0,0.0
1449618772483055062,0.352,0.0,0.0,0.0,0.0,0.0
1449618772575560264,0.352,0.0,0.0,0.0,0.0,0.0
1449618772645001789,0.352,0.0,0.0,0.0,0.0,0.0
1449618772691418532,0.352,0.0,0.0,0.0,0.0,0.0
1449618772813965240,0.352,0.0,0.0,0.0,0.0,-0.0210526315789
1449618772883062429,0.352,0.0,0.0,0.0,0.0,0.0
1449618772959851609,0.352,0.0,0.0,0.0,0.0,0.0
1449618773301283885,0.351241966486,0.0,0.0,0.0,0.0,0.0
1449618773372834368,0.351211746931,0.0,0.0,0.0,0.0,0.0210526315789
1449618773409969951,0.352,0.0,0.0,0.0,0.0,0.0210526315789
1449618773512303144,0.34408359766,0.0,0.0,0.0,0.0,0.0210526315789
1449618773588375038,0.344088336229,0.0,0.0,0.0,0.0,0.0210526315789
1449618773653191957,0.336884965897,0.0,0.0,0.0,0.0,0.0210526315789
1449618773760754014,0.336884965897,0.0,0.0,0.0,0.0,0.0210526315789
1449618773825766040,0.334449043274,0.0,0.0,0.0,0.0,0.0210526315789
1449618773903731785,0.334449043274,0.0,0.0,0.0,0.0,0.0210526315789
1449618774000322622,0.339109530449,0.0,0.0,0.0,0.0,0.0210526315789
1449618774001523803,0.0,0.0,0.0,0.0,0.0,0.0
1449618774171913980,0.339109530449,0.0,0.0,0.0,0.0,0.0210526315789
1449618774267683312,0.333172669411,0.0,0.0,0.0,0.0,0.0210526315789
1449618774329297948,0.330892851353,0.0,0.0,0.0,0.0,0.0210526315789
1449618774384187804,0.341158857346,0.0,0.0,0.0,0.0,0.0210526315789
1449618774473505693,0.351218005419,0.0,0.0,0.0,0.0,0.0210526315789
1449618774538702457,0.351218005419,0.0,0.0,0.0,0.0,0.0210526315789
1449618774620908426,0.352,0.0,0.0,0.0,0.0,0.0210526315789
1449618774685102897,0.352,0.0,0.0,0.0,0.0,0.0210526315789
1449618774788730541,0.352,0.0,0.0,0.0,0.0,0.0210526315789
1449618774856166896,0.352,0.0,0.0,0.0,0.0,0.0210526315789
1449618774933227921,0.352,0.0,0.0,0.0,0.0,0.0210526315789
1449618774991767900,0.352,0.0,0.0,0.0,0.0,0.0210526315789
1449618775062500323,0.352,0.0,0.0,0.0,0.0,0.0210526315789
1449618775142950513,0.352,0.0,0.0,0.0,0.0,0.0210526315789
1449618775303123559,0.352,0.0,0.0,0.0,0.0,0.0210526315789
1449618775376437175,0.352,0.0,0.0,0.0,0.0,0.0210526315789
1449618775437972837,0.352,0.0,0.0,0.0,0.0,0.0210526315789
1449618775484470794,0.352,0.0,0.0,0.0,0.0,0.0210526315789
1449618775546748619,0.352,0.0,0.0,0.0,0.0,0.0210526315789
1449618775598484172,0.352,0.0,0.0,0.0,0.0,0.0210526315789
1449618775651124570,0.352,0.0,0.0,0.0,0.0,0.0210526315789
1449618775712507114,0.352,0.0,0.0,0.0,0.0,0.0210526315789
1449618775880675071,0.352,0.0,0.0,0.0,0.0,0.0210526315789
1449618775936880607,0.352,0.0,0.0,0.0,0.0,0.0210526315789
1449618776005736418,0.352,0.0,0.0,0.0,0.0,0.0210526315789
1449618776071482787,0.352,0.0,0.0,0.0,0.0,0.0210526315789
1449618776123513844,0.352,0.0,0.0,0.0,0.0,0.0210526315789
1449618776270624173,0.352,0.0,0.0,0.0,0.0,0.0210526315789
1449618776370254314,0.352,0.0,0.0,0.0,0.0,0.0210526315789
1449618776447879607,0.352,0.0,0.0,0.0,0.0,0.0210526315789
1449618776497809102,0.352,0.0,0.0,0.0,0.0,0.0210526315789
1449618776649746437,0.352,0.0,0.0,0.0,0.0,0.0210526315789
1449618776723156043,0.352,0.0,0.0,0.0,0.0,0.0631578947368
1449618776814149388,0.352,0.0,0.0,0.0,0.0,0.0210526315789
1449618776878077056,0.352,0.0,0.0,0.0,0.0,0.0210526315789
1449618776939240434,0.352,0.0,0.0,0.0,0.0,0.0210526315789
1449618776994690862,0.352,0.0,0.0,0.0,0.0,0.0210526315789
1449618777084815430,0.352,0.0,0.0,0.0,0.0,0.0210526315789
1449618777197792308,0.352,0.0,0.0,0.0,0.0,0.0631578947368
1449618777251463303,0.352,0.0,0.0,0.0,0.0,0.0210526315789
1449618777358582525,0.352,0.0,0.0,0.0,0.0,0.0210526315789
1449618777421683158,0.352,0.0,0.0,0.0,0.0,0.0210526315789
1449618777502372708,0.352,0.0,0.0,0.0,0.0,0.0
1449618777583290068,0.352,0.0,0.0,0.0,0.0,0.0
1449618777695188633,0.352,0.0,0.0,0.0,0.0,0.0
1449618777781043142,0.352,0.0,0.0,0.0,0.0,0.0
1449618777831893601,0.352,0.0,0.0,0.0,0.0,0.0
1449618777987425261,0.352,0.0,0.0,0.0,0.0,0.0210526315789
1449618778111508167,0.352,0.0,0.0,0.0,0.0,0.0
1449618778186275038,0.352,0.0,0.0,0.0,0.0,0.0
1449618778239364062,0.352,0.0,0.0,0.0,0.0,0.0210526315789
1449618778310149603,0.352,0.0,0.0,0.0,0.0,0.0210526315789
1449618778384026917,0.352,0.0,0.0,0.0,0.0,0.0210526315789
1449618778504140926,0.352,0.0,0.0,0.0,0.0,0.0210526315789
1449618778599961566,0.352,0.0,0.0,0.0,0.0,0.0631578947368
1449618778672191247,0.352,0.0,0.0,0.0,0.0,0.0631578947368
1449618778734661301,0.352,0.0,0.0,0.0,0.0,0.0631578947368
1449618778807083380,0.352,0.0,0.0,0.0,0.0,0.0631578947368
1449618778857611785,0.352,0.0,0.0,0.0,0.0,0.0631578947368
1449618778928984617,0.352,0.0,0.0,0.0,0.0,0.0631578947368
1449618778999277614,0.352,0.0,0.0,0.0,0.0,0.105263157895
1449618779074880837,0.352,0.0,0.0,0.0,0.0,0.105263157895
1449618779148054222,0.352,0.0,0.0,0.0,0.0,0.105263157895
1449618779220670269,0.352,0.0,0.0,0.0,0.0,0.147368421053
1449618779322869301,0.352,0.0,0.0,0.0,0.0,0.147368421053
1449618779417880551,0.3056,0.0,0.0,0.0,0.0,0.147368421053
1449618779486741060,0.352,0.0,0.0,0.0,0.0,0.147368421053
1449618779635831820,0.352,0.0,0.0,0.0,0.0,0.147368421053
1449618779705791705,0.352,0.0,0.0,0.0,0.0,0.147368421053
1449618779788947111,0.352,0.0,0.0,0.0,0.0,0.147368421053
1449618779834517163,0.352,0.0,0.0,0.0,0.0,0.147368421053
1449618779954932308,0.352,0.0,0.0,0.0,0.0,0.147368421053
1449618780016729556,0.352,0.0,0.0,0.0,0.0,0.147368421053
1449618780099537313,0.352,0.0,0.0,0.0,0.0,0.147368421053
1449618780159084134,0.3056,0.0,0.0,0.0,0.0,0.147368421053
1449618780227223781,0.3056,0.0,0.0,0.0,0.0,0.189473684211
1449618780283142905,0.3056,0.0,0.0,0.0,0.0,0.189473684211
1449618780347921882,0.3056,0.0,0.0,0.0,0.0,0.189473684211
1449618780430874070,0.3056,0.0,0.0,0.0,0.0,0.147368421053
1449618780517126907,0.2592,0.0,0.0,0.0,0.0,0.147368421053
1449618780589668671,0.2592,0.0,0.0,0.0,0.0,0.147368421053
1449618780638143872,0.2592,0.0,0.0,0.0,0.0,0.147368421053
1449618780701844103,0.2592,0.0,0.0,0.0,0.0,0.147368421053
1449618780768168565,0.2128,0.0,0.0,0.0,0.0,0.189473684211
1449618780809012084,0.2128,0.0,0.0,0.0,0.0,0.189473684211
1449618780887609381,0.1664,0.0,0.0,0.0,0.0,0.189473684211
1449618780944440061,0.1664,0.0,0.0,0.0,0.0,0.189473684211
1449618781004082890,-0.1,0.0,0.0,0.0,0.0,0.0
1449618781039668459,-0.1,0.0,0.0,0.0,0.0,0.0
1449618781072234577,-0.1,0.0,0.0,0.0,0.0,0.0
1449618781161307070,-0.1,0.0,0.0,0.0,0.0,0.0
1449618781229956310,-0.1,0.0,0.0,0.0,0.0,0.0
1449618781293323714,-0.1,0.0,0.0,0.0,0.0,0.0
1449618781329651810,-0.1,0.0,0.0,0.0,0.0,0.0
1449618781392903011,-0.1,0.0,0.0,0.0,0.0,0.0
1449618781434156322,-0.1,0.0,0.0,0.0,0.0,0.0
1449618781507357967,-0.1,0.0,0.0,0.0,0.0,0.0
1449618781613924024,-0.1,0.0,0.0,0.0,0.0,0.0
1449618781686184641,-0.1,0.0,0.0,0.0,0.0,0.0
1449618781769671255,-0.1,0.0,0.0,0.0,0.0,0.0
1449618781827286511,-0.1,0.0,0.0,0.0,0.0,0.0
1449618781871405327,-0.1,0.0,0.0,0.0,0.0,0.0
1449618781932937632,-0.1,0.0,0.0,0.0,0.0,0.0
1449618781989760876,-0.1,0.0,0.0,0.0,0.0,0.0
1449618782028877936,-0.1,0.0,0.0,0.0,0.0,0.0
1449618782076299348,-0.1,0.0,0.0,0.0,0.0,0.0
1449618782123722130,-0.1,0.0,0.0,0.0,0.0,0.0
1449618782177376732,-0.1,0.0,0.0,0.0,0.0,0.0
1449618782239814871,-0.1,0.0,0.0,0.0,0.0,0.0
1449618782327712787,0.0,0.0,0.0,0.0,0.0,0.31
1449618782385095065,0.0,0.0,0.0,0.0,0.0,0.31
1449618782472651157,0.0,0.0,0.0,0.0,0.0,0.31
1449618782598642740,0.0,0.0,0.0,0.0,0.0,0.31
1449618782664407965,0.0,0.0,0.0,0.0,0.0,0.31
1449618782715610347,0.0,0.0,0.0,0.0,0.0,0.31
1449618782783745382,0.0,0.0,0.0,0.0,0.0,0.31
1449618783320586336,0.0,0.0,0.0,0.0,0.0,0.31
1449618783374709528,0.2128,0.0,0.0,0.0,0.0,0.189473684211
1449618783502248141,0.1664,0.0,0.0,0.0,0.0,0.189473684211
1449618783540101246,0.2128,0.0,0.0,0.0,0.0,0.147368421053
1449618783598385152,0.2128,0.0,0.0,0.0,0.0,0.147368421053
1449618783656743262,0.2592,0.0,0.0,0.0,0.0,0.147368421053
1449618783705567921,0.0,0.0,0.0,0.0,0.0,-0.315789473684
1449618783796465485,0.0,0.0,0.0,0.0,0.0,-0.315789473684
1449618783895185600,0.0,0.0,0.0,0.0,0.0,-0.31
1449618783972781437,0.352,0.0,0.0,0.0,0.0,0.147368421053
1449618784029352916,0.352,0.0,0.0,0.0,0.0,0.147368421053
1449618784147658479,0.352,0.0,0.0,0.0,0.0,0.147368421053
1449618784285312315,0.352,0.0,0.0,0.0,0.0,0.147368421053
1449618784394182374,0.352,0.0,0.0,0.0,0.0,0.147368421053
1449618784467798611,0.352,0.0,0.0,0.0,0.0,0.105263157895
1449618784542131274,0.352,0.0,0.0,0.0,0.0,0.105263157895
1449618784642005470,0.352,0.0,0.0,0.0,0.0,0.105263157895
1449618784707586746,0.1664,0.0,0.0,0.0,0.0,-0.0631578947368
1449618784773520250,0.1664,0.0,0.0,0.0,0.0,-0.0631578947368
1449618784829942583,0.1664,0.0,0.0,0.0,0.0,-0.0631578947368
1449618784882382858,0.212499397278,0.0,0.0,0.0,0.0,-0.0631578947368
1449618784943319706,0.206736045361,0.0,0.0,0.0,0.0,-0.0631578947368
1449618785032200176,0.206736045361,0.0,0.0,0.0,0.0,-0.0631578947368
1449618785097925789,0.351296981573,0.0,0.0,0.0,0.0,0.0210526315789
1449618785148573241,0.329378118515,0.0,0.0,0.0,0.0,0.0210526315789
1449618785213839583,0.329378118515,0.0,0.0,0.0,0.0,0.0631578947368
1449618785303658150,0.336877783537,0.0,0.0,0.0,0.0,0.0210526315789
1449618785391973334,0.344075670242,0.0,0.0,0.0,0.0,0.0
1449618785454045432,0.344637533426,0.0,0.0,0.0,0.0,0.0210526315789
1449618785537879937,0.344276418686,0.0,0.0,0.0,0.0,0.0210526315789
1449618785601180073,0.344276418686,0.0,0.0,0.0,0.0,0.0210526315789
1449618785646742354,0.352,0.0,0.0,0.0,0.0,0.0
1449618785761786180,0.352,0.0,0.0,0.0,0.0,0.0
1449618785853258431,0.352,0.0,0.0,0.0,0.0,0.0
1449618785932530376,0.351519187689,0.0,0.0,0.0,0.0,0.0210526315789
1449618786007667413,0.330694904327,0.0,0.0,0.0,0.0,0.0
1449618786082925843,0.330694904327,0.0,0.0,0.0,0.0,-0.0210526315789
1449618786160295621,0.330336412191,0.0,0.0,0.0,0.0,-0.0210526315789
1449618786236450240,0.329974075556,0.0,0.0,0.0,0.0,0.0210526315789
1449618786318943545,0.351231386662,0.0,0.0,0.0,0.0,-0.0210526315789
1449618786386514037,0.351231386662,0.0,0.0,0.0,0.0,-0.0210526315789
1449618786512081912,0.352,0.0,0.0,0.0,0.0,-0.0210526315789
1449618786582251596,0.352,0.0,0.0,0.0,0.0,0.0
1449618786633494700,0.352,0.0,0.0,0.0,0.0,0.0
1449618786706141360,0.350956519842,0.0,0.0,0.0,0.0,0.0
1449618786785705416,0.351418128014,0.0,0.0,0.0,0.0,0.0
1449618786858275968,0.350949724913,0.0,0.0,0.0,0.0,-0.0210526315789
1449618786995895629,0.350949724913,0.0,0.0,0.0,0.0,-0.0210526315789
1449618787069770912,0.352,0.0,0.0,0.0,0.0,0.0
1449618787152496486,0.352,0.0,0.0,0.0,0.0,-0.0210526315789
1449618787222075427,0.352,0.0,0.0,0.0,0.0,-0.0210526315789
1449618787304473522,0.352,0.0,0.0,0.0,0.0,-0.0210526315789
1449618787373072230,0.352,0.0,0.0,0.0,0.0,-0.0210526315789
1449618787441756961,0.352,0.0,0.0,0.0,0.0,0.0
1449618787501802987,0.352,0.0,0.0,0.0,0.0,0.0
1449618787565076862,0.352,0.0,0.0,0.0,0.0,-0.0210526315789
1449618787640318666,0.352,0.0,0.0,0.0,0.0,0.0
1449618787757897840,0.352,0.0,0.0,0.0,0.0,-0.0210526315789
1449618787818198482,0.352,0.0,0.0,0.0,0.0,0.0
1449618787909804632,0.352,0.0,0.0,0.0,0.0,-0.0210526315789
1449618788011766851,0.352,0.0,0.0,0.0,0.0,-0.0210526315789
1449618788089300626,0.352,0.0,0.0,0.0,0.0,0.0
1449618788177581480,0.352,0.0,0.0,0.0,0.0,0.0
1449618788239757642,0.352,0.0,0.0,0.0,0.0,0.0
1449618788301843999,0.352,0.0,0.0,0.0,0.0,0.0
1449618788367275087,0.352,0.0,0.0,0.0,0.0,0.0
1449618788457718272,0.352,0.0,0.0,0.0,0.0,0.0
1449618788505205088,0.352,0.0,0.0,0.0,0.0,0.0
1449618788575083027,0.352,0.0,0.0,0.0,0.0,0.0
1449618788657846884,0.352,0.0,0.0,0.0,0.0,0.0
1449618788715921193,0.352,0.0,0.0,0.0,0.0,0.0
1449618788767843908,0.352,0.0,0.0,0.0,0.0,-0.0210526315789
1449618788877174286,0.352,0.0,0.0,0.0,0.0,-0.0210526315789
1449618788918787743,0.352,0.0,0.0,0.0,0.0,0.0
1449618789008480309,0.352,0.0,0.0,0.0,0.0,0.0
1449618789079919494,0.352,0.0,0.0,0.0,0.0,-0.0210526315789
1449618789142575710,0.352,0.0,0.0,0.0,0.0,0.0
1449618789226326064,0.352,0.0,0.0,0.0,0.0,0.0
1449618789290863565,0.352,0.0,0.0,0.0,0.0,-0.0210526315789
1449618789356460005,0.352,0.0,0.0,0.0,0.0,0.0
1449618789431452541,-0.1,0.0,0.0,0.0,0.0,0.0
1449618789486644421,-0.1,0.0,0.0,0.0,0.0,0.0
1449618789577406751,-0.1,0.0,0.0,0.0,0.0,0.0
1449618789689623529,-0.1,0.0,0.0,0.0,0.0,0.0
1449618789740553852,-0.1,0.0,0.0,0.0,0.0,0.0
1449618789854063530,0.0,0.0,0.0,0.0,0.0,0.31
1449618789917964341,0.0,0.0,0.0,0.0,0.0,0.31
1449618789978225155,0.352,0.0,0.0,0.0,0.0,-0.0210526315789
1449618790019973271,0.352,0.0,0.0,0.0,0.0,-0.0210526315789
1449618790056488194,0.352,0.0,0.0,0.0,0.0,-0.0210526315789
1449618790188753775,0.352,0.0,0.0,0.0,0.0,0.0
1449618790257201005,0.352,0.0,0.0,0.0,0.0,0.0210526315789
1449618790339325300,0.352,0.0,0.0,0.0,0.0,0.0210526315789
1449618790415694477,0.352,0.0,0.0,0.0,0.0,0.0631578947368
1449618790491852823,0.352,0.0,0.0,0.0,0.0,0.0631578947368
1449618790580373317,0.352,0.0,0.0,0.0,0.0,0.105263157895
1449618790644886346,0.352,0.0,0.0,0.0,0.0,0.105263157895
1449618790779165487,0.232807837232,0.0,0.0,0.0,0.0,0.0
1449618790846100688,0.230888705573,0.0,0.0,0.0,0.0,0.0
1449618790923032009,0.221290405587,0.0,0.0,0.0,0.0,0.0173959637943
1449618791016976145,0.214570884475,0.0,0.0,0.0,0.0,0.0173959637943
1449618791081740576,0.204973451095,0.0,0.0,0.0,0.0,0.0631578947368
1449618791155426296,0.198258173597,0.0,0.0,0.0,0.0,0.0631578947368
1449618791216664478,0.189626817316,0.0,0.0,0.0,0.0,0.0631578947368
1449618791289699192,0.184835740965,0.0,0.0,0.0,0.0,0.0631578947368
1449618791358077260,0.178132605404,0.0,0.0,0.0,0.0,0.105263157895
1449618791436338382,0.170475030814,0.0,0.0,0.0,0.0,0.105263157895
1449618791509219234,0.163782396155,0.0,0.0,0.0,0.0,0.105263157895
1449618791580599175,0.159008400714,0.0,0.0,0.0,0.0,0.105263157895
1449618791684211668,0.152335699528,0.0,0.0,0.0,0.0,0.105263157895
1449618791794792721,0.147575957229,0.0,0.0,0.0,0.0,0.147368421053
1449618791849132692,0.14377225404,0.0,0.0,0.0,0.0,0.147368421053
1449618791939255998,0.140922302902,0.0,0.0,0.0,0.0,0.147368421053
1449618792013869390,0.137128329034,0.0,0.0,0.0,0.0,0.147368421053
1449618792069089805,0.134286199856,0.0,0.0,0.0,0.0,0.147368421053
1449618792170238518,0.131444030237,0.0,0.0,0.0,0.0,0.147368421053
1449618792246046125,0.12860871257,0.0,0.0,0.0,0.0,0.189473684211
1449618792309124676,0.126719673093,0.0,0.0,0.0,0.0,0.189473684211
1449618792347697612,0.123108815392,0.0,0.0,0.0,0.0,0.189473684211
1449618792424591784,0.121177002944,0.0,0.0,0.0,0.0,0.189473684211
1449618792574739173,0.12,0.0,0.0,0.0,0.0,0.189473684211
1449618792621735725,0.12,0.0,0.0,0.0,0.0,0.105263157895
1449618792671663891,0.12,0.0,0.0,0.0,0.0,0.105263157895
1449618792759439625,0.12,0.0,0.0,0.0,0.0,0.189473684211
1449618792829629303,0.12,0.0,0.0,0.0,0.0,0.147368421053
1449618792910006780,0.12,0.0,0.0,0.0,0.0,0.189473684211
1449618792996328561,0.12,0.0,0.0,0.0,0.0,0.147368421053
1449618793058155287,0.12,0.0,0.0,0.0,0.0,0.147368421053
1449618793148256767,0.12,0.0,0.0,0.0,0.0,0.147368421053
1449618793394794729,0.12,0.0,0.0,0.0,0.0,0.147368421053
1449618793452002282,0.12,0.0,0.0,0.0,0.0,0.147368421053
1449618793569796124,0.12,0.0,0.0,0.0,0.0,0.105263157895
1449618793658002331,0.12,0.0,0.0,0.0,0.0,0.105263157895
1449618793717806894,0.12,0.0,0.0,0.0,0.0,0.147368421053
1449618793820017499,0.12,0.0,0.0,0.0,0.0,0.105263157895
1449618793888184752,0.352,0.0,0.0,0.0,0.0,0.273684210526
1449618793949056619,0.352,0.0,0.0,0.0,0.0,0.273684210526
1449618794017939847,0.352,0.0,0.0,0.0,0.0,0.273684210526
1449618794112988912,0.352,0.0,0.0,0.0,0.0,0.273684210526
1449618794194124931,0.352,0.0,0.0,0.0,0.0,0.273684210526
1449618794260538239,0.352,0.0,0.0,0.0,0.0,0.273684210526
1449618794321921819,0.352,0.0,0.0,0.0,0.0,0.273684210526
1449618794392985932,0.352,0.0,0.0,0.0,0.0,0.273684210526
1449618794463179105,0.352,0.0,0.0,0.0,0.0,0.273684210526
1449618794522812788,0.352,0.0,0.0,0.0,0.0,0.273684210526
1449618794629730120,0.352,0.0,0.0,0.0,0.0,0.273684210526
1449618794739109032,0.352,0.0,0.0,0.0,0.0,0.273684210526
1449618794842356381,0.352,0.0,0.0,0.0,0.0,0.273684210526
1449618794944618202,0.352,0.0,0.0,0.0,0.0,0.231578947368
1449618795053641861,0.352,0.0,0.0,0.0,0.0,0.231578947368
1449618795156423123,0.352,0.0,0.0,0.0,0.0,0.231578947368
1449618795229996487,0.352,0.0,0.0,0.0,0.0,0.189473684211
1449618795308210671,0.352,0.0,0.0,0.0,0.0,0.189473684211
1449618795453238439,0.352,0.0,0.0,0.0,0.0,0.147368421053
1449618795504094442,0.352,0.0,0.0,0.0,0.0,0.147368421053
1449618795589335218,0.352,0.0,0.0,0.0,0.0,0.147368421053
1449618795657081168,0.352,0.0,0.0,0.0,0.0,0.105263157895
1449618795715384563,0.352,0.0,0.0,0.0,0.0,0.105263157895
1449618795828738006,0.352,0.0,0.0,0.0,0.0,0.105263157895
1449618795865848134,0.352,0.0,0.0,0.0,0.0,0.105263157895
1449618795960075471,0.352,0.0,0.0,0.0,0.0,0.0631578947368
1449618796012954222,0.352,0.0,0.0,0.0,0.0,0.0631578947368
1449618796053826931,0.352,0.0,0.0,0.0,0.0,0.0631578947368
1449618796160854243,0.352,0.0,0.0,0.0,0.0,0.0631578947368
1449618796292909263,0.352,0.0,0.0,0.0,0.0,0.0210526315789
1449618796384204850,0.352,0.0,0.0,0.0,0.0,0.0
1449618796437346410,0.352,0.0,0.0,0.0,0.0,0.0
1449618796501039944,0.352,0.0,0.0,0.0,0.0,-0.0210526315789
1449618796561971092,0.352,0.0,0.0,0.0,0.0,-0.0210526315789
1449618796660948604,0.352,0.0,0.0,0.0,0.0,0.0
1449618796732006733,0.352,0.0,0.0,0.0,0.0,-0.0631578947368
1449618796816212482,0.352,0.0,0.0,0.0,0.0,-0.0631578947368
1449618796896970363,0.352,0.0,0.0,0.0,0.0,-0.0631578947368
1449618796975334248,0.352,0.0,0.0,0.0,0.0,-0.0631578947368
1449618797118930911,0.352,0.0,0.0,0.0,0.0,-0.105263157895
1449618797153881402,0.352,0.0,0.0,0.0,0.0,-0.105263157895
1449618797261882926,0.352,0.0,0.0,0.0,0.0,-0.105263157895
1449618797324777076,0.352,0.0,0.0,0.0,0.0,-0.105263157895
1449618797409175409,0.352,0.0,0.0,0.0,0.0,-0.105263157895
1449618797473961110,0.352,0.0,0.0,0.0,0.0,-0.147368421053
1449618797570528837,0.352,0.0,0.0,0.0,0.0,-0.147368421053
1449618797626401897,0.352,0.0,0.0,0.0,0.0,-0.147368421053
1449618797704081949,0.352,0.0,0.0,0.0,0.0,-0.147368421053
1449618797747572237,0.352,0.0,0.0,0.0,0.0,-0.147368421053
1449618797815087911,0.352,0.0,0.0,0.0,0.0,-0.147368421053
1449618797876548848,0.352,0.0,0.0,0.0,0.0,-0.147368421053
1449618797930497678,0.352,0.0,0.0,0.0,0.0,-0.147368421053
1449618797984444538,0.352,0.0,0.0,0.0,0.0,-0.147368421053
1449618798044482925,0.352,0.0,0.0,0.0,0.0,-0.147368421053
1449618798113923422,0.352,0.0,0.0,0.0,0.0,-0.189473684211
1449618798243858557,0.352,0.0,0.0,0.0,0.0,-0.189473684211
1449618798355454055,0.352,0.0,0.0,0.0,0.0,-0.189473684211
1449618798439161244,0.352,0.0,0.0,0.0,0.0,-0.189473684211
1449618798531758073,0.352,0.0,0.0,0.0,0.0,-0.147368421053
1449618798610181864,0.352,0.0,0.0,0.0,0.0,-0.147368421053
1449618798682088921,0.352,0.0,0.0,0.0,0.0,-0.147368421053
1449618798752981971,0.352,0.0,0.0,0.0,0.0,-0.147368421053
1449618798821429244,0.352,0.0,0.0,0.0,0.0,-0.147368421053
1449618798894982003,0.352,0.0,0.0,0.0,0.0,-0.147368421053
1449618798955000125,0.352,0.0,0.0,0.0,0.0,-0.147368421053
1449618799005650476,0.352,0.0,0.0,0.0,0.0,-0.147368421053
1449618799053445646,0.352,0.0,0.0,0.0,0.0,-0.147368421053
1449618799113189109,0.352,0.0,0.0,0.0,0.0,-0.147368421053
1449618799171355578,0.352,0.0,0.0,0.0,0.0,-0.147368421053
1449618799217351372,0.352,0.0,0.0,0.0,0.0,-0.147368421053
1449618799291848856,0.352,0.0,0.0,0.0,0.0,-0.147368421053
1449618799406365175,0.342974881858,0.0,0.0,0.0,0.0,-0.105263157895
1449618799483680384,0.333516301386,0.0,0.0,0.0,0.0,-0.105263157895
1449618799543684908,0.326881679836,0.0,0.0,0.0,0.0,-0.105263157895
1449618799589661050,0.321197019279,0.0,0.0,0.0,0.0,-0.105263157895
1449618799681029416,0.319301036627,0.0,0.0,0.0,0.0,-0.105263157895
1449618799739035580,0.314554556575,0.0,0.0,0.0,0.0,-0.105263157895
1449618799842623805,0.310758621224,0.0,0.0,0.0,0.0,-0.105263157895
1449618799904437961,0.307907788786,0.0,0.0,0.0,0.0,-0.105263157895
1449618799958454796,0.307907788786,0.0,0.0,0.0,0.0,-0.105263157895
1449618800065825803,0.30600755079,0.0,0.0,0.0,0.0,-0.105263157895
1449618800121295343,0.304107612009,0.0,0.0,0.0,0.0,-0.105263157895
1449618800238379577,0.303156255139,0.0,0.0,0.0,0.0,-0.0631578947368
1449618800333308022,0.303156255139,0.0,0.0,0.0,0.0,-0.105263157895
1449618800381938291,0.304106236313,0.0,0.0,0.0,0.0,-0.105263157895
1449618800438120778,0.304106236313,0.0,0.0,0.0,0.0,-0.105263157895
1449618800503657031,0.305054707139,0.0,0.0,0.0,0.0,-0.105263157895
1449618800581956984,0.30600153142,0.0,0.0,0.0,0.0,-0.105263157895
1449618800659671720,0.307895624392,0.0,0.0,0.0,0.0,-0.105263157895
1449618800727676468,0.309784891111,0.0,0.0,0.0,0.0,-0.105263157895
1449618800826368706,0.311674329601,0.0,0.0,0.0,0.0,-0.105263157895
1449618800869469873,0.317324633846,0.0,0.0,0.0,0.0,-0.147368421053
1449618800953686932,0.32014128598,0.0,0.0,0.0,0.0,-0.105263157895
1449618801041034065,0.323898602965,0.0,0.0,0.0,0.0,-0.147368421053
1449618801109629542,0.32858740285,0.0,0.0,0.0,0.0,-0.105263157895
1449618801184991313,0.334218076725,0.0,0.0,0.0,0.0,-0.147368421053
1449618801253951285,0.338902966894,0.0,0.0,0.0,0.0,-0.147368421053
1449618801293861288,0.340777877116,0.0,0.0,0.0,0.0,-0.147368421053
1449618801407165586,0.342653137112,0.0,0.0,0.0,0.0,-0.105263157895
1449618801461321470,0.351085091592,0.0,0.0,0.0,0.0,-0.105263157895
1449618801538579081,0.352,0.0,0.0,0.0,0.0,-0.147368421053
1449618801612732478,0.352,0.0,0.0,0.0,0.0,-0.147368421053
1449618801675085849,0.352,0.0,0.0,0.0,0.0,-0.147368421053
1449618801762635520,0.352,0.0,0.0,0.0,0.0,-0.147368421053
1449618801841609672,0.352,0.0,0.0,0.0,0.0,-0.105263157895
1449618801922863019,0.3056,0.0,0.0,0.0,0.0,-0.0631578947368
1449618801992756712,0.2592,0.0,0.0,0.0,0.0,-0.105263157895
1449618802060244792,0.2592,0.0,0.0,0.0,0.0,-0.184217848401
1449618802154538624,0.2592,0.0,0.0,0.0,0.0,-0.164756630722
1449618802217869594,0.2592,0.0,0.0,0.0,0.0,-0.223182987414
1449618802299971482,0.2592,0.0,0.0,0.0,0.0,-0.245551418505
1449618802338393189,0.2592,0.0,0.0,0.0,0.0,-0.267765605324
1449618802394743577,0.2592,0.0,0.0,0.0,0.0,-0.267765605324
1449618802440783662,0.2592,0.0,0.0,0.0,0.0,-0.226030254991
1449618802513400775,0.3056,0.0,0.0,0.0,0.0,-0.273684210526
1449618802617997622,0.3056,0.0,0.0,0.0,0.0,-0.273684210526
1449618802695181916,0.3056,0.0,0.0,0.0,0.0,-0.273684210526
1449618802780823973,0.3056,0.0,0.0,0.0,0.0,-0.273684210526
1449618802823209443,0.352,0.0,0.0,0.0,0.0,-0.273684210526
1449618803339819320,0.352,0.0,0.0,0.0,0.0,-0.273684210526
1449618803465399541,0.352,0.0,0.0,0.0,0.0,-0.273684210526
1449618803541731314,0.352,0.0,0.0,0.0,0.0,-0.231578947368
1449618803642379081,0.352,0.0,0.0,0.0,0.0,-0.273684210526
1449618803761098001,0.352,0.0,0.0,0.0,0.0,-0.231578947368
1449618803803763017,-0.1,0.0,0.0,0.0,0.0,0.0
1449618803895606900,-0.1,0.0,0.0,0.0,0.0,0.0
1449618803967828079,0.0,0.0,0.0,0.0,0.0,0.0
1449618804020691203,0.0,0.0,0.0,0.0,0.0,0.0
1449618804088800561,0.0,0.0,0.0,0.0,0.0,-0.31
1449618804180800124,0.2128,0.0,0.0,0.0,0.0,0.231578947368
1449618804244489652,0.209440677643,0.0,0.0,0.0,0.0,-0.0631578947368
1449618804322565572,0.0,0.0,0.0,0.0,0.0,-0.315789473684
1449618804379499407,0.343871643543,0.0,0.0,0.0,0.0,-0.189473684211
1449618804432267974,0.343868871927,0.0,0.0,0.0,0.0,-0.189473684211
1449618804480360013,0.343868871927,0.0,0.0,0.0,0.0,-0.189473684211
1449618804545409400,0.336670359373,0.0,0.0,0.0,0.0,-0.147368421053
1449618804612446655,0.352,0.0,0.0,0.0,0.0,-0.189473684211
1449618804681361864,0.343205502033,0.0,0.0,0.0,0.0,-0.147368421053
1449618804753470012,0.352,0.0,0.0,0.0,0.0,-0.147368421053
1449618804827503915,0.351379116774,0.0,0.0,0.0,0.0,-0.147368421053
1449618804928677843,0.352,0.0,0.0,0.0,0.0,-0.147368421053
1449618804996508097,0.351281096935,0.0,0.0,0.0,0.0,-0.147368421053
1449618805076245195,0.352,0.0,0.0,0.0,0.0,-0.147368421053
1449618805145976056,0.352,0.0,0.0,0.0,0.0,-0.147368421053
1449618805278946912,0.352,0.0,0.0,0.0,0.0,-0.147368421053
1449618805349822432,-0.1,0.0,0.0,0.0,0.0,0.0
1449618805424837648,0.0,0.0,0.0,0.0,0.0,0.315789473684
1449618805532889332,-0.1,0.0,0.0,0.0,0.0,0.0
1449618805614740317,0.0,0.0,0.0,0.0,0.0,-0.31
1449618805743429225,0.0,0.0,0.0,0.0,0.0,-0.4
1449618805806133859,0.0,0.0,0.0,0.0,0.0,-0.4
1449618805858694252,0.0,0.0,0.0,0.0,0.0,-0.4
1449618805918873236,0.0,0.0,0.0,0.0,0.0,-0.4
1449618805977655866,0.0,0.0,0.0,0.0,0.0,-0.4
1449618806037214370,0.0,0.0,0.0,0.0,0.0,-0.4
1449618806101136453,0.0,0.0,0.0,0.0,0.0,-0.4
1449618806165096880,0.0,0.0,0.0,0.0,0.0,-0.4
1449618806218062726,-0.0,0.0,0.0,0.0,0.0,0.0
1449618806287776036,-0.0,0.0,0.0,0.0,0.0,0.0
1449618806357547938,-0.0,0.0,0.0,0.0,0.0,0.0
1449618806415553358,-0.0,0.0,0.0,0.0,0.0,0.0
1449618806475941631,-0.0,0.0,0.0,0.0,0.0,0.0
1449618806519956207,-0.0,0.0,0.0,0.0,0.0,0.0
1449618806574526500,-0.0,0.0,0.0,0.0,0.0,0.0
1449618806624749237,-0.0,0.0,0.0,0.0,0.0,0.0
1449618806724285150,-0.0,0.0,0.0,0.0,0.0,0.0
1449618806792784880,-0.0,0.0,0.0,0.0,0.0,0.0
1449618806857066351,-0.0,0.0,0.0,0.0,0.0,0.0
1449618806891501946,-0.0,0.0,0.0,0.0,0.0,0.0
1449618806961931881,-0.0,0.0,0.0,0.0,0.0,0.0
1449618807041206047,0.0,0.0,0.0,0.0,0.0,0.762827838841
1449618807086539877,0.0,0.0,0.0,0.0,0.0,0.710010909698
1449618807180520953,0.0,0.0,0.0,0.0,0.0,0.762845455998
1449618807237775781,0.0,0.0,0.0,0.0,0.0,0.762845455998
1449618807392270815,0.0,0.0,0.0,0.0,0.0,0.789272376689
1449618807461173228,0.0,0.0,0.0,0.0,0.0,0.762808225609
1449618807555129380,0.0,0.0,0.0,0.0,0.0,0.789232918124
1449618807633087899,0.0,0.0,0.0,0.0,0.0,0.762813244233
1449618807715082878,0.0,0.0,0.0,0.0,0.0,0.762813244233
1449618807814936864,0.0,0.0,0.0,0.0,0.0,0.789253405113
1449618807857107052,0.0,0.0,0.0,0.0,0.0,0.763799243741
1449618807923696031,0.0,0.0,0.0,0.0,0.0,0.710953677847
1449618807959105774,0.0,0.0,0.0,0.0,0.0,0.710953677847
1449618808056091192,0.0,0.0,0.0,0.0,0.0,0.710979610518
1449618808149181142,0.0,0.0,0.0,0.0,0.0,0.761879958049
1449618808186126658,0.0,0.0,0.0,0.0,0.0,0.784842444611
1449618808245766779,0.0,0.0,0.0,0.0,0.0,0.763706347247
1449618808306225329,0.0,0.0,0.0,0.0,0.0,0.753138298565
1449618808369610018,0.0,0.0,0.0,0.0,0.0,0.72143415252
1449618808449965336,0.0,0.0,0.0,0.0,0.0,0.700298055156
1449618808549062888,0.0,0.0,0.0,0.0,0.0,0.679161957793
1449618808622453654,0.0,0.0,0.0,0.0,0.0,0.636889763065
1449618808689705442,0.0,0.0,0.0,0.0,0.0,0.594617568338
1449618808772946067,0.245213876195,0.0,0.0,0.0,0.0,0.137061557582
1449618808825704283,0.24331299491,0.0,0.0,0.0,0.0,0.0994989229503
1449618808939050930,0.240453222106,0.0,0.0,0.0,0.0,0.0994989229503
1449618808997554940,0.238542198576,0.0,0.0,0.0,0.0,0.0382651121993
1449618809103109267,0.233755439484,0.0,0.0,0.0,0.0,0.0619321944212
1449618809204562130,0.230877630441,0.0,0.0,0.0,0.0,0.0
1449618809272676390,0.227998802515,0.0,0.0,0.0,0.0,-0.0210526315789
1449618809341046837,0.225119424725,0.0,0.0,0.0,0.0,0.0
1449618809476918300,0.222239617592,0.0,0.0,0.0,0.0,0.0
1449618809546460579,0.217440223959,0.0,0.0,0.0,0.0,0.0
1449618809584625431,0.214560709922,0.0,0.0,0.0,0.0,0.0
1449618809644001265,0.209762436887,0.0,0.0,0.0,0.0,0.0
1449618809704296975,0.207843835266,0.0,0.0,0.0,0.0,0.0
1449618809793774784,0.202087841172,0.0,0.0,0.0,0.0,0.0
1449618809822393363,0.201128853459,0.0,0.0,0.0,0.0,-0.0210526315789
1449618809866035468,0.194418553326,0.0,0.0,0.0,0.0,-0.0210526315789
1449618809909415607,0.192501965671,0.0,0.0,0.0,0.0,-0.0210526315789
1449618809953398177,0.190585588323,0.0,0.0,0.0,0.0,-0.0210526315789
1449618810001217913,0.187713103236,0.0,0.0,0.0,0.0,-0.0631578947368
1449618810062552346,0.186756471923,0.0,0.0,0.0,0.0,-0.105263157895
1449618810135050511,0.352,0.0,0.0,0.0,0.0,0.0
1449618810204702833,0.352,0.0,0.0,0.0,0.0,0.0
1449618810301253857,0.352,0.0,0.0,0.0,0.0,-0.0210526315789
1449618810418974135,0.352,0.0,0.0,0.0,0.0,-0.0210526315789
1449618810484378036,0.352,0.0,0.0,0.0,0.0,-0.0631578947368
1449618810607645150,0.352,0.0,0.0,0.0,0.0,-0.0631578947368
1449618810645715158,0.352,0.0,0.0,0.0,0.0,-0.0631578947368
1449618810762811592,0.352,0.0,0.0,0.0,0.0,-0.0631578947368
1449618810823075592,0.352,0.0,0.0,0.0,0.0,-0.0631578947368
1449618810892265654,0.352,0.0,0.0,0.0,0.0,-0.0631578947368
1449618810958464943,0.352,0.0,0.0,0.0,0.0,-0.231578947368
1449618811058725540,0.3056,0.0,0.0,0.0,0.0,-0.231578947368
1449618811129613758,0.3056,0.0,0.0,0.0,0.0,-0.231578947368
1449618811202092742,0.352,0.0,0.0,0.0,0.0,-0.0631578947368
1449618811250049310,0.352,0.0,0.0,0.0,0.0,-0.0631578947368
1449618811320242749,0.352,0.0,0.0,0.0,0.0,-0.0631578947368
1449618811392495154,0.352,0.0,0.0,0.0,0.0,-0.189473684211
1449618811489462273,0.352,0.0,0.0,0.0,0.0,-0.189473684211
1449618811579215467,0.352,0.0,0.0,0.0,0.0,-0.189473684211
1449618811643354167,0.352,0.0,0.0,0.0,0.0,-0.147368421053
1449618811719868445,0.3056,0.0,0.0,0.0,0.0,-0.147368421053
1449618811793587696,0.352,0.0,0.0,0.0,0.0,-0.189473684211
1449618811870908319,0.352,0.0,0.0,0.0,0.0,-0.189473684211
1449618811940801718,0.352,0.0,0.0,0.0,0.0,-0.189473684211
1449618812006168002,0.3056,0.0,0.0,0.0,0.0,-0.189473684211
1449618812060184450,0.352,0.0,0.0,0.0,0.0,-0.147368421053
1449618812125840601,0.352,0.0,0.0,0.0,0.0,-0.147368421053
