%time,field.header.seq,field.header.stamp,field.header.frame_id,field.polygon.points0.x,field.polygon.points0.y,field.polygon.points0.z,field.polygon.points1.x,field.polygon.points1.y,field.polygon.points1.z,field.polygon.points2.x,field.polygon.points2.y,field.polygon.points2.z,field.polygon.points3.x,field.polygon.points3.y,field.polygon.points3.z,field.polygon.points4.x,field.polygon.points4.y,field.polygon.points4.z
1449618704741272398,1,1449618704740560229,odom,0.479999989271,0.0,0.0,0.329999983311,-0.264999985695,0.0,-0.539999961853,-0.264999985695,0.0,-0.539999961853,0.264999985695,0.0,0.329999983311,0.264999985695,0.0
1449618704940838561,2,1449618704940567272,odom,0.479999989271,0.0,0.0,0.329999983311,-0.264999985695,0.0,-0.539999961853,-0.264999985695,0.0,-0.539999961853,0.264999985695,0.0,0.329999983311,0.264999985695,0.0
1449618705248859252,3,1449618705248314713,odom,0.479999989271,0.0,0.0,0.329999983311,-0.264999985695,0.0,-0.539999961853,-0.264999985695,0.0,-0.539999961853,0.264999985695,0.0,0.329999983311,0.264999985695,0.0
1449618705447917325,4,1449618705445982264,odom,0.479999989271,0.0,0.0,0.329999983311,-0.264999985695,0.0,-0.539999961853,-0.264999985695,0.0,-0.539999961853,0.264999985695,0.0,0.329999983311,0.264999985695,0.0
1449618705655441529,5,1449618705654812975,odom,0.479999989271,0.0,0.0,0.329999983311,-0.264999985695,0.0,-0.539999961853,-0.264999985695,0.0,-0.539999961853,0.264999985695,0.0,0.329999983311,0.264999985695,0.0
1449618705830973566,6,1449618705828438280,odom,0.479999989271,0.0,0.0,0.329999983311,-0.264999985695,0.0,-0.539999961853,-0.264999985695,0.0,-0.539999961853,0.264999985695,0.0,0.329999983311,0.264999985695,0.0
1449618706039312616,7,1449618706039055281,odom,0.479999989271,0.0,0.0,0.329999983311,-0.264999985695,0.0,-0.539999961853,-0.264999985695,0.0,-0.539999961853,0.264999985695,0.0,0.329999983311,0.264999985695,0.0
1449618706272597030,8,1449618706272312396,odom,0.479999989271,0.0,0.0,0.329999983311,-0.264999985695,0.0,-0.539999961853,-0.264999985695,0.0,-0.539999961853,0.264999985695,0.0,0.329999983311,0.264999985695,0.0
1449618706457256872,9,1449618706456458792,odom,0.479999989271,0.0,0.0,0.329999983311,-0.264999985695,0.0,-0.539999961853,-0.264999985695,0.0,-0.539999961853,0.264999985695,0.0,0.329999983311,0.264999985695,0.0
1449618706711347286,10,1449618706711079962,odom,0.479999989271,0.0,0.0,0.329999983311,-0.264999985695,0.0,-0.539999961853,-0.264999985695,0.0,-0.539999961853,0.264999985695,0.0,0.329999983311,0.264999985695,0.0
1449618706864646216,11,1449618706864097347,odom,0.479999989271,0.0,0.0,0.329999983311,-0.264999985695,0.0,-0.539999961853,-0.264999985695,0.0,-0.539999961853,0.264999985695,0.0,0.329999983311,0.264999985695,0.0
1449618707093778115,12,1449618707093512732,odom,0.479999989271,0.0,0.0,0.329999983311,-0.264999985695,0.0,-0.539999961853,-0.264999985695,0.0,-0.539999961853,0.264999985695,0.0,0.329999983311,0.264999985695,0.0
1449618707249297057,13,1449618707248923979,odom,0.479999989271,0.0,0.0,0.329999983311,-0.264999985695,0.0,-0.539999961853,-0.264999985695,0.0,-0.539999961853,0.264999985695,0.0,0.329999983311,0.264999985695,0.0
1449618707462355848,14,1449618707458851038,odom,0.479999989271,0.0,0.0,0.329999983311,-0.264999985695,0.0,-0.539999961853,-0.264999985695,0.0,-0.539999961853,0.264999985695,0.0,0.329999983311,0.264999985695,0.0
1449618707660311084,15,1449618707660076134,odom,0.479999989271,0.0,0.0,0.329999983311,-0.264999985695,0.0,-0.539999961853,-0.264999985695,0.0,-0.539999961853,0.264999985695,0.0,0.329999983311,0.264999985695,0.0
1449618707844330341,16,1449618707843583970,odom,0.479999989271,0.0,0.0,0.329999983311,-0.264999985695,0.0,-0.539999961853,-0.264999985695,0.0,-0.539999961853,0.264999985695,0.0,0.329999983311,0.264999985695,0.0
1449618708048415449,17,1449618708044869800,odom,0.479999989271,0.0,0.0,0.329999983311,-0.264999985695,0.0,-0.539999961853,-0.264999985695,0.0,-0.539999961853,0.264999985695,0.0,0.329999983311,0.264999985695,0.0
1449618708268658995,18,1449618708262110933,odom,0.479999989271,0.0,0.0,0.329999983311,-0.264999985695,0.0,-0.539999961853,-0.264999985695,0.0,-0.539999961853,0.264999985695,0.0,0.329999983311,0.264999985695,0.0
1449618708438112603,19,1449618708437741585,odom,0.479999989271,0.0,0.0,0.329999983311,-0.264999985695,0.0,-0.539999961853,-0.264999985695,0.0,-0.539999961853,0.264999985695,0.0,0.329999983311,0.264999985695,0.0
1449618708657791094,20,1449618708654644471,odom,0.479999989271,0.0,0.0,0.329999983311,-0.264999985695,0.0,-0.539999961853,-0.264999985695,0.0,-0.539999961853,0.264999985695,0.0,0.329999983311,0.264999985695,0.0
1449618708874914166,21,1449618708874553986,odom,0.479999989271,0.0,0.0,0.329999983311,-0.264999985695,0.0,-0.539999961853,-0.264999985695,0.0,-0.539999961853,0.264999985695,0.0,0.329999983311,0.264999985695,0.0
1449618709036571915,22,1449618709035101677,odom,0.479999989271,0.0,0.0,0.329999983311,-0.264999985695,0.0,-0.539999961853,-0.264999985695,0.0,-0.539999961853,0.264999985695,0.0,0.329999983311,0.264999985695,0.0
1449618709255777636,23,1449618709255432021,odom,0.479999989271,0.0,0.0,0.329999983311,-0.264999985695,0.0,-0.539999961853,-0.264999985695,0.0,-0.539999961853,0.264999985695,0.0,0.329999983311,0.264999985695,0.0
1449618709451841504,24,1449618709451450019,odom,0.479999989271,0.0,0.0,0.329999983311,-0.264999985695,0.0,-0.539999961853,-0.264999985695,0.0,-0.539999961853,0.264999985695,0.0,0.329999983311,0.264999985695,0.0
1449618709702954905,25,1449618709700350293,odom,0.479999989271,0.0,0.0,0.329999983311,-0.264999985695,0.0,-0.539999961853,-0.264999985695,0.0,-0.539999961853,0.264999985695,0.0,0.329999983311,0.264999985695,0.0
1449618709984566809,26,1449618709983814665,odom,0.479999989271,0.0,0.0,0.329999983311,-0.264999985695,0.0,-0.539999961853,-0.264999985695,0.0,-0.539999961853,0.264999985695,0.0,0.329999983311,0.264999985695,0.0
1449618710266136948,27,1449618710262660674,odom,0.479999989271,0.0,0.0,0.329999983311,-0.264999985695,0.0,-0.539999961853,-0.264999985695,0.0,-0.539999961853,0.264999985695,0.0,0.329999983311,0.264999985695,0.0
1449618710459213946,28,1449618710458362512,odom,0.494371503592,0.00519430171698,0.0,0.347180366516,-0.261376082897,0.0,-0.522771000862,-0.270570099354,0.0,-0.528371989727,0.25940027833,0.0,0.341579407454,0.268594324589,0.0
1449618710729669523,29,1449618710725906036,odom,0.511647880077,0.00546819064766,0.0,0.3644567132,-0.261102169752,0.0,-0.505494654179,-0.270296216011,0.0,-0.511095643044,0.259674191475,0.0,0.358855754137,0.268868207932,0.0
1449618711066591084,30,1449618711064108557,odom,0.534462630749,0.0162500813603,0.0,0.392938196659,-0.253371566534,0.0,-0.476624548435,-0.280949562788,0.0,-0.49342495203,0.248784095049,0.0,0.376137822866,0.276362091303,0.0
1449618711532118861,31,1449618711528908865,odom,0.591574132442,0.028880879283,0.0,0.455779641867,-0.24367159605,0.0,-0.413006037474,-0.289621204138,0.0,-0.440998345613,0.239639043808,0.0,0.427787333727,0.285588651896,0.0
1449618711728214111,32,1449618711726186716,odom,0.69188028574,0.0401494763792,0.0,0.558973670006,-0.233822837472,0.0,-0.309277921915,-0.288951098919,0.0,-0.342861801386,0.239983797073,0.0,0.525389790535,0.295112043619,0.0
1449618712038044840,33,1449618712028469558,odom,0.743581056595,0.0438895523548,0.0,0.610674440861,-0.230082765222,0.0,-0.25757715106,-0.285211026669,0.0,-0.291161030531,0.243723869324,0.0,0.57709056139,0.29885211587,0.0
1449618712207666644,34,1449618712206228509,odom,0.818297624588,0.0487250462174,0.0,0.685391008854,-0.225247263908,0.0,-0.182860553265,-0.280375510454,0.0,-0.216444432735,0.248559370637,0.0,0.651807129383,0.303687602282,0.0
1449618712398704582,35,1449618712398350496,odom,0.862167954445,0.0355631224811,0.0,0.720643520355,-0.234058529139,0.0,-0.14891923964,-0.261636525393,0.0,-0.165719613433,0.268097132444,0.0,0.70384311676,0.295675128698,0.0
1449618712947036275,36,1449618712944990999,odom,1.00984013081,-0.0285212229937,0.0,0.835351228714,-0.278078109026,0.0,-0.0307165235281,-0.195454999804,0.0,0.0196170974523,0.332149505615,0.0,0.885684847832,0.249526396394,0.0
1449618713395670680,37,1449618713386935735,odom,1.05535042286,-0.0596437528729,0.0,0.867924630642,-0.299636572599,0.0,0.00742943491787,-0.17138685286,0.0,0.0855585858226,0.352822870016,0.0,0.946053743362,0.224573135376,0.0
1449618713570604804,38,1449618713560134744,odom,1.14531230927,-0.123998254538,0.0,0.935941696167,-0.345106720924,0.0,0.0915155336261,-0.135716184974,0.0,0.219075277448,0.378704369068,0.0,1.06350147724,0.169313833117,0.0
1449618713842554843,39,1449618713841780651,odom,1.19001495838,-0.157235994935,0.0,0.971487402916,-0.369298994541,0.0,0.136664330959,-0.124410420656,0.0,0.285849332809,0.384159952402,0.0,1.12067234516,0.139271363616,0.0
1449618714320010456,40,1449618714317005267,odom,1.22772753239,-0.190769866109,0.0,1.00043356419,-0.393408536911,0.0,0.176705211401,-0.113459438086,0.0,0.347248911858,0.388352125883,0.0,1.17097735405,0.108403004706,0.0
1449618714717626124,41,1449618714717158431,odom,1.2756061554,-0.235649004579,0.0,1.03792691231,-0.42600017786,0.0,0.230133965611,-0.102936044335,0.0,0.426943153143,0.38916772604,0.0,1.23473608494,0.0661036074162,0.0
1449618715025189324,42,1449618715023710881,odom,1.33656334877,-0.283644258976,0.0,1.09105229378,-0.463781148195,0.0,0.297633498907,-0.106868609786,0.0,0.515062987804,0.376478493214,0.0,1.30848181248,0.0195659380406,0.0
1449618715453768098,43,1449618715452882141,odom,1.43691527843,-0.354232281446,0.0,1.18401098251,-0.523833036423,0.0,0.406383991241,-0.133709773421,0.0,0.644045293331,0.340017020702,0.0,1.42167234421,-0.0501062348485,0.0
1449618715785481564,44,1449618715783974886,odom,1.49871778488,-0.39152559638,0.0,1.24403524399,-0.558444261551,0.0,0.470574468374,-0.160124912858,0.0,0.71322876215,0.311063885689,0.0,1.48668956757,-0.0872554406524,0.0
1449618716173812741,45,1449618716170695625,odom,1.61573815346,-0.471915870905,0.0,1.35589253902,-0.630677521229,0.0,0.595446646214,-0.20804053545,0.0,0.852915108204,0.255219608545,0.0,1.61336100101,-0.167417347431,0.0
1449618716333168255,46,1449618716332636133,odom,1.67129135132,-0.502373158932,0.0,1.41144573689,-0.661134779453,0.0,0.650999844074,-0.238497808576,0.0,0.908468306065,0.22476233542,0.0,1.66891419888,-0.197874620557,0.0
1449618716524056626,47,1449618716521740945,odom,1.73183166981,-0.529729187489,0.0,1.47367835045,-0.691227972507,0.0,0.708808600903,-0.276650875807,0.0,0.961367070675,0.189304277301,0.0,1.72623682022,-0.225272804499,0.0
1449618716755405959,48,1449618716753438691,odom,1.77733778954,-0.548451662064,0.0,1.52090549469,-0.712669551373,0.0,0.751697301865,-0.306198656559,0.0,0.999317526817,0.162399500608,0.0,1.76852571964,-0.244071409106,0.0
1449618716995732466,49,1449618716994975268,odom,1.8178756237,-0.564135730267,0.0,1.56319308281,-0.731054365635,0.0,0.789732277393,-0.332735061646,0.0,1.03238666058,0.138453736901,0.0,1.80584740639,-0.259865581989,0.0
1449618717251178674,50,1449618717249612637,odom,1.92489290237,-0.587480843067,0.0,1.67938184738,-0.767617702484,0.0,0.885963022709,-0.410705178976,0.0,1.1033924818,0.072641916573,0.0,1.89681136608,-0.284270614386,0.0
1449618717521587459,51,1449618717518617131,odom,1.97597515583,-0.592641174793,0.0,1.73629748821,-0.780469954014,0.0,0.931963741779,-0.448887199163,0.0,1.13396239281,0.0411092378199,0.0,1.93829619884,-0.290473490953,0.0
1449618717799249260,52,1449618717776284854,odom,2.10900640488,-0.597456037998,0.0,1.88604593277,-0.804853260517,0.0,1.05658495426,-0.542375743389,0.0,1.2164850235,-0.0370719358325,0.0,2.0459458828,-0.299549400806,0.0
1449618718105876906,53,1449618718099986823,odom,2.174233675,-0.589431941509,0.0,1.96253812313,-0.808315455914,0.0,1.12037193775,-0.590012848377,0.0,1.2533608675,-0.0769690647721,0.0,2.09552693367,-0.295271664858,0.0
1449618718447532045,54,1449618718447053996,odom,2.30289506912,-0.563441991806,0.0,2.1154692173,-0.803434789181,0.0,1.25497400761,-0.675185084343,0.0,1.33310317993,-0.150975361466,0.0,2.19359827042,-0.279225081205,0.0
1449618718830045633,55,1449618718828279029,odom,2.41274023056,-0.539486408234,0.0,2.24356460571,-0.792675256729,0.0,1.37594401836,-0.728374540806,0.0,1.41511571407,-0.199824109674,0.0,2.28273630142,-0.264124840498,0.0
1449618719080220078,56,1449618719077503296,odom,2.46285367012,-0.516223371029,0.0,2.30728650093,-0.77799397707,0.0,1.4374808073,-0.759606957436,0.0,1.44868218899,-0.22972536087,0.0,2.31848788261,-0.248112395406,0.0
1449618719375401673,57,1449618719374580874,odom,2.5032749176,-0.506413578987,0.0,2.35327482224,-0.771413564682,0.0,1.48327493668,-0.771413564682,0.0,1.48327493668,-0.24141356349,0.0,2.35327482224,-0.24141356349,0.0
1449618719668399267,58,1449618719667883634,odom,2.54577970505,-0.479784101248,0.0,2.40998506546,-0.75233656168,0.0,1.54119944572,-0.79828619957,0.0,1.51320719719,-0.269025951624,0.0,2.38199281693,-0.223076328635,0.0
1449618719955688270,59,1449618719951965745,odom,2.58536887169,-0.467074394226,0.0,2.45536494255,-0.742435932159,0.0,1.58774447441,-0.806736648083,0.0,1.5485727787,-0.278186231852,0.0,2.41619324684,-0.213885501027,0.0
1449618720258918587,60,1449618720257684517,odom,2.62930727005,-0.442501395941,0.0,2.51105618477,-0.723110854626,0.0,1.64692807198,-0.824019432068,0.0,1.58545506001,-0.29759657383,0.0,2.44958305359,-0.196687981486,0.0
1449618720482793498,61,1449618720478766973,odom,2.6623032093,-0.428067117929,0.0,2.55000901222,-0.711113095284,0.0,1.68820655346,-0.830262064934,0.0,1.61562156677,-0.3052559793,0.0,2.47742414474,-0.186106994748,0.0
1449618720715854921,62,1449618720711875139,odom,2.67370939255,-0.426459401846,0.0,2.56141543388,-0.7095053792,0.0,1.69961297512,-0.82865434885,0.0,1.62702786922,-0.303648263216,0.0,2.48883032799,-0.184499293566,0.0
1449618720898121200,63,1449618720888004190,odom,2.67583656311,-0.421013772488,0.0,2.56654000282,-0.705230653286,0.0,1.70604467392,-0.833480417728,0.0,1.6279156208,-0.309270679951,0.0,2.48841071129,-0.181020945311,0.0
1449618721101202201,64,1449618721097968779,odom,2.67583656311,-0.421013772488,0.0,2.56654000282,-0.705230653286,0.0,1.70604467392,-0.833480417728,0.0,1.6279156208,-0.309270679951,0.0,2.48841071129,-0.181020945311,0.0
1449618721269389384,65,1449618721268735742,odom,2.67583656311,-0.421013772488,0.0,2.56654000282,-0.705230653286,0.0,1.70604467392,-0.833480417728,0.0,1.6279156208,-0.309270679951,0.0,2.48841071129,-0.181020945311,0.0
1449618721536423994,66,1449618721535508346,odom,2.67583656311,-0.421013772488,0.0,2.56654000282,-0.705230653286,0.0,1.70604467392,-0.833480417728,0.0,1.6279156208,-0.309270679951,0.0,2.48841071129,-0.181020945311,0.0
1449618721699731536,67,1449618721694669834,odom,2.68359804153,-0.414666861296,0.0,2.57731103897,-0.700022935867,0.0,1.71821916103,-0.837359070778,0.0,1.63455462456,-0.314004272223,0.0,2.49364638329,-0.176668122411,0.0
1449618721862115376,68,1449618721859546459,odom,2.69892287254,-0.401758730412,0.0,2.59869027138,-0.689297378063,0.0,1.74269294739,-0.844759345055,0.0,1.64798629284,-0.3232896626,0.0,2.50398373604,-0.167827680707,0.0
1449618722248521954,69,1449618722247387510,odom,2.71963810921,-0.387500405312,0.0,2.62550520897,-0.677093148232,0.0,1.77298462391,-0.850611507893,0.0,1.66727805138,-0.331259906292,0.0,2.51979851723,-0.157741546631,0.0
1449618722412324130,70,1449618722412140567,odom,2.77699899673,-0.353913843632,0.0,2.69518828392,-0.647225916386,0.0,1.85076212883,-0.856616437435,0.0,1.72320234776,-0.342195928097,0.0,2.56762838364,-0.132805392146,0.0
1449618722612137662,71,1449618722607072462,odom,2.79673147202,-0.338224172592,0.0,2.72113776207,-0.633199810982,0.0,1.88132560253,-0.860390067101,0.0,1.74292230606,-0.348780363798,0.0,2.58273458481,-0.121590062976,0.0
1449618722698765014,72,1449618722691988104,odom,2.82723093033,-0.319054216146,0.0,2.75788831711,-0.6155616045,0.0,1.92306530476,-0.860450148582,0.0,1.77388036251,-0.351879805326,0.0,2.60870337486,-0.10699121654,0.0
1449618722856492363,73,1449618722856083452,odom,2.8584446907,-0.293343663216,0.0,2.79853582382,-0.591900110245,0.0,1.97189509869,-0.8631285429,0.0,1.80666399002,-0.35954272747,0.0,2.63330483437,-0.0883142948151,0.0
1449618723085683265,74,1449618723085302785,odom,2.90422844887,-0.266972333193,0.0,2.85064291954,-0.566728234291,0.0,2.02991890907,-0.855366706848,0.0,1.85408174992,-0.355385482311,0.0,2.67480564117,-0.0667469650507,0.0
1449618723462112876,75,1449618723461717683,odom,2.98716711998,-0.225404947996,0.0,2.93992877007,-0.526226401329,0.0,2.12548828125,-0.832146048546,0.0,1.93912351131,-0.335992693901,0.0,2.75356388092,-0.0300730466843,0.0
1449618723573149598,76,1449618723566935810,odom,3.01412582397,-0.215278670192,0.0,2.96688771248,-0.516100108624,0.0,2.15244722366,-0.82201975584,0.0,1.96608233452,-0.325866430998,0.0,2.78052282333,-0.0199467781931,0.0
1449618723643497007,77,1449618723643036851,odom,3.04647660255,-0.203127145767,0.0,2.99923825264,-0.503948569298,0.0,2.18479776382,-0.809868216515,0.0,1.99843299389,-0.313714921474,0.0,2.81287336349,-0.00779525516555,0.0
1449618723873142853,78,1449618723872369451,odom,3.09042191505,-0.180974259973,0.0,3.04636526108,-0.482278108597,0.0,2.23520326614,-0.796787559986,0.0,2.04360556602,-0.302631407976,0.0,2.85476756096,0.0118780443445,0.0
1449618724141045629,79,1449618724133161142,odom,3.1333823204,-0.164317294955,0.0,3.08932566643,-0.465621143579,0.0,2.27816367149,-0.780130624771,0.0,2.08656597137,-0.285974442959,0.0,2.89772796631,0.0285350047052,0.0
1449618724563641256,80,1449618724561533036,odom,3.17705774307,-0.141616284847,0.0,3.13618755341,-0.443368881941,0.0,2.32839465141,-0.766433000565,0.0,2.13158535957,-0.27432924509,0.0,2.93937849998,0.0487348884344,0.0
1449618724646243189,81,1449618724639276532,odom,3.24711489677,-0.107479244471,0.0,3.20943617821,-0.409646898508,0.0,2.40510225296,-0.741229653358,0.0,2.20310354233,-0.251233190298,0.0,3.00743746758,0.0803495422006,0.0
1449618724830441699,82,1449618724830030183,odom,3.26837921143,-0.0986144244671,0.0,3.23070025444,-0.400782078505,0.0,2.42636656761,-0.732364833355,0.0,2.22436785698,-0.242368370295,0.0,3.02870154381,0.0892143622041,0.0
1449618724948347047,83,1449618724945197582,odom,3.31680750847,-0.0726037546992,0.0,3.2823240757,-0.375152736902,0.0,2.48153924942,-0.71521705389,0.0,2.27437376976,-0.22738263011,0.0,3.07515835762,0.112681664526,0.0
1449618725071449486,84,1449618725070882688,odom,3.34331440926,-0.0613472573459,0.0,3.30883097649,-0.363896250725,0.0,2.50804615021,-0.70396053791,0.0,2.30088043213,-0.216126129031,0.0,3.10166525841,0.123938158154,0.0
1449618725241776296,85,1449618725241254139,odom,3.39102673531,-0.0410855710506,0.0,3.35654306412,-0.343634545803,0.0,2.55575847626,-0.683698832989,0.0,2.34859275818,-0.195864453912,0.0,3.14937758446,0.144199848175,0.0
1449618725440573127,86,1449618725440183415,odom,3.44287443161,-0.0308496188372,0.0,3.40200424194,-0.332602232695,0.0,2.59421133995,-0.655666351318,0.0,2.39740204811,-0.163562580943,0.0,3.20519518852,0.159501552582,0.0
1449618725658913778,87,1449618725658689351,odom,3.48946809769,-0.0235670786351,0.0,3.44222974777,-0.324388504028,0.0,2.62778925896,-0.630308151245,0.0,2.44142436981,-0.134154841304,0.0,3.25586485863,0.171764820814,0.0
1449618725841304677,88,1449618725838895638,odom,3.54511642456,-0.0255680046976,0.0,3.4852077961,-0.32412442565,0.0,2.65856695175,-0.595352888107,0.0,2.49333572388,-0.091767065227,0.0,3.31997656822,0.179461374879,0.0
1449618726048400226,89,1449618726046544520,odom,3.60616540909,-0.0283269546926,0.0,3.5336933136,-0.324084967375,0.0,2.69632911682,-0.560137569904,0.0,2.55252695084,-0.0500190407038,0.0,3.38989114761,0.186033576727,0.0
1449618726248904757,90,1449618726248494176,odom,3.66553688049,-0.0398896075785,0.0,3.57754516602,-0.331407159567,0.0,2.72888231277,-0.522904336452,0.0,2.61222314835,-0.00590279791504,0.0,3.46088600159,0.185594409704,0.0
1449618726442411557,91,1449618726442117508,odom,3.72220611572,-0.060091573745,0.0,3.61591911316,-0.34544762969,0.0,2.75682735443,-0.482783764601,0.0,2.67316269875,0.0405710116029,0.0,3.53225445747,0.177907168865,0.0
1449618726655598220,92,1449618726655400356,odom,3.77065181732,-0.0740908607841,0.0,3.65240073204,-0.35470032692,0.0,2.78827261925,-0.455608934164,0.0,2.72679948807,0.0708139538765,0.0,3.59092760086,0.17172254622,0.0
1449618726855066257,93,1449618726854695438,odom,3.8127219677,-0.0905809029937,0.0,3.68271803856,-0.365942448378,0.0,2.81509757042,-0.430243194103,0.0,2.77592563629,0.0983072519302,0.0,3.64354634285,0.162607982755,0.0
1449618727058152022,94,1449618727057905025,odom,3.85674738884,-0.103612735868,0.0,3.71808004379,-0.374714940786,0.0,2.8488574028,-0.411480784416,0.0,2.82645964622,0.118045732379,0.0,3.69568252563,0.15481159091,0.0
1449618727261628437,95,1449618727261149736,odom,3.90033602715,-0.11797272414,0.0,3.75314474106,-0.384543091059,0.0,2.88319349289,-0.393737137318,0.0,2.87759232521,0.136233270168,0.0,3.7475438118,0.145427301526,0.0
1449618727455336876,96,1449618727451456895,odom,3.94355940819,-0.122984424233,0.0,3.79355931282,-0.387984424829,0.0,2.92355942726,-0.387984424829,0.0,2.92355942726,0.142015576363,0.0,3.79355931282,0.142015576363,0.0
1449618727644368736,97,1449618727643925904,odom,3.99248623848,-0.128574356437,0.0,3.83969402313,-0.391974389553,0.0,2.96974277496,-0.382780343294,0.0,2.97534370422,0.147190049291,0.0,3.84529519081,0.137996017933,0.0
1449618727858401829,98,1449618727857780496,odom,4.03856039047,-0.129061296582,0.0,3.88576817513,-0.392461299896,0.0,3.01581692696,-0.38326728344,0.0,3.02141785622,0.146703109145,0.0,3.89136910439,0.137509077787,0.0
1449618728059304326,99,1449618728059053059,odom,4.08754253387,-0.124171324074,0.0,3.93754267693,-0.389171302319,0.0,3.06754279137,-0.389171302319,0.0,3.06754279137,0.140828669071,0.0,3.93754267693,0.140828669071,0.0
1449618728259880787,100,1449618728259118387,odom,4.14199972153,-0.10758651793,0.0,4.00047540665,-0.377208173275,0.0,3.13091254234,-0.404786169529,0.0,3.11411213875,0.124947488308,0.0,3.98367476463,0.152525469661,0.0
1449618728456469144,101,1449618728456194100,odom,4.19591379166,-0.08949662745,0.0,4.06300735474,-0.363468945026,0.0,3.1947555542,-0.418597191572,0.0,3.16117167473,0.110337689519,0.0,4.02942323685,0.165465950966,0.0
1449618728665271407,102,1449618728664900335,odom,4.24582910538,-0.0646908059716,0.0,4.12461948395,-0.344034969807,0.0,3.2594730854,-0.435805916786,0.0,3.20356655121,0.0912371948361,0.0,4.06871271133,0.183008164167,0.0
1449618728850964639,103,1449618728848273885,odom,4.29825305939,-0.0426356829703,0.0,4.18595933914,-0.325681656599,0.0,3.32415676117,-0.444830656052,0.0,3.25157165527,0.0801754519343,0.0,4.11337423325,0.199324429035,0.0
1449618729056747471,104,1449618729056057112,odom,4.34234476089,-0.00922714080662,0.0,4.24515676498,-0.297808945179,0.0,3.39085006714,-0.462308317423,0.0,3.29063773155,0.0581314079463,0.0,4.14494419098,0.222630754113,0.0
1449618729249887264,105,1449618729249233519,odom,4.3887219429,0.0216926373541,0.0,4.30381631851,-0.270738512278,0.0,3.45722436905,-0.47119358182,0.0,3.33510804176,0.0445462837815,0.0,4.18169975281,0.245001345873,0.0
1449618729491930572,106,1449618729491182483,odom,4.43370437622,0.0547210983932,0.0,4.36123228073,-0.241036906838,0.0,3.52386784554,-0.477089524269,0.0,3.38006567955,0.0330290161073,0.0,4.21743011475,0.269081652164,0.0
1449618729651452905,107,1449618729651258649,odom,4.46735191345,0.0920000746846,0.0,4.41060161591,-0.20717279613,0.0,3.58687329292,-0.487121909857,0.0,3.41632962227,0.0146896466613,0.0,4.24005794525,0.294638752937,0.0
1449618729879384734,108,1449618729872584180,odom,4.50370502472,0.126839384437,0.0,4.45964813232,-0.174464464188,0.0,3.64848637581,-0.488973915577,0.0,3.45688867569,0.00518223643303,0.0,4.26805067062,0.319691687822,0.0
1449618730064753153,109,1449618730064592159,odom,4.53900766373,0.169284000993,0.0,4.51092624664,-0.133926197886,0.0,3.71750736237,-0.490838736296,0.0,3.50007772446,-0.0074916491285,0.0,4.29349660873,0.349420905113,0.0
1449618730244194697,110,1449618730241171490,odom,4.57189893723,0.2137799263,0.0,4.55987071991,-0.0904902145267,0.0,3.78641009331,-0.488809555769,0.0,3.54375576973,-0.0176207553595,0.0,4.31721639633,0.380698561668,0.0
1449618730455715216,111,1449618730453499259,odom,4.59717702866,0.263131171465,0.0,4.60445356369,-0.0412896685302,0.0,3.85778689384,-0.487819492817,0.0,3.5857629776,-0.0329536087811,0.0,4.33242940903,0.413576215506,0.0
1449618730654734400,112,1449618730653719161,odom,4.62400484085,0.317272871733,0.0,4.65055656433,0.0139248752967,0.0,3.93368506432,-0.47902071476,0.0,3.63338494301,-0.0423059687018,0.0,4.35025644302,0.450639635324,0.0
1449618730841630219,113,1449618730839634660,odom,4.6428027153,0.36947414279,0.0,4.6885228157,0.068418212235,0.0,4.00432777405,-0.468961894512,0.0,3.67695832253,-0.0521535240114,0.0,4.36115312576,0.48522657156,0.0
1449618731044410086,114,1449618731044059406,odom,4.65829324722,0.42271476984,0.0,4.72299814224,0.125160932541,0.0,4.07422971725,-0.454493790865,0.0,3.72110676765,-0.0592670962214,0.0,4.36987495422,0.520387649536,0.0
1449618731242415317,115,1449618731242069566,odom,4.67452955246,0.480823546648,0.0,4.75795888901,0.187967777252,0.0,4.14722490311,-0.43163177371,0.0,3.76976752281,-0.059575278312,0.0,4.38050174713,0.560024261475,0.0
1449618731435462679,116,1449618731435026140,odom,4.68926763535,0.534056544304,0.0,4.78804826736,0.246015936136,0.0,4.2108912468,-0.404975175858,0.0,3.81431031227,-0.0533736050129,0.0,4.39146757126,0.597617506981,0.0
1449618731635900278,117,1449618731635477128,odom,4.71342325211,0.585430502892,0.0,4.82128477097,0.300665855408,0.0,4.26505327225,-0.36829328537,0.0,3.85752630234,-0.0294395741075,0.0,4.41375780106,0.639519572258,0.0
1449618731838325961,118,1449618731837430160,odom,4.73330879211,0.643214464188,0.0,4.85310792923,0.363262414932,0.0,4.32564306259,-0.328605294228,0.0,3.90416026115,-0.0072761955671,0.0,4.43162488937,0.684591472149,0.0
1449618732044060385,119,1449618732043433080,odom,4.75989961624,0.695227861404,0.0,4.88558864594,0.41787019372,0.0,4.37286424637,-0.284990668297,0.0,3.94468450546,0.0273588187993,0.0,4.45740938187,0.730219662189,0.0
1449618732230988470,120,1449618732229964678,odom,4.78491592407,0.748128592968,0.0,4.91643857956,0.473489284515,0.0,4.4186835289,-0.240050792694,0.0,3.98399806023,0.0631795525551,0.0,4.4817533493,0.776719629765,0.0
1449618732456601744,121,1449618732456271307,odom,4.81200408936,0.806339681149,0.0,4.94930171967,0.534541368484,0.0,4.46673774719,-0.189359158278,0.0,4.02574110031,0.104616589844,0.0,4.50830507278,0.828517138958,0.0
1449618732640175067,122,1449618732639939259,odom,4.83442926407,0.860464274883,0.0,4.97744083405,0.591628372669,0.0,4.51028394699,-0.142309218645,0.0,4.06317234039,0.142280608416,0.0,4.53032922745,0.87621819973,0.0
1449618732899211829,123,1449618732895533528,odom,4.8557062149,0.915050685406,0.0,5.00436735153,0.649297356606,0.0,4.55282592773,-0.0943494588137,0.0,4.09979963303,0.180727317929,0.0,4.55134105682,0.924374103546,0.0
1449618733089616729,124,1449618733085868251,odom,4.87606143951,0.969937562943,0.0,5.03030586243,0.707385480404,0.0,4.59458208084,-0.0456383377314,0.0,4.13584375381,0.219802498817,0.0,4.57156705856,0.972826302052,0.0
1449618733388257752,125,1449618733387880450,odom,4.88638830185,1.02023112774,0.0,5.0488781929,0.762700259686,0.0,4.63724327087,-0.00375703233294,0.0,4.1703209877,0.247008934617,0.0,4.58195590973,1.01346623898,0.0
1449618733498069730,126,1449618733497373653,odom,4.91289615631,1.08114516735,0.0,5.07809829712,0.825345933437,0.0,4.67458629608,0.0545812956989,0.0,4.20503997803,0.300398886204,0.0,4.60855197906,1.07116353512,0.0
1449618733704635818,127,1449618733704016922,odom,4.9228925705,1.11163640022,0.0,5.09078884125,0.857597231865,0.0,4.69544458389,0.0826114043593,0.0,4.22332715988,0.323453187943,0.0,4.6186709404,1.0984389782,0.0
1449618734064654645,128,1449618734064356570,odom,4.94456148148,1.17804527283,0.0,5.11778926849,0.927611231804,0.0,4.7389125824,0.14444309473,0.0,4.26181030273,0.375253081322,0.0,4.64068698883,1.158421278,0.0
1449618734115399341,129,1449618734114493514,odom,4.96083688736,1.22452330589,0.0,5.13670158386,0.975933909416,0.0,4.76612234116,0.188805609941,0.0,4.28660726547,0.414560765028,0.0,4.65718650818,1.20168912411,0.0
1449618734232641034,130,1449618734232423054,odom,4.96702766418,1.25022435188,0.0,5.14550924301,1.00350737572,0.0,4.78326892853,0.212506830692,0.0,4.30139493942,0.433181941509,0.0,4.66363525391,1.22418248653,0.0
1449618734473613435,131,1449618734472785955,odom,4.9704117775,1.29591178894,0.0,5.15662479401,1.05497646332,0.0,4.81964015961,0.252890825272,0.0,4.33101320267,0.458180189133,0.0,4.66799783707,1.26026582718,0.0
1449618734661536037,132,1449618734660668253,odom,4.97457695007,1.34699296951,0.0,5.16833353043,1.1120814085,0.0,4.85694360733,0.299716830254,0.0,4.36205482483,0.489414125681,0.0,4.67344474792,1.30177879333,0.0
1449618734843053510,133,1449618734842624887,odom,4.97689151764,1.39826333523,0.0,5.17799711227,1.16961181164,0.0,4.89251470566,0.347784698009,0.0,4.39186143875,0.521699309349,0.0,4.67734384537,1.34352636337,0.0
1449618735040135513,134,1449618735038751634,odom,4.96740007401,1.45264852047,0.0,5.18030166626,1.23493754864,0.0,4.93862295151,0.399179577827,0.0,4.42948293686,0.546409070492,0.0,4.67116165161,1.38216710091,0.0
1449618735248959145,135,1449618735245876257,odom,4.96098995209,1.50799202919,0.0,5.18290138245,1.29947268963,0.0,4.97675704956,0.454248070717,0.0,4.46185016632,0.579829990864,0.0,4.66799402237,1.42505455017,0.0
1449618735466026826,136,1449618735465531404,odom,4.94043540955,1.55939733982,0.0,5.17511367798,1.36535859108,0.0,5.02294254303,0.508770108223,0.0,4.50111246109,0.601472198963,0.0,4.65328407288,1.45806062222,0.0
1449618735676099728,137,1449618735675814037,odom,4.92226648331,1.61163234711,0.0,5.16686582565,1.43025922775,0.0,5.06014823914,0.566829264164,0.0,4.53415060043,0.631841123104,0.0,4.64086818695,1.49527108669,0.0
1449618735948223789,138,1449618735946297489,odom,4.89515161514,1.65459227562,0.0,5.15075206757,1.48908281326,0.0,5.09896087646,0.620625734329,0.0,4.5699005127,0.652176737785,0.0,4.62169218063,1.52063369751,0.0
1449618736088399709,139,1449618736087039398,odom,4.865711689,1.70149791241,0.0,5.13128614426,1.55251741409,0.0,5.13462924957,0.682523906231,0.0,4.6046333313,0.680487155914,0.0,4.60129022598,1.55048072338,0.0
1449618736312139255,140,1449618736303761166,odom,4.83371543884,1.74069666862,0.0,5.10819625854,1.60884392262,0.0,5.16666078568,0.740810632706,0.0,4.63785886765,0.705194354057,0.0,4.57939434052,1.57322764397,0.0
1449618736485925834,141,1449618736482029469,odom,4.79293632507,1.78564345837,0.0,5.07641172409,1.67443788052,0.0,5.19887161255,0.813099682331,0.0,4.67414855957,0.738497614861,0.0,4.55168819427,1.59983587265,0.0
1449618736701884202,142,1449618736701283390,odom,4.76052951813,1.82396364212,0.0,5.04948282242,1.72788524628,0.0,5.21726369858,0.874217033386,0.0,4.69721317291,0.772005558014,0.0,4.52943181992,1.6256737709,0.0
1449618736911487304,143,1449618736910944883,odom,4.73075151443,1.86461257935,0.0,5.02350664139,1.78083097935,0.0,5.22721338272,0.935015797615,0.0,4.71194696426,0.810918450356,0.0,4.50823974609,1.65673363209,0.0
1449618737151171428,144,1449618737143121383,odom,4.69177103043,1.9107837677,0.0,4.98854255676,1.84258127213,0.0,5.23663759232,1.00870537758,0.0,4.72864437103,0.857567131519,0.0,4.48054933548,1.69144296646,0.0
1449618737332033272,145,1449618737330087243,odom,4.66248178482,1.95288515091,0.0,4.9612660408,1.89412415028,0.0,5.23566913605,1.06853175163,0.0,4.73272180557,0.901366591454,0.0,4.45831871033,1.7269589901,0.0
1449618737499127622,146,1449618737498525008,odom,4.64373445511,1.99214446545,0.0,4.94312334061,1.93654429913,0.0,5.22623586655,1.11389791965,0.0,4.72508335114,0.941426992416,0.0,4.4419708252,1.7640734911,0.0
1449618737748173701,147,1449618737747685757,odom,4.62859678268,2.03566288948,0.0,4.92798566818,1.98006284237,0.0,5.21109819412,1.15741634369,0.0,4.70994567871,0.984945476055,0.0,4.42683315277,1.80759191513,0.0
1449618737925771311,148,1449618737919103211,odom,4.62545061111,2.07710170746,0.0,4.92359733582,2.01518630981,0.0,5.18926048279,1.1867402792,0.0,4.68457508087,1.02489948273,0.0,4.4189119339,1.85334563255,0.0
1449618738118325904,149,1449618738116355597,odom,4.62145137787,2.1240901947,0.0,4.91822290421,2.05588769913,0.0,5.16631793976,1.22201180458,0.0,4.65832471848,1.07087349892,0.0,4.41022968292,1.90474927425,0.0
1449618738331687795,150,1449618738330341457,odom,4.63330030441,2.17796683311,0.0,4.92605543137,2.09418535233,0.0,5.12976264954,1.24837005138,0.0,4.61449575424,1.12427270412,0.0,4.41078853607,1.97008788586,0.0
1449618738493620316,151,1449618738493170008,odom,4.6536450386,2.22924089432,0.0,4.94050264359,2.12707710266,0.0,5.09020471573,1.27005362511,0.0,4.56810998917,1.178855896,0.0,4.41840791702,2.03587937355,0.0
1449618738701508157,152,1449618738701282991,odom,4.67145252228,2.28134608269,0.0,4.9525141716,2.1641740799,0.0,5.05674266815,1.30044019222,0.0,4.53056001663,1.23694455624,0.0,4.42633152008,2.10067844391,0.0
1449618738903961825,153,1449618738903488810,odom,4.69339704514,2.32100582123,0.0,4.96787834167,2.18915295601,0.0,5.02634239197,1.32111954689,0.0,4.49754047394,1.28550326824,0.0,4.43907642365,2.15353655815,0.0
1449618739121858399,154,1449618739118074154,odom,4.70686864853,2.35918331146,0.0,4.9770321846,2.2186961174,0.0,5.00795173645,1.34924578667,0.0,4.47828626633,1.33040988445,0.0,4.44736719131,2.19986009598,0.0
1449618739329144701,155,1449618739323404989,odom,4.72684049606,2.39402937889,0.0,4.99082565308,2.24225068092,0.0,4.98497486115,1.3722704649,0.0,4.45498657227,1.37583470345,0.0,4.4608373642,2.24581503868,0.0
1449618739564726708,156,1449618739564411779,odom,4.73229980469,2.41988348961,0.0,4.99466657639,2.2653234005,0.0,4.97962188721,1.39545357227,0.0,4.4497013092,1.40461850166,0.0,4.46474552155,2.2744884491,0.0
1449618739797070503,157,1449618739789440484,odom,4.73796319962,2.43991875648,0.0,4.99868154526,2.28259468079,0.0,4.97444581985,1.41293239594,0.0,4.44465112686,1.42769694328,0.0,4.4688873291,2.29735922813,0.0
1449618739934517400,158,1449618739933004212,odom,4.74358606339,2.45413899422,0.0,5.00262784958,2.29406857491,0.0,4.96920251846,1.42471086979,0.0,4.43959379196,1.44507336617,0.0,4.47301912308,2.31443095207,0.0
1449618740109580989,159,1449618740109216930,odom,4.74405908585,2.4656484127,0.0,5.0031003952,2.30557775497,0.0,4.96967554092,1.43622016907,0.0,4.44006681442,1.45658266544,0.0,4.47349214554,2.32594037056,0.0
1449618740329667803,160,1449618740328112424,odom,4.74450159073,2.47715902328,0.0,5.00354337692,2.31708836555,0.0,4.97011804581,1.44773089886,0.0,4.44050931931,1.46809339523,0.0,4.47393465042,2.33745098114,0.0
1449618740524685056,161,1449618740523830261,odom,4.74494457245,2.48866963387,0.0,5.00398588181,2.32859921455,0.0,4.97056055069,1.45924150944,0.0,4.44095182419,1.47960400581,0.0,4.4743771553,2.34896159172,0.0
1449618740676769934,162,1449618740674951510,odom,4.74014568329,2.49747276306,0.0,5.00086402893,2.34014868736,0.0,4.97662782669,1.47048640251,0.0,4.44683361053,1.48525094986,0.0,4.47106981277,2.35491323471,0.0
1449618740901777501,163,1449618740897722351,odom,4.74554729462,2.50593757629,0.0,5.00458860397,2.34586715698,0.0,4.97116374969,1.47650957108,0.0,4.44155502319,1.49687206745,0.0,4.47497987747,2.36622977257,0.0
1449618741100507391,164,1449618741099809710,odom,4.74077892303,2.51473975182,0.0,5.00149774551,2.35741567612,0.0,4.97726154327,1.48775339127,0.0,4.44746732712,1.50251793861,0.0,4.47170305252,2.37218022346,0.0
1449618741290817866,165,1449618741290537004,odom,4.74113035202,2.52625346184,0.0,5.00184869766,2.36892938614,0.0,4.97761249542,1.49926710129,0.0,4.44781827927,1.51403164864,0.0,4.47205448151,2.38369393349,0.0
1449618741500712747,166,1449618741494999167,odom,4.7364988327,2.54652142525,0.0,4.9988656044,2.39196133614,0.0,4.98382091522,1.52209150791,0.0,4.45390033722,1.5312564373,0.0,4.46894454956,2.40112638474,0.0
1449618741702530307,167,1449618741701899318,odom,4.73164510727,2.56097960472,0.0,4.99563026428,2.40920090675,0.0,4.98977947235,1.53922057152,0.0,4.45979166031,1.54278481007,0.0,4.46564245224,2.41276502609,0.0
1449618741892598951,168,1449618741889946087,odom,4.73179197311,2.57825756073,0.0,4.99577713013,2.42647886276,0.0,4.9899263382,1.55649852753,0.0,4.45993804932,1.56006276608,0.0,4.46578884125,2.43004322052,0.0
1449618742082251768,169,1449618742081856160,odom,4.72669410706,2.59266376495,0.0,4.99226856232,2.44368314743,0.0,4.99561214447,1.57368957996,0.0,4.4656162262,1.57165288925,0.0,4.46227264404,2.44164633751,0.0
1449618742346808755,170,1449618742343534035,odom,4.72656679153,2.60994172096,0.0,4.9921412468,2.46096134186,0.0,4.99548482895,1.59096777439,0.0,4.46548891068,1.58893096447,0.0,4.46214532852,2.45892453194,0.0
1449618742496227237,171,1449618742495669062,odom,4.72125673294,2.62429237366,0.0,4.98839044571,2.4781267643,0.0,5.00092792511,1.60821712017,0.0,4.47098302841,1.6005795002,0.0,4.45844554901,2.47048926353,0.0
1449618742681880326,172,1449618742681647243,odom,4.71582555771,2.63858699799,0.0,4.98448896408,2.49525237083,0.0,5.00621843338,1.62552392483,0.0,4.4763841629,1.61228644848,0.0,4.4546546936,2.48201489449,0.0
1449618742916947433,173,1449618742915407693,odom,4.71047830582,2.6470682621,0.0,4.98064184189,2.50658106804,0.0,5.01156139374,1.6371306181,0.0,4.48189640045,1.61829471588,0.0,4.4509768486,2.48774504662,0.0
1449618743106652132,174,1449618743102763214,odom,4.71547698975,2.65010070801,0.0,4.98414039612,2.50676631927,0.0,5.00586986542,1.63703763485,0.0,4.47603559494,1.6238001585,0.0,4.45430612564,2.49352860451,0.0
1449618743344377804,175,1449618743343860044,odom,4.71547698975,2.65010070801,0.0,4.98414039612,2.50676631927,0.0,5.00586986542,1.63703763485,0.0,4.47603559494,1.6238001585,0.0,4.45430612564,2.49352860451,0.0
1449618743548603163,176,1449618743547086006,odom,4.71547698975,2.65010070801,0.0,4.98414039612,2.50676631927,0.0,5.00586986542,1.63703763485,0.0,4.47603559494,1.6238001585,0.0,4.45430612564,2.49352860451,0.0
1449618743769379811,177,1449618743768143566,odom,4.71547698975,2.65010070801,0.0,4.98414039612,2.50676631927,0.0,5.00586986542,1.63703763485,0.0,4.47603559494,1.6238001585,0.0,4.45430612564,2.49352860451,0.0
1449618744023150960,178,1449618744014475221,odom,4.71547698975,2.65010070801,0.0,4.98414039612,2.50676631927,0.0,5.00586986542,1.63703763485,0.0,4.47603559494,1.6238001585,0.0,4.45430612564,2.49352860451,0.0
1449618744569654142,179,1449618744547377194,odom,4.70510292053,2.65549492836,0.0,4.97673606873,2.51787042618,0.0,5.01684188843,1.64879536629,0.0,4.48740530014,1.62436306477,0.0,4.44729948044,2.49343800545,0.0
1449618744797189718,180,1449618744796786878,odom,4.69390392303,2.67216539383,0.0,4.96838521957,2.54031252861,0.0,5.0268497467,1.67227935791,0.0,4.49804782867,1.63666307926,0.0,4.43958330154,2.50469636917,0.0
1449618744978668599,181,1449618744960365098,odom,4.68190765381,2.69433784485,0.0,4.95911407471,2.56831550598,0.0,5.03591108322,1.70171165466,0.0,4.50797986984,1.65492737293,0.0,4.43118286133,2.52153110504,0.0
1449618745363420537,182,1449618745342141690,odom,4.65015983582,2.74574971199,0.0,4.93363523483,2.63454413414,0.0,5.05609512329,1.77320599556,0.0,4.53137159348,1.69860398769,0.0,4.40891170502,2.55994224548,0.0
1449618745636992538,183,1449618745636796514,odom,4.63475513458,2.77835202217,0.0,4.92051792145,2.67316246033,0.0,5.06115436554,1.81460475922,0.0,4.53812503815,1.72892963886,0.0,4.39748811722,2.58748722076,0.0
1449618745977028074,184,1449618745973500304,odom,4.60985517502,2.82945990562,0.0,4.89880847931,2.73338150978,0.0,5.06658983231,1.87971317768,0.0,4.5465388298,1.77750170231,0.0,4.37875747681,2.63116979599,0.0
1449618746121975473,185,1449618746117687670,odom,4.57845783234,2.90226483345,0.0,4.87031126022,2.81539416313,0.0,5.06506872177,1.96747350693,0.0,4.54851913452,1.84882831573,0.0,4.35376214981,2.69674921036,0.0
1449618746342388833,186,1449618746334487205,odom,4.56349468231,2.94312024117,0.0,4.85624980927,2.85933876038,0.0,5.05995702744,2.01352357864,0.0,4.54469013214,1.88942611217,0.0,4.34098291397,2.73524141312,0.0
1449618746550609056,187,1449618746545440722,odom,4.52752304077,3.02008748055,0.0,4.82278728485,2.94562792778,0.0,5.05320310593,2.10669493675,0.0,4.54212903976,1.96632671356,0.0,4.31171321869,2.80525946617,0.0
1449618746960260130,188,1449618746959804334,odom,4.49222135544,3.10583496094,0.0,4.78899288177,3.03763222694,0.0,5.03708791733,2.20375657082,0.0,4.52909469604,2.05261826515,0.0,4.28099966049,2.88649392128,0.0
1449618747281994307,189,1449618747281813547,odom,4.45062017441,3.18632817268,0.0,4.74940490723,3.12756729126,0.0,5.02380800247,2.30197477341,0.0,4.520860672,2.13480973244,0.0,4.24645757675,2.96040225029,0.0
1449618747563655945,190,1449618747563337697,odom,4.41734075546,3.26931238174,0.0,4.71672916412,3.21371221542,0.0,4.99984169006,2.39106583595,0.0,4.49868917465,2.21859502792,0.0,4.21557664871,3.04124140739,0.0
1449618747751966778,191,1449618747751687583,odom,4.39658021927,3.32916927338,0.0,4.69596862793,3.27356910706,0.0,4.97908115387,2.45092248917,0.0,4.47792863846,2.27845168114,0.0,4.19481611252,3.10109806061,0.0
1449618747973958532,192,1449618747972822576,odom,4.38533449173,3.36184573174,0.0,4.68472290039,3.30624556541,0.0,4.96783590317,2.48359918594,0.0,4.46668338776,2.31112837791,0.0,4.18357086182,3.13377475739,0.0
1449618748308502833,193,1449618748305334709,odom,4.36050510406,3.46890759468,0.0,4.65865182877,3.40699243546,0.0,4.92431497574,2.57854628563,0.0,4.41962957382,2.41670536995,0.0,4.15396642685,3.24515151978,0.0
1449618748653870410,194,1449618748652402732,odom,4.3478808403,3.56438159943,0.0,4.64391517639,3.49304676056,0.0,4.88318395615,2.65659570694,0.0,4.37362194061,2.51083421707,0.0,4.13435268402,3.34728527069,0.0
1449618748913879077,195,1449618748909238345,odom,4.33950614929,3.63375377655,0.0,4.63396644592,3.55617833138,0.0,4.85550403595,2.71485710144,0.0,4.34297513962,2.57989764214,0.0,4.12143754959,3.42121863365,0.0
1449618749221693625,196,1449618749219438289,odom,4.33948993683,3.67532682419,0.0,4.63224506378,3.5915453434,0.0,4.83595228195,2.74573016167,0.0,4.32068538666,2.62163281441,0.0,4.11697864532,3.46744799614,0.0
1449618749501820631,197,1449618749501355195,odom,4.34001684189,3.74331951141,0.0,4.62996959686,3.65030002594,0.0,4.80676269531,2.79845261574,0.0,4.28782129288,2.69075107574,0.0,4.11102771759,3.54259848595,0.0
1449618749829281589,198,1449618749828837479,odom,4.3793592453,3.86257457733,0.0,4.6565656662,3.73655223846,0.0,4.73336219788,2.86994838715,0.0,4.20543146133,2.82316422462,0.0,4.12863445282,3.68976783752,0.0
1449618750096832420,199,1449618750087210627,odom,4.41247320175,3.91905474663,0.0,4.67960739136,3.77288913727,0.0,4.69214439392,2.90297961235,0.0,4.16219949722,2.89534187317,0.0,4.14966249466,3.76525163651,0.0
1449618750327031204,200,1449618750320147021,odom,4.44964075089,3.97293376923,0.0,4.70524120331,3.80742430687,0.0,4.65345001221,2.93896722794,0.0,4.12439012527,2.9705183506,0.0,4.17618131638,3.83897542953,0.0
1449618750710042846,201,1449618750707841049,odom,4.52129507065,4.05105638504,0.0,4.7539100647,3.85454845428,0.0,4.59269475937,2.99961590767,0.0,4.07187414169,3.09782743454,0.0,4.23308897018,3.95275998116,0.0
1449618750947462544,202,1449618750947052517,odom,4.56852149963,4.09642648697,0.0,4.78597640991,3.88326358795,0.0,4.56201505661,3.04258465767,0.0,4.04987716675,3.17902088165,0.0,4.27383852005,4.01970005035,0.0
1449618751135921335,203,1449618751135125111,odom,4.61156749725,4.13158369064,0.0,4.81507825851,3.90507006645,0.0,4.53829669952,3.0802719593,0.0,4.03583335876,3.2488861084,0.0,4.31261491776,4.07368421555,0.0
1449618751340741080,204,1449618751338544011,odom,4.6425447464,4.15717029572,0.0,4.83630132675,3.92225861549,0.0,4.52491140366,3.10989403725,0.0,4.03002262115,3.29959130287,0.0,4.34141254425,4.1119556427,0.0
1449618751570937517,205,1449618751565612892,odom,4.67243003845,4.17608118057,0.0,4.85608577728,3.93319177628,0.0,4.51064395905,3.13471198082,0.0,4.02421379089,3.34515357018,0.0,4.36965560913,4.14363336563,0.0
1449618751797630717,206,1449618751797275506,odom,4.69229364395,4.18290996552,0.0,4.86815834045,3.93432044983,0.0,4.49757909775,3.14719200134,0.0,4.01806402206,3.37294721603,0.0,4.38864326477,4.16007566452,0.0
1449618752366527101,207,1449618752365535254,odom,4.69474697113,4.18812084198,0.0,4.87061166763,3.93953132629,0.0,4.50003242493,3.15240311623,0.0,4.02051734924,3.37815833092,0.0,4.39109659195,4.16528654099,0.0
1449618752593117300,208,1449618752592827206,odom,4.69474697113,4.18812084198,0.0,4.87061166763,3.93953132629,0.0,4.50003242493,3.15240311623,0.0,4.02051734924,3.37815833092,0.0,4.39109659195,4.16528654099,0.0
1449618752692254171,209,1449618752691922283,odom,4.70057916641,4.18852806091,0.0,4.87380695343,3.9380941391,0.0,4.49493026733,3.15492606163,0.0,4.01782751083,3.38573598862,0.0,4.39670467377,4.1689043045,0.0
1449618752916228199,210,1449618752915263766,odom,4.70308732986,4.19371271133,0.0,4.87631511688,3.94327902794,0.0,4.49743843079,3.16011071205,0.0,4.02033615112,3.39092087746,0.0,4.39921283722,4.17408895493,0.0
1449618753116016652,211,1449618753115647157,odom,4.71148633957,4.19921684265,0.0,4.88205766678,3.94696593285,0.0,4.4949259758,3.16784548759,0.0,4.02028942108,3.40368461609,0.0,4.40742111206,4.18280506134,0.0
1449618753545147469,212,1449618753534374996,odom,4.72256040573,4.20976161957,0.0,4.89045619965,3.95572257042,0.0,4.49511241913,3.18073654175,0.0,4.02299451828,3.42157840729,0.0,4.41833877563,4.19656419754,0.0
1449618753833830061,213,1449618753829569092,odom,4.7715215683,4.23539161682,0.0,4.92298269272,3.9712240696,0.0,4.47932529449,3.22284698486,0.0,4.02341747284,3.49312090874,0.0,4.46707487106,4.24149799347,0.0
1449618753975203598,214,1449618753974386463,odom,4.78329229355,4.2451210022,0.0,4.93195343018,3.97936749458,0.0,4.48041248322,3.23572063446,0.0,4.02738618851,3.51079750061,0.0,4.47892713547,4.25444412231,0.0
1449618754162038535,215,1449618754157846670,odom,4.80108261108,4.2544054985,0.0,4.94409418106,3.98556947708,0.0,4.47693729401,3.25163197517,0.0,4.02982568741,3.53622174263,0.0,4.49698257446,4.27015924454,0.0
1449618754655886617,216,1449618754655673962,odom,4.82806348801,4.26766443253,0.0,4.96248102188,3.99443006516,0.0,4.47229385376,3.27566957474,0.0,4.0344285965,3.5742893219,0.0,4.52461528778,4.29304981232,0.0
1449618754953522163,217,1449618754940422783,odom,4.8600730896,4.3050570488,0.0,4.99159574509,4.03041744232,0.0,4.49384021759,3.31687760353,0.0,4.05915498734,3.62010788918,0.0,4.55691051483,4.33364772797,0.0
1449618755280784468,218,1449618755279766616,odom,4.90303564072,4.36637830734,0.0,5.0345582962,4.0917391777,0.0,4.53680276871,3.37819910049,0.0,4.10211753845,3.68142938614,0.0,4.59987306595,4.39496946335,0.0
1449618755489275214,219,1449618755488468132,odom,4.9364862442,4.43418884277,0.0,5.07378387451,4.16239070892,0.0,4.59121990204,3.43848991394,0.0,4.15022277832,3.73246574402,0.0,4.63278675079,4.45636606216,0.0
1449618755677635950,220,1449618755675003821,odom,4.95008850098,4.49379777908,0.0,5.0987496376,4.22804450989,0.0,4.64720869064,3.48439788818,0.0,4.19418239594,3.75947451591,0.0,4.64572381973,4.50312137604,0.0
1449618755913693171,221,1449618755913292442,odom,4.94925260544,4.54402208328,0.0,5.11174249649,4.28649139404,0.0,4.70010757446,3.52003383636,0.0,4.23318529129,3.77079987526,0.0,4.64482021332,4.53725719452,0.0
1449618756043915672,222,1449618756041556751,odom,4.93715715408,4.58861351013,0.0,5.11563920975,4.34189653397,0.0,4.75339889526,3.55089616776,0.0,4.27152490616,3.77157115936,0.0,4.63376522064,4.56257152557,0.0
1449618756227032207,223,1449618756226730551,odom,4.92383956909,4.6224656105,0.0,5.11510276794,4.38551950455,0.0,4.79514503479,3.57649111748,0.0,4.30228853226,3.77140784264,0.0,4.62224626541,4.58043622971,0.0
1449618756473955540,224,1449618756473072371,odom,4.9205789566,4.64221954346,0.0,5.11680698395,4.40936899185,0.0,4.81401968002,3.59375882149,0.0,4.31715393066,3.77821564674,0.0,4.61994123459,4.59382581711,0.0
1449618756703033107,225,1449618756701352911,odom,4.91876363754,4.65208005905,0.0,5.11744165421,4.42131614685,0.0,4.82329034805,3.60255169868,0.0,4.32450294495,3.78174734116,0.0,4.6186542511,4.6005115509,0.0
1449618756913879098,226,1449618756910857579,odom,4.91876363754,4.65208005905,0.0,5.11744165421,4.42131614685,0.0,4.82329034805,3.60255169868,0.0,4.32450294495,3.78174734116,0.0,4.6186542511,4.6005115509,0.0
1449618757078122973,227,1449618757077662352,odom,4.91876363754,4.65208005905,0.0,5.11744165421,4.42131614685,0.0,4.82329034805,3.60255169868,0.0,4.32450294495,3.78174734116,0.0,4.6186542511,4.6005115509,0.0
1449618757250856332,228,1449618757249728890,odom,4.91876363754,4.65208005905,0.0,5.11744165421,4.42131614685,0.0,4.82329034805,3.60255169868,0.0,4.32450294495,3.78174734116,0.0,4.6186542511,4.6005115509,0.0
1449618757536029594,229,1449618757532667905,odom,4.91876363754,4.65208005905,0.0,5.11744165421,4.42131614685,0.0,4.82329034805,3.60255169868,0.0,4.32450294495,3.78174734116,0.0,4.6186542511,4.6005115509,0.0
1449618757628623822,230,1449618757628380492,odom,4.91876363754,4.65208005905,0.0,5.11744165421,4.42131614685,0.0,4.82329034805,3.60255169868,0.0,4.32450294495,3.78174734116,0.0,4.6186542511,4.6005115509,0.0
1449618757834838634,231,1449618757833420206,odom,4.91876363754,4.65208005905,0.0,5.11744165421,4.42131614685,0.0,4.82329034805,3.60255169868,0.0,4.32450294495,3.78174734116,0.0,4.6186542511,4.6005115509,0.0
1449618758113818835,232,1449618758109724029,odom,4.91876363754,4.65208005905,0.0,5.11744165421,4.42131614685,0.0,4.82329034805,3.60255169868,0.0,4.32450294495,3.78174734116,0.0,4.6186542511,4.6005115509,0.0
1449618758235856091,233,1449618758235577554,odom,4.91876363754,4.65208005905,0.0,5.11744165421,4.42131614685,0.0,4.82329034805,3.60255169868,0.0,4.32450294495,3.78174734116,0.0,4.6186542511,4.6005115509,0.0
1449618758419315214,234,1449618758416909384,odom,4.91876363754,4.65208005905,0.0,5.11744165421,4.42131614685,0.0,4.82329034805,3.60255169868,0.0,4.32450294495,3.78174734116,0.0,4.6186542511,4.6005115509,0.0
1449618758608692409,235,1449618758607166905,odom,4.91876363754,4.65208005905,0.0,5.11744165421,4.42131614685,0.0,4.82329034805,3.60255169868,0.0,4.32450294495,3.78174734116,0.0,4.6186542511,4.6005115509,0.0
1449618758872714010,236,1449618758870708078,odom,4.91876363754,4.65208005905,0.0,5.11744165421,4.42131614685,0.0,4.82329034805,3.60255169868,0.0,4.32450294495,3.78174734116,0.0,4.6186542511,4.6005115509,0.0
1449618759015973474,237,1449618759011176443,odom,4.91876363754,4.65208005905,0.0,5.11744165421,4.42131614685,0.0,4.82329034805,3.60255169868,0.0,4.32450294495,3.78174734116,0.0,4.6186542511,4.6005115509,0.0
1449618759213782384,238,1449618759213040646,odom,4.91876363754,4.65208005905,0.0,5.11744165421,4.42131614685,0.0,4.82329034805,3.60255169868,0.0,4.32450294495,3.78174734116,0.0,4.6186542511,4.6005115509,0.0
1449618759418022822,239,1449618759414603125,odom,4.91876363754,4.65208005905,0.0,5.11744165421,4.42131614685,0.0,4.82329034805,3.60255169868,0.0,4.32450294495,3.78174734116,0.0,4.6186542511,4.6005115509,0.0
1449618759651059824,240,1449618759646887449,odom,4.91876363754,4.65208005905,0.0,5.11744165421,4.42131614685,0.0,4.82329034805,3.60255169868,0.0,4.32450294495,3.78174734116,0.0,4.6186542511,4.6005115509,0.0
1449618759811161012,241,1449618759810425253,odom,4.91876363754,4.65208005905,0.0,5.11744165421,4.42131614685,0.0,4.82329034805,3.60255169868,0.0,4.32450294495,3.78174734116,0.0,4.6186542511,4.6005115509,0.0
1449618760018498349,242,1449618760018249604,odom,4.91876363754,4.65208005905,0.0,5.11744165421,4.42131614685,0.0,4.82329034805,3.60255169868,0.0,4.32450294495,3.78174734116,0.0,4.6186542511,4.6005115509,0.0
1449618760405156092,243,1449618760404415270,odom,4.91876363754,4.65208005905,0.0,5.11744165421,4.42131614685,0.0,4.82329034805,3.60255169868,0.0,4.32450294495,3.78174734116,0.0,4.6186542511,4.6005115509,0.0
1449618760883641234,244,1449618760883184377,odom,4.91876363754,4.65208005905,0.0,5.11744165421,4.42131614685,0.0,4.82329034805,3.60255169868,0.0,4.32450294495,3.78174734116,0.0,4.6186542511,4.6005115509,0.0
1449618761411367601,245,1449618761408867438,odom,4.91492605209,4.65649032593,0.0,5.11603164673,4.42783880234,0.0,4.83054924011,3.6060116291,0.0,4.32989597321,3.77992606163,0.0,4.61537837982,4.60175323486,0.0
1449618761607002934,246,1449618761605781009,odom,4.90897274017,4.67063808441,0.0,5.11486577988,4.44628810883,0.0,4.84681606293,3.61861085892,0.0,4.3425989151,3.78190541267,0.0,4.61064863205,4.60958242416,0.0
1449618762145969186,247,1449618762144939187,odom,4.90677118301,4.68040370941,0.0,5.11502361298,4.45824193954,0.0,4.85573577881,3.62777853012,0.0,4.3498210907,3.78573536873,0.0,4.60910892487,4.61619901657,0.0
1449618762417414109,248,1449618762416018941,odom,4.90197229385,4.69988870621,0.0,5.11487340927,4.48217773438,0.0,4.87319469452,3.64642000198,0.0,4.36405515671,3.79364943504,0.0,4.60573339462,4.62940740585,0.0
1449618762730195702,249,1449618762729429164,odom,4.89522123337,4.71371889114,0.0,5.11267614365,4.50055599213,0.0,4.88871479034,3.65987706184,0.0,4.37657690048,3.79631328583,0.0,4.60053825378,4.63699245453,0.0
1449618762870300486,250,1449618762869273485,odom,4.89102458954,4.71778917313,0.0,5.11072015762,4.50693655014,0.0,4.89565563202,3.66393756866,0.0,4.38210439682,3.79495382309,0.0,4.59716892242,4.63795280457,0.0
1449618763248334853,251,1449618763246621754,odom,4.89241886139,4.72337722778,0.0,5.11211442947,4.5125246048,0.0,4.89704990387,3.66952562332,0.0,4.38349866867,3.80054211617,0.0,4.59856319427,4.64354085922,0.0
1449618763555887296,252,1449618763549982005,odom,4.88523292542,4.73698663712,0.0,5.10933542252,4.53082418442,0.0,4.91213512421,3.68346810341,0.0,4.39592981339,3.80360150337,0.0,4.59313011169,4.65095758438,0.0
1449618763739881364,253,1449618763737871142,odom,4.87654447556,4.74481105804,0.0,5.10495424271,4.54343080521,0.0,4.92570638657,3.69209647179,0.0,4.40707731247,3.80129337311,0.0,4.58632516861,4.65262794495,0.0
1449618764039192339,254,1449618764038790496,odom,4.873295784,4.7542963028,0.0,5.10382080078,4.55534124374,0.0,4.93357992172,3.70216012001,0.0,4.41382598877,3.80587005615,0.0,4.58406686783,4.65905094147,0.0
1449618764264354693,255,1449618764263914492,odom,4.8608455658,4.77121400833,0.0,5.09756135941,4.5796661377,0.0,4.95445108414,3.72151708603,0.0,4.43167066574,3.80869936943,0.0,4.57478141785,4.66684818268,0.0
1449618764580507696,256,1449618764579092379,odom,4.8349237442,4.80955648422,0.0,5.08330154419,4.63339328766,0.0,4.99485588074,3.76790070534,0.0,4.46760177612,3.82178115845,0.0,4.55604743958,4.68727397919,0.0
1449618764722774574,257,1449618764709286997,odom,4.80634260178,4.84042644501,0.0,5.06538391113,4.6803560257,0.0,5.03195858002,3.81099843979,0.0,4.50234985352,3.83136081696,0.0,4.53577518463,4.70071840286,0.0
1449618764941679455,258,1449618764934155165,odom,4.7811665535,4.87240362167,0.0,5.0483007431,4.7262377739,0.0,5.06083774567,3.8563284874,0.0,4.53089284897,3.84869074821,0.0,4.51835584641,4.71860027313,0.0
1449618765321876926,259,1449618765321473634,odom,4.71310281754,4.94791936874,0.0,4.99657821655,4.83671379089,0.0,5.11903810501,3.97537541389,0.0,4.59431505203,3.90077328682,0.0,4.47185516357,4.76211166382,0.0
1449618765499481079,260,1449618765498952237,odom,4.66872549057,4.98965215683,0.0,4.95964479446,4.89970207214,0.0,5.14543008804,4.04977035522,0.0,4.62765598297,3.93659067154,0.0,4.44187021255,4.78652191162,0.0
1449618765698045291,261,1449618765697708024,odom,4.62156009674,5.02804279327,0.0,4.91833162308,4.9598402977,0.0,5.16642665863,4.12596464157,0.0,4.65843343735,3.97482609749,0.0,4.41033840179,4.80870199203,0.0
1449618766004281332,262,1449618766004014158,odom,4.59748888016,5.05367231369,0.0,4.89627313614,4.99491119385,0.0,5.17067623138,4.16931915283,0.0,4.66772937775,4.00215387344,0.0,4.39332580566,4.8277463913,0.0
1449618766184846834,263,1449618766181780688,odom,4.57639408112,5.0676445961,0.0,4.87689065933,5.01838445663,0.0,5.17732620239,4.20190525055,0.0,4.67993116379,4.01888132095,0.0,4.37949562073,4.83536052704,0.0
1449618766401273951,264,1449618766400360868,odom,4.56860208511,5.07395458221,0.0,4.86960315704,5.02787256241,0.0,5.17865037918,4.21461391449,0.0,4.68321657181,4.02634382248,0.0,4.37416934967,4.8396024704,0.0
1449618766516031668,265,1449618766514812639,odom,4.56281852722,5.07480859756,0.0,4.86428976059,5.03190994263,0.0,5.18191385269,4.22196292877,0.0,4.68849754333,4.02846765518,0.0,4.37087345123,4.83841466904,0.0
1449618766685866566,266,1449618766684776750,odom,4.56857395172,5.07394361496,0.0,4.86957454681,5.02786159515,0.0,5.17862176895,4.21460294724,0.0,4.68318843842,4.02633285522,0.0,4.37414121628,4.83959150314,0.0
1449618766959678760,267,1449618766957903910,odom,4.56857395172,5.07394361496,0.0,4.86957454681,5.02786159515,0.0,5.17862176895,4.21460294724,0.0,4.68318843842,4.02633285522,0.0,4.37414121628,4.83959150314,0.0
1449618767123637452,268,1449618767122568941,odom,4.56857395172,5.07394361496,0.0,4.86957454681,5.02786159515,0.0,5.17862176895,4.21460294724,0.0,4.68318843842,4.02633285522,0.0,4.37414121628,4.83959150314,0.0
1449618767362040509,269,1449618767349490619,odom,4.56857395172,5.07394361496,0.0,4.86957454681,5.02786159515,0.0,5.17862176895,4.21460294724,0.0,4.68318843842,4.02633285522,0.0,4.37414121628,4.83959150314,0.0
1449618767544916128,270,1449618767544736515,odom,4.56857395172,5.07394361496,0.0,4.86957454681,5.02786159515,0.0,5.17862176895,4.21460294724,0.0,4.68318843842,4.02633285522,0.0,4.37414121628,4.83959150314,0.0
1449618767770606229,271,1449618767759971002,odom,4.56857395172,5.07394361496,0.0,4.86957454681,5.02786159515,0.0,5.17862176895,4.21460294724,0.0,4.68318843842,4.02633285522,0.0,4.37414121628,4.83959150314,0.0
1449618768091359720,272,1449618768090723272,odom,4.56857395172,5.07394361496,0.0,4.86957454681,5.02786159515,0.0,5.17862176895,4.21460294724,0.0,4.68318843842,4.02633285522,0.0,4.37414121628,4.83959150314,0.0
1449618768262178273,273,1449618768259612218,odom,4.56857395172,5.07394361496,0.0,4.86957454681,5.02786159515,0.0,5.17862176895,4.21460294724,0.0,4.68318843842,4.02633285522,0.0,4.37414121628,4.83959150314,0.0
1449618768522631070,274,1449618768522450010,odom,4.56857395172,5.07394361496,0.0,4.86957454681,5.02786159515,0.0,5.17862176895,4.21460294724,0.0,4.68318843842,4.02633285522,0.0,4.37414121628,4.83959150314,0.0
1449618768720918477,275,1449618768720698284,odom,4.56857395172,5.07394361496,0.0,4.86957454681,5.02786159515,0.0,5.17862176895,4.21460294724,0.0,4.68318843842,4.02633285522,0.0,4.37414121628,4.83959150314,0.0
1449618768877298160,276,1449618768876379176,odom,4.56857395172,5.07394361496,0.0,4.86957454681,5.02786159515,0.0,5.17862176895,4.21460294724,0.0,4.68318843842,4.02633285522,0.0,4.37414121628,4.83959150314,0.0
1449618768998279202,277,1449618768997762744,odom,4.56857395172,5.07394361496,0.0,4.86957454681,5.02786159515,0.0,5.17862176895,4.21460294724,0.0,4.68318843842,4.02633285522,0.0,4.37414121628,4.83959150314,0.0
1449618769161169674,278,1449618769158175809,odom,4.56857395172,5.07394361496,0.0,4.86957454681,5.02786159515,0.0,5.17862176895,4.21460294724,0.0,4.68318843842,4.02633285522,0.0,4.37414121628,4.83959150314,0.0
1449618769361297909,279,1449618769360728003,odom,4.56857395172,5.07394361496,0.0,4.86957454681,5.02786159515,0.0,5.17862176895,4.21460294724,0.0,4.68318843842,4.02633285522,0.0,4.37414121628,4.83959150314,0.0
1449618769766421080,280,1449618769754398882,odom,4.57061958313,5.06855964661,0.0,4.87162065506,5.0224776268,0.0,5.1806678772,4.20921897888,0.0,4.68523406982,4.02094888687,0.0,4.37618684769,4.83420753479,0.0
1449618769940375346,281,1449618769936594407,odom,4.5783829689,5.06223917007,0.0,4.87888002396,5.01297903061,0.0,5.17931556702,4.19649982452,0.0,4.68192005157,4.01347589493,0.0,4.38148450851,4.82995510101,0.0
