%time,field.header.seq,field.header.stamp,field.header.frame_id,field.status.goal_id.stamp,field.status.goal_id.id,field.status.status,field.status.text,field.feedback.base_position.header.seq,field.feedback.base_position.header.stamp,field.feedback.base_position.header.frame_id,field.feedback.base_position.pose.position.x,field.feedback.base_position.pose.position.y,field.feedback.base_position.pose.position.z,field.feedback.base_position.pose.orientation.x,field.feedback.base_position.pose.orientation.y,field.feedback.base_position.pose.orientation.z,field.feedback.base_position.pose.orientation.w
1449618706930877326,0,1449618706930727276,,1449618706930516380,/move_base-1-1449618706.930516380,1,This goal has been accepted by the simple action server,0,1449618706897205847,odom,0.0,0.0,0.0,0.0,0.0,0.0,1.0
1449618706981053343,1,1449618706980855177,,1449618706970087537,/move_base-2-1449618706.970087537,1,This goal has been accepted by the simple action server,0,1449618706977095199,odom,0.0,0.0,0.0,0.0,0.0,0.0,1.0
1449618707031433210,2,1449618707030808427,,1449618706970087537,/move_base-2-1449618706.970087537,1,This goal has been accepted by the simple action server,0,1449618707017094265,odom,0.0,0.0,0.0,0.0,0.0,0.0,1.0
1449618707088633745,3,1449618707080805304,,1449618706970087537,/move_base-2-1449618706.970087537,1,This goal has been accepted by the simple action server,0,1449618707057098836,odom,0.0,0.0,0.0,0.0,0.0,0.0,1.0
1449618707224282766,4,1449618707221318654,,1449618707221258127,/move_base-3-1449618707.221258127,1,This goal has been accepted by the simple action server,0,1449618707217109897,odom,0.0,0.0,0.0,0.0,0.0,0.0,1.0
1449618707272324349,5,1449618707271612360,,1449618707221258127,/move_base-3-1449618707.221258127,1,This goal has been accepted by the simple action server,0,1449618707257091647,odom,0.0,0.0,0.0,0.0,0.0,0.0,1.0
1449618707324498510,6,1449618707321545859,,1449618707294395533,/move_base-4-1449618707.294395533,1,This goal has been accepted by the simple action server,0,1449618707297097394,odom,0.0,0.0,0.0,0.0,0.0,0.0,1.0
1449618707375945579,7,1449618707374597358,,1449618707294395533,/move_base-4-1449618707.294395533,1,This goal has been accepted by the simple action server,0,1449618707337130657,odom,0.0,0.0,0.0,0.0,0.0,0.0,1.0
1449618707422418238,8,1449618707421471242,,1449618707404081009,/move_base-5-1449618707.404081009,1,This goal has been accepted by the simple action server,0,1449618707417098466,odom,0.0,0.0,0.0,0.0,0.0,0.0,1.0
1449618707477689896,9,1449618707473615756,,1449618707404081009,/move_base-5-1449618707.404081009,1,This goal has been accepted by the simple action server,0,1449618707457102175,odom,0.0,0.0,0.0,0.0,0.0,0.0,1.0
1449618707523455800,10,1449618707522911516,,1449618707404081009,/move_base-5-1449618707.404081009,1,This goal has been accepted by the simple action server,0,1449618707497110153,odom,0.0,0.0,0.0,0.0,0.0,0.0,1.0
1449618707569069607,11,1449618707567356024,,1449618707567263766,/move_base-6-1449618707.567263766,1,This goal has been accepted by the simple action server,0,1449618707537103198,odom,0.0,0.0,0.0,0.0,0.0,0.0,1.0
1449618707622388353,12,1449618707617503076,,1449618707572389627,/move_base-7-1449618707.572389627,1,This goal has been accepted by the simple action server,0,1449618707577092720,odom,0.0,0.0,0.0,0.0,0.0,0.0,1.0
1449618707669560478,13,1449618707668721097,,1449618707572389627,/move_base-7-1449618707.572389627,1,This goal has been accepted by the simple action server,0,1449618707657099052,odom,0.0,0.0,0.0,0.0,0.0,0.0,1.0
1449618707719906182,14,1449618707717563976,,1449618707692091667,/move_base-8-1449618707.692091667,1,This goal has been accepted by the simple action server,0,1449618707697103160,odom,0.0,0.0,0.0,0.0,0.0,0.0,1.0
1449618707767969176,15,1449618707767426559,,1449618707692091667,/move_base-8-1449618707.692091667,1,This goal has been accepted by the simple action server,0,1449618707737105008,odom,0.0,0.0,0.0,0.0,0.0,0.0,1.0
1449618707823079816,16,1449618707818816519,,1449618707778817926,/move_base-9-1449618707.778817926,1,This goal has been accepted by the simple action server,0,1449618707777095171,odom,0.0,0.0,0.0,0.0,0.0,0.0,1.0
1449618707868316137,17,1449618707867613918,,1449618707778817926,/move_base-9-1449618707.778817926,1,This goal has been accepted by the simple action server,0,1449618707857105060,odom,0.0,0.0,0.0,0.0,0.0,0.0,1.0
1449618707922230402,18,1449618707917638781,,1449618707897638601,/move_base-10-1449618707.897638601,1,This goal has been accepted by the simple action server,0,1449618707897431427,odom,0.0,0.0,0.0,0.0,0.0,0.0,1.0
1449618707967894804,19,1449618707967439383,,1449618707897638601,/move_base-10-1449618707.897638601,1,This goal has been accepted by the simple action server,0,1449618707937056742,odom,0.0,0.0,0.0,0.0,0.0,0.0,1.0
1449618708018454651,20,1449618708018105742,,1449618707979772772,/move_base-11-1449618707.979772772,1,This goal has been accepted by the simple action server,0,1449618707977101432,odom,0.0,0.0,0.0,0.0,0.0,0.0,1.0
1449618708068504244,21,1449618708068204129,,1449618707979772772,/move_base-11-1449618707.979772772,1,This goal has been accepted by the simple action server,0,1449618708057191990,odom,0.0,0.0,0.0,0.0,0.0,0.0,1.0
1449618708118167646,22,1449618708117804615,,1449618708102864548,/move_base-12-1449618708.102864548,1,This goal has been accepted by the simple action server,0,1449618708097101234,odom,0.0,0.0,0.0,0.0,0.0,0.0,1.0
1449618708168002616,23,1449618708167561897,,1449618708102864548,/move_base-12-1449618708.102864548,1,This goal has been accepted by the simple action server,0,1449618708137123017,odom,0.0,0.0,0.0,0.0,0.0,0.0,1.0
1449618708220108562,24,1449618708219785236,,1449618708102864548,/move_base-12-1449618708.102864548,1,This goal has been accepted by the simple action server,0,1449618708217099846,odom,0.0,0.0,0.0,0.0,0.0,0.0,1.0
1449618708253101946,25,1449618708251476457,,1449618708250035228,/move_base-13-1449618708.250035228,1,This goal has been accepted by the simple action server,0,1449618708217099846,odom,0.0,0.0,0.0,0.0,0.0,0.0,1.0
1449618708302556209,26,1449618708301853805,,1449618708290835382,/move_base-14-1449618708.290835382,1,This goal has been accepted by the simple action server,0,1449618708297101787,odom,0.0,0.0,0.0,0.0,0.0,0.0,1.0
1449618708352906954,27,1449618708351585956,,1449618708290835382,/move_base-14-1449618708.290835382,1,This goal has been accepted by the simple action server,0,1449618708337120079,odom,0.0,0.0,0.0,0.0,0.0,0.0,1.0
1449618708402031748,28,1449618708401704833,,1449618708387345348,/move_base-15-1449618708.387345348,1,This goal has been accepted by the simple action server,0,1449618708377108768,odom,0.0,0.0,0.0,0.0,0.0,0.0,1.0
1449618708454048803,29,1449618708453620548,,1449618708387345348,/move_base-15-1449618708.387345348,1,This goal has been accepted by the simple action server,0,1449618708417108993,odom,0.0,0.0,0.0,0.0,0.0,0.0,1.0
1449618708502647186,30,1449618708501795557,,1449618708387345348,/move_base-15-1449618708.387345348,1,This goal has been accepted by the simple action server,0,1449618708497101001,odom,0.0,0.0,0.0,0.0,0.0,0.0,1.0
1449618708570676789,31,1449618708568666334,,1449618708565573533,/move_base-16-1449618708.565573533,1,This goal has been accepted by the simple action server,0,1449618708537094353,odom,0.0,0.0,0.0,0.0,0.0,0.0,1.0
1449618708618917417,32,1449618708618775895,,1449618708574923396,/move_base-17-1449618708.574923396,1,This goal has been accepted by the simple action server,0,1449618708617092109,odom,0.0,0.0,0.0,0.0,0.0,0.0,1.0
1449618708670203620,33,1449618708668906011,,1449618708574923396,/move_base-17-1449618708.574923396,1,This goal has been accepted by the simple action server,0,1449618708657089615,odom,0.0,0.0,0.0,0.0,0.0,0.0,1.0
1449618708719877512,34,1449618708718760976,,1449618708574923396,/move_base-17-1449618708.574923396,1,This goal has been accepted by the simple action server,0,1449618708697323405,odom,0.0,0.0,0.0,0.0,0.0,0.0,1.0
1449618708765658610,35,1449618708764695932,,1449618708764544130,/move_base-18-1449618708.764544130,1,This goal has been accepted by the simple action server,0,1449618708737108891,odom,0.0,0.0,0.0,0.0,0.0,0.0,1.0
1449618708815109211,36,1449618708814803425,,1449618708780516375,/move_base-19-1449618708.780516375,1,This goal has been accepted by the simple action server,0,1449618708777337957,odom,0.0,0.0,0.0,0.0,0.0,0.0,1.0
1449618708866413234,37,1449618708864769720,,1449618708780516375,/move_base-19-1449618708.780516375,1,This goal has been accepted by the simple action server,0,1449618708857075712,odom,0.0,0.0,0.0,0.0,0.0,0.0,1.0
1449618708915258944,38,1449618708914835427,,1449618708909811712,/move_base-20-1449618708.909811712,1,This goal has been accepted by the simple action server,0,1449618708897122546,odom,0.0,0.0,0.0,0.0,0.0,0.0,1.0
1449618708965484434,39,1449618708964756037,,1449618708909811712,/move_base-20-1449618708.909811712,1,This goal has been accepted by the simple action server,0,1449618708937104685,odom,0.0,0.0,0.0,0.0,0.0,0.0,1.0
1449618709018731368,40,1449618709017931934,,1449618708909811712,/move_base-20-1449618708.909811712,1,This goal has been accepted by the simple action server,0,1449618708977100032,odom,0.0,0.0,0.0,0.0,0.0,0.0,1.0
1449618709038042287,41,1449618709037743119,,1449618709037240498,/move_base-21-1449618709.37240498,1,This goal has been accepted by the simple action server,0,1449618709017105955,odom,0.0,0.0,0.0,0.0,0.0,0.0,1.0
1449618709089357308,42,1449618709088482041,,1449618709037240498,/move_base-21-1449618709.37240498,1,This goal has been accepted by the simple action server,0,1449618709057102687,odom,0.0,0.0,0.0,0.0,0.0,0.0,1.0
1449618709140830434,43,1449618709137839481,,1449618709037240498,/move_base-21-1449618709.37240498,1,This goal has been accepted by the simple action server,0,1449618709097099630,odom,0.0,0.0,0.0,0.0,0.0,0.0,1.0
1449618709169816762,44,1449618709169668852,,1449618709169545313,/move_base-22-1449618709.169545313,1,This goal has been accepted by the simple action server,0,1449618709137324559,odom,0.0,0.0,0.0,0.0,0.0,0.0,1.0
1449618709220375790,45,1449618709219957383,,1449618709169545313,/move_base-22-1449618709.169545313,1,This goal has been accepted by the simple action server,0,1449618709177107462,odom,0.0,0.0,0.0,0.0,0.0,0.0,1.0
1449618709270517170,46,1449618709270186544,,1449618709265641464,/move_base-23-1449618709.265641464,1,This goal has been accepted by the simple action server,0,1449618709257100365,odom,0.0,0.0,0.0,0.0,0.0,0.0,1.0
1449618709327814678,47,1449618709324595068,,1449618709287402370,/move_base-24-1449618709.287402370,1,This goal has been accepted by the simple action server,0,1449618709297173209,odom,0.0,0.0,0.0,0.0,0.0,0.0,1.0
1449618709371138491,48,1449618709369824294,,1449618709287402370,/move_base-24-1449618709.287402370,1,This goal has been accepted by the simple action server,0,1449618709337099220,odom,0.0,0.0,0.0,0.0,0.0,0.0,1.0
1449618709421373929,49,1449618709419847618,,1449618709403807917,/move_base-25-1449618709.403807917,1,This goal has been accepted by the simple action server,0,1449618709377104567,odom,0.0,0.0,0.0,0.0,0.0,0.0,1.0
1449618709471692273,50,1449618709469953423,,1449618709403807917,/move_base-25-1449618709.403807917,1,This goal has been accepted by the simple action server,0,1449618709457233378,odom,0.0,0.0,0.0,0.0,0.0,0.0,1.0
1449618709581980936,51,1449618709581639548,,1449618709519080415,/move_base-26-1449618709.519080415,1,This goal has been accepted by the simple action server,0,1449618709578131001,odom,0.0,0.0,0.0,0.0,0.0,0.0,1.0
1449618709670148399,52,1449618709654400394,,1449618709519080415,/move_base-26-1449618709.519080415,1,This goal has been accepted by the simple action server,0,1449618709617097853,odom,0.0,0.0,0.0,0.0,0.0,0.0,1.0
1449618709728797539,53,1449618709723500263,,1449618709519080415,/move_base-26-1449618709.519080415,1,This goal has been accepted by the simple action server,0,1449618709697103133,odom,0.0,0.0,0.0,0.0,0.0,0.0,1.0
1449618709804520779,54,1449618709801072127,,1449618709519080415,/move_base-26-1449618709.519080415,1,This goal has been accepted by the simple action server,0,1449618709777101587,odom,0.0,0.0,0.0,0.0,0.0,0.0,1.0
1449618709884437376,55,1449618709880953206,,1449618709519080415,/move_base-26-1449618709.519080415,1,This goal has been accepted by the simple action server,0,1449618709857097372,odom,0.0,0.0,0.0,0.0,0.0,0.0,1.0
1449618709943004253,56,1449618709933455144,,1449618709519080415,/move_base-26-1449618709.519080415,1,This goal has been accepted by the simple action server,0,1449618709897094564,odom,0.0,0.0,0.0,0.0,0.0,0.0,1.0
1449618710055882247,57,1449618710055541238,,1449618709519080415,/move_base-26-1449618709.519080415,1,This goal has been accepted by the simple action server,0,1449618710017094534,odom,0.0,0.0,0.0,0.0,0.0,0.0,1.0
1449618710113215075,58,1449618710113068485,,1449618709519080415,/move_base-26-1449618709.519080415,1,This goal has been accepted by the simple action server,0,1449618710097141184,odom,0.00287963245437,3.04332289367e-05,0.0,0.0,0.0,0.0052839997518,0.999986039576
1449618710189647255,59,1449618710188765349,,1449618709519080415,/move_base-26-1449618709.519080415,1,This goal has been accepted by the simple action server,0,1449618710177355935,odom,0.00575942572016,3.04332289367e-05,0.0,0.0,0.0,0.0,1.0
1449618710264065197,60,1449618710261451449,,1449618709519080415,/move_base-26-1449618709.519080415,1,This goal has been accepted by the simple action server,0,1449618710257091884,odom,0.00863905817453,6.08664578733e-05,0.0,0.0,0.0,0.0052839997518,0.999986039576
1449618710322431379,61,1449618710321786448,,1449618709519080415,/move_base-26-1449618709.519080415,1,This goal has been accepted by the simple action server,0,1449618710297095135,odom,0.0143983230833,0.000121732915747,0.0,0.0,0.0,0.0052839997518,0.999986039576
1449618710406045358,62,1449618710405827223,,1449618709519080415,/move_base-26-1449618709.519080415,1,This goal has been accepted by the simple action server,0,1449618710377099022,odom,0.0172774731214,0.000182595974757,0.0,0.0,0.0,0.0105678519699,0.999944158693
1449618710518528811,63,1449618710517960684,,1449618709519080415,/move_base-26-1449618709.519080415,1,This goal has been accepted by the simple action server,0,1449618710497104468,odom,0.0259158880682,0.000304325491641,0.0,0.0,0.0,0.0052839997518,0.999986039576
1449618710601220910,64,1449618710600718838,,1449618709519080415,/move_base-26-1449618709.519080415,1,This goal has been accepted by the simple action server,0,1449618710577093933,odom,0.0316746705606,0.000395621779589,0.0,0.0,0.0,0.0052839997518,0.999986039576
1449618710676091693,65,1449618710675805596,,1449618710600499853,/move_base-27-1449618710.600499853,1,This goal has been accepted by the simple action server,0,1449618710657094220,odom,0.0403121206748,0.000578210956621,0.0,0.0,0.0,0.0105678519699,0.999944158693
1449618710729757666,66,1449618710729613462,,1449618710600499853,/move_base-27-1449618710.600499853,1,This goal has been accepted by the simple action server,0,1449618710697103084,odom,0.0431904667456,0.00066949704836,0.0,0.0,0.0,0.0158514091245,0.999874358521
1449618710783413939,67,1449618710783302168,,1449618710600499853,/move_base-27-1449618710.600499853,1,This goal has been accepted by the simple action server,0,1449618710777097091,odom,0.0547038510287,0.00103464141532,0.0,0.0,0.0,0.0158514091245,0.999874358521
1449618710839981571,68,1449618710838349466,,1449618710600499853,/move_base-27-1449618710.600499853,1,This goal has been accepted by the simple action server,0,1449618710817097743,odom,0.0604605431703,0.0012172135988,0.0,0.0,0.0,0.0158514091245,0.999874358521
1449618710916339658,69,1449618710906066469,,1449618710600499853,/move_base-27-1449618710.600499853,1,This goal has been accepted by the simple action server,0,1449618710897101141,odom,0.0690944559541,0.00152148471167,0.0,0.0,0.0,0.0211345236944,0.999776641009
1449618710993737364,70,1449618710979739480,,1449618710600499853,/move_base-27-1449618710.600499853,1,This goal has been accepted by the simple action server,0,1449618710977614402,odom,0.0806033385231,0.00200828042927,0.0,0.0,0.0,0.0211345236944,0.999776641009
1449618711152175396,71,1449618711136048562,,1449618710600499853,/move_base-27-1449618710.600499853,1,This goal has been accepted by the simple action server,0,1449618711097102524,odom,0.103616763369,0.00307306960247,0.0,0.0,0.0,0.0211345236944,0.999776641009
1449618711258730050,72,1449618711258239715,,1449618710600499853,/move_base-27-1449618710.600499853,1,This goal has been accepted by the simple action server,0,1449618711217102879,odom,0.129498728273,0.0044419531811,0.0,0.0,0.0,0.0264170481704,0.999651008886
1449618711326832968,73,1449618711323352188,,1449618710600499853,/move_base-27-1449618710.600499853,1,This goal has been accepted by the simple action server,0,1449618711297106672,odom,0.143868757975,0.00535435535454,0.0,0.0,0.0,0.0316988350601,0.999497465658
1449618711401406373,74,1449618711397423021,,1449618710600499853,/move_base-27-1449618710.600499853,1,This goal has been accepted by the simple action server,0,1449618711377103388,odom,0.161112793616,0.00644923796266,0.0,0.0,0.0,0.0316988350601,0.999497465658
1449618711498760968,75,1449618711490054761,,1449618710600499853,/move_base-27-1449618710.600499853,1,This goal has been accepted by the simple action server,0,1449618711457097281,odom,0.184104841138,0.00790908144015,0.0,0.0,0.0,0.0316988350601,0.999497465658
1449618711594309306,76,1449618711590782286,,1449618710600499853,/move_base-27-1449618710.600499853,1,This goal has been accepted by the simple action server,0,1449618711580744940,odom,0.212844900541,0.00973388578701,0.0,0.0,0.0,0.0316988350601,0.999497465658
1449618711675970456,77,1449618711672149189,,1449618710600499853,/move_base-27-1449618710.600499853,1,This goal has been accepted by the simple action server,0,1449618711657276741,odom,0.232948319721,0.0112237819856,0.0,0.0,0.0,0.0369797368913,0.999316015612
1449618711764313787,78,1449618711760944696,,1449618710600499853,/move_base-27-1449618710.600499853,1,This goal has been accepted by the simple action server,0,1449618711737126479,odom,0.255923655928,0.0129265204982,0.0,0.0,0.0,0.0369797368913,0.999316015612
1449618711851347148,79,1449618711850195678,,1449618710600499853,/move_base-27-1449618710.600499853,1,This goal has been accepted by the simple action server,0,1449618711817104664,odom,0.27604169751,0.014203883541,0.0,0.0,0.0,0.0316988350601,0.999497465658
1449618711937382368,80,1449618711936822812,,1449618710600499853,/move_base-27-1449618710.600499853,1,This goal has been accepted by the simple action server,0,1449618711897102156,odom,0.296153472348,0.015572332222,0.0,0.0,0.0,0.0369797368913,0.999316015612
1449618712006464483,81,1449618712002462705,,1449618710600499853,/move_base-27-1449618710.600499853,1,This goal has been accepted by the simple action server,0,1449618711977094619,odom,0.319144235964,0.0170320941799,0.0,0.0,0.0,0.0264170481704,0.999651008886
1449618712104368069,82,1449618712103676859,,1449618710600499853,/move_base-27-1449618710.600499853,1,This goal has been accepted by the simple action server,0,1449618712097094519,odom,0.353641146937,0.0190699480997,0.0,0.0,0.0,0.0264170481704,0.999651008886
1449618712172833705,83,1449618712171866286,,1449618710600499853,/move_base-27-1449618710.600499853,1,This goal has been accepted by the simple action server,0,1449618712137102768,odom,0.359392694693,0.0193741444505,0.0,0.0,0.0,0.0264170481704,0.999651008886
1449618712257020484,84,1449618712255503995,,1449618710600499853,/move_base-27-1449618710.600499853,1,This goal has been accepted by the simple action server,0,1449618712217100529,odom,0.38240917449,0.0203476815191,0.0,0.0,0.0,0.0158514091245,0.999874358521
1449618712345324528,85,1449618712343657748,,1449618710600499853,/move_base-27-1449618710.600499853,1,This goal has been accepted by the simple action server,0,1449618712337254016,odom,0.414074036721,0.0211996827794,0.0,0.0,0.0,0.0105678519699,0.999944158693
1449618712421325839,86,1449618712419060015,,1449618710600499853,/move_base-27-1449618710.600499853,1,This goal has been accepted by the simple action server,0,1449618712418184830,odom,0.434231463901,0.0214127153819,0.0,0.0,0.0,0.0052839997518,0.999986039576
1449618712486968895,87,1449618712478825250,,1449618710600499853,/move_base-27-1449618710.600499853,1,This goal has been accepted by the simple action server,0,1449618712457107595,odom,0.445749993719,0.0212909824662,0.0,0.0,0.0,-0.0052839997518,0.999986039576
1449618712576170051,88,1449618712568900642,,1449618710600499853,/move_base-27-1449618710.600499853,1,This goal has been accepted by the simple action server,0,1449618712537105343,odom,0.465905973651,0.0209866603734,0.0,0.0,0.0,-0.0105678519699,0.999944158693
1449618712700744974,89,1449618712677467554,,1449618710600499853,/move_base-27-1449618710.600499853,1,This goal has been accepted by the simple action server,0,1449618712657890767,odom,0.497556687566,0.0197088386003,0.0,0.0,0.0,-0.0264170481704,0.999651008886
1449618712817858819,90,1449618712814420036,,1449618710600499853,/move_base-27-1449618710.600499853,1,This goal has been accepted by the simple action server,0,1449618712777094132,odom,0.53200957729,0.0170639439956,0.0,0.0,0.0,-0.0475382956186,0.998869416115
1449618712886903347,91,1449618712885077223,,1449618710600499853,/move_base-27-1449618710.600499853,1,This goal has been accepted by the simple action server,0,1449618712857684445,odom,0.55491811346,0.0146339054788,0.0,0.0,0.0,-0.0580915451448,0.99831126027
1449618713017046049,92,1449618713015829483,,1449618710600499853,/move_base-27-1449618710.600499853,1,This goal has been accepted by the simple action server,0,1449618712977101105,odom,0.58059445565,0.0111147241066,0.0,0.0,0.0,-0.0739088866573,0.997264998119
1449618713079984993,93,1449618713078429675,,1449618710600499853,/move_base-27-1449618710.600499853,1,This goal has been accepted by the simple action server,0,1449618713057099927,odom,0.603342673815,0.00747814784034,0.0,0.0,0.0,-0.0844437083633,0.996428251365
1449618713165898407,94,1449618713162779786,,1449618710600499853,/move_base-27-1449618710.600499853,1,This goal has been accepted by the simple action server,0,1449618713137100821,odom,0.623187336135,0.00393592131339,0.0,0.0,0.0,-0.0897076561262,0.99596814027
1449618713218715601,95,1449618713216903502,,1449618710600499853,/move_base-27-1449618710.600499853,1,This goal has been accepted by the simple action server,0,1449618713177094771,odom,0.631670876557,0.00230238980334,0.0,0.0,0.0,-0.0949690991753,0.995480220899
1449618713291419352,96,1449618713285310177,,1449618710600499853,/move_base-27-1449618710.600499853,1,This goal has been accepted by the simple action server,0,1449618713257096479,odom,0.648583801964,-0.00123316551969,0.0,0.0,0.0,-0.10548388359,0.994421012601
1449618713357081492,97,1449618713356871688,,1449618710600499853,/move_base-27-1449618710.600499853,1,This goal has been accepted by the simple action server,0,1449618713337120303,odom,0.662629628806,-0.00440254710789,0.0,0.0,0.0,-0.110736931374,0.993849753247
1449618713443890400,98,1449618713442596840,,1449618710600499853,/move_base-27-1449618710.600499853,1,This goal has been accepted by the simple action server,0,1449618713417095359,odom,0.679421981902,-0.00847244572582,0.0,0.0,0.0,-0.121233604752,0.99262400388
1449618713539569449,99,1449618713537823771,,1449618710600499853,/move_base-27-1449618710.600499853,1,This goal has been accepted by the simple action server,0,1449618713497094393,odom,0.693375245963,-0.0120264710693,0.0,0.0,0.0,-0.126476937269,0.991969548091
1449618713637659372,100,1449618713632557479,,1449618710600499853,/move_base-27-1449618710.600499853,1,This goal has been accepted by the simple action server,0,1449618713617379297,odom,0.71004573338,-0.0165677839893,0.0,0.0,0.0,-0.136952861975,0.990577565664
1449618713739707960,101,1449618713739307983,,1449618710600499853,/move_base-27-1449618710.600499853,1,This goal has been accepted by the simple action server,0,1449618713737748659,odom,0.72942285891,-0.0221250445687,0.0,0.0,0.0,-0.142185161666,0.989840077892
1449618713802842138,102,1449618713800549228,,1449618710600499853,/move_base-27-1449618710.600499853,1,This goal has been accepted by the simple action server,0,1449618713777109900,odom,0.732177492113,-0.0229648095182,0.0,0.0,0.0,-0.147413491427,0.989074952946
1449618713949252482,103,1449618713939764697,,1449618710600499853,/move_base-27-1449618710.600499853,1,This goal has been accepted by the simple action server,0,1449618713937153152,odom,0.754151052763,-0.0298862777179,0.0,0.0,0.0,-0.157857657354,0.987461877753
1449618714095614223,104,1449618714077099801,,1449618710600499853,/move_base-27-1449618710.600499853,1,This goal has been accepted by the simple action server,0,1449618714057109452,odom,0.773256739233,-0.0363151762122,0.0,0.0,0.0,-0.163073201911,0.986613972544
1449618714193878986,105,1449618714184171149,,1449618710600499853,/move_base-27-1449618710.600499853,1,This goal has been accepted by the simple action server,0,1449618714177101936,odom,0.789566486428,-0.042018853468,0.0,0.0,0.0,-0.173490486104,0.984835545272
1449618714306777493,106,1449618714299504327,,1449618710600499853,/move_base-27-1449618710.600499853,1,This goal has been accepted by the simple action server,0,1449618714257094839,odom,0.80306701301,-0.0470248954308,0.0,0.0,0.0,-0.17869193488,0.983905072865
1449618714400438799,107,1449618714396818449,,1449618710600499853,/move_base-27-1449618710.600499853,1,This goal has been accepted by the simple action server,0,1449618714377190466,odom,0.821905652626,-0.0541985832094,0.0,0.0,0.0,-0.183888394426,0.982947128993
1449618714478503287,108,1449618714474397772,,1449618710600499853,/move_base-27-1449618710.600499853,1,This goal has been accepted by the simple action server,0,1449618714457096250,odom,0.829927297063,-0.0574067140986,0.0,0.0,0.0,-0.189079719651,0.981961740404
1449618714583091576,109,1449618714569214647,,1449618710600499853,/move_base-27-1449618710.600499853,1,This goal has been accepted by the simple action server,0,1449618714538403176,odom,0.848610116426,-0.0649769452449,0.0,0.0,0.0,-0.194265765611,0.98094893461
1449618714680802586,110,1449618714678897558,,1449618710600499853,/move_base-27-1449618710.600499853,1,This goal has been accepted by the simple action server,0,1449618714657165035,odom,0.867188396078,-0.0728003407055,0.0,0.0,0.0,-0.199446387505,0.979908739889
1449618714802126901,111,1449618714794354165,,1449618710600499853,/move_base-27-1449618710.600499853,1,This goal has been accepted by the simple action server,0,1449618714777118581,odom,0.890936153899,-0.0831827271371,0.0,0.0,0.0,-0.204621440688,0.978841185285
1449618714866027452,112,1449618714851879447,,1449618710600499853,/move_base-27-1449618710.600499853,1,This goal has been accepted by the simple action server,0,1449618714819055952,odom,0.898815057963,-0.0867269836221,0.0,0.0,0.0,-0.209790780666,0.977746300606
1449618715008106511,113,1449618714995249990,,1449618710600499853,/move_base-27-1449618710.600499853,1,This goal has been accepted by the simple action server,0,1449618714977099780,odom,0.935443452356,-0.103571014422,0.0,0.0,0.0,-0.220111743843,0.97547466406
1449618715125719891,114,1449618715112241015,,1449618710600499853,/move_base-27-1449618710.600499853,1,This goal has been accepted by the simple action server,0,1449618715097105143,odom,0.963959160078,-0.117366187453,0.0,0.0,0.0,-0.225263078873,0.97429797562
1449618715206826041,115,1449618715198812419,,1449618710600499853,/move_base-27-1449618710.600499853,1,This goal has been accepted by the simple action server,0,1449618715177100823,odom,0.984659415658,-0.127478793999,0.0,0.0,0.0,-0.225263078873,0.97429797562
1449618715298618017,116,1449618715297285278,,1449618710600499853,/move_base-27-1449618710.600499853,1,This goal has been accepted by the simple action server,0,1449618715257105848,odom,1.0078796879,-0.138991846698,0.0,0.0,0.0,-0.230408124366,0.973094083954
1449618715422823278,117,1449618715414645880,,1449618710600499853,/move_base-27-1449618710.600499853,1,This goal has been accepted by the simple action server,0,1449618715377107091,odom,1.03876803458,-0.15448804532,0.0,0.0,0.0,-0.230408124366,0.973094083954
1449618715541906438,118,1449618715533376435,,1449618710600499853,/move_base-27-1449618710.600499853,1,This goal has been accepted by the simple action server,0,1449618715497102635,odom,1.07198075092,-0.171763194793,0.0,0.0,0.0,-0.235546736669,0.971863022676
1449618715709647993,119,1449618715705184722,,1449618710600499853,/move_base-27-1449618710.600499853,1,This goal has been accepted by the simple action server,0,1449618715697119204,odom,1.12280346298,-0.198860267603,0.0,0.0,0.0,-0.24580408799,0.96931952953
1449618715838321352,120,1449618715830801211,,1449618710600499853,/move_base-27-1449618710.600499853,1,This goal has been accepted by the simple action server,0,1449618715817095922,odom,1.1582486779,-0.218072392769,0.0,0.0,0.0,-0.24580408799,0.96931952953
1449618715976390518,121,1449618715974266931,,1449618710600499853,/move_base-27-1449618710.600499853,1,This goal has been accepted by the simple action server,0,1449618715937125073,odom,1.18863029068,-0.234539928627,0.0,0.0,0.0,-0.24580408799,0.96931952953
1449618716078711211,122,1449618716073960518,,1449618710600499853,/move_base-27-1449618710.600499853,1,This goal has been accepted by the simple action server,0,1449618716057112557,odom,1.21896797271,-0.251087501688,0.0,0.0,0.0,-0.24580408799,0.96931952953
1449618716230369117,123,1449618716225363854,,1449618710600499853,/move_base-27-1449618710.600499853,1,This goal has been accepted by the simple action server,0,1449618716217616794,odom,1.26180358061,-0.274790017773,0.0,0.0,0.0,-0.250922540614,0.968007168678
1449618716329444738,124,1449618716329061342,,1449618710600499853,/move_base-27-1449618710.600499853,1,This goal has been accepted by the simple action server,0,1449618716297098587,odom,1.27952618807,-0.284396080356,0.0,0.0,0.0,-0.24580408799,0.96931952953
1449618716424825593,125,1449618716420376856,,1449618716390664721,/move_base-28-1449618716.390664721,1,This goal has been accepted by the simple action server,0,1449618716417108411,odom,1.30983458293,-0.300997011554,0.0,0.0,0.0,-0.24580408799,0.96931952953
1449618716441664883,126,1449618716431135545,,1449618716390664721,/move_base-28-1449618716.390664721,1,This goal has been accepted by the simple action server,0,1449618716417108411,odom,1.30983458293,-0.300997011554,0.0,0.0,0.0,-0.24580408799,0.96931952953
1449618716481776744,127,1449618716479258373,,1449618716390664721,/move_base-28-1449618716.390664721,1,This goal has been accepted by the simple action server,0,1449618716457106588,odom,1.31996178719,-0.306486190173,0.0,0.0,0.0,-0.24580408799,0.96931952953
1449618716544142763,128,1449618716538673940,,1449618716390664721,/move_base-28-1449618716.390664721,1,This goal has been accepted by the simple action server,0,1449618716497098619,odom,1.33008899145,-0.311975368792,0.0,0.0,0.0,-0.24580408799,0.96931952953
1449618716616809430,129,1449618716614153260,,1449618716390664721,/move_base-28-1449618716.390664721,1,This goal has been accepted by the simple action server,0,1449618716577099396,odom,1.35294700517,-0.324191859037,0.0,0.0,0.0,-0.240678772307,0.970604826158
1449618716689964751,130,1449618716661606750,,1449618716390664721,/move_base-28-1449618716.390664721,1,This goal has been accepted by the simple action server,0,1449618716657109341,odom,1.37327321783,-0.335036054627,0.0,0.0,0.0,-0.240678772307,0.970604826158
1449618716781510100,131,1449618716780533417,,1449618716390664721,/move_base-28-1449618716.390664721,1,This goal has been accepted by the simple action server,0,1449618716737113906,odom,1.39113858048,-0.34437334312,0.0,0.0,0.0,-0.235546736669,0.971863022676
1449618716881445117,132,1449618716874156611,,1449618716390664721,/move_base-28-1449618716.390664721,1,This goal has been accepted by the simple action server,0,1449618716857099771,odom,1.42201227421,-0.359896238924,0.0,0.0,0.0,-0.225263078873,0.97429797562
1449618716939028509,133,1449618716937814551,,1449618716390664721,/move_base-28-1449618716.390664721,1,This goal has been accepted by the simple action server,0,1449618716897095997,odom,1.432362402,-0.364952542197,0.0,0.0,0.0,-0.225263078873,0.97429797562
1449618717031212327,134,1449618717026736589,,1449618716390664721,/move_base-28-1449618716.390664721,1,This goal has been accepted by the simple action server,0,1449618717017097046,odom,1.46617210029,-0.381029129685,0.0,0.0,0.0,-0.220111743843,0.97547466406
1449618717107703017,135,1449618717097771906,,1449618716390664721,/move_base-28-1449618716.390664721,1,This goal has been accepted by the simple action server,0,1449618717057096796,odom,1.47401310921,-0.384656451346,0.0,0.0,0.0,-0.214954263107,0.976624116419
1449618717200964999,136,1449618717198159112,,1449618716390664721,/move_base-28-1449618716.390664721,1,This goal has been accepted by the simple action server,0,1449618717177100418,odom,1.51359123213,-0.401959784547,0.0,0.0,0.0,-0.199446387505,0.979908739889
1449618717295224431,137,1449618717289972127,,1449618716390664721,/move_base-28-1449618716.390664721,1,This goal has been accepted by the simple action server,0,1449618717257106085,odom,1.53220475481,-0.409698955343,0.0,0.0,0.0,-0.194265765611,0.98094893461
1449618717403644306,138,1449618717400791430,,1449618716390664721,/move_base-28-1449618716.390664721,1,This goal has been accepted by the simple action server,0,1449618717377124526,odom,1.56969485404,-0.424528648331,0.0,0.0,0.0,-0.183888394426,0.982947128993
1449618717537956140,139,1449618717528323304,,1449618716390664721,/move_base-28-1449618716.390664721,1,This goal has been accepted by the simple action server,0,1449618717497498170,odom,1.60487700769,-0.437321147081,0.0,0.0,0.0,-0.168284193326,0.985738520236
1449618717666765281,140,1449618717665741235,,1449618716390664721,/move_base-28-1449618716.390664721,1,This goal has been accepted by the simple action server,0,1449618717657104661,odom,1.65137278687,-0.452640897563,0.0,0.0,0.0,-0.152637705278,0.988282212188
1449618717752098625,141,1449618717746756111,,1449618716390664721,/move_base-28-1449618716.390664721,1,This goal has been accepted by the simple action server,0,1449618717737422939,odom,1.67345345594,-0.459213229912,0.0,0.0,0.0,-0.142185161666,0.989840077892
1449618717872334251,142,1449618717871200783,,1449618716390664721,/move_base-28-1449618716.390664721,1,This goal has been accepted by the simple action server,0,1449618717857107102,odom,1.70959019381,-0.46898912555,0.0,0.0,0.0,-0.126476937269,0.991969548091
1449618717980730229,143,1449618717979408267,,1449618716390664721,/move_base-28-1449618716.390664721,1,This goal has been accepted by the simple action server,0,1449618717977127268,odom,1.74600494508,-0.477673918866,0.0,0.0,0.0,-0.110736931374,0.993849753247
1449618718094197457,144,1449618718092990579,,1449618716390664721,/move_base-28-1449618716.390664721,1,This goal has been accepted by the simple action server,0,1449618718058190421,odom,1.76854928491,-0.482417782344,0.0,0.0,0.0,-0.100227890607,0.994964506877
1449618718177703191,145,1449618718175092925,,1449618716390664721,/move_base-28-1449618716.390664721,1,This goal has been accepted by the simple action server,0,1449618718137109366,odom,1.79118884856,-0.486684122353,0.0,0.0,0.0,-0.0897076561262,0.99596814027
1449618718277020489,146,1449618718269294987,,1449618718219989750,/move_base-29-1449618718.219989750,1,This goal has been accepted by the simple action server,0,1449618718257098831,odom,1.82813902258,-0.49268349725,0.0,0.0,0.0,-0.0739088866573,0.997264998119
1449618718320702479,147,1449618718319112168,,1449618718219989750,/move_base-29-1449618718.219989750,1,This goal has been accepted by the simple action server,0,1449618718297092928,odom,1.83953234813,-0.494381578769,0.0,0.0,0.0,-0.0739088866573,0.997264998119
1449618718377878454,148,1449618718374701387,,1449618718219989750,/move_base-29-1449618718.219989750,1,This goal has been accepted by the simple action server,0,1449618718337189864,odom,1.84809032394,-0.495564766558,0.0,0.0,0.0,-0.0686383068554,0.997641610415
1449618718428074589,149,1449618718427458756,,1449618718219989750,/move_base-29-1449618718.219989750,1,This goal has been accepted by the simple action server,0,1449618718417095105,odom,1.86808699451,-0.498114358584,0.0,0.0,0.0,-0.0633658106137,0.997990367712
1449618718500404136,150,1449618718498494675,,1449618718219989750,/move_base-29-1449618718.219989750,1,This goal has been accepted by the simple action server,0,1449618718457117865,odom,1.87954190225,-0.499329445694,0.0,0.0,0.0,-0.0528156577107,0.998604279132
1449618718601442736,151,1449618718592828500,,1449618718219989750,/move_base-29-1449618718.219989750,1,This goal has been accepted by the simple action server,0,1449618718577117289,odom,1.90820566381,-0.50209454819,0.0,0.0,0.0,-0.042259606217,0.999106663816
1449618718732680239,152,1449618718731611006,,1449618718219989750,/move_base-29-1449618718.219989750,1,This goal has been accepted by the simple action server,0,1449618718697112677,odom,1.93405291704,-0.504010129016,0.0,0.0,0.0,-0.0369797368913,0.999316015612
1449618718859865667,153,1449618718845751060,,1449618718219989750,/move_base-29-1449618718.219989750,1,This goal has been accepted by the simple action server,0,1449618718817104080,odom,1.95993391842,-0.505378961635,0.0,0.0,0.0,-0.0211345236944,0.999776641009
1449618718996444459,154,1449618718994094699,,1449618718219989750,/move_base-29-1449618718.219989750,1,This goal has been accepted by the simple action server,0,1449618718977283965,odom,1.98871914811,-0.506200533064,0.0,0.0,0.0,-0.0105678519699,0.999944158693
1449618719118026128,155,1449618719106286209,,1449618718219989750,/move_base-29-1449618718.219989750,1,This goal has been accepted by the simple action server,0,1449618719097111069,odom,2.01175572535,-0.506413558869,0.0,0.0,0.0,-4.4408920985e-16,1.0
1449618719200155158,156,1449618719193657713,,1449618718219989750,/move_base-29-1449618718.219989750,1,This goal has been accepted by the simple action server,0,1449618719177171591,odom,2.02327489841,-0.506413558869,0.0,0.0,0.0,-4.4408920985e-16,1.0
1449618719274950264,157,1449618719269801697,,1449618718219989750,/move_base-29-1449618718.219989750,1,This goal has been accepted by the simple action server,0,1449618719257206170,odom,2.03479294581,-0.506261396123,0.0,0.0,0.0,0.0105678519699,0.999944158693
1449618719363346303,158,1449618719361909739,,1449618718219989750,/move_base-29-1449618718.219989750,1,This goal has been accepted by the simple action server,0,1449618719338326422,odom,2.04342798402,-0.505987537848,0.0,0.0,0.0,0.0158514091245,0.999874358521
1449618719409796002,159,1449618719409255969,,1449618718219989750,/move_base-29-1449618718.219989750,1,This goal has been accepted by the simple action server,0,1449618719377106698,odom,2.05494136831,-0.505622393481,0.0,0.0,0.0,0.0158514091245,0.999874358521
1449618719473597141,160,1449618719473062014,,1449618718219989750,/move_base-29-1449618718.219989750,1,This goal has been accepted by the simple action server,0,1449618719457111857,odom,2.0664496082,-0.505135624946,0.0,0.0,0.0,0.0264170481704,0.999651008886
1449618719550992211,161,1449618719533452627,,1449618718219989750,/move_base-29-1449618718.219989750,1,This goal has been accepted by the simple action server,0,1449618719497118708,odom,2.07220115596,-0.504831428596,0.0,0.0,0.0,0.0264170481704,0.999651008886
1449618719601468238,162,1449618719595950116,,1449618718219989750,/move_base-29-1449618718.219989750,1,This goal has been accepted by the simple action server,0,1449618719577103374,odom,2.08370425147,-0.504223035894,0.0,0.0,0.0,0.0264170481704,0.999651008886
1449618719647085556,163,1449618719644207951,,1449618718219989750,/move_base-29-1449618718.219989750,1,This goal has been accepted by the simple action server,0,1449618719617108596,odom,2.08657825741,-0.504040555459,0.0,0.0,0.0,0.0316988350601,0.999497465658
1449618719689464824,164,1449618719685004262,,1449618718219989750,/move_base-29-1449618718.219989750,1,This goal has been accepted by the simple action server,0,1449618719657095051,odom,2.09519400849,-0.503402028517,0.0,0.0,0.0,0.0369797368913,0.999316015612
1449618719736465959,165,1449618719736374332,,1449618718219989750,/move_base-29-1449618718.219989750,1,This goal has been accepted by the simple action server,0,1449618719697100546,odom,2.10093784254,-0.502976343889,0.0,0.0,0.0,0.0369797368913,0.999316015612
1449618719810713664,166,1449618719807824288,,1449618718219989750,/move_base-29-1449618718.219989750,1,This goal has been accepted by the simple action server,0,1449618719777275816,odom,2.11242551065,-0.502124974633,0.0,0.0,0.0,0.0369797368913,0.999316015612
1449618719871337859,167,1449618719869062011,,1449618718219989750,/move_base-29-1449618718.219989750,1,This goal has been accepted by the simple action server,0,1449618719857099634,odom,2.12103403275,-0.501395433365,0.0,0.0,0.0,0.042259606217,0.999106663816
1449618719948028975,168,1449618719947213488,,1449618718219989750,/move_base-29-1449618718.219989750,1,This goal has been accepted by the simple action server,0,1449618719937134324,odom,2.13536791893,-0.500027976503,0.0,0.0,0.0,0.0475382956186,0.998869416115
1449618720086416608,169,1449618720079947068,,1449618718219989750,/move_base-29-1449618718.219989750,1,This goal has been accepted by the simple action server,0,1449618720057096847,odom,2.15254691042,-0.498175099358,0.0,0.0,0.0,0.0580915451448,0.99831126027
1449618720162501086,170,1449618720155513337,,1449618718219989750,/move_base-29-1449618718.219989750,1,This goal has been accepted by the simple action server,0,1449618720137112979,odom,2.15541063735,-0.497871327581,0.0,0.0,0.0,0.0528156577107,0.998604279132
1449618720247401398,171,1449618720230043284,,1449618718219989750,/move_base-29-1449618718.219989750,1,This goal has been accepted by the simple action server,0,1449618720217099045,odom,2.1725506407,-0.495685962987,0.0,0.0,0.0,0.0633658106137,0.997990367712
1449618720316447813,172,1449618720307106088,,1449618718219989750,/move_base-29-1449618718.219989750,1,This goal has been accepted by the simple action server,0,1449618720297101963,odom,2.18111663375,-0.494563112193,0.0,0.0,0.0,0.0686383068554,0.997641610415
1449618720392125078,173,1449618720388405750,,1449618718219989750,/move_base-29-1449618718.219989750,1,This goal has been accepted by the simple action server,0,1449618720377282823,odom,2.18682595958,-0.493804488831,0.0,0.0,0.0,0.0686383068554,0.997641610415
1449618720492329697,174,1449618720482679981,,1449618718219989750,/move_base-29-1449618718.219989750,1,This goal has been accepted by the simple action server,0,1449618720457197167,odom,2.19253127678,-0.493015696972,0.0,0.0,0.0,0.0686383068554,0.997641610415
1449618720559899446,175,1449618720557349992,,1449618718219989750,/move_base-29-1449618718.219989750,1,This goal has been accepted by the simple action server,0,1449618720538030601,odom,2.19537960817,-0.492591176592,0.0,0.0,0.0,0.0739088866573,0.997264998119
1449618720642270239,176,1449618720637234149,,1449618718219989750,/move_base-29-1449618718.219989750,1,This goal has been accepted by the simple action server,0,1449618720617098871,odom,2.20108059816,-0.491772260283,0.0,0.0,0.0,0.0739088866573,0.997264998119
1449618720717969779,177,1449618720717435144,,1449618718219989750,/move_base-29-1449618718.219989750,1,This goal has been accepted by the simple action server,0,1449618720697108905,odom,2.20108059816,-0.491772260283,0.0,0.0,0.0,0.0739088866573,0.997264998119
1449618720818619479,178,1449618720815772942,,1449618718219989750,/move_base-29-1449618718.219989750,1,This goal has been accepted by the simple action server,0,1449618720777106216,odom,2.20108059816,-0.491772260283,0.0,0.0,0.0,0.0739088866573,0.997264998119
1449618720897955332,179,1449618720875174843,,1449618718219989750,/move_base-29-1449618718.219989750,1,This goal has been accepted by the simple action server,0,1449618720857096275,odom,2.20108059816,-0.491772260283,0.0,0.0,0.0,0.0739088866573,0.997264998119
1449618720957407237,180,1449618720953640889,,1449618718219989750,/move_base-29-1449618718.219989750,1,This goal has been accepted by the simple action server,0,1449618720937101949,odom,2.20108059816,-0.491772260283,0.0,0.0,0.0,0.0739088866573,0.997264998119
1449618721061803784,181,1449618721060012833,,1449618718219989750,/move_base-29-1449618718.219989750,1,This goal has been accepted by the simple action server,0,1449618721057112280,odom,2.20108059816,-0.491772260283,0.0,0.0,0.0,0.0739088866573,0.997264998119
1449618721151009738,182,1449618721150095814,,1449618718219989750,/move_base-29-1449618718.219989750,1,This goal has been accepted by the simple action server,0,1449618721137095940,odom,2.20108059816,-0.491772260283,0.0,0.0,0.0,0.0739088866573,0.997264998119
1449618721232199424,183,1449618721226444789,,1449618718219989750,/move_base-29-1449618718.219989750,1,This goal has been accepted by the simple action server,0,1449618721217104472,odom,2.20108059816,-0.491772260283,0.0,0.0,0.0,0.0739088866573,0.997264998119
1449618721327995527,184,1449618721306178715,,1449618718219989750,/move_base-29-1449618718.219989750,1,This goal has been accepted by the simple action server,0,1449618721257144376,odom,2.20108059816,-0.491772260283,0.0,0.0,0.0,0.0739088866573,0.997264998119
1449618721366888947,185,1449618721361158073,,1449618718219989750,/move_base-29-1449618718.219989750,1,This goal has been accepted by the simple action server,0,1449618721337097124,odom,2.20108059816,-0.491772260283,0.0,0.0,0.0,0.0739088866573,0.997264998119
1449618721443538195,186,1449618721431150321,,1449618718219989750,/move_base-29-1449618718.219989750,1,This goal has been accepted by the simple action server,0,1449618721377326826,odom,2.20108059816,-0.491772260283,0.0,0.0,0.0,0.0739088866573,0.997264998119
1449618721555043304,187,1449618721547442210,,1449618718219989750,/move_base-29-1449618718.219989750,1,This goal has been accepted by the simple action server,0,1449618721537102117,odom,2.20961630168,-0.490438545066,0.0,0.0,0.0,0.0791774028604,0.996860541338
1449618721619887809,188,1449618721616623925,,1449618718219989750,/move_base-29-1449618718.219989750,1,This goal has been accepted by the simple action server,0,1449618721577112082,odom,2.20961630168,-0.490438545066,0.0,0.0,0.0,0.0791774028604,0.996860541338
1449618721696590313,189,1449618721694806897,,1449618718219989750,/move_base-29-1449618718.219989750,1,This goal has been accepted by the simple action server,0,1449618721659398851,odom,2.2152987109,-0.48949932396,0.0,0.0,0.0,0.0791774028604,0.996860541338
1449618721773670871,190,1449618721765300277,,1449618718219989750,/move_base-29-1449618718.219989750,1,This goal has been accepted by the simple action server,0,1449618721737097971,odom,2.22381488036,-0.4880454529,0.0,0.0,0.0,0.0844437083633,0.996428251365
1449618721832725362,191,1449618721828944409,,1449618718219989750,/move_base-29-1449618718.219989750,1,This goal has been accepted by the simple action server,0,1449618721817094911,odom,2.23231520997,-0.486501665408,0.0,0.0,0.0,0.0897076561262,0.99596814027
1449618721930505085,192,1449618721922349636,,1449618718219989750,/move_base-29-1449618718.219989750,1,This goal has been accepted by the simple action server,0,1449618721897102011,odom,2.23797649998,-0.485442559074,0.0,0.0,0.0,0.0897076561262,0.99596814027
1449618722001677412,193,1449618721990950793,,1449618718219989750,/move_base-29-1449618718.219989750,1,This goal has been accepted by the simple action server,0,1449618721977091314,odom,2.24928197499,-0.4832346632,0.0,0.0,0.0,0.100227890607,0.994964506877
1449618722055053392,194,1449618722052346861,,1449618718219989750,/move_base-29-1449618718.219989750,1,This goal has been accepted by the simple action server,0,1449618722017094499,odom,2.25776551541,-0.48160113169,0.0,0.0,0.0,0.0949690991753,0.995480220899
1449618722119474820,195,1449618722117918979,,1449618718219989750,/move_base-29-1449618718.219989750,1,This goal has been accepted by the simple action server,0,1449618722097098435,odom,2.26903457164,-0.479214305094,0.0,0.0,0.0,0.10548388359,0.994421012601
1449618722221491570,196,1449618722206401756,,1449618718219989750,/move_base-29-1449618718.219989750,1,This goal has been accepted by the simple action server,0,1449618722177096551,odom,2.28309348217,-0.476104367987,0.0,0.0,0.0,0.110736931374,0.993849753247
1449618722286881964,197,1449618722283457004,,1449618718219989750,/move_base-29-1449618718.219989750,1,This goal has been accepted by the simple action server,0,1449618722257098658,odom,2.29711874228,-0.472846032057,0.0,0.0,0.0,0.115986887289,0.993250744765
1449618722374276719,198,1449618722369081923,,1449618718219989750,/move_base-29-1449618718.219989750,1,This goal has been accepted by the simple action server,0,1449618722337091028,odom,2.31110878558,-0.469439661204,0.0,0.0,0.0,0.121233604752,0.99262400388
1449618722469870769,199,1449618722460835702,,1449618718219989750,/move_base-29-1449618718.219989750,1,This goal has been accepted by the simple action server,0,1449618722457103368,odom,2.33338669364,-0.463570563164,0.0,0.0,0.0,0.131716738444,0.99128739567
1449618722529187516,200,1449618722520269112,,1449618718219989750,/move_base-29-1449618718.219989750,1,This goal has been accepted by the simple action server,0,1449618722497100743,odom,2.33894643059,-0.462066514614,0.0,0.0,0.0,0.131716738444,0.99128739567
1449618722601507947,201,1449618722589773763,,1449618718219989750,/move_base-29-1449618718.219989750,1,This goal has been accepted by the simple action server,0,1449618722577110442,odom,2.35834879233,-0.456596997975,0.0,0.0,0.0,0.136952861975,0.990577565664
1449618722647099753,202,1449618722640840701,,1449618718219989750,/move_base-29-1449618718.219989750,1,This goal has been accepted by the simple action server,0,1449618722617098858,odom,2.36663885401,-0.454165175475,0.0,0.0,0.0,0.142185161666,0.989840077892
1449618722711178534,203,1449618722710842406,,1449618718219989750,/move_base-29-1449618718.219989750,1,This goal has been accepted by the simple action server,0,1449618722700449986,odom,2.38592128643,-0.448286820828,0.0,0.0,0.0,0.147413491427,0.989074952946
1449618722764565970,204,1449618722764141186,,1449618718219989750,/move_base-29-1449618718.219989750,1,This goal has been accepted by the simple action server,0,1449618722737094892,odom,2.39415810104,-0.445680334993,0.0,0.0,0.0,0.152637705278,0.988282212188
1449618722814410369,205,1449618722813907464,,1449618718219989750,/move_base-29-1449618718.219989750,1,This goal has been accepted by the simple action server,0,1449618722777101686,odom,2.40236691073,-0.442986949269,0.0,0.0,0.0,0.157857657354,0.987461877753
1449618722879301426,206,1449618722864121594,,1449618718219989750,/move_base-29-1449618718.219989750,1,This goal has been accepted by the simple action server,0,1449618722857202606,odom,2.42149187833,-0.436615783497,0.0,0.0,0.0,0.163073201911,0.986613972544
1449618722934917299,207,1449618722926443556,,1449618718219989750,/move_base-29-1449618718.219989750,1,This goal has been accepted by the simple action server,0,1449618722897101824,odom,2.43239839567,-0.432909137088,0.0,0.0,0.0,0.163073201911,0.986613972544
1449618723048005671,208,1449618723042467891,,1449618718219989750,/move_base-29-1449618718.219989750,1,This goal has been accepted by the simple action server,0,1449618723017106854,odom,2.45953449274,-0.423268923878,0.0,0.0,0.0,0.173490486104,0.984835545272
1449618723099680472,209,1449618723099283616,,1449618718219989750,/move_base-29-1449618718.219989750,1,This goal has been accepted by the simple action server,0,1449618723097093848,odom,2.47577310734,-0.417364440059,0.0,0.0,0.0,0.173490486104,0.984835545272
1449618723161789415,210,1449618723149568945,,1449618718219989750,/move_base-29-1449618718.219989750,1,This goal has been accepted by the simple action server,0,1449618723137104889,odom,2.4865988504,-0.413428117513,0.0,0.0,0.0,0.173490486104,0.984835545272
1449618723208489428,211,1449618723202872821,,1449618718219989750,/move_base-29-1449618718.219989750,1,This goal has been accepted by the simple action server,0,1449618723177305086,odom,2.50007827548,-0.40836498303,0.0,0.0,0.0,0.17869193488,0.983905072865
1449618723272147994,212,1449618723258494228,,1449618718219989750,/move_base-29-1449618718.219989750,1,This goal has been accepted by the simple action server,0,1449618723257106867,odom,2.51625358558,-0.40228922165,0.0,0.0,0.0,0.17869193488,0.983905072865
1449618723353154409,213,1449618723349820768,,1449618718219989750,/move_base-29-1449618718.219989750,1,This goal has been accepted by the simple action server,0,1449618723337208467,odom,2.53782066571,-0.394188206477,0.0,0.0,0.0,0.17869193488,0.983905072865
1449618723428903825,214,1449618723427703385,,1449618718219989750,/move_base-29-1449618718.219989750,1,This goal has been accepted by the simple action server,0,1449618723417093177,odom,2.55399597581,-0.388112445097,0.0,0.0,0.0,0.17869193488,0.983905072865
1449618723509884396,215,1449618723505790402,,1449618718219989750,/move_base-29-1449618718.219989750,1,This goal has been accepted by the simple action server,0,1449618723497101785,odom,2.57556305594,-0.380011429924,0.0,0.0,0.0,0.17869193488,0.983905072865
1449618723604820032,216,1449618723599889630,,1449618718219989750,/move_base-29-1449618718.219989750,1,This goal has been accepted by the simple action server,0,1449618723577102339,odom,2.59713013607,-0.371910414751,0.0,0.0,0.0,0.17869193488,0.983905072865
1449618723666101904,217,1449618723662828531,,1449618718219989750,/move_base-29-1449618718.219989750,1,This goal has been accepted by the simple action server,0,1449618723657120592,odom,2.61330544617,-0.365834653371,0.0,0.0,0.0,0.17869193488,0.983905072865
1449618723754166895,218,1449618723746298922,,1449618718219989750,/move_base-29-1449618718.219989750,1,This goal has been accepted by the simple action server,0,1449618723737105647,odom,2.63214408579,-0.358660965593,0.0,0.0,0.0,0.183888394426,0.982947128993
1449618723838713425,219,1449618723829272527,,1449618723766566455,/move_base-30-1449618723.766566455,1,This goal has been accepted by the simple action server,0,1449618723817981785,odom,2.64825428489,-0.352414605209,0.0,0.0,0.0,0.183888394426,0.982947128993
1449618723883689197,220,1449618723879109094,,1449618723766566455,/move_base-30-1449618723.766566455,1,This goal has been accepted by the simple action server,0,1449618723857097472,odom,2.65899441763,-0.348250364952,0.0,0.0,0.0,0.183888394426,0.982947128993
1449618723947154785,221,1449618723946018738,,1449618723766566455,/move_base-30-1449618723.766566455,1,This goal has been accepted by the simple action server,0,1449618723937110026,odom,2.68047468309,-0.33992188444,0.0,0.0,0.0,0.183888394426,0.982947128993
1449618724031763165,222,1449618724019068423,,1449618723766566455,/move_base-30-1449618723.766566455,1,This goal has been accepted by the simple action server,0,1449618723977103862,odom,2.68584474946,-0.337839764312,0.0,0.0,0.0,0.183888394426,0.982947128993
1449618724094000908,223,1449618724086253299,,1449618723766566455,/move_base-30-1449618723.766566455,1,This goal has been accepted by the simple action server,0,1449618724057106375,odom,2.70460652663,-0.330467393167,0.0,0.0,0.0,0.189079719651,0.981961740404
1449618724141276139,224,1449618724136202204,,1449618723766566455,/move_base-30-1449618723.766566455,1,This goal has been accepted by the simple action server,0,1449618724097099192,odom,2.71266162618,-0.327344212975,0.0,0.0,0.0,0.183888394426,0.982947128993
1449618724199112901,225,1449618724194963045,,1449618723766566455,/move_base-30-1449618723.766566455,1,This goal has been accepted by the simple action server,0,1449618724177095838,odom,2.73137879654,-0.319858574234,0.0,0.0,0.0,0.189079719651,0.981961740404
1449618724270605482,226,1449618724260623252,,1449618723766566455,/move_base-30-1449618723.766566455,1,This goal has been accepted by the simple action server,0,1449618724218230281,odom,2.7367265595,-0.317719820307,0.0,0.0,0.0,0.189079719651,0.981961740404
1449618724368720465,227,1449618724361819965,,1449618723766566455,/move_base-30-1449618723.766566455,1,This goal has been accepted by the simple action server,0,1449618724337114495,odom,2.75808326034,-0.309080212198,0.0,0.0,0.0,0.189079719651,0.981961740404
1449618724421050149,228,1449618724417066902,,1449618723766566455,/move_base-30-1449618723.766566455,1,This goal has been accepted by the simple action server,0,1449618724377112727,odom,2.76607055378,-0.305787488904,0.0,0.0,0.0,0.194265765611,0.98094893461
1449618724483663641,229,1449618724476031366,,1449618723766566455,/move_base-30-1449618723.766566455,1,This goal has been accepted by the simple action server,0,1449618724457104609,odom,2.78204514068,-0.299202042316,0.0,0.0,0.0,0.194265765611,0.98094893461
1449618724576977703,230,1449618724575653988,,1449618723766566455,/move_base-30-1449618723.766566455,1,This goal has been accepted by the simple action server,0,1449618724537110150,odom,2.80334458986,-0.290421446866,0.0,0.0,0.0,0.194265765611,0.98094893461
1449618724689816978,231,1449618724684590472,,1449618723766566455,/move_base-30-1449618723.766566455,1,This goal has been accepted by the simple action server,0,1449618724657099437,odom,2.82460879602,-0.28155662675,0.0,0.0,0.0,0.194265765611,0.98094893461
1449618724744653171,232,1449618724743049371,,1449618723766566455,/move_base-30-1449618723.766566455,1,This goal has been accepted by the simple action server,0,1449618724737109124,odom,2.82993365832,-0.279361477888,0.0,0.0,0.0,0.194265765611,0.98094893461
1449618724814604699,233,1449618724807111250,,1449618723766566455,/move_base-30-1449618723.766566455,1,This goal has been accepted by the simple action server,0,1449618724777096760,odom,2.85378980956,-0.269230634011,0.0,0.0,0.0,0.199446387505,0.979908739889
1449618724877579609,234,1449618724868805581,,1449618723766566455,/move_base-30-1449618723.766566455,1,This goal has been accepted by the simple action server,0,1449618724857097832,odom,2.87499527732,-0.260225439454,0.0,0.0,0.0,0.199446387505,0.979908739889
1449618724961305279,235,1449618724955596911,,1449618723766566455,/move_base-30-1449618723.766566455,1,This goal has been accepted by the simple action server,0,1449618724937105537,odom,2.89089937815,-0.253471543537,0.0,0.0,0.0,0.199446387505,0.979908739889
1449618725038137983,236,1449618725034764154,,1449618723766566455,/move_base-30-1449618723.766566455,1,This goal has been accepted by the simple action server,0,1449618725017105090,odom,2.91210484592,-0.24446634898,0.0,0.0,0.0,0.199446387505,0.979908739889
1449618725054417599,237,1449618725054083438,,1449618723766566455,/move_base-30-1449618723.766566455,1,This goal has been accepted by the simple action server,0,1449618725017105090,odom,2.91210484592,-0.24446634898,0.0,0.0,0.0,0.199446387505,0.979908739889
1449618732719589744,238,1449618732719203593,,1449618732718813735,/move_base-31-1449618732.718813735,1,This goal has been accepted by the simple action server,0,1449618732697105242,odom,4.59475316311,0.484992105568,0.0,0.0,0.0,0.490401470449,0.871496642438
1449618732769560511,239,1449618732769250440,,1449618732718813735,/move_base-31-1449618732.718813735,1,This goal has been accepted by the simple action server,0,1449618732737100244,odom,4.60209592705,0.497378148082,0.0,0.0,0.0,0.494999612279,0.868893194727
