%time,field.header.seq,field.header.stamp,field.header.frame_id,field.polygon.points0.x,field.polygon.points0.y,field.polygon.points0.z,field.polygon.points1.x,field.polygon.points1.y,field.polygon.points1.z,field.polygon.points2.x,field.polygon.points2.y,field.polygon.points2.z,field.polygon.points3.x,field.polygon.points3.y,field.polygon.points3.z,field.polygon.points4.x,field.polygon.points4.y,field.polygon.points4.z
1449618704536829482,1,1449618704536673234,odom,0.479999989271,0.0,0.0,0.329999983311,-0.264999985695,0.0,-0.539999961853,-0.264999985695,0.0,-0.539999961853,0.264999985695,0.0,0.329999983311,0.264999985695,0.0
1449618704736780595,2,1449618704736605838,odom,0.479999989271,0.0,0.0,0.329999983311,-0.264999985695,0.0,-0.539999961853,-0.264999985695,0.0,-0.539999961853,0.264999985695,0.0,0.329999983311,0.264999985695,0.0
1449618705013432124,3,1449618705012941997,odom,0.479999989271,0.0,0.0,0.329999983311,-0.264999985695,0.0,-0.539999961853,-0.264999985695,0.0,-0.539999961853,0.264999985695,0.0,0.329999983311,0.264999985695,0.0
1449618705252305161,4,1449618705251965606,odom,0.479999989271,0.0,0.0,0.329999983311,-0.264999985695,0.0,-0.539999961853,-0.264999985695,0.0,-0.539999961853,0.264999985695,0.0,0.329999983311,0.264999985695,0.0
1449618705418674201,5,1449618705418425548,odom,0.479999989271,0.0,0.0,0.329999983311,-0.264999985695,0.0,-0.539999961853,-0.264999985695,0.0,-0.539999961853,0.264999985695,0.0,0.329999983311,0.264999985695,0.0
1449618705622822371,6,1449618705622044185,odom,0.479999989271,0.0,0.0,0.329999983311,-0.264999985695,0.0,-0.539999961853,-0.264999985695,0.0,-0.539999961853,0.264999985695,0.0,0.329999983311,0.264999985695,0.0
1449618705841743948,7,1449618705841347016,odom,0.479999989271,0.0,0.0,0.329999983311,-0.264999985695,0.0,-0.539999961853,-0.264999985695,0.0,-0.539999961853,0.264999985695,0.0,0.329999983311,0.264999985695,0.0
1449618706053947300,8,1449618706053242878,odom,0.479999989271,0.0,0.0,0.329999983311,-0.264999985695,0.0,-0.539999961853,-0.264999985695,0.0,-0.539999961853,0.264999985695,0.0,0.329999983311,0.264999985695,0.0
1449618706232684597,9,1449618706232198460,odom,0.479999989271,0.0,0.0,0.329999983311,-0.264999985695,0.0,-0.539999961853,-0.264999985695,0.0,-0.539999961853,0.264999985695,0.0,0.329999983311,0.264999985695,0.0
1449618706472756189,10,1449618706472257027,odom,0.479999989271,0.0,0.0,0.329999983311,-0.264999985695,0.0,-0.539999961853,-0.264999985695,0.0,-0.539999961853,0.264999985695,0.0,0.329999983311,0.264999985695,0.0
1449618706707609125,11,1449618706707091307,odom,0.479999989271,0.0,0.0,0.329999983311,-0.264999985695,0.0,-0.539999961853,-0.264999985695,0.0,-0.539999961853,0.264999985695,0.0,0.329999983311,0.264999985695,0.0
1449618706878468243,12,1449618706877993318,odom,0.479999989271,0.0,0.0,0.329999983311,-0.264999985695,0.0,-0.539999961853,-0.264999985695,0.0,-0.539999961853,0.264999985695,0.0,0.329999983311,0.264999985695,0.0
1449618707063417850,13,1449618707063096577,odom,0.479999989271,0.0,0.0,0.329999983311,-0.264999985695,0.0,-0.539999961853,-0.264999985695,0.0,-0.539999961853,0.264999985695,0.0,0.329999983311,0.264999985695,0.0
1449618707278009775,14,1449618707274568883,odom,0.479999989271,0.0,0.0,0.329999983311,-0.264999985695,0.0,-0.539999961853,-0.264999985695,0.0,-0.539999961853,0.264999985695,0.0,0.329999983311,0.264999985695,0.0
1449618707459138239,15,1449618707458213555,odom,0.479999989271,0.0,0.0,0.329999983311,-0.264999985695,0.0,-0.539999961853,-0.264999985695,0.0,-0.539999961853,0.264999985695,0.0,0.329999983311,0.264999985695,0.0
1449618707660063453,16,1449618707659742289,odom,0.479999989271,0.0,0.0,0.329999983311,-0.264999985695,0.0,-0.539999961853,-0.264999985695,0.0,-0.539999961853,0.264999985695,0.0,0.329999983311,0.264999985695,0.0
1449618707832219558,17,1449618707831798341,odom,0.479999989271,0.0,0.0,0.329999983311,-0.264999985695,0.0,-0.539999961853,-0.264999985695,0.0,-0.539999961853,0.264999985695,0.0,0.329999983311,0.264999985695,0.0
1449618708048406106,18,1449618708046666544,odom,0.479999989271,0.0,0.0,0.329999983311,-0.264999985695,0.0,-0.539999961853,-0.264999985695,0.0,-0.539999961853,0.264999985695,0.0,0.329999983311,0.264999985695,0.0
1449618708268535728,19,1449618708260488073,odom,0.479999989271,0.0,0.0,0.329999983311,-0.264999985695,0.0,-0.539999961853,-0.264999985695,0.0,-0.539999961853,0.264999985695,0.0,0.329999983311,0.264999985695,0.0
1449618708463193688,20,1449618708462126847,odom,0.479999989271,0.0,0.0,0.329999983311,-0.264999985695,0.0,-0.539999961853,-0.264999985695,0.0,-0.539999961853,0.264999985695,0.0,0.329999983311,0.264999985695,0.0
1449618708657748704,21,1449618708655573648,odom,0.479999989271,0.0,0.0,0.329999983311,-0.264999985695,0.0,-0.539999961853,-0.264999985695,0.0,-0.539999961853,0.264999985695,0.0,0.329999983311,0.264999985695,0.0
1449618708832679725,22,1449618708831800819,odom,0.479999989271,0.0,0.0,0.329999983311,-0.264999985695,0.0,-0.539999961853,-0.264999985695,0.0,-0.539999961853,0.264999985695,0.0,0.329999983311,0.264999985695,0.0
1449618709048918453,23,1449618709046918095,odom,0.479999989271,0.0,0.0,0.329999983311,-0.264999985695,0.0,-0.539999961853,-0.264999985695,0.0,-0.539999961853,0.264999985695,0.0,0.329999983311,0.264999985695,0.0
1449618709240703562,24,1449618709239994637,odom,0.479999989271,0.0,0.0,0.329999983311,-0.264999985695,0.0,-0.539999961853,-0.264999985695,0.0,-0.539999961853,0.264999985695,0.0,0.329999983311,0.264999985695,0.0
1449618709460059922,25,1449618709459491575,odom,0.479999989271,0.0,0.0,0.329999983311,-0.264999985695,0.0,-0.539999961853,-0.264999985695,0.0,-0.539999961853,0.264999985695,0.0,0.329999983311,0.264999985695,0.0
1449618709695001009,26,1449618709692149387,odom,0.479999989271,0.0,0.0,0.329999983311,-0.264999985695,0.0,-0.539999961853,-0.264999985695,0.0,-0.539999961853,0.264999985695,0.0,0.329999983311,0.264999985695,0.0
1449618709845615282,27,1449618709845238044,odom,0.479999989271,0.0,0.0,0.329999983311,-0.264999985695,0.0,-0.539999961853,-0.264999985695,0.0,-0.539999961853,0.264999985695,0.0,0.329999983311,0.264999985695,0.0
1449618710075236298,28,1449618710074874796,odom,0.479999989271,0.0,0.0,0.329999983311,-0.264999985695,0.0,-0.539999961853,-0.264999985695,0.0,-0.539999961853,0.264999985695,0.0,0.329999983311,0.264999985695,0.0
1449618710321425366,29,1449618710320810456,odom,0.485759437084,3.04332297674e-05,0.0,0.335759431124,-0.264969557524,0.0,-0.534240543842,-0.264969557524,0.0,-0.534240543842,0.265030413866,0.0,0.335759431124,0.265030413866,0.0
1449618710482841216,30,1449618710481046030,odom,0.494371503592,0.00519430171698,0.0,0.347180366516,-0.261376082897,0.0,-0.522771000862,-0.270570099354,0.0,-0.528371989727,0.25940027833,0.0,0.341579407454,0.268594324589,0.0
1449618710688940007,31,1449618710686143607,odom,0.505889058113,0.00537689449266,0.0,0.358697921038,-0.261193484068,0.0,-0.511253476143,-0.270387500525,0.0,-0.516854405403,0.259582877159,0.0,0.353096961975,0.268776923418,0.0
1449618710920426870,32,1449618710891620153,odom,0.522949278355,0.0158849377185,0.0,0.381424814463,-0.253736704588,0.0,-0.488137930632,-0.281314700842,0.0,-0.504938304424,0.248418956995,0.0,0.36462444067,0.275996923447,0.0
1449618711065857788,33,1449618711061768786,odom,0.548665642738,0.0218060947955,0.0,0.409998446703,-0.249296113849,0.0,-0.459224313498,-0.28606197238,0.0,-0.481621921062,0.243464559317,0.0,0.387600839138,0.280230402946,0.0
1449618711332084774,34,1449618711327377344,odom,0.583187937737,0.0233576800674,0.0,0.444520741701,-0.247744515538,0.0,-0.424702018499,-0.284510374069,0.0,-0.447099596262,0.245016142726,0.0,0.422123163939,0.281782001257,0.0
1449618711442211110,35,1449618711441145385,odom,0.622904121876,0.0357699431479,0.0,0.489997506142,-0.238202363253,0.0,-0.378254085779,-0.293330609798,0.0,-0.41183796525,0.235604256392,0.0,0.456413626671,0.290732502937,0.0
1449618711668509714,36,1449618711666378128,odom,0.674636244774,0.0390545912087,0.0,0.54172962904,-0.234917715192,0.0,-0.326521962881,-0.290045976639,0.0,-0.360105842352,0.238888904452,0.0,0.508145749569,0.294017165899,0.0
1449618711909304100,37,1449618711909141002,odom,0.723123192787,0.0475514158607,0.0,0.593119263649,-0.227810129523,0.0,-0.274501234293,-0.292110860348,0.0,-0.313672930002,0.236439570785,0.0,0.55394756794,0.300740301609,0.0
1449618712097601483,38,1449618712089466590,odom,0.774840652943,0.0510485991836,0.0,0.644836783409,-0.224312961102,0.0,-0.222783744335,-0.288613677025,0.0,-0.261955440044,0.239936754107,0.0,0.6056650877,0.304237484932,0.0
1449618712309667344,39,1449618712304002966,odom,0.832971215248,0.0444214642048,0.0,0.69717669487,-0.228131011128,0.0,-0.17160898447,-0.274080634117,0.0,-0.199601277709,0.255179613829,0.0,0.66918438673,0.301129251719,0.0
1449618712519878109,40,1449618712509117512,odom,0.882450222969,0.0311008021235,0.0,0.738084375858,-0.23701018095,0.0,-0.131721273065,-0.255397230387,0.0,-0.142922565341,0.274484395981,0.0,0.72688305378,0.292871415615,0.0
1449618712726657035,41,1449618712720784607,odom,0.937241733074,0.0160966813564,0.0,0.784449636936,-0.247303336859,0.0,-0.0855017751455,-0.238109305501,0.0,-0.079900816083,0.291861087084,0.0,0.790050566196,0.282667040825,0.0
1449618712886956477,42,1449618712884435576,odom,0.990962088108,-0.0116191525012,0.0,0.824471592903,-0.266581714153,0.0,-0.0437799915671,-0.211453467607,0.0,-0.0101961130276,0.317481428385,0.0,0.858055472374,0.262353152037,0.0
1449618713102530715,43,1449618713101380959,odom,1.03739917278,-0.0417078360915,0.0,0.857675015926,-0.287521243095,0.0,-0.00645307078958,-0.186612650752,0.0,0.0550199784338,0.339810222387,0.0,0.919148087502,0.238901644945,0.0
1449618713254965323,44,1449618713253804326,odom,1.08217465878,-0.07426751405,0.0,0.889718532562,-0.310245573521,0.0,0.0321260355413,-0.163838341832,0.0,0.12131665647,0.358603060246,0.0,0.978909134865,0.212195813656,0.0
1449618713522618814,45,1449618713519676298,odom,1.12523913383,-0.108788430691,0.0,0.920588314533,-0.334272444248,0.0,0.071925394237,-0.14277523756,0.0,0.188584625721,0.374226331711,0.0,1.03724753857,0.182729110122,0.0
1449618713660860518,46,1449618713657461343,odom,1.15801870823,-0.132469296455,0.0,0.946323156357,-0.35135281086,0.0,0.104156933725,-0.133050203323,0.0,0.237145870924,0.379993587732,0.0,1.07931208611,0.161690980196,0.0
1449618713879310808,47,1449618713878863381,odom,1.18312692642,-0.149929150939,0.0,0.966852664948,-0.364289700985,0.0,0.129488304257,-0.128237068653,0.0,0.273290485144,0.381881475449,0.0,1.11065483093,0.145828843117,0.0
1449618714095862001,48,1449618714075028272,odom,1.20904839039,-0.173803642392,0.0,0.986087858677,-0.381200820208,0.0,0.156626909971,-0.118723347783,0.0,0.316526979208,0.386580467224,0.0,1.14598798752,0.124103009701,0.0
1449618714236634919,49,1449618714236090630,odom,1.23318088055,-0.192623183131,0.0,1.00588679314,-0.395261883736,0.0,0.182158470154,-0.115312762558,0.0,0.35270217061,0.386498779058,0.0,1.176430583,0.106549680233,0.0
1449618714516355056,50,1449618714515767107,odom,1.25780522823,-0.217833414674,0.0,1.02420198917,-0.413165301085,0.0,0.20976164937,-0.107245653868,0.0,0.396126508713,0.388907670975,0.0,1.21056687832,0.0829880237579,0.0
1449618714724672220,51,1449618714724370753,odom,1.28630173206,-0.23992651701,0.0,1.04862248898,-0.43027767539,0.0,0.240829482675,-0.107213549316,0.0,0.437638670206,0.38489022851,0.0,1.24543166161,0.0618260987103,0.0
1449618714941826580,52,1449618714939407119,odom,1.32546377182,-0.273155748844,0.0,1.08186995983,-0.455877095461,0.0,0.284723728895,-0.107369229198,0.0,0.497033119202,0.378248631954,0.0,1.29417943954,0.0297407526523,0.0
1449618715039974521,53,1449618715038455926,odom,1.36328411102,-0.3013933599,0.0,1.11588299274,-0.478925675154,0.0,0.326280355453,-0.113648332655,0.0,0.548805654049,0.367374002934,0.0,1.33840835094,0.00209665670991,0.0
1449618715358164025,54,1449618715355093679,odom,1.39524543285,-0.328060626984,0.0,1.14414763451,-0.500324547291,0.0,0.362441241741,-0.118440933526,0.0,0.595082998276,0.357771009207,0.0,1.37678933144,-0.0241126380861,0.0
1449618715518060044,55,1449618715517121630,odom,1.45750749111,-0.364563077688,0.0,1.20460319519,-0.534163832664,0.0,0.426976233721,-0.144040584564,0.0,0.664637506008,0.329686224461,0.0,1.44226455688,-0.0604370310903,0.0
1449618715710024189,56,1449618715692221640,odom,1.49871778488,-0.39152559638,0.0,1.24403524399,-0.558444261551,0.0,0.470574468374,-0.160124912858,0.0,0.71322876215,0.311063885689,0.0,1.48668956757,-0.0872554406524,0.0
1449618715823987379,57,1449618715822067000,odom,1.54480063915,-0.427592456341,0.0,1.28664720058,-0.58909124136,0.0,0.521777451038,-0.174514144659,0.0,0.774335920811,0.29144102335,0.0,1.53920567036,-0.1231360659,0.0
1449618716074414206,58,1449618716069010664,odom,1.60050022602,-0.457782953978,0.0,1.34234690666,-0.619281709194,0.0,0.577477097511,-0.204704627395,0.0,0.830035567284,0.261250525713,0.0,1.59490537643,-0.153326556087,0.0
1449618716288257890,59,1449618716288043962,odom,1.65111017227,-0.491261392832,0.0,1.39126455784,-0.650023043156,0.0,0.630818605423,-0.227386057377,0.0,0.888287127018,0.235874086618,0.0,1.64873301983,-0.186762869358,0.0
1449618716468845228,60,1449618716462133088,odom,1.70152330399,-0.51312828064,0.0,1.44336998463,-0.674627065659,0.0,0.678500175476,-0.260049968958,0.0,0.931058645248,0.205905199051,0.0,1.6959284544,-0.208671882749,0.0
1449618716704789692,61,1449618716704368490,odom,1.75208616257,-0.540707588196,0.0,1.49393284321,-0.70220631361,0.0,0.729063034058,-0.287629246712,0.0,0.981621444225,0.178325921297,0.0,1.74649119377,-0.236251160502,0.0
1449618716871306135,62,1449618716865832536,odom,1.80784869194,-0.564677715302,0.0,1.55141639709,-0.72889560461,0.0,0.782208144665,-0.322424679995,0.0,1.02982842922,0.146173447371,0.0,1.79903662205,-0.260297447443,0.0
1449618717066769477,63,1449618717066510711,odom,1.86364865303,-0.575646996498,0.0,1.61255085468,-0.747910916805,0.0,0.830844461918,-0.366027295589,0.0,1.06348621845,0.110184639692,0.0,1.84519255161,-0.271698981524,0.0
1449618717254082240,64,1449618717252385048,odom,1.92489290237,-0.587480843067,0.0,1.67938184738,-0.767617702484,0.0,0.885963022709,-0.410705178976,0.0,1.1033924818,0.072641916573,0.0,1.89681136608,-0.284270614386,0.0
1449618717469637426,65,1449618717468704669,odom,1.99125301838,-0.593288123608,0.0,1.75357377529,-0.78363931179,0.0,0.945780813694,-0.460575163364,0.0,1.14259004593,0.0315286144614,0.0,1.95038294792,-0.291535526514,0.0
1449618717629684825,66,1449618717625177317,odom,2.05769014359,-0.596570014954,0.0,1.8282674551,-0.796795368195,0.0,1.00754356384,-0.508156836033,0.0,1.18338084221,-0.00817558448762,0.0,2.00410461426,-0.296814113855,0.0
1449618717901103580,67,1449618717896897699,odom,2.11877512932,-0.595131039619,0.0,1.89801883698,-0.804872870445,0.0,1.06583034992,-0.551175653934,0.0,1.22038149834,-0.0442102663219,0.0,2.05256986618,-0.297907471657,0.0
1449618718071283478,68,1449618718069736414,odom,2.18945622444,-0.5879804492,0.0,1.98008561134,-0.809088945389,0.0,1.13565945625,-0.599698424339,0.0,1.26321923733,-0.0852778479457,0.0,2.10764527321,-0.294668376446,0.0
1449618718205895846,69,1449618718204816437,odom,2.25403022766,-0.575898587704,0.0,2.05662965775,-0.807756483555,0.0,1.20232307911,-0.643257141113,0.0,1.30253529549,-0.122817434371,0.0,2.15684199333,-0.287316799164,0.0
1449618718450695568,70,1449618718449999011,odom,2.32356762886,-0.561302125454,0.0,2.13868832588,-0.803262233734,0.0,1.27688598633,-0.684113264084,0.0,1.34947097301,-0.15910717845,0.0,2.21127343178,-0.2782561481,0.0
1449618718672193902,71,1449618718671785084,odom,2.36831879616,-0.551176786423,0.0,2.19120240211,-0.798875749111,0.0,1.32605624199,-0.707104802132,0.0,1.38196277618,-0.180061668158,0.0,2.24710893631,-0.271832644939,0.0
1449618718859987416,72,1449618718841665099,odom,2.41274023056,-0.539486408234,0.0,2.24356460571,-0.792675256729,0.0,1.37594401836,-0.728374540806,0.0,1.41511571407,-0.199824109674,0.0,2.28273630142,-0.264124840498,0.0
1449618719050537463,73,1449618719049883973,odom,2.4540822506,-0.521111667156,0.0,2.2957572937,-0.781223654747,0.0,1.42619454861,-0.753645658493,0.0,1.4429949522,-0.223912030458,0.0,2.3125576973,-0.25148999691,0.0
1449618719221967323,74,1449618719221393062,odom,2.49175572395,-0.506413578987,0.0,2.34175562859,-0.771413564682,0.0,1.47175574303,-0.771413564682,0.0,1.47175574303,-0.24141356349,0.0,2.34175562859,-0.24141356349,0.0
1449618719433070443,75,1449618719432523756,odom,2.52318668365,-0.490772098303,0.0,2.38166236877,-0.760393738747,0.0,1.51209962368,-0.787971735001,0.0,1.49529922009,-0.258238077164,0.0,2.36486196518,-0.230660095811,0.0
1449618719609829917,76,1449618719606589756,odom,2.55728268623,-0.479175716639,0.0,2.42148828506,-0.751728177071,0.0,1.55270254612,-0.79767781496,0.0,1.52471029758,-0.268417567015,0.0,2.39349603653,-0.222467944026,0.0
1449618719846288282,77,1449618719845980164,odom,2.58536887169,-0.467074394226,0.0,2.45536494255,-0.742435932159,0.0,1.58774447441,-0.806736648083,0.0,1.5485727787,-0.278186231852,0.0,2.41619324684,-0.213885501027,0.0
1449618720013121217,78,1449618720011086991,odom,2.61319851875,-0.454442799091,0.0,2.48904323578,-0.732490420341,0.0,1.62297546864,-0.815113544464,0.0,1.57264184952,-0.287509024143,0.0,2.43870949745,-0.204885914922,0.0
1449618720204898877,79,1449618720199679149,odom,2.63273262978,-0.447239071131,0.0,2.51152276993,-0.726583182812,0.0,1.64637649059,-0.818354189396,0.0,1.59047007561,-0.291311055422,0.0,2.45561623573,-0.19954007864,0.0
1449618720419026284,80,1449618720418474851,odom,2.65659379959,-0.428825736046,0.0,2.54429984093,-0.711871743202,0.0,1.68249726295,-0.831020712852,0.0,1.60991227627,-0.306014597416,0.0,2.47171473503,-0.186865612864,0.0
1449618720617379433,81,1449618720616995332,odom,2.67013549805,-0.421832710505,0.0,2.56083893776,-0.706049561501,0.0,1.70034372807,-0.834299325943,0.0,1.62221455574,-0.310089588165,0.0,2.48270964622,-0.181839868426,0.0
1449618720818896091,82,1449618720818414073,odom,2.67583656311,-0.421013772488,0.0,2.56654000282,-0.705230653286,0.0,1.70604467392,-0.833480417728,0.0,1.6279156208,-0.309270679951,0.0,2.48841071129,-0.181020945311,0.0
1449618721009917137,83,1449618721008758108,odom,2.67583656311,-0.421013772488,0.0,2.56654000282,-0.705230653286,0.0,1.70604467392,-0.833480417728,0.0,1.6279156208,-0.309270679951,0.0,2.48841071129,-0.181020945311,0.0
1449618721194314972,84,1449618721193567676,odom,2.67583656311,-0.421013772488,0.0,2.56654000282,-0.705230653286,0.0,1.70604467392,-0.833480417728,0.0,1.6279156208,-0.309270679951,0.0,2.48841071129,-0.181020945311,0.0
1449618721404023350,85,1449618721403578331,odom,2.67583656311,-0.421013772488,0.0,2.56654000282,-0.705230653286,0.0,1.70604467392,-0.833480417728,0.0,1.6279156208,-0.309270679951,0.0,2.48841071129,-0.181020945311,0.0
1449618721635483350,86,1449618721631501699,odom,2.68152856827,-0.420134663582,0.0,2.57223200798,-0.70435154438,0.0,1.71173679829,-0.832601308823,0.0,1.63360762596,-0.308391571045,0.0,2.49410271645,-0.180141836405,0.0
1449618721802042678,87,1449618721799313358,odom,2.69129180908,-0.40823829174,0.0,2.58802652359,-0.694701611996,0.0,1.73043394089,-0.841108858585,0.0,1.64124333858,-0.318667471409,0.0,2.49883580208,-0.172260209918,0.0
1449618722014672012,88,1449618722014497475,odom,2.71025085449,-0.399670422077,0.0,2.61001849174,-0.687209069729,0.0,1.75402116776,-0.84267103672,0.0,1.659314394,-0.321201354265,0.0,2.51531171799,-0.165739387274,0.0
1449618722238844562,89,1449618722237455348,odom,2.73835277557,-0.378514736891,0.0,2.64728546143,-0.669086098671,0.0,1.79664611816,-0.851604104042,0.0,1.6854569912,-0.333398550749,0.0,2.53609633446,-0.150880590081,0.0
1449618722409461490,90,1449618722400925888,odom,2.76980853081,-0.360923081636,0.0,2.684902668,-0.653354227543,0.0,1.83831071854,-0.853809297085,0.0,1.71619439125,-0.338069438934,0.0,2.56278634071,-0.137614369392,0.0
1449618722611095636,91,1449618722606586750,odom,2.80229115486,-0.336720138788,0.0,2.72669744492,-0.631695747375,0.0,1.88688540459,-0.858886063099,0.0,1.74848210812,-0.347276300192,0.0,2.58829426765,-0.120086014271,0.0
1449618722772187857,92,1449618722771875731,odom,2.84505987167,-0.308315962553,0.0,2.77885460854,-0.605539560318,0.0,1.94666612148,-0.859236776829,0.0,1.79211497307,-0.352271348238,0.0,2.62430334091,-0.0985741466284,0.0
1449618723004839192,93,1449618723002322434,odom,2.88686919212,-0.278454452753,0.0,2.83011889458,-0.577627301216,0.0,2.00639057159,-0.857576429844,0.0,1.83584690094,-0.355764865875,0.0,2.65957522392,-0.0758157670498,0.0
1449618723215792986,94,1449618723214322498,odom,2.92687821388,-0.253339231014,0.0,2.87646341324,-0.553644657135,0.0,2.05883550644,-0.850940346718,0.0,1.8777244091,-0.35284525156,0.0,2.6953523159,-0.0555495545268,0.0
1449618723427198178,95,1449618723423361428,odom,2.97638344765,-0.229455456138,0.0,2.92914509773,-0.530276894569,0.0,2.11470484734,-0.836196541786,0.0,1.92833995819,-0.340043216944,0.0,2.74278044701,-0.0341235548258,0.0
1449618723603898000,96,1449618723593049387,odom,3.03569293022,-0.207177653909,0.0,2.98845458031,-0.507999122143,0.0,2.17401432991,-0.81391876936,0.0,1.98764944077,-0.317765414715,0.0,2.80208992958,-0.0118457628414,0.0
1449618723799398079,97,1449618723798945676,odom,3.07343530655,-0.193000882864,0.0,3.02619695663,-0.493822306395,0.0,2.21175670624,-0.799741983414,0.0,2.02539181709,-0.303588628769,0.0,2.83983230591,0.00233101379126,0.0
1449618723996229440,98,1449618723995920645,odom,3.1172721386,-0.170563653111,0.0,3.07321548462,-0.471867501736,0.0,2.26205348969,-0.786376953125,0.0,2.07045578957,-0.292220801115,0.0,2.8816177845,0.0222886446863,0.0
1449618724184466835,99,1449618724184178063,odom,3.16019916534,-0.153821751475,0.0,3.11614251137,-0.4551256001,0.0,2.30498075485,-0.769635081291,0.0,2.11338281631,-0.275478899479,0.0,2.92454481125,0.0390305556357,0.0
1449618724387053170,100,1449618724386861478,odom,3.19841432571,-0.132976680994,0.0,3.15754437447,-0.434729278088,0.0,2.34975123405,-0.757793426514,0.0,2.15294218063,-0.265689641237,0.0,2.96073508263,0.0573744960129,0.0
1449618724632364109,101,1449618724631700197,odom,3.23646521568,-0.111869543791,0.0,3.1987862587,-0.414037197828,0.0,2.39445257187,-0.745619952679,0.0,2.19245386124,-0.255623489618,0.0,2.99678754807,0.0759592428803,0.0
1449618724846209843,102,1449618724845757218,odom,3.27370405197,-0.096419274807,0.0,3.23602509499,-0.398586928844,0.0,2.43169140816,-0.730169653893,0.0,2.22969269753,-0.240173220634,0.0,3.03402638435,0.0914095118642,0.0
1449618725033939961,103,1449618725030942911,odom,3.32210898399,-0.0703524500132,0.0,3.28762531281,-0.372901439667,0.0,2.48684072495,-0.712965726852,0.0,2.27967500687,-0.225131332874,0.0,3.08045983315,0.114932969213,0.0
1449618725193220082,104,1449618725190367758,odom,3.36982131004,-0.0500907674432,0.0,3.33533763885,-0.352639734745,0.0,2.53455305099,-0.692704021931,0.0,2.32738733292,-0.204869642854,0.0,3.12817215919,0.135194659233,0.0
1449618725377654236,105,1449618725377144293,odom,3.41694664955,-0.0358868837357,0.0,3.37926769257,-0.338054537773,0.0,2.57493400574,-0.669637262821,0.0,2.3729352951,-0.179640829563,0.0,3.17726898193,0.151941895485,0.0
1449618725626149365,106,1449618725624606440,odom,3.46883153915,-0.0260299984366,0.0,3.42477488518,-0.327333837748,0.0,2.61361289024,-0.641843318939,0.0,2.42201519012,-0.147687152028,0.0,3.23317718506,0.166822299361,0.0
1449618725784081991,107,1449618725783545502,odom,3.52546334267,-0.0214358139783,0.0,3.47187781334,-0.321191698313,0.0,2.65115380287,-0.609830200672,0.0,2.47531652451,-0.109848968685,0.0,3.29604053497,0.178789541125,0.0
1449618725992927860,108,1449618725992354563,odom,3.5853946209,-0.0290384497494,0.0,3.51605224609,-0.325545817614,0.0,2.68122911453,-0.570434391499,0.0,2.53204417229,-0.0618640221655,0.0,3.36686706543,0.183024570346,0.0
1449618726201304051,109,1449618726200683942,odom,3.64474368095,-0.0394437797368,0.0,3.55983757973,-0.331874936819,0.0,2.71324586868,-0.532329976559,0.0,2.5911295414,-0.0165901333094,0.0,3.43772149086,0.183864921331,0.0
1449618726393968552,110,1449618726393581589,odom,3.69969081879,-0.0484671629965,0.0,3.60250282288,-0.337048977613,0.0,2.74819612503,-0.501548349857,0.0,2.64798378944,0.0188913848251,0.0,3.50229048729,0.18339073658,0.0
1449618726597777933,111,1449618726597459496,odom,3.75221014023,-0.0660615116358,0.0,3.63991618156,-0.349107503891,0.0,2.77811360359,-0.468256473541,0.0,2.70552873611,0.0567496195436,0.0,3.56733107567,0.175898611546,0.0
1449618726785376134,112,1449618726784716980,odom,3.79464101791,-0.0818400681019,0.0,3.67048573494,-0.359887689352,0.0,2.80441784859,-0.442510813475,0.0,2.75408434868,0.0850937068462,0.0,3.62015199661,0.167716816068,0.0
1449618727011140097,113,1449618727010747123,odom,3.83636569977,-0.0993977189064,0.0,3.70057106018,-0.371950209141,0.0,2.83178544044,-0.417899817228,0.0,2.80379319191,0.111360438168,0.0,3.67257881165,0.157310053706,0.0
1449618727199624018,114,1449618727199293389,odom,3.88009810448,-0.113113753498,0.0,3.73573231697,-0.38122472167,0.0,2.86592650414,-0.399611771107,0.0,2.85472536087,0.13026984036,0.0,3.72453093529,0.148656874895,0.0
1449618727383822409,115,1449618727383432891,odom,3.9262804985,-0.122984424233,0.0,3.77628064156,-0.387984424829,0.0,2.90628051758,-0.387984424829,0.0,2.90628051758,0.142015576363,0.0,3.77628064156,0.142015576363,0.0
1449618727607143630,116,1449618727606508591,odom,3.98096776009,-0.128452628851,0.0,3.82817554474,-0.391852647066,0.0,2.95822429657,-0.382658600807,0.0,2.96382522583,0.147311776876,0.0,3.833776474,0.138117745519,0.0
1449618727804526382,117,1449618727803520512,odom,4.02128267288,-0.128878697753,0.0,3.86849045753,-0.392278701067,0.0,2.99853897095,-0.38308468461,0.0,3.00414013863,0.146885707974,0.0,3.8740913868,0.137691676617,0.0
1449618727995034423,118,1449618727994747363,odom,4.07026386261,-0.124171324074,0.0,3.92026400566,-0.389171302319,0.0,3.05026388168,-0.389171302319,0.0,3.05026388168,0.140828669071,0.0,3.92026400566,0.140828669071,0.0
1449618728180081479,119,1449618728179445870,odom,4.12198543549,-0.11329638958,0.0,3.97761940956,-0.381407380104,0.0,3.10781383514,-0.399794399738,0.0,3.09661245346,0.130087196827,0.0,3.96641802788,0.148474231362,0.0
1449618728409228867,120,1449618728406331388,odom,4.17609024048,-0.0958380624652,0.0,4.04029607773,-0.368390530348,0.0,3.17151021957,-0.414340168238,0.0,3.14351797104,0.114920094609,0.0,4.01230335236,0.160869717598,0.0
1449618728625130903,121,1449618728618798832,odom,4.22627925873,-0.071743182838,0.0,4.10212421417,-0.349790811539,0.0,3.23605632782,-0.432413905859,0.0,3.18572282791,0.0951905921102,0.0,4.05179071426,0.177813708782,0.0
1449618728820003664,122,1449618728814187320,odom,4.27324724197,-0.0512136928737,0.0,4.15796852112,-0.333057165146,0.0,3.29495501518,-0.443092077971,0.0,3.22792220116,0.0826517641544,0.0,4.09093570709,0.19268669188,0.0
1449618729010177797,123,1449618729009753356,odom,4.31383371353,-0.029964029789,0.0,4.20754671097,-0.315320074558,0.0,3.34845495224,-0.452656239271,0.0,3.26479029655,0.0706985592842,0.0,4.1238822937,0.208034709096,0.0
1449618729218803181,124,1449618729217928550,odom,4.370221138,0.0122242858633,0.0,4.28222942352,-0.279293268919,0.0,3.43356657028,-0.470790475607,0.0,3.31690740585,0.0462110936642,0.0,4.16557025909,0.237708300352,0.0
1449618729401555003,125,1449618729399449526,odom,4.4141793251,0.0386771075428,0.0,4.33547306061,-0.255483180285,0.0,3.49330663681,-0.473785758018,0.0,3.36031770706,0.039258018136,0.0,4.20248365402,0.257560610771,0.0
1449618729597624011,126,1449618729597292897,odom,4.45411729813,0.0769162476063,0.0,4.39105653763,-0.220990404487,0.0,3.56159567833,-0.483467876911,0.0,3.40169548988,0.0218359455466,0.0,4.23115634918,0.284313410521,0.0
1449618729830915508,127,1449618729830777785,odom,4.48371171951,0.0975600406528,0.0,4.42696142197,-0.201612830162,0.0,3.60323309898,-0.481561928988,0.0,3.43268942833,0.0202496163547,0.0,4.25641775131,0.300198733807,0.0
1449618729999870289,128,1449618729999654538,odom,4.52659606934,0.147150278091,0.0,4.48891735077,-0.155017390847,0.0,3.68458366394,-0.486600130796,0.0,3.48258495331,0.00339633412659,0.0,4.28691864014,0.334979057312,0.0
1449618730180173429,129,1449618730180001358,odom,4.5610871315,0.1968010813,0.0,4.54263067245,-0.107146896422,0.0,3.76092457771,-0.489030539989,0.0,3.52828264236,-0.0128185981885,0.0,4.30998897552,0.36906504631,0.0
1449618730410943620,130,1449618730410332655,odom,4.58741617203,0.245579943061,0.0,4.58825731277,-0.0589267015457,0.0,3.8323199749,-0.489576339722,0.0,3.56997036934,-0.0290629602969,0.0,4.32590723038,0.401586681604,0.0
1449618730618105704,131,1449618730607891564,odom,4.61068105698,0.29579949379,0.0,4.63081598282,-0.00804192014039,0.0,3.90368628502,-0.485726684332,0.0,3.61268305779,-0.0427627675235,0.0,4.33981227875,0.434922009706,0.0
1449618730787834432,132,1449618730787479010,odom,4.63533973694,0.350829303265,0.0,4.67468690872,0.0488743446767,0.0,3.97928762436,-0.473925590515,0.0,3.66080021858,-0.0502915382385,0.0,4.35619974136,0.472508400679,0.0
1449618730989521750,133,1449618730989142495,odom,4.65202713013,0.403634488583,0.0,4.71042871475,0.104779630899,0.0,4.04955434799,-0.461034208536,0.0,3.70486330986,-0.058432713151,0.0,4.3657374382,0.507381141186,0.0
1449618731182667816,134,1449618731181853451,odom,4.66533470154,0.457390964031,0.0,4.74255609512,0.16283737123,0.0,4.11886358261,-0.443716228008,0.0,3.74935364723,-0.0637654364109,0.0,4.37304639816,0.542788147926,0.0
1449618731383667901,135,1449618731382100797,odom,4.68523454666,0.514399051666,0.0,4.77790546417,0.224335074425,0.0,4.18711853027,-0.414312690496,0.0,3.79805731773,-0.054408095777,0.0,4.38884401321,0.584239661694,0.0
1449618731585768878,136,1449618731585372797,odom,4.70630931854,0.561245501041,0.0,4.80812835693,0.274264842272,0.0,4.23788261414,-0.382789224386,0.0,3.8376083374,-0.0353983044624,0.0,4.40785360336,0.621655762196,0.0
1449618731803414413,137,1449618731801881449,odom,4.72727108002,0.618713259697,0.0,4.84112691879,0.336291790009,0.0,4.29915761948,-0.344273656607,0.0,3.88456010818,-0.0141084883362,0.0,4.4265294075,0.66645693779,0.0
1449618731979512545,138,1449618731979313881,odom,4.75433254242,0.670640647411,0.0,4.87413167953,0.390688538551,0.0,4.3466668129,-0.301179140806,0.0,3.92518424988,0.0201499424875,0.0,4.45264911652,0.712017655373,0.0
1449618732192383600,139,1449618732191760009,odom,4.77173519135,0.729233443737,0.0,4.90325784683,0.454594135284,0.0,4.40550231934,-0.258945941925,0.0,3.97081708908,0.0442843958735,0.0,4.46857261658,0.757824480534,0.0
1449618732379576005,140,1449618732379085742,odom,4.80183362961,0.781938076019,0.0,4.93625164032,0.508704006672,0.0,4.4460644722,-0.210056439042,0.0,4.0081987381,0.0885632783175,0.0,4.49838590622,0.807323694229,0.0
1449618732593322331,141,1449618732592964391,odom,4.82218742371,0.840947926044,0.0,4.96519899368,0.57211202383,0.0,4.49804210663,-0.161825552583,0.0,4.05093050003,0.122764281929,0.0,4.51808738708,0.856701850891,0.0
1449618732804977520,142,1449618732804817395,odom,4.84387922287,0.895280003548,0.0,4.9925403595,0.629526674747,0.0,4.54099941254,-0.114120148122,0.0,4.08797311783,0.16095662117,0.0,4.53951406479,0.904603421688,0.0
1449618733005043805,143,1449618733004537939,odom,4.86740779877,0.954982042313,0.0,5.02165222168,0.692429900169,0.0,4.58592844009,-0.0605938769877,0.0,4.12718963623,0.204846963286,0.0,4.56291341782,0.957870781422,0.0
1449618733218082176,144,1449618733216215350,odom,4.88119983673,1.00010621548,0.0,5.04095888138,0.740872621536,0.0,4.62124729156,-0.021191816777,0.0,4.15700101852,0.234494507313,0.0,4.57671260834,0.996558904648,0.0
1449618733418707081,145,1449618733415054870,odom,4.90001392365,1.04560160637,0.0,5.06250333786,0.788070857525,0.0,4.65086889267,0.0216135270894,0.0,4.1839466095,0.272379487753,0.0,4.59558105469,1.03883683681,0.0
1449618733604946752,146,1449618733604523971,odom,4.91823863983,1.09135043621,0.0,5.08344078064,0.835551142693,0.0,4.6799287796,0.0647865533829,0.0,4.21038246155,0.310604155064,0.0,4.61389446259,1.08136880398,0.0
1449618733810962153,147,1449618733810093561,odom,4.92997646332,1.13708722591,0.0,5.10054779053,0.884836614132,0.0,4.71341609955,0.105716116726,0.0,4.23877906799,0.341555178165,0.0,4.62591123581,1.12067568302,0.0
1449618734012008083,148,1449618734011478945,odom,4.94366359711,1.18804657459,0.0,5.11952829361,0.93945723772,0.0,4.7489490509,0.152328908443,0.0,4.26943397522,0.37808406353,0.0,4.64001321793,1.16521239281,0.0
1449618734181743058,149,1449618734181368168,odom,4.95983314514,1.23451459408,0.0,5.13831520081,0.987797617912,0.0,4.77607488632,0.196797043085,0.0,4.29420089722,0.417472153902,0.0,4.6564412117,1.20847272873,0.0
1449618734384578591,150,1449618734383081459,odom,4.97294616699,1.27598953247,0.0,5.15402555466,1.03117239475,0.0,4.80016469955,0.23638792336,0.0,4.31598520279,0.451958358288,0.0,4.66984605789,1.24674284458,0.0
1449618734587522978,151,1449618734587048069,odom,4.97562360764,1.32180500031,0.0,5.16437196732,1.08285105228,0.0,4.83588266373,0.27724891901,0.0,4.34511327744,0.477363109589,0.0,4.67360258102,1.28296518326,0.0
1449618734791588964,152,1449618734791041185,odom,4.97505998611,1.37753117085,0.0,5.17373752594,1.14676713943,0.0,4.87958621979,0.328002870083,0.0,4.38079881668,0.507198572159,0.0,4.67495012283,1.32596278191,0.0
1449618734987357869,153,1449618734985387825,odom,4.97623300552,1.42885935307,0.0,5.18212604523,1.20450913906,0.0,4.91407632828,0.376832067966,0.0,4.40985965729,0.540126740932,0.0,4.67790937424,1.36780381203,0.0
1449618735227238797,154,1449618735226960049,odom,4.96536111832,1.48310184479,0.0,5.18281602859,1.26993906498,0.0,4.95885467529,0.42926004529,0.0,4.44671678543,0.565696239471,0.0,4.67067813873,1.40637528896,0.0
1449618735404618772,155,1449618735404279751,odom,4.94726276398,1.54052758217,0.0,5.17778778076,1.34157240391,0.0,5.0075469017,0.488391280174,0.0,4.48779296875,0.592101275921,0.0,4.65803384781,1.44528234005,0.0
1449618735603564416,156,1449618735603154470,odom,4.92940473557,1.58742892742,0.0,5.17011642456,1.40092670918,0.0,5.04517412186,0.539945065975,0.0,4.52066802979,0.616059184074,0.0,4.64561033249,1.47704076767,0.0
1449618735863342998,157,1449618735861986703,odom,4.9041519165,1.63663911819,0.0,5.15619754791,1.46576464176,0.0,5.08606338501,0.598596155643,0.0,4.55778837204,0.641321539879,0.0,4.62792253494,1.50848996639,0.0
1449618736026752580,158,1449618736022677771,odom,4.875831604,1.68415117264,0.0,5.13819789886,1.52959120274,0.0,5.12315368652,0.659721314907,0.0,4.59323310852,0.668886244297,0.0,4.60827732086,1.53875613213,0.0
1449618736249719475,159,1449618736245934681,odom,4.84975862503,1.72710454464,0.0,5.1199221611,1.58661735058,0.0,5.15084171295,0.717166960239,0.0,4.62117624283,0.698330998421,0.0,4.59025716782,1.56778132915,0.0
1449618736437124342,160,1449618736436239168,odom,4.81069040298,1.76756465435,0.0,5.09049844742,1.64742910862,0.0,5.18559360504,0.782641947269,0.0,4.65876913071,0.724710524082,0.0,4.56367397308,1.58949768543,0.0
1449618736638962899,161,1449618736638829440,odom,4.77374696732,1.80884337425,0.0,5.06060504913,1.70667946339,0.0,5.21030664444,0.849655985832,0.0,4.68821191788,0.758458316326,0.0,4.53851032257,1.61548185349,0.0
1449618736893986560,162,1449618736890763850,odom,4.7446846962,1.85008525848,0.0,5.03560400009,1.7601351738,0.0,5.22138929367,0.910203576088,0.0,4.7036151886,0.797023892403,0.0,4.51782941818,1.6469553709,0.0
1449618737071543498,163,1449618737071161857,odom,4.70786094666,1.89142525196,0.0,5.0031247139,1.81696581841,0.0,5.23354053497,0.978032827377,0.0,4.72246646881,0.837664484978,0.0,4.49205064774,1.67659747601,0.0
1449618737301653724,164,1449618737294855385,odom,4.6735458374,1.93529224396,0.0,4.97169303894,1.87337708473,0.0,5.23735570908,1.0449308157,0.0,4.73267030716,0.883090138435,0.0,4.46700716019,1.71153628826,0.0
1449618737466375615,165,1449618737465880158,odom,4.64935731888,1.97580623627,0.0,4.94874620438,1.92020606995,0.0,5.23185873032,1.09755957127,0.0,4.7307062149,0.925088703632,0.0,4.44759368896,1.74773514271,0.0
1449618737658608522,166,1449618737656623073,odom,4.6303691864,2.01492571831,0.0,4.93032884598,1.96249246597,0.0,5.22211885452,1.14288377762,0.0,4.72281742096,0.96512645483,0.0,4.43102693558,1.78473508358,0.0
1449618737925958244,167,1449618737923464937,odom,4.62118625641,2.05747652054,0.0,4.92057514191,2.00187635422,0.0,5.20368766785,1.17922997475,0.0,4.70253515244,1.00675916672,0.0,4.4194226265,1.82940554619,0.0
1449618738044099038,168,1449618738043859819,odom,4.61906051636,2.11433720589,0.0,4.91653633118,2.049274683,0.0,5.17342996597,1.21806740761,0.0,4.66706228256,1.06156909466,0.0,4.41016864777,1.89277648926,0.0
1449618738298865809,169,1449618738298523819,odom,4.62762641907,2.15871858597,0.0,4.92208719254,2.08114290237,0.0,5.14362430573,1.23982191086,0.0,4.63109540939,1.10486233234,0.0,4.4095582962,1.94618344307,0.0
1449618738467579281,170,1449618738463860730,odom,4.63694906235,2.20835161209,0.0,4.92786836624,2.1184015274,0.0,5.11365365982,1.2684699297,0.0,4.59587955475,1.15529024601,0.0,4.41009378433,2.00522184372,0.0
1449618738691215092,171,1449618738690687032,odom,4.65897130966,2.25929403305,0.0,4.94360637665,2.15109038353,0.0,5.0751619339,1.29109442234,0.0,4.55125617981,1.21095144749,0.0,4.41970062256,2.07094740868,0.0
1449618738868447884,172,1449618738865854570,odom,4.68408727646,2.30872607231,0.0,4.96129369736,2.18270373344,0.0,5.03809022903,1.31610000134,0.0,4.51015949249,1.2693156004,0.0,4.43336248398,2.13591957092,0.0
1449618739042044995,173,1449618739039729447,odom,4.70231199265,2.34458637238,0.0,4.97394514084,2.20696210861,0.0,5.01405096054,1.33788704872,0.0,4.48461437225,1.3134547472,0.0,4.44450855255,2.18252968788,0.0
1449618739276914428,174,1449618739274691688,odom,4.72173166275,2.37963795662,0.0,4.98730611801,2.23065757751,0.0,4.99064970016,1.36066401005,0.0,4.46065330505,1.35862720013,0.0,4.45731019974,2.22862076759,0.0
1449618739543295280,175,1449618739526391220,odom,4.73220014572,2.41412472725,0.0,4.99456691742,2.25956487656,0.0,4.97952270508,1.38969492912,0.0,4.44960165024,1.39885985851,0.0,4.46464586258,2.26872968674,0.0
1449618739654838141,176,1449618739654451198,odom,4.73777246475,2.43416237831,0.0,4.99849081039,2.27683830261,0.0,4.97425460815,1.40717601776,0.0,4.444460392,1.42194056511,0.0,4.46869659424,2.29160284996,0.0
1449618739893022095,177,1449618739891008470,odom,4.74336481094,2.44838356972,0.0,5.00240659714,2.28831315041,0.0,4.96898126602,1.4189555645,0.0,4.43937253952,1.43931806087,0.0,4.47279787064,2.30867552757,0.0
1449618740092261316,178,1449618740091461677,odom,4.7438378334,2.4598929882,0.0,5.00287914276,2.29982256889,0.0,4.96945428848,1.43046486378,0.0,4.43984556198,1.45082736015,0.0,4.47327041626,2.32018494606,0.0
1449618740252965285,179,1449618740252623098,odom,4.74428033829,2.47140359879,0.0,5.00332212448,2.31133317947,0.0,4.96989679337,1.44197547436,0.0,4.44028806686,1.46233797073,0.0,4.47371339798,2.33169555664,0.0
1449618740447832313,180,1449618740447019206,odom,4.74472332001,2.48291420937,0.0,5.00376462936,2.32284379005,0.0,4.97033929825,1.45348620415,0.0,4.44073057175,1.47384870052,0.0,4.47415590286,2.34320640564,0.0
1449618740660290103,181,1449618740655555856,odom,4.74513530731,2.49442601204,0.0,5.00417661667,2.33435559273,0.0,4.97075128555,1.46499788761,0.0,4.44114255905,1.48536038399,0.0,4.47456789017,2.35471796989,0.0
1449618740831336864,182,1449618740830738635,odom,4.74554729462,2.50593757629,0.0,5.00458860397,2.34586715698,0.0,4.97116374969,1.47650957108,0.0,4.44155502319,1.49687206745,0.0,4.47497987747,2.36622977257,0.0
1449618741058407358,183,1449618741056069879,odom,4.74576854706,2.51169300079,0.0,5.00480985641,2.35162258148,0.0,4.97138500214,1.48226487637,0.0,4.44177627563,1.50262737274,0.0,4.47520112991,2.37198495865,0.0
1449618741247799514,184,1449618741247035017,odom,4.74097013474,2.52049612999,0.0,5.00168848038,2.36317205429,0.0,4.97745227814,1.49350976944,0.0,4.44765806198,1.50827431679,0.0,4.47189426422,2.37793660164,0.0
1449618741433934107,185,1449618741433453856,odom,4.74142074585,2.53776884079,0.0,5.00213909149,2.38044476509,0.0,4.97790336609,1.51078248024,0.0,4.4481086731,1.52554702759,0.0,4.47234487534,2.39520931244,0.0
1449618741624532455,186,1449618741624305292,odom,4.73659849167,2.55228018761,0.0,4.99896478653,2.3977200985,0.0,4.98392057419,1.52785027027,0.0,4.45399999619,1.53701519966,0.0,4.46904420853,2.40688514709,0.0
1449618741864865239,187,1449618741864254910,odom,4.73175287247,2.57249808311,0.0,4.99573850632,2.42071938515,0.0,4.98988771439,1.55073904991,0.0,4.45989942551,1.55430340767,0.0,4.46575021744,2.4242837429,0.0
1449618742038731129,188,1449618742038326587,odom,4.7267165184,2.58690404892,0.0,4.99229097366,2.43792366982,0.0,4.99563407898,1.56793010235,0.0,4.46563816071,1.56589329243,0.0,4.46229457855,2.43588685989,0.0
1449618742257211216,189,1449618742255076573,odom,4.72661972046,2.60418248177,0.0,4.99219417572,2.45520210266,0.0,4.99553728104,1.58520841599,0.0,4.46554136276,1.58317172527,0.0,4.46219778061,2.45316529274,0.0
1449618742474161204,190,1449618742473969080,odom,4.72137022018,2.61853384972,0.0,4.98850393295,2.47236824036,0.0,5.00104141235,1.60245871544,0.0,4.47109603882,1.59482109547,0.0,4.45855903625,2.46473073959,0.0
1449618742631529763,191,1449618742631228629,odom,4.71596908569,2.6328291893,0.0,4.9846329689,2.48949480057,0.0,5.0063624382,1.61976611614,0.0,4.47652769089,1.60652863979,0.0,4.45479822159,2.4762570858,0.0
1449618742847527167,192,1449618742846770425,odom,4.71565103531,2.644343853,0.0,4.98431491852,2.50100922585,0.0,5.00604438782,1.63128077984,0.0,4.4762096405,1.61804330349,0.0,4.4544801712,2.4877717495,0.0
1449618743067523655,193,1449618743067169127,odom,4.71547698975,2.65010070801,0.0,4.98414039612,2.50676631927,0.0,5.00586986542,1.63703763485,0.0,4.47603559494,1.6238001585,0.0,4.45430612564,2.49352860451,0.0
1449618743322924254,194,1449618743322673316,odom,4.71547698975,2.65010070801,0.0,4.98414039612,2.50676631927,0.0,5.00586986542,1.63703763485,0.0,4.47603559494,1.6238001585,0.0,4.45430612564,2.49352860451,0.0
1449618743580526465,195,1449618743579940211,odom,4.71547698975,2.65010070801,0.0,4.98414039612,2.50676631927,0.0,5.00586986542,1.63703763485,0.0,4.47603559494,1.6238001585,0.0,4.45430612564,2.49352860451,0.0
1449618743699228816,196,1449618743693893165,odom,4.71547698975,2.65010070801,0.0,4.98414039612,2.50676631927,0.0,5.00586986542,1.63703763485,0.0,4.47603559494,1.6238001585,0.0,4.45430612564,2.49352860451,0.0
1449618743897839106,197,1449618743892985648,odom,4.71547698975,2.65010070801,0.0,4.98414039612,2.50676631927,0.0,5.00586986542,1.63703763485,0.0,4.47603559494,1.6238001585,0.0,4.45430612564,2.49352860451,0.0
1449618744065148747,198,1449618744062478008,odom,4.71547698975,2.65010070801,0.0,4.98414039612,2.50676631927,0.0,5.00586986542,1.63703763485,0.0,4.47603559494,1.6238001585,0.0,4.45430612564,2.49352860451,0.0
1449618744298702180,199,1449618744298325098,odom,4.71547698975,2.65010070801,0.0,4.98414039612,2.50676631927,0.0,5.00586986542,1.63703763485,0.0,4.47603559494,1.6238001585,0.0,4.45430612564,2.49352860451,0.0
1449618744475374015,200,1449618744472708541,odom,4.71030426025,2.65282511711,0.0,4.98046779633,2.51233792305,0.0,5.01138687134,1.64288759232,0.0,4.48172187805,1.62405157089,0.0,4.4508023262,2.49350190163,0.0
1449618744694489939,201,1449618744688181379,odom,4.69987392426,2.6581094265,0.0,4.97294616699,2.52336335182,0.0,5.02223396301,1.65476059914,0.0,4.49308538437,1.62473464012,0.0,4.44379758835,2.49333739281,0.0
1449618744852331726,202,1449618744848648294,odom,4.68817329407,2.68041110039,0.0,4.96403217316,2.55146622658,0.0,5.03166675568,1.6840993166,0.0,4.50327062607,1.64289665222,0.0,4.43563652039,2.51026368141,0.0
1449618745119238131,203,1449618745116422994,odom,4.67064380646,2.70479512215,0.0,4.95045185089,2.58465957642,0.0,5.04554653168,1.71987247467,0.0,4.51872253418,1.66194105148,0.0,4.42362737656,2.52672815323,0.0
1449618745271244942,204,1449618745270335759,odom,4.65097045898,2.74004745483,0.0,4.934445858,2.62884187698,0.0,5.05690574646,1.7675037384,0.0,4.53218269348,1.69290173054,0.0,4.40972232819,2.55423998833,0.0
1449618745703622319,205,1449618745702637666,odom,4.64209318161,2.76493597031,0.0,4.92672777176,2.65673232079,0.0,5.05828332901,1.7967363596,0.0,4.53437805176,1.71659338474,0.0,4.40282249451,2.57658934593,0.0
1449618745865495959,206,1449618745864278980,odom,4.60312747955,2.83691430092,0.0,4.89307975769,2.74389505386,0.0,5.06987333298,1.89204752445,0.0,4.5509314537,1.78434586525,0.0,4.37413835526,2.63619327545,0.0
1449618745971324370,207,1449618745970605218,odom,4.59610509872,2.87075090408,0.0,4.88605737686,2.77773141861,0.0,5.06285047531,1.92588400841,0.0,4.54390907288,1.81818234921,0.0,4.36711597443,2.67002987862,0.0
1449618746090911390,208,1449618746089762597,odom,4.58103656769,2.8910381794,0.0,4.87288999557,2.80416750908,0.0,5.06764745712,1.95624661446,0.0,4.55109786987,1.83760154247,0.0,4.35634088516,2.68552231789,0.0
1449618746241098473,209,1449618746238394048,odom,4.57180404663,2.93028330803,0.0,4.86365747452,2.84341263771,0.0,5.05841445923,1.99549174309,0.0,4.54186534882,1.8768466711,0.0,4.34710788727,2.72476744652,0.0
1449618746484616982,210,1449618746480779833,odom,4.54224872589,2.98528075218,0.0,4.83670902252,2.90770530701,0.0,5.05824661255,2.06638407707,0.0,4.54571771622,1.93142461777,0.0,4.32418012619,2.77274560928,0.0
1449618746638369498,211,1449618746637720830,odom,4.5214214325,3.04230308533,0.0,4.81668567657,2.96784353256,0.0,5.04710149765,2.12891077995,0.0,4.53602743149,1.98854231834,0.0,4.30561161041,2.82747530937,0.0
1449618746951153726,212,1449618746945672179,odom,4.49550628662,3.09479403496,0.0,4.79227781296,3.02659153938,0.0,5.04037284851,2.19271564484,0.0,4.53237962723,2.04157733917,0.0,4.28428459167,2.87545323372,0.0
1449618747060728071,213,1449618747057127432,odom,4.46871995926,3.14679741859,0.0,4.76686668396,3.08488225937,0.0,5.03252983093,2.25643610954,0.0,4.52784395218,2.09459519386,0.0,4.26218080521,2.92304158211,0.0
1449618747334904688,214,1449618747328954428,odom,4.4469871521,3.19725942612,0.0,4.74577140808,3.13849854469,0.0,5.02017450333,2.31290602684,0.0,4.51722764969,2.14574098587,0.0,4.24282455444,2.9713332653,0.0
1449618747473937612,215,1449618747473605784,odom,4.42108917236,3.25842022896,0.0,4.72047758102,3.20282006264,0.0,5.0035905838,2.38017368317,0.0,4.50243806839,2.20770263672,0.0,4.21932554245,3.03034925461,0.0
1449618747688159051,216,1449618747687689815,odom,4.40210056305,3.297539711,0.0,4.70206022263,3.24510645866,0.0,4.99385070801,2.42549777031,0.0,4.49454879761,2.24774050713,0.0,4.20275831223,3.06734919548,0.0
1449618747857801942,217,1449618747853994812,odom,4.38908290863,3.35095357895,0.0,4.68847179413,3.29535341263,0.0,4.97158432007,2.47270703316,0.0,4.47043180466,2.30023598671,0.0,4.18731927872,3.1228826046,0.0
1449618748089570951,218,1449618748085527170,odom,4.37048435211,3.40546321869,0.0,4.66987323761,3.34986305237,0.0,4.95298576355,2.5272166729,0.0,4.45183324814,2.35474586487,0.0,4.1687207222,3.17739224434,0.0
1449618748293065158,219,1449618748289577796,odom,4.36050510406,3.46890759468,0.0,4.65865182877,3.40699243546,0.0,4.92431497574,2.57854628563,0.0,4.41962957382,2.41670536995,0.0,4.15396642685,3.24515151978,0.0
1449618748524189859,220,1449618748523944465,odom,4.35753107071,3.53119945526,0.0,4.6535654068,3.45986437798,0.0,4.89283418655,2.62341332436,0.0,4.38327169418,2.47765183449,0.0,4.14400291443,3.31410288811,0.0
1449618748686204097,221,1449618748682023607,odom,4.34578371048,3.59071063995,0.0,4.64104747772,3.51625132561,0.0,4.8714632988,2.67731833458,0.0,4.36038923264,2.53695011139,0.0,4.12997341156,3.375882864,0.0
1449618748838050569,222,1449618748837600978,odom,4.33950614929,3.63375377655,0.0,4.63396644592,3.55617833138,0.0,4.85550403595,2.71485710144,0.0,4.34297513962,2.57989764214,0.0,4.12143754959,3.42121863365,0.0
1449618749111517075,223,1449618749111322927,odom,4.33948993683,3.67532682419,0.0,4.63224506378,3.5915453434,0.0,4.83595228195,2.74573016167,0.0,4.32068538666,2.62163281441,0.0,4.11697864532,3.46744799614,0.0
1449618749387115809,224,1449618749386370285,odom,4.34038209915,3.71689796448,0.0,4.63130140305,3.62694787979,0.0,4.81708669662,2.77701616287,0.0,4.29931259155,2.66383647919,0.0,4.11352682114,3.51376795769,0.0
1449618749513394367,225,1449618749511460505,odom,4.34813308716,3.78298306465,0.0,4.63499116898,3.68081927299,0.0,4.78469276428,2.82379579544,0.0,4.26259803772,2.73259806633,0.0,4.11289644241,3.58962154388,0.0
1449618749716333712,226,1449618749715579193,odom,4.35846328735,3.81669044495,0.0,4.64193868637,3.7054848671,0.0,4.76439857483,2.84414672852,0.0,4.23967504501,2.76954460144,0.0,4.11721515656,3.63088297844,0.0
1449618749894298898,227,1449618749891873195,odom,4.38869953156,3.87485647202,0.0,4.66318035126,3.7430036068,0.0,4.72164487839,2.87497019768,0.0,4.19284296036,2.83935403824,0.0,4.13437843323,3.70738720894,0.0
1449618750065941149,228,1449618750065322284,odom,4.42269563675,3.93061280251,0.0,4.68668079376,3.77883386612,0.0,4.68083000183,2.9088537693,0.0,4.15084218979,2.91241788864,0.0,4.15669298172,3.78239822388,0.0
1449618750274570364,229,1449618750267814859,odom,4.45530796051,3.9812233448,0.0,4.70914554596,3.81302189827,0.0,4.64817905426,2.94516062737,0.0,4.11948204041,2.98230099678,0.0,4.18044805527,3.85016202927,0.0
1449618750493663418,230,1449618750484031471,odom,4.49615573883,4.02605724335,0.0,4.73686695099,3.8395550251,0.0,4.61192512512,2.9785733223,0.0,4.08741903305,3.0546875,0.0,4.21236085892,3.91566896439,0.0
1449618750637914281,231,1449618750629461949,odom,4.53361749649,4.06034326553,0.0,4.76202726364,3.8589630127,0.0,4.58277988434,3.00762844086,0.0,4.06415081024,3.11682534218,0.0,4.24339818954,3.9681596756,0.0
1449618750870195960,232,1449618750866500451,odom,4.56852149963,4.09642648697,0.0,4.78597640991,3.88326358795,0.0,4.56201505661,3.04258465767,0.0,4.04987716675,3.17902088165,0.0,4.27383852005,4.01970005035,0.0
1449618751053730878,233,1449618751048402329,odom,4.60973501205,4.12612342834,0.0,4.81324577332,3.89960980415,0.0,4.53646421432,3.07481169701,0.0,4.03400087357,3.24342560768,0.0,4.31078243256,4.06822395325,0.0
1449618751278374597,234,1449618751274582287,odom,4.64048337936,4.15179204941,0.0,4.83423995972,3.9168806076,0.0,4.52285003662,3.10451602936,0.0,4.02796125412,3.29421329498,0.0,4.33935117722,4.10657787323,0.0
1449618751452790686,235,1449618751450764511,odom,4.67014312744,4.17079544067,0.0,4.85379934311,3.92790555954,0.0,4.50835704803,3.12942576408,0.0,4.02192687988,3.33986759186,0.0,4.36736917496,4.1383471489,0.0
1449618751673484885,236,1449618751666640478,odom,4.68646621704,4.18244075775,0.0,4.86494827271,3.93572378159,0.0,4.50270795822,3.14472317696,0.0,4.02083396912,3.36539816856,0.0,4.3830742836,4.15639877319,0.0
1449618751859595774,237,1449618751854108976,odom,4.69474697113,4.18812084198,0.0,4.87061166763,3.93953132629,0.0,4.50003242493,3.15240311623,0.0,4.02051734924,3.37815833092,0.0,4.39109659195,4.16528654099,0.0
1449618752105000751,238,1449618752103140231,odom,4.69474697113,4.18812084198,0.0,4.87061166763,3.93953132629,0.0,4.50003242493,3.15240311623,0.0,4.02051734924,3.37815833092,0.0,4.39109659195,4.16528654099,0.0
1449618752265843108,239,1449618752263358697,odom,4.69474697113,4.18812084198,0.0,4.87061166763,3.93953132629,0.0,4.50003242493,3.15240311623,0.0,4.02051734924,3.37815833092,0.0,4.39109659195,4.16528654099,0.0
1449618752483038661,240,1449618752482640691,odom,4.69474697113,4.18812084198,0.0,4.87061166763,3.93953132629,0.0,4.50003242493,3.15240311623,0.0,4.02051734924,3.37815833092,0.0,4.39109659195,4.16528654099,0.0
1449618752669544203,241,1449618752668782322,odom,4.69474697113,4.18812084198,0.0,4.87061166763,3.93953132629,0.0,4.50003242493,3.15240311623,0.0,4.02051734924,3.37815833092,0.0,4.39109659195,4.16528654099,0.0
1449618752873767267,242,1449618752869210191,odom,4.70057916641,4.18852806091,0.0,4.87380695343,3.9380941391,0.0,4.49493026733,3.15492606163,0.0,4.01782751083,3.38573598862,0.0,4.39670467377,4.1689043045,0.0
1449618753058264267,243,1449618753056808558,odom,4.70892381668,4.19405889511,0.0,4.87949514389,3.94180798531,0.0,4.49236297607,3.16268754005,0.0,4.01772642136,3.39852666855,0.0,4.40485858917,4.1776471138,0.0
1449618753284335073,244,1449618753281996009,odom,4.71991586685,4.20464515686,0.0,4.8878121376,3.95060586929,0.0,4.49246788025,3.17562007904,0.0,4.02035045624,3.41646170616,0.0,4.41569423676,4.19144773483,0.0
1449618753501657895,245,1449618753497690785,odom,4.73691797256,4.21524715424,0.0,4.89940738678,3.957716465,0.0,4.48777294159,3.19125914574,0.0,4.02085065842,3.44202518463,0.0,4.43248510361,4.20848226547,0.0
1449618753686812997,246,1449618753686626234,odom,4.75694465637,4.23051786423,0.0,4.91395521164,3.96961021423,0.0,4.48621416092,3.21202373505,0.0,4.02469587326,3.47260189056,0.0,4.45243740082,4.23018836975,0.0
1449618753866477294,247,1449618753862246224,odom,4.77445840836,4.2403459549,0.0,4.92592000961,3.97617864609,0.0,4.48226261139,3.22780156136,0.0,4.02635478973,3.49807548523,0.0,4.47001171112,4.24645233154,0.0
1449618754052990914,248,1449618754051685222,odom,4.79217576981,4.24980211258,0.0,4.93802022934,3.9824924469,0.0,4.47864580154,3.24365901947,0.0,4.02855157852,3.5235080719,0.0,4.48792648315,4.26234149933,0.0
1449618754272067275,249,1449618754269253713,odom,4.81006336212,4.25889778137,0.0,4.95022583008,3.98856568336,0.0,4.47533893585,3.25960588455,0.0,4.03126001358,3.54890489578,0.0,4.50614690781,4.27786445618,0.0
1449618754550134286,250,1449618754547924196,odom,4.82806348801,4.26766443253,0.0,4.96248102188,3.99443006516,0.0,4.47229385376,3.27566957474,0.0,4.0344285965,3.5742893219,0.0,4.52461528778,4.29304981232,0.0
1449618754886926733,251,1449618754884936333,odom,4.84689188004,4.28616189957,0.0,4.97841501236,4.01152229309,0.0,4.48065948486,3.29798221588,0.0,4.04597377777,3.60121273994,0.0,4.54372930527,4.31475257874,0.0
1449618755115556355,252,1449618755111125061,odom,4.88326406479,4.3380355835,0.0,5.01478672028,4.06339645386,0.0,4.51703119278,3.34985637665,0.0,4.08234596252,3.65308666229,0.0,4.58010149002,4.3666267395,0.0
1449618755283102221,253,1449618755281567856,odom,4.90962600708,4.37582588196,0.0,5.04114866257,4.10118675232,0.0,4.54339361191,3.38764667511,0.0,4.10870790482,3.69087696075,0.0,4.60646343231,4.40441703796,0.0
1449618755447172368,254,1449618755439536294,odom,4.92426395416,4.42499923706,0.0,5.06442594528,4.15466690063,0.0,4.58953905106,3.42570734024,0.0,4.14546012878,3.71500611305,0.0,4.62034702301,4.44396591187,0.0
1449618755609932380,255,1449618755609627161,odom,4.94693756104,4.47883462906,0.0,5.09278202057,4.21152496338,0.0,4.63340711594,3.47269153595,0.0,4.18331336975,3.75254058838,0.0,4.64268779755,4.49137401581,0.0
1449618755833721544,256,1449618755833495010,odom,4.94652748108,4.53894805908,0.0,5.10901737213,4.28141689301,0.0,4.6973824501,3.51495981216,0.0,4.23046016693,3.76572561264,0.0,4.64209508896,4.53218317032,0.0
1449618756057134702,257,1449618756056975664,odom,4.93715715408,4.58861351013,0.0,5.11563920975,4.34189653397,0.0,4.75339889526,3.55089616776,0.0,4.27152490616,3.77157115936,0.0,4.63376522064,4.56257152557,0.0
1449618756311055042,258,1449618756310835018,odom,4.92383956909,4.6224656105,0.0,5.11510276794,4.38551950455,0.0,4.79514503479,3.57649111748,0.0,4.30228853226,3.77140784264,0.0,4.62224626541,4.58043622971,0.0
1449618756668505598,259,1449618756667152205,odom,4.91876363754,4.65208005905,0.0,5.11744165421,4.42131614685,0.0,4.82329034805,3.60255169868,0.0,4.32450294495,3.78174734116,0.0,4.6186542511,4.6005115509,0.0
1449618756985193115,260,1449618756982874054,odom,4.91876363754,4.65208005905,0.0,5.11744165421,4.42131614685,0.0,4.82329034805,3.60255169868,0.0,4.32450294495,3.78174734116,0.0,4.6186542511,4.6005115509,0.0
1449618757171530716,261,1449618757170201144,odom,4.91876363754,4.65208005905,0.0,5.11744165421,4.42131614685,0.0,4.82329034805,3.60255169868,0.0,4.32450294495,3.78174734116,0.0,4.6186542511,4.6005115509,0.0
1449618757329839284,262,1449618757328995319,odom,4.91876363754,4.65208005905,0.0,5.11744165421,4.42131614685,0.0,4.82329034805,3.60255169868,0.0,4.32450294495,3.78174734116,0.0,4.6186542511,4.6005115509,0.0
1449618757449889664,263,1449618757449660857,odom,4.91876363754,4.65208005905,0.0,5.11744165421,4.42131614685,0.0,4.82329034805,3.60255169868,0.0,4.32450294495,3.78174734116,0.0,4.6186542511,4.6005115509,0.0
1449618757691309440,264,1449618757690893607,odom,4.91876363754,4.65208005905,0.0,5.11744165421,4.42131614685,0.0,4.82329034805,3.60255169868,0.0,4.32450294495,3.78174734116,0.0,4.6186542511,4.6005115509,0.0
1449618757889232987,265,1449618757888492525,odom,4.91876363754,4.65208005905,0.0,5.11744165421,4.42131614685,0.0,4.82329034805,3.60255169868,0.0,4.32450294495,3.78174734116,0.0,4.6186542511,4.6005115509,0.0
1449618758183068991,266,1449618758182974444,odom,4.91876363754,4.65208005905,0.0,5.11744165421,4.42131614685,0.0,4.82329034805,3.60255169868,0.0,4.32450294495,3.78174734116,0.0,4.6186542511,4.6005115509,0.0
1449618758343878922,267,1449618758341877689,odom,4.91876363754,4.65208005905,0.0,5.11744165421,4.42131614685,0.0,4.82329034805,3.60255169868,0.0,4.32450294495,3.78174734116,0.0,4.6186542511,4.6005115509,0.0
1449618758454385050,268,1449618758453413060,odom,4.91876363754,4.65208005905,0.0,5.11744165421,4.42131614685,0.0,4.82329034805,3.60255169868,0.0,4.32450294495,3.78174734116,0.0,4.6186542511,4.6005115509,0.0
1449618758674994822,269,1449618758674816703,odom,4.91876363754,4.65208005905,0.0,5.11744165421,4.42131614685,0.0,4.82329034805,3.60255169868,0.0,4.32450294495,3.78174734116,0.0,4.6186542511,4.6005115509,0.0
1449618758868888067,270,1449618758868579384,odom,4.91876363754,4.65208005905,0.0,5.11744165421,4.42131614685,0.0,4.82329034805,3.60255169868,0.0,4.32450294495,3.78174734116,0.0,4.6186542511,4.6005115509,0.0
1449618759074260350,271,1449618759069668680,odom,4.91876363754,4.65208005905,0.0,5.11744165421,4.42131614685,0.0,4.82329034805,3.60255169868,0.0,4.32450294495,3.78174734116,0.0,4.6186542511,4.6005115509,0.0
1449618759254838822,272,1449618759254288179,odom,4.91876363754,4.65208005905,0.0,5.11744165421,4.42131614685,0.0,4.82329034805,3.60255169868,0.0,4.32450294495,3.78174734116,0.0,4.6186542511,4.6005115509,0.0
1449618759468296322,273,1449618759467015958,odom,4.91876363754,4.65208005905,0.0,5.11744165421,4.42131614685,0.0,4.82329034805,3.60255169868,0.0,4.32450294495,3.78174734116,0.0,4.6186542511,4.6005115509,0.0
1449618759677121569,274,1449618759676789185,odom,4.91876363754,4.65208005905,0.0,5.11744165421,4.42131614685,0.0,4.82329034805,3.60255169868,0.0,4.32450294495,3.78174734116,0.0,4.6186542511,4.6005115509,0.0
1449618759875847927,275,1449618759873930866,odom,4.91876363754,4.65208005905,0.0,5.11744165421,4.42131614685,0.0,4.82329034805,3.60255169868,0.0,4.32450294495,3.78174734116,0.0,4.6186542511,4.6005115509,0.0
1449618760070693148,276,1449618760066472260,odom,4.91876363754,4.65208005905,0.0,5.11744165421,4.42131614685,0.0,4.82329034805,3.60255169868,0.0,4.32450294495,3.78174734116,0.0,4.6186542511,4.6005115509,0.0
1449618760395434412,277,1449618760389029344,odom,4.91876363754,4.65208005905,0.0,5.11744165421,4.42131614685,0.0,4.82329034805,3.60255169868,0.0,4.32450294495,3.78174734116,0.0,4.6186542511,4.6005115509,0.0
1449618760505631716,278,1449618760504983201,odom,4.91876363754,4.65208005905,0.0,5.11744165421,4.42131614685,0.0,4.82329034805,3.60255169868,0.0,4.32450294495,3.78174734116,0.0,4.6186542511,4.6005115509,0.0
1449618760746179757,279,1449618760740126570,odom,4.91876363754,4.65208005905,0.0,5.11744165421,4.42131614685,0.0,4.82329034805,3.60255169868,0.0,4.32450294495,3.78174734116,0.0,4.6186542511,4.6005115509,0.0
1449618760881316009,280,1449618760880806952,odom,4.91876363754,4.65208005905,0.0,5.11744165421,4.42131614685,0.0,4.82329034805,3.60255169868,0.0,4.32450294495,3.78174734116,0.0,4.6186542511,4.6005115509,0.0
