%time,field.header.seq,field.header.stamp,field.header.frame_id,field.poses0.header.seq,field.poses0.header.stamp,field.poses0.header.frame_id,field.poses0.pose.position.x,field.poses0.pose.position.y,field.poses0.pose.position.z,field.poses0.pose.orientation.x,field.poses0.pose.orientation.y,field.poses0.pose.orientation.z,field.poses0.pose.orientation.w,field.poses1.header.seq,field.poses1.header.stamp,field.poses1.header.frame_id,field.poses1.pose.position.x,field.poses1.pose.position.y,field.poses1.pose.position.z,field.poses1.pose.orientation.x,field.poses1.pose.orientation.y,field.poses1.pose.orientation.z,field.poses1.pose.orientation.w,field.poses2.header.seq,field.poses2.header.stamp,field.poses2.header.frame_id,field.poses2.pose.position.x,field.poses2.pose.position.y,field.poses2.pose.position.z,field.poses2.pose.orientation.x,field.poses2.pose.orientation.y,field.poses2.pose.orientation.z,field.poses2.pose.orientation.w,field.poses3.header.seq,field.poses3.header.stamp,field.poses3.header.frame_id,field.poses3.pose.position.x,field.poses3.pose.position.y,field.poses3.pose.position.z,field.poses3.pose.orientation.x,field.poses3.pose.orientation.y,field.poses3.pose.orientation.z,field.poses3.pose.orientation.w,field.poses4.header.seq,field.poses4.header.stamp,field.poses4.header.frame_id,field.poses4.pose.position.x,field.poses4.pose.position.y,field.poses4.pose.position.z,field.poses4.pose.orientation.x,field.poses4.pose.orientation.y,field.poses4.pose.orientation.z,field.poses4.pose.orientation.w,field.poses5.header.seq,field.poses5.header.stamp,field.poses5.header.frame_id,field.poses5.pose.position.x,field.poses5.pose.position.y,field.poses5.pose.position.z,field.poses5.pose.orientation.x,field.poses5.pose.orientation.y,field.poses5.pose.orientation.z,field.poses5.pose.orientation.w,field.poses6.header.seq,field.poses6.header.stamp,field.poses6.header.frame_id,field.poses6.pose.position.x,field.poses6.pose.position.y,field.poses6.pose.position.z,field.poses6.pose.orientation.x,field.poses6.pose.orientation.y,field.poses6.pose.orientation.z,field.poses6.pose.orientation.w,field.poses7.header.seq,field.poses7.header.stamp,field.poses7.header.frame_id,field.poses7.pose.position.x,field.poses7.pose.position.y,field.poses7.pose.position.z,field.poses7.pose.orientation.x,field.poses7.pose.orientation.y,field.poses7.pose.orientation.z,field.poses7.pose.orientation.w,field.poses8.header.seq,field.poses8.header.stamp,field.poses8.header.frame_id,field.poses8.pose.position.x,field.poses8.pose.position.y,field.poses8.pose.position.z,field.poses8.pose.orientation.x,field.poses8.pose.orientation.y,field.poses8.pose.orientation.z,field.poses8.pose.orientation.w,field.poses9.header.seq,field.poses9.header.stamp,field.poses9.header.frame_id,field.poses9.pose.position.x,field.poses9.pose.position.y,field.poses9.pose.position.z,field.poses9.pose.orientation.x,field.poses9.pose.orientation.y,field.poses9.pose.orientation.z,field.poses9.pose.orientation.w,field.poses10.header.seq,field.poses10.header.stamp,field.poses10.header.frame_id,field.poses10.pose.position.x,field.poses10.pose.position.y,field.poses10.pose.position.z,field.poses10.pose.orientation.x,field.poses10.pose.orientation.y,field.poses10.pose.orientation.z,field.poses10.pose.orientation.w,field.poses11.header.seq,field.poses11.header.stamp,field.poses11.header.frame_id,field.poses11.pose.position.x,field.poses11.pose.position.y,field.poses11.pose.position.z,field.poses11.pose.orientation.x,field.poses11.pose.orientation.y,field.poses11.pose.orientation.z,field.poses11.pose.orientation.w,field.poses12.header.seq,field.poses12.header.stamp,field.poses12.header.frame_id,field.poses12.pose.position.x,field.poses12.pose.position.y,field.poses12.pose.position.z,field.poses12.pose.orientation.x,field.poses12.pose.orientation.y,field.poses12.pose.orientation.z,field.poses12.pose.orientation.w,field.poses13.header.seq,field.poses13.header.stamp,field.poses13.header.frame_id,field.poses13.pose.position.x,field.poses13.pose.position.y,field.poses13.pose.position.z,field.poses13.pose.orientation.x,field.poses13.pose.orientation.y,field.poses13.pose.orientation.z,field.poses13.pose.orientation.w
1449618709563231189,0,1449618709559963800,odom,0,1449618709559963800,odom,0.0,0.0,0.0,0.0,0.0,0.0,1.0,0,1449618709559974308,odom,0.0257142857143,0.0,0.0,0.0,0.0,-0.002255637185,0.999997456047,0,1449618709559975912,odom,0.0514283097652,-0.000116003902976,0.0,0.0,0.0,-0.00451126289353,0.999989824202,0,1449618709559976924,odom,0.0771415488313,-0.000348009348065,0.0,0.0,0.0,-0.00676686564918,0.999977104503,0,1449618709559977108,odom,0.102853479607,-0.000696011613583,0.0,0.0,0.0,-0.00902243397565,0.999959297014,0,1449618709559978865,odom,0.128563578814,-0.00116000361713,0.0,0.0,0.0,-0.0112779563968,0.999936401827,0,1449618709559979202,odom,0.15427132321,-0.00173997591573,0.0,0.0,0.0,-0.0135334214368,0.999908419059,0,1449618709559979484,odom,0.179976189601,-0.00243591670602,0.0,0.0,0.0,-0.0157888176201,0.99987534885,0,1449618709559979829,odom,0.205677654854,-0.00324781182449,0.0,0.0,0.0,-0.0180441334713,0.99983719137,0,1449618709559983685,odom,0.231375195901,-0.00417564474778,0.0,0.0,0.0,-0.0202993575157,0.999793946813,0,1449618709559984324,odom,0.257068289756,-0.00521939659301,0.0,0.0,0.0,-0.0225544782788,0.999745615399,0,1449618709559984615,odom,0.282756413525,-0.00637904611816,0.0,0.0,0.0,-0.0248094842869,0.999692197373,0,1449618709559985487,odom,0.308439044413,-0.00765456972252,0.0,0.0,0.0,-0.0270643640667,0.999633693008,0,1449618709559985730,odom,0.334115659738,-0.00904594144714,0.0,0.0,0.0,-0.0293191061456,0.999570102602
1449618709657713952,1,1449618709654291645,odom,0,1449618709654291645,odom,0.0,0.0,0.0,0.0,0.0,0.0,1.0,0,1449618709654294307,odom,0.0245869867999,0.0,0.0,0.0,0.0,-0.00137299728029,0.999999057439,0,1449618709654295583,odom,0.0491738809008,-6.75156683759e-05,0.0,0.0,0.0,-0.00274599197232,0.999996229757,0,1449618709654296104,odom,0.0737604969057,-0.000202546496027,0.0,0.0,0.0,-0.00411898148781,0.99999151696,0,1449618709654296320,odom,0.0983466494195,-0.000405091464754,0.0,0.0,0.0,-0.00549196323852,0.999984919056,0,1449618709654297390,odom,0.122932153051,-0.000675149047271,0.0,0.0,0.0,-0.0068649346362,0.999976436059,0,1449618709654297622,odom,0.147516822413,-0.00101271720721,0.0,0.0,0.0,-0.00823789309265,0.999966067983,0,1449618709654297800,odom,0.172100472125,-0.00141779339915,0.0,0.0,0.0,-0.00961083601966,0.999953814849,0,1449618709654297996,odom,0.196682916815,-0.00189037456861,0.0,0.0,0.0,-0.0109837608291,0.99993967668,0,1449618709654299447,odom,0.221263971119,-0.0024304571521,0.0,0.0,0.0,-0.0123566649327,0.999923653501,0,1449618709654299669,odom,0.245843449684,-0.00303803707715,0.0,0.0,0.0,-0.0137295457426,0.999905745345,0,1449618709654299905,odom,0.270421167169,-0.00371310976229,0.0,0.0,0.0,-0.0151024006705,0.999885952244,0,1449618709654300122,odom,0.294996938246,-0.00445567011715,0.0,0.0,0.0,-0.0164752271286,0.999864274235,0,1449618709654300317,odom,0.319570577601,-0.00526571254247,0.0,0.0,0.0,-0.0178480225289,0.999840711359,0,1449618709654300567,odom,0.344141899938,-0.00614323093014,0.0,0.0,0.0,-0.0192207842835,0.999815263662,0,1449618709654300763,odom,0.368710719976,-0.00708821866323,0.0,0.0,0.0,-0.0205935098045,0.99978793119,0,1449618709654300988,odom,0.393276852455,-0.00810066861608,0.0,0.0,0.0,-0.0219661965043,0.999758713996,0,1449618709654302284,odom,0.417840112135,-0.00918057315433,0.0,0.0,0.0,-0.0233388417951,0.999727612134,0,1449618709654302472,odom,0.442400313796,-0.010327924135,0.0,0.0,0.0,-0.0247114430893,0.999694625663,0,1449618709654302650,odom,0.466957272242,-0.0115427129064,0.0,0.0,0.0,-0.0260839977994,0.999659754646,0,1449618709654302838,odom,0.491510802303,-0.0128249303086,0.0,0.0,0.0,-0.027456503338,0.999622999147,0,1449618709654303031,odom,0.516060718832,-0.0141745666729,0.0,0.0,0.0,-0.0288289571177,0.999584359237,0,1449618709654303516,odom,0.540606836711,-0.0155916118225,0.0,0.0,0.0,-0.0302013565513,0.999543834988
1449618709723913608,2,1449618709723320912,odom,0,1449618709723320912,odom,0.0,0.0,0.0,0.0,0.0,0.0,1.0,0,1449618709723325749,odom,0.0245869867999,0.0,0.0,0.0,0.0,-0.00137299728029,0.999999057439,0,1449618709723326857,odom,0.0491738809008,-6.75156683759e-05,0.0,0.0,0.0,-0.00274599197232,0.999996229757,0,1449618709723327271,odom,0.0737604969057,-0.000202546496027,0.0,0.0,0.0,-0.00411898148781,0.99999151696,0,1449618709723327472,odom,0.0983466494195,-0.000405091464754,0.0,0.0,0.0,-0.00549196323852,0.999984919056,0,1449618709723328546,odom,0.122932153051,-0.000675149047271,0.0,0.0,0.0,-0.0068649346362,0.999976436059,0,1449618709723328919,odom,0.147516822413,-0.00101271720721,0.0,0.0,0.0,-0.00823789309265,0.999966067983,0,1449618709723329150,odom,0.172100472125,-0.00141779339915,0.0,0.0,0.0,-0.00961083601966,0.999953814849,0,1449618709723329422,odom,0.196682916815,-0.00189037456861,0.0,0.0,0.0,-0.0109837608291,0.99993967668,0,1449618709723330779,odom,0.221263971119,-0.0024304571521,0.0,0.0,0.0,-0.0123566649327,0.999923653501,0,1449618709723330961,odom,0.245843449684,-0.00303803707715,0.0,0.0,0.0,-0.0137295457426,0.999905745345,0,1449618709723331158,odom,0.270421167169,-0.00371310976229,0.0,0.0,0.0,-0.0151024006705,0.999885952244,0,1449618709723331354,odom,0.294996938246,-0.00445567011715,0.0,0.0,0.0,-0.0164752271286,0.999864274235,0,1449618709723331544,odom,0.319570577601,-0.00526571254247,0.0,0.0,0.0,-0.0178480225289,0.999840711359,0,1449618709723331735,odom,0.344141899938,-0.00614323093014,0.0,0.0,0.0,-0.0192207842835,0.999815263662,0,1449618709723331924,odom,0.368710719976,-0.00708821866323,0.0,0.0,0.0,-0.0205935098045,0.99978793119,0,1449618709723332158,odom,0.393276852455,-0.00810066861608,0.0,0.0,0.0,-0.0219661965043,0.999758713996,0,1449618709723333787,odom,0.417840112135,-0.00918057315433,0.0,0.0,0.0,-0.0233388417951,0.999727612134,0,1449618709723333982,odom,0.442400313796,-0.010327924135,0.0,0.0,0.0,-0.0247114430893,0.999694625663,0,1449618709723334260,odom,0.466957272242,-0.0115427129064,0.0,0.0,0.0,-0.0260839977994,0.999659754646,0,1449618709723334462,odom,0.491510802303,-0.0128249303086,0.0,0.0,0.0,-0.027456503338,0.999622999147,0,1449618709723334647,odom,0.516060718832,-0.0141745666729,0.0,0.0,0.0,-0.0288289571177,0.999584359237,0,1449618709723335122,odom,0.540606836711,-0.0155916118225,0.0,0.0,0.0,-0.0302013565513,0.999543834988
1449618709804520140,3,1449618709800951620,odom,0,1449618709800951620,odom,0.0,0.0,0.0,0.0,0.0,0.0,1.0,0,1449618709800954320,odom,0.0245869867999,0.0,0.0,0.0,0.0,-0.00137299728029,0.999999057439,0,1449618709800955630,odom,0.0491738809008,-6.75156683759e-05,0.0,0.0,0.0,-0.00274599197232,0.999996229757,0,1449618709800956082,odom,0.0737604969057,-0.000202546496027,0.0,0.0,0.0,-0.00411898148781,0.99999151696,0,1449618709800956304,odom,0.0983466494195,-0.000405091464754,0.0,0.0,0.0,-0.00549196323852,0.999984919056,0,1449618709800957328,odom,0.122932153051,-0.000675149047271,0.0,0.0,0.0,-0.0068649346362,0.999976436059,0,1449618709800957580,odom,0.147516822413,-0.00101271720721,0.0,0.0,0.0,-0.00823789309265,0.999966067983,0,1449618709800957788,odom,0.172100472125,-0.00141779339915,0.0,0.0,0.0,-0.00961083601966,0.999953814849,0,1449618709800958026,odom,0.196682916815,-0.00189037456861,0.0,0.0,0.0,-0.0109837608291,0.99993967668,0,1449618709800959267,odom,0.221263971119,-0.0024304571521,0.0,0.0,0.0,-0.0123566649327,0.999923653501,0,1449618709800959531,odom,0.245843449684,-0.00303803707715,0.0,0.0,0.0,-0.0137295457426,0.999905745345,0,1449618709800959732,odom,0.270421167169,-0.00371310976229,0.0,0.0,0.0,-0.0151024006705,0.999885952244,0,1449618709800959911,odom,0.294996938246,-0.00445567011715,0.0,0.0,0.0,-0.0164752271286,0.999864274235,0,1449618709800960115,odom,0.319570577601,-0.00526571254247,0.0,0.0,0.0,-0.0178480225289,0.999840711359,0,1449618709800960351,odom,0.344141899938,-0.00614323093014,0.0,0.0,0.0,-0.0192207842835,0.999815263662,0,1449618709800960591,odom,0.368710719976,-0.00708821866323,0.0,0.0,0.0,-0.0205935098045,0.99978793119,0,1449618709800960801,odom,0.393276852455,-0.00810066861608,0.0,0.0,0.0,-0.0219661965043,0.999758713996,0,1449618709800962105,odom,0.417840112135,-0.00918057315433,0.0,0.0,0.0,-0.0233388417951,0.999727612134,0,1449618709800962312,odom,0.442400313796,-0.010327924135,0.0,0.0,0.0,-0.0247114430893,0.999694625663,0,1449618709800962504,odom,0.466957272242,-0.0115427129064,0.0,0.0,0.0,-0.0260839977994,0.999659754646,0,1449618709800962706,odom,0.491510802303,-0.0128249303086,0.0,0.0,0.0,-0.027456503338,0.999622999147,0,1449618709800962904,odom,0.516060718832,-0.0141745666729,0.0,0.0,0.0,-0.0288289571177,0.999584359237,0,1449618709800963205,odom,0.540606836711,-0.0155916118225,0.0,0.0,0.0,-0.0302013565513,0.999543834988
1449618709870723823,4,1449618709866559371,odom,0,1449618709866559371,odom,0.0,0.0,0.0,0.0,0.0,0.0,1.0,0,1449618709866567406,odom,0.0245869867999,0.0,0.0,0.0,0.0,-0.00137299728029,0.999999057439,0,1449618709866570304,odom,0.0491738809008,-6.75156683759e-05,0.0,0.0,0.0,-0.00274599197232,0.999996229757,0,1449618709866571100,odom,0.0737604969057,-0.000202546496027,0.0,0.0,0.0,-0.00411898148781,0.99999151696,0,1449618709866571266,odom,0.0983466494195,-0.000405091464754,0.0,0.0,0.0,-0.00549196323852,0.999984919056,0,1449618709866573074,odom,0.122932153051,-0.000675149047271,0.0,0.0,0.0,-0.0068649346362,0.999976436059,0,1449618709866573430,odom,0.147516822413,-0.00101271720721,0.0,0.0,0.0,-0.00823789309265,0.999966067983,0,1449618709866573719,odom,0.172100472125,-0.00141779339915,0.0,0.0,0.0,-0.00961083601966,0.999953814849,0,1449618709866573881,odom,0.196682916815,-0.00189037456861,0.0,0.0,0.0,-0.0109837608291,0.99993967668,0,1449618709866575510,odom,0.221263971119,-0.0024304571521,0.0,0.0,0.0,-0.0123566649327,0.999923653501,0,1449618709866575909,odom,0.245843449684,-0.00303803707715,0.0,0.0,0.0,-0.0137295457426,0.999905745345,0,1449618709866576068,odom,0.270421167169,-0.00371310976229,0.0,0.0,0.0,-0.0151024006705,0.999885952244,0,1449618709866576430,odom,0.294996938246,-0.00445567011715,0.0,0.0,0.0,-0.0164752271286,0.999864274235,0,1449618709866576631,odom,0.319570577601,-0.00526571254247,0.0,0.0,0.0,-0.0178480225289,0.999840711359,0,1449618709866576921,odom,0.344141899938,-0.00614323093014,0.0,0.0,0.0,-0.0192207842835,0.999815263662,0,1449618709866577082,odom,0.368710719976,-0.00708821866323,0.0,0.0,0.0,-0.0205935098045,0.99978793119,0,1449618709866577317,odom,0.393276852455,-0.00810066861608,0.0,0.0,0.0,-0.0219661965043,0.999758713996,0,1449618709866579248,odom,0.417840112135,-0.00918057315433,0.0,0.0,0.0,-0.0233388417951,0.999727612134,0,1449618709866579460,odom,0.442400313796,-0.010327924135,0.0,0.0,0.0,-0.0247114430893,0.999694625663,0,1449618709866579637,odom,0.466957272242,-0.0115427129064,0.0,0.0,0.0,-0.0260839977994,0.999659754646,0,1449618709866579794,odom,0.491510802303,-0.0128249303086,0.0,0.0,0.0,-0.027456503338,0.999622999147,0,1449618709866579956,odom,0.516060718832,-0.0141745666729,0.0,0.0,0.0,-0.0288289571177,0.999584359237,0,1449618709866580322,odom,0.540606836711,-0.0155916118225,0.0,0.0,0.0,-0.0302013565513,0.999543834988
1449618709933820541,5,1449618709933079379,odom,0,1449618709933079379,odom,0.0,0.0,0.0,0.0,0.0,0.0,1.0,0,1449618709933085177,odom,0.0245869867999,0.0,0.0,0.0,0.0,-0.00137299728029,0.999999057439,0,1449618709933087208,odom,0.0491738809008,-6.75156683759e-05,0.0,0.0,0.0,-0.00274599197232,0.999996229757,0,1449618709933088021,odom,0.0737604969057,-0.000202546496027,0.0,0.0,0.0,-0.00411898148781,0.99999151696,0,1449618709933088229,odom,0.0983466494195,-0.000405091464754,0.0,0.0,0.0,-0.00549196323852,0.999984919056,0,1449618709933089464,odom,0.122932153051,-0.000675149047271,0.0,0.0,0.0,-0.0068649346362,0.999976436059,0,1449618709933090110,odom,0.147516822413,-0.00101271720721,0.0,0.0,0.0,-0.00823789309265,0.999966067983,0,1449618709933090374,odom,0.172100472125,-0.00141779339915,0.0,0.0,0.0,-0.00961083601966,0.999953814849,0,1449618709933090555,odom,0.196682916815,-0.00189037456861,0.0,0.0,0.0,-0.0109837608291,0.99993967668,0,1449618709933092167,odom,0.221263971119,-0.0024304571521,0.0,0.0,0.0,-0.0123566649327,0.999923653501,0,1449618709933092387,odom,0.245843449684,-0.00303803707715,0.0,0.0,0.0,-0.0137295457426,0.999905745345,0,1449618709933092551,odom,0.270421167169,-0.00371310976229,0.0,0.0,0.0,-0.0151024006705,0.999885952244,0,1449618709933092709,odom,0.294996938246,-0.00445567011715,0.0,0.0,0.0,-0.0164752271286,0.999864274235,0,1449618709933092867,odom,0.319570577601,-0.00526571254247,0.0,0.0,0.0,-0.0178480225289,0.999840711359,0,1449618709933093047,odom,0.344141899938,-0.00614323093014,0.0,0.0,0.0,-0.0192207842835,0.999815263662,0,1449618709933093207,odom,0.368710719976,-0.00708821866323,0.0,0.0,0.0,-0.0205935098045,0.99978793119,0,1449618709933093399,odom,0.393276852455,-0.00810066861608,0.0,0.0,0.0,-0.0219661965043,0.999758713996,0,1449618709933095590,odom,0.417840112135,-0.00918057315433,0.0,0.0,0.0,-0.0233388417951,0.999727612134,0,1449618709933095763,odom,0.442400313796,-0.010327924135,0.0,0.0,0.0,-0.0247114430893,0.999694625663,0,1449618709933095931,odom,0.466957272242,-0.0115427129064,0.0,0.0,0.0,-0.0260839977994,0.999659754646,0,1449618709933096169,odom,0.491510802303,-0.0128249303086,0.0,0.0,0.0,-0.027456503338,0.999622999147,0,1449618709933096371,odom,0.516060718832,-0.0141745666729,0.0,0.0,0.0,-0.0288289571177,0.999584359237,0,1449618709933097397,odom,0.540606836711,-0.0155916118225,0.0,0.0,0.0,-0.0302013565513,0.999543834988
1449618710054656477,6,1449618710053213752,odom,0,1449618710053213752,odom,0.0,0.0,0.0,0.0,0.0,0.0,1.0,0,1449618710053225663,odom,0.0245869867999,0.0,0.0,0.0,0.0,-0.00137299728029,0.999999057439,0,1449618710053228468,odom,0.0491738809008,-6.75156683759e-05,0.0,0.0,0.0,-0.00274599197232,0.999996229757,0,1449618710053230701,odom,0.0737604969057,-0.000202546496027,0.0,0.0,0.0,-0.00411898148781,0.99999151696,0,1449618710053230884,odom,0.0983466494195,-0.000405091464754,0.0,0.0,0.0,-0.00549196323852,0.999984919056,0,1449618710053232745,odom,0.122932153051,-0.000675149047271,0.0,0.0,0.0,-0.0068649346362,0.999976436059,0,1449618710053233790,odom,0.147516822413,-0.00101271720721,0.0,0.0,0.0,-0.00823789309265,0.999966067983,0,1449618710053234450,odom,0.172100472125,-0.00141779339915,0.0,0.0,0.0,-0.00961083601966,0.999953814849,0,1449618710053234610,odom,0.196682916815,-0.00189037456861,0.0,0.0,0.0,-0.0109837608291,0.99993967668,0,1449618710053240364,odom,0.221263971119,-0.0024304571521,0.0,0.0,0.0,-0.0123566649327,0.999923653501,0,1449618710053241427,odom,0.245843449684,-0.00303803707715,0.0,0.0,0.0,-0.0137295457426,0.999905745345,0,1449618710053241804,odom,0.270421167169,-0.00371310976229,0.0,0.0,0.0,-0.0151024006705,0.999885952244,0,1449618710053242967,odom,0.294996938246,-0.00445567011715,0.0,0.0,0.0,-0.0164752271286,0.999864274235,0,1449618710053243292,odom,0.319570577601,-0.00526571254247,0.0,0.0,0.0,-0.0178480225289,0.999840711359,0,1449618710053243740,odom,0.344141899938,-0.00614323093014,0.0,0.0,0.0,-0.0192207842835,0.999815263662,0,1449618710053244348,odom,0.368710719976,-0.00708821866323,0.0,0.0,0.0,-0.0205935098045,0.99978793119,0,1449618710053244793,odom,0.393276852455,-0.00810066861608,0.0,0.0,0.0,-0.0219661965043,0.999758713996,0,1449618710053248469,odom,0.417840112135,-0.00918057315433,0.0,0.0,0.0,-0.0233388417951,0.999727612134,0,1449618710053248956,odom,0.442400313796,-0.010327924135,0.0,0.0,0.0,-0.0247114430893,0.999694625663,0,1449618710053249366,odom,0.466957272242,-0.0115427129064,0.0,0.0,0.0,-0.0260839977994,0.999659754646,0,1449618710053249743,odom,0.491510802303,-0.0128249303086,0.0,0.0,0.0,-0.027456503338,0.999622999147,0,1449618710053250446,odom,0.516060718832,-0.0141745666729,0.0,0.0,0.0,-0.0288289571177,0.999584359237,0,1449618710053252273,odom,0.540606836711,-0.0155916118225,0.0,0.0,0.0,-0.0302013565513,0.999543834988
1449618710112954377,7,1449618710112307210,odom,0,1449618710112307210,odom,0.0,0.0,0.0,0.0,0.0,0.0,1.0,0,1449618710112313070,odom,0.0245869867999,0.0,0.0,0.0,0.0,-0.00137299728029,0.999999057439,0,1449618710112313967,odom,0.0491738809008,-6.75156683759e-05,0.0,0.0,0.0,-0.00274599197232,0.999996229757,0,1449618710112314676,odom,0.0737604969057,-0.000202546496027,0.0,0.0,0.0,-0.00411898148781,0.99999151696,0,1449618710112314942,odom,0.0983466494195,-0.000405091464754,0.0,0.0,0.0,-0.00549196323852,0.999984919056,0,1449618710112315470,odom,0.122932153051,-0.000675149047271,0.0,0.0,0.0,-0.0068649346362,0.999976436059,0,1449618710112315749,odom,0.147516822413,-0.00101271720721,0.0,0.0,0.0,-0.00823789309265,0.999966067983,0,1449618710112315979,odom,0.172100472125,-0.00141779339915,0.0,0.0,0.0,-0.00961083601966,0.999953814849,0,1449618710112316187,odom,0.196682916815,-0.00189037456861,0.0,0.0,0.0,-0.0109837608291,0.99993967668,0,1449618710112317645,odom,0.221263971119,-0.0024304571521,0.0,0.0,0.0,-0.0123566649327,0.999923653501,0,1449618710112317899,odom,0.245843449684,-0.00303803707715,0.0,0.0,0.0,-0.0137295457426,0.999905745345,0,1449618710112318105,odom,0.270421167169,-0.00371310976229,0.0,0.0,0.0,-0.0151024006705,0.999885952244,0,1449618710112318304,odom,0.294996938246,-0.00445567011715,0.0,0.0,0.0,-0.0164752271286,0.999864274235,0,1449618710112318502,odom,0.319570577601,-0.00526571254247,0.0,0.0,0.0,-0.0178480225289,0.999840711359,0,1449618710112318699,odom,0.344141899938,-0.00614323093014,0.0,0.0,0.0,-0.0192207842835,0.999815263662,0,1449618710112318886,odom,0.368710719976,-0.00708821866323,0.0,0.0,0.0,-0.0205935098045,0.99978793119,0,1449618710112319152,odom,0.393276852455,-0.00810066861608,0.0,0.0,0.0,-0.0219661965043,0.999758713996,0,1449618710112320542,odom,0.417840112135,-0.00918057315433,0.0,0.0,0.0,-0.0233388417951,0.999727612134,0,1449618710112320767,odom,0.442400313796,-0.010327924135,0.0,0.0,0.0,-0.0247114430893,0.999694625663,0,1449618710112320963,odom,0.466957272242,-0.0115427129064,0.0,0.0,0.0,-0.0260839977994,0.999659754646,0,1449618710112321165,odom,0.491510802303,-0.0128249303086,0.0,0.0,0.0,-0.027456503338,0.999622999147,0,1449618710112321347,odom,0.516060718832,-0.0141745666729,0.0,0.0,0.0,-0.0288289571177,0.999584359237,0,1449618710112321793,odom,0.540606836711,-0.0155916118225,0.0,0.0,0.0,-0.0302013565513,0.999543834988
1449618710189604418,8,1449618710188648040,odom,0,1449618710188648040,odom,0.00287963240407,3.04332297674e-05,0.0,0.0,0.0,0.0052839998134,0.999986039576,0,1449618710188650563,odom,0.0273400754956,0.000288942009957,0.0,0.0,0.0,0.00391101672024,0.999992351945,0,1449618710188651629,odom,0.0518011362283,0.000480281635138,0.0,0.0,0.0,0.00253802625433,0.999996779206,0,1449618710188652058,odom,0.076262630154,0.000604450662515,0.0,0.0,0.0,0.00116503100394,0.999999321351,0,1449618710188652260,odom,0.100724372821,0.000661448155793,0.0,0.0,0.0,-0.000207966442684,0.999999978375,0,1449618710188653493,odom,0.125186179776,0.000651273685185,0.0,0.0,0.0,-0.00158096349726,0.999998750276,0,1449618710188653792,odom,0.149647866565,0.000573927327411,0.0,0.0,0.0,-0.00295395757153,0.999995637058,0,1449618710188654008,odom,0.174109248735,0.000429409665698,0.0,0.0,0.0,-0.00432694607723,0.999990638725,0,1449618710188654229,odom,0.198570141835,0.000217721789782,0.0,0.0,0.0,-0.00569992642611,0.999983755287,0,1449618710188655410,odom,0.223030361419,-6.1134704108e-05,0.0,0.0,0.0,-0.00707289602993,0.999974986758,0,1449618710188655693,odom,0.247489723044,-0.000407157713259,0.0,0.0,0.0,-0.00844585230047,0.999964333153,0,1449618710188655904,odom,0.271948042275,-0.00082034462849,0.0,0.0,0.0,-0.00981879264954,0.999951794494,0,1449618710188656111,odom,0.296405134684,-0.00130069233417,0.0,0.0,0.0,-0.011191714489,0.999937370802,0,1449618710188656298,odom,0.320860815853,-0.00184819720824,0.0,0.0,0.0,-0.0125646152307,0.999921062106,0,1449618710188656525,odom,0.345314901374,-0.00246285512226,0.0,0.0,0.0,-0.0139374922866,0.999902868437,0,1449618710188656725,odom,0.369767206851,-0.00314466144139,0.0,0.0,0.0,-0.0153103430685,0.999882789828,0,1449618710188656917,odom,0.394217547903,-0.0038936110245,0.0,0.0,0.0,-0.0166831649886,0.999860826318,0,1449618710188658059,odom,0.418665740161,-0.00470969822413,0.0,0.0,0.0,-0.0180559554589,0.999836977948,0,1449618710188658271,odom,0.443111599275,-0.0055929168866,0.0,0.0,0.0,-0.0194287118916,0.999811244763,0,1449618710188658484,odom,0.467554940911,-0.006543260352,0.0,0.0,0.0,-0.0208014316987,0.999783626811,0,1449618710188658710,odom,0.491995580754,-0.00756072145428,0.0,0.0,0.0,-0.0221741122925,0.999754124145,0,1449618710188658902,odom,0.51643333451,-0.00864529252129,0.0,0.0,0.0,-0.0235467510855,0.999722736819,0,1449618710188659095,odom,0.540868017906,-0.00979696537484,0.0,0.0,0.0,-0.0249193454899,0.999689464894
1449618710263933355,9,1449618710261142059,odom,0,1449618710261142059,odom,0.00575942592695,3.04332297674e-05,0.0,0.0,0.0,0.0,1.0,0,1449618710261144437,odom,0.0312022445924,3.04332297674e-05,0.0,0.0,0.0,-0.00143540620565,0.999998969804,0,1449618710261145606,odom,0.0566449584136,-4.26082545887e-05,0.0,0.0,0.0,-0.0028708094538,0.999995879218,0,1449618710261146059,odom,0.0820873577027,-0.000188690621325,0.0,0.0,0.0,-0.00430620678695,0.999990728249,0,1449618710261146302,odom,0.107529232775,-0.000407812666494,0.0,0.0,0.0,-0.00574159524763,0.999983516906,0,1449618710261147049,odom,0.132970373948,-0.000699972584187,0.0,0.0,0.0,-0.00717697187838,0.999974245206,0,1449618710261147310,odom,0.158410571549,-0.00106516796655,0.0,0.0,0.0,-0.00861233372175,0.999962913166,0,1449618710261147568,odom,0.183849615911,-0.0015033958038,0.0,0.0,0.0,-0.0100476778203,0.999949520811,0,1449618710261147783,odom,0.209287297374,-0.00201465248426,0.0,0.0,0.0,-0.0114830012168,0.999934068168,0,1449618710261148915,odom,0.234723406294,-0.00259893379437,0.0,0.0,0.0,-0.0129183009537,0.999916555269,0,1449618710261149153,odom,0.260157733038,-0.00325623491874,0.0,0.0,0.0,-0.0143535740739,0.999896982149,0,1449618710261149380,odom,0.285590067985,-0.00398655044018,0.0,0.0,0.0,-0.0157888176201,0.99987534885,0,1449618710261149615,odom,0.311020201535,-0.00478987433975,0.0,0.0,0.0,-0.0172240286351,0.999851655416,0,1449618710261149828,odom,0.336447924103,-0.0056661999968,0.0,0.0,0.0,-0.0186592041619,0.999825901895,0,1449618710261150063,odom,0.361873026125,-0.00661552018904,0.0,0.0,0.0,-0.0200943412434,0.999798088341,0,1449618710261150304,odom,0.387295298058,-0.00763782709259,0.0,0.0,0.0,-0.0215294369227,0.999768214811,0,1449618710261150507,odom,0.412714530383,-0.00873311228204,0.0,0.0,0.0,-0.0229644882429,0.999736281366,0,1449618710261151664,odom,0.438130513606,-0.00990136673052,0.0,0.0,0.0,-0.0243994922473,0.999702288073,0,1449618710261151913,odom,0.463543038259,-0.0111425808098,0.0,0.0,0.0,-0.0258344459791,0.999666235001,0,1449618710261152143,odom,0.488951894904,-0.0124567442903,0.0,0.0,0.0,-0.0272693464819,0.999628122225,0,1449618710261152498,odom,0.514356874131,-0.0138438463413,0.0,0.0,0.0,-0.0287041907991,0.999587949823,0,1449618710261152746,odom,0.539757766564,-0.0153038755309,0.0,0.0,0.0,-0.0301389759744,0.999545717877
1449618710310137544,10,1449618710306791972,odom,0,1449618710306791972,odom,0.0086390580982,6.08664595347e-05,0.0,0.0,0.0,0.0052839998134,0.999986039576,0,1449618710306794836,odom,0.0339495962017,0.000328359419764,0.0,0.0,0.0,0.00384860820308,0.99999259408,0,1449618710306795830,odom,0.0592607979272,0.000523189545646,0.0,0.0,0.0,0.00241320866311,0.999997088208,0,1449618710306796579,odom,0.084572454671,0.000645355231474,0.0,0.0,0.0,0.000977804150992,0.999999521949,0,1449618710306796769,odom,0.109884357825,0.000694855470412,0.0,0.0,0.0,-0.000457602375789,0.9999998953,0,1449618710306797481,odom,0.135196298781,0.000671689854502,0.0,0.0,0.0,-0.00189300795973,0.999998208259,0,1449618710306797710,odom,0.160508068927,0.000575858574664,0.0,0.0,0.0,-0.00332840964333,0.999994460829,0,1449618710306797944,odom,0.185819459656,0.000407362420697,0.0,0.0,0.0,-0.00476380446911,0.999988653019,0,1449618710306798168,odom,0.211130262361,0.000166202781274,0.0,0.0,0.0,-0.00619918947957,0.99998078484,0,1449618710306799750,odom,0.236440268443,-0.000147618356073,0.0,0.0,0.0,-0.00763456171728,0.999970856309,0,1449618710306799946,odom,0.261749269307,-0.000534098404967,0.0,0.0,0.0,-0.0090699182248,0.999958867446,0,1449618710306800151,odom,0.287057056368,-0.000993234180208,0.0,0.0,0.0,-0.0105052560447,0.999944818275,0,1449618710306800401,odom,0.312363421049,-0.0015250218978,0.0,0.0,0.0,-0.0119405722197,0.999928708826,0,1449618710306800577,odom,0.337668154788,-0.00212945717498,0.0,0.0,0.0,-0.0133758637924,0.999910539132,0,1449618710306800760,odom,0.362971049032,-0.00280653503025,0.0,0.0,0.0,-0.0148111278056,0.999890309231,0,1449618710306800929,odom,0.388271895248,-0.00355624988344,0.0,0.0,0.0,-0.0162463613021,0.999868019163,0,1449618710306801115,odom,0.413570484915,-0.00437859555573,0.0,0.0,0.0,-0.0176815613247,0.999843668975,0,1449618710306802316,odom,0.438866609535,-0.00527356526969,0.0,0.0,0.0,-0.0191167249164,0.999817258717,0,1449618710306802572,odom,0.464160060627,-0.00624115164938,0.0,0.0,0.0,-0.0205518491201,0.999788788444,0,1449618710306802778,odom,0.489450629735,-0.00728134672037,0.0,0.0,0.0,-0.0219869309789,0.999758258214,0,1449618710306802966,odom,0.514738108424,-0.00839414190983,0.0,0.0,0.0,-0.023421967536,0.999725668089,0,1449618710306803140,odom,0.540022288286,-0.00957952804658,0.0,0.0,0.0,-0.0248569558347,0.999691018138
1449618710406037331,11,1449618710405710276,odom,0,1449618710405710276,odom,0.014398323372,0.000121732919069,0.0,0.0,0.0,0.0052839998134,0.999986039576,0,1449618710405713131,odom,0.0394471428507,0.000386459921128,0.0,0.0,0.0,0.00384860820308,0.99999259408,0,1449618710405714783,odom,0.0644966190894,0.000579275444538,0.0,0.0,0.0,0.00241320866311,0.999997088208,0,1449618710405715650,odom,0.0895465456414,0.000700177900198,0.0,0.0,0.0,0.000977804150992,0.999999521949,0,1449618710405715854,odom,0.114596716056,0.000749166291684,0.0,0.0,0.0,-0.000457602375789,0.9999998953,0,1449618710405716448,odom,0.139646923881,0.000726240215254,0.0,0.0,0.0,-0.00189300795973,0.999998208259,0,1449618710405716811,odom,0.164696962662,0.000631399859854,0.0,0.0,0.0,-0.00332840964333,0.999994460829,0,1449618710405717038,odom,0.18974662595,0.000464646007119,0.0,0.0,0.0,-0.00476380446911,0.999988653019,0,1449618710405717278,odom,0.214795707294,0.00022598003136,0.0,0.0,0.0,-0.00619918947957,0.99998078484,0,1449618710405718652,odom,0.239844000253,-8.45961004424e-05,0.0,0.0,0.0,-0.00763456171728,0.999970856309,0,1449618710405718940,odom,0.264891298388,-0.000467079828654,0.0,0.0,0.0,-0.0090699182248,0.999958867446,0,1449618710405719158,odom,0.28993739527,-0.000921468001012,0.0,0.0,0.0,-0.0105052560447,0.999944818275,0,1449618710405719426,odom,0.314982084481,-0.00144775687265,0.0,0.0,0.0,-0.0119405722197,0.999928708826,0,1449618710405719644,odom,0.340025159614,-0.00204594210611,0.0,0.0,0.0,-0.0133758637924,0.999910539132,0,1449618710405719917,odom,0.365066414273,-0.00271601877143,0.0,0.0,0.0,-0.0148111278056,0.999890309231,0,1449618710405720145,odom,0.390105642081,-0.00345798134612,0.0,0.0,0.0,-0.0162463613021,0.999868019163,0,1449618710405720344,odom,0.415142636674,-0.00427182371525,0.0,0.0,0.0,-0.0176815613247,0.999843668975,0,1449618710405721844,odom,0.440177191709,-0.00515753917149,0.0,0.0,0.0,-0.0191167249164,0.999817258717,0,1449618710405722140,odom,0.465209100862,-0.00611512041515,0.0,0.0,0.0,-0.0205518491201,0.999788788444,0,1449618710405722368,odom,0.49023815783,-0.00714455955427,0.0,0.0,0.0,-0.0219869309789,0.999758258214,0,1449618710405722582,odom,0.515264156335,-0.00824584810466,0.0,0.0,0.0,-0.023421967536,0.999725668089,0,1449618710405722771,odom,0.540286890124,-0.00941897698998,0.0,0.0,0.0,-0.0248569558347,0.999691018138
1449618710518165835,12,1449618710517316776,odom,0,1449618710517316776,odom,0.0172774735838,0.000182595977094,0.0,0.0,0.0,0.010567852093,0.999944158692,0,1449618710517322735,odom,0.0421912986016,0.000709255442517,0.0,0.0,0.0,0.0091325151554,0.999958297714,0,1449618710517324692,odom,0.067106532894,0.0011643898933,0.0,0.0,0.0,0.00769715940119,0.99997037643,0,1449618710517325356,odom,0.0920229711204,0.00154799557842,0.0,0.0,0.0,0.00626178778781,0.999980394815,0,1449618710517325521,odom,0.11694040793,0.00186006933638,0.0,0.0,0.0,0.0048264032727,0.999988352848,0,1449618710517326321,odom,0.141858637965,0.00210060859518,0.0,0.0,0.0,0.00339100881331,0.999994250513,0,1449618710517326913,odom,0.16677745586,0.00226961137242,0.0,0.0,0.0,0.0019556073671,0.999998087798,0,1449618710517327081,odom,0.191696656245,0.00236707627525,0.0,0.0,0.0,0.000520201891584,0.999999864695,0,1449618710517327232,odom,0.216616033746,0.0023930025004,0.0,0.0,0.0,-0.000915204655756,0.9999995812,0,1449618710517329411,odom,0.241535382989,0.0023473898342,0.0,0.0,0.0,-0.00235060931742,0.999997237314,0,1449618710517329757,odom,0.266454498599,0.00223023865257,0.0,0.0,0.0,-0.0037860091359,0.999992833042,0,1449618710517330020,odom,0.291373175205,0.00204154992102,0.0,0.0,0.0,-0.00522140115372,0.999986368392,0,1449618710517330372,odom,0.316291207437,0.00178132519464,0.0,0.0,0.0,-0.0066567824134,0.999977843378,0,1449618710517330538,odom,0.341208389931,0.00144956661809,0.0,0.0,0.0,-0.00809214995751,0.999967258019,0,1449618710517330883,odom,0.366124517331,0.00104627692558,0.0,0.0,0.0,-0.00952750082861,0.999954612334,0,1449618710517335144,odom,0.39103938429,0.000571459440843,0.0,0.0,0.0,-0.0109628320693,0.999939906351,0,1449618710517335314,odom,0.41595278547,2.51180771199e-05,0.0,0.0,0.0,-0.0123981407223,0.9999231401,0,1449618710517337058,odom,0.440864515544,-0.000592742662881,0.0,0.0,0.0,-0.0138334238303,0.999904313615,0,1449618710517337215,odom,0.465774369203,-0.00128211768702,0.0,0.0,0.0,-0.0152686784359,0.999883426935,0,1449618710517337976,odom,0.490682141149,-0.00204300131377,0.0,0.0,0.0,-0.0167039015822,0.999860480103,0,1449618710517338144,odom,0.515587626104,-0.00287538727227,0.0,0.0,0.0,-0.0181390903118,0.999835473167,0,1449618710517338390,odom,0.540490618807,-0.00377926870234,0.0,0.0,0.0,-0.0195742416678,0.999808406177
1449618710601142296,13,1449618710599147812,odom,0,1449618710599147812,odom,0.0259158872068,0.000304325483739,0.0,0.0,0.0,0.0052839998134,0.999986039576,0,1449618710599155777,odom,0.0504413523803,0.000563521446048,0.0,0.0,0.0,0.00384860820308,0.99999259408,0,1449618710599157324,odom,0.074967460592,0.000752308402988,0.0,0.0,0.0,0.00241320866311,0.999997088208,0,1449618710599158152,odom,0.0994940097083,0.000870684798659,0.0,0.0,0.0,0.000977804150992,0.999999521949,0,1449618710599158338,odom,0.124020797592,0.000918649657454,0.0,0.0,0.0,-0.000457602375789,0.9999998953,0,1449618710599159708,odom,0.148547622104,0.000896202584069,0.0,0.0,0.0,-0.00189300795973,0.999998208259,0,1449618710599160456,odom,0.173074281106,0.000803343763502,0.0,0.0,0.0,-0.00332840964333,0.999994460829,0,1449618710599160661,odom,0.197600572458,0.000640073961054,0.0,0.0,0.0,-0.00476380446911,0.999988653019,0,1449618710599160840,odom,0.222126294026,0.000406394522326,0.0,0.0,0.0,-0.00619918947957,0.99998078484,0,1449618710599164071,odom,0.24665124368,0.0001023073732,0.0,0.0,0.0,-0.00763456171728,0.999970856309,0,1449618710599164634,odom,0.271175219296,-0.00027218498017,0.0,0.0,0.0,-0.0090699182248,0.999958867446,0,1449618710599164963,odom,0.295698018758,-0.000717079451381,0.0,0.0,0.0,-0.0105052560447,0.999944818275,0,1449618710599165300,odom,0.320219439959,-0.00123237237381,0.0,0.0,0.0,-0.0119405722197,0.999928708826,0,1449618710599165506,odom,0.344739280805,-0.00181805950063,0.0,0.0,0.0,-0.0133758637924,0.999910539132,0,1449618710599166103,odom,0.369257339214,-0.00247413600487,0.0,0.0,0.0,-0.0148111278056,0.999890309231,0,1449618710599166307,odom,0.393773413119,-0.00320059647943,0.0,0.0,0.0,-0.0162463613021,0.999868019163,0,1449618710599166502,odom,0.418287300468,-0.00399743493714,0.0,0.0,0.0,-0.0176815613247,0.999843668975,0,1449618710599169085,odom,0.44279879923,-0.0048646448108,0.0,0.0,0.0,-0.0191167249164,0.999817258717,0,1449618710599169806,odom,0.467307707392,-0.00580221895326,0.0,0.0,0.0,-0.0205518491201,0.999788788444,0,1449618710599170143,odom,0.49181382296,-0.00681014963742,0.0,0.0,0.0,-0.0219869309789,0.999758258214,0,1449618710599170574,odom,0.516316943968,-0.00788842855638,0.0,0.0,0.0,-0.023421967536,0.999725668089,0,1449618710599170777,odom,0.540816868469,-0.00903704682342,0.0,0.0,0.0,-0.0248569558347,0.999691018138
1449618710676086397,14,1449618710674987959,odom,0,1449618710674987959,odom,0.0316746719182,0.000395621784264,0.0,0.0,0.0,0.0052839998134,0.999986039576,0,1449618710674992719,odom,0.0570938818069,0.00066426323598,0.0,0.0,0.0,0.00378025600042,0.999992854807,0,1449618710674993501,odom,0.0825137846781,0.000856454836447,0.0,0.0,0.0,0.00227650363918,0.999997408762,0,1449618710674994133,odom,0.107934150605,0.00097219484726,0.0,0.0,0.0,0.000772746130105,0.999999701432,0,1449618710674994359,odom,0.133354749655,0.00101148222153,0.0,0.0,0.0,-0.000731013126379,0.99999973281,0,1449618710674994987,odom,0.158775351897,0.000974316603904,0.0,0.0,0.0,-0.00223477072983,0.999997502897,0,1449618710674995209,odom,0.184195727395,0.000860698330543,0.0,0.0,0.0,-0.00373852327981,0.999993011697,0,1449618710674995391,odom,0.209615646219,0.000670628429146,0.0,0.0,0.0,-0.0052422673759,0.999986259222,0,1449618710674995586,odom,0.235034878442,0.000404108618925,0.0,0.0,0.0,-0.00674599961769,0.999977245486,0,1449618710674996893,odom,0.260453194142,6.1141310596e-05,0.0,0.0,0.0,-0.00824971660481,0.999965970509,0,1449618710674997098,odom,0.285870363406,-0.000358270393646,0.0,0.0,0.0,-0.00975341493691,0.999952434317,0,1449618710674997296,odom,0.311286156333,-0.000854122700155,0.0,0.0,0.0,-0.0112570912137,0.999936636941,0,1449618710674997492,odom,0.336700343032,-0.00142641112387,0.0,0.0,0.0,-0.0127607420349,0.999918578417,0,1449618710674997673,odom,0.362112693627,-0.00207513048834,0.0,0.0,0.0,-0.0142643640004,0.999898258784,0,1449618710674997871,odom,0.38752297826,-0.00280027492579,0.0,0.0,0.0,-0.0157679537099,0.99987567809,0,1449618710674998075,odom,0.412930967091,-0.00360183787719,0.0,0.0,0.0,-0.0172715077635,0.999850836385,0,1449618710674998295,odom,0.4383364303,-0.00447981209226,0.0,0.0,0.0,-0.0187750227612,0.999823733725,0,1449618710674999846,odom,0.463739138091,-0.00543418962958,0.0,0.0,0.0,-0.0202784953031,0.999794370172,0,1449618710675000057,odom,0.489138860692,-0.00646496185665,0.0,0.0,0.0,-0.0217819219894,0.999762745792,0,1449618710675000245,odom,0.514535368359,-0.00757211944997,0.0,0.0,0.0,-0.0232852994204,0.999728860657,0,1449618710675000447,odom,0.539928431375,-0.00875565239512,0.0,0.0,0.0,-0.0247886241965,0.999692714843
1449618710783333808,15,1449618710782880313,odom,0,1449618710782880313,odom,0.0431904681027,0.000669497065246,0.0,0.0,0.0,0.0158514093093,0.999874358519,0,1449618710782884484,odom,0.0683206900961,0.00146649635604,0.0,0.0,0.0,0.00908503093323,0.999958730255,0,1449618710782885600,odom,0.0934593967674,0.00192332477186,0.0,0.0,0.0,0.00231823654457,0.999997312886,0,1449618710782886324,odom,0.118601983664,0.00203989863914,0.0,0.0,0.0,-0.00444866399844,0.999990104645,0,1449618710782886922,odom,0.143743845622,0.00181619660599,0.0,0.0,0.0,-0.0112153608327,0.999937105863,0,1449618710782887865,odom,0.16888037761,0.00125225964611,0.0,0.0,0.0,-0.0179815441044,0.999838318965,0,1449618710782888151,odom,0.194006975575,0.000348191051238,0.0,0.0,0.0,-0.0247469039834,0.999693748477,0,1449618710782888416,odom,0.219119037281,-0.000895843587709,0.0,0.0,0.0,-0.031511130677,0.999503401016,0,1449618710782888607,odom,0.244211963155,-0.00247961641101,0.0,0.0,0.0,-0.0382739144445,0.999267285301,0,1449618710782890016,odom,0.269281157131,-0.00440283733184,0.0,0.0,0.0,-0.0450349456115,0.998985412143,0,1449618710782890475,odom,0.294322027487,-0.00666515408945,0.0,0.0,0.0,-0.0517939145834,0.998657794448,0,1449618710782890658,odom,0.319329987691,-0.00926615231364,0.0,0.0,0.0,-0.0585505118605,0.99828444722,0,1449618710782890854,odom,0.344300457237,-0.0122053556007,0.0,0.0,0.0,-0.0653044280514,0.997865387553,0,1449618710782891153,odom,0.369228862487,-0.0154822256005,0.0,0.0,0.0,-0.0720553538876,0.997400634638,0,1449618710782891661,odom,0.394110637507,-0.0190961621156,0.0,0.0,0.0,-0.0788029802374,0.996890209755,0,1449618710782891886,odom,0.418941224906,-0.0230465032103,0.0,0.0,0.0,-0.0855469981204,0.996334136278,0,1449618710782892076,odom,0.443716076664,-0.0273325253329,0.0,0.0,0.0,-0.0922870987212,0.995732439669,0,1449618710782893058,odom,0.468430654975,-0.0319534434475,0.0,0.0,0.0,-0.0990229734039,0.995085147481,0,1449618710782893319,odom,0.49308043307,-0.0369084111779,0.0,0.0,0.0,-0.105754313726,0.994392289355,0,1449618710782893511,odom,0.517660896047,-0.042196520963,0.0,0.0,0.0,-0.112480811453,0.993653897016,0,1449618710782893689,odom,0.542167541705,-0.0478168042226,0.0,0.0,0.0,-0.119202158572,0.992870004276,0,1449618710782893919,odom,0.566595881359,-0.0537682315351,0.0,0.0,0.0,-0.125918047305,0.992040647032,0,1449618710782894128,odom,0.590941440669,-0.0600497128258,0.0,0.0,0.0,-0.132628170126,0.991165863259,0,1449618710782894306,odom,0.615199760456,-0.0666600975667,0.0,0.0,0.0,-0.139332219771,0.990245693015,0,1449618710782894483,odom,0.63936639752,-0.0735981749875,0.0,0.0,0.0,-0.146029889255,0.989280178435,0,1449618710782894847,odom,0.663436925456,-0.0808626742967,0.0,0.0,0.0,-0.152720871884,0.988269363732,0,1449618710782895034,odom,0.687406935459,-0.0884522649149,0.0,0.0,0.0,-0.159404861274,0.987213295191,0,1449618710782895220,odom,0.711272037138,-0.0963655567185,0.0,0.0,0.0,-0.166081551356,0.986112021172,0,1449618710782895402,odom,0.735027859315,-0.104601100294,0.0,0.0,0.0,-0.172750636398,0.984965592102,0,1449618710782895584,odom,0.75867005083,-0.113157387204,0.0,0.0,0.0,-0.179411811017,0.983774060477,0,1449618710782895874,odom,0.782194281334,-0.122032850262,0.0,0.0,0.0,-0.186064770191,0.98253748086,0,1449618710782896069,odom,0.805596242084,-0.131225863823,0.0,0.0,0.0,-0.192709209274,0.981255909873,0,1449618710782896255,odom,0.828871646735,-0.140734744076,0.0,0.0,0.0,-0.19934482401,0.979929406202,0,1449618710782897888,odom,0.852016232118,-0.150557749357,0.0,0.0,0.0,-0.205971310549,0.978558030589,0,1449618710782898267,odom,0.875025759028,-0.160693080466,0.0,0.0,0.0,-0.212588365456,0.97714184583,0,1449618710782898452,odom,0.897896012996,-0.171138880997,0.0,0.0,0.0,-0.219195685731,0.975680916774,0,1449618710782898643,odom,0.920622805065,-0.181893237676,0.0,0.0,0.0,-0.225792968817,0.974175310318,0,1449618710782898830,odom,0.943201972551,-0.192954180717,0.0,0.0,0.0,-0.232379912618,0.972625095405,0,1449618710782899011,odom,0.965629379811,-0.204319684175,0.0,0.0,0.0,-0.238956215512,0.971030343021,0,1449618710782899241,odom,0.987900919001,-0.215987666324,0.0,0.0,0.0,-0.245521576363,0.969391126192,0,1449618710782899455,odom,1.01001251082,-0.227955990034,0.0,0.0,0.0,-0.252075694537,0.967707519979,0,1449618710782899897,odom,1.03196010528,-0.240222463164,0.0,0.0,0.0,-0.258618269914,0.965979601476
1449618710839963843,16,1449618710838207013,odom,0,1449618710838207013,odom,0.0547038502991,0.00103464140557,0.0,0.0,0.0,0.0158514093093,0.999874358519,0,1449618710838210153,odom,0.0798340722925,0.00183164069637,0.0,0.0,0.0,0.0105887174333,0.99994393796,0,1449618710838211338,odom,0.104971291354,0.00236407206501,0.0,0.0,0.0,0.0053257322417,0.999985818187,0,1449618710838211817,odom,0.130112722222,0.00263187651687,0.0,0.0,0.0,6.25995232462e-05,0.999999998041,0,1449618710838212038,odom,0.155255579168,0.0026350243786,0.0,0.0,0.0,-0.00520053492926,0.999986477127,0,1449618710838213188,odom,0.180397076305,0.00237351530142,0.0,0.0,0.0,-0.010463525323,0.99994525582,0,1449618710838213452,odom,0.205534427898,0.00184737826112,0.0,0.0,0.0,-0.015726225869,0.999876335263,0,1449618710838213716,odom,0.230664848671,0.00105667155491,0.0,0.0,0.0,-0.0209884907865,0.999779717365,0,1449618710838213994,odom,0.255785554114,1.48279490879e-06,0.0,0.0,0.0,-0.0262501743067,0.999655404802,0,1449618710838215680,odom,0.280893760797,-0.00131807110155,0.0,0.0,0.0,-0.031511130677,0.999503401016,0,1449618710838215916,odom,0.305986686672,-0.00290184392484,0.0,0.0,0.0,-0.0367712141647,0.99932371022,0,1449618710838216146,odom,0.331061551384,-0.00474966018931,0.0,0.0,0.0,-0.0420302790616,0.999116337391,0,1449618710838216354,odom,0.356115576582,-0.00686131515266,0.0,0.0,0.0,-0.0472881796876,0.998881288273,0,1449618710838216561,odom,0.381145986222,-0.00923657483865,0.0,0.0,0.0,-0.0525447703947,0.998618569377,0,1449618710838217630,odom,0.406150006877,-0.011875176063,0.0,0.0,0.0,-0.0577999055713,0.99832818798,0,1449618710838217871,odom,0.431124868043,-0.0147768264628,0.0,0.0,0.0,-0.0630534396463,0.998010152127,0,1449618710838218081,odom,0.456067802448,-0.0179412045283,0.0,0.0,0.0,-0.0683052270925,0.997664470627,0,1449618710838219432,odom,0.480976046359,-0.0213679596392,0.0,0.0,0.0,-0.0735551224316,0.997291153056,0,1449618710838219677,odom,0.505846839884,-0.0250567121032,0.0,0.0,0.0,-0.0788029802374,0.996890209755,0,1449618710838219926,odom,0.530677427282,-0.0290070531979,0.0,0.0,0.0,-0.0840486551402,0.996461651831,0,1449618710838220133,odom,0.555465057267,-0.0332185452166,0.0,0.0,0.0,-0.0892920018308,0.996005491154,0,1449618710838220334,odom,0.580206983313,-0.0376907215162,0.0,0.0,0.0,-0.0945328750644,0.995521740361,0,1449618710838220586,odom,0.604900463957,-0.0424230865693,0.0,0.0,0.0,-0.0997711296648,0.995010412853,0,1449618710838220879,odom,0.629542763105,-0.0474151160189,0.0,0.0,0.0,-0.105006620528,0.994471522792,0,1449618710838221109,odom,0.654131150333,-0.0526662567367,0.0,0.0,0.0,-0.110239202628,0.993905085108,0,1449618710838221294,odom,0.678662901191,-0.0581759268842,0.0,0.0,0.0,-0.115468731017,0.993311115491,0,1449618710838221598,odom,0.703135297505,-0.0639435159774,0.0,0.0,0.0,-0.120695060834,0.992689630393,0,1449618710838221797,odom,0.727545627677,-0.069968384954,0.0,0.0,0.0,-0.125918047305,0.992040647032,0,1449618710838221997,odom,0.751891186987,-0.0762498662447,0.0,0.0,0.0,-0.13113754575,0.991364183383,0,1449618710838222195,odom,0.77616927789,-0.0827872638469,0.0,0.0,0.0,-0.136353411584,0.990660258186,0,1449618710838222439,odom,0.800377210318,-0.0895798534019,0.0,0.0,0.0,-0.141565500324,0.98992889094,0,1449618710838222632,odom,0.824512301977,-0.0966268822752,0.0,0.0,0.0,-0.14677366759,0.989170101905,0,1449618710838222925,odom,0.848571878642,-0.10392756964,0.0,0.0,0.0,-0.151977769114,0.988383912098,0,1449618710838224372,odom,0.872553274457,-0.111481106563,0.0,0.0,0.0,-0.157177660737,0.9875703433,0,1449618710838224647,odom,0.896453832229,-0.119286656095,0.0,0.0,0.0,-0.162373198418,0.986729418045,0,1449618710838224862,odom,0.920270903721,-0.127343353363,0.0,0.0,0.0,-0.167564238237,0.985861159628,0,1449618710838225086,odom,0.944001849946,-0.135650305666,0.0,0.0,0.0,-0.172750636398,0.984965592102,0,1449618710838225305,odom,0.967644041461,-0.144206592576,0.0,0.0,0.0,-0.177932249234,0.984042740272,0,1449618710838225577,odom,0.991194858656,-0.153011266036,0.0,0.0,0.0,-0.18310893321,0.983092629704,0,1449618710838225783,odom,1.01465169205,-0.162063350467,0.0,0.0,0.0,-0.188280544929,0.982115286716,0,1449618710838225988,odom,1.03801194256,-0.171361842879,0.0,0.0,0.0,-0.193446941131,0.981110738381,0,1449618710838226220,odom,1.06127302184,-0.180905712976,0.0,0.0,0.0,-0.198607978705,0.980079012526
1449618710916316100,17,1449618710902841866,odom,0,1449618710902841866,odom,0.0604605413973,0.00121721357573,0.0,0.0,0.0,0.0158514093093,0.999874358519,0,1449618710902847284,odom,0.0855907633907,0.00201421286653,0.0,0.0,0.0,0.0105887174333,0.99994393796,0,1449618710902849021,odom,0.110727982452,0.00254664423517,0.0,0.0,0.0,0.0053257322417,0.999985818187,0,1449618710902849857,odom,0.13586941332,0.00281444868703,0.0,0.0,0.0,6.25995232462e-05,0.999999998041,0,1449618710902850468,odom,0.161012270266,0.00281759654876,0.0,0.0,0.0,-0.00520053492926,0.999986477127,0,1449618710902851536,odom,0.186153767403,0.00255608747158,0.0,0.0,0.0,-0.010463525323,0.99994525582,0,1449618710902851811,odom,0.211291118996,0.00202995043128,0.0,0.0,0.0,-0.015726225869,0.999876335263,0,1449618710902852365,odom,0.236421539769,0.00123924372507,0.0,0.0,0.0,-0.0209884907865,0.999779717365,0,1449618710902852844,odom,0.261542245213,0.000184054965069,0.0,0.0,0.0,-0.0262501743067,0.999655404802,0,1449618710902854169,odom,0.286650451895,-0.00113549893139,0.0,0.0,0.0,-0.031511130677,0.999503401016,0,1449618710902854434,odom,0.31174337777,-0.00271927175468,0.0,0.0,0.0,-0.0367712141647,0.99932371022,0,1449618710902854614,odom,0.336818242483,-0.00456708801915,0.0,0.0,0.0,-0.0420302790616,0.999116337391,0,1449618710902854793,odom,0.361872267681,-0.0066787429825,0.0,0.0,0.0,-0.0472881796876,0.998881288273,0,1449618710902854973,odom,0.38690267732,-0.00905400266849,0.0,0.0,0.0,-0.0525447703947,0.998618569377,0,1449618710902857363,odom,0.411906697975,-0.0116926038929,0.0,0.0,0.0,-0.0577999055713,0.99832818798,0,1449618710902857584,odom,0.436881559141,-0.0145942542926,0.0,0.0,0.0,-0.0630534396463,0.998010152127,0,1449618710902857818,odom,0.461824493546,-0.0177586323581,0.0,0.0,0.0,-0.0683052270925,0.997664470627,0,1449618710902859988,odom,0.486732737457,-0.021185387469,0.0,0.0,0.0,-0.0735551224316,0.997291153056,0,1449618710902860236,odom,0.511603530982,-0.024874139933,0.0,0.0,0.0,-0.0788029802374,0.996890209755,0,1449618710902860412,odom,0.53643411838,-0.0288244810278,0.0,0.0,0.0,-0.0840486551402,0.996461651831,0,1449618710902860575,odom,0.561221748366,-0.0330359730464,0.0,0.0,0.0,-0.0892920018308,0.996005491154,0,1449618710902860770,odom,0.585963674411,-0.037508149346,0.0,0.0,0.0,-0.0945328750644,0.995521740361,0,1449618710902860992,odom,0.610657155055,-0.0422405143991,0.0,0.0,0.0,-0.0997711296648,0.995010412853,0,1449618710902861328,odom,0.635299454203,-0.0472325438487,0.0,0.0,0.0,-0.105006620528,0.994471522792,0,1449618710902861555,odom,0.659887841431,-0.0524836845665,0.0,0.0,0.0,-0.110239202628,0.993905085108,0,1449618710902861764,odom,0.684419592289,-0.0579933547141,0.0,0.0,0.0,-0.115468731017,0.993311115491,0,1449618710902862068,odom,0.708891988603,-0.0637609438072,0.0,0.0,0.0,-0.120695060834,0.992689630393,0,1449618710902862355,odom,0.733302318776,-0.0697858127838,0.0,0.0,0.0,-0.125918047305,0.992040647032,0,1449618710902862742,odom,0.757647878085,-0.0760672940745,0.0,0.0,0.0,-0.13113754575,0.991364183383,0,1449618710902862915,odom,0.781925968988,-0.0826046916767,0.0,0.0,0.0,-0.136353411584,0.990660258186,0,1449618710902863241,odom,0.806133901416,-0.0893972812317,0.0,0.0,0.0,-0.141565500324,0.98992889094,0,1449618710902863417,odom,0.830268993075,-0.0964443101051,0.0,0.0,0.0,-0.14677366759,0.989170101905,0,1449618710902863664,odom,0.85432856974,-0.10374499747,0.0,0.0,0.0,-0.151977769114,0.988383912098,0,1449618710902866927,odom,0.878309965556,-0.111298534393,0.0,0.0,0.0,-0.157177660737,0.9875703433,0,1449618710902867278,odom,0.902210523328,-0.119104083924,0.0,0.0,0.0,-0.162373198418,0.986729418045,0,1449618710902867471,odom,0.926027594819,-0.127160781193,0.0,0.0,0.0,-0.167564238237,0.985861159628,0,1449618710902868011,odom,0.949758541044,-0.135467733496,0.0,0.0,0.0,-0.172750636398,0.984965592102,0,1449618710902868460,odom,0.973400732559,-0.144024020406,0.0,0.0,0.0,-0.177932249234,0.984042740272,0,1449618710902868672,odom,0.996951549754,-0.152828693866,0.0,0.0,0.0,-0.18310893321,0.983092629704,0,1449618710902868906,odom,1.02040838315,-0.161880778297,0.0,0.0,0.0,-0.188280544929,0.982115286716,0,1449618710902869107,odom,1.04376863366,-0.171179270709,0.0,0.0,0.0,-0.193446941131,0.981110738381,0,1449618710902869290,odom,1.06702971293,-0.180723140806,0.0,0.0,0.0,-0.198607978705,0.980079012526
1449618710993728006,18,1449618710979374029,odom,0,1449618710979374029,odom,0.0690944567323,0.00152148469351,0.0,0.0,0.0,0.0211345239407,0.999776641004,0,1449618710979381427,odom,0.0942148528506,0.00258401194792,0.0,0.0,0.0,0.0158722731919,0.999874027537,0,1449618710979383295,odom,0.119345041561,0.00338205999797,0.0,0.0,0.0,0.0106095827689,0.999943716793,0,1449618710979384461,odom,0.14448223838,0.0039155404181,0.0,0.0,0.0,0.00534659845238,0.99998570684,0,1449618710979384638,odom,0.16962365805,0.00418439409745,0.0,0.0,0.0,8.34660309525e-05,0.999999996517,0,1449618710979386210,odom,0.194766514843,0.00418859124642,0.0,0.0,0.0,-0.00517966870255,0.999986585426,0,1449618710979387172,odom,0.219908022872,0.00392813139995,0.0,0.0,0.0,-0.0104426599553,0.99994547394,0,1449618710979387704,odom,0.2450453964,0.0034030434176,0.0,0.0,0.0,-0.0157053619383,0.999876663197,0,1449618710979388031,odom,0.27017585015,0.00261338548032,0.0,0.0,0.0,-0.0209676288707,0.999780155104,0,1449618710979390129,odom,0.295296599608,0.00155924508402,0.0,0.0,0.0,-0.0262293149837,0.999655952333,0,1449618710979390311,odom,0.320404861337,0.000240739029897,0.0,0.0,0.0,-0.0314902745246,0.999504058326,0,1449618710979390681,odom,0.345497853286,-0.00134198658856,0.0,0.0,0.0,-0.0367503617608,0.99932447729,0,1449618710979390936,odom,0.370572795092,-0.0031887564017,0.0,0.0,0.0,-0.0420094309837,0.999117214199,0,1449618710979391131,odom,0.395626908394,-0.00529936578318,0.0,0.0,0.0,-0.0472673365131,0.998882274795,0,1449618710979391778,odom,0.420657417138,-0.00767358087263,0.0,0.0,0.0,-0.0525239327011,0.998619665585,0,1449618710979392229,odom,0.445661547888,-0.0103111386015,0.0,0.0,0.0,-0.0577790739359,0.998329393845,0,1449618710979392467,odom,0.470636530126,-0.0132117467225,0.0,0.0,0.0,-0.0630326146459,0.998011467615,0,1449618710979394387,odom,0.495579596569,-0.0163750838414,0.0,0.0,0.0,-0.0682844093042,0.997665895702,0,1449618710979394574,odom,0.520487983467,-0.0198007994532,0.0,0.0,0.0,-0.073534312432,0.997292687678,0,1449618710979394742,odom,0.545358930913,-0.0234885139807,0.0,0.0,0.0,-0.078782178603,0.996891853881,0,1449618710979394915,odom,0.57018968315,-0.0274378188167,0.0,0.0,0.0,-0.0840278624471,0.996463405416,0,1449618710979395287,odom,0.594977488872,-0.0316482763692,0.0,0.0,0.0,-0.089271218655,0.996007354149,0,1449618710979395881,odom,0.619719601533,-0.0361194201097,0.0,0.0,0.0,-0.0945121019817,0.995523712716,0,1449618710979396074,odom,0.644413279651,-0.0408507546253,0.0,0.0,0.0,-0.0997503672506,0.995012494511,0,1449618710979396244,odom,0.66905578711,-0.0458417556731,0.0,0.0,0.0,-0.104985869358,0.994473713697,0,1449618710979396406,odom,0.693644393462,-0.0510918702388,0.0,0.0,0.0,-0.110218463276,0.993907385199,0,1449618710979396729,odom,0.718176374234,-0.0566005165976,0.0,0.0,0.0,-0.115448004058,0.993313524704,0,1449618710979396982,odom,0.742649011226,-0.0623670843788,0.0,0.0,0.0,-0.120674346842,0.992692148662,0,1449618710979397166,odom,0.767059592813,-0.0683909346334,0.0,0.0,0.0,-0.125897346854,0.992043274286,0,1449618710979397350,odom,0.791405414247,-0.0746713999051,0.0,0.0,0.0,-0.131116859413,0.99136691955,0,1449618710979397986,odom,0.815683777954,-0.0812077843036,0.0,0.0,0.0,-0.136332739934,0.99066310319,0,1449618710979398182,odom,0.839891993836,-0.0879993635827,0.0,0.0,0.0,-0.141544843934,0.989931844702,0,1449618710979398417,odom,0.864027379568,-0.0950453852198,0.0,0.0,0.0,-0.146753027033,0.989173164343,0,1449618710979400258,odom,0.888087260892,-0.102345068499,0.0,0.0,0.0,-0.15195714496,0.988387083129,0,1449618710979400437,odom,0.912068971918,-0.1098976046,0.0,0.0,0.0,-0.157157053559,0.987573622834,0,1449618710979400614,odom,0.935969855418,-0.117702156682,0.0,0.0,0.0,-0.162352608786,0.986732805992,0,1449618710979400806,odom,0.95978726312,-0.125757859985,0.0,0.0,0.0,-0.167543666721,0.985864655894,0,1449618710979401191,odom,0.983518555998,-0.134063821918,0.0,0.0,0.0,-0.172730083568,0.98496919659,0,1449618710979401361,odom,1.00716110457,-0.14261912216,0.0,0.0,0.0,-0.17791171566,0.984046452883,0,1449618710979401818,odom,1.03071228919,-0.151422812766,0.0,0.0,0.0,-0.18308841946,0.983096450334,0,1449618710979402006,odom,1.05416950033,-0.160473918265,0.0,0.0,0.0,-0.188260051571,0.98211921526,0,1449618710979402266,odom,1.07753013888,-0.169771435775,0.0,0.0,0.0,-0.193426468734,0.98111477473
