%time,field.header.seq,field.header.stamp,field.header.frame_id,field.ns,field.id,field.type,field.action,field.pose.position.x,field.pose.position.y,field.pose.position.z,field.pose.orientation.x,field.pose.orientation.y,field.pose.orientation.z,field.pose.orientation.w,field.scale.x,field.scale.y,field.scale.z,field.color.r,field.color.g,field.color.b,field.color.a,field.lifetime,field.frame_locked,field.text,field.mesh_resource,field.mesh_use_embedded_materials
1449618707042043806,0,1449618706991871203,/odom,doorways,0,1,0,2.41755080223,-0.300515264273,1.0,0.0,0.0,0.218557923878,0.975823976909,0.2,0.67864215374,1.8,0.0,1.0,0.0,1.0,2000000000,0,,,0
1449618707208579466,1,1449618707156963216,/odom,doorways,0,1,0,2.28945994377,-0.354860723019,1.0,0.0,0.0,0.152665086437,0.988277982849,0.2,0.639273941517,1.8,0.0,1.0,0.0,1.0,2000000000,0,,,0
1449618707557124564,2,1449618707506740082,/odom,doorways,0,1,0,2.44887471199,-0.318527460098,1.0,0.0,0.0,0.226282191686,0.97406178948,0.2,0.697934091091,1.8,0.0,1.0,0.0,1.0,2000000000,0,,,0
1449618707761265569,3,1449618707711004451,/odom,doorways,0,1,0,2.25783205032,-0.345672011375,1.0,0.0,0.0,0.101931640632,0.994791405591,0.2,0.639314651489,1.8,0.0,1.0,0.0,1.0,2000000000,0,,,0
1449618707927312739,4,1449618707877076590,/odom,doorways,0,1,0,2.37093806267,-0.338378846645,1.0,0.0,0.0,0.180489465684,0.98357691757,0.2,0.66766500473,1.8,0.0,1.0,0.0,1.0,2000000000,0,,,0
1449618708208343941,5,1449618708155152904,/odom,doorways,0,1,0,2.3986530304,-0.318402588367,1.0,0.0,0.0,0.19725316969,0.980352583027,0.2,0.669310510159,1.8,0.0,1.0,0.0,1.0,2000000000,0,,,0
1449618708288979402,6,1449618708238679379,/odom,doorways,0,1,0,2.39362692833,-0.322905540466,1.0,0.0,0.0,0.210748104075,0.977540401533,0.2,0.657564461231,1.8,0.0,1.0,0.0,1.0,2000000000,0,,,0
1449618708492881719,7,1449618708442451063,/odom,doorways,0,1,0,2.37526249886,-0.325210779905,1.0,0.0,0.0,0.196176522601,0.980568596265,0.2,0.688858032227,1.8,0.0,1.0,0.0,1.0,2000000000,0,,,0
1449618708590864955,8,1449618708540676762,/odom,doorways,0,1,0,2.43150949478,-0.317814022303,1.0,0.0,0.0,0.223534360476,0.974696049898,0.2,0.717993438244,1.8,0.0,1.0,0.0,1.0,2000000000,0,,,0
1449618708693866676,9,1449618708638291617,/odom,doorways,0,1,0,2.4128177166,-0.326455265284,1.0,0.0,0.0,0.223855704524,0.974622297894,0.2,0.658708035946,1.8,0.0,1.0,0.0,1.0,2000000000,0,,,0
1449618709014192819,10,1449618708961361598,/odom,doorways,0,1,0,2.38841581345,-0.31275960803,1.0,0.0,0.0,0.188002875096,0.982168477887,0.2,0.657886326313,1.8,0.0,1.0,0.0,1.0,2000000000,0,,,0
1449618709342919859,11,1449618709292404643,/odom,doorways,0,1,0,2.43967700005,-0.298496872187,1.0,0.0,0.0,0.218047385612,0.975938183302,0.2,0.688723564148,1.8,0.0,1.0,0.0,1.0,2000000000,0,,,0
1449618709711924986,12,1449618709658111024,/odom,doorways,0,1,0,2.41987705231,-0.293064028025,1.0,0.0,0.0,0.231212278966,0.972903326161,0.2,0.688868701458,1.8,0.0,1.0,0.0,1.0,2000000000,0,,,0
1449618709886762182,13,1449618709835744982,/odom,doorways,0,1,0,2.43284988403,-0.307186156511,1.0,0.0,0.0,0.233255040994,0.972415593176,0.2,0.689742147923,1.8,0.0,1.0,0.0,1.0,2000000000,0,,,0
1449618710092993727,14,1449618710042728211,/odom,doorways,0,1,0,2.40162014961,-0.307631582022,1.0,0.0,0.0,0.209028144056,0.977909625166,0.2,0.687456548214,1.8,0.0,1.0,0.0,1.0,2000000000,0,,,0
1449618710287386537,15,1449618710227432682,/odom,doorways,0,1,0,2.44402766228,-0.287684172392,1.0,0.0,0.0,0.235497741417,0.971874896161,0.2,0.717848479748,1.8,0.0,1.0,0.0,1.0,2000000000,0,,,0
1449618710514164644,16,1449618710463746580,/odom,doorways,0,1,0,2.34132552147,-0.308269947767,1.0,0.0,0.0,0.179377150113,0.983780380988,0.2,0.678200006485,1.8,0.0,1.0,0.0,1.0,2000000000,0,,,0
1449618710688655531,17,1449618710633604770,/odom,doorways,0,1,0,2.28386497498,-0.354998379946,1.0,0.0,0.0,0.167519582756,0.985868748563,0.2,0.648358762264,1.8,0.0,1.0,0.0,1.0,2000000000,0,,,0
1449618710877711844,18,1449618710826614444,/odom,doorways,0,1,0,2.4103500843,-0.307527452707,1.0,0.0,0.0,0.207054874974,0.978329330415,0.2,0.707634091377,1.8,0.0,1.0,0.0,1.0,2000000000,0,,,0
1449618711020759887,19,1449618710969669395,/odom,doorways,0,1,0,2.35842943192,-0.330791473389,1.0,0.0,0.0,0.172814632723,0.984954365804,0.2,0.678684175014,1.8,0.0,1.0,0.0,1.0,2000000000,0,,,0
1449618711192749160,20,1449618711141609655,/odom,doorways,0,1,0,2.36564183235,-0.325364738703,1.0,0.0,0.0,0.215372185675,0.976532038203,0.2,0.669136464596,1.8,0.0,1.0,0.0,1.0,2000000000,0,,,0
1449618711431622436,21,1449618711380332262,/odom,doorways,0,1,0,2.26848125458,-0.358391314745,1.0,0.0,0.0,0.112869296653,0.993609843889,0.2,0.659392476082,1.8,0.0,1.0,0.0,1.0,2000000000,0,,,0
1449618711594378753,22,1449618711540288356,/odom,doorways,0,1,0,2.41235542297,-0.327738165855,1.0,0.0,0.0,0.209653625267,0.977775719382,0.2,0.67884683609,1.8,0.0,1.0,0.0,1.0,2000000000,0,,,0
1449618711987148527,23,1449618711936179401,/odom,doorways,0,1,0,2.36158061028,-0.331883817911,1.0,0.0,0.0,0.185401590936,0.982662836419,0.2,0.677509486675,1.8,0.0,1.0,0.0,1.0,2000000000,0,,,0
1449618712708416513,24,1449618712657620924,/odom,doorways,0,1,0,2.39481449127,-0.315563052893,1.0,0.0,0.0,0.220034508061,0.975492088775,0.2,0.698348939419,1.8,0.0,1.0,0.0,1.0,2000000000,0,,,0
1449618712920932624,25,1449618712870567756,/odom,doorways,0,1,0,2.37401652336,-0.316862165928,1.0,0.0,0.0,0.195752393577,0.980653353846,0.2,0.677879691124,1.8,0.0,1.0,0.0,1.0,2000000000,0,,,0
1449618713209323835,26,1449618713157955751,/odom,doorways,0,1,0,2.3745033741,-0.326390594244,1.0,0.0,0.0,0.195847571063,0.980634350259,0.2,0.677478969097,1.8,0.0,1.0,0.0,1.0,2000000000,0,,,0
1449618734590033096,27,1449618734539808656,/odom,doorways,0,1,0,4.68204927444,4.36638307571,1.0,0.0,0.0,0.819898654117,0.572508687251,0.2,0.63999915123,1.8,0.0,1.0,0.0,1.0,2000000000,0,,,0
1449618735202475145,28,1449618735151779751,/odom,doorways,0,1,0,4.78903865814,4.28619718552,1.0,0.0,0.0,0.830156537838,0.557530378261,0.2,0.717373669147,1.8,0.0,1.0,0.0,1.0,2000000000,0,,,0
1449618735389018970,29,1449618735338148615,/odom,doorways,0,1,0,4.78411769867,4.33270406723,1.0,0.0,0.0,0.847801464234,0.530313753586,0.2,0.728427410126,1.8,0.0,1.0,0.0,1.0,2000000000,0,,,0
1449618735440484239,30,1449618735389080545,/odom,doorways,1,1,0,5.65901660919,4.73213768005,1.0,0.0,0.0,0.79693198,0.604069051727,0.2,0.867308735847,1.8,0.0,1.0,0.0,1.0,2000000000,0,,,0
1449618735863804428,31,1449618735813598800,/odom,doorways,0,1,0,4.74813842773,4.35176181793,1.0,0.0,0.0,0.841977183021,0.539513135403,0.2,0.728086173534,1.8,0.0,1.0,0.0,1.0,2000000000,0,,,0
1449618735909346527,32,1449618735859014257,/odom,doorways,1,1,0,5.53053808212,4.69696569443,1.0,0.0,0.0,0.777678693122,0.628661952296,0.2,0.677684485912,1.8,0.0,1.0,0.0,1.0,2000000000,0,,,0
1449618735940601184,33,1449618735887564578,/odom,doorways,2,1,0,6.64267730713,4.71998739243,1.0,0.0,0.0,0.769558859307,0.638575885907,0.2,0.767208635807,1.8,0.0,1.0,0.0,1.0,2000000000,0,,,0
1449618735975640431,34,1449618735925546096,/odom,doorways,0,1,0,4.82689523697,4.33082008362,1.0,0.0,0.0,0.818962148077,0.573847540744,0.2,0.858842670918,1.8,0.0,1.0,0.0,1.0,2000000000,0,,,0
1449618736014376692,35,1449618735964193084,/odom,doorways,0,1,0,4.76675367355,4.3209271431,1.0,0.0,0.0,0.818083094396,0.575100035354,0.2,0.708872199059,1.8,0.0,1.0,0.0,1.0,2000000000,0,,,0
1449618736054906289,36,1449618736003935420,/odom,doorways,1,1,0,6.46377944946,4.89524507523,1.0,0.0,0.0,0.772603491634,0.634888844378,0.2,0.900009274483,1.8,0.0,1.0,0.0,1.0,2000000000,0,,,0
1449618736178258441,37,1449618736128162379,/odom,doorways,0,1,0,4.78228569031,4.33439016342,1.0,0.0,0.0,0.814200048187,0.580584431011,0.2,0.738545417786,1.8,0.0,1.0,0.0,1.0,2000000000,0,,,0
1449618736283932296,38,1449618736233174249,/odom,doorways,0,1,0,4.75519943237,4.33643913269,1.0,0.0,0.0,0.815061478713,0.579374478138,0.2,0.718088388443,1.8,0.0,1.0,0.0,1.0,2000000000,0,,,0
1449618736379290583,39,1449618736328676695,/odom,doorways,0,1,0,4.77109766006,4.35328245163,1.0,0.0,0.0,0.819937251003,0.572453408076,0.2,0.678996562958,1.8,0.0,1.0,0.0,1.0,2000000000,0,,,0
1449618736516977787,40,1449618736466784751,/odom,doorways,0,1,0,4.76358175278,4.37629508972,1.0,0.0,0.0,0.825224130554,0.564805395115,0.2,0.688684344292,1.8,0.0,1.0,0.0,1.0,2000000000,0,,,0
1449618736557022427,41,1449618736506615285,/odom,doorways,1,1,0,5.5429444313,4.69461679459,1.0,0.0,0.0,0.759923002472,0.65001310011,0.2,0.688328802586,1.8,0.0,1.0,0.0,1.0,2000000000,0,,,0
1449618736621780552,42,1449618736570200191,/odom,doorways,0,1,0,4.73825359344,4.36482477188,1.0,0.0,0.0,0.824808637973,0.565411983182,0.2,0.668341577053,1.8,0.0,1.0,0.0,1.0,2000000000,0,,,0
1449618736826471562,43,1449618736758498017,/odom,doorways,0,1,0,4.71865177155,4.34986400604,1.0,0.0,0.0,0.816628451236,0.577163731217,0.2,0.639127731323,1.8,0.0,1.0,0.0,1.0,2000000000,0,,,0
1449618736915504958,44,1449618736864498146,/odom,doorways,0,1,0,4.74584388733,4.38108682632,1.0,0.0,0.0,0.825721355016,0.564078224957,0.2,0.648473799229,1.8,0.0,1.0,0.0,1.0,2000000000,0,,,0
1449618737004554541,45,1449618736954007983,/odom,doorways,0,1,0,4.7363858223,4.37059783936,1.0,0.0,0.0,0.823144141789,0.567832476914,0.2,0.668410420418,1.8,0.0,1.0,0.0,1.0,2000000000,0,,,0
1449618737032634816,46,1449618736982479482,/odom,doorways,1,1,0,5.51428174973,4.66839647293,1.0,0.0,0.0,0.749672291318,0.66180922903,0.2,0.69843173027,1.8,0.0,1.0,0.0,1.0,2000000000,0,,,0
1449618737154774104,47,1449618737103294980,/odom,doorways,0,1,0,4.74622392654,4.35975599289,1.0,0.0,0.0,0.817907741637,0.575349394864,0.2,0.638713657856,1.8,0.0,1.0,0.0,1.0,2000000000,0,,,0
1449618737290737505,48,1449618737239130911,/odom,doorways,0,1,0,4.72973442078,4.36434793472,1.0,0.0,0.0,0.822593341891,0.568630102858,0.2,0.677646100521,1.8,0.0,1.0,0.0,1.0,2000000000,0,,,0
1449618737370058942,49,1449618737319645083,/odom,doorways,0,1,0,4.74760341644,4.37905836105,1.0,0.0,0.0,0.823499114287,0.567317555492,0.2,0.68795132637,1.8,0.0,1.0,0.0,1.0,2000000000,0,,,0
1449618737428418225,50,1449618737377413222,/odom,doorways,0,1,0,4.7300491333,4.35093212128,1.0,0.0,0.0,0.816333300254,0.577581113695,0.2,0.678312063217,1.8,0.0,1.0,0.0,1.0,2000000000,0,,,0
1449618737532166906,51,1449618737481604462,/odom,doorways,0,1,0,4.68534421921,4.3771238327,1.0,0.0,0.0,0.815880350306,0.578220765785,0.2,0.668137490749,1.8,0.0,1.0,0.0,1.0,2000000000,0,,,0
1449618737643365012,52,1449618737593200346,/odom,doorways,0,1,0,4.69571399689,4.39608383179,1.0,0.0,0.0,0.833621372621,0.55233631703,0.2,0.667563617229,1.8,0.0,1.0,0.0,1.0,2000000000,0,,,0
1449618737753772544,53,1449618737703568165,/odom,doorways,0,1,0,4.68398618698,4.38304328918,1.0,0.0,0.0,0.831169516683,0.556019095479,0.2,0.687799632549,1.8,0.0,1.0,0.0,1.0,2000000000,0,,,0
1449618737851635056,54,1449618737800784968,/odom,doorways,0,1,0,4.6858549118,4.38148450851,1.0,0.0,0.0,0.8308235869,0.55653586358,0.2,0.657898426056,1.8,0.0,1.0,0.0,1.0,2000000000,0,,,0
1449618737949997906,55,1449618737893847915,/odom,doorways,0,1,0,4.6886177063,4.38180065155,1.0,0.0,0.0,0.820456110391,0.571709516208,0.2,0.658694684505,1.8,0.0,1.0,0.0,1.0,2000000000,0,,,0
1449618738059450254,56,1449618738008687614,/odom,doorways,0,1,0,4.675968647,4.38698005676,1.0,0.0,0.0,0.823834021336,0.566831108258,0.2,0.648063898087,1.8,0.0,1.0,0.0,1.0,2000000000,0,,,0
1449618738187861138,57,1449618738137668621,/odom,doorways,0,1,0,4.67000722885,4.41140174866,1.0,0.0,0.0,0.831691493669,0.555238020455,0.2,0.688976168633,1.8,0.0,1.0,0.0,1.0,2000000000,0,,,0
1449618738274917694,58,1449618738224031325,/odom,doorways,0,1,0,4.66441679001,4.38529872894,1.0,0.0,0.0,0.83062455085,0.55683287935,0.2,0.658215403557,1.8,0.0,1.0,0.0,1.0,2000000000,0,,,0
1449618738320245928,59,1449618738270089956,/odom,doorways,0,1,0,4.65676450729,4.37806224823,1.0,0.0,0.0,0.824241612123,0.56623825802,0.2,0.67841821909,1.8,0.0,1.0,0.0,1.0,2000000000,0,,,0
1449618738467468524,60,1449618738415329099,/odom,doorways,0,1,0,4.68009614944,4.38145589828,1.0,0.0,0.0,0.832095204291,0.554632825386,0.2,0.687682330608,1.8,0.0,1.0,0.0,1.0,2000000000,0,,,0
1449618738595004062,61,1449618738534665833,/odom,doorways,0,1,0,4.67329597473,4.44262504578,1.0,0.0,0.0,0.827526275879,0.561426987889,0.2,0.667574286461,1.8,0.0,1.0,0.0,1.0,2000000000,0,,,0
1449618738674951272,62,1449618738623485838,/odom,doorways,0,1,0,4.66738128662,4.4165391922,1.0,0.0,0.0,0.833746343967,0.552147655905,0.2,0.707443475723,1.8,0.0,1.0,0.0,1.0,2000000000,0,,,0
1449618738750830149,63,1449618738700518546,/odom,doorways,0,1,0,4.69864845276,4.40980243683,1.0,0.0,0.0,0.832474437345,0.554063454098,0.2,0.69804751873,1.8,0.0,1.0,0.0,1.0,2000000000,0,,,0
1449618738881825708,64,1449618738829474479,/odom,doorways,0,1,0,4.64104032516,4.41208028793,1.0,0.0,0.0,0.836652602475,0.547733897774,0.2,0.687525033951,1.8,0.0,1.0,0.0,1.0,2000000000,0,,,0
1449618739013623481,65,1449618738955297725,/odom,doorways,0,1,0,4.67766714096,4.41979932785,1.0,0.0,0.0,0.834438157714,0.551101588594,0.2,0.697970032692,1.8,0.0,1.0,0.0,1.0,2000000000,0,,,0
1449618739127810546,66,1449618739073042711,/odom,doorways,0,1,0,4.69273853302,4.41485309601,1.0,0.0,0.0,0.831155082414,0.556040672054,0.2,0.687713682652,1.8,0.0,1.0,0.0,1.0,2000000000,0,,,0
1449618739295366763,67,1449618739244600419,/odom,doorways,0,1,0,4.67918872833,4.41183567047,1.0,0.0,0.0,0.834962022658,0.550307569201,0.2,0.728097140789,1.8,0.0,1.0,0.0,1.0,2000000000,0,,,0
1449618739329763767,68,1449618739276903897,/odom,doorways,1,1,0,5.44870567322,4.75869989395,1.0,0.0,0.0,0.769016409227,0.639229037466,0.2,0.688016831875,1.8,0.0,1.0,0.0,1.0,2000000000,0,,,0
1449618739427373394,69,1449618739372928021,/odom,doorways,0,1,0,4.68729925156,4.42088699341,1.0,0.0,0.0,0.837057420625,0.54711504693,0.2,0.678424060345,1.8,0.0,1.0,0.0,1.0,2000000000,0,,,0
1449618739453855402,70,1449618739400984856,/odom,doorways,1,1,0,5.46211910248,4.76337003708,1.0,0.0,0.0,0.772537049126,0.634969690401,0.2,0.73896998167,1.8,0.0,1.0,0.0,1.0,2000000000,0,,,0
1449618739525418439,71,1449618739471517804,/odom,doorways,0,1,0,4.69884872437,4.41955947876,1.0,0.0,0.0,0.837432501362,0.546540763039,0.2,0.688132703304,1.8,0.0,1.0,0.0,1.0,2000000000,0,,,0
1449618739552949874,72,1449618739500269684,/odom,doorways,1,1,0,5.4837179184,4.75801181793,1.0,0.0,0.0,0.770467220398,0.637479617159,0.2,0.698449730873,1.8,0.0,1.0,0.0,1.0,2000000000,0,,,0
1449618739653806028,73,1449618739597925646,/odom,doorways,0,1,0,4.71866130829,4.42475795746,1.0,0.0,0.0,0.835694577528,0.549194476566,0.2,0.718798279762,1.8,0.0,1.0,0.0,1.0,2000000000,0,,,0
1449618739711972112,74,1449618739660806417,/odom,doorways,1,1,0,5.49085617065,4.76998615265,1.0,0.0,0.0,0.769832006886,0.638246567694,0.2,0.689350306988,1.8,0.0,1.0,0.0,1.0,2000000000,0,,,0
1449618739821044777,75,1449618739769772334,/odom,doorways,0,1,0,4.74087095261,4.40934848785,1.0,0.0,0.0,0.830195895975,0.557471769964,0.2,0.718305289745,1.8,0.0,1.0,0.0,1.0,2000000000,0,,,0
1449618739888106672,76,1449618739837802147,/odom,doorways,0,1,0,4.69269561768,4.41763114929,1.0,0.0,0.0,0.837127784567,0.547007378658,0.2,0.678429782391,1.8,0.0,1.0,0.0,1.0,2000000000,0,,,0
1449618739918264567,77,1449618739857023369,/odom,doorways,1,1,0,5.49530410767,4.76025438309,1.0,0.0,0.0,0.769948411558,0.638106138146,0.2,0.718672811985,1.8,0.0,1.0,0.0,1.0,2000000000,0,,,0
1449618740026519089,78,1449618739967386585,/odom,doorways,0,1,0,4.72770643234,4.41741704941,1.0,0.0,0.0,0.833001630686,0.553270533532,0.2,0.678293585777,1.8,0.0,1.0,0.0,1.0,2000000000,0,,,0
1449618740045767502,79,1449618739995372884,/odom,doorways,1,1,0,6.4424571991,5.13881826401,1.0,0.0,0.0,0.833001630686,0.553270533532,0.2,0.688268482685,1.8,0.0,1.0,0.0,1.0,2000000000,0,,,0
1449618740068952152,80,1449618740017540260,/odom,doorways,2,1,0,5.5492978096,4.80209922791,1.0,0.0,0.0,0.778193046837,0.628025144285,0.2,0.659175634384,1.8,0.0,1.0,0.0,1.0,2000000000,0,,,0
1449618740134355525,81,1449618740084154725,/odom,doorways,0,1,0,4.70422697067,4.40966415405,1.0,0.0,0.0,0.833566113465,0.55241970863,0.2,0.658637821674,1.8,0.0,1.0,0.0,1.0,2000000000,0,,,0
1449618740162391963,82,1449618740111558170,/odom,doorways,1,1,0,5.51681232452,4.77241420746,1.0,0.0,0.0,0.773098822207,0.63428559112,0.2,0.72945278883,1.8,0.0,1.0,0.0,1.0,2000000000,0,,,0
1449618740272582567,83,1449618740222163972,/odom,doorways,0,1,0,4.71890640259,4.42087125778,1.0,0.0,0.0,0.83571603217,0.54916182822,0.2,0.678252100945,1.8,0.0,1.0,0.0,1.0,2000000000,0,,,0
1449618740311623593,84,1449618740260359783,/odom,doorways,1,1,0,5.50684833527,4.79286670685,1.0,0.0,0.0,0.774336984033,0.632773446945,0.2,0.757919967175,1.8,0.0,1.0,0.0,1.0,2000000000,0,,,0
1449618740358120305,85,1449618740307613440,/odom,doorways,0,1,0,4.70248222351,4.39232969284,1.0,0.0,0.0,0.824230858007,0.56625391187,0.2,0.677852511406,1.8,0.0,1.0,0.0,1.0,2000000000,0,,,0
1449618740432084256,86,1449618740381811811,/odom,doorways,0,1,0,4.72055482864,4.40537500381,1.0,0.0,0.0,0.827264983722,0.561811931795,0.2,0.67815977335,1.8,0.0,1.0,0.0,1.0,2000000000,0,,,0
1449618740528174736,87,1449618740477319666,/odom,doorways,0,1,0,4.70871543884,4.42542076111,1.0,0.0,0.0,0.838321502769,0.545176171522,0.2,0.697832763195,1.8,0.0,1.0,0.0,1.0,2000000000,0,,,0
1449618740588751274,88,1449618740536636500,/odom,doorways,0,1,0,4.72741603851,4.41176652908,1.0,0.0,0.0,0.828455110065,0.560055471009,0.2,0.708403229713,1.8,0.0,1.0,0.0,1.0,2000000000,0,,,0
1449618740686613517,89,1449618740636408801,/odom,doorways,0,1,0,4.70468902588,4.41123008728,1.0,0.0,0.0,0.831675780476,0.555261556539,0.2,0.688211858273,1.8,0.0,1.0,0.0,1.0,2000000000,0,,,0
1449618740768415564,90,1449618740718135406,/odom,doorways,0,1,0,4.72322750092,4.42970085144,1.0,0.0,0.0,0.837337697497,0.546685997946,0.2,0.687776207924,1.8,0.0,1.0,0.0,1.0,2000000000,0,,,0
1449618740787114355,91,1449618740736095080,/odom,doorways,1,1,0,5.50951337814,4.74549484253,1.0,0.0,0.0,0.772136083035,0.635457212781,0.2,0.737492024899,1.8,0.0,1.0,0.0,1.0,2000000000,0,,,0
1449618740852241584,92,1449618740800684899,/odom,doorways,0,1,0,4.72935724258,4.40367507935,1.0,0.0,0.0,0.828169279604,0.560478049812,0.2,0.717902004719,1.8,0.0,1.0,0.0,1.0,2000000000,0,,,0
1449618741058399143,93,1449618741003879938,/odom,doorways,0,1,0,4.70740127563,4.4021987915,1.0,0.0,0.0,0.832125747726,0.554586999461,0.2,0.678379356861,1.8,0.0,1.0,0.0,1.0,2000000000,0,,,0
1449618741064044817,94,1449618741013661709,/odom,doorways,1,1,0,5.46243476868,4.71703720093,1.0,0.0,0.0,0.832125747726,0.554586999461,0.2,0.698331713676,1.8,0.0,1.0,0.0,1.0,2000000000,0,,,0
1449618741317483360,95,1449618741265883455,/odom,doorways,0,1,0,4.7179017067,4.42238283157,1.0,0.0,0.0,0.835186487618,0.549966845273,0.2,0.658304870129,1.8,0.0,1.0,0.0,1.0,2000000000,0,,,0
1449618741345148323,96,1449618741293226249,/odom,doorways,1,1,0,5.51242733002,4.80473613739,1.0,0.0,0.0,0.77358555614,0.633691870968,0.2,0.738808631897,1.8,0.0,1.0,0.0,1.0,2000000000,0,,,0
1449618741376843578,97,1449618741326414195,/odom,doorways,0,1,0,4.73407745361,4.43376016617,1.0,0.0,0.0,0.836004958193,0.548721887551,0.2,0.758392035961,1.8,0.0,1.0,0.0,1.0,2000000000,0,,,0
1449618741399859973,98,1449618741349307173,/odom,doorways,1,1,0,5.51792240143,4.79459810257,1.0,0.0,0.0,0.771558394593,0.636158505196,0.2,0.707998096943,1.8,0.0,1.0,0.0,1.0,2000000000,0,,,0
1449618741554937539,99,1449618741504801250,/odom,doorways,0,1,0,4.75147199631,4.41445446014,1.0,0.0,0.0,0.826231060691,0.563331371707,0.2,0.748999297619,1.8,0.0,1.0,0.0,1.0,2000000000,0,,,0
1449618741664221514,100,1449618741613955763,/odom,doorways,0,1,0,4.75110244751,4.42622613907,1.0,0.0,0.0,0.83230187546,0.554322638998,0.2,0.738852798939,1.8,0.0,1.0,0.0,1.0,2000000000,0,,,0
1449618741708720110,101,1449618741656675586,/odom,doorways,1,1,0,5.53097629547,4.78339576721,1.0,0.0,0.0,0.770702751466,0.637194843736,0.2,0.719101071358,1.8,0.0,1.0,0.0,1.0,2000000000,0,,,0
1449618741820315557,102,1449618741768673044,/odom,doorways,0,1,0,4.73909378052,4.42206001282,1.0,0.0,0.0,0.82973775483,0.558153436082,0.2,0.728357672691,1.8,0.0,1.0,0.0,1.0,2000000000,0,,,0
1449618741844019437,103,1449618741791135489,/odom,doorways,1,1,0,5.52024269104,4.77149105072,1.0,0.0,0.0,0.767894143285,0.64057675942,0.2,0.698385775089,1.8,0.0,1.0,0.0,1.0,2000000000,0,,,0
1449618741944641101,104,1449618741893044832,/odom,doorways,0,1,0,4.72129249573,4.43136930466,1.0,0.0,0.0,0.83571050695,0.549170236423,0.2,0.688507199287,1.8,0.0,1.0,0.0,1.0,2000000000,0,,,0
1449618741975997908,105,1449618741925448718,/odom,doorways,1,1,0,5.49616003036,4.77637290955,1.0,0.0,0.0,0.771599433217,0.636108728645,0.2,0.707705438137,1.8,0.0,1.0,0.0,1.0,2000000000,0,,,0
1449618742183804501,106,1449618742132652521,/odom,doorways,0,1,0,4.75748634338,4.42569160461,1.0,0.0,0.0,0.832125700876,0.554587069757,0.2,0.708747982979,1.8,0.0,1.0,0.0,1.0,2000000000,0,,,0
1449618742226536583,107,1449618742175657836,/odom,doorways,1,1,0,5.54518318176,4.77497577667,1.0,0.0,0.0,0.767932308231,0.640531006256,0.2,0.72900468111,1.8,0.0,1.0,0.0,1.0,2000000000,0,,,0
1449618742387610623,108,1449618742329608607,/odom,doorways,0,1,0,4.74914503098,4.42436742783,1.0,0.0,0.0,0.83025585847,0.557382462476,0.2,0.698954761028,1.8,0.0,1.0,0.0,1.0,2000000000,0,,,0
1449618742409736131,109,1449618742358535029,/odom,doorways,1,1,0,5.54078388214,4.77880907059,1.0,0.0,0.0,0.769120849489,0.639103371045,0.2,0.718358397484,1.8,0.0,1.0,0.0,1.0,2000000000,0,,,0
1449618742502693039,110,1449618742452203032,/odom,doorways,0,1,0,4.72137880325,4.4286866188,1.0,0.0,0.0,0.833924218316,0.551878970523,0.2,0.718163192272,1.8,0.0,1.0,0.0,1.0,2000000000,0,,,0
1449618742547044997,111,1449618742496885904,/odom,doorways,1,1,0,5.51246070862,4.76270771027,1.0,0.0,0.0,0.766268638339,0.64252032956,0.2,0.709402799606,1.8,0.0,1.0,0.0,1.0,2000000000,0,,,0
1449618742853847502,112,1449618742797230475,/odom,doorways,0,1,0,4.72562503815,4.42743587494,1.0,0.0,0.0,0.835094946939,0.550105834906,0.2,0.658416211605,1.8,0.0,1.0,0.0,1.0,2000000000,0,,,0
1449618742869010916,113,1449618742818365615,/odom,doorways,1,1,0,5.51761817932,4.77908706665,1.0,0.0,0.0,0.769363792476,0.638810891287,0.2,0.708447337151,1.8,0.0,1.0,0.0,1.0,2000000000,0,,,0
1449618742975249739,114,1449618742922968520,/odom,doorways,0,1,0,4.72305107117,4.43089008331,1.0,0.0,0.0,0.833704495563,0.552210842051,0.2,0.688436150551,1.8,0.0,1.0,0.0,1.0,2000000000,0,,,0
1449618743005045921,115,1449618742950904169,/odom,doorways,1,1,0,5.50531244278,4.76973676682,1.0,0.0,0.0,0.767225701482,0.641377208034,0.2,0.698562800884,1.8,0.0,1.0,0.0,1.0,2000000000,0,,,0
1449618743286241336,116,1449618743236083579,/odom,doorways,0,1,0,4.72656297684,4.42332553864,1.0,0.0,0.0,0.830492853318,0.557029281625,0.2,0.708272099495,1.8,0.0,1.0,0.0,1.0,2000000000,0,,,0
1449618743298924686,117,1449618743248696605,/odom,doorways,1,1,0,5.51916980743,4.76542854309,1.0,0.0,0.0,0.765260208999,0.643721067328,0.2,0.708359718323,1.8,0.0,1.0,0.0,1.0,2000000000,0,,,0
1449618743488394059,118,1449618743436558883,/odom,doorways,0,1,0,4.74259471893,4.43438053131,1.0,0.0,0.0,0.834536738351,0.550952295887,0.2,0.667985379696,1.8,0.0,1.0,0.0,1.0,2000000000,0,,,0
1449618743673102939,119,1449618743622961840,/odom,doorways,0,1,0,4.72704982758,4.43642473221,1.0,0.0,0.0,0.834389672383,0.551174994553,0.2,0.697917640209,1.8,0.0,1.0,0.0,1.0,2000000000,0,,,0
1449618743703567550,120,1449618743652282110,/odom,doorways,1,1,0,5.51894187927,4.78280925751,1.0,0.0,0.0,0.7678407801,0.640640723351,0.2,0.698093116283,1.8,0.0,1.0,0.0,1.0,2000000000,0,,,0
1449618743914223385,121,1449618743860820342,/odom,doorways,0,1,0,4.73860120773,4.43667602539,1.0,0.0,0.0,0.833317710168,0.552794350478,0.2,0.718278348446,1.8,0.0,1.0,0.0,1.0,2000000000,0,,,0
1449618743933423993,122,1449618743882710133,/odom,doorways,1,1,0,5.52248239517,4.7613196373,1.0,0.0,0.0,0.763932893285,0.645295695442,0.2,0.708751797676,1.8,0.0,1.0,0.0,1.0,2000000000,0,,,0
1449618744056234730,123,1449618744005880122,/odom,doorways,0,1,0,4.73498725891,4.43263530731,1.0,0.0,0.0,0.832571017845,0.553918315499,0.2,0.728258788586,1.8,0.0,1.0,0.0,1.0,2000000000,0,,,0
1449618744092506256,124,1449618744041522608,/odom,doorways,1,1,0,5.52427911758,4.76503801346,1.0,0.0,0.0,0.765104779408,0.643905797867,0.2,0.698764681816,1.8,0.0,1.0,0.0,1.0,2000000000,0,,,0
1449618744319913932,125,1449618744268033851,/odom,doorways,0,1,0,4.73863887787,4.43845033646,1.0,0.0,0.0,0.833179944046,0.553001971822,0.2,0.727950274944,1.8,0.0,1.0,0.0,1.0,2000000000,0,,,0
1449618744360225974,126,1449618744309701906,/odom,doorways,1,1,0,5.5214509964,4.7544093132,1.0,0.0,0.0,0.762202758851,0.647338361601,0.2,0.699295580387,1.8,0.0,1.0,0.0,1.0,2000000000,0,,,0
1449618744514799721,127,1449618744464426891,/odom,doorways,0,1,0,4.73708343506,4.43553829193,1.0,0.0,0.0,0.83182186242,0.555042691331,0.2,0.718477070332,1.8,0.0,1.0,0.0,1.0,2000000000,0,,,0
1449618744534634830,128,1449618744481377460,/odom,doorways,1,1,0,5.52221727371,4.77035808563,1.0,0.0,0.0,0.763898115821,0.645336864471,0.2,0.678265929222,1.8,0.0,1.0,0.0,1.0,2000000000,0,,,0
1449618744676526646,129,1449618744625965370,/odom,doorways,0,1,0,4.74806118011,4.43512535095,1.0,0.0,0.0,0.83441569267,0.551135602031,0.2,0.698018312454,1.8,0.0,1.0,0.0,1.0,2000000000,0,,,0
1449618744711952657,130,1449618744661507615,/odom,doorways,1,1,0,5.53299713135,4.7664604187,1.0,0.0,0.0,0.765674130511,0.643228673075,0.2,0.707865715027,1.8,0.0,1.0,0.0,1.0,2000000000,0,,,0
1449618744920604499,131,1449618744868168345,/odom,doorways,0,1,0,4.74070596695,4.42463111877,1.0,0.0,0.0,0.828164223001,0.560485521438,0.2,0.708509504795,1.8,0.0,1.0,0.0,1.0,2000000000,0,,,0
1449618744955582520,132,1449618744903635612,/odom,doorways,1,1,0,4.68184900284,4.61029434204,1.0,0.0,0.0,0.76464586037,0.644450702707,0.2,0.659280002117,1.8,0.0,1.0,0.0,1.0,2000000000,0,,,0
1449618745088108540,133,1449618745034330331,/odom,doorways,0,1,0,4.72925376892,4.43463802338,1.0,0.0,0.0,0.836624218116,0.547777251866,0.2,0.69782179594,1.8,0.0,1.0,0.0,1.0,2000000000,0,,,0
1449618745119218996,134,1449618745061257741,/odom,doorways,1,1,0,5.5099067688,4.77821016312,1.0,0.0,0.0,0.76770787924,0.640799978272,0.2,0.688035011292,1.8,0.0,1.0,0.0,1.0,2000000000,0,,,0
1449618745285480846,135,1449618745233773128,/odom,doorways,0,1,0,4.73058414459,4.43509626389,1.0,0.0,0.0,0.833366129899,0.552721352525,0.2,0.697435796261,1.8,0.0,1.0,0.0,1.0,2000000000,0,,,0
1449618745322502741,136,1449618745271013298,/odom,doorways,1,1,0,5.51169776917,4.7686920166,1.0,0.0,0.0,0.765287226152,0.643688947776,0.2,0.708610594273,1.8,0.0,1.0,0.0,1.0,2000000000,0,,,0
1449618745553732130,137,1449618745499931331,/odom,doorways,0,1,0,4.71081924438,4.43496990204,1.0,0.0,0.0,0.83584800072,0.548960945508,0.2,0.687544941902,1.8,0.0,1.0,0.0,1.0,2000000000,0,,,0
1449618745596419083,138,1449618745532794138,/odom,doorways,1,1,0,5.4858045578,4.75220155716,1.0,0.0,0.0,0.762794108177,0.646641437375,0.2,0.708916068077,1.8,0.0,1.0,0.0,1.0,2000000000,0,,,0
1449618745684370468,139,1449618745626476103,/odom,doorways,0,1,0,4.73323774338,4.44396734238,1.0,0.0,0.0,0.834531336169,0.550960478576,0.2,0.677491247654,1.8,0.0,1.0,0.0,1.0,2000000000,0,,,0
1449618745873767098,140,1449618745823352810,/odom,doorways,0,1,0,4.72839546204,4.43898820877,1.0,0.0,0.0,0.831466242202,0.555575276698,0.2,0.689207434654,1.8,0.0,1.0,0.0,1.0,2000000000,0,,,0
1449618745968898034,141,1449618745917442012,/odom,doorways,0,1,0,4.74009609222,4.4470281601,1.0,0.0,0.0,0.835814368848,0.549012149982,0.2,0.668207287788,1.8,0.0,1.0,0.0,1.0,2000000000,0,,,0
1449618746146375151,142,1449618746096142435,/odom,doorways,0,1,0,4.7288184166,4.43315696716,1.0,0.0,0.0,0.832029872681,0.554730827489,0.2,0.727325677872,1.8,0.0,1.0,0.0,1.0,2000000000,0,,,0
1449618746282810181,143,1449618746232412908,/odom,doorways,0,1,0,4.72223901749,4.43983983994,1.0,0.0,0.0,0.836642992856,0.547748575995,0.2,0.697879135609,1.8,0.0,1.0,0.0,1.0,2000000000,0,,,0
1449618746476053420,144,1449618746424284704,/odom,doorways,0,1,0,4.72514724731,4.43429517746,1.0,0.0,0.0,0.838203771596,0.545357164877,0.2,0.708073616028,1.8,0.0,1.0,0.0,1.0,2000000000,0,,,0
1449618746666079026,145,1449618746615511765,/odom,doorways,0,1,0,4.73407745361,4.42836952209,1.0,0.0,0.0,0.833194749842,0.552979664034,0.2,0.687721073627,1.8,0.0,1.0,0.0,1.0,2000000000,0,,,0
1449618746934216981,146,1449618746879277370,/odom,doorways,0,1,0,4.7440328598,4.4505109787,1.0,0.0,0.0,0.834174925286,0.551499949251,0.2,0.657954990864,1.8,0.0,1.0,0.0,1.0,2000000000,0,,,0
1449618747082974497,147,1449618747032174012,/odom,doorways,0,1,0,4.70864009857,4.44541597366,1.0,0.0,0.0,0.839068918594,0.544025137149,0.2,0.667657792568,1.8,0.0,1.0,0.0,1.0,2000000000,0,,,0
1449618747334781194,148,1449618747275699544,/odom,doorways,0,1,0,4.72860240936,4.44190788269,1.0,0.0,0.0,0.836073686571,0.548617162166,0.2,0.707578420639,1.8,0.0,1.0,0.0,1.0,2000000000,0,,,0
1449618747548792020,149,1449618747496611161,/odom,doorways,0,1,0,4.71830368042,4.44251918793,1.0,0.0,0.0,0.838731735665,0.544544833405,0.2,0.687640011311,1.8,0.0,1.0,0.0,1.0,2000000000,0,,,0
1449618748107099853,150,1449618748055845059,/odom,doorways,0,1,0,2.80125212669,4.65036153793,1.0,0.0,0.0,0.575841854134,0.817561104155,0.2,0.896755158901,1.8,0.0,1.0,0.0,1.0,2000000000,0,,,0
1449618749654725185,151,1449618749604568675,/odom,doorways,0,1,0,2.99667930603,4.75265741348,1.0,0.0,0.0,0.404418554742,0.914574017005,0.2,0.719512581825,1.8,0.0,1.0,0.0,1.0,2000000000,0,,,0
1449618750119279339,152,1449618750068411431,/odom,doorways,0,1,0,4.72814750671,4.47476243973,1.0,0.0,0.0,0.849337393051,0.527850350729,0.2,0.727397739887,1.8,0.0,1.0,0.0,1.0,2000000000,0,,,0
1449618750561804983,153,1449618750508711439,/odom,doorways,0,1,0,4.72685861588,4.45641994476,1.0,0.0,0.0,0.846748658457,0.53199314789,0.2,0.688033401966,1.8,0.0,1.0,0.0,1.0,2000000000,0,,,0
1449618750772600448,154,1449618750721519157,/odom,doorways,0,1,0,4.74504756927,4.46316146851,1.0,0.0,0.0,0.846503188581,0.532383650878,0.2,0.737759232521,1.8,0.0,1.0,0.0,1.0,2000000000,0,,,0
1449618751072369577,155,1449618751017389212,/odom,doorways,0,1,0,4.77937030792,4.46344947815,1.0,0.0,0.0,0.839802265178,0.542892397627,0.2,0.737803339958,1.8,0.0,1.0,0.0,1.0,2000000000,0,,,0
1449618751199714479,156,1449618751149430876,/odom,doorways,0,1,0,4.77990150452,4.45826625824,1.0,0.0,0.0,0.840242439824,0.542210883623,0.2,0.757662534714,1.8,0.0,1.0,0.0,1.0,2000000000,0,,,0
1449618751542825207,157,1449618751487494005,/odom,doorways,0,1,0,5.99688053131,5.39935684204,1.0,0.0,0.0,0.187806794554,0.982205990574,0.2,0.779594600201,1.8,0.0,1.0,0.0,1.0,2000000000,0,,,0
1449618751565829172,158,1449618751510095630,/odom,doorways,1,1,0,4.79529666901,4.45863819122,1.0,0.0,0.0,0.837773720716,0.546017575613,0.2,0.758400082588,1.8,0.0,1.0,0.0,1.0,2000000000,0,,,0
1449618751761656638,159,1449618751708633908,/odom,doorways,0,1,0,5.99639844894,5.38693523407,1.0,0.0,0.0,0.182380633351,0.983228002336,0.2,0.789863526821,1.8,0.0,1.0,0.0,1.0,2000000000,0,,,0
1449618752165270851,160,1449618752114495507,/odom,doorways,0,1,0,6.07502985001,5.40162801743,1.0,0.0,0.0,0.19656591541,0.980490612346,0.2,0.789635896683,1.8,0.0,1.0,0.0,1.0,2000000000,0,,,0
1449618752438630528,161,1449618752388478029,/odom,doorways,0,1,0,6.05026197433,5.39225578308,1.0,0.0,0.0,0.194824097031,0.980838198286,0.2,0.759626984596,1.8,0.0,1.0,0.0,1.0,2000000000,0,,,0
1449618753248965836,162,1449618753198653360,/odom,doorways,0,1,0,6.06246376038,5.37689781189,1.0,0.0,0.0,0.190695011399,0.981649332821,0.2,0.759559214115,1.8,0.0,1.0,0.0,1.0,2000000000,0,,,0
1449618753792507060,163,1449618753739004995,/odom,doorways,0,1,0,6.05065488815,5.37112617493,1.0,0.0,0.0,0.195824592311,0.980638939185,0.2,0.719512164593,1.8,0.0,1.0,0.0,1.0,2000000000,0,,,0
1449618754058484998,164,1449618754005926275,/odom,doorways,0,1,0,6.09428119659,5.38873672485,1.0,0.0,0.0,0.21158005633,0.977360670256,0.2,0.719551563263,1.8,0.0,1.0,0.0,1.0,2000000000,0,,,0
1449618754326429562,165,1449618754269967548,/odom,doorways,0,1,0,6.09295654297,5.38687562943,1.0,0.0,0.0,0.211985301539,0.977272854392,0.2,0.699497818947,1.8,0.0,1.0,0.0,1.0,2000000000,0,,,0
1449618754730954421,166,1449618754680591044,/odom,doorways,0,1,0,6.10052347183,5.38193464279,1.0,0.0,0.0,0.215253957933,0.97655810559,0.2,0.699701309204,1.8,0.0,1.0,0.0,1.0,2000000000,0,,,0
1449618755075660433,167,1449618755023367506,/odom,doorways,0,1,0,6.08007240295,5.35975265503,1.0,0.0,0.0,0.200866336437,0.97961865789,0.2,0.67932164669,1.8,0.0,1.0,0.0,1.0,2000000000,0,,,0
1449618755447154427,168,1449618755389774465,/odom,doorways,0,1,0,6.11741399765,5.36510467529,1.0,0.0,0.0,0.219094555006,0.975703631215,0.2,0.669535160065,1.8,0.0,1.0,0.0,1.0,2000000000,0,,,0
1449618755671232593,169,1449618755620819426,/odom,doorways,0,1,0,6.14575910568,5.33987045288,1.0,0.0,0.0,0.213501416892,0.976942754201,0.2,0.65966629982,1.8,0.0,1.0,0.0,1.0,2000000000,0,,,0
1449618755895478405,170,1449618755845360000,/odom,doorways,0,1,0,6.12806844711,5.34012508392,1.0,0.0,0.0,0.210769688338,0.977535747928,0.2,0.669710814953,1.8,0.0,1.0,0.0,1.0,2000000000,0,,,0
1449618756082875161,171,1449618756032734170,/odom,doorways,0,1,0,6.1055765152,5.37512111664,1.0,0.0,0.0,0.199669808031,0.979863239315,0.2,0.749715030193,1.8,0.0,1.0,0.0,1.0,2000000000,0,,,0
1449618762134873937,172,1449618762084288068,/odom,doorways,0,1,0,4.63840389252,8.91188240051,1.0,0.0,0.0,0.258516938879,0.966006724776,0.2,0.749899923801,1.8,0.0,1.0,0.0,1.0,2000000000,0,,,0
1449618771961356257,173,1449618771907148361,/odom,doorways,0,1,0,2.52585959435,7.33522510529,1.0,0.0,0.0,-0.981746784844,0.190192666655,0.2,1.05943858624,1.8,0.0,1.0,0.0,1.0,2000000000,0,,,0
1449618773262292300,174,1449618773212131977,/odom,doorways,0,1,0,4.72405147552,4.5102148056,1.0,0.0,0.0,0.84745303579,0.530870372248,0.2,0.717876255512,1.8,0.0,1.0,0.0,1.0,2000000000,0,,,0
1449618773388800424,175,1449618773338007952,/odom,doorways,0,1,0,4.72430896759,4.51272964478,1.0,0.0,0.0,0.846823745967,0.531873615877,0.2,0.728134393692,1.8,0.0,1.0,0.0,1.0,2000000000,0,,,0
1449618773605357114,176,1449618773549470055,/odom,doorways,0,1,0,4.72291469574,4.50545501709,1.0,0.0,0.0,0.846845421456,0.531839103639,0.2,0.727931141853,1.8,0.0,1.0,0.0,1.0,2000000000,0,,,0
1449618773931831297,177,1449618773880758532,/odom,doorways,0,1,0,4.71018362045,4.50506973267,1.0,0.0,0.0,0.844688584117,0.535258064734,0.2,0.737207770348,1.8,0.0,1.0,0.0,1.0,2000000000,0,,,0
1449618774095837355,178,1449618774045598853,/odom,doorways,0,1,0,4.72255516052,4.50436592102,1.0,0.0,0.0,0.846120823023,0.532991137681,0.2,0.728600680828,1.8,0.0,1.0,0.0,1.0,2000000000,0,,,0
1449618774191468733,179,1449618774138442315,/odom,doorways,0,1,0,4.72236776352,4.49627161026,1.0,0.0,0.0,0.843785652637,0.536680326083,0.2,0.727631747723,1.8,0.0,1.0,0.0,1.0,2000000000,0,,,0
1449618774307946051,180,1449618774257364461,/odom,doorways,0,1,0,4.71583557129,4.48800802231,1.0,0.0,0.0,0.84482393661,0.535044405756,0.2,0.727688908577,1.8,0.0,1.0,0.0,1.0,2000000000,0,,,0
1449618774395040547,181,1449618774343498471,/odom,doorways,0,1,0,4.72596216202,4.4872546196,1.0,0.0,0.0,0.842951719018,0.53798921867,0.2,0.737583100796,1.8,0.0,1.0,0.0,1.0,2000000000,0,,,0
1449618774583736047,182,1449618774532232045,/odom,doorways,0,1,0,4.72457933426,4.48728942871,1.0,0.0,0.0,0.841911307146,0.539615929064,0.2,0.727889478207,1.8,0.0,1.0,0.0,1.0,2000000000,0,,,0
1449618774714568263,183,1449618774663360308,/odom,doorways,0,1,0,4.71932506561,4.48580646515,1.0,0.0,0.0,0.845106816048,0.534597483597,0.2,0.737987756729,1.8,0.0,1.0,0.0,1.0,2000000000,0,,,0
1449618774885623091,184,1449618774832478549,/odom,doorways,0,1,0,4.71575307846,4.4777007103,1.0,0.0,0.0,0.844382291653,0.535741118025,0.2,0.727622807026,1.8,0.0,1.0,0.0,1.0,2000000000,0,,,0
1449618775103520652,185,1449618775053328537,/odom,doorways,0,1,0,4.71683883667,4.46273231506,1.0,0.0,0.0,0.842586509755,0.538561021221,0.2,0.727925360203,1.8,0.0,1.0,0.0,1.0,2000000000,0,,,0
1449618775401601569,186,1449618775350762142,/odom,doorways,0,1,0,4.72451066971,4.45932865143,1.0,0.0,0.0,0.842035551563,0.539422033202,0.2,0.727660536766,1.8,0.0,1.0,0.0,1.0,2000000000,0,,,0
1449618775612505816,187,1449618775562281947,/odom,doorways,0,1,0,4.72810554504,4.46008729935,1.0,0.0,0.0,0.840411796216,0.541948348813,0.2,0.727425634861,1.8,0.0,1.0,0.0,1.0,2000000000,0,,,0
1449618775777920830,188,1449618775727737421,/odom,doorways,0,1,0,4.72763204575,4.45171785355,1.0,0.0,0.0,0.840493354094,0.541821854232,0.2,0.717483401299,1.8,0.0,1.0,0.0,1.0,2000000000,0,,,0
1449618775990660395,189,1449618775939611465,/odom,doorways,0,1,0,4.72898578644,4.44559574127,1.0,0.0,0.0,0.842048006626,0.539402590406,0.2,0.727254450321,1.8,0.0,1.0,0.0,1.0,2000000000,0,,,0
1449618776207900103,190,1449618776157799615,/odom,doorways,0,1,0,4.72938013077,4.44207954407,1.0,0.0,0.0,0.841694756512,0.539953643251,0.2,0.717691719532,1.8,0.0,1.0,0.0,1.0,2000000000,0,,,0
1449618776419512045,191,1449618776367867251,/odom,doorways,0,1,0,4.73486804962,4.44624376297,1.0,0.0,0.0,0.841148254414,0.540804598812,0.2,0.717480838299,1.8,0.0,1.0,0.0,1.0,2000000000,0,,,0
1449618776574969866,192,1449618776524682755,/odom,doorways,0,1,0,4.72828722,4.44049453735,1.0,0.0,0.0,0.842169709133,0.539212556436,0.2,0.717327773571,1.8,0.0,1.0,0.0,1.0,2000000000,0,,,0
1449618776801196038,193,1449618776750851412,/odom,doorways,0,1,0,4.73345422745,4.44473648071,1.0,0.0,0.0,0.842965484454,0.537967649603,0.2,0.707361996174,1.8,0.0,1.0,0.0,1.0,2000000000,0,,,0
1449618777232154513,194,1449618777173372631,/odom,doorways,0,1,0,4.73586845398,4.4426445961,1.0,0.0,0.0,0.842325587607,0.538969019947,0.2,0.737255871296,1.8,0.0,1.0,0.0,1.0,2000000000,0,,,0
1449618777453834658,195,1449618777401507836,/odom,doorways,0,1,0,4.75253009796,4.45420026779,1.0,0.0,0.0,0.838924780218,0.544247382295,0.2,0.737509071827,1.8,0.0,1.0,0.0,1.0,2000000000,0,,,0
1449618777713635908,196,1449618777663239383,/odom,doorways,0,1,0,4.75206136703,4.46681642532,1.0,0.0,0.0,0.839915438839,0.542717288835,0.2,0.73720651865,1.8,0.0,1.0,0.0,1.0,2000000000,0,,,0
1449618778032628953,197,1449618777982446802,/odom,doorways,0,1,0,4.74744081497,4.46244001389,1.0,0.0,0.0,0.842864576863,0.538125733514,0.2,0.727544784546,1.8,0.0,1.0,0.0,1.0,2000000000,0,,,0
1449618778256814008,198,1449618778199184155,/odom,doorways,0,1,0,4.75284767151,4.46515226364,1.0,0.0,0.0,0.842609198633,0.538525522496,0.2,0.727378427982,1.8,0.0,1.0,0.0,1.0,2000000000,0,,,0
1449618778494975867,199,1449618778443640303,/odom,doorways,0,1,0,4.7505812645,4.46660852432,1.0,0.0,0.0,0.843983581617,0.536369009136,0.2,0.737269759178,1.8,0.0,1.0,0.0,1.0,2000000000,0,,,0
1449618778729103077,200,1449618778678902992,/odom,doorways,0,1,0,4.76042985916,4.45945644379,1.0,0.0,0.0,0.851155763381,0.524913198979,0.2,0.738758742809,1.8,0.0,1.0,0.0,1.0,2000000000,0,,,0
1449618778946029419,201,1449618778891300204,/odom,doorways,0,1,0,4.74730300903,4.46477794647,1.0,0.0,0.0,0.845509368407,0.5339605865,0.2,0.70842641592,1.8,0.0,1.0,0.0,1.0,2000000000,0,,,0
1449618779225088198,202,1449618779174704691,/odom,doorways,0,1,0,4.79645729065,4.5047492981,1.0,0.0,0.0,0.835238732498,0.549887497344,0.2,0.677461743355,1.8,0.0,1.0,0.0,1.0,2000000000,0,,,0
1449618779521010524,203,1449618779467025129,/odom,doorways,0,1,0,4.76622962952,4.48410415649,1.0,0.0,0.0,0.848504601502,0.529188001782,0.2,0.738813400269,1.8,0.0,1.0,0.0,1.0,2000000000,0,,,0
1449618779894222396,204,1449618779843637529,/odom,doorways,0,1,0,4.776055336,4.50946903229,1.0,0.0,0.0,0.849060151538,0.528296184985,0.2,0.729814887047,1.8,0.0,1.0,0.0,1.0,2000000000,0,,,0
1449618780144990241,205,1449618780092320294,/odom,doorways,0,1,0,4.76718521118,4.50090646744,1.0,0.0,0.0,0.84167063609,0.539991240989,0.2,0.739887714386,1.8,0.0,1.0,0.0,1.0,2000000000,0,,,0
1449618780381959661,206,1449618780325251438,/odom,doorways,0,1,0,2.61984634399,7.33426523209,1.0,0.0,0.0,-0.984831044857,0.173516031206,0.2,0.720010697842,1.8,0.0,1.0,0.0,1.0,2000000000,0,,,0
1449618780437785954,207,1449618780348150670,/odom,doorways,1,1,0,4.76224327087,4.54094600677,1.0,0.0,0.0,0.82015091035,0.572147257489,0.2,0.697451710701,1.8,0.0,1.0,0.0,1.0,2000000000,0,,,0
1449618780589798515,208,1449618780525727205,/odom,doorways,0,1,0,4.78743267059,4.56053686142,1.0,0.0,0.0,0.817271855728,0.576252300503,0.2,0.687684953213,1.8,0.0,1.0,0.0,1.0,2000000000,0,,,0
1449618780779308014,209,1449618780728826740,/odom,doorways,0,1,0,4.79534769058,4.50737571716,1.0,0.0,0.0,0.832542092903,0.553961788884,0.2,0.71739512682,1.8,0.0,1.0,0.0,1.0,2000000000,0,,,0
1449618781046010061,210,1449618780995557322,/odom,doorways,0,1,0,4.7907538414,4.5529294014,1.0,0.0,0.0,0.812412180707,0.583083569172,0.2,0.638144791126,1.8,0.0,1.0,0.0,1.0,2000000000,0,,,0
1449618781437758195,211,1449618781385619132,/odom,doorways,0,1,0,2.63098406792,7.27456474304,1.0,0.0,0.0,-0.982588865238,0.185793223532,0.2,0.979865312576,1.8,0.0,1.0,0.0,1.0,2000000000,0,,,0
1449618783507073856,212,1449618783455227642,/odom,doorways,0,1,0,2.61015915871,7.29632377625,1.0,0.0,0.0,-0.981998224696,0.188890144512,0.2,0.899999380112,1.8,0.0,1.0,0.0,1.0,2000000000,0,,,0
1449618783686157046,213,1449618783635524858,/odom,doorways,0,1,0,2.66459083557,7.28529596329,1.0,0.0,0.0,-0.984163015431,0.177265786484,0.2,1.0098181963,1.8,0.0,1.0,0.0,1.0,2000000000,0,,,0
1449618783692979653,214,1449618783642521097,/odom,doorways,1,1,0,4.7871594429,4.57820224762,1.0,0.0,0.0,0.816334065199,0.577580032545,0.2,0.668235898018,1.8,0.0,1.0,0.0,1.0,2000000000,0,,,0
1449618783921377532,215,1449618783863611756,/odom,doorways,0,1,0,4.75080966949,4.57235431671,1.0,0.0,0.0,0.818116143355,0.575053020149,0.2,0.688198149204,1.8,0.0,1.0,0.0,1.0,2000000000,0,,,0
1449618784104272540,216,1449618784048710677,/odom,doorways,0,1,0,2.59557628632,7.26391124725,1.0,0.0,0.0,-0.982647563239,0.185482523331,0.2,0.899975955486,1.8,0.0,1.0,0.0,1.0,2000000000,0,,,0
1449618784113654528,217,1449618784062984048,/odom,doorways,1,1,0,4.76649618149,4.57681894302,1.0,0.0,0.0,0.82284733418,0.56826249624,0.2,0.698098182678,1.8,0.0,1.0,0.0,1.0,2000000000,0,,,0
1449618784287015030,218,1449618784231544998,/odom,doorways,0,1,0,2.60223317146,7.26108169556,1.0,0.0,0.0,-0.983865303624,0.178910771962,0.2,0.880001664162,1.8,0.0,1.0,0.0,1.0,2000000000,0,,,0
1449618784293808210,219,1449618784239099586,/odom,doorways,1,1,0,4.75766563416,4.55834054947,1.0,0.0,0.0,0.827688481021,0.56118782808,0.2,0.677693963051,1.8,0.0,1.0,0.0,1.0,2000000000,0,,,0
1449618784444943390,220,1449618784394725279,/odom,doorways,0,1,0,4.77869510651,4.55657720566,1.0,0.0,0.0,0.828908146352,0.559384737825,0.2,0.69758528471,1.8,0.0,1.0,0.0,1.0,2000000000,0,,,0
1449618784457679729,221,1449618784406920310,/odom,doorways,1,1,0,2.61740732193,7.34305286407,1.0,0.0,0.0,-0.985286206344,0.17091252613,0.2,0.94998472929,1.8,0.0,1.0,0.0,1.0,2000000000,0,,,0
1449618784610960665,222,1449618784559820825,/odom,doorways,0,1,0,4.76625061035,4.54962825775,1.0,0.0,0.0,0.824069385624,0.566488876923,0.2,0.68774086237,1.8,0.0,1.0,0.0,1.0,2000000000,0,,,0
1449618784823298489,223,1449618784772791280,/odom,doorways,0,1,0,4.74951601028,4.52147769928,1.0,0.0,0.0,0.834021952476,0.551731259572,0.2,0.737226366997,1.8,0.0,1.0,0.0,1.0,2000000000,0,,,0
1449618784994342128,224,1449618784937245249,/odom,doorways,0,1,0,4.75921154022,4.50885868073,1.0,0.0,0.0,0.841530877104,0.54020901777,0.2,0.727955043316,1.8,0.0,1.0,0.0,1.0,2000000000,0,,,0
1449618785124778509,225,1449618785074251007,/odom,doorways,0,1,0,4.75636196136,4.502825737,1.0,0.0,0.0,0.841560724526,0.540162519002,0.2,0.728030204773,1.8,0.0,1.0,0.0,1.0,2000000000,0,,,0
1449618785302137607,226,1449618785249659302,/odom,doorways,0,1,0,4.7841091156,4.52215385437,1.0,0.0,0.0,0.839481867638,0.543387701284,0.2,0.727790474892,1.8,0.0,1.0,0.0,1.0,2000000000,0,,,0
1449618785510427038,227,1449618785458569895,/odom,doorways,0,1,0,4.74339818954,4.49100255966,1.0,0.0,0.0,0.843011257923,0.537895918384,0.2,0.728343069553,1.8,0.0,1.0,0.0,1.0,2000000000,0,,,0
1449618785607925390,228,1449618785552475558,/odom,doorways,0,1,0,4.74294948578,4.48668336868,1.0,0.0,0.0,0.843355065416,0.537356709865,0.2,0.73821491003,1.8,0.0,1.0,0.0,1.0,2000000000,0,,,0
1449618785808715120,229,1449618785755229615,/odom,doorways,0,1,0,4.74405193329,4.48535346985,1.0,0.0,0.0,0.843224759356,0.537561164157,0.2,0.728420138359,1.8,0.0,1.0,0.0,1.0,2000000000,0,,,0
1449618785910083788,230,1449618785859740096,/odom,doorways,0,1,0,4.74535179138,4.49032306671,1.0,0.0,0.0,0.841483488498,0.540282832029,0.2,0.728317677975,1.8,0.0,1.0,0.0,1.0,2000000000,0,,,0
1449618786111868549,231,1449618786061666927,/odom,doorways,0,1,0,4.75366020203,4.4914560318,1.0,0.0,0.0,0.843245646324,0.537528399208,0.2,0.72821611166,1.8,0.0,1.0,0.0,1.0,2000000000,0,,,0
1449618786323344464,232,1449618786272210914,/odom,doorways,0,1,0,4.76845216751,4.49193572998,1.0,0.0,0.0,0.840181763824,0.542304899239,0.2,0.728368759155,1.8,0.0,1.0,0.0,1.0,2000000000,0,,,0
1449618786512767659,233,1449618786459148977,/odom,doorways,0,1,0,4.73929691315,4.46874189377,1.0,0.0,0.0,0.840792524978,0.541357488118,0.2,0.72853988409,1.8,0.0,1.0,0.0,1.0,2000000000,0,,,0
1449618786738248333,234,1449618786687383103,/odom,doorways,0,1,0,4.72196006775,4.46054315567,1.0,0.0,0.0,0.841669270019,0.539993370242,0.2,0.728394091129,1.8,0.0,1.0,0.0,1.0,2000000000,0,,,0
1449618786944427661,235,1449618786882367903,/odom,doorways,0,1,0,4.72475004196,4.4571595192,1.0,0.0,0.0,0.840377931637,0.542000859794,0.2,0.718324840069,1.8,0.0,1.0,0.0,1.0,2000000000,0,,,0
1449618787203912630,236,1449618787153074830,/odom,doorways,0,1,0,4.73155212402,4.4634141922,1.0,0.0,0.0,0.838678652648,0.544626585463,0.2,0.718189179897,1.8,0.0,1.0,0.0,1.0,2000000000,0,,,0
1449618787640176355,237,1449618787583204617,/odom,doorways,0,1,0,4.71746873856,4.45850086212,1.0,0.0,0.0,0.838875574392,0.544323222624,0.2,0.718119978905,1.8,0.0,1.0,0.0,1.0,2000000000,0,,,0
1449618787812746652,238,1449618787762381048,/odom,doorways,0,1,0,4.73669910431,4.45702457428,1.0,0.0,0.0,0.836662425222,0.547718893432,0.2,0.737549781799,1.8,0.0,1.0,0.0,1.0,2000000000,0,,,0
1449618788014984600,239,1449618787964573764,/odom,doorways,0,1,0,4.72457265854,4.44438457489,1.0,0.0,0.0,0.838406239733,0.545045848693,0.2,0.707973539829,1.8,0.0,1.0,0.0,1.0,2000000000,0,,,0
1449618788217742997,240,1449618788165620255,/odom,doorways,0,1,0,4.74131679535,4.43673992157,1.0,0.0,0.0,0.834297830667,0.551314002856,0.2,0.727687120438,1.8,0.0,1.0,0.0,1.0,2000000000,0,,,0
1449618788445584097,241,1449618788393882641,/odom,doorways,0,1,0,4.73092937469,4.43919372559,1.0,0.0,0.0,0.837885799593,0.545845570505,0.2,0.717901468277,1.8,0.0,1.0,0.0,1.0,2000000000,0,,,0
1449618788610411948,242,1449618788559917568,/odom,doorways,0,1,0,4.74755716324,4.43286991119,1.0,0.0,0.0,0.835440123973,0.549581476449,0.2,0.718174397945,1.8,0.0,1.0,0.0,1.0,2000000000,0,,,0
1449618788818010728,243,1449618788767236360,/odom,doorways,0,1,0,4.73037433624,4.41839313507,1.0,0.0,0.0,0.837908012614,0.545811471479,0.2,0.717514395714,1.8,0.0,1.0,0.0,1.0,2000000000,0,,,0
1449618789019899585,244,1449618788961244989,/odom,doorways,0,1,0,4.75697040558,4.42258214951,1.0,0.0,0.0,0.833567982445,0.552416888448,0.2,0.71859061718,1.8,0.0,1.0,0.0,1.0,2000000000,0,,,0
1449618789229297070,245,1449618789178779301,/odom,doorways,0,1,0,4.73385190964,4.43476486206,1.0,0.0,0.0,0.838740458314,0.544531398165,0.2,0.719088673592,1.8,0.0,1.0,0.0,1.0,2000000000,0,,,0
1449618789423580982,246,1449618789370059426,/odom,doorways,0,1,0,4.74325704575,4.41964197159,1.0,0.0,0.0,0.834188862075,0.551478868489,0.2,0.697918653488,1.8,0.0,1.0,0.0,1.0,2000000000,0,,,0
1449618789620017384,247,1449618789566722166,/odom,doorways,0,1,0,4.75714015961,4.43720626831,1.0,0.0,0.0,0.840076939281,0.542467267297,0.2,0.697654664516,1.8,0.0,1.0,0.0,1.0,2000000000,0,,,0
1449618789825202652,248,1449618789773928797,/odom,doorways,0,1,0,4.75752592087,4.44838666916,1.0,0.0,0.0,0.835328352807,0.549751346516,0.2,0.717637360096,1.8,0.0,1.0,0.0,1.0,2000000000,0,,,0
1449618790029697188,249,1449618789971316061,/odom,doorways,0,1,0,4.79262018204,4.44463729858,1.0,0.0,0.0,0.835722550793,0.549151908033,0.2,0.748391568661,1.8,0.0,1.0,0.0,1.0,2000000000,0,,,0
1449618790224345864,250,1449618790174004977,/odom,doorways,0,1,0,4.76764059067,4.42179918289,1.0,0.0,0.0,0.832128818159,0.554582392427,0.2,0.718175768852,1.8,0.0,1.0,0.0,1.0,2000000000,0,,,0
1449618790505146297,251,1449618790451414050,/odom,doorways,0,1,0,4.75315999985,4.44089221954,1.0,0.0,0.0,0.839656566779,0.543117712716,0.2,0.72742831707,1.8,0.0,1.0,0.0,1.0,2000000000,0,,,0
1449618790718177913,252,1449618790657777925,/odom,doorways,0,1,0,4.74142932892,4.40999412537,1.0,0.0,0.0,0.849264433834,0.527967727636,0.2,0.717680096626,1.8,0.0,1.0,0.0,1.0,2000000000,0,,,0
1449618790907527730,253,1449618790857390585,/odom,doorways,0,1,0,4.76004695892,4.48482561111,1.0,0.0,0.0,0.83140970777,0.555659876027,0.2,0.647789776325,1.8,0.0,1.0,0.0,1.0,2000000000,0,,,0
1449618791093181639,254,1449618791043006733,/odom,doorways,0,1,0,4.73529005051,4.55428504944,1.0,0.0,0.0,0.807060809815,0.590468330446,0.2,0.66799890995,1.8,0.0,1.0,0.0,1.0,2000000000,0,,,0
1449618791328015866,255,1449618791273796719,/odom,doorways,0,1,0,4.78579521179,4.47985935211,1.0,0.0,0.0,0.826116341034,0.563499592791,0.2,0.678287744522,1.8,0.0,1.0,0.0,1.0,2000000000,0,,,0
1449618791530782981,256,1449618791478557606,/odom,doorways,0,1,0,4.79071521759,4.42537975311,1.0,0.0,0.0,0.843893509388,0.536510712674,0.2,0.72749966383,1.8,0.0,1.0,0.0,1.0,2000000000,0,,,0
1449618791555193988,257,1449618791502922014,/odom,doorways,1,1,0,4.77682352066,4.51010894775,1.0,0.0,0.0,0.801756427891,0.597650926826,0.2,0.679429352283,1.8,0.0,1.0,0.0,1.0,2000000000,0,,,0
1449618791564476224,258,1449618791513827694,/odom,doorways,2,1,0,5.60030508041,4.75554180145,1.0,0.0,0.0,0.801756427891,0.597650926826,0.2,0.759362220764,1.8,0.0,1.0,0.0,1.0,2000000000,0,,,0
1449618791707847764,259,1449618791654200652,/odom,doorways,0,1,0,4.76836633682,4.52452039719,1.0,0.0,0.0,0.803164546421,0.595757258766,0.2,0.658935427666,1.8,0.0,1.0,0.0,1.0,2000000000,0,,,0
1449618791924816586,260,1449618791848110554,/odom,doorways,0,1,0,4.78538036346,4.49762630463,1.0,0.0,0.0,0.817038001881,0.576583821731,0.2,0.667559087276,1.8,0.0,1.0,0.0,1.0,2000000000,0,,,0
1449618792103322494,261,1449618792052645219,/odom,doorways,0,1,0,4.78378486633,4.51155996323,1.0,0.0,0.0,0.807761097493,0.589509973942,0.2,0.668806672096,1.8,0.0,1.0,0.0,1.0,2000000000,0,,,0
1449618792299744305,262,1449618792249571869,/odom,doorways,0,1,0,4.77932739258,4.56882476807,1.0,0.0,0.0,0.801282673384,0.598285949471,0.2,0.658873081207,1.8,0.0,1.0,0.0,1.0,2000000000,0,,,0
1449618792444931146,263,1449618792392742747,/odom,doorways,0,1,0,4.79623270035,4.531042099,1.0,0.0,0.0,0.808480546677,0.588522901547,0.2,0.659573733807,1.8,0.0,1.0,0.0,1.0,2000000000,0,,,0
1449618793358123041,264,1449618793305810171,/odom,doorways,0,1,0,4.78752803802,4.53528261185,1.0,0.0,0.0,0.812809735679,0.582529255562,0.2,0.677623033524,1.8,0.0,1.0,0.0,1.0,2000000000,0,,,0
1449618793776565579,265,1449618793726403457,/odom,doorways,0,1,0,4.77838993073,4.52611207962,1.0,0.0,0.0,0.824092774391,0.566454851861,0.2,0.657961070538,1.8,0.0,1.0,0.0,1.0,2000000000,0,,,0
1449618794025846849,266,1449618793973825179,/odom,doorways,0,1,0,4.75203037262,4.57161140442,1.0,0.0,0.0,0.799496408616,0.600670868788,0.2,0.668021440506,1.8,0.0,1.0,0.0,1.0,2000000000,0,,,0
1449618794337418625,267,1449618794285320769,/odom,doorways,0,1,0,4.77090406418,4.56252574921,1.0,0.0,0.0,0.809366568069,0.587303804255,0.2,0.687529802322,1.8,0.0,1.0,0.0,1.0,2000000000,0,,,0
1449618794658020927,268,1449618794604206482,/odom,doorways,0,1,0,4.78008747101,4.59348344803,1.0,0.0,0.0,0.804374108369,0.594123130156,0.2,0.677643477917,1.8,0.0,1.0,0.0,1.0,2000000000,0,,,0
1449618794980849234,269,1449618794930076786,/odom,doorways,0,1,0,4.77076721191,4.57288265228,1.0,0.0,0.0,0.800259683088,0.599653599692,0.2,0.668583035469,1.8,0.0,1.0,0.0,1.0,2000000000,0,,,0
1449618795297029041,270,1449618795246767706,/odom,doorways,0,1,0,4.82979249954,4.49868917465,1.0,0.0,0.0,0.83484282087,0.5504883872,0.2,0.657986164093,1.8,0.0,1.0,0.0,1.0,2000000000,0,,,0
1449618795339784923,271,1449618795274184450,/odom,doorways,1,1,0,2.77961707115,7.13253545761,1.0,0.0,0.0,-0.985428945448,0.170087605289,0.2,0.659996092319,1.8,0.0,1.0,0.0,1.0,2000000000,0,,,0
1449618795631799099,272,1449618795578276202,/odom,doorways,0,1,0,4.78859519958,4.53654146194,1.0,0.0,0.0,0.817981099045,0.575245096985,0.2,0.688221752644,1.8,0.0,1.0,0.0,1.0,2000000000,0,,,0
1449618795892416944,273,1449618795842215792,/odom,doorways,0,1,0,4.80773067474,4.53506040573,1.0,0.0,0.0,0.819599545,0.57293680789,0.2,0.677598416805,1.8,0.0,1.0,0.0,1.0,2000000000,0,,,0
1449618796212541967,274,1449618796161712586,/odom,doorways,0,1,0,4.78403186798,4.48961544037,1.0,0.0,0.0,0.844349532125,0.535792746872,0.2,0.708507835865,1.8,0.0,1.0,0.0,1.0,2000000000,0,,,0
1449618796446910600,275,1449618796392180613,/odom,doorways,0,1,0,4.78248548508,4.48601770401,1.0,0.0,0.0,0.840690704867,0.541515594189,0.2,0.727459609509,1.8,0.0,1.0,0.0,1.0,2000000000,0,,,0
1449618796700615319,276,1449618796650250218,/odom,doorways,0,1,0,4.79304075241,4.49767303467,1.0,0.0,0.0,0.842469691722,0.538743741059,0.2,0.727280914783,1.8,0.0,1.0,0.0,1.0,2000000000,0,,,0
1449618797093833282,277,1449618797040630844,/odom,doorways,0,1,0,4.76836013794,4.4820766449,1.0,0.0,0.0,0.845084317823,0.534633047771,0.2,0.728062927723,1.8,0.0,1.0,0.0,1.0,2000000000,0,,,0
1449618801602817544,278,1449618801551920625,/odom,doorways,0,1,0,3.45251536369,5.52302074432,1.0,0.0,0.0,-0.934940362394,0.354804902398,0.2,0.989971160889,1.8,0.0,1.0,0.0,1.0,2000000000,0,,,0
1449618805554670046,279,1449618805504457899,/odom,doorways,0,1,0,4.70206785202,4.5078792572,1.0,0.0,0.0,0.854509472236,0.519435811106,0.2,0.799443244934,1.8,0.0,1.0,0.0,1.0,2000000000,0,,,0
1449618805753994764,280,1449618805696749073,/odom,doorways,0,1,0,4.70758914948,4.51530122757,1.0,0.0,0.0,0.846423190558,0.532510828515,0.2,0.789667129517,1.8,0.0,1.0,0.0,1.0,2000000000,0,,,0
1449618810541863468,281,1449618810491480285,/odom,doorways,0,1,0,1.55980551243,3.09102058411,1.0,0.0,0.0,-0.983353120882,0.181704814607,0.2,0.848255395889,1.8,0.0,1.0,0.0,1.0,2000000000,0,,,0
1449618810577728855,282,1449618810524730218,/odom,doorways,1,1,0,1.27137827873,3.07578921318,1.0,0.0,0.0,-0.983591771287,0.180408501619,0.2,0.649456620216,1.8,0.0,1.0,0.0,1.0,2000000000,0,,,0
1449618810779377847,283,1449618810729112925,/odom,doorways,0,1,0,1.95753860474,2.02339315414,1.0,0.0,0.0,-0.98397814676,0.178289109872,0.2,0.679475128651,1.8,0.0,1.0,0.0,1.0,2000000000,0,,,0
1449618811876935305,284,1449618811826577068,/odom,doorways,0,1,0,2.18426179886,0.696206212044,1.0,0.0,0.0,-0.974335630969,0.225100151541,0.2,0.669448077679,1.8,0.0,1.0,0.0,1.0,2000000000,0,,,0
1449618811888713794,285,1449618811838500436,/odom,doorways,1,1,0,2.66418361664,-0.287014722824,1.0,0.0,0.0,-0.974335575883,0.225100389978,0.2,0.939224779606,1.8,0.0,1.0,0.0,1.0,2000000000,0,,,0
1449618812123917506,286,1449618812071924464,/odom,doorways,0,1,0,2.52250337601,-0.0187915563583,1.0,0.0,0.0,-0.983205356029,0.182502679093,0.2,1.01916527748,1.8,0.0,1.0,0.0,1.0,2000000000,0,,,0
1449618813139894850,287,1449618813089532268,/odom,doorways,0,1,0,2.0937204361,1.10554504395,1.0,0.0,0.0,-0.979729087127,0.200327022234,0.2,0.809010744095,1.8,0.0,1.0,0.0,1.0,2000000000,0,,,0
1449618813965924225,288,1449618813915274568,/odom,doorways,0,1,0,1.94235408306,1.4930267334,1.0,0.0,0.0,-0.984535894665,0.175182967541,0.2,0.946509361267,1.8,0.0,1.0,0.0,1.0,2000000000,0,,,0
1449618814026810882,289,1449618813976408225,/odom,doorways,1,1,0,2.58704376221,0.053381383419,1.0,0.0,0.0,-0.984502765121,0.175369055053,0.2,0.808152019978,1.8,0.0,1.0,0.0,1.0,2000000000,0,,,0
1449618814661662191,290,1449618814601510959,/odom,doorways,0,1,0,2.65575766563,-0.0647473931313,1.0,0.0,0.0,-0.983294790429,0.182020205242,0.2,0.637915968895,1.8,0.0,1.0,0.0,1.0,2000000000,0,,,0
1449618814764464519,291,1449618814714185077,/odom,doorways,0,1,0,1.91578602791,1.50743579865,1.0,0.0,0.0,-0.983040415962,0.183389041617,0.2,0.947078227997,1.8,0.0,1.0,0.0,1.0,2000000000,0,,,0
1449618815112751813,292,1449618815062357572,/odom,doorways,0,1,0,1.32502996922,2.9377553463,1.0,0.0,0.0,-0.981966659628,0.189054170486,0.2,1.07809126377,1.8,0.0,1.0,0.0,1.0,2000000000,0,,,0
1449618815130807452,293,1449618815078491280,/odom,doorways,1,1,0,1.91248559952,1.4686498642,1.0,0.0,0.0,-0.981966830805,0.189053281377,0.2,0.928367674351,1.8,0.0,1.0,0.0,1.0,2000000000,0,,,0
1449618815872996415,294,1449618815822251789,/odom,doorways,0,1,0,1.88225233555,1.56823849678,1.0,0.0,0.0,-0.983548313599,0.180645273443,0.2,1.05738794804,1.8,0.0,1.0,0.0,1.0,2000000000,0,,,0
1449618816227524554,295,1449618816177310398,/odom,doorways,0,1,0,1.88841974735,1.59455943108,1.0,0.0,0.0,-0.985482899113,0.169774720012,0.2,0.876712620258,1.8,0.0,1.0,0.0,1.0,2000000000,0,,,0
1449618816299336553,296,1449618816217615301,/odom,doorways,1,1,0,1.37629652023,2.76151061058,1.0,0.0,0.0,-0.976395174465,0.215991812998,0.2,0.967613935471,1.8,0.0,1.0,0.0,1.0,2000000000,0,,,0
1449618816299356494,297,1449618816232820255,/odom,doorways,2,1,0,2.67643070221,-0.0332852602005,1.0,0.0,0.0,-0.976393987538,0.215997178452,0.2,0.648404121399,1.8,0.0,1.0,0.0,1.0,2000000000,0,,,0
1449618816833236936,298,1449618816782486747,/odom,doorways,0,1,0,2.60930752754,0.0734221935272,1.0,0.0,0.0,-0.98300631915,0.183571720345,0.2,0.747848510742,1.8,0.0,1.0,0.0,1.0,2000000000,0,,,0
1449618817064628069,299,1449618817013765827,/odom,doorways,0,1,0,2.56743383408,0.0264589190483,1.0,0.0,0.0,-0.977323550845,0.211751450913,0.2,0.757233321667,1.8,0.0,1.0,0.0,1.0,2000000000,0,,,0
1449618817802412250,300,1449618817752163221,/odom,doorways,0,1,0,2.30622053146,-0.165859878063,1.0,0.0,0.0,0.981640655646,0.190739673859,0.2,0.849640309811,1.8,0.0,1.0,0.0,1.0,2000000000,0,,,0
1449618818008891004,301,1449618817958637816,/odom,doorways,0,1,0,2.26737451553,-0.197533220053,1.0,0.0,0.0,0.982083602566,0.188445741715,0.2,0.859404325485,1.8,0.0,1.0,0.0,1.0,2000000000,0,,,0
1449618818229419144,302,1449618818179130402,/odom,doorways,0,1,0,2.66844296455,0.0430631935596,1.0,0.0,0.0,-0.980372656972,0.197153375476,0.2,0.817126452923,1.8,0.0,1.0,0.0,1.0,2000000000,0,,,0
1449618818292667705,303,1449618818221431240,/odom,doorways,1,1,0,3.50709629059,2.69025850296,1.0,0.0,0.0,-0.996990776279,0.0775202684113,0.2,0.689967751503,1.8,0.0,1.0,0.0,1.0,2000000000,0,,,0
1449618818653761097,304,1449618818598588835,/odom,doorways,0,1,0,1.68819999695,1.82608926296,1.0,0.0,0.0,-0.992467574173,0.122507608808,0.2,0.689812302589,1.8,0.0,1.0,0.0,1.0,2000000000,0,,,0
1449618818686423715,305,1449618818636024376,/odom,doorways,1,1,0,2.2393321991,-0.192613273859,1.0,0.0,0.0,0.981563243236,0.191137645501,0.2,0.899189293385,1.8,0.0,1.0,0.0,1.0,2000000000,0,,,0
1449618818875418108,306,1449618818825011392,/odom,doorways,0,1,0,2.39691853523,-0.138613581657,1.0,0.0,0.0,0.984308792874,0.176454527489,0.2,0.739806175232,1.8,0.0,1.0,0.0,1.0,2000000000,0,,,0
1449618818905279185,307,1449618818853122129,/odom,doorways,1,1,0,2.63817214966,-0.0492467582226,1.0,0.0,0.0,-0.965261047666,0.261287408533,0.2,0.660001397133,1.8,0.0,1.0,0.0,1.0,2000000000,0,,,0
1449618819139580342,308,1449618819078471758,/odom,doorways,0,1,0,2.3011944294,-0.140766263008,1.0,0.0,0.0,0.982148218914,0.188108681575,0.2,0.879659056664,1.8,0.0,1.0,0.0,1.0,2000000000,0,,,0
1449618819411647785,309,1449618819358764905,/odom,doorways,0,1,0,2.10222172737,1.03215837479,1.0,0.0,0.0,-0.977145997361,0.212569282452,0.2,0.949559152126,1.8,0.0,1.0,0.0,1.0,2000000000,0,,,0
1449618819605411830,310,1449618819554919402,/odom,doorways,0,1,0,1.42293453217,2.97804999352,1.0,0.0,0.0,-0.979658005089,0.200674345806,0.2,1.07647335529,1.8,0.0,1.0,0.0,1.0,2000000000,0,,,0
1449618819782835242,311,1449618819732487615,/odom,doorways,0,1,0,3.6062977314,2.65625143051,1.0,0.0,0.0,0.990397043243,0.138252293777,0.2,0.638101458549,1.8,0.0,1.0,0.0,1.0,2000000000,0,,,0
