%time,field.header.seq,field.header.stamp,field.header.frame_id,field.ns,field.id,field.type,field.action,field.pose.position.x,field.pose.position.y,field.pose.position.z,field.pose.orientation.x,field.pose.orientation.y,field.pose.orientation.z,field.pose.orientation.w,field.scale.x,field.scale.y,field.scale.z,field.color.r,field.color.g,field.color.b,field.color.a,field.lifetime,field.frame_locked,field.text,field.mesh_resource,field.mesh_use_embedded_materials
1449618709106073836,0,0,/odom,ucmd_vector,0,0,0,0.0,0.0,0.0,0.0,0.0,0.0,1.0,0.00559730190992,0.05,0.05,0.0,0.0,1.0,1.0,0,0,,,0
1449618709141343599,1,0,/odom,ucmd_vector,0,0,0,0.0,0.0,0.0,0.0,0.0,0.0,1.0,0.00559730190992,0.05,0.05,0.0,0.0,1.0,1.0,0,0,,,0
1449618709205058789,2,0,/odom,ucmd_vector,0,0,0,0.0,0.0,0.0,0.0,0.0,-0.00317459802558,0.999994960951,0.128517939339,0.05,0.05,0.0,0.0,1.0,1.0,0,0,,,0
1449618709231064895,3,0,/odom,ucmd_vector,0,0,0,0.0,0.0,0.0,0.0,0.0,-0.00317459802558,0.999994960951,0.128517939339,0.05,0.05,0.0,0.0,1.0,1.0,0,0,,,0
1449618709270623363,4,0,/odom,ucmd_vector,0,0,0,0.0,0.0,0.0,0.0,0.0,-0.00634916405725,0.999979843855,0.346422698746,0.05,0.05,0.0,0.0,1.0,1.0,0,0,,,0
1449618709375561204,5,0,/odom,ucmd_vector,0,0,0,0.0,0.0,0.0,0.0,0.0,-0.00634916405725,0.999979843855,0.346422698746,0.05,0.05,0.0,0.0,1.0,1.0,0,0,,,0
1449618709392844863,6,0,/odom,ucmd_vector,0,0,0,0.0,0.0,0.0,0.0,0.0,-0.00634916405725,0.999979843855,0.346422698746,0.05,0.05,0.0,0.0,1.0,1.0,0,0,,,0
1449618709436093161,7,0,/odom,ucmd_vector,0,0,0,0.0,0.0,0.0,0.0,0.0,-0.00317459802558,0.999994960951,0.301724288712,0.05,0.05,0.0,0.0,1.0,1.0,0,0,,,0
1449618709477172248,8,0,/odom,ucmd_vector,0,0,0,0.0,0.0,0.0,0.0,0.0,-0.00317459802558,0.999994960951,0.301724288712,0.05,0.05,0.0,0.0,1.0,1.0,0,0,,,0
1449618709515850875,9,0,/odom,ucmd_vector,0,0,0,0.0,0.0,0.0,0.0,0.0,-0.00634916405725,0.999979843855,0.346422698746,0.05,0.05,0.0,0.0,1.0,1.0,0,0,,,0
1449618709549979988,10,0,/odom,ucmd_vector,0,0,0,0.0,0.0,0.0,0.0,0.0,-0.00634916405725,0.999979843855,0.346422698746,0.05,0.05,0.0,0.0,1.0,1.0,0,0,,,0
1449618709588168062,11,0,/odom,ucmd_vector,0,0,0,0.0,0.0,0.0,0.0,0.0,-0.00317459802558,0.999994960951,0.296136987457,0.05,0.05,0.0,0.0,1.0,1.0,0,0,,,0
1449618709627460520,12,0,/odom,ucmd_vector,0,0,0,0.0,0.0,0.0,0.0,0.0,-0.00317459802558,0.999994960951,0.296136987457,0.05,0.05,0.0,0.0,1.0,1.0,0,0,,,0
1449618709685966445,13,0,/odom,ucmd_vector,0,0,0,0.0,0.0,0.0,0.0,0.0,-0.00317459802558,0.999994960951,0.296136987457,0.05,0.05,0.0,0.0,1.0,1.0,0,0,,,0
1449618709714496529,14,0,/odom,ucmd_vector,0,0,0,0.0,0.0,0.0,0.0,0.0,-0.00634916405725,0.999979843855,0.346422698746,0.05,0.05,0.0,0.0,1.0,1.0,0,0,,,0
1449618709789081510,15,0,/odom,ucmd_vector,0,0,0,0.0,0.0,0.0,0.0,0.0,-0.00634916405725,0.999979843855,0.346422698746,0.05,0.05,0.0,0.0,1.0,1.0,0,0,,,0
1449618709806185333,16,0,/odom,ucmd_vector,0,0,0,0.0,0.0,0.0,0.0,0.0,-0.00317459802558,0.999994960951,0.301724288712,0.05,0.05,0.0,0.0,1.0,1.0,0,0,,,0
1449618709831555368,17,0,/odom,ucmd_vector,0,0,0,0.0,0.0,0.0,0.0,0.0,-0.00317459802558,0.999994960951,0.301724288712,0.05,0.05,0.0,0.0,1.0,1.0,0,0,,,0
1449618709884729123,18,0,/odom,ucmd_vector,0,0,0,0.0,0.0,0.0,0.0,0.0,-0.00634916405725,0.999979843855,0.346422698746,0.05,0.05,0.0,0.0,1.0,1.0,0,0,,,0
1449618709919718573,19,0,/odom,ucmd_vector,0,0,0,0.0,0.0,0.0,0.0,0.0,-0.00634916405725,0.999979843855,0.346422698746,0.05,0.05,0.0,0.0,1.0,1.0,0,0,,,0
1449618709955498913,20,0,/odom,ucmd_vector,0,0,0,0.0,0.0,0.0,0.0,0.0,-0.00634916405725,0.999979843855,0.346422698746,0.05,0.05,0.0,0.0,1.0,1.0,0,0,,,0
1449618710006334924,21,0,/odom,ucmd_vector,0,0,0,0.0,0.0,0.0,0.0,0.0,-0.00634916405725,0.999979843855,0.324073493729,0.05,0.05,0.0,0.0,1.0,1.0,0,0,,,0
1449618710025933068,22,0,/odom,ucmd_vector,0,0,0,0.0,0.0,0.0,0.0,0.0,-0.00634916405725,0.999979843855,0.324073493729,0.05,0.05,0.0,0.0,1.0,1.0,0,0,,,0
1449618710074590928,23,0,/odom,ucmd_vector,0,0,0,0.0,0.0,0.0,0.0,0.0,-0.00634916405725,0.999979843855,0.346422698746,0.05,0.05,0.0,0.0,1.0,1.0,0,0,,,0
1449618710170689186,24,0,/odom,ucmd_vector,0,0,0,0.00287963245437,3.04332289367e-05,0.0,0.0,0.0,-0.00106518217349,0.999999432693,0.346422698746,0.05,0.05,0.0,0.0,1.0,1.0,0,0,,,0
1449618710201750866,25,0,/odom,ucmd_vector,0,0,0,0.00575942572016,3.04332289367e-05,0.0,0.0,0.0,-0.00634916405725,0.999979843855,0.346422698746,0.05,0.05,0.0,0.0,1.0,1.0,0,0,,,0
1449618710224028728,26,0,/odom,ucmd_vector,0,0,0,0.00575942572016,3.04332289367e-05,0.0,0.0,0.0,-0.00634916405725,0.999979843855,0.346422698746,0.05,0.05,0.0,0.0,1.0,1.0,0,0,,,0
1449618710242323162,27,0,/odom,ucmd_vector,0,0,0,0.00863905817453,6.08664578733e-05,0.0,0.0,0.0,-0.00106518217349,0.999999432693,0.346422698746,0.05,0.05,0.0,0.0,1.0,1.0,0,0,,,0
1449618710268484768,28,0,/odom,ucmd_vector,0,0,0,0.00863905817453,6.08664578733e-05,0.0,0.0,0.0,-0.00106518217349,0.999999432693,0.346422698746,0.05,0.05,0.0,0.0,1.0,1.0,0,0,,,0
1449618710354478150,29,0,/odom,ucmd_vector,0,0,0,0.00863905817453,6.08664578733e-05,0.0,0.0,0.0,-0.00106518217349,0.999999432693,0.346422698746,0.05,0.05,0.0,0.0,1.0,1.0,0,0,,,0
1449618710381073305,30,0,/odom,ucmd_vector,0,0,0,0.0143983230833,0.000121732915747,0.0,0.0,0.0,-0.00106518217349,0.999999432693,0.346422698746,0.05,0.05,0.0,0.0,1.0,1.0,0,0,,,0
1449618710403000402,31,0,/odom,ucmd_vector,0,0,0,0.0172774731214,0.000182595974757,0.0,0.0,0.0,0.00421882945106,0.999991100699,0.346422698746,0.05,0.05,0.0,0.0,1.0,1.0,0,0,,,0
1449618710469857443,32,0,/odom,ucmd_vector,0,0,0,0.0172774731214,0.000182595974757,0.0,0.0,0.0,0.00421882945106,0.999991100699,0.346422698746,0.05,0.05,0.0,0.0,1.0,1.0,0,0,,,0
1449618710507365740,33,0,/odom,ucmd_vector,0,0,0,0.0230362556138,0.000273892262705,0.0,0.0,0.0,0.00421882945106,0.999991100699,0.346422698746,0.05,0.05,0.0,0.0,1.0,1.0,0,0,,,0
1449618710539523710,34,0,/odom,ucmd_vector,0,0,0,0.0259158880682,0.000304325491641,0.0,0.0,0.0,-0.00106518217349,0.999999432693,0.346422698746,0.05,0.05,0.0,0.0,1.0,1.0,0,0,,,0
1449618710564728840,35,0,/odom,ucmd_vector,0,0,0,0.0259158880682,0.000304325491641,0.0,0.0,0.0,-0.00106518217349,0.999999432693,0.346422698746,0.05,0.05,0.0,0.0,1.0,1.0,0,0,,,0
1449618710621733106,36,0,/odom,ucmd_vector,0,0,0,0.0287950381062,0.000365188550652,0.0,0.0,0.0,0.00421882945106,0.999991100699,0.346422698746,0.05,0.05,0.0,0.0,1.0,1.0,0,0,,,0
1449618710657913221,37,0,/odom,ucmd_vector,0,0,0,0.0316746705606,0.000395621779589,0.0,0.0,0.0,-0.00106518217349,0.999999432693,0.346422698746,0.05,0.05,0.0,0.0,1.0,1.0,0,0,,,0
1449618710689170494,38,0,/odom,ucmd_vector,0,0,0,0.0345538205987,0.0004564848386,0.0,0.0,0.0,0.00421882945106,0.999991100699,0.346422698746,0.05,0.05,0.0,0.0,1.0,1.0,0,0,,,0
1449618710731104477,39,0,/odom,ucmd_vector,0,0,0,0.0403121206748,0.000578210956621,0.0,0.0,0.0,0.00421882945106,0.999991100699,0.346422698746,0.05,0.05,0.0,0.0,1.0,1.0,0,0,,,0
1449618710806132601,40,0,/odom,ucmd_vector,0,0,0,0.0431904667456,0.00066949704836,0.0,0.0,0.0,0.00950272328231,0.999954848106,0.346422698746,0.05,0.05,0.0,0.0,1.0,1.0,0,0,,,0
1449618710834924441,41,0,/odom,ucmd_vector,0,0,0,0.0547038510287,0.00103464141532,0.0,0.0,0.0,0.00950272328231,0.999954848106,0.340835397491,0.05,0.05,0.0,0.0,1.0,1.0,0,0,,,0
1449618710881182228,42,0,/odom,ucmd_vector,0,0,0,0.0604605431703,0.0012172135988,0.0,0.0,0.0,0.00950272328231,0.999954848106,0.346422698746,0.05,0.05,0.0,0.0,1.0,1.0,0,0,,,0
1449618710939765556,43,0,/odom,ucmd_vector,0,0,0,0.0662172353118,0.00139978578228,0.0,0.0,0.0,0.00950272328231,0.999954848106,0.346422698746,0.05,0.05,0.0,0.0,1.0,1.0,0,0,,,0
1449618710974954111,44,0,/odom,ucmd_vector,0,0,0,0.0748488972386,0.00176488257047,0.0,0.0,0.0,0.0147863517895,0.999890675925,0.346422698746,0.05,0.05,0.0,0.0,1.0,1.0,0,0,,,0
1449618711040396069,45,0,/odom,ucmd_vector,0,0,0,0.0748488972386,0.00176488257047,0.0,0.0,0.0,0.0116120266872,0.999932578145,0.346422698746,0.05,0.05,0.0,0.0,1.0,1.0,0,0,,,0
1449618711057554373,46,0,/odom,ucmd_vector,0,0,0,0.0863577798077,0.00225167828807,0.0,0.0,0.0,0.0116120266872,0.999932578145,0.346422698746,0.05,0.05,0.0,0.0,1.0,1.0,0,0,,,0
1449618711166340871,47,0,/odom,ucmd_vector,0,0,0,0.0863577798077,0.00225167828807,0.0,0.0,0.0,0.0116120266872,0.999932578145,0.346422698746,0.05,0.05,0.0,0.0,1.0,1.0,0,0,,,0
1449618711223420004,48,0,/odom,ucmd_vector,0,0,0,0.112244085004,0.00352936412868,0.0,0.0,0.0,0.0168955080732,0.999857260716,0.346422698746,0.05,0.05,0.0,0.0,1.0,1.0,0,0,,,0
1449618711243027068,49,0,/odom,ucmd_vector,0,0,0,0.129498728273,0.0044419531811,0.0,0.0,0.0,0.0200695674491,0.999798585947,0.346422698746,0.05,0.05,0.0,0.0,1.0,1.0,0,0,,,0
1449618711290400804,50,0,/odom,ucmd_vector,0,0,0,0.129498728273,0.0044419531811,0.0,0.0,0.0,0.0168955080732,0.999857260716,0.346422698746,0.05,0.05,0.0,0.0,1.0,1.0,0,0,,,0
1449618711322577563,51,0,/odom,ucmd_vector,0,0,0,0.138120746094,0.00498939448516,0.0,0.0,0.0,0.0221785177222,0.999754026424,0.346422698746,0.05,0.05,0.0,0.0,1.0,1.0,0,0,,,0
1449618711347613226,52,0,/odom,ucmd_vector,0,0,0,0.143868757975,0.00535435535454,0.0,0.0,0.0,0.0221785177222,0.999754026424,0.346422698746,0.05,0.05,0.0,0.0,1.0,1.0,0,0,,,0
1449618711403393529,53,0,/odom,ucmd_vector,0,0,0,0.155364781736,0.00608427709328,0.0,0.0,0.0,-0.139270232642,0.990254412916,0.296136987457,0.05,0.05,0.0,0.0,1.0,1.0,0,0,,,0
1449618711429187041,54,0,/odom,ucmd_vector,0,0,0,0.161112793616,0.00644923796266,0.0,0.0,0.0,-0.139270232642,0.990254412916,0.296136987457,0.05,0.05,0.0,0.0,1.0,1.0,0,0,,,0
1449618711481140953,55,0,/odom,ucmd_vector,0,0,0,0.172608817377,0.0071791597014,0.0,0.0,0.0,-0.139270232642,0.990254412916,0.301724288712,0.05,0.05,0.0,0.0,1.0,1.0,0,0,,,0
1449618711546101930,56,0,/odom,ucmd_vector,0,0,0,0.184104841138,0.00790908144015,0.0,0.0,0.0,-0.139270232642,0.990254412916,0.301724288712,0.05,0.05,0.0,0.0,1.0,1.0,0,0,,,0
1449618711583379837,57,0,/odom,ucmd_vector,0,0,0,0.20134887678,0.00900396404827,0.0,0.0,0.0,-0.139270232642,0.990254412916,0.301724288712,0.05,0.05,0.0,0.0,1.0,1.0,0,0,,,0
1449618711619755484,58,0,/odom,ucmd_vector,0,0,0,0.212844900541,0.00973388578701,0.0,0.0,0.0,-0.136125871517,0.99069154993,0.301724288712,0.05,0.05,0.0,0.0,1.0,1.0,0,0,,,0
1449618711656492299,59,0,/odom,ucmd_vector,0,0,0,0.22720448567,0.0107980973574,0.0,0.0,0.0,-0.130889157238,0.991397008528,0.301724288712,0.05,0.05,0.0,0.0,1.0,1.0,0,0,,,0
1449618711694843700,60,0,/odom,ucmd_vector,0,0,0,0.22720448567,0.0107980973574,0.0,0.0,0.0,-0.134035784298,0.990976492419,0.296136987457,0.05,0.05,0.0,0.0,1.0,1.0,0,0,,,0
1449618711808701449,61,0,/odom,ucmd_vector,0,0,0,0.232948319721,0.0112237819856,0.0,0.0,0.0,-0.134035784298,0.990976492419,0.296136987457,0.05,0.05,0.0,0.0,1.0,1.0,0,0,,,0
1449618711907418708,62,0,/odom,ucmd_vector,0,0,0,0.264545673748,0.0134739618022,0.0,0.0,0.0,-0.139270232642,0.990254412916,0.296136987457,0.05,0.05,0.0,0.0,1.0,1.0,0,0,,,0
1449618711948393327,63,0,/odom,ucmd_vector,0,0,0,0.296153472348,0.015572332222,0.0,0.0,0.0,-0.130889157238,0.991397008528,0.296136987457,0.05,0.05,0.0,0.0,1.0,1.0,0,0,,,0
1449618712060528419,64,0,/odom,ucmd_vector,0,0,0,0.307641140451,0.0164237014783,0.0,0.0,0.0,-0.134035784298,0.990976492419,0.296136987457,0.05,0.05,0.0,0.0,1.0,1.0,0,0,,,0
1449618712103240937,65,0,/odom,ucmd_vector,0,0,0,0.339262277546,0.0183094572227,0.0,0.0,0.0,-0.139270232642,0.990254412916,0.296136987457,0.05,0.05,0.0,0.0,1.0,1.0,0,0,,,0
1449618712177952988,66,0,/odom,ucmd_vector,0,0,0,0.353641146937,0.0190699480997,0.0,0.0,0.0,-0.141358785046,0.989958430385,0.296136987457,0.05,0.05,0.0,0.0,1.0,1.0,0,0,,,0
1449618712205574582,67,0,/odom,ucmd_vector,0,0,0,0.359392694693,0.0193741444505,0.0,0.0,0.0,-0.141358785046,0.989958430385,0.296136987457,0.05,0.05,0.0,0.0,1.0,1.0,0,0,,,0
1449618712263876182,68,0,/odom,ucmd_vector,0,0,0,0.370895790206,0.0199825371521,0.0,0.0,0.0,-0.141358785046,0.989958430385,0.296136987457,0.05,0.05,0.0,0.0,1.0,1.0,0,0,,,0
1449618712355671430,69,0,/odom,ucmd_vector,0,0,0,0.391040836416,0.0207127783073,0.0,0.0,0.0,-0.146587751718,0.98919767036,0.301724288712,0.05,0.05,0.0,0.0,1.0,1.0,0,0,,,0
1449618712423200847,70,0,/odom,ucmd_vector,0,0,0,0.414074036721,0.0211996827794,0.0,0.0,0.0,-0.157033260616,0.987593314609,0.301724288712,0.05,0.05,0.0,0.0,1.0,1.0,0,0,,,0
1449618712519960451,71,0,/odom,ucmd_vector,0,0,0,0.434231463901,0.0214127153819,0.0,0.0,0.0,-0.162249511194,0.986749763677,0.301724288712,0.05,0.05,0.0,0.0,1.0,1.0,0,0,,,0
1449618712552990883,72,0,/odom,ucmd_vector,0,0,0,0.457268523536,0.0211692495504,0.0,0.0,0.0,-0.011632968667,0.999932334731,0.346422698746,0.05,0.05,0.0,0.0,1.0,1.0,0,0,,,0
1449618712656893791,73,0,/odom,ucmd_vector,0,0,0,0.465905973651,0.0209866603734,0.0,0.0,0.0,-0.0137422194698,0.999905571244,0.346422698746,0.05,0.05,0.0,0.0,1.0,1.0,0,0,,,0
1449618712772242865,74,0,/odom,ucmd_vector,0,0,0,0.488929365931,0.0201651331265,0.0,0.0,0.0,-0.024308306147,0.999704509469,0.346422698746,0.05,0.05,0.0,0.0,1.0,1.0,0,0,,,0
1449618712781172180,75,0,/odom,ucmd_vector,0,0,0,0.520542468345,0.0181579094846,0.0,0.0,0.0,-0.0401519771987,0.99919358421,0.027946508894,0.05,0.05,0.0,0.0,1.0,1.0,0,0,,,0
1449618712817599841,76,0,/odom,ucmd_vector,0,0,0,0.53200957729,0.0170639439956,0.0,0.0,0.0,-0.0538793232245,0.99854745432,0.027946508894,0.05,0.05,0.0,0.0,1.0,1.0,0,0,,,0
1449618712861576922,77,0,/odom,ucmd_vector,0,0,0,0.53200957729,0.0170639439956,0.0,0.0,0.0,-0.0538793232245,0.99854745432,0.027946508894,0.05,0.05,0.0,0.0,1.0,1.0,0,0,,,0
1449618712948748700,78,0,/odom,ucmd_vector,0,0,0,0.55491811346,0.0146339054788,0.0,0.0,0.0,-0.0644288162148,0.997922305413,0.027946508894,0.05,0.05,0.0,0.0,1.0,1.0,0,0,,,0
1449618712984509620,79,0,/odom,ucmd_vector,0,0,0,0.572049461483,0.0123882852463,0.0,0.0,0.0,-0.0749711136265,0.997185705935,0.027946508894,0.05,0.05,0.0,0.0,1.0,1.0,0,0,,,0
1449618713006288896,80,0,/odom,ucmd_vector,0,0,0,0.58059445565,0.0111147241066,0.0,0.0,0.0,-0.0802391960207,0.996775637454,0.0614703190422,0.05,0.05,0.0,0.0,1.0,1.0,0,0,,,0
1449618713025054457,81,0,/odom,ucmd_vector,0,0,0,0.58059445565,0.0111147241066,0.0,0.0,0.0,-0.0802391960207,0.996775637454,0.0614703190422,0.05,0.05,0.0,0.0,1.0,1.0,0,0,,,0
1449618713115109754,82,0,/odom,ucmd_vector,0,0,0,0.591987781205,0.00941664258706,0.0,0.0,0.0,-0.0770744297208,0.997025341846,0.128517939339,0.05,0.05,0.0,0.0,1.0,1.0,0,0,,,0
1449618713127446744,83,0,/odom,ucmd_vector,0,0,0,0.60902012012,0.00650890046698,0.0,0.0,0.0,-0.0876065420068,0.996155155484,0.128517939339,0.05,0.05,0.0,0.0,1.0,1.0,0,0,,,0
1449618713136592212,84,0,/odom,ucmd_vector,0,0,0,0.60902012012,0.00650890046698,0.0,0.0,0.0,-0.0907684927429,0.995872020254,0.189978263626,0.05,0.05,0.0,0.0,1.0,1.0,0,0,,,0
1449618713199028661,85,0,/odom,ucmd_vector,0,0,0,0.60902012012,0.00650890046698,0.0,0.0,0.0,-0.0907684927429,0.995872020254,0.189978263626,0.05,0.05,0.0,0.0,1.0,1.0,0,0,,,0
1449618713224942336,86,0,/odom,ucmd_vector,0,0,0,0.631670876557,0.00230238980334,0.0,0.0,0.0,-0.101287652203,0.994857181464,0.189978263626,0.05,0.05,0.0,0.0,1.0,1.0,0,0,,,0
1449618713255064333,87,0,/odom,ucmd_vector,0,0,0,0.631670876557,0.00230238980334,0.0,0.0,0.0,-0.101287652203,0.994857181464,0.189978263626,0.05,0.05,0.0,0.0,1.0,1.0,0,0,,,0
1449618713349605450,88,0,/odom,ucmd_vector,0,0,0,0.640136680327,0.000579296712465,0.0,0.0,0.0,-0.106543063284,0.994308088907,0.346422698746,0.05,0.05,0.0,0.0,1.0,1.0,0,0,,,0
1449618713407649261,89,0,/odom,ucmd_vector,0,0,0,0.662629628806,-0.00440254710789,0.0,0.0,0.0,-0.117044814476,0.993126634123,0.346422698746,0.05,0.05,0.0,0.0,1.0,1.0,0,0,,,0
1449618713442866681,90,0,/odom,ucmd_vector,0,0,0,0.671036558176,-0.00639313040269,0.0,0.0,0.0,-0.119139474679,0.992877527983,0.346422698746,0.05,0.05,0.0,0.0,1.0,1.0,0,0,,,0
1449618713513559039,91,0,/odom,ucmd_vector,0,0,0,0.679421981902,-0.00847244572582,0.0,0.0,0.0,-0.124384176053,0.992234134037,0.340835397491,0.05,0.05,0.0,0.0,1.0,1.0,0,0,,,0
1449618713562239034,92,0,/odom,ucmd_vector,0,0,0,0.693375245963,-0.0120264710693,0.0,0.0,0.0,-0.129625404515,0.991563036072,0.340835397491,0.05,0.05,0.0,0.0,1.0,1.0,0,0,,,0
1449618713590772245,93,0,/odom,ucmd_vector,0,0,0,0.698950567015,-0.0134716811547,0.0,0.0,0.0,-0.129625404515,0.991563036072,0.346422698746,0.05,0.05,0.0,0.0,1.0,1.0,0,0,,,0
1449618713626831418,94,0,/odom,ucmd_vector,0,0,0,0.70173043549,-0.01422370543,0.0,0.0,0.0,-0.134863013726,0.990864252826,0.346422698746,0.05,0.05,0.0,0.0,1.0,1.0,0,0,,,0
1449618713692779652,95,0,/odom,ucmd_vector,0,0,0,0.71004573338,-0.0165677839893,0.0,0.0,0.0,-0.140096857447,0.99013780381,0.346422698746,0.05,0.05,0.0,0.0,1.0,1.0,0,0,,,0
1449618713707622215,96,0,/odom,ucmd_vector,0,0,0,0.715589265306,-0.0181305030289,0.0,0.0,0.0,-0.136952861975,0.990577565664,0.189978263626,0.05,0.05,0.0,0.0,1.0,1.0,0,0,,,0
1449618713779831626,97,0,/odom,ucmd_vector,0,0,0,0.721132797233,-0.0196932220685,0.0,0.0,0.0,-0.136952861975,0.990577565664,0.189978263626,0.05,0.05,0.0,0.0,1.0,1.0,0,0,,,0
1449618713904635664,98,0,/odom,ucmd_vector,0,0,0,0.732177492113,-0.0229648095182,0.0,0.0,0.0,-0.14427283321,0.989537947528,0.307311589966,0.05,0.05,0.0,0.0,1.0,1.0,0,0,,,0
1449618713957481070,99,0,/odom,ucmd_vector,0,0,0,0.751414782864,-0.0289884824767,0.0,0.0,0.0,-0.149499537369,0.988761795544,0.307311589966,0.05,0.05,0.0,0.0,1.0,1.0,0,0,,,0
1449618713984199081,100,0,/odom,ucmd_vector,0,0,0,0.754151052763,-0.0298862777179,0.0,0.0,0.0,-0.154722067374,0.987958036491,0.307311589966,0.05,0.05,0.0,0.0,1.0,1.0,0,0,,,0
1449618714026361676,101,0,/odom,ucmd_vector,0,0,0,0.75962359256,-0.0316818682003,0.0,0.0,0.0,-0.154722067374,0.987958036491,0.307311589966,0.05,0.05,0.0,0.0,1.0,1.0,0,0,,,0
1449618714085542268,102,0,/odom,ucmd_vector,0,0,0,0.767803480564,-0.0344618530074,0.0,0.0,0.0,-0.159940277408,0.987126692812,0.307311589966,0.05,0.05,0.0,0.0,1.0,1.0,0,0,,,0
1449618714157276973,103,0,/odom,ucmd_vector,0,0,0,0.773256739233,-0.0363151762122,0.0,0.0,0.0,-0.159940277408,0.987126692812,0.346422698746,0.05,0.05,0.0,0.0,1.0,1.0,0,0,,,0
1449618714185360927,104,0,/odom,ucmd_vector,0,0,0,0.786860050663,-0.0410347728316,0.0,0.0,0.0,-0.165154021774,0.986267787719,0.346422698746,0.05,0.05,0.0,0.0,1.0,1.0,0,0,,,0
1449618714236659977,105,0,/odom,ucmd_vector,0,0,0,0.789566486428,-0.042018853468,0.0,0.0,0.0,-0.170363154899,0.985381345192,0.307311589966,0.05,0.05,0.0,0.0,1.0,1.0,0,0,,,0
1449618714332486766,106,0,/odom,ucmd_vector,0,0,0,0.79497935796,-0.0439870147409,0.0,0.0,0.0,-0.170363154899,0.985381345192,0.307311589966,0.05,0.05,0.0,0.0,1.0,1.0,0,0,,,0
1449618714374233910,107,0,/odom,ucmd_vector,0,0,0,0.808458783042,-0.0490501492241,0.0,0.0,0.0,-0.175567531341,0.984467389982,0.346422698746,0.05,0.05,0.0,0.0,1.0,1.0,0,0,,,0
1449618714402815677,108,0,/odom,ucmd_vector,0,0,0,0.813850553075,-0.0510754030174,0.0,0.0,0.0,-0.172441358415,0.985019785541,0.335248096237,0.05,0.05,0.0,0.0,1.0,1.0,0,0,,,0
1449618714503721216,109,0,/odom,ucmd_vector,0,0,0,0.821905652626,-0.0541985832094,0.0,0.0,0.0,-0.177643795363,0.984094854152,0.335248096237,0.05,0.05,0.0,0.0,1.0,1.0,0,0,,,0
1449618714546489097,110,0,/odom,ucmd_vector,0,0,0,0.84062282298,-0.0616842219509,0.0,0.0,0.0,-0.182841272345,0.983142446,0.335248096237,0.05,0.05,0.0,0.0,1.0,1.0,0,0,,,0
1449618714583121346,111,0,/odom,ucmd_vector,0,0,0,0.848610116426,-0.0649769452449,0.0,0.0,0.0,-0.188033644244,0.982162587677,0.346422698746,0.05,0.05,0.0,0.0,1.0,1.0,0,0,,,0
1449618714666662859,112,0,/odom,ucmd_vector,0,0,0,0.853934978723,-0.0671720941075,0.0,0.0,0.0,-0.188033644244,0.982162587677,0.346422698746,0.05,0.05,0.0,0.0,1.0,1.0,0,0,,,0
1449618714689571493,113,0,/odom,ucmd_vector,0,0,0,0.867188396078,-0.0728003407055,0.0,0.0,0.0,-0.193220766084,0.981155306541,0.346422698746,0.05,0.05,0.0,0.0,1.0,1.0,0,0,,,0
1449618714801737238,114,0,/odom,ucmd_vector,0,0,0,0.867188396078,-0.0728003407055,0.0,0.0,0.0,-0.193220766084,0.981155306541,0.346422698746,0.05,0.05,0.0,0.0,1.0,1.0,0,0,,,0
1449618714854363384,115,0,/odom,ucmd_vector,0,0,0,0.890936153899,-0.0831827271371,0.0,0.0,0.0,-0.198402493037,0.980120630717,0.346422698746,0.05,0.05,0.0,0.0,1.0,1.0,0,0,,,0
1449618714926172427,116,0,/odom,ucmd_vector,0,0,0,0.898815057963,-0.0867269836221,0.0,0.0,0.0,-0.203578680423,0.979058589093,0.346422698746,0.05,0.05,0.0,0.0,1.0,1.0,0,0,,,0
1449618714959420020,117,0,/odom,ucmd_vector,0,0,0,0.914572866092,-0.093815496592,0.0,0.0,0.0,-0.203578680423,0.979058589093,0.346422698746,0.05,0.05,0.0,0.0,1.0,1.0,0,0,,,0
1449618715008245372,118,0,/odom,ucmd_vector,0,0,0,0.927641214288,-0.0998610326935,0.0,0.0,0.0,-0.20874918372,0.977969211323,0.346422698746,0.05,0.05,0.0,0.0,1.0,1.0,0,0,,,0
1449618715120678337,119,0,/odom,ucmd_vector,0,0,0,0.935443452356,-0.103571014422,0.0,0.0,0.0,-0.213913858563,0.976852527823,0.346422698746,0.05,0.05,0.0,0.0,1.0,1.0,0,0,,,0
1449618715194724581,120,0,/odom,ucmd_vector,0,0,0,0.953609032288,-0.11230988418,0.0,0.0,0.0,-0.219072560749,0.975708569772,0.340835397491,0.05,0.05,0.0,0.0,1.0,1.0,0,0,,,0
1449618715273623046,121,0,/odom,ucmd_vector,0,0,0,0.984659415658,-0.127478793999,0.0,0.0,0.0,-0.219072560749,0.975708569772,0.340835397491,0.05,0.05,0.0,0.0,1.0,1.0,0,0,,,0
1449618715321817643,122,0,/odom,ucmd_vector,0,0,0,1.0078796879,-0.138991846698,0.0,0.0,0.0,-0.224225146244,0.97453736911,0.346422698746,0.05,0.05,0.0,0.0,1.0,1.0,0,0,,,0
1449618715353540747,123,0,/odom,ucmd_vector,0,0,0,1.01302774568,-0.141574546469,0.0,0.0,0.0,-0.224225146244,0.97453736911,0.346422698746,0.05,0.05,0.0,0.0,1.0,1.0,0,0,,,0
1449618715432689945,124,0,/odom,ucmd_vector,0,0,0,1.02847191902,-0.14932264578,0.0,0.0,0.0,-0.224225146244,0.97453736911,0.340835397491,0.05,0.05,0.0,0.0,1.0,1.0,0,0,,,0
1449618715477276813,125,0,/odom,ucmd_vector,0,0,0,1.04644874966,-0.158443484513,0.0,0.0,0.0,-0.229371471182,0.973338958538,0.340835397491,0.05,0.05,0.0,0.0,1.0,1.0,0,0,,,0
1449618715602933158,126,0,/odom,ucmd_vector,0,0,0,1.05917955912,-0.165170796139,0.0,0.0,0.0,-0.231424141333,0.972852952305,0.346422698746,0.05,0.05,0.0,0.0,1.0,1.0,0,0,,,0
1449618715647279703,127,0,/odom,ucmd_vector,0,0,0,1.08980388417,-0.181181431069,0.0,0.0,0.0,-0.231424141333,0.972852952305,0.346422698746,0.05,0.05,0.0,0.0,1.0,1.0,0,0,,,0
1449618715719733344,128,0,/odom,ucmd_vector,0,0,0,1.10508085553,-0.18925420502,0.0,0.0,0.0,-0.234511391875,0.972113371516,0.346422698746,0.05,0.05,0.0,0.0,1.0,1.0,0,0,,,0
1449618715769006712,129,0,/odom,ucmd_vector,0,0,0,1.12280346298,-0.198860267603,0.0,0.0,0.0,-0.23964476481,0.970860642265,0.346422698746,0.05,0.05,0.0,0.0,1.0,1.0,0,0,,,0
1449618715810696147,130,0,/odom,ucmd_vector,0,0,0,1.13799426937,-0.207094035531,0.0,0.0,0.0,-0.23964476481,0.970860642265,0.346422698746,0.05,0.05,0.0,0.0,1.0,1.0,0,0,,,0
1449618715963434010,131,0,/odom,ucmd_vector,0,0,0,1.1430578715,-0.209838624841,0.0,0.0,0.0,-0.23964476481,0.970860642265,0.346422698746,0.05,0.05,0.0,0.0,1.0,1.0,0,0,,,0
1449618716011278563,132,0,/odom,ucmd_vector,0,0,0,1.18863029068,-0.234539928627,0.0,0.0,0.0,-0.242725649506,0.970094974253,0.346422698746,0.05,0.05,0.0,0.0,1.0,1.0,0,0,,,0
1449618716154975276,133,0,/odom,ucmd_vector,0,0,0,1.19618176312,-0.238736849795,0.0,0.0,0.0,-0.24477144666,0.969580805761,0.346422698746,0.05,0.05,0.0,0.0,1.0,1.0,0,0,,,0
1449618716192653667,134,0,/odom,ucmd_vector,0,0,0,1.2391491633,-0.262199254267,0.0,0.0,0.0,-0.23964476481,0.970860642265,0.340835397491,0.05,0.05,0.0,0.0,1.0,1.0,0,0,,,0
1449618716230406284,135,0,/odom,ucmd_vector,0,0,0,1.2517349507,-0.269194122881,0.0,0.0,0.0,-0.247848242556,0.968798869044,0.346422698746,0.05,0.05,0.0,0.0,1.0,1.0,0,0,,,0
1449618716258159941,136,0,/odom,ucmd_vector,0,0,0,1.26180358061,-0.274790017773,0.0,0.0,0.0,-0.247848242556,0.968798869044,0.346422698746,0.05,0.05,0.0,0.0,1.0,1.0,0,0,,,0
1449618716353998707,137,0,/odom,ucmd_vector,0,0,0,1.26180358061,-0.274790017773,0.0,0.0,0.0,-0.24477144666,0.969580805761,0.301724288712,0.05,0.05,0.0,0.0,1.0,1.0,0,0,,,0
1449618716384701464,138,0,/odom,ucmd_vector,0,0,0,1.29211197547,-0.291390948971,0.0,0.0,0.0,-0.24477144666,0.969580805761,0.301724288712,0.05,0.05,0.0,0.0,1.0,1.0,0,0,,,0
1449618716411799004,139,0,/odom,ucmd_vector,0,0,0,1.29211197547,-0.291390948971,0.0,0.0,0.0,-0.24477144666,0.969580805761,0.346422698746,0.05,0.05,0.0,0.0,1.0,1.0,0,0,,,0
1449618716478446660,140,0,/odom,ucmd_vector,0,0,0,1.29970737866,-0.295507832935,0.0,0.0,0.0,-0.23964476481,0.970860642265,0.346422698746,0.05,0.05,0.0,0.0,1.0,1.0,0,0,,,0
1449618716529416984,141,0,/odom,ucmd_vector,0,0,0,1.31996178719,-0.306486190173,0.0,0.0,0.0,-0.242725649506,0.970094974253,0.296136987457,0.05,0.05,0.0,0.0,1.0,1.0,0,0,,,0
1449618716592464166,142,0,/odom,ucmd_vector,0,0,0,1.33008899145,-0.311975368792,0.0,0.0,0.0,-0.242725649506,0.970094974253,0.296136987457,0.05,0.05,0.0,0.0,1.0,1.0,0,0,,,0
1449618716645741587,143,0,/odom,ucmd_vector,0,0,0,1.35294700517,-0.324191859037,0.0,0.0,0.0,-0.234511391875,0.972113371516,0.346422698746,0.05,0.05,0.0,0.0,1.0,1.0,0,0,,,0
1449618716767930803,144,0,/odom,ucmd_vector,0,0,0,1.36054240837,-0.328308743001,0.0,0.0,0.0,-0.23964476481,0.970860642265,0.346422698746,0.05,0.05,0.0,0.0,1.0,1.0,0,0,,,0
1449618716896043501,145,0,/odom,ucmd_vector,0,0,0,1.39113858048,-0.34437334312,0.0,0.0,0.0,-0.232460275304,0.972605891616,0.296136987457,0.05,0.05,0.0,0.0,1.0,1.0,0,0,,,0
1449618716958852510,146,0,/odom,ucmd_vector,0,0,0,1.42201227421,-0.359896238924,0.0,0.0,0.0,-0.219072560749,0.975708569772,0.346422698746,0.05,0.05,0.0,0.0,1.0,1.0,0,0,,,0
1449618716981868507,147,0,/odom,ucmd_vector,0,0,0,1.44536613211,-0.371135845077,0.0,0.0,0.0,-0.213913858563,0.976852527823,0.296136987457,0.05,0.05,0.0,0.0,1.0,1.0,0,0,,,0
1449618717025532106,148,0,/odom,ucmd_vector,0,0,0,1.44536613211,-0.371135845077,0.0,0.0,0.0,-0.217013894747,0.976168514902,0.346422698746,0.05,0.05,0.0,0.0,1.0,1.0,0,0,,,0
1449618717058108995,149,0,/odom,ucmd_vector,0,0,0,1.4557691162,-0.376082487381,0.0,0.0,0.0,-0.217013894747,0.976168514902,0.346422698746,0.05,0.05,0.0,0.0,1.0,1.0,0,0,,,0
1449618717083484952,150,0,/odom,ucmd_vector,0,0,0,1.46617210029,-0.381029129685,0.0,0.0,0.0,-0.213913858563,0.976852527823,0.346422698746,0.05,0.05,0.0,0.0,1.0,1.0,0,0,,,0
1449618717173003835,151,0,/odom,ucmd_vector,0,0,0,1.47401310921,-0.384656451346,0.0,0.0,0.0,-0.20874918372,0.977969211323,0.346422698746,0.05,0.05,0.0,0.0,1.0,1.0,0,0,,,0
1449618717197685478,152,0,/odom,ucmd_vector,0,0,0,1.50033781477,-0.396331537949,0.0,0.0,0.0,-0.198402493037,0.980120630717,0.346422698746,0.05,0.05,0.0,0.0,1.0,1.0,0,0,,,0
1449618717244660119,153,0,/odom,ucmd_vector,0,0,0,1.51359123213,-0.401959784547,0.0,0.0,0.0,-0.193220766084,0.981155306541,0.346422698746,0.05,0.05,0.0,0.0,1.0,1.0,0,0,,,0
1449618717304409077,154,0,/odom,ucmd_vector,0,0,0,1.51889259907,-0.404211083187,0.0,0.0,0.0,-0.193220766084,0.981155306541,0.346422698746,0.05,0.05,0.0,0.0,1.0,1.0,0,0,,,0
1449618717343306756,155,0,/odom,ucmd_vector,0,0,0,1.53220475481,-0.409698955343,0.0,0.0,0.0,-0.188033644244,0.982162587677,0.346422698746,0.05,0.05,0.0,0.0,1.0,1.0,0,0,,,0
1449618717379349897,156,0,/odom,ucmd_vector,0,0,0,1.54557416221,-0.415045840159,0.0,0.0,0.0,-0.179719269298,0.983717939372,0.340835397491,0.05,0.05,0.0,0.0,1.0,1.0,0,0,,,0
1449618717456070577,157,0,/odom,ucmd_vector,0,0,0,1.55626968813,-0.419323348011,0.0,0.0,0.0,-0.179719269298,0.983717939372,0.340835397491,0.05,0.05,0.0,0.0,1.0,1.0,0,0,,,0
1449618717484569830,158,0,/odom,ucmd_vector,0,0,0,1.58317427913,-0.429591782814,0.0,0.0,0.0,-0.169313447975,0.985562253911,0.340835397491,0.05,0.05,0.0,0.0,1.0,1.0,0,0,,,0
1449618717516475069,159,0,/odom,ucmd_vector,0,0,0,1.59129358642,-0.432544024723,0.0,0.0,0.0,-0.167234106758,0.985917214342,0.346422698746,0.05,0.05,0.0,0.0,1.0,1.0,0,0,,,0
1449618717575217104,160,0,/odom,ucmd_vector,0,0,0,1.60487700769,-0.437321147081,0.0,0.0,0.0,-0.162022185783,0.986787115499,0.346422698746,0.05,0.05,0.0,0.0,1.0,1.0,0,0,,,0
1449618717598450675,161,0,/odom,ucmd_vector,0,0,0,1.61305689569,-0.440101131888,0.0,0.0,0.0,-0.156805741011,0.987629464721,0.346422698746,0.05,0.05,0.0,0.0,1.0,1.0,0,0,,,0
1449618717632538083,162,0,/odom,ucmd_vector,0,0,0,1.62396341303,-0.443807778298,0.0,0.0,0.0,-0.156805741011,0.987629464721,0.346422698746,0.05,0.05,0.0,0.0,1.0,1.0,0,0,,,0
1449618717645715883,163,0,/odom,ucmd_vector,0,0,0,1.63764476253,-0.448296754504,0.0,0.0,0.0,-0.15158491809,0.988444238492,0.346422698746,0.05,0.05,0.0,0.0,1.0,1.0,0,0,,,0
1449618717757764151,164,0,/odom,ucmd_vector,0,0,0,1.63764476253,-0.448296754504,0.0,0.0,0.0,-0.15158491809,0.988444238492,0.346422698746,0.05,0.05,0.0,0.0,1.0,1.0,0,0,,,0
1449618717831737082,165,0,/odom,ucmd_vector,0,0,0,1.67345345594,-0.459213229912,0.0,0.0,0.0,-0.135897638716,0.99072288345,0.346422698746,0.05,0.05,0.0,0.0,1.0,1.0,0,0,,,0
1449618717890865540,166,0,/odom,ucmd_vector,0,0,0,1.69565189119,-0.465376100337,0.0,0.0,0.0,-0.125420237239,0.992103706319,0.346422698746,0.05,0.05,0.0,0.0,1.0,1.0,0,0,,,0
1449618717929428095,167,0,/odom,ucmd_vector,0,0,0,1.70959019381,-0.46898912555,0.0,0.0,0.0,-0.117024015008,0.993129085221,0.340835397491,0.05,0.05,0.0,0.0,1.0,1.0,0,0,,,0
1449618718010106210,168,0,/odom,ucmd_vector,0,0,0,1.72356590003,-0.472454651089,0.0,0.0,0.0,-0.111774687463,0.993733575584,0.340835397491,0.05,0.05,0.0,0.0,1.0,1.0,0,0,,,0
1449618718026266395,169,0,/odom,ucmd_vector,0,0,0,1.74600494508,-0.477673918866,0.0,0.0,0.0,-0.104424584213,0.994532808012,0.346422698746,0.05,0.05,0.0,0.0,1.0,1.0,0,0,,,0
1449618718061859828,170,0,/odom,ucmd_vector,0,0,0,1.74600494508,-0.477673918866,0.0,0.0,0.0,-0.104424584213,0.994532808012,0.346422698746,0.05,0.05,0.0,0.0,1.0,1.0,0,0,,,0
1449618718101925107,171,0,/odom,ucmd_vector,0,0,0,1.76008348114,-0.480694689253,0.0,0.0,0.0,-0.0991680152906,0.995070703389,0.346422698746,0.05,0.05,0.0,0.0,1.0,1.0,0,0,,,0
1449618718147345919,172,0,/odom,ucmd_vector,0,0,0,1.76854928491,-0.482417782344,0.0,0.0,0.0,-0.0939086775133,0.995580815548,0.346422698746,0.05,0.05,0.0,0.0,1.0,1.0,0,0,,,0
1449618718173368837,173,0,/odom,ucmd_vector,0,0,0,1.79118884856,-0.486684122353,0.0,0.0,0.0,-0.0833822828473,0.996517634017,0.346422698746,0.05,0.05,0.0,0.0,1.0,1.0,0,0,,,0
1449618718217982240,174,0,/odom,ucmd_vector,0,0,0,1.79118884856,-0.486684122353,0.0,0.0,0.0,-0.0833822828473,0.996517634017,0.346422698746,0.05,0.05,0.0,0.0,1.0,1.0,0,0,,,0
1449618718260628485,175,0,/odom,ucmd_vector,0,0,0,1.80252262137,-0.488742505676,0.0,0.0,0.0,-0.0833822828473,0.996517634017,0.346422698746,0.05,0.05,0.0,0.0,1.0,1.0,0,0,,,0
1449618718341983160,176,0,/odom,ucmd_vector,0,0,0,1.81389736563,-0.49056089535,0.0,0.0,0.0,-0.07284657583,0.997343158792,0.346422698746,0.05,0.05,0.0,0.0,1.0,1.0,0,0,,,0
1449618718372684472,177,0,/odom,ucmd_vector,0,0,0,1.83953234813,-0.494381578769,0.0,0.0,0.0,-0.0675755978574,0.997714156747,0.346422698746,0.05,0.05,0.0,0.0,1.0,1.0,0,0,,,0
1449618718416087257,178,0,/odom,ucmd_vector,0,0,0,1.84809032394,-0.495564766558,0.0,0.0,0.0,-0.0591339888155,0.998250054529,0.340835397491,0.05,0.05,0.0,0.0,1.0,1.0,0,0,,,0
1449618718488094073,179,0,/odom,ucmd_vector,0,0,0,1.85666032561,-0.496657448855,0.0,0.0,0.0,-0.0538584102396,0.998548582517,0.340835397491,0.05,0.05,0.0,0.0,1.0,1.0,0,0,,,0
1449618718520704669,180,0,/odom,ucmd_vector,0,0,0,1.87954190225,-0.499329445694,0.0,0.0,0.0,-0.0433028891108,0.999061989966,0.340835397491,0.05,0.05,0.0,0.0,1.0,1.0,0,0,,,0
1449618718610190132,181,0,/odom,ucmd_vector,0,0,0,1.89099681,-0.500544532805,0.0,0.0,0.0,-0.0433028891108,0.999061989966,0.340835397491,0.05,0.05,0.0,0.0,1.0,1.0,0,0,,,0
1449618718641420349,182,0,/odom,ucmd_vector,0,0,0,1.90820566381,-0.50209454819,0.0,0.0,0.0,-0.0327425318023,0.999463819561,0.346422698746,0.05,0.05,0.0,0.0,1.0,1.0,0,0,,,0
1449618718690274753,183,0,/odom,ucmd_vector,0,0,0,1.91682141489,-0.502733075132,0.0,0.0,0.0,-0.0274609081281,0.999622878152,0.346422698746,0.05,0.05,0.0,0.0,1.0,1.0,0,0,,,0
1449618718727561614,184,0,/odom,ucmd_vector,0,0,0,1.92830908299,-0.503584444388,0.0,0.0,0.0,-0.0274609081281,0.999622878152,0.346422698746,0.05,0.05,0.0,0.0,1.0,1.0,0,0,,,0
1449618718766190782,185,0,/odom,ucmd_vector,0,0,0,1.93405291704,-0.504010129016,0.0,0.0,0.0,-0.0274609081281,0.999622878152,0.346422698746,0.05,0.05,0.0,0.0,1.0,1.0,0,0,,,0
1449618718809670605,186,0,/odom,ucmd_vector,0,0,0,1.94267493486,-0.50455757032,0.0,0.0,0.0,-0.0190045884327,0.9998193965,0.346422698746,0.05,0.05,0.0,0.0,1.0,1.0,0,0,,,0
1449618718867449509,187,0,/odom,ucmd_vector,0,0,0,1.9513022565,-0.505013864847,0.0,0.0,0.0,-0.0137212776776,0.999905858838,0.346422698746,0.05,0.05,0.0,0.0,1.0,1.0,0,0,,,0
1449618718910412539,188,0,/odom,ucmd_vector,0,0,0,1.96568835971,-0.505622359494,0.0,0.0,0.0,-0.0116120266872,0.999932578145,0.340835397491,0.05,0.05,0.0,0.0,1.0,1.0,0,0,,,0
1449618719014869762,189,0,/odom,ucmd_vector,0,0,0,1.97432339792,-0.505896217769,0.0,0.0,0.0,-0.00632822108368,0.999979976608,0.340835397491,0.05,0.05,0.0,0.0,1.0,1.0,0,0,,,0
1449618719047554080,190,0,/odom,ucmd_vector,0,0,0,1.98871914811,-0.506200533064,0.0,0.0,0.0,-0.00104423879082,0.999999454783,0.340835397491,0.05,0.05,0.0,0.0,1.0,1.0,0,0,,,0
1449618719102798276,191,0,/odom,ucmd_vector,0,0,0,1.99447744819,-0.506322259182,0.0,0.0,0.0,0.00213036313842,0.999997730774,0.346422698746,0.05,0.05,0.0,0.0,1.0,1.0,0,0,,,0
1449618719148178259,192,0,/odom,ucmd_vector,0,0,0,2.00311634555,-0.506413558869,0.0,0.0,0.0,0.00741432115886,0.999972513543,0.346422698746,0.05,0.05,0.0,0.0,1.0,1.0,0,0,,,0
1449618719199607328,193,0,/odom,ucmd_vector,0,0,0,2.01751531188,-0.506413558869,0.0,0.0,0.0,0.0126980721652,0.999919376232,0.340835397491,0.05,0.05,0.0,0.0,1.0,1.0,0,0,,,0
1449618719215981508,194,0,/odom,ucmd_vector,0,0,0,2.02327489841,-0.506413558869,0.0,0.0,0.0,0.0126980721652,0.999919376232,0.340835397491,0.05,0.05,0.0,0.0,1.0,1.0,0,0,,,0
1449618719296704911,195,0,/odom,ucmd_vector,0,0,0,2.02327489841,-0.506413558869,0.0,0.0,0.0,0.0126980721652,0.999919376232,0.340835397491,0.05,0.05,0.0,0.0,1.0,1.0,0,0,,,0
1449618719337030882,196,0,/odom,ucmd_vector,0,0,0,2.03479294581,-0.506261396123,0.0,0.0,0.0,0.023264363038,0.99972934808,0.346422698746,0.05,0.05,0.0,0.0,1.0,1.0,0,0,,,0
1449618719374022055,197,0,/odom,ucmd_vector,0,0,0,2.04342798402,-0.505987537848,0.0,0.0,0.0,0.0285466078848,0.999592462546,0.346422698746,0.05,0.05,0.0,0.0,1.0,1.0,0,0,,,0
1449618719415840908,198,0,/odom,ucmd_vector,0,0,0,2.04342798402,-0.505987537848,0.0,0.0,0.0,0.0317197679227,0.999496801557,0.346422698746,0.05,0.05,0.0,0.0,1.0,1.0,0,0,,,0
1449618719472547468,199,0,/odom,ucmd_vector,0,0,0,2.05494136831,-0.505622393481,0.0,0.0,0.0,0.0317197679227,0.999496801557,0.346422698746,0.05,0.05,0.0,0.0,1.0,1.0,0,0,,,0
1449618719501052756,200,0,/odom,ucmd_vector,0,0,0,2.0664496082,-0.505135624946,0.0,0.0,0.0,0.0454520766986,0.998966520322,0.346422698746,0.05,0.05,0.0,0.0,1.0,1.0,0,0,,,0
1449618719578826150,201,0,/odom,ucmd_vector,0,0,0,2.0664496082,-0.505135624946,0.0,0.0,0.0,0.0454520766986,0.998966520322,0.346422698746,0.05,0.05,0.0,0.0,1.0,1.0,0,0,,,0
1449618719609953763,202,0,/odom,ucmd_vector,0,0,0,2.07795270372,-0.504527232245,0.0,0.0,0.0,0.0422805308926,0.999105778538,0.346422698746,0.05,0.05,0.0,0.0,1.0,1.0,0,0,,,0
1449618719635641973,203,0,/odom,ucmd_vector,0,0,0,2.08370425147,-0.504223035894,0.0,0.0,0.0,0.0422805308926,0.999105778538,0.346422698746,0.05,0.05,0.0,0.0,1.0,1.0,0,0,,,0
1449618719683858121,204,0,/odom,ucmd_vector,0,0,0,2.08657825741,-0.504040555459,0.0,0.0,0.0,0.0602390842053,0.998183977398,0.340835397491,0.05,0.05,0.0,0.0,1.0,1.0,0,0,,,0
1449618719784846978,205,0,/odom,ucmd_vector,0,0,0,2.09519400849,-0.503402028517,0.0,0.0,0.0,0.065512647131,0.99785173902,0.340835397491,0.05,0.05,0.0,0.0,1.0,1.0,0,0,,,0
1449618719824286337,206,0,/odom,ucmd_vector,0,0,0,2.1066816766,-0.502550659261,0.0,0.0,0.0,0.065512647131,0.99785173902,0.340835397491,0.05,0.05,0.0,0.0,1.0,1.0,0,0,,,0
1449618719841772474,207,0,/odom,ucmd_vector,0,0,0,2.11242551065,-0.502124974633,0.0,0.0,0.0,0.065512647131,0.99785173902,0.340835397491,0.05,0.05,0.0,0.0,1.0,1.0,0,0,,,0
1449618719875784407,208,0,/odom,ucmd_vector,0,0,0,2.12103403275,-0.501395433365,0.0,0.0,0.0,0.070784380888,0.997491639776,0.340835397491,0.05,0.05,0.0,0.0,1.0,1.0,0,0,,,0
1449618719914161330,209,0,/odom,ucmd_vector,0,0,0,2.12103403275,-0.501395433365,0.0,0.0,0.0,0.070784380888,0.997491639776,0.340835397491,0.05,0.05,0.0,0.0,1.0,1.0,0,0,,,0
1449618719977225701,210,0,/odom,ucmd_vector,0,0,0,2.12963436446,-0.500574959248,0.0,0.0,0.0,0.076054138285,0.997103689718,0.340835397491,0.05,0.05,0.0,0.0,1.0,1.0,0,0,,,0
1449618719996601959,211,0,/odom,ucmd_vector,0,0,0,2.13536791893,-0.500027976503,0.0,0.0,0.0,0.076054138285,0.997103689718,0.335248096237,0.05,0.05,0.0,0.0,1.0,1.0,0,0,,,0
1449618720049202873,212,0,/odom,ucmd_vector,0,0,0,2.14395909974,-0.49911666117,0.0,0.0,0.0,0.081321772186,0.99668789968,0.335248096237,0.05,0.05,0.0,0.0,1.0,1.0,0,0,,,0
1449618720099859111,213,0,/odom,ucmd_vector,0,0,0,2.14968655361,-0.498509117615,0.0,0.0,0.0,0.081321772186,0.99668789968,0.335248096237,0.05,0.05,0.0,0.0,1.0,1.0,0,0,,,0
1449618720124830208,214,0,/odom,ucmd_vector,0,0,0,2.15254691042,-0.498175099358,0.0,0.0,0.0,0.0865871355141,0.99624428127,0.340835397491,0.05,0.05,0.0,0.0,1.0,1.0,0,0,,,0
1449618720158519904,215,0,/odom,ucmd_vector,0,0,0,2.15541063735,-0.497871327581,0.0,0.0,0.0,0.081321772186,0.99668789968,0.340835397491,0.05,0.05,0.0,0.0,1.0,1.0,0,0,,,0
1449618720216571536,216,0,/odom,ucmd_vector,0,0,0,2.15541063735,-0.497871327581,0.0,0.0,0.0,0.081321772186,0.99668789968,0.340835397491,0.05,0.05,0.0,0.0,1.0,1.0,0,0,,,0
1449618720247733159,217,0,/odom,ucmd_vector,0,0,0,2.16683730625,-0.496414417852,0.0,0.0,0.0,0.0918500812559,0.995772846875,0.340835397491,0.05,0.05,0.0,0.0,1.0,1.0,0,0,,,0
1449618720278336148,218,0,/odom,ucmd_vector,0,0,0,2.1725506407,-0.495685962987,0.0,0.0,0.0,0.0918500812559,0.995772846875,0.340835397491,0.05,0.05,0.0,0.0,1.0,1.0,0,0,,,0
1449618720321125482,219,0,/odom,ucmd_vector,0,0,0,2.17826397515,-0.494957508123,0.0,0.0,0.0,0.0918500812559,0.995772846875,0.340835397491,0.05,0.05,0.0,0.0,1.0,1.0,0,0,,,0
1449618720375750811,220,0,/odom,ucmd_vector,0,0,0,2.18111663375,-0.494563112193,0.0,0.0,0.0,0.0971104624655,0.995273609657,0.340835397491,0.05,0.05,0.0,0.0,1.0,1.0,0,0,,,0
1449618720413990126,221,0,/odom,ucmd_vector,0,0,0,2.18397330097,-0.494198884761,0.0,0.0,0.0,0.0918500812559,0.995772846875,0.335248096237,0.05,0.05,0.0,0.0,1.0,1.0,0,0,,,0
1449618720471184909,222,0,/odom,ucmd_vector,0,0,0,2.18682595958,-0.493804488831,0.0,0.0,0.0,0.0971104624655,0.995273609657,0.335248096237,0.05,0.05,0.0,0.0,1.0,1.0,0,0,,,0
1449618720494101998,223,0,/odom,ucmd_vector,0,0,0,2.19253127678,-0.493015696972,0.0,0.0,0.0,0.106584710822,0.994303625367,0.335248096237,0.05,0.05,0.0,0.0,1.0,1.0,0,0,,,0
1449618720513005673,224,0,/odom,ucmd_vector,0,0,0,2.19253127678,-0.493015696972,0.0,0.0,0.0,0.106584710822,0.994303625367,0.335248096237,0.05,0.05,0.0,0.0,1.0,1.0,0,0,,,0
1449618720563065911,225,0,/odom,ucmd_vector,0,0,0,2.19537960817,-0.492591176592,0.0,0.0,0.0,0.111837122964,0.993726550882,0.335248096237,0.05,0.05,0.0,0.0,1.0,1.0,0,0,,,0
1449618720592021314,226,0,/odom,ucmd_vector,0,0,0,2.19537960817,-0.492591176592,0.0,0.0,0.0,0.102368132269,0.994746583556,0.340835397491,0.05,0.05,0.0,0.0,1.0,1.0,0,0,,,0
1449618720674911075,227,0,/odom,ucmd_vector,0,0,0,2.19823226677,-0.492196780663,0.0,0.0,0.0,0.0971104624655,0.995273609657,0.340835397491,0.05,0.05,0.0,0.0,1.0,1.0,0,0,,,0
1449618720724401360,228,0,/odom,ucmd_vector,0,0,0,2.20108059816,-0.491772260283,0.0,0.0,0.0,0.102368132269,0.994746583556,0.340835397491,0.05,0.05,0.0,0.0,1.0,1.0,0,0,,,0
1449618720768559098,229,0,/odom,ucmd_vector,0,0,0,2.20108059816,-0.491772260283,0.0,0.0,0.0,0.0770744297208,0.997025341846,0.346422698746,0.05,0.05,0.0,0.0,1.0,1.0,0,0,,,0
1449618720836488259,230,0,/odom,ucmd_vector,0,0,0,2.20108059816,-0.491772260283,0.0,0.0,0.0,0.0802391960207,0.996775637454,0.340835397491,0.05,0.05,0.0,0.0,1.0,1.0,0,0,,,0
1449618720854224505,231,0,/odom,ucmd_vector,0,0,0,2.20108059816,-0.491772260283,0.0,0.0,0.0,0.0802391960207,0.996775637454,0.340835397491,0.05,0.05,0.0,0.0,1.0,1.0,0,0,,,0
1449618720898711907,232,0,/odom,ucmd_vector,0,0,0,2.20108059816,-0.491772260283,0.0,0.0,0.0,0.0834031532908,0.996515887491,0.340835397491,0.05,0.05,0.0,0.0,1.0,1.0,0,0,,,0
1449618720919987556,233,0,/odom,ucmd_vector,0,0,0,2.20108059816,-0.491772260283,0.0,0.0,0.0,0.0834031532908,0.996515887491,0.340835397491,0.05,0.05,0.0,0.0,1.0,1.0,0,0,,,0
1449618720972144827,234,0,/odom,ucmd_vector,0,0,0,2.20108059816,-0.491772260283,0.0,0.0,0.0,0.0834031532908,0.996515887491,0.340835397491,0.05,0.05,0.0,0.0,1.0,1.0,0,0,,,0
1449618721008765262,235,0,/odom,ucmd_vector,0,0,0,2.20108059816,-0.491772260283,0.0,0.0,0.0,0.0834031532908,0.996515887491,0.340835397491,0.05,0.05,0.0,0.0,1.0,1.0,0,0,,,0
1449618721090053699,236,0,/odom,ucmd_vector,0,0,0,2.20108059816,-0.491772260283,0.0,0.0,0.0,0.0834031532908,0.996515887491,0.340835397491,0.05,0.05,0.0,0.0,1.0,1.0,0,0,,,0
1449618721148463798,237,0,/odom,ucmd_vector,0,0,0,2.20108059816,-0.491772260283,0.0,0.0,0.0,0.102368132269,0.994746583556,0.335248096237,0.05,0.05,0.0,0.0,1.0,1.0,0,0,,,0
1449618721195037603,238,0,/odom,ucmd_vector,0,0,0,2.20108059816,-0.491772260283,0.0,0.0,0.0,0.102368132269,0.994746583556,0.335248096237,0.05,0.05,0.0,0.0,1.0,1.0,0,0,,,0
1449618721244331906,239,0,/odom,ucmd_vector,0,0,0,2.20108059816,-0.491772260283,0.0,0.0,0.0,0.133890506408,0.990996131321,0.329660794983,0.05,0.05,0.0,0.0,1.0,1.0,0,0,,,0
1449618721275366199,240,0,/odom,ucmd_vector,0,0,0,2.20108059816,-0.491772260283,0.0,0.0,0.0,0.133890506408,0.990996131321,0.329660794983,0.05,0.05,0.0,0.0,1.0,1.0,0,0,,,0
1449618721327167080,241,0,/odom,ucmd_vector,0,0,0,2.20108059816,-0.491772260283,0.0,0.0,0.0,0.0834031532908,0.996515887491,0.078232222805,0.05,0.05,0.0,0.0,1.0,1.0,0,0,,,0
1449618721346886871,242,0,/odom,ucmd_vector,0,0,0,2.20108059816,-0.491772260283,0.0,0.0,0.0,0.0834031532908,0.996515887491,0.078232222805,0.05,0.05,0.0,0.0,1.0,1.0,0,0,,,0
1449618721397889364,243,0,/odom,ucmd_vector,0,0,0,2.20108059816,-0.491772260283,0.0,0.0,0.0,0.0834031532908,0.996515887491,0.346422698746,0.05,0.05,0.0,0.0,1.0,1.0,0,0,,,0
1449618721454019485,244,0,/odom,ucmd_vector,0,0,0,2.20108059816,-0.491772260283,0.0,0.0,0.0,0.0834031532908,0.996515887491,0.346422698746,0.05,0.05,0.0,0.0,1.0,1.0,0,0,,,0
1449618721490596621,245,0,/odom,ucmd_vector,0,0,0,2.20108059816,-0.491772260283,0.0,0.0,0.0,0.0834031532908,0.996515887491,0.346422698746,0.05,0.05,0.0,0.0,1.0,1.0,0,0,,,0
1449618721534049420,246,0,/odom,ucmd_vector,0,0,0,2.20392428423,-0.491317662864,0.0,0.0,0.0,0.117086412519,0.993121730708,0.340835397491,0.05,0.05,0.0,0.0,1.0,1.0,0,0,,,0
1449618721562231450,247,0,/odom,ucmd_vector,0,0,0,2.20677261562,-0.490893142484,0.0,0.0,0.0,0.111837122964,0.993726550882,0.340835397491,0.05,0.05,0.0,0.0,1.0,1.0,0,0,,,0
1449618721620840325,248,0,/odom,ucmd_vector,0,0,0,2.20961630168,-0.490438545066,0.0,0.0,0.0,0.117086412519,0.993121730708,0.335248096237,0.05,0.05,0.0,0.0,1.0,1.0,0,0,,,0
1449618721654213813,249,0,/odom,ucmd_vector,0,0,0,2.20961630168,-0.490438545066,0.0,0.0,0.0,0.117086412519,0.993121730708,0.335248096237,0.05,0.05,0.0,0.0,1.0,1.0,0,0,,,0
1449618721664169802,250,0,/odom,ucmd_vector,0,0,0,2.21245502484,-0.489953921379,0.0,0.0,0.0,0.122332432921,0.992489181732,0.335248096237,0.05,0.05,0.0,0.0,1.0,1.0,0,0,,,0
1449618721690358803,251,0,/odom,ucmd_vector,0,0,0,2.21245502484,-0.489953921379,0.0,0.0,0.0,0.122332432921,0.992489181732,0.335248096237,0.05,0.05,0.0,0.0,1.0,1.0,0,0,,,0
1449618721743015219,252,0,/odom,ucmd_vector,0,0,0,2.2152987109,-0.48949932396,0.0,0.0,0.0,0.117086412519,0.993121730708,0.335248096237,0.05,0.05,0.0,0.0,1.0,1.0,0,0,,,0
1449618721785523103,253,0,/odom,ucmd_vector,0,0,0,2.21813743405,-0.489014700274,0.0,0.0,0.0,0.122332432921,0.992489181732,0.335248096237,0.05,0.05,0.0,0.0,1.0,1.0,0,0,,,0
1449618721802648402,254,0,/odom,ucmd_vector,0,0,0,2.22381488036,-0.4880454529,0.0,0.0,0.0,0.122332432921,0.992489181732,0.335248096237,0.05,0.05,0.0,0.0,1.0,1.0,0,0,,,0
1449618721889216203,255,0,/odom,ucmd_vector,0,0,0,2.22664832356,-0.487530857069,0.0,0.0,0.0,0.127575037699,0.991828921617,0.335248096237,0.05,0.05,0.0,0.0,1.0,1.0,0,0,,,0
1449618721942372174,256,0,/odom,ucmd_vector,0,0,0,2.23514305678,-0.485957154905,0.0,0.0,0.0,0.132814080473,0.991140968797,0.335248096237,0.05,0.05,0.0,0.0,1.0,1.0,0,0,,,0
1449618722001846469,257,0,/odom,ucmd_vector,0,0,0,2.23797649998,-0.485442559074,0.0,0.0,0.0,0.127575037699,0.991828921617,0.335248096237,0.05,0.05,0.0,0.0,1.0,1.0,0,0,,,0
1449618722035905238,258,0,/odom,ucmd_vector,0,0,0,2.24928197499,-0.4832346632,0.0,0.0,0.0,0.125461793906,0.992098451904,0.340835397491,0.05,0.05,0.0,0.0,1.0,1.0,0,0,,,0
1449618722049081551,259,0,/odom,ucmd_vector,0,0,0,2.25776551541,-0.48160113169,0.0,0.0,0.0,0.123368762666,0.992360896246,0.340835397491,0.05,0.05,0.0,0.0,1.0,1.0,0,0,,,0
1449618722092783561,260,0,/odom,ucmd_vector,0,0,0,2.25776551541,-0.48160113169,0.0,0.0,0.0,0.123368762666,0.992360896246,0.340835397491,0.05,0.05,0.0,0.0,1.0,1.0,0,0,,,0
1449618722154851165,261,0,/odom,ucmd_vector,0,0,0,2.26058745,-0.481026767327,0.0,0.0,0.0,0.128610675115,0.991695161956,0.340835397491,0.05,0.05,0.0,0.0,1.0,1.0,0,0,,,0
1449618722178156522,262,0,/odom,ucmd_vector,0,0,0,2.27466598606,-0.47800599694,0.0,0.0,0.0,0.133848996645,0.991001738695,0.340835397491,0.05,0.05,0.0,0.0,1.0,1.0,0,0,,,0
1449618722221866043,263,0,/odom,ucmd_vector,0,0,0,2.27466598606,-0.47800599694,0.0,0.0,0.0,0.13070229038,0.991421661701,0.340835397491,0.05,0.05,0.0,0.0,1.0,1.0,0,0,,,0
1449618722296776126,264,0,/odom,ucmd_vector,0,0,0,2.28309348217,-0.476104367987,0.0,0.0,0.0,0.135939137535,0.990717190164,0.340835397491,0.05,0.05,0.0,0.0,1.0,1.0,0,0,,,0
1449618722349109409,265,0,/odom,ucmd_vector,0,0,0,2.29711874228,-0.472846032057,0.0,0.0,0.0,0.144314282019,0.98953190348,0.340835397491,0.05,0.05,0.0,0.0,1.0,1.0,0,0,,,0
1449618722375633255,266,0,/odom,ucmd_vector,0,0,0,2.31110878558,-0.469439661204,0.0,0.0,0.0,0.149540953663,0.988755532565,0.340835397491,0.05,0.05,0.0,0.0,1.0,1.0,0,0,,,0
1449618722405142138,267,0,/odom,ucmd_vector,0,0,0,2.31110878558,-0.469439661204,0.0,0.0,0.0,0.136973608001,0.990574697189,0.346422698746,0.05,0.05,0.0,0.0,1.0,1.0,0,0,,,0
1449618722427344953,268,0,/odom,ucmd_vector,0,0,0,2.31947176716,-0.467271846076,0.0,0.0,0.0,0.142205892246,0.989837099835,0.346422698746,0.05,0.05,0.0,0.0,1.0,1.0,0,0,,,0
1449618722472585799,269,0,/odom,ucmd_vector,0,0,0,2.31947176716,-0.467271846076,0.0,0.0,0.0,0.132772565382,0.991146530984,0.346422698746,0.05,0.05,0.0,0.0,1.0,1.0,0,0,,,0
1449618722498160409,270,0,/odom,ucmd_vector,0,0,0,2.33338669364,-0.463570563164,0.0,0.0,0.0,0.138007929845,0.990431123956,0.346422698746,0.05,0.05,0.0,0.0,1.0,1.0,0,0,,,0
1449618722552516908,271,0,/odom,ucmd_vector,0,0,0,2.33338669364,-0.463570563164,0.0,0.0,0.0,0.138007929845,0.990431123956,0.346422698746,0.05,0.05,0.0,0.0,1.0,1.0,0,0,,,0
1449618722572987675,272,0,/odom,ucmd_vector,0,0,0,2.34726172848,-0.459722436055,0.0,0.0,0.0,0.143239441009,0.98968806325,0.346422698746,0.05,0.05,0.0,0.0,1.0,1.0,0,0,,,0
1449618722607691427,273,0,/odom,ucmd_vector,0,0,0,2.34726172848,-0.459722436055,0.0,0.0,0.0,0.143239441009,0.98968806325,0.346422698746,0.05,0.05,0.0,0.0,1.0,1.0,0,0,,,0
1449618722670502222,274,0,/odom,ucmd_vector,0,0,0,2.35834879233,-0.456596997975,0.0,0.0,0.0,0.143239441009,0.98968806325,0.346422698746,0.05,0.05,0.0,0.0,1.0,1.0,0,0,,,0
1449618722691189356,275,0,/odom,ucmd_vector,0,0,0,2.37490275362,-0.451645880627,0.0,0.0,0.0,0.150552663995,0.98860199037,0.346422698746,0.05,0.05,0.0,0.0,1.0,1.0,0,0,,,0
1449618722726987974,276,0,/odom,ucmd_vector,0,0,0,2.37490275362,-0.451645880627,0.0,0.0,0.0,0.150552663995,0.98860199037,0.346422698746,0.05,0.05,0.0,0.0,1.0,1.0,0,0,,,0
1449618722769192780,277,0,/odom,ucmd_vector,0,0,0,2.38592128643,-0.448286820828,0.0,0.0,0.0,0.150552663995,0.98860199037,0.346422698746,0.05,0.05,0.0,0.0,1.0,1.0,0,0,,,0
1449618722812322123,278,0,/odom,ucmd_vector,0,0,0,2.39415810104,-0.445680334993,0.0,0.0,0.0,0.155774334888,0.987792668828,0.346422698746,0.05,0.05,0.0,0.0,1.0,1.0,0,0,,,0
1449618722850049826,279,0,/odom,ucmd_vector,0,0,0,2.40236691073,-0.442986949269,0.0,0.0,0.0,0.160991656429,0.986955767276,0.346422698746,0.05,0.05,0.0,0.0,1.0,1.0,0,0,,,0
1449618722899921706,280,0,/odom,ucmd_vector,0,0,0,2.41331199033,-0.439395768304,0.0,0.0,0.0,0.157857657354,0.987461877753,0.346422698746,0.05,0.05,0.0,0.0,1.0,1.0,0,0,,,0
1449618722964832367,281,0,/odom,ucmd_vector,0,0,0,2.42149187833,-0.436615783497,0.0,0.0,0.0,0.163073201911,0.986613972544,0.346422698746,0.05,0.05,0.0,0.0,1.0,1.0,0,0,,,0
1449618722973759525,282,0,/odom,ucmd_vector,0,0,0,2.44054844843,-0.430042863673,0.0,0.0,0.0,0.165154021774,0.986267787719,0.346422698746,0.05,0.05,0.0,0.0,1.0,1.0,0,0,,,0
1449618723013059216,283,0,/odom,ucmd_vector,0,0,0,2.44054844843,-0.430042863673,0.0,0.0,0.0,0.165154021774,0.986267787719,0.346422698746,0.05,0.05,0.0,0.0,1.0,1.0,0,0,,,0
1449618723050509142,284,0,/odom,ucmd_vector,0,0,0,2.45141518544,-0.426221165787,0.0,0.0,0.0,0.165154021774,0.986267787719,0.346422698746,0.05,0.05,0.0,0.0,1.0,1.0,0,0,,,0
1449618723087291025,285,0,/odom,ucmd_vector,0,0,0,2.45953449274,-0.423268923878,0.0,0.0,0.0,0.173490486104,0.984835545272,0.346422698746,0.05,0.05,0.0,0.0,1.0,1.0,0,0,,,0
1449618723128817989,286,0,/odom,ucmd_vector,0,0,0,2.47036023581,-0.419332601332,0.0,0.0,0.0,0.173490486104,0.984835545272,0.346422698746,0.05,0.05,0.0,0.0,1.0,1.0,0,0,,,0
1449618723168385095,287,0,/odom,ucmd_vector,0,0,0,2.47577310734,-0.417364440059,0.0,0.0,0.0,0.173490486104,0.984835545272,0.346422698746,0.05,0.05,0.0,0.0,1.0,1.0,0,0,,,0
1449618723208871768,288,0,/odom,ucmd_vector,0,0,0,2.4865988504,-0.413428117513,0.0,0.0,0.0,0.173490486104,0.984835545272,0.346422698746,0.05,0.05,0.0,0.0,1.0,1.0,0,0,,,0
1449618723283289132,289,0,/odom,ucmd_vector,0,0,0,2.50007827548,-0.40836498303,0.0,0.0,0.0,0.17869193488,0.983905072865,0.346422698746,0.05,0.05,0.0,0.0,1.0,1.0,0,0,,,0
1449618723323360301,290,0,/odom,ucmd_vector,0,0,0,2.51625358558,-0.40228922165,0.0,0.0,0.0,0.17869193488,0.983905072865,0.35201,0.05,0.05,0.0,0.0,1.0,1.0,0,0,,,0
1449618723353199166,291,0,/odom,ucmd_vector,0,0,0,2.52703712565,-0.398238714064,0.0,0.0,0.0,0.17869193488,0.983905072865,0.35201,0.05,0.05,0.0,0.0,1.0,1.0,0,0,,,0
1449618723385015915,292,0,/odom,ucmd_vector,0,0,0,2.53782066571,-0.394188206477,0.0,0.0,0.0,0.17869193488,0.983905072865,0.173216349373,0.05,0.05,0.0,0.0,1.0,1.0,0,0,,,0
1449618723411495276,293,0,/odom,ucmd_vector,0,0,0,2.53782066571,-0.394188206477,0.0,0.0,0.0,0.17869193488,0.983905072865,0.173216349373,0.05,0.05,0.0,0.0,1.0,1.0,0,0,,,0
1449618723454270185,294,0,/odom,ucmd_vector,0,0,0,2.54321243575,-0.392162952684,0.0,0.0,0.0,0.17869193488,0.983905072865,0.173216349373,0.05,0.05,0.0,0.0,1.0,1.0,0,0,,,0
1449618723505036497,295,0,/odom,ucmd_vector,0,0,0,2.55399597581,-0.388112445097,0.0,0.0,0.0,0.17869193488,0.983905072865,0.189978263626,0.05,0.05,0.0,0.0,1.0,1.0,0,0,,,0
1449618723543345827,296,0,/odom,ucmd_vector,0,0,0,2.56477951588,-0.384061937511,0.0,0.0,0.0,0.17869193488,0.983905072865,0.189978263626,0.05,0.05,0.0,0.0,1.0,1.0,0,0,,,0
1449618723593811683,297,0,/odom,ucmd_vector,0,0,0,2.57556305594,-0.380011429924,0.0,0.0,0.0,0.17869193488,0.983905072865,0.189978263626,0.05,0.05,0.0,0.0,1.0,1.0,0,0,,,0
1449618723626259533,298,0,/odom,ucmd_vector,0,0,0,2.59713013607,-0.371910414751,0.0,0.0,0.0,0.181814537544,0.983332839855,0.35201,0.05,0.05,0.0,0.0,1.0,1.0,0,0,,,0
1449618723672061178,299,0,/odom,ucmd_vector,0,0,0,2.59713013607,-0.371910414751,0.0,0.0,0.0,0.181814537544,0.983332839855,0.35201,0.05,0.05,0.0,0.0,1.0,1.0,0,0,,,0
1449618723709719381,300,0,/odom,ucmd_vector,0,0,0,2.61330544617,-0.365834653371,0.0,0.0,0.0,0.17869193488,0.983905072865,0.173216349373,0.05,0.05,0.0,0.0,1.0,1.0,0,0,,,0
1449618723794106847,301,0,/odom,ucmd_vector,0,0,0,2.62408898624,-0.361784145785,0.0,0.0,0.0,0.17869193488,0.983905072865,0.173216349373,0.05,0.05,0.0,0.0,1.0,1.0,0,0,,,0
1449618723808394175,302,0,/odom,ucmd_vector,0,0,0,2.64288421852,-0.354496725337,0.0,0.0,0.0,0.180767005788,0.983525947608,0.346422698746,0.05,0.05,0.0,0.0,1.0,1.0,0,0,,,0
1449618723815972380,303,0,/odom,ucmd_vector,0,0,0,2.64288421852,-0.354496725337,0.0,0.0,0.0,0.180767005788,0.983525947608,0.346422698746,0.05,0.05,0.0,0.0,1.0,1.0,0,0,,,0
1449618723851835824,304,0,/odom,ucmd_vector,0,0,0,2.64288421852,-0.354496725337,0.0,0.0,0.0,0.180767005788,0.983525947608,0.346422698746,0.05,0.05,0.0,0.0,1.0,1.0,0,0,,,0
1449618723885702590,305,0,/odom,ucmd_vector,0,0,0,2.64825428489,-0.352414605209,0.0,0.0,0.0,0.180767005788,0.983525947608,0.346422698746,0.05,0.05,0.0,0.0,1.0,1.0,0,0,,,0
1449618723930987107,306,0,/odom,ucmd_vector,0,0,0,2.65899441763,-0.348250364952,0.0,0.0,0.0,0.180767005788,0.983525947608,0.346422698746,0.05,0.05,0.0,0.0,1.0,1.0,0,0,,,0
1449618723973375102,307,0,/odom,ucmd_vector,0,0,0,2.66973455036,-0.344086124696,0.0,0.0,0.0,0.180767005788,0.983525947608,0.346422698746,0.05,0.05,0.0,0.0,1.0,1.0,0,0,,,0
1449618724008238660,308,0,/odom,ucmd_vector,0,0,0,2.68047468309,-0.33992188444,0.0,0.0,0.0,0.180767005788,0.983525947608,0.346422698746,0.05,0.05,0.0,0.0,1.0,1.0,0,0,,,0
1449618724047742719,309,0,/odom,ucmd_vector,0,0,0,2.68584474946,-0.337839764312,0.0,0.0,0.0,0.180767005788,0.983525947608,0.346422698746,0.05,0.05,0.0,0.0,1.0,1.0,0,0,,,0
1449618724094220324,310,0,/odom,ucmd_vector,0,0,0,2.6965848822,-0.333675524056,0.0,0.0,0.0,0.180767005788,0.983525947608,0.346422698746,0.05,0.05,0.0,0.0,1.0,1.0,0,0,,,0
1449618724133770712,311,0,/odom,ucmd_vector,0,0,0,2.70460652663,-0.330467393167,0.0,0.0,0.0,0.185961433067,0.982557044355,0.346422698746,0.05,0.05,0.0,0.0,1.0,1.0,0,0,,,0
1449618724182367187,312,0,/odom,ucmd_vector,0,0,0,2.71266162618,-0.327344212975,0.0,0.0,0.0,0.180767005788,0.983525947608,0.346422698746,0.05,0.05,0.0,0.0,1.0,1.0,0,0,,,0
1449618724211660383,313,0,/odom,ucmd_vector,0,0,0,2.72068327062,-0.324136082086,0.0,0.0,0.0,0.185961433067,0.982557044355,0.346422698746,0.05,0.05,0.0,0.0,1.0,1.0,0,0,,,0
1449618724250360307,314,0,/odom,ucmd_vector,0,0,0,2.73137879654,-0.319858574234,0.0,0.0,0.0,0.185961433067,0.982557044355,0.346422698746,0.05,0.05,0.0,0.0,1.0,1.0,0,0,,,0
1449618724294139589,315,0,/odom,ucmd_vector,0,0,0,2.7367265595,-0.317719820307,0.0,0.0,0.0,0.185961433067,0.982557044355,0.346422698746,0.05,0.05,0.0,0.0,1.0,1.0,0,0,,,0
1449618724328461236,316,0,/odom,ucmd_vector,0,0,0,2.74471385294,-0.314427097013,0.0,0.0,0.0,0.191150668145,0.981560707276,0.346422698746,0.05,0.05,0.0,0.0,1.0,1.0,0,0,,,0
1449618724371380339,317,0,/odom,ucmd_vector,0,0,0,2.75273549738,-0.311218966124,0.0,0.0,0.0,0.185961433067,0.982557044355,0.346422698746,0.05,0.05,0.0,0.0,1.0,1.0,0,0,,,0
1449618724407407596,318,0,/odom,ucmd_vector,0,0,0,2.75808326034,-0.309080212198,0.0,0.0,0.0,0.182841272345,0.983142446,0.346422698746,0.05,0.05,0.0,0.0,1.0,1.0,0,0,,,0
1449618724447516916,319,0,/odom,ucmd_vector,0,0,0,2.76607055378,-0.305787488904,0.0,0.0,0.0,0.188033644244,0.982162587677,0.346422698746,0.05,0.05,0.0,0.0,1.0,1.0,0,0,,,0
1449618724491967719,320,0,/odom,ucmd_vector,0,0,0,2.77672027838,-0.301397191179,0.0,0.0,0.0,0.181793942811,0.983336647521,0.340835397491,0.05,0.05,0.0,0.0,1.0,1.0,0,0,,,0
1449618724529027966,321,0,/odom,ucmd_vector,0,0,0,2.78204514068,-0.299202042316,0.0,0.0,0.0,0.181793942811,0.983336647521,0.340835397491,0.05,0.05,0.0,0.0,1.0,1.0,0,0,,,0
1449618724569205958,322,0,/odom,ucmd_vector,0,0,0,2.79269486527,-0.294811744591,0.0,0.0,0.0,0.181793942811,0.983336647521,0.340835397491,0.05,0.05,0.0,0.0,1.0,1.0,0,0,,,0
1449618724609691181,323,0,/odom,ucmd_vector,0,0,0,2.80334458986,-0.290421446866,0.0,0.0,0.0,0.103261012699,0.994654293338,0.324073493729,0.05,0.05,0.0,0.0,1.0,1.0,0,0,,,0
1449618724652708464,324,0,/odom,ucmd_vector,0,0,0,2.80866945216,-0.288226298003,0.0,0.0,0.0,0.103261012699,0.994654293338,0.324073493729,0.05,0.05,0.0,0.0,1.0,1.0,0,0,,,0
1449618724689955207,325,0,/odom,ucmd_vector,0,0,0,2.81662150257,-0.284849350044,0.0,0.0,0.0,0.0579033733641,0.998322192157,0.251438577423,0.05,0.05,0.0,0.0,1.0,1.0,0,0,,,0
1449618724733889710,326,0,/odom,ucmd_vector,0,0,0,2.82460879602,-0.28155662675,0.0,0.0,0.0,0.0526274307929,0.998614216566,0.251438577423,0.05,0.05,0.0,0.0,1.0,1.0,0,0,,,0
1449618724774824585,327,0,/odom,ucmd_vector,0,0,0,2.82993365832,-0.279361477888,0.0,0.0,0.0,0.0526274307929,0.998614216566,0.251438577423,0.05,0.05,0.0,0.0,1.0,1.0,0,0,,,0
1449618724822543638,328,0,/odom,ucmd_vector,0,0,0,2.82993365832,-0.279361477888,0.0,0.0,0.0,0.0272515562902,0.999628607374,0.301724288712,0.05,0.05,0.0,0.0,1.0,1.0,0,0,,,0
1449618724846035684,329,0,/odom,ucmd_vector,0,0,0,2.85378980956,-0.269230634011,0.0,0.0,0.0,0.0325332131602,0.999470654918,0.301724288712,0.05,0.05,0.0,0.0,1.0,1.0,0,0,,,0
1449618724902921655,330,0,/odom,ucmd_vector,0,0,0,2.86439254344,-0.264728036733,0.0,0.0,0.0,0.0325332131602,0.999470654918,0.296136987457,0.05,0.05,0.0,0.0,1.0,1.0,0,0,,,0
1449618724928923669,331,0,/odom,ucmd_vector,0,0,0,2.87499527732,-0.260225439454,0.0,0.0,0.0,0.0325332131602,0.999470654918,0.296136987457,0.05,0.05,0.0,0.0,1.0,1.0,0,0,,,0
1449618724967893444,332,0,/odom,ucmd_vector,0,0,0,2.88029664427,-0.257974140815,0.0,0.0,0.0,0.0325332131602,0.999470654918,0.296136987457,0.05,0.05,0.0,0.0,1.0,1.0,0,0,,,0
1449618725012530669,333,0,/odom,ucmd_vector,0,0,0,2.89089937815,-0.253471543537,0.0,0.0,0.0,0.0325332131602,0.999470654918,0.296136987457,0.05,0.05,0.0,0.0,1.0,1.0,0,0,,,0
1449618725051434538,334,0,/odom,ucmd_vector,0,0,0,2.90150211203,-0.248968946259,0.0,0.0,0.0,0.0325332131602,0.999470654918,0.296136987457,0.05,0.05,0.0,0.0,1.0,1.0,0,0,,,0
1449618725094614932,335,0,/odom,ucmd_vector,0,0,0,2.91210484592,-0.24446634898,0.0,0.0,0.0,0.0325332131602,0.999470654918,0.296136987457,0.05,0.05,0.0,0.0,1.0,1.0,0,0,,,0
1449618725127755804,336,0,/odom,ucmd_vector,0,0,0,2.91740621286,-0.242215050341,0.0,0.0,0.0,0.0325332131602,0.999470654918,0.296136987457,0.05,0.05,0.0,0.0,1.0,1.0,0,0,,,0
1449618725165158020,337,0,/odom,ucmd_vector,0,0,0,2.92800894674,-0.237712453063,0.0,0.0,0.0,0.0325332131602,0.999470654918,0.296136987457,0.05,0.05,0.0,0.0,1.0,1.0,0,0,,,0
1449618725207000302,338,0,/odom,ucmd_vector,0,0,0,2.93861168063,-0.233209855784,0.0,0.0,0.0,0.0325332131602,0.999470654918,0.296136987457,0.05,0.05,0.0,0.0,1.0,1.0,0,0,,,0
1449618725245278130,339,0,/odom,ucmd_vector,0,0,0,2.94921441451,-0.228707258506,0.0,0.0,0.0,0.0325332131602,0.999470654918,0.296136987457,0.05,0.05,0.0,0.0,1.0,1.0,0,0,,,0
1449618725286681084,340,0,/odom,ucmd_vector,0,0,0,2.95720170796,-0.225414535212,0.0,0.0,0.0,0.0240780003374,0.999710082924,0.301724288712,0.05,0.05,0.0,0.0,1.0,1.0,0,0,,,0
1449618725324869180,341,0,/odom,ucmd_vector,0,0,0,2.96785143255,-0.221024237487,0.0,0.0,0.0,0.0240780003374,0.999710082924,0.301724288712,0.05,0.05,0.0,0.0,1.0,1.0,0,0,,,0
1449618725365706078,342,0,/odom,ucmd_vector,0,0,0,2.97317629485,-0.218829088624,0.0,0.0,0.0,0.0240780003374,0.999710082924,0.301724288712,0.05,0.05,0.0,0.0,1.0,1.0,0,0,,,0
1449618725406567333,343,0,/odom,ucmd_vector,0,0,0,2.98382601944,-0.214438790899,0.0,0.0,0.0,0.0272515562902,0.999628607374,0.296136987457,0.05,0.05,0.0,0.0,1.0,1.0,0,0,,,0
1449618725447860695,344,0,/odom,ucmd_vector,0,0,0,2.99719542684,-0.209091906083,0.0,0.0,0.0,0.0219691385336,0.999758649351,0.296136987457,0.05,0.05,0.0,0.0,1.0,1.0,0,0,,,0
1449618725492903492,345,0,/odom,ucmd_vector,0,0,0,3.00789095275,-0.204814398231,0.0,0.0,0.0,0.0187951963682,0.999823354695,0.301724288712,0.05,0.05,0.0,0.0,1.0,1.0,0,0,,,0
1449618725528749197,346,0,/odom,ucmd_vector,0,0,0,3.01323871571,-0.202675644305,0.0,0.0,0.0,0.0187951963682,0.999823354695,0.301724288712,0.05,0.05,0.0,0.0,1.0,1.0,0,0,,,0
1449618725570567333,347,0,/odom,ucmd_vector,0,0,0,3.02129381526,-0.199552464113,0.0,0.0,0.0,0.0135118676213,0.99990871055,0.301724288712,0.05,0.05,0.0,0.0,1.0,1.0,0,0,,,0
1449618725610877251,348,0,/odom,ucmd_vector,0,0,0,3.032033948,-0.195388223857,0.0,0.0,0.0,0.0135118676213,0.99990871055,0.301724288712,0.05,0.05,0.0,0.0,1.0,1.0,0,0,,,0
