%time,field.header.seq,field.header.stamp,field.header.frame_id,field.command.linear.x,field.command.linear.y,field.command.linear.z,field.command.angular.x,field.command.angular.y,field.command.angular.z,field.goal_source
1449618702635299538,8,1449618702634757844,base_footprint,0.0,0.0,0.0,0.0,0.0,0.0,teleoperation
1449618702668888450,9,1449618702668089706,base_footprint,0.0,0.0,0.0,0.0,0.0,0.0,teleoperation
1449618702702345972,10,1449618702701423860,base_footprint,0.0,0.0,0.0,0.0,0.0,0.0,teleoperation
1449618702735465465,11,1449618702734756012,base_footprint,-0.0,0.0,0.0,0.0,0.0,-0.0,teleoperation
1449618702768799105,12,1449618702768090790,base_footprint,-0.0,0.0,0.0,0.0,0.0,-0.0,teleoperation
1449618702802560052,13,1449618702801424135,base_footprint,-0.0,0.0,0.0,0.0,0.0,-0.0,teleoperation
1449618702835327846,14,1449618702834762982,base_footprint,-0.0,0.0,0.0,0.0,0.0,-0.0,teleoperation
1449618702868680668,15,1449618702868086894,base_footprint,-0.0,0.0,0.0,0.0,0.0,-0.0,teleoperation
1449618702902004236,16,1449618702901421652,base_footprint,-0.0,0.0,0.0,0.0,0.0,-0.0,teleoperation
1449618702936135355,17,1449618702934756107,base_footprint,-0.0,0.0,0.0,0.0,0.0,-0.0,teleoperation
1449618702968837600,18,1449618702968068026,base_footprint,-0.0,0.0,0.0,0.0,0.0,-0.0,teleoperation
1449618703002171261,19,1449618703001421603,base_footprint,-0.0,0.0,0.0,0.0,0.0,-0.0,teleoperation
1449618703035271699,20,1449618703034755854,base_footprint,-0.0,0.0,0.0,0.0,0.0,-0.0,teleoperation
1449618703068795303,21,1449618703068086950,base_footprint,-0.0,0.0,0.0,0.0,0.0,-0.0,teleoperation
1449618703103161911,22,1449618703101425613,base_footprint,-0.0,0.0,0.0,0.0,0.0,-0.0,teleoperation
1449618703135295590,23,1449618703134756696,base_footprint,-0.0,0.0,0.0,0.0,0.0,-0.0,teleoperation
1449618703168734172,24,1449618703168097381,base_footprint,-0.0,0.0,0.0,0.0,0.0,-0.0,teleoperation
1449618703202316609,25,1449618703201429156,base_footprint,-0.0,0.0,0.0,0.0,0.0,-0.0,teleoperation
1449618703235331310,26,1449618703234766417,base_footprint,-0.0,0.0,0.0,0.0,0.0,-0.0,teleoperation
1449618703268621619,27,1449618703268102080,base_footprint,-0.0,0.0,0.0,0.0,0.0,-0.0,teleoperation
1449618703302188871,28,1449618703301418682,base_footprint,-0.0,0.0,0.0,0.0,0.0,-0.0,teleoperation
1449618703335304220,29,1449618703334756122,base_footprint,-0.0,0.0,0.0,0.0,0.0,-0.0,teleoperation
1449618703368687512,30,1449618703368097222,base_footprint,-0.0,0.0,0.0,0.0,0.0,-0.0,teleoperation
1449618703402629525,31,1449618703401419146,base_footprint,-0.0,0.0,0.0,0.0,0.0,-0.0,teleoperation
1449618703435454729,32,1449618703434792380,base_footprint,-0.0,0.0,0.0,0.0,0.0,-0.0,teleoperation
1449618703468643892,33,1449618703468115130,base_footprint,-0.0,0.0,0.0,0.0,0.0,-0.0,teleoperation
1449618703502349355,34,1449618703501428926,base_footprint,-0.0,0.0,0.0,0.0,0.0,-0.0,teleoperation
1449618703535311382,35,1449618703534779596,base_footprint,-0.0,0.0,0.0,0.0,0.0,-0.0,teleoperation
1449618703568683838,36,1449618703568117239,base_footprint,-0.0,0.0,0.0,0.0,0.0,-0.0,teleoperation
1449618703602383237,37,1449618703601434067,base_footprint,-0.0,0.0,0.0,0.0,0.0,-0.0,teleoperation
1449618703635334797,38,1449618703634761259,base_footprint,-0.0,0.0,0.0,0.0,0.0,-0.0,teleoperation
1449618703668664461,39,1449618703668098964,base_footprint,-0.0,0.0,0.0,0.0,0.0,-0.0,teleoperation
1449618703702602235,40,1449618703701428522,base_footprint,-0.0,0.0,0.0,0.0,0.0,-0.0,teleoperation
1449618703735228929,41,1449618703734766135,base_footprint,-0.0,0.0,0.0,0.0,0.0,-0.0,teleoperation
1449618703768657355,42,1449618703768088159,base_footprint,-0.0,0.0,0.0,0.0,0.0,-0.0,teleoperation
1449618703802360103,43,1449618703801422385,base_footprint,-0.0,0.0,0.0,0.0,0.0,-0.0,teleoperation
1449618703836055544,44,1449618703834766159,base_footprint,-0.0,0.0,0.0,0.0,0.0,-0.0,teleoperation
1449618703868733702,45,1449618703868087725,base_footprint,-0.0,0.0,0.0,0.0,0.0,-0.0,teleoperation
1449618703902369651,46,1449618703901429089,base_footprint,-0.0,0.0,0.0,0.0,0.0,-0.0,teleoperation
1449618703935309762,47,1449618703934754332,base_footprint,-0.0,0.0,0.0,0.0,0.0,-0.0,teleoperation
1449618703968706117,48,1449618703968088720,base_footprint,-0.0,0.0,0.0,0.0,0.0,-0.0,teleoperation
1449618704002401935,49,1449618704001422409,base_footprint,-0.0,0.0,0.0,0.0,0.0,-0.0,teleoperation
1449618704035645987,50,1449618704034754117,base_footprint,-0.0,0.0,0.0,0.0,0.0,-0.0,teleoperation
1449618704069366556,51,1449618704068086701,base_footprint,-0.0,0.0,0.0,0.0,0.0,-0.0,teleoperation
1449618704103107588,52,1449618704101421610,base_footprint,-0.0,0.0,0.0,0.0,0.0,-0.0,teleoperation
1449618704136501512,53,1449618704134754371,base_footprint,-0.0,0.0,0.0,0.0,0.0,-0.0,teleoperation
1449618704168957475,54,1449618704168089707,base_footprint,-0.0,0.0,0.0,0.0,0.0,-0.0,teleoperation
1449618704202008063,55,1449618704201423834,base_footprint,-0.0,0.0,0.0,0.0,0.0,-0.0,teleoperation
1449618704235550354,56,1449618704234762352,base_footprint,-0.0,0.0,0.0,0.0,0.0,-0.0,teleoperation
1449618704269222794,57,1449618704268088680,base_footprint,-0.0,0.0,0.0,0.0,0.0,-0.0,teleoperation
1449618704302797611,58,1449618704301440516,base_footprint,-0.0,0.0,0.0,0.0,0.0,-0.0,teleoperation
1449618704336666345,59,1449618704334759465,base_footprint,-0.0,0.0,0.0,0.0,0.0,-0.0,teleoperation
1449618704369025124,60,1449618704368094639,base_footprint,-0.0,0.0,0.0,0.0,0.0,-0.0,teleoperation
1449618704402401598,61,1449618704401431635,base_footprint,-0.0,0.0,0.0,0.0,0.0,-0.0,teleoperation
1449618704436264400,62,1449618704434759416,base_footprint,-0.0,0.0,0.0,0.0,0.0,-0.0,teleoperation
1449618704469151906,63,1449618704468094699,base_footprint,-0.0,0.0,0.0,0.0,0.0,-0.0,teleoperation
1449618704503633258,64,1449618704501431852,base_footprint,-0.0,0.0,0.0,0.0,0.0,-0.0,teleoperation
1449618704535862247,65,1449618704534764714,base_footprint,-0.0,0.0,0.0,0.0,0.0,-0.0,teleoperation
1449618704568835038,66,1449618704568088235,base_footprint,-0.0,0.0,0.0,0.0,0.0,-0.0,teleoperation
1449618704602404473,67,1449618704601423211,base_footprint,-0.0,0.0,0.0,0.0,0.0,-0.0,teleoperation
1449618704636119522,68,1449618704634766470,base_footprint,-0.0,0.0,0.0,0.0,0.0,-0.0,teleoperation
1449618704668720815,69,1449618704668088594,base_footprint,-0.0,0.0,0.0,0.0,0.0,-0.0,teleoperation
1449618704703370978,70,1449618704701852415,base_footprint,-0.0,0.0,0.0,0.0,0.0,-0.0,teleoperation
1449618704735437698,71,1449618704734754226,base_footprint,-0.0,0.0,0.0,0.0,0.0,-0.0,teleoperation
1449618704770159769,72,1449618704768107652,base_footprint,-0.0,0.0,0.0,0.0,0.0,-0.0,teleoperation
1449618704802503593,73,1449618704801432454,base_footprint,-0.0,0.0,0.0,0.0,0.0,-0.0,teleoperation
1449618704835477065,74,1449618704834754032,base_footprint,-0.0,0.0,0.0,0.0,0.0,-0.0,teleoperation
1449618704869069815,75,1449618704868093959,base_footprint,-0.0,0.0,0.0,0.0,0.0,-0.0,teleoperation
1449618704902429586,76,1449618704901423044,base_footprint,-0.0,0.0,0.0,0.0,0.0,-0.0,teleoperation
1449618704935913761,77,1449618704934758859,base_footprint,-0.0,0.0,0.0,0.0,0.0,-0.0,teleoperation
1449618704971011761,78,1449618704968103016,base_footprint,-0.0,0.0,0.0,0.0,0.0,-0.0,teleoperation
1449618705003386145,79,1449618705001442988,base_footprint,-0.0,0.0,0.0,0.0,0.0,-0.0,teleoperation
1449618705035921350,80,1449618705034766791,base_footprint,-0.0,0.0,0.0,0.0,0.0,-0.0,teleoperation
1449618705069854622,81,1449618705068094298,base_footprint,-0.0,0.0,0.0,0.0,0.0,-0.0,teleoperation
1449618705105222733,82,1449618705102053091,base_footprint,-0.0,0.0,0.0,0.0,0.0,-0.0,teleoperation
1449618705139047485,83,1449618705134777106,base_footprint,-0.0,0.0,0.0,0.0,0.0,-0.0,teleoperation
1449618705169563331,84,1449618705168097778,base_footprint,-0.0,0.0,0.0,0.0,0.0,-0.0,teleoperation
1449618705202691637,85,1449618705201607067,base_footprint,-0.0,0.0,0.0,0.0,0.0,-0.0,teleoperation
1449618705236864361,86,1449618705234767634,base_footprint,-0.0,0.0,0.0,0.0,0.0,-0.0,teleoperation
1449618705270387242,87,1449618705268127511,base_footprint,-0.0,0.0,0.0,0.0,0.0,-0.0,teleoperation
1449618705306994570,88,1449618705302225177,base_footprint,-0.0,0.0,0.0,0.0,0.0,-0.0,teleoperation
1449618705338961177,89,1449618705334819591,base_footprint,-0.0,0.0,0.0,0.0,0.0,-0.0,teleoperation
1449618705371302324,90,1449618705368100324,base_footprint,-0.0,0.0,0.0,0.0,0.0,-0.0,teleoperation
1449618705411263870,91,1449618705402276192,base_footprint,-0.0,0.0,0.0,0.0,0.0,-0.0,teleoperation
1449618705436503076,92,1449618705434768857,base_footprint,-0.0,0.0,0.0,0.0,0.0,-0.0,teleoperation
1449618705470454231,93,1449618705468106797,base_footprint,-0.0,0.0,0.0,0.0,0.0,-0.0,teleoperation
1449618705505104329,94,1449618705502377459,base_footprint,-0.0,0.0,0.0,0.0,0.0,-0.0,teleoperation
1449618705536025499,95,1449618705534762768,base_footprint,-0.0,0.0,0.0,0.0,0.0,-0.0,teleoperation
1449618705569808177,96,1449618705568110120,base_footprint,-0.0,0.0,0.0,0.0,0.0,-0.0,teleoperation
1449618705602407153,97,1449618705601441270,base_footprint,-0.0,0.0,0.0,0.0,0.0,-0.0,teleoperation
1449618705638169589,98,1449618705634784607,base_footprint,-0.0,0.0,0.0,0.0,0.0,-0.0,teleoperation
1449618705670069343,99,1449618705668109514,base_footprint,-0.0,0.0,0.0,0.0,0.0,-0.0,teleoperation
1449618705704035559,100,1449618705701429454,base_footprint,-0.0,0.0,0.0,0.0,0.0,-0.0,teleoperation
1449618705737239307,101,1449618705734772157,base_footprint,-0.0,0.0,0.0,0.0,0.0,-0.0,teleoperation
1449618705769661765,102,1449618705768105763,base_footprint,-0.0,0.0,0.0,0.0,0.0,-0.0,teleoperation
1449618705804090464,103,1449618705801436620,base_footprint,-0.0,0.0,0.0,0.0,0.0,-0.0,teleoperation
1449618705842102315,104,1449618705834771961,base_footprint,-0.0,0.0,0.0,0.0,0.0,-0.0,teleoperation
1449618705872397842,105,1449618705868102595,base_footprint,-0.0,0.0,0.0,0.0,0.0,-0.0,teleoperation
1449618705906637967,106,1449618705902261352,base_footprint,-0.0,0.0,0.0,0.0,0.0,-0.0,teleoperation
1449618705939059913,107,1449618705934757651,base_footprint,-0.0,0.0,0.0,0.0,0.0,-0.0,teleoperation
1449618705969278905,108,1449618705968093811,base_footprint,-0.0,0.0,0.0,0.0,0.0,-0.0,teleoperation
1449618706003475082,109,1449618706001445917,base_footprint,-0.0,0.0,0.0,0.0,0.0,-0.0,teleoperation
1449618706036207836,110,1449618706034786691,base_footprint,-0.0,0.0,0.0,0.0,0.0,-0.0,teleoperation
1449618706069329017,111,1449618706068097905,base_footprint,-0.0,0.0,0.0,0.0,0.0,-0.0,teleoperation
1449618706104773525,112,1449618706101427588,base_footprint,-0.0,0.0,0.0,0.0,0.0,-0.0,teleoperation
1449618706135938710,113,1449618706134767110,base_footprint,-0.0,0.0,0.0,0.0,0.0,-0.0,teleoperation
1449618706182717440,114,1449618706168100845,base_footprint,-0.0,0.0,0.0,0.0,0.0,-0.0,teleoperation
1449618706202378985,115,1449618706201430301,base_footprint,-0.0,0.0,0.0,0.0,0.0,-0.0,teleoperation
1449618706236706960,116,1449618706234772109,base_footprint,-0.0,0.0,0.0,0.0,0.0,-0.0,teleoperation
1449618706269774265,117,1449618706268105024,base_footprint,-0.0,0.0,0.0,0.0,0.0,-0.0,teleoperation
1449618706310519999,118,1449618706301442468,base_footprint,-0.0,0.0,0.0,0.0,0.0,-0.0,teleoperation
1449618706337732638,119,1449618706334769573,base_footprint,-0.0,0.0,0.0,0.0,0.0,-0.0,teleoperation
1449618706375117773,120,1449618706368103585,base_footprint,-0.0,0.0,0.0,0.0,0.0,-0.0,teleoperation
1449618706406881127,121,1449618706402025936,base_footprint,-0.0,0.0,0.0,0.0,0.0,-0.0,teleoperation
1449618706436787086,122,1449618706434771229,base_footprint,-0.0,0.0,0.0,0.0,0.0,-0.0,teleoperation
1449618706469716803,123,1449618706468113226,base_footprint,-0.0,0.0,0.0,0.0,0.0,-0.0,teleoperation
1449618706506869241,124,1449618706501631038,base_footprint,-0.0,0.0,0.0,0.0,0.0,-0.0,teleoperation
1449618706545945093,125,1449618706534759694,base_footprint,-0.0,0.0,0.0,0.0,0.0,-0.0,teleoperation
1449618706570305755,126,1449618706568105564,base_footprint,-0.0,0.0,0.0,0.0,0.0,-0.0,teleoperation
1449618706634129675,127,1449618706606026757,base_footprint,-0.0,0.0,0.0,0.0,0.0,-0.0,teleoperation
1449618706643442401,128,1449618706634764201,base_footprint,-0.0,0.0,0.0,0.0,0.0,-0.0,teleoperation
1449618706678073107,129,1449618706668093082,base_footprint,-0.0,0.0,0.0,0.0,0.0,-0.0,teleoperation
1449618706724430802,130,1449618706702027765,base_footprint,-0.0,0.0,0.0,0.0,0.0,-0.0,teleoperation
1449618706769587093,131,1449618706734755858,base_footprint,-0.0,0.0,0.0,0.0,0.0,-0.0,teleoperation
1449618706778121031,132,1449618706769615755,base_footprint,-0.0,0.0,0.0,0.0,0.0,-0.0,teleoperation
1449618706846103444,133,1449618706801449017,base_footprint,-0.0,0.0,0.0,0.0,0.0,-0.0,teleoperation
1449618706887360266,134,1449618706845782803,base_footprint,-0.0,0.0,0.0,0.0,0.0,-0.0,teleoperation
1449618706925891596,135,1449618706887088453,base_footprint,-0.0,0.0,0.0,0.0,0.0,-0.0,teleoperation
1449618706965969606,136,1449618706925637221,base_footprint,-0.0,0.0,0.0,0.0,0.0,-0.0,teleoperation
1449618707007738050,137,1449618706965653300,base_footprint,-0.0,0.0,0.0,0.0,0.0,-0.0,teleoperation
1449618707046279645,138,1449618707007400051,base_footprint,-0.0,0.0,0.0,0.0,0.0,-0.0,teleoperation
1449618707088865322,139,1449618707046059055,base_footprint,-0.0,0.0,0.0,0.0,0.0,-0.0,teleoperation
1449618707126943146,140,1449618707086966372,base_footprint,-0.0,0.0,0.0,0.0,0.0,-0.0,teleoperation
1449618707166664043,141,1449618707126509267,base_footprint,-0.0,0.0,0.0,0.0,0.0,-0.0,teleoperation
1449618707208560706,142,1449618707166127153,base_footprint,-0.0,0.0,0.0,0.0,0.0,-0.0,teleoperation
1449618707245968714,143,1449618707205981352,base_footprint,-0.0,0.0,0.0,0.0,0.0,-0.0,teleoperation
1449618707286044593,144,1449618707245675919,base_footprint,-0.0,0.0,0.0,0.0,0.0,-0.0,teleoperation
1449618707326584575,145,1449618707285964146,base_footprint,-0.0,0.0,0.0,0.0,0.0,-0.0,teleoperation
1449618707366101462,146,1449618707325917803,base_footprint,-0.0,0.0,0.0,0.0,0.0,-0.0,teleoperation
1449618707406793120,147,1449618707365728329,base_footprint,-0.0,0.0,0.0,0.0,0.0,-0.0,teleoperation
1449618707445827134,148,1449618707405748984,base_footprint,-0.0,0.0,0.0,0.0,0.0,-0.0,teleoperation
1449618707488154407,149,1449618707445786454,base_footprint,-0.0,0.0,0.0,0.0,0.0,-0.0,teleoperation
1449618707526606242,150,1449618707486478138,base_footprint,-0.0,0.0,0.0,0.0,0.0,-0.0,teleoperation
1449618707566136694,151,1449618707525781166,base_footprint,-0.0,0.0,0.0,0.0,0.0,-0.0,teleoperation
1449618707607389882,152,1449618707565785871,base_footprint,-0.0,0.0,0.0,0.0,0.0,-0.0,teleoperation
1449618707647440295,153,1449618707606165718,base_footprint,-0.0,0.0,0.0,0.0,0.0,-0.0,teleoperation
1449618707686242352,154,1449618707646383378,base_footprint,-0.0,0.0,0.0,0.0,0.0,-0.0,teleoperation
1449618707727246793,155,1449618707685740824,base_footprint,-0.0,0.0,0.0,0.0,0.0,-0.0,teleoperation
1449618707766561691,156,1449618707726053557,base_footprint,-0.0,0.0,0.0,0.0,0.0,-0.0,teleoperation
1449618707806508724,157,1449618707766036521,base_footprint,-0.0,0.0,0.0,0.0,0.0,-0.0,teleoperation
1449618707846642921,158,1449618707806246823,base_footprint,-0.0,0.0,0.0,0.0,0.0,-0.0,teleoperation
1449618707887619987,159,1449618707846273789,base_footprint,-0.0,0.0,0.0,0.0,0.0,-0.0,teleoperation
1449618707927106067,160,1449618707887020607,base_footprint,-0.0,0.0,0.0,0.0,0.0,-0.0,teleoperation
1449618707967878214,161,1449618707926136389,base_footprint,-0.0,0.0,0.0,0.0,0.0,-0.0,teleoperation
1449618708006520377,162,1449618707967462483,base_footprint,-0.0,0.0,0.0,0.0,0.0,-0.0,teleoperation
1449618708047181967,163,1449618708006030915,base_footprint,-0.0,0.0,0.0,0.0,0.0,-0.0,teleoperation
1449618708087452085,164,1449618708046315926,base_footprint,-0.0,0.0,0.0,0.0,0.0,-0.0,teleoperation
1449618708127228420,165,1449618708086487873,base_footprint,-0.0,0.0,0.0,0.0,0.0,-0.0,teleoperation
1449618708168867713,166,1449618708126982802,base_footprint,-0.0,0.0,0.0,0.0,0.0,-0.0,teleoperation
1449618708206105176,167,1449618708168433260,base_footprint,-0.0,0.0,0.0,0.0,0.0,-0.0,teleoperation
1449618708246059216,168,1449618708205908413,base_footprint,-0.0,0.0,0.0,0.0,0.0,-0.0,teleoperation
1449618708286098201,169,1449618708245835539,base_footprint,-0.0,0.0,0.0,0.0,0.0,-0.0,teleoperation
1449618708326298909,170,1449618708285570895,base_footprint,-0.0,0.0,0.0,0.0,0.0,-0.0,teleoperation
1449618708366900139,171,1449618708325869644,base_footprint,-0.0,0.0,0.0,0.0,0.0,-0.0,teleoperation
1449618708406177972,172,1449618708366383076,base_footprint,-0.0,0.0,0.0,0.0,0.0,-0.0,teleoperation
1449618708446875360,173,1449618708405841772,base_footprint,-0.0,0.0,0.0,0.0,0.0,-0.0,teleoperation
1449618708485885833,174,1449618708445923564,base_footprint,-0.0,0.0,0.0,0.0,0.0,-0.0,teleoperation
1449618708526260204,175,1449618708485682706,base_footprint,-0.0,0.0,0.0,0.0,0.0,-0.0,teleoperation
1449618708566264402,176,1449618708525846475,base_footprint,-0.0,0.0,0.0,0.0,0.0,-0.0,teleoperation
1449618708605708174,177,1449618708565705059,base_footprint,-0.0,0.0,0.0,0.0,0.0,-0.0,teleoperation
1449618708646853143,178,1449618708605530665,base_footprint,-0.0,0.0,0.0,0.0,0.0,-0.0,teleoperation
1449618708693648028,179,1449618708646380214,base_footprint,-0.0,0.0,0.0,0.0,0.0,-0.0,teleoperation
1449618708728162412,180,1449618708687057790,base_footprint,-0.0,0.0,0.0,0.0,0.0,-0.0,teleoperation
1449618708766718356,181,1449618708727228772,base_footprint,-0.0,0.0,0.0,0.0,0.0,-0.0,teleoperation
1449618708806155989,182,1449618708766046387,base_footprint,-0.0,0.0,0.0,0.0,0.0,-0.0,teleoperation
1449618708846595269,183,1449618708805946770,base_footprint,-0.0,0.0,0.0,0.0,0.0,-0.0,teleoperation
1449618708886627168,184,1449618708846030648,base_footprint,-0.0,0.0,0.0,0.0,0.0,-0.0,teleoperation
1449618708925827261,185,1449618708885651920,base_footprint,-0.0,0.0,0.0,0.0,0.0,-0.0,teleoperation
1449618708967073512,186,1449618708925587372,base_footprint,-0.0,0.0,0.0,0.0,0.0,-0.0,teleoperation
1449618709006805993,187,1449618708966013863,base_footprint,-0.0,0.0,0.0,0.0,0.0,-0.0,teleoperation
1449618709048863300,188,1449618709006231537,base_footprint,0.00558730190992,0.0,0.0,0.0,0.0,0.0,teleoperation
1449618709106275348,189,1449618709046202584,base_footprint,0.00558730190992,0.0,0.0,0.0,0.0,0.0,teleoperation
1449618709143054252,190,1449618709106134180,base_footprint,0.128507939339,0.0,0.0,0.0,0.0,-0.00634920671582,teleoperation
1449618709206005028,191,1449618709142450309,base_footprint,0.128507939339,0.0,0.0,0.0,0.0,-0.00634920671582,teleoperation
1449618709230960722,192,1449618709205427360,base_footprint,0.346412698746,0.0,0.0,0.0,0.0,-0.0126984134316,teleoperation
1449618709270529046,193,1449618709230462519,base_footprint,0.346412698746,0.0,0.0,0.0,0.0,-0.0126984134316,teleoperation
1449618709376874515,194,1449618709270111792,base_footprint,0.346412698746,0.0,0.0,0.0,0.0,-0.0126984134316,teleoperation
1449618709392821612,195,1449618709375691370,base_footprint,0.301714288712,0.0,0.0,0.0,0.0,-0.00634920671582,teleoperation
1449618709436267409,196,1449618709409081992,base_footprint,0.301714288712,0.0,0.0,0.0,0.0,-0.00634920671582,teleoperation
1449618709477074847,197,1449618709443125350,base_footprint,0.346412698746,0.0,0.0,0.0,0.0,-0.0126984134316,teleoperation
1449618709516175964,198,1449618709476250937,base_footprint,0.346412698746,0.0,0.0,0.0,0.0,-0.0126984134316,teleoperation
1449618709549816389,199,1449618709515926848,base_footprint,0.296126987457,0.0,0.0,0.0,0.0,-0.00634920671582,teleoperation
1449618709587961896,200,1449618709547416273,base_footprint,0.296126987457,0.0,0.0,0.0,0.0,-0.00634920671582,teleoperation
1449618709627804594,201,1449618709587257992,base_footprint,0.296126987457,0.0,0.0,0.0,0.0,-0.00634920671582,teleoperation
1449618709686727888,202,1449618709627420386,base_footprint,0.346412698746,0.0,0.0,0.0,0.0,-0.0126984134316,teleoperation
1449618709714385157,203,1449618709686267936,base_footprint,0.346412698746,0.0,0.0,0.0,0.0,-0.0126984134316,teleoperation
1449618709790191409,204,1449618709719660270,base_footprint,0.301714288712,0.0,0.0,0.0,0.0,-0.00634920671582,teleoperation
1449618709807031054,205,1449618709789884732,base_footprint,0.301714288712,0.0,0.0,0.0,0.0,-0.00634920671582,teleoperation
1449618709831454217,206,1449618709823459034,base_footprint,0.346412698746,0.0,0.0,0.0,0.0,-0.0126984134316,teleoperation
1449618709884564153,207,1449618709856630203,base_footprint,0.346412698746,0.0,0.0,0.0,0.0,-0.0126984134316,teleoperation
1449618709919701470,208,1449618709889949536,base_footprint,0.346412698746,0.0,0.0,0.0,0.0,-0.0126984134316,teleoperation
1449618709955473843,209,1449618709923279767,base_footprint,0.324063493729,0.0,0.0,0.0,0.0,-0.0126984134316,teleoperation
1449618710006311883,210,1449618709956622203,base_footprint,0.324063493729,0.0,0.0,0.0,0.0,-0.0126984134316,teleoperation
1449618710025923748,211,1449618710005957150,base_footprint,0.346412698746,0.0,0.0,0.0,0.0,-0.0126984134316,teleoperation
1449618710074564085,212,1449618710025543567,base_footprint,0.346412698746,0.0,0.0,0.0,0.0,-0.0126984134316,teleoperation
1449618710171054003,213,1449618710073941506,base_footprint,0.346412698746,0.0,0.0,0.0,0.0,-0.0126984134316,teleoperation
1449618710201732893,214,1449618710170477067,base_footprint,0.346412698746,0.0,0.0,0.0,0.0,-0.0126984134316,teleoperation
1449618710223972799,215,1449618710203872268,base_footprint,0.346412698746,0.0,0.0,0.0,0.0,-0.0126984134316,teleoperation
1449618710242309765,216,1449618710237199500,base_footprint,0.346412698746,0.0,0.0,0.0,0.0,-0.0126984134316,teleoperation
1449618710354783176,217,1449618710270849012,base_footprint,0.346412698746,0.0,0.0,0.0,0.0,-0.0126984134316,teleoperation
1449618710381322793,218,1449618710354422758,base_footprint,0.346412698746,0.0,0.0,0.0,0.0,-0.0126984134316,teleoperation
1449618710402972008,219,1449618710387825416,base_footprint,0.346412698746,0.0,0.0,0.0,0.0,-0.0126984134316,teleoperation
1449618710469811010,220,1449618710421156936,base_footprint,0.346412698746,0.0,0.0,0.0,0.0,-0.0126984134316,teleoperation
1449618710507755905,221,1449618710469459610,base_footprint,0.346412698746,0.0,0.0,0.0,0.0,-0.0126984134316,teleoperation
1449618710538833306,222,1449618710506311419,base_footprint,0.346412698746,0.0,0.0,0.0,0.0,-0.0126984134316,teleoperation
1449618710564689350,223,1449618710538107267,base_footprint,0.346412698746,0.0,0.0,0.0,0.0,-0.0126984134316,teleoperation
1449618710621210696,224,1449618710563597210,base_footprint,0.346412698746,0.0,0.0,0.0,0.0,-0.0126984134316,teleoperation
1449618710657905606,225,1449618710613960966,base_footprint,0.346412698746,0.0,0.0,0.0,0.0,-0.0126984134316,teleoperation
1449618710689106890,226,1449618710657783920,base_footprint,0.346412698746,0.0,0.0,0.0,0.0,-0.0126984134316,teleoperation
1449618710731502456,227,1449618710691219077,base_footprint,0.346412698746,0.0,0.0,0.0,0.0,-0.0126984134316,teleoperation
1449618710806639534,228,1449618710730827482,base_footprint,0.340825397491,0.0,0.0,0.0,0.0,-0.0126984134316,teleoperation
1449618710834904192,229,1449618710802592321,base_footprint,0.346412698746,0.0,0.0,0.0,0.0,-0.0126984134316,teleoperation
1449618710881906009,230,1449618710835984717,base_footprint,0.346412698746,0.0,0.0,0.0,0.0,-0.0126984134316,teleoperation
1449618710940190267,231,1449618710881289040,base_footprint,0.346412698746,0.0,0.0,0.0,0.0,-0.0126984134316,teleoperation
1449618710975580213,232,1449618710939752738,base_footprint,0.346412698746,0.0,0.0,0.0,0.0,-0.0190476194024,teleoperation
1449618711030616883,233,1449618710975212433,base_footprint,0.346412698746,0.0,0.0,0.0,0.0,-0.0190476194024,teleoperation
1449618711057524661,234,1449618711030268914,base_footprint,0.346412698746,0.0,0.0,0.0,0.0,-0.0190476194024,teleoperation
1449618711166293902,235,1449618711056944231,base_footprint,0.346412698746,0.0,0.0,0.0,0.0,-0.0190476194024,teleoperation
1449618711223849814,236,1449618711163657044,base_footprint,0.346412698746,0.0,0.0,0.0,0.0,-0.0126984134316,teleoperation
1449618711244262400,237,1449618711223261640,base_footprint,0.346412698746,0.0,0.0,0.0,0.0,-0.0190476194024,teleoperation
1449618711289949465,238,1449618711243151747,base_footprint,0.346412698746,0.0,0.0,0.0,0.0,-0.0190476194024,teleoperation
1449618711322878959,239,1449618711287739745,base_footprint,0.346412698746,0.0,0.0,0.0,0.0,-0.0190476194024,teleoperation
1449618711348037248,240,1449618711322594094,base_footprint,0.296126987457,0.0,0.0,0.0,0.0,-0.342857146263,teleoperation
1449618711403433538,241,1449618711347872357,base_footprint,0.296126987457,0.0,0.0,0.0,0.0,-0.342857146263,teleoperation
1449618711429144422,242,1449618711403170970,base_footprint,0.301714288712,0.0,0.0,0.0,0.0,-0.342857146263,teleoperation
1449618711481118644,243,1449618711437237842,base_footprint,0.301714288712,0.0,0.0,0.0,0.0,-0.342857146263,teleoperation
1449618711546074029,244,1449618711480508890,base_footprint,0.301714288712,0.0,0.0,0.0,0.0,-0.342857146263,teleoperation
1449618711583597217,245,1449618711545468923,base_footprint,0.301714288712,0.0,0.0,0.0,0.0,-0.336507940292,teleoperation
1449618711619792506,246,1449618711583450051,base_footprint,0.301714288712,0.0,0.0,0.0,0.0,-0.336507940292,teleoperation
1449618711656454987,247,1449618711619415133,base_footprint,0.296126987457,0.0,0.0,0.0,0.0,-0.342857146263,teleoperation
1449618711694692601,248,1449618711655619132,base_footprint,0.296126987457,0.0,0.0,0.0,0.0,-0.342857146263,teleoperation
1449618711808684076,249,1449618711694254218,base_footprint,0.296126987457,0.0,0.0,0.0,0.0,-0.342857146263,teleoperation
1449618711907593734,250,1449618711808396285,base_footprint,0.296126987457,0.0,0.0,0.0,0.0,-0.336507940292,teleoperation
1449618711947948348,251,1449618711907358001,base_footprint,0.296126987457,0.0,0.0,0.0,0.0,-0.342857146263,teleoperation
1449618712060838594,252,1449618711941886381,base_footprint,0.296126987457,0.0,0.0,0.0,0.0,-0.342857146263,teleoperation
1449618712103214437,253,1449618712060546403,base_footprint,0.296126987457,0.0,0.0,0.0,0.0,-0.336507940292,teleoperation
1449618712177729619,254,1449618712102336038,base_footprint,0.296126987457,0.0,0.0,0.0,0.0,-0.336507940292,teleoperation
1449618712204741851,255,1449618712177093380,base_footprint,0.296126987457,0.0,0.0,0.0,0.0,-0.336507940292,teleoperation
1449618712264272687,256,1449618712210844567,base_footprint,0.301714288712,0.0,0.0,0.0,0.0,-0.336507940292,teleoperation
1449618712356227197,257,1449618712263512405,base_footprint,0.301714288712,0.0,0.0,0.0,0.0,-0.336507940292,teleoperation
1449618712423875579,258,1449618712355654068,base_footprint,0.301714288712,0.0,0.0,0.0,0.0,-0.336507940292,teleoperation
1449618712519699834,259,1449618712423264759,base_footprint,0.346412698746,0.0,0.0,0.0,0.0,-0.0126984134316,teleoperation
1449618712552889112,260,1449618712502825333,base_footprint,0.346412698746,0.0,0.0,0.0,0.0,-0.00634920671582,teleoperation
1449618712657134269,261,1449618712552155909,base_footprint,0.346412698746,0.0,0.0,0.0,0.0,-0.00634920671582,teleoperation
1449618712772168582,262,1449618712656858495,base_footprint,0.027936508894,0.0,0.0,0.0,0.0,-0.00634920671582,teleoperation
1449618712781301653,263,1449618712766984324,base_footprint,0.027936508894,0.0,0.0,0.0,0.0,-0.0126984134316,teleoperation
1449618712817886052,264,1449618712800377103,base_footprint,0.027936508894,0.0,0.0,0.0,0.0,-0.0126984134316,teleoperation
1449618712861541598,265,1449618712833706449,base_footprint,0.027936508894,0.0,0.0,0.0,0.0,-0.0126984134316,teleoperation
1449618712948703081,266,1449618712867286578,base_footprint,0.027936508894,0.0,0.0,0.0,0.0,-0.0126984134316,teleoperation
1449618712984737162,267,1449618712948002341,base_footprint,0.0614603190422,0.0,0.0,0.0,0.0,-0.0126984134316,teleoperation
1449618713006490326,268,1449618712984562213,base_footprint,0.0614603190422,0.0,0.0,0.0,0.0,-0.0126984134316,teleoperation
1449618713025022526,269,1449618713014859648,base_footprint,0.128507939339,0.0,0.0,0.0,0.0,-0.00634920671582,teleoperation
1449618713114876296,270,1449618713048065022,base_footprint,0.128507939339,0.0,0.0,0.0,0.0,-0.00634920671582,teleoperation
1449618713127434838,271,1449618713114365890,base_footprint,0.189968263626,0.0,0.0,0.0,0.0,-0.0126984134316,teleoperation
1449618713136663957,272,1449618713126278321,base_footprint,0.189968263626,0.0,0.0,0.0,0.0,-0.0126984134316,teleoperation
1449618713199051110,273,1449618713148485246,base_footprint,0.189968263626,0.0,0.0,0.0,0.0,-0.0126984134316,teleoperation
1449618713220972755,274,1449618713198519235,base_footprint,0.189968263626,0.0,0.0,0.0,0.0,-0.0126984134316,teleoperation
1449618713254916950,275,1449618713214733351,base_footprint,0.346412698746,0.0,0.0,0.0,0.0,-0.0126984134316,teleoperation
1449618713349561656,276,1449618713254017941,base_footprint,0.346412698746,0.0,0.0,0.0,0.0,-0.0126984134316,teleoperation
1449618713407020442,277,1449618713349175424,base_footprint,0.346412698746,0.0,0.0,0.0,0.0,-0.00634920671582,teleoperation
1449618713436377861,278,1449618713406075345,base_footprint,0.340825397491,0.0,0.0,0.0,0.0,-0.00634920671582,teleoperation
1449618713513537489,279,1449618713434636231,base_footprint,0.340825397491,0.0,0.0,0.0,0.0,-0.00634920671582,teleoperation
1449618713557354946,280,1449618713513009631,base_footprint,0.346412698746,0.0,0.0,0.0,0.0,-0.00634920671582,teleoperation
1449618713590751162,281,1449618713553408978,base_footprint,0.346412698746,0.0,0.0,0.0,0.0,-0.00634920671582,teleoperation
1449618713626647224,282,1449618713590329584,base_footprint,0.346412698746,0.0,0.0,0.0,0.0,-0.00634920671582,teleoperation
1449618713692535488,283,1449618713624701295,base_footprint,0.189968263626,0.0,0.0,0.0,0.0,0.0,teleoperation
1449618713707557011,284,1449618713692339239,base_footprint,0.189968263626,0.0,0.0,0.0,0.0,0.0,teleoperation
1449618713780721273,285,1449618713725744539,base_footprint,0.307301589966,0.0,0.0,0.0,0.0,0.00634920671582,teleoperation
1449618713904624711,286,1449618713780106139,base_footprint,0.307301589966,0.0,0.0,0.0,0.0,0.00634920671582,teleoperation
1449618713957417613,287,1449618713903248448,base_footprint,0.307301589966,0.0,0.0,0.0,0.0,0.00634920671582,teleoperation
1449618713984024364,288,1449618713956747022,base_footprint,0.307301589966,0.0,0.0,0.0,0.0,0.00634920671582,teleoperation
1449618714026573648,289,1449618713983344189,base_footprint,0.307301589966,0.0,0.0,0.0,0.0,0.00634920671582,teleoperation
1449618714085463773,290,1449618714026223999,base_footprint,0.346412698746,0.0,0.0,0.0,0.0,0.00634920671582,teleoperation
1449618714157498254,291,1449618714081306300,base_footprint,0.346412698746,0.0,0.0,0.0,0.0,0.00634920671582,teleoperation
1449618714185199272,292,1449618714156992017,base_footprint,0.307301589966,0.0,0.0,0.0,0.0,0.00634920671582,teleoperation
1449618714238798027,293,1449618714190386490,base_footprint,0.307301589966,0.0,0.0,0.0,0.0,0.00634920671582,teleoperation
1449618714332812494,294,1449618714237529032,base_footprint,0.346412698746,0.0,0.0,0.0,0.0,0.00634920671582,teleoperation
1449618714374040968,295,1449618714330627259,base_footprint,0.335238096237,0.0,0.0,0.0,0.0,0.0126984134316,teleoperation
1449618714402776207,296,1449618714372805465,base_footprint,0.335238096237,0.0,0.0,0.0,0.0,0.0126984134316,teleoperation
1449618714503790970,297,1449618714399661615,base_footprint,0.335238096237,0.0,0.0,0.0,0.0,0.0126984134316,teleoperation
1449618714546325750,298,1449618714503407702,base_footprint,0.346412698746,0.0,0.0,0.0,0.0,0.0126984134316,teleoperation
1449618714583099469,299,1449618714542885917,base_footprint,0.346412698746,0.0,0.0,0.0,0.0,0.0126984134316,teleoperation
1449618714666642770,300,1449618714581407063,base_footprint,0.346412698746,0.0,0.0,0.0,0.0,0.0126984134316,teleoperation
1449618714689545923,301,1449618714666125318,base_footprint,0.346412698746,0.0,0.0,0.0,0.0,0.0126984134316,teleoperation
1449618714802162660,302,1449618714702148815,base_footprint,0.346412698746,0.0,0.0,0.0,0.0,0.0126984134316,teleoperation
1449618714854314197,303,1449618714794226410,base_footprint,0.346412698746,0.0,0.0,0.0,0.0,0.0126984134316,teleoperation
1449618714925863953,304,1449618714853951632,base_footprint,0.346412698746,0.0,0.0,0.0,0.0,0.0126984134316,teleoperation
1449618714959373174,305,1449618714924439361,base_footprint,0.346412698746,0.0,0.0,0.0,0.0,0.0126984134316,teleoperation
1449618715008125373,306,1449618714958666894,base_footprint,0.346412698746,0.0,0.0,0.0,0.0,0.0126984134316,teleoperation
1449618715120414952,307,1449618715006846696,base_footprint,0.340825397491,0.0,0.0,0.0,0.0,0.0126984134316,teleoperation
1449618715207022243,308,1449618715094255028,base_footprint,0.340825397491,0.0,0.0,0.0,0.0,0.0126984134316,teleoperation
1449618715276662770,309,1449618715194937578,base_footprint,0.346412698746,0.0,0.0,0.0,0.0,0.0126984134316,teleoperation
1449618715322794735,310,1449618715275240979,base_footprint,0.346412698746,0.0,0.0,0.0,0.0,0.0126984134316,teleoperation
1449618715353524249,311,1449618715320577059,base_footprint,0.340825397491,0.0,0.0,0.0,0.0,0.0126984134316,teleoperation
1449618715432401535,312,1449618715353191069,base_footprint,0.340825397491,0.0,0.0,0.0,0.0,0.0126984134316,teleoperation
1449618715477803031,313,1449618715430067327,base_footprint,0.346412698746,0.0,0.0,0.0,0.0,0.0190476194024,teleoperation
1449618715603383246,314,1449618715477606670,base_footprint,0.346412698746,0.0,0.0,0.0,0.0,0.0190476194024,teleoperation
1449618715647477557,315,1449618715603104424,base_footprint,0.346412698746,0.0,0.0,0.0,0.0,0.0126984134316,teleoperation
1449618715719714430,316,1449618715647155671,base_footprint,0.346412698746,0.0,0.0,0.0,0.0,0.0126984134316,teleoperation
1449618715768996343,317,1449618715719392697,base_footprint,0.346412698746,0.0,0.0,0.0,0.0,0.0126984134316,teleoperation
1449618715810676764,318,1449618715768047318,base_footprint,0.346412698746,0.0,0.0,0.0,0.0,0.0126984134316,teleoperation
1449618715965914788,319,1449618715810386140,base_footprint,0.346412698746,0.0,0.0,0.0,0.0,0.00634920671582,teleoperation
1449618716011940705,320,1449618715963742272,base_footprint,0.346412698746,0.0,0.0,0.0,0.0,0.0126984134316,teleoperation
1449618716154812546,321,1449618716011585473,base_footprint,0.340825397491,0.0,0.0,0.0,0.0,0.0126984134316,teleoperation
1449618716193019774,322,1449618716154259930,base_footprint,0.346412698746,0.0,0.0,0.0,0.0,0.00634920671582,teleoperation
1449618716230786453,323,1449618716192182707,base_footprint,0.346412698746,0.0,0.0,0.0,0.0,0.00634920671582,teleoperation
1449618716259293836,324,1449618716230444924,base_footprint,0.301714288712,0.0,0.0,0.0,0.0,0.0126984134316,teleoperation
1449618716353577392,325,1449618716258226197,base_footprint,0.301714288712,0.0,0.0,0.0,0.0,0.0126984134316,teleoperation
1449618716385079970,326,1449618716350469813,base_footprint,0.346412698746,0.0,0.0,0.0,0.0,0.0126984134316,teleoperation
1449618716412168953,327,1449618716384742363,base_footprint,0.346412698746,0.0,0.0,0.0,0.0,0.0126984134316,teleoperation
1449618716478416275,328,1449618716417402148,base_footprint,0.296126987457,0.0,0.0,0.0,0.0,0.00634920671582,teleoperation
1449618716529370372,329,1449618716477492059,base_footprint,0.296126987457,0.0,0.0,0.0,0.0,0.00634920671582,teleoperation
1449618716592120576,330,1449618716528071250,base_footprint,0.346412698746,0.0,0.0,0.0,0.0,0.0126984134316,teleoperation
1449618716645697576,331,1449618716591406521,base_footprint,0.346412698746,0.0,0.0,0.0,0.0,0.0126984134316,teleoperation
1449618716769764338,332,1449618716644980259,base_footprint,0.296126987457,0.0,0.0,0.0,0.0,0.00634920671582,teleoperation
1449618716896256891,333,1449618716768270215,base_footprint,0.346412698746,0.0,0.0,0.0,0.0,0.0126984134316,teleoperation
1449618716958777627,334,1449618716894104533,base_footprint,0.296126987457,0.0,0.0,0.0,0.0,0.0126984134316,teleoperation
1449618716981855192,335,1449618716958001636,base_footprint,0.346412698746,0.0,0.0,0.0,0.0,0.00634920671582,teleoperation
1449618717025358328,336,1449618716981428367,base_footprint,0.346412698746,0.0,0.0,0.0,0.0,0.00634920671582,teleoperation
1449618717058072497,337,1449618717021873398,base_footprint,0.346412698746,0.0,0.0,0.0,0.0,0.0126984134316,teleoperation
1449618717083400350,338,1449618717057236755,base_footprint,0.346412698746,0.0,0.0,0.0,0.0,0.0126984134316,teleoperation
1449618717175394923,339,1449618717082003215,base_footprint,0.346412698746,0.0,0.0,0.0,0.0,0.0126984134316,teleoperation
1449618717196484599,340,1449618717173031855,base_footprint,0.346412698746,0.0,0.0,0.0,0.0,0.0126984134316,teleoperation
1449618717245559525,341,1449618717206431381,base_footprint,0.346412698746,0.0,0.0,0.0,0.0,0.0126984134316,teleoperation
1449618717304354232,342,1449618717244703309,base_footprint,0.346412698746,0.0,0.0,0.0,0.0,0.0126984134316,teleoperation
1449618717345213111,343,1449618717301877317,base_footprint,0.340825397491,0.0,0.0,0.0,0.0,0.0190476194024,teleoperation
1449618717378256475,344,1449618717343537360,base_footprint,0.340825397491,0.0,0.0,0.0,0.0,0.0190476194024,teleoperation
1449618717456014809,345,1449618717377859694,base_footprint,0.340825397491,0.0,0.0,0.0,0.0,0.0190476194024,teleoperation
1449618717481985621,346,1449618717452192604,base_footprint,0.346412698746,0.0,0.0,0.0,0.0,0.0126984134316,teleoperation
1449618717516639940,347,1449618717485587815,base_footprint,0.346412698746,0.0,0.0,0.0,0.0,0.0126984134316,teleoperation
1449618717576485641,348,1449618717519109446,base_footprint,0.346412698746,0.0,0.0,0.0,0.0,0.0126984134316,teleoperation
1449618717599257246,349,1449618717575306796,base_footprint,0.346412698746,0.0,0.0,0.0,0.0,0.0126984134316,teleoperation
1449618717632707852,350,1449618717598121859,base_footprint,0.346412698746,0.0,0.0,0.0,0.0,0.0126984134316,teleoperation
1449618717645851395,351,1449618717632335034,base_footprint,0.346412698746,0.0,0.0,0.0,0.0,0.0126984134316,teleoperation
1449618717757645220,352,1449618717652258217,base_footprint,0.346412698746,0.0,0.0,0.0,0.0,0.0126984134316,teleoperation
1449618717832311079,353,1449618717753792866,base_footprint,0.346412698746,0.0,0.0,0.0,0.0,0.0126984134316,teleoperation
1449618717890851655,354,1449618717830444716,base_footprint,0.340825397491,0.0,0.0,0.0,0.0,0.0190476194024,teleoperation
1449618717928614150,355,1449618717890535225,base_footprint,0.340825397491,0.0,0.0,0.0,0.0,0.0190476194024,teleoperation
1449618718010350606,356,1449618717928294117,base_footprint,0.346412698746,0.0,0.0,0.0,0.0,0.0126984134316,teleoperation
1449618718025805436,357,1449618718007133483,base_footprint,0.346412698746,0.0,0.0,0.0,0.0,0.0126984134316,teleoperation
1449618718061723098,358,1449618718040544094,base_footprint,0.346412698746,0.0,0.0,0.0,0.0,0.0126984134316,teleoperation
1449618718101879893,359,1449618718073866635,base_footprint,0.346412698746,0.0,0.0,0.0,0.0,0.0126984134316,teleoperation
1449618718147326373,360,1449618718107215488,base_footprint,0.346412698746,0.0,0.0,0.0,0.0,0.0126984134316,teleoperation
1449618718173325772,361,1449618718146926520,base_footprint,0.346412698746,0.0,0.0,0.0,0.0,0.0126984134316,teleoperation
1449618718217810718,362,1449618718173859077,base_footprint,0.346412698746,0.0,0.0,0.0,0.0,0.0126984134316,teleoperation
1449618718261287927,363,1449618718217287620,base_footprint,0.346412698746,0.0,0.0,0.0,0.0,0.0126984134316,teleoperation
1449618718341930134,364,1449618718260925553,base_footprint,0.346412698746,0.0,0.0,0.0,0.0,0.0126984134316,teleoperation
1449618718372802804,365,1449618718341656291,base_footprint,0.340825397491,0.0,0.0,0.0,0.0,0.0190476194024,teleoperation
1449618718416068455,366,1449618718375053393,base_footprint,0.340825397491,0.0,0.0,0.0,0.0,0.0190476194024,teleoperation
1449618718488052928,367,1449618718415705749,base_footprint,0.340825397491,0.0,0.0,0.0,0.0,0.0190476194024,teleoperation
1449618718521547909,368,1449618718486611194,base_footprint,0.340825397491,0.0,0.0,0.0,0.0,0.0190476194024,teleoperation
1449618718610811297,369,1449618718520794389,base_footprint,0.346412698746,0.0,0.0,0.0,0.0,0.0190476194024,teleoperation
1449618718641559866,370,1449618718610201775,base_footprint,0.346412698746,0.0,0.0,0.0,0.0,0.0190476194024,teleoperation
1449618718690085785,371,1449618718643600707,base_footprint,0.346412698746,0.0,0.0,0.0,0.0,0.0190476194024,teleoperation
1449618718727848433,372,1449618718689768686,base_footprint,0.346412698746,0.0,0.0,0.0,0.0,0.0190476194024,teleoperation
1449618718766132831,373,1449618718727415434,base_footprint,0.346412698746,0.0,0.0,0.0,0.0,0.0253968268633,teleoperation
1449618718809846214,374,1449618718764971647,base_footprint,0.346412698746,0.0,0.0,0.0,0.0,0.0253968268633,teleoperation
1449618718867415161,375,1449618718809742536,base_footprint,0.340825397491,0.0,0.0,0.0,0.0,0.0190476194024,teleoperation
1449618718910357409,376,1449618718866917161,base_footprint,0.340825397491,0.0,0.0,0.0,0.0,0.0190476194024,teleoperation
1449618719016061647,377,1449618718909952539,base_footprint,0.340825397491,0.0,0.0,0.0,0.0,0.0190476194024,teleoperation
1449618719047527627,378,1449618719015556713,base_footprint,0.346412698746,0.0,0.0,0.0,0.0,0.0253968268633,teleoperation
1449618719102777587,379,1449618719050135178,base_footprint,0.346412698746,0.0,0.0,0.0,0.0,0.0253968268633,teleoperation
1449618719148088106,380,1449618719102527051,base_footprint,0.340825397491,0.0,0.0,0.0,0.0,0.0253968268633,teleoperation
1449618719199503625,381,1449618719147840627,base_footprint,0.340825397491,0.0,0.0,0.0,0.0,0.0253968268633,teleoperation
1449618719215966256,382,1449618719198159100,base_footprint,0.340825397491,0.0,0.0,0.0,0.0,0.0253968268633,teleoperation
1449618719296641566,383,1449618719231559025,base_footprint,0.346412698746,0.0,0.0,0.0,0.0,0.0253968268633,teleoperation
1449618719338013107,384,1449618719295246432,base_footprint,0.346412698746,0.0,0.0,0.0,0.0,0.0253968268633,teleoperation
1449618719375390486,385,1449618719337139093,base_footprint,0.346412698746,0.0,0.0,0.0,0.0,0.0317460328341,teleoperation
1449618719415786799,386,1449618719374385006,base_footprint,0.346412698746,0.0,0.0,0.0,0.0,0.0317460328341,teleoperation
1449618719472450968,387,1449618719414708159,base_footprint,0.346412698746,0.0,0.0,0.0,0.0,0.0380952388048,teleoperation
1449618719501633541,388,1449618719466883018,base_footprint,0.346412698746,0.0,0.0,0.0,0.0,0.0380952388048,teleoperation
1449618719578809859,389,1449618719500155235,base_footprint,0.346412698746,0.0,0.0,0.0,0.0,0.0317460328341,teleoperation
1449618719609783324,390,1449618719578473130,base_footprint,0.346412698746,0.0,0.0,0.0,0.0,0.0317460328341,teleoperation
1449618719635583503,391,1449618719611865361,base_footprint,0.340825397491,0.0,0.0,0.0,0.0,0.0571428596973,teleoperation
1449618719684278773,392,1449618719645197841,base_footprint,0.340825397491,0.0,0.0,0.0,0.0,0.0571428596973,teleoperation
1449618719784759260,393,1449618719684193498,base_footprint,0.340825397491,0.0,0.0,0.0,0.0,0.0571428596973,teleoperation
1449618719824202347,394,1449618719784375553,base_footprint,0.340825397491,0.0,0.0,0.0,0.0,0.0571428596973,teleoperation
1449618719841711718,395,1449618719822906275,base_footprint,0.340825397491,0.0,0.0,0.0,0.0,0.0571428596973,teleoperation
1449618719875951219,396,1449618719851129475,base_footprint,0.340825397491,0.0,0.0,0.0,0.0,0.0571428596973,teleoperation
1449618719916924167,397,1449618719884447994,base_footprint,0.340825397491,0.0,0.0,0.0,0.0,0.0571428596973,teleoperation
1449618719977395201,398,1449618719917772898,base_footprint,0.335238096237,0.0,0.0,0.0,0.0,0.0571428596973,teleoperation
1449618719996579814,399,1449618719977269745,base_footprint,0.335238096237,0.0,0.0,0.0,0.0,0.0571428596973,teleoperation
1449618720049988497,400,1449618719996036090,base_footprint,0.335238096237,0.0,0.0,0.0,0.0,0.0571428596973,teleoperation
1449618720100443678,401,1449618720049341886,base_footprint,0.340825397491,0.0,0.0,0.0,0.0,0.0571428596973,teleoperation
1449618720124812177,402,1449618720099420555,base_footprint,0.340825397491,0.0,0.0,0.0,0.0,0.0571428596973,teleoperation
1449618720158320141,403,1449618720133043307,base_footprint,0.340825397491,0.0,0.0,0.0,0.0,0.0571428596973,teleoperation
1449618720219207035,404,1449618720166150593,base_footprint,0.340825397491,0.0,0.0,0.0,0.0,0.0571428596973,teleoperation
1449618720247456848,405,1449618720216767929,base_footprint,0.340825397491,0.0,0.0,0.0,0.0,0.0571428596973,teleoperation
1449618720279281673,406,1449618720244017104,base_footprint,0.340825397491,0.0,0.0,0.0,0.0,0.0571428596973,teleoperation
1449618720320830504,407,1449618720278875506,base_footprint,0.340825397491,0.0,0.0,0.0,0.0,0.0571428596973,teleoperation
1449618720376423848,408,1449618720317087002,base_footprint,0.335238096237,0.0,0.0,0.0,0.0,0.0571428596973,teleoperation
1449618720417533551,409,1449618720375920367,base_footprint,0.335238096237,0.0,0.0,0.0,0.0,0.0571428596973,teleoperation
1449618720474381494,410,1449618720416651173,base_footprint,0.335238096237,0.0,0.0,0.0,0.0,0.0761904776096,teleoperation
1449618720495935486,411,1449618720473462396,base_footprint,0.335238096237,0.0,0.0,0.0,0.0,0.0761904776096,teleoperation
1449618720512899595,412,1449618720494287693,base_footprint,0.335238096237,0.0,0.0,0.0,0.0,0.0761904776096,teleoperation
1449618720562853701,413,1449618720512405457,base_footprint,0.340825397491,0.0,0.0,0.0,0.0,0.0571428596973,teleoperation
1449618720592587253,414,1449618720562544179,base_footprint,0.340825397491,0.0,0.0,0.0,0.0,0.0571428596973,teleoperation
1449618720675755717,415,1449618720592252653,base_footprint,0.340825397491,0.0,0.0,0.0,0.0,0.0571428596973,teleoperation
1449618720724179565,416,1449618720675544727,base_footprint,0.346412698746,0.0,0.0,0.0,0.0,0.00634920671582,teleoperation
1449618720768528124,417,1449618720723852606,base_footprint,0.340825397491,0.0,0.0,0.0,0.0,0.0126984134316,teleoperation
1449618720836284761,418,1449618720767503213,base_footprint,0.340825397491,0.0,0.0,0.0,0.0,0.0126984134316,teleoperation
1449618720855109505,419,1449618720830985123,base_footprint,0.340825397491,0.0,0.0,0.0,0.0,0.0190476194024,teleoperation
1449618720899474317,420,1449618720864399660,base_footprint,0.340825397491,0.0,0.0,0.0,0.0,0.0190476194024,teleoperation
1449618720920671077,421,1449618720898833248,base_footprint,0.340825397491,0.0,0.0,0.0,0.0,0.0190476194024,teleoperation
1449618720972172525,422,1449618720931054965,base_footprint,0.340825397491,0.0,0.0,0.0,0.0,0.0190476194024,teleoperation
1449618721011339190,423,1449618720972045805,base_footprint,0.340825397491,0.0,0.0,0.0,0.0,0.0190476194024,teleoperation
1449618721090011585,424,1449618721010365556,base_footprint,0.335238096237,0.0,0.0,0.0,0.0,0.0571428596973,teleoperation
1449618721148857009,425,1449618721089300704,base_footprint,0.335238096237,0.0,0.0,0.0,0.0,0.0571428596973,teleoperation
1449618721194998465,426,1449618721148612563,base_footprint,0.329650794983,0.0,0.0,0.0,0.0,0.120634925365,teleoperation
1449618721244903639,427,1449618721194762790,base_footprint,0.329650794983,0.0,0.0,0.0,0.0,0.120634925365,teleoperation
1449618721275343993,428,1449618721244684552,base_footprint,0.078222222805,0.0,0.0,0.0,0.0,0.0190476194024,teleoperation
1449618721328004319,429,1449618721274982687,base_footprint,0.078222222805,0.0,0.0,0.0,0.0,0.0190476194024,teleoperation
1449618721346994411,430,1449618721327288461,base_footprint,0.346412698746,0.0,0.0,0.0,0.0,0.0190476194024,teleoperation
1449618721397869941,431,1449618721346464100,base_footprint,0.346412698746,0.0,0.0,0.0,0.0,0.0190476194024,teleoperation
1449618721453964341,432,1449618721396530879,base_footprint,0.346412698746,0.0,0.0,0.0,0.0,0.0190476194024,teleoperation
1449618721492066922,433,1449618721449026024,base_footprint,0.340825397491,0.0,0.0,0.0,0.0,0.0761904776096,teleoperation
1449618721534029312,434,1449618721490522619,base_footprint,0.340825397491,0.0,0.0,0.0,0.0,0.0761904776096,teleoperation
1449618721562216269,435,1449618721533685939,base_footprint,0.335238096237,0.0,0.0,0.0,0.0,0.0761904776096,teleoperation
1449618721620778146,436,1449618721567084991,base_footprint,0.335238096237,0.0,0.0,0.0,0.0,0.0761904776096,teleoperation
1449618721654475729,437,1449618721619728265,base_footprint,0.335238096237,0.0,0.0,0.0,0.0,0.0761904776096,teleoperation
1449618721664119564,438,1449618721654015885,base_footprint,0.335238096237,0.0,0.0,0.0,0.0,0.0761904776096,teleoperation
1449618721690689712,439,1449618721667092605,base_footprint,0.335238096237,0.0,0.0,0.0,0.0,0.0761904776096,teleoperation
1449618721742886586,440,1449618721701906541,base_footprint,0.335238096237,0.0,0.0,0.0,0.0,0.0761904776096,teleoperation
1449618721785509339,441,1449618721742559363,base_footprint,0.335238096237,0.0,0.0,0.0,0.0,0.0761904776096,teleoperation
1449618721802931656,442,1449618721785030267,base_footprint,0.335238096237,0.0,0.0,0.0,0.0,0.0761904776096,teleoperation
1449618721889113759,443,1449618721802360546,base_footprint,0.335238096237,0.0,0.0,0.0,0.0,0.0761904776096,teleoperation
1449618721942419697,444,1449618721888542699,base_footprint,0.335238096237,0.0,0.0,0.0,0.0,0.0761904776096,teleoperation
1449618722001990873,445,1449618721941582780,base_footprint,0.340825397491,0.0,0.0,0.0,0.0,0.0507936537266,teleoperation
1449618722036049217,446,1449618722001779798,base_footprint,0.340825397491,0.0,0.0,0.0,0.0,0.0571428596973,teleoperation
1449618722049514672,447,1449618722035622899,base_footprint,0.340825397491,0.0,0.0,0.0,0.0,0.0571428596973,teleoperation
1449618722093206141,448,1449618722068517113,base_footprint,0.340825397491,0.0,0.0,0.0,0.0,0.0571428596973,teleoperation
1449618722156643248,449,1449618722101839935,base_footprint,0.340825397491,0.0,0.0,0.0,0.0,0.0571428596973,teleoperation
1449618722178125140,450,1449618722155548210,base_footprint,0.340825397491,0.0,0.0,0.0,0.0,0.0507936537266,teleoperation
1449618722221540419,451,1449618722176980253,base_footprint,0.340825397491,0.0,0.0,0.0,0.0,0.0507936537266,teleoperation
1449618722296716550,452,1449618722220725707,base_footprint,0.340825397491,0.0,0.0,0.0,0.0,0.0571428596973,teleoperation
1449618722349026823,453,1449618722296226236,base_footprint,0.340825397491,0.0,0.0,0.0,0.0,0.0571428596973,teleoperation
1449618722375520696,454,1449618722348743418,base_footprint,0.346412698746,0.0,0.0,0.0,0.0,0.0317460328341,teleoperation
1449618722405287454,455,1449618722374910660,base_footprint,0.346412698746,0.0,0.0,0.0,0.0,0.0317460328341,teleoperation
1449618722427288821,456,1449618722405033078,base_footprint,0.346412698746,0.0,0.0,0.0,0.0,0.0126984134316,teleoperation
1449618722472556664,457,1449618722433071403,base_footprint,0.346412698746,0.0,0.0,0.0,0.0,0.0126984134316,teleoperation
1449618722498340264,458,1449618722471058031,base_footprint,0.346412698746,0.0,0.0,0.0,0.0,0.0126984134316,teleoperation
1449618722552682373,459,1449618722498151441,base_footprint,0.346412698746,0.0,0.0,0.0,0.0,0.0126984134316,teleoperation
1449618722572956147,460,1449618722552105182,base_footprint,0.346412698746,0.0,0.0,0.0,0.0,0.0126984134316,teleoperation
1449618722607562703,461,1449618722572667895,base_footprint,0.346412698746,0.0,0.0,0.0,0.0,0.0126984134316,teleoperation
1449618722669621842,462,1449618722606531323,base_footprint,0.346412698746,0.0,0.0,0.0,0.0,0.00634920671582,teleoperation
1449618722690923518,463,1449618722668988657,base_footprint,0.346412698746,0.0,0.0,0.0,0.0,0.00634920671582,teleoperation
1449618722727156200,464,1449618722702390586,base_footprint,0.346412698746,0.0,0.0,0.0,0.0,0.00634920671582,teleoperation
1449618722769075787,465,1449618722735714951,base_footprint,0.346412698746,0.0,0.0,0.0,0.0,0.00634920671582,teleoperation
1449618722814183742,466,1449618722769049668,base_footprint,0.346412698746,0.0,0.0,0.0,0.0,0.00634920671582,teleoperation
1449618722850414313,467,1449618722810619270,base_footprint,0.346412698746,0.0,0.0,0.0,0.0,0.0,teleoperation
1449618722900282245,468,1449618722850080462,base_footprint,0.346412698746,0.0,0.0,0.0,0.0,0.0,teleoperation
1449618722965359526,469,1449618722900142898,base_footprint,0.346412698746,0.0,0.0,0.0,0.0,-0.00634920671582,teleoperation
1449618722974125894,470,1449618722964887411,base_footprint,0.346412698746,0.0,0.0,0.0,0.0,-0.00634920671582,teleoperation
1449618723012945288,471,1449618722998290409,base_footprint,0.346412698746,0.0,0.0,0.0,0.0,-0.00634920671582,teleoperation
1449618723050703077,472,1449618723031620138,base_footprint,0.346412698746,0.0,0.0,0.0,0.0,0.0,teleoperation
1449618723087651345,473,1449618723064959781,base_footprint,0.346412698746,0.0,0.0,0.0,0.0,0.0,teleoperation
1449618723128795240,474,1449618723098280308,base_footprint,0.346412698746,0.0,0.0,0.0,0.0,0.0,teleoperation
1449618723168303247,475,1449618723131616354,base_footprint,0.346412698746,0.0,0.0,0.0,0.0,0.0,teleoperation
1449618723208975591,476,1449618723167854422,base_footprint,0.346412698746,0.0,0.0,0.0,0.0,0.0,teleoperation
1449618723283212841,477,1449618723208886750,base_footprint,0.352,0.0,0.0,0.0,0.0,0.0,teleoperation
1449618723323191073,478,1449618723281971830,base_footprint,0.352,0.0,0.0,0.0,0.0,0.0,teleoperation
1449618723353162276,479,1449618723322370783,base_footprint,0.173206349373,0.0,0.0,0.0,0.0,0.0,teleoperation
1449618723385138081,480,1449618723351432085,base_footprint,0.173206349373,0.0,0.0,0.0,0.0,0.0,teleoperation
1449618723411474345,481,1449618723384775387,base_footprint,0.173206349373,0.0,0.0,0.0,0.0,0.0,teleoperation
1449618723454264115,482,1449618723415370525,base_footprint,0.189968263626,0.0,0.0,0.0,0.0,0.0,teleoperation
1449618723504745611,483,1449618723453755149,base_footprint,0.189968263626,0.0,0.0,0.0,0.0,0.0,teleoperation
1449618723543904761,484,1449618723493339319,base_footprint,0.189968263626,0.0,0.0,0.0,0.0,0.0,teleoperation
1449618723593769469,485,1449618723543081589,base_footprint,0.352,0.0,0.0,0.0,0.0,0.00634920671582,teleoperation
1449618723626095862,486,1449618723592478025,base_footprint,0.352,0.0,0.0,0.0,0.0,0.00634920671582,teleoperation
1449618723668115426,487,1449618723626698740,base_footprint,0.173206349373,0.0,0.0,0.0,0.0,0.0,teleoperation
1449618723709907864,488,1449618723667252146,base_footprint,0.173206349373,0.0,0.0,0.0,0.0,0.0,teleoperation
1449618723794035075,489,1449618723709503474,base_footprint,0.346412698746,0.0,0.0,0.0,0.0,-0.00634920671582,teleoperation
1449618723808364927,490,1449618723793643581,base_footprint,0.346412698746,0.0,0.0,0.0,0.0,-0.00634920671582,teleoperation
1449618723852098076,491,1449618723827040854,base_footprint,0.346412698746,0.0,0.0,0.0,0.0,-0.00634920671582,teleoperation
1449618723886070345,492,1449618723860322793,base_footprint,0.346412698746,0.0,0.0,0.0,0.0,-0.00634920671582,teleoperation
1449618723931271839,493,1449618723893705430,base_footprint,0.346412698746,0.0,0.0,0.0,0.0,-0.00634920671582,teleoperation
1449618723973480287,494,1449618723931007507,base_footprint,0.346412698746,0.0,0.0,0.0,0.0,-0.00634920671582,teleoperation
1449618724008066168,495,1449618723973310933,base_footprint,0.346412698746,0.0,0.0,0.0,0.0,-0.00634920671582,teleoperation
1449618724047614435,496,1449618724007191818,base_footprint,0.346412698746,0.0,0.0,0.0,0.0,-0.00634920671582,teleoperation
1449618724094029388,497,1449618724046508954,base_footprint,0.346412698746,0.0,0.0,0.0,0.0,-0.00634920671582,teleoperation
1449618724133656384,498,1449618724089753355,base_footprint,0.346412698746,0.0,0.0,0.0,0.0,-0.00634920671582,teleoperation
1449618724182499675,499,1449618724125157879,base_footprint,0.346412698746,0.0,0.0,0.0,0.0,-0.00634920671582,teleoperation
1449618724211639430,500,1449618724182397518,base_footprint,0.346412698746,0.0,0.0,0.0,0.0,-0.00634920671582,teleoperation
1449618724250236863,501,1449618724215804907,base_footprint,0.346412698746,0.0,0.0,0.0,0.0,-0.00634920671582,teleoperation
1449618724295522768,502,1449618724249261502,base_footprint,0.346412698746,0.0,0.0,0.0,0.0,-0.00634920671582,teleoperation
1449618724328897327,503,1449618724295079388,base_footprint,0.346412698746,0.0,0.0,0.0,0.0,-0.00634920671582,teleoperation
1449618724371345235,504,1449618724328378639,base_footprint,0.346412698746,0.0,0.0,0.0,0.0,-0.0126984134316,teleoperation
1449618724407384080,505,1449618724371027775,base_footprint,0.346412698746,0.0,0.0,0.0,0.0,-0.0126984134316,teleoperation
1449618724447673927,506,1449618724406664925,base_footprint,0.340825397491,0.0,0.0,0.0,0.0,-0.0253968268633,teleoperation
1449618724492175137,507,1449618724447140093,base_footprint,0.340825397491,0.0,0.0,0.0,0.0,-0.0253968268633,teleoperation
1449618724529209055,508,1449618724490504188,base_footprint,0.340825397491,0.0,0.0,0.0,0.0,-0.0253968268633,teleoperation
1449618724568848763,509,1449618724528743504,base_footprint,0.324063493729,0.0,0.0,0.0,0.0,-0.184126985073,teleoperation
1449618724630236216,510,1449618724568523868,base_footprint,0.324063493729,0.0,0.0,0.0,0.0,-0.184126985073,teleoperation
1449618724651896122,511,1449618724611420486,base_footprint,0.251428577423,0.0,0.0,0.0,0.0,-0.285714292526,teleoperation
1449618724689829841,512,1449618724651589976,base_footprint,0.251428577423,0.0,0.0,0.0,0.0,-0.285714292526,teleoperation
1449618724733614169,513,1449618724688026641,base_footprint,0.251428577423,0.0,0.0,0.0,0.0,-0.285714292526,teleoperation
1449618724774701805,514,1449618724732423834,base_footprint,0.301714288712,0.0,0.0,0.0,0.0,-0.336507940292,teleoperation
1449618724822515978,515,1449618724773242612,base_footprint,0.301714288712,0.0,0.0,0.0,0.0,-0.336507940292,teleoperation
1449618724845932999,516,1449618724822175306,base_footprint,0.296126987457,0.0,0.0,0.0,0.0,-0.336507940292,teleoperation
1449618724902889999,517,1449618724845419578,base_footprint,0.296126987457,0.0,0.0,0.0,0.0,-0.336507940292,teleoperation
1449618724928821004,518,1449618724902227854,base_footprint,0.296126987457,0.0,0.0,0.0,0.0,-0.336507940292,teleoperation
1449618724967842159,519,1449618724935639020,base_footprint,0.296126987457,0.0,0.0,0.0,0.0,-0.336507940292,teleoperation
1449618725013640076,520,1449618724968957920,base_footprint,0.296126987457,0.0,0.0,0.0,0.0,-0.336507940292,teleoperation
1449618725051611125,521,1449618725012605117,base_footprint,0.296126987457,0.0,0.0,0.0,0.0,-0.336507940292,teleoperation
1449618725094586782,522,1449618725050876473,base_footprint,0.296126987457,0.0,0.0,0.0,0.0,-0.336507940292,teleoperation
1449618725129141341,523,1449618725092883095,base_footprint,0.296126987457,0.0,0.0,0.0,0.0,-0.336507940292,teleoperation
1449618725165124268,524,1449618725127852189,base_footprint,0.296126987457,0.0,0.0,0.0,0.0,-0.336507940292,teleoperation
1449618725206949154,525,1449618725164825247,base_footprint,0.296126987457,0.0,0.0,0.0,0.0,-0.336507940292,teleoperation
1449618725245804393,526,1449618725205490194,base_footprint,0.301714288712,0.0,0.0,0.0,0.0,-0.342857146263,teleoperation
1449618725286620923,527,1449618725245222997,base_footprint,0.301714288712,0.0,0.0,0.0,0.0,-0.342857146263,teleoperation
1449618725325367344,528,1449618725285618900,base_footprint,0.301714288712,0.0,0.0,0.0,0.0,-0.342857146263,teleoperation
1449618725365690844,529,1449618725325052048,base_footprint,0.296126987457,0.0,0.0,0.0,0.0,-0.336507940292,teleoperation
1449618725406546643,530,1449618725365216368,base_footprint,0.296126987457,0.0,0.0,0.0,0.0,-0.336507940292,teleoperation
1449618725447833792,531,1449618725406262920,base_footprint,0.301714288712,0.0,0.0,0.0,0.0,-0.342857146263,teleoperation
1449618725492849245,532,1449618725447396255,base_footprint,0.301714288712,0.0,0.0,0.0,0.0,-0.342857146263,teleoperation
1449618725533648331,533,1449618725492451102,base_footprint,0.301714288712,0.0,0.0,0.0,0.0,-0.342857146263,teleoperation
1449618725570715621,534,1449618725529164616,base_footprint,0.301714288712,0.0,0.0,0.0,0.0,-0.342857146263,teleoperation
1449618725612832993,535,1449618725570483259,base_footprint,0.301714288712,0.0,0.0,0.0,0.0,-0.342857146263,teleoperation
1449618725654092790,536,1449618725612428543,base_footprint,0.296126987457,0.0,0.0,0.0,0.0,-0.342857146263,teleoperation
1449618725689163377,537,1449618725653795727,base_footprint,0.296126987457,0.0,0.0,0.0,0.0,-0.342857146263,teleoperation
1449618725736615316,538,1449618725686610063,base_footprint,0.296126987457,0.0,0.0,0.0,0.0,-0.342857146263,teleoperation
