%time,field.header.seq,field.header.stamp,field.header.frame_id,field.ns,field.id,field.type,field.action,field.pose.position.x,field.pose.position.y,field.pose.position.z,field.pose.orientation.x,field.pose.orientation.y,field.pose.orientation.z,field.pose.orientation.w,field.scale.x,field.scale.y,field.scale.z,field.color.r,field.color.g,field.color.b,field.color.a,field.lifetime,field.frame_locked,field.text,field.mesh_resource,field.mesh_use_embedded_materials
1449618706841111049,4,1449618706840550966,/odom,ga,1,0,0,0.0,0.0,0.0,0.0,0.0,0.0,1.0,0.25,0.15,0.0,1.0,0.0,0.0,1.0,2000000000,0,,,0
1449618706841115290,5,1449618706840870573,/odom,ga,2,2,0,0.0,0.0,0.0,0.0,0.0,0.0,0.0,0.15,0.15,0.01,0.0,1.0,0.0,1.0,2000000000,0,,,0
1449618706955264240,6,1449618706952654450,/odom,ga,1,0,0,0.0,0.0,0.0,0.0,0.0,0.0,1.0,0.25,0.15,0.0,1.0,0.0,0.0,1.0,2000000000,0,,,0
1449618706955267575,7,1449618706953059975,/odom,ga,2,2,0,0.0,0.0,0.0,0.0,0.0,0.0,0.0,0.15,0.15,0.01,0.0,1.0,0.0,1.0,2000000000,0,,,0
1449618706960791890,8,1449618706958931883,/odom,ga,1,0,0,0.0,0.0,0.0,0.0,0.0,0.0,1.0,0.25,0.15,0.0,1.0,0.0,0.0,1.0,2000000000,0,,,0
1449618706960805923,9,1449618706959107879,/odom,ga,2,2,0,0.0,0.0,0.0,0.0,0.0,0.0,0.0,0.15,0.15,0.01,0.0,1.0,0.0,1.0,2000000000,0,,,0
1449618707134029436,10,1449618707133669150,/odom,ga,1,0,0,0.0,0.0,0.0,0.0,0.0,0.0,1.0,0.25,0.15,0.0,1.0,0.0,0.0,1.0,2000000000,0,,,0
1449618707134031988,11,1449618707133831890,/odom,ga,2,2,0,0.0,0.0,0.0,0.0,0.0,0.0,0.0,0.15,0.15,0.01,0.0,1.0,0.0,1.0,2000000000,0,,,0
1449618707152157003,12,1449618707150977783,/odom,ga,1,0,0,0.0,0.0,0.0,0.0,0.0,0.0,1.0,0.25,0.15,0.0,1.0,0.0,0.0,1.0,2000000000,0,,,0
1449618707152160410,13,1449618707151232103,/odom,ga,2,2,0,0.0,0.0,0.0,0.0,0.0,0.0,0.0,0.15,0.15,0.01,0.0,1.0,0.0,1.0,2000000000,0,,,0
1449618707259456349,14,1449618707258921102,/odom,ga,1,0,0,0.0,0.0,0.0,0.0,0.0,0.0,1.0,0.25,0.15,0.0,1.0,0.0,0.0,1.0,2000000000,0,,,0
1449618707259470054,15,1449618707259197810,/odom,ga,2,2,0,0.0,0.0,0.0,0.0,0.0,0.0,0.0,0.15,0.15,0.01,0.0,1.0,0.0,1.0,2000000000,0,,,0
1449618707361062397,16,1449618707360689747,/odom,ga,1,0,0,0.0,0.0,0.0,0.0,0.0,0.0,1.0,0.25,0.15,0.0,1.0,0.0,0.0,1.0,2000000000,0,,,0
1449618707363125004,17,1449618707360950341,/odom,ga,2,2,0,0.0,0.0,0.0,0.0,0.0,0.0,0.0,0.15,0.15,0.01,0.0,1.0,0.0,1.0,2000000000,0,,,0
1449618707465702530,18,1449618707465497274,/odom,ga,1,0,0,0.0,0.0,0.0,0.0,0.0,0.0,1.0,0.25,0.15,0.0,1.0,0.0,0.0,1.0,2000000000,0,,,0
1449618707466446355,19,1449618707466036201,/odom,ga,2,2,0,0.0,0.0,0.0,0.0,0.0,0.0,0.0,0.15,0.15,0.01,0.0,1.0,0.0,1.0,2000000000,0,,,0
1449618707564786950,20,1449618707564588016,/odom,ga,1,0,0,0.0,0.0,0.0,0.0,0.0,0.0,1.0,0.25,0.15,0.0,1.0,0.0,0.0,1.0,2000000000,0,,,0
1449618707565274765,21,1449618707565065069,/odom,ga,2,2,0,0.0,0.0,0.0,0.0,0.0,0.0,0.0,0.15,0.15,0.01,0.0,1.0,0.0,1.0,2000000000,0,,,0
1449618707652910683,22,1449618707652656561,/odom,ga,1,0,0,0.0,0.0,0.0,0.0,0.0,0.0,1.0,0.25,0.15,0.0,1.0,0.0,0.0,1.0,2000000000,0,,,0
1449618707653147141,23,1449618707652899563,/odom,ga,2,2,0,0.0,0.0,0.0,0.0,0.0,0.0,0.0,0.15,0.15,0.01,0.0,1.0,0.0,1.0,2000000000,0,,,0
1449618707754261813,24,1449618707753858623,/odom,ga,1,0,0,0.0,0.0,0.0,0.0,0.0,0.0,1.0,0.25,0.15,0.0,1.0,0.0,0.0,1.0,2000000000,0,,,0
1449618707757424464,25,1449618707754685580,/odom,ga,2,2,0,0.0,0.0,0.0,0.0,0.0,0.0,0.0,0.15,0.15,0.01,0.0,1.0,0.0,1.0,2000000000,0,,,0
1449618707862202962,26,1449618707861808686,/odom,ga,1,0,0,0.0,0.0,0.0,0.0,0.0,0.0,1.0,0.25,0.15,0.0,1.0,0.0,0.0,1.0,2000000000,0,,,0
1449618707862939249,27,1449618707862597465,/odom,ga,2,2,0,0.0,0.0,0.0,0.0,0.0,0.0,0.0,0.15,0.15,0.01,0.0,1.0,0.0,1.0,2000000000,0,,,0
1449618707958931056,28,1449618707954967424,/odom,ga,1,0,0,0.0,0.0,0.0,0.0,0.0,0.0,1.0,0.25,0.15,0.0,1.0,0.0,0.0,1.0,2000000000,0,,,0
1449618707958938282,29,1449618707955380959,/odom,ga,2,2,0,0.0,0.0,0.0,0.0,0.0,0.0,0.0,0.15,0.15,0.01,0.0,1.0,0.0,1.0,2000000000,0,,,0
1449618708062221430,30,1449618708061936460,/odom,ga,1,0,0,0.0,0.0,0.0,0.0,0.0,0.0,1.0,0.25,0.15,0.0,1.0,0.0,0.0,1.0,2000000000,0,,,0
1449618708062877154,31,1449618708062602470,/odom,ga,2,2,0,0.0,0.0,0.0,0.0,0.0,0.0,0.0,0.15,0.15,0.01,0.0,1.0,0.0,1.0,2000000000,0,,,0
1449618708172271938,32,1449618708171307082,/odom,ga,1,0,0,0.0,0.0,0.0,0.0,0.0,0.0,1.0,0.25,0.15,0.0,1.0,0.0,0.0,1.0,2000000000,0,,,0
1449618708172275337,33,1449618708171682521,/odom,ga,2,2,0,0.0,0.0,0.0,0.0,0.0,0.0,0.0,0.15,0.15,0.01,0.0,1.0,0.0,1.0,2000000000,0,,,0
1449618708260736506,34,1449618708259674824,/odom,ga,1,0,0,0.0,0.0,0.0,0.0,0.0,0.0,1.0,0.25,0.15,0.0,1.0,0.0,0.0,1.0,2000000000,0,,,0
1449618708260742160,35,1449618708260325708,/odom,ga,2,2,0,0.0,0.0,0.0,0.0,0.0,0.0,0.0,0.15,0.15,0.01,0.0,1.0,0.0,1.0,2000000000,0,,,0
1449618708356708108,36,1449618708355725250,/odom,ga,1,0,0,0.0,0.0,0.0,0.0,0.0,0.0,1.0,0.25,0.15,0.0,1.0,0.0,0.0,1.0,2000000000,0,,,0
1449618708357939936,37,1449618708356511614,/odom,ga,2,2,0,0.0,0.0,0.0,0.0,0.0,0.0,0.0,0.15,0.15,0.01,0.0,1.0,0.0,1.0,2000000000,0,,,0
1449618708463011763,38,1449618708454669647,/odom,ga,1,0,0,0.0,0.0,0.0,0.0,0.0,0.0,1.0,0.25,0.15,0.0,1.0,0.0,0.0,1.0,2000000000,0,,,0
1449618708463018725,39,1449618708455074375,/odom,ga,2,2,0,0.0,0.0,0.0,0.0,0.0,0.0,0.0,0.15,0.15,0.01,0.0,1.0,0.0,1.0,2000000000,0,,,0
1449618708555857821,40,1449618708554442823,/odom,ga,1,0,0,0.0,0.0,0.0,0.0,0.0,0.0,1.0,0.25,0.15,0.0,1.0,0.0,0.0,1.0,2000000000,0,,,0
1449618708555866903,41,1449618708554798877,/odom,ga,2,2,0,0.0,0.0,0.0,0.0,0.0,0.0,0.0,0.15,0.15,0.01,0.0,1.0,0.0,1.0,2000000000,0,,,0
1449618708651070740,42,1449618708650950678,/odom,ga,1,0,0,0.0,0.0,0.0,0.0,0.0,0.0,1.0,0.25,0.15,0.0,1.0,0.0,0.0,1.0,2000000000,0,,,0
1449618708657797887,43,1449618708651109782,/odom,ga,2,2,0,0.0,0.0,0.0,0.0,0.0,0.0,0.0,0.15,0.15,0.01,0.0,1.0,0.0,1.0,2000000000,0,,,0
1449618708759192007,44,1449618708758879887,/odom,ga,1,0,0,0.0,0.0,0.0,0.0,0.0,0.0,1.0,0.25,0.15,0.0,1.0,0.0,0.0,1.0,2000000000,0,,,0
1449618708759548549,45,1449618708759295885,/odom,ga,2,2,0,0.0,0.0,0.0,0.0,0.0,0.0,0.0,0.15,0.15,0.01,0.0,1.0,0.0,1.0,2000000000,0,,,0
1449618708860424145,46,1449618708860174793,/odom,ga,1,0,0,0.0,0.0,0.0,0.0,0.0,0.0,1.0,0.25,0.15,0.0,1.0,0.0,0.0,1.0,2000000000,0,,,0
1449618708861531789,47,1449618708861031248,/odom,ga,2,2,0,0.0,0.0,0.0,0.0,0.0,0.0,0.0,0.15,0.15,0.01,0.0,1.0,0.0,1.0,2000000000,0,,,0
1449618708956026724,48,1449618708955580544,/odom,ga,1,0,0,0.0,0.0,0.0,0.0,0.0,0.0,1.0,0.25,0.15,0.0,1.0,0.0,0.0,1.0,2000000000,0,,,0
1449618708956055687,49,1449618708955752361,/odom,ga,2,2,0,0.0,0.0,0.0,0.0,0.0,0.0,0.0,0.15,0.15,0.01,0.0,1.0,0.0,1.0,2000000000,0,,,0
1449618709063628215,50,1449618709063318743,/odom,ga,1,0,0,0.0,0.0,0.0,0.0,0.0,0.0,1.0,0.25,0.15,0.0,1.0,0.0,0.0,1.0,2000000000,0,,,0
1449618709064156730,51,1449618709063618253,/odom,ga,2,2,0,0.0,0.0,0.0,0.0,0.0,0.0,0.0,0.15,0.15,0.01,0.0,1.0,0.0,1.0,2000000000,0,,,0
1449618709154292269,52,1449618709152493540,/odom,ga,1,0,0,0.0036808975851,0.0,0.0,0.0,0.0,0.0,1.0,0.25,0.15,0.0,1.0,0.0,0.0,1.0,2000000000,0,,,0
1449618709154351313,53,1449618709153074698,/odom,ga,2,2,0,0.0036808975851,0.0,0.0,0.0,0.0,0.0,0.0,0.15,0.15,0.01,0.0,1.0,0.0,1.0,2000000000,0,,,0
1449618709270591061,54,1449618709269631433,/odom,ga,1,0,0,0.106432181125,-0.000298609217919,0.0,0.0,0.0,-0.0025718170348,0.999996692873,0.25,0.15,0.0,1.0,0.0,0.0,1.0,2000000000,0,,,0
1449618709270602076,55,1449618709269889909,/odom,ga,2,2,0,0.106432181125,-0.000298609217919,0.0,0.0,0.0,0.0,0.0,0.15,0.15,0.01,0.0,1.0,0.0,1.0,2000000000,0,,,0
1449618709380603790,56,1449618709379362028,/odom,ga,1,0,0,0.349340718183,-0.00258926056123,0.0,0.0,0.0,-0.00679401799828,0.999976920393,0.25,0.15,0.0,1.0,0.0,0.0,1.0,2000000000,0,,,0
1449618709380606928,57,1449618709379813730,/odom,ga,2,2,0,0.349340718183,-0.00258926056123,0.0,0.0,0.0,0.0,0.0,0.15,0.15,0.01,0.0,1.0,0.0,1.0,2000000000,0,,,0
1449618709471013444,58,1449618709462372088,/odom,ga,1,0,0,0.565463235682,-0.00650897207162,0.0,0.0,0.0,-0.0105509662745,0.999944337006,0.25,0.15,0.0,1.0,0.0,0.0,1.0,2000000000,0,,,0
1449618709471494576,59,1449618709462642732,/odom,ga,2,2,0,0.565463235682,-0.00650897207162,0.0,0.0,0.0,0.0,0.0,0.15,0.15,0.01,0.0,1.0,0.0,1.0,2000000000,0,,,0
1449618709556560654,60,1449618709554797004,/odom,ga,1,0,0,0.589950762332,-0.00621880687966,0.0,0.0,0.0,-0.00966228625634,0.999953319023,0.25,0.15,0.0,1.0,0.0,0.0,1.0,2000000000,0,,,0
1449618709556626993,61,1449618709555011212,/odom,ga,2,2,0,0.589950762332,-0.00621880687966,0.0,0.0,0.0,0.0,0.0,0.15,0.15,0.01,0.0,1.0,0.0,1.0,2000000000,0,,,0
1449618709653300891,62,1449618709652455632,/odom,ga,1,0,0,0.611080357673,-0.0058281020968,0.0,0.0,0.0,-0.00874221668064,0.999961786094,0.25,0.15,0.0,1.0,0.0,0.0,1.0,2000000000,0,,,0
1449618709653386281,63,1449618709652622104,/odom,ga,2,2,0,0.611080357673,-0.0058281020968,0.0,0.0,0.0,0.0,0.0,0.15,0.15,0.01,0.0,1.0,0.0,1.0,2000000000,0,,,0
1449618709786582329,64,1449618709784891019,/odom,ga,1,0,0,0.630864931482,-0.00542381317032,0.0,0.0,0.0,-0.00788069606592,0.999968946833,0.25,0.15,0.0,1.0,0.0,0.0,1.0,2000000000,0,,,0
1449618709786590031,65,1449618709785258230,/odom,ga,2,2,0,0.630864931482,-0.00542381317032,0.0,0.0,0.0,0.0,0.0,0.15,0.15,0.01,0.0,1.0,0.0,1.0,2000000000,0,,,0
1449618709858870185,66,1449618709858452704,/odom,ga,1,0,0,0.679592601896,-0.00751970635276,0.0,0.0,0.0,-0.010142348025,0.999948565065,0.25,0.15,0.0,1.0,0.0,0.0,1.0,2000000000,0,,,0
1449618709859950980,67,1449618709858817710,/odom,ga,2,2,0,0.679592601896,-0.00751970635276,0.0,0.0,0.0,0.0,0.0,0.15,0.15,0.01,0.0,1.0,0.0,1.0,2000000000,0,,,0
1449618709955487639,68,1449618709954842422,/odom,ga,1,0,0,0.700494149456,-0.00849255202887,0.0,0.0,0.0,-0.0111125806892,0.999938253369,0.25,0.15,0.0,1.0,0.0,0.0,1.0,2000000000,0,,,0
1449618709955494186,69,1449618709955091251,/odom,ga,2,2,0,0.700494149456,-0.00849255202887,0.0,0.0,0.0,0.0,0.0,0.15,0.15,0.01,0.0,1.0,0.0,1.0,2000000000,0,,,0
1449618710066480305,70,1449618710060841992,/odom,ga,1,0,0,0.705043045487,-0.00935723108305,0.0,0.0,0.0,-0.012164855417,0.999926005409,0.25,0.15,0.0,1.0,0.0,0.0,1.0,2000000000,0,,,0
1449618710066486595,71,1449618710061252501,/odom,ga,2,2,0,0.705043045487,-0.00935723108305,0.0,0.0,0.0,0.0,0.0,0.15,0.15,0.01,0.0,1.0,0.0,1.0,2000000000,0,,,0
1449618710180030780,72,1449618710176875706,/odom,ga,1,0,0,0.732905942117,-0.00257103990326,0.0,0.0,0.0,-0.00766983686708,0.999970586369,0.25,0.15,0.0,1.0,0.0,0.0,1.0,2000000000,0,,,0
1449618710185906478,73,1449618710177177956,/odom,ga,2,2,0,0.732905942117,-0.00257103990326,0.0,0.0,0.0,0.0,0.0,0.15,0.15,0.01,0.0,1.0,0.0,1.0,2000000000,0,,,0
1449618710253969868,74,1449618710249724291,/odom,ga,1,0,0,0.751950735908,-0.010933578445,0.0,0.0,0.0,-0.0134674806856,0.99990930937,0.25,0.15,0.0,1.0,0.0,0.0,1.0,2000000000,0,,,0
1449618710253976454,75,1449618710249884779,/odom,ga,2,2,0,0.751950735908,-0.010933578445,0.0,0.0,0.0,0.0,0.0,0.15,0.15,0.01,0.0,1.0,0.0,1.0,2000000000,0,,,0
1449618710362113156,76,1449618710361343825,/odom,ga,1,0,0,0.757994195675,-0.00310957399455,0.0,0.0,0.0,-0.00828155322683,0.99996570735,0.25,0.15,0.0,1.0,0.0,0.0,1.0,2000000000,0,,,0
1449618710362116334,77,1449618710361537080,/odom,ga,2,2,0,0.757994195675,-0.00310957399455,0.0,0.0,0.0,0.0,0.0,0.15,0.15,0.01,0.0,1.0,0.0,1.0,2000000000,0,,,0
1449618710482082060,78,1449618710477684662,/odom,ga,1,0,0,0.772838940048,-0.00332506987258,0.0,0.0,0.0,-0.0085690956144,0.999963284626,0.25,0.15,0.0,1.0,0.0,0.0,1.0,2000000000,0,,,0
1449618710482225432,79,1449618710478085279,/odom,ga,2,2,0,0.772838940048,-0.00332506987258,0.0,0.0,0.0,0.0,0.0,0.15,0.15,0.01,0.0,1.0,0.0,1.0,2000000000,0,,,0
1449618710564356770,80,1449618710561882845,/odom,ga,1,0,0,0.782279646487,0.00482604681827,0.0,0.0,0.0,-0.00331075826126,0.999994519425,0.25,0.15,0.0,1.0,0.0,0.0,1.0,2000000000,0,,,0
1449618710564360038,81,1449618710562469588,/odom,ga,2,2,0,2.44402766228,-0.287684172392,0.717848479748,0.0,0.0,0.0,0.0,0.15,0.15,0.01,0.0,1.0,0.0,1.0,2000000000,0,,,0
1449618710651504980,82,1449618710650719966,/odom,ga,1,0,0,0.789244744473,0.00489290971295,0.0,0.0,0.0,-0.00334892778168,0.999994392326,0.25,0.15,0.0,1.0,0.0,0.0,1.0,2000000000,0,,,0
1449618710651508660,83,1449618710651137017,/odom,ga,2,2,0,2.44402766228,-0.287684172392,0.717848479748,0.0,0.0,0.0,0.0,0.15,0.15,0.01,0.0,1.0,0.0,1.0,2000000000,0,,,0
1449618710782795223,84,1449618710782452510,/odom,ga,1,0,0,0.79591728912,0.00496563125929,0.0,0.0,0.0,-0.00337784053117,0.99999429508,0.25,0.15,0.0,1.0,0.0,0.0,1.0,2000000000,0,,,0
1449618710783364799,85,1449618710782888308,/odom,ga,2,2,0,2.34132552147,-0.308269947767,0.678200006485,0.0,0.0,0.0,0.0,0.15,0.15,0.01,0.0,1.0,0.0,1.0,2000000000,0,,,0
1449618710852690317,86,1449618710851966634,/odom,ga,1,0,0,0.816174399249,0.0135875803204,0.0,0.0,0.0,0.00189993601297,0.99999819512,0.25,0.15,0.0,1.0,0.0,0.0,1.0,2000000000,0,,,0
1449618710852693245,87,1449618710852127632,/odom,ga,2,2,0,2.34132552147,-0.308269947767,0.678200006485,0.0,0.0,0.0,0.0,0.15,0.15,0.01,0.0,1.0,0.0,1.0,2000000000,0,,,0
1449618710966357672,88,1449618710963030513,/odom,ga,1,0,0,0.822098399774,0.0137685117686,0.0,0.0,0.0,0.00189464325711,0.999998205162,0.25,0.15,0.0,1.0,0.0,0.0,1.0,2000000000,0,,,0
1449618710966365028,89,1449618710963415446,/odom,ga,2,2,0,2.28386497498,-0.354998379946,0.648358762264,0.0,0.0,0.0,0.0,0.15,0.15,0.01,0.0,1.0,0.0,1.0,2000000000,0,,,0
1449618711053035678,90,1449618711052448682,/odom,ga,1,0,0,0.836467364945,0.0223644725585,0.0,0.0,0.0,0.00717367888123,0.999974268835,0.25,0.15,0.0,1.0,0.0,0.0,1.0,2000000000,0,,,0
1449618711053039048,91,1449618711052661383,/odom,ga,2,2,0,2.4103500843,-0.307527452707,0.707634091377,0.0,0.0,0.0,0.0,0.15,0.15,0.01,0.0,1.0,0.0,1.0,2000000000,0,,,0
1449618711156207703,92,1449618711153983266,/odom,ga,1,0,0,0.848096564797,0.0205822870495,0.0,0.0,0.0,0.0044411335023,0.999990138118,0.25,0.15,0.0,1.0,0.0,0.0,1.0,2000000000,0,,,0
1449618711156211603,93,1449618711154347179,/odom,ga,2,2,0,2.4103500843,-0.307527452707,0.707634091377,0.0,0.0,0.0,0.0,0.15,0.15,0.01,0.0,1.0,0.0,1.0,2000000000,0,,,0
1449618711261662847,94,1449618711255831504,/odom,ga,1,0,0,0.873868881659,0.027871148213,0.0,0.0,0.0,0.0072701729952,0.999973571943,0.25,0.15,0.0,1.0,0.0,0.0,1.0,2000000000,0,,,0
1449618711261668442,95,1449618711256278690,/odom,ga,2,2,0,2.35842943192,-0.330791473389,0.678684175014,0.0,0.0,0.0,0.0,0.15,0.15,0.01,0.0,1.0,0.0,1.0,2000000000,0,,,0
1449618711382989441,96,1449618711382138378,/odom,ga,1,0,0,0.891136133318,0.0285665228034,0.0,0.0,0.0,0.00700853166805,0.99997543994,0.25,0.15,0.0,1.0,0.0,0.0,1.0,2000000000,0,,,0
1449618711383024847,97,1449618711382386636,/odom,ga,2,2,0,2.35842943192,-0.330791473389,0.678684175014,0.0,0.0,0.0,0.0,0.15,0.15,0.01,0.0,1.0,0.0,1.0,2000000000,0,,,0
1449618711469018033,98,1449618711467666408,/odom,ga,1,0,0,0.87572215453,-0.0669078931239,0.0,0.0,0.0,-0.119901514422,0.992785791014,0.25,0.15,0.0,1.0,0.0,0.0,1.0,2000000000,0,,,0
1449618711469040391,99,1449618711468327118,/odom,ga,2,2,0,2.36564183235,-0.325364738703,0.669136464596,0.0,0.0,0.0,0.0,0.15,0.15,0.01,0.0,1.0,0.0,1.0,2000000000,0,,,0
1449618711564671995,100,1449618711562631068,/odom,ga,1,0,0,0.85687483719,-0.136944324034,0.0,0.0,0.0,-0.219028758975,0.975718403404,0.25,0.15,0.0,1.0,0.0,0.0,1.0,2000000000,0,,,0
1449618711564698601,101,1449618711563380701,/odom,ga,2,2,0,2.36564183235,-0.325364738703,0.669136464596,0.0,0.0,0.0,0.0,0.15,0.15,0.01,0.0,1.0,0.0,1.0,2000000000,0,,,0
1449618711960809582,102,1449618711959777761,/odom,ga,1,0,0,1.33578448515,-1.16638257639,0.0,0.0,0.0,-0.722065821284,0.691824363357,0.25,0.15,0.0,1.0,0.0,0.0,1.0,2000000000,0,,,0
1449618711960815707,103,1449618711960053187,/odom,ga,2,2,0,2.26848125458,-0.358391314745,0.659392476082,0.0,0.0,0.0,0.0,0.15,0.15,0.01,0.0,1.0,0.0,1.0,2000000000,0,,,0
1449618711986916799,104,1449618711983748969,/odom,ga,1,0,0,0.953840565221,-0.159125662111,0.0,0.0,0.0,-0.270565834975,0.962701474469,0.25,0.15,0.0,1.0,0.0,0.0,1.0,2000000000,0,,,0
1449618711986927976,105,1449618711984129479,/odom,ga,2,2,0,2.41235542297,-0.327738165855,0.67884683609,0.0,0.0,0.0,0.0,0.15,0.15,0.01,0.0,1.0,0.0,1.0,2000000000,0,,,0
1449618712270516552,106,1449618712269427861,/odom,ga,1,0,0,1.11314898159,-1.22310400058,0.0,0.0,0.0,-0.837984866084,0.545693470928,0.25,0.15,0.0,1.0,0.0,0.0,1.0,2000000000,0,,,0
1449618712270519867,107,1449618712269746875,/odom,ga,2,2,0,2.41235542297,-0.327738165855,0.67884683609,0.0,0.0,0.0,0.0,0.15,0.15,0.01,0.0,1.0,0.0,1.0,2000000000,0,,,0
1449618712661993919,108,1449618712659504433,/odom,ga,1,0,0,1.17403638652,-1.22855763557,0.0,0.0,0.0,-0.840364701327,0.542021372977,0.25,0.15,0.0,1.0,0.0,0.0,1.0,2000000000,0,,,0
1449618712662281856,109,1449618712660276310,/odom,ga,2,2,0,2.36158061028,-0.331883817911,0.677509486675,0.0,0.0,0.0,0.0,0.15,0.15,0.01,0.0,1.0,0.0,1.0,2000000000,0,,,0
1449618712872015480,110,1449618712869958262,/odom,ga,1,0,0,1.21519974167,-1.29766467795,0.0,0.0,0.0,-0.848194222849,0.529685340863,0.25,0.15,0.0,1.0,0.0,0.0,1.0,2000000000,0,,,0
1449618712872020223,111,1449618712870366965,/odom,ga,2,2,0,2.36158061028,-0.331883817911,0.677509486675,0.0,0.0,0.0,0.0,0.15,0.15,0.01,0.0,1.0,0.0,1.0,2000000000,0,,,0
1449618713185883616,112,1449618713180637441,/odom,ga,1,0,0,1.24084773343,-1.25878697068,0.0,0.0,0.0,-0.834644912486,0.550788407704,0.25,0.15,0.0,1.0,0.0,0.0,1.0,2000000000,0,,,0
1449618713185921805,113,1449618713180846746,/odom,ga,2,2,0,2.39481449127,-0.315563052893,0.698348939419,0.0,0.0,0.0,0.0,0.15,0.15,0.01,0.0,1.0,0.0,1.0,2000000000,0,,,0
1449618713395685159,114,1449618713393779795,/odom,ga,1,0,0,1.28456312132,-1.28450412753,0.0,0.0,0.0,-0.828634368886,0.559790213117,0.25,0.15,0.0,1.0,0.0,0.0,1.0,2000000000,0,,,0
1449618713395689397,115,1449618713393953871,/odom,ga,2,2,0,2.37401652336,-0.316862165928,0.677879691124,0.0,0.0,0.0,0.0,0.15,0.15,0.01,0.0,1.0,0.0,1.0,2000000000,0,,,0
1449618713408710548,116,1449618713408276843,/odom,ga,1,0,0,1.23981816091,-0.31212017963,0.0,0.0,0.0,-0.347806871746,0.937566200311,0.25,0.15,0.0,1.0,0.0,0.0,1.0,2000000000,0,,,0
1449618713408723842,117,1449618713408453853,/odom,ga,2,2,0,2.3745033741,-0.326390594244,0.677478969097,0.0,0.0,0.0,0.0,0.15,0.15,0.01,0.0,1.0,0.0,1.0,2000000000,0,,,0
1449618713509271081,118,1449618713508635357,/odom,ga,1,0,0,1.30951344854,-0.272941051773,0.0,0.0,0.0,-0.262535551019,0.964922320423,0.25,0.15,0.0,1.0,0.0,0.0,1.0,2000000000,0,,,0
1449618713509391332,119,1449618713509197360,/odom,ga,2,2,0,2.3745033741,-0.326390594244,0.677478969097,0.0,0.0,0.0,0.0,0.15,0.15,0.01,0.0,1.0,0.0,1.0,2000000000,0,,,0
1449618713603774664,120,1449618713603287557,/odom,ga,1,0,0,1.37977798247,-0.246113482633,0.0,0.0,0.0,-0.194351435432,0.980931964789,0.25,0.15,0.0,1.0,0.0,0.0,1.0,2000000000,0,,,0
1449618713603778209,121,1449618713603476468,/odom,ga,2,2,0,2.3745033741,-0.326390594244,0.677478969097,0.0,0.0,0.0,0.0,0.15,0.15,0.01,0.0,1.0,0.0,1.0,2000000000,0,,,0
1449618713708150499,122,1449618713707805140,/odom,ga,1,0,0,1.39735268413,-0.247671425188,0.0,0.0,0.0,-0.185636139326,0.982618554565,0.25,0.15,0.0,1.0,0.0,0.0,1.0,2000000000,0,,,0
1449618713709271805,123,1449618713708126990,/odom,ga,2,2,0,2.3745033741,-0.326390594244,0.677478969097,0.0,0.0,0.0,0.0,0.15,0.15,0.01,0.0,1.0,0.0,1.0,2000000000,0,,,0
1449618713848519326,124,1449618713847204118,/odom,ga,1,0,0,1.34309978731,-0.225462773067,0.0,0.0,0.0,-0.177444970273,0.984130724307,0.25,0.15,0.0,1.0,0.0,0.0,1.0,2000000000,0,,,0
1449618713848524177,125,1449618713847940230,/odom,ga,2,2,0,2.3745033741,-0.326390594244,0.677478969097,0.0,0.0,0.0,0.0,0.15,0.15,0.01,0.0,1.0,0.0,1.0,2000000000,0,,,0
1449618713920744512,126,1449618713918651851,/odom,ga,1,0,0,1.37729032069,-0.224708983986,0.0,0.0,0.0,-0.153981622639,0.988073711769,0.25,0.15,0.0,1.0,0.0,0.0,1.0,2000000000,0,,,0
1449618713921637176,127,1449618713919513034,/odom,ga,2,2,0,2.3745033741,-0.326390594244,0.677478969097,0.0,0.0,0.0,0.0,0.15,0.15,0.01,0.0,1.0,0.0,1.0,2000000000,0,,,0
1449618714003759504,128,1449618714002208794,/odom,ga,1,0,0,1.393899519,-0.231320410911,0.0,0.0,0.0,-0.151383358267,0.988475128084,0.25,0.15,0.0,1.0,0.0,0.0,1.0,2000000000,0,,,0
1449618714003775267,129,1449618714003071420,/odom,ga,2,2,0,2.3745033741,-0.326390594244,0.677478969097,0.0,0.0,0.0,0.0,0.15,0.15,0.01,0.0,1.0,0.0,1.0,2000000000,0,,,0
1449618714119813965,130,1449618714115408719,/odom,ga,1,0,0,1.4005582733,-0.240240295022,0.0,0.0,0.0,-0.155639367348,0.987813943681,0.25,0.15,0.0,1.0,0.0,0.0,1.0,2000000000,0,,,0
1449618714119818296,131,1449618714115635458,/odom,ga,2,2,0,2.3745033741,-0.326390594244,0.677478969097,0.0,0.0,0.0,0.0,0.15,0.15,0.01,0.0,1.0,0.0,1.0,2000000000,0,,,0
1449618714205850871,132,1449618714204039288,/odom,ga,1,0,0,1.45966393715,-0.265780172314,0.0,0.0,0.0,-0.158521957121,0.987355452262,0.25,0.15,0.0,1.0,0.0,0.0,1.0,2000000000,0,,,0
1449618714205857310,133,1449618714204296362,/odom,ga,2,2,0,2.3745033741,-0.326390594244,0.677478969097,0.0,0.0,0.0,0.0,0.15,0.15,0.01,0.0,1.0,0.0,1.0,2000000000,0,,,0
1449618714332377866,134,1449618714328323493,/odom,ga,1,0,0,1.4550482125,-0.279684244596,0.0,0.0,0.0,-0.168314785793,0.985733297035,0.25,0.15,0.0,1.0,0.0,0.0,1.0,2000000000,0,,,0
1449618714332418767,135,1449618714329008289,/odom,ga,2,2,0,2.3745033741,-0.326390594244,0.677478969097,0.0,0.0,0.0,0.0,0.15,0.15,0.01,0.0,1.0,0.0,1.0,2000000000,0,,,0
1449618714403021181,136,1449618714400460927,/odom,ga,1,0,0,1.45116199526,-0.28528122301,0.0,0.0,0.0,-0.172300067558,0.985044510019,0.25,0.15,0.0,1.0,0.0,0.0,1.0,2000000000,0,,,0
1449618714403024899,137,1449618714400885572,/odom,ga,2,2,0,2.3745033741,-0.326390594244,0.677478969097,0.0,0.0,0.0,0.0,0.15,0.15,0.01,0.0,1.0,0.0,1.0,2000000000,0,,,0
1449618714505444462,138,1449618714504485398,/odom,ga,1,0,0,1.47035889567,-0.299376740453,0.0,0.0,0.0,-0.176315483116,0.984333708868,0.25,0.15,0.0,1.0,0.0,0.0,1.0,2000000000,0,,,0
1449618714505448018,139,1449618714505173409,/odom,ga,2,2,0,2.3745033741,-0.326390594244,0.677478969097,0.0,0.0,0.0,0.0,0.15,0.15,0.01,0.0,1.0,0.0,1.0,2000000000,0,,,0
1449618714605058590,140,1449618714603875839,/odom,ga,1,0,0,1.51933199945,-0.322452506453,0.0,0.0,0.0,-0.176798947911,0.984246987304,0.25,0.15,0.0,1.0,0.0,0.0,1.0,2000000000,0,,,0
1449618714605087931,141,1449618714604302594,/odom,ga,2,2,0,2.3745033741,-0.326390594244,0.677478969097,0.0,0.0,0.0,0.0,0.15,0.15,0.01,0.0,1.0,0.0,1.0,2000000000,0,,,0
1449618714710468705,142,1449618714702039396,/odom,ga,1,0,0,1.53772430927,-0.337915140825,0.0,0.0,0.0,-0.181650549102,0.983363146559,0.25,0.15,0.0,1.0,0.0,0.0,1.0,2000000000,0,,,0
1449618714710476131,143,1449618714702424414,/odom,ga,2,2,0,2.3745033741,-0.326390594244,0.677478969097,0.0,0.0,0.0,0.0,0.15,0.15,0.01,0.0,1.0,0.0,1.0,2000000000,0,,,0
1449618714815592746,144,1449618714813979181,/odom,ga,1,0,0,1.56028373091,-0.364162613367,0.0,0.0,0.0,-0.191710773952,0.981451465509,0.25,0.15,0.0,1.0,0.0,0.0,1.0,2000000000,0,,,0
1449618714815596844,145,1449618714814985485,/odom,ga,2,2,0,2.3745033741,-0.326390594244,0.677478969097,0.0,0.0,0.0,0.0,0.15,0.15,0.01,0.0,1.0,0.0,1.0,2000000000,0,,,0
1449618714909038955,146,1449618714908019656,/odom,ga,1,0,0,1.58843083231,-0.375761787513,0.0,0.0,0.0,-0.191165644171,0.981557790702,0.25,0.15,0.0,1.0,0.0,0.0,1.0,2000000000,0,,,0
1449618714909044773,147,1449618714908355469,/odom,ga,2,2,0,2.3745033741,-0.326390594244,0.677478969097,0.0,0.0,0.0,0.0,0.15,0.15,0.01,0.0,1.0,0.0,1.0,2000000000,0,,,0
1449618715008214900,148,1449618715004964373,/odom,ga,1,0,0,1.61105534612,-0.394577946604,0.0,0.0,0.0,-0.196255479684,0.980552796485,0.25,0.15,0.0,1.0,0.0,0.0,1.0,2000000000,0,,,0
1449618715008218630,149,1449618715005229610,/odom,ga,2,2,0,2.3745033741,-0.326390594244,0.677478969097,0.0,0.0,0.0,0.0,0.15,0.15,0.01,0.0,1.0,0.0,1.0,2000000000,0,,,0
1449618715177984851,150,1449618715177666121,/odom,ga,1,0,0,1.6262773004,-0.419344896412,0.0,0.0,0.0,-0.206568289014,0.97843218568,0.25,0.15,0.0,1.0,0.0,0.0,1.0,2000000000,0,,,0
1449618715179060298,151,1449618715178366285,/odom,ga,2,2,0,2.3745033741,-0.326390594244,0.677478969097,0.0,0.0,0.0,0.0,0.15,0.15,0.01,0.0,1.0,0.0,1.0,2000000000,0,,,0
1449618715501588344,152,1449618715497970217,/odom,ga,1,0,0,2.85314117782,-0.951942785744,0.0,0.0,0.0,-0.188461640101,0.982080551793,0.25,0.15,0.0,1.0,0.0,0.0,1.0,2000000000,0,,,0
1449618715501636851,153,1449618715498399861,/odom,ga,2,2,0,2.3745033741,-0.326390594244,0.677478969097,0.0,0.0,0.0,0.0,0.15,0.15,0.01,0.0,1.0,0.0,1.0,2000000000,0,,,0
1449618715833087721,154,1449618715832714858,/odom,ga,1,0,0,2.92310268135,-1.03511325308,0.0,0.0,0.0,-0.198558515043,0.980089034784,0.25,0.15,0.0,1.0,0.0,0.0,1.0,2000000000,0,,,0
1449618715844468937,155,1449618715832936952,/odom,ga,2,2,0,2.3745033741,-0.326390594244,0.677478969097,0.0,0.0,0.0,0.0,0.15,0.15,0.01,0.0,1.0,0.0,1.0,2000000000,0,,,0
1449618716294741276,156,1449618716294498116,/odom,ga,1,0,0,2.99126027754,-1.12063215301,0.0,0.0,0.0,-0.20890873999,0.977935140158,0.25,0.15,0.0,1.0,0.0,0.0,1.0,2000000000,0,,,0
1449618716296905788,157,1449618716295143464,/odom,ga,2,2,0,2.99126027754,-1.12063215301,0.0,0.0,0.0,0.0,0.0,0.15,0.15,0.01,0.0,1.0,0.0,1.0,2000000000,0,,,0
1449618716580636455,158,1449618716578101690,/odom,ga,1,0,0,3.10022256366,-1.18039189468,0.0,0.0,0.0,-0.208909819794,0.977934909487,0.25,0.15,0.0,1.0,0.0,0.0,1.0,2000000000,0,,,0
1449618716580835639,159,1449618716578574120,/odom,ga,2,2,0,3.10022256366,-1.18039189468,0.0,0.0,0.0,0.0,0.0,0.15,0.15,0.01,0.0,1.0,0.0,1.0,2000000000,0,,,0
1449618717010786005,160,1449618717007303255,/odom,ga,1,0,0,3.14841714715,-1.21154278654,0.0,0.0,0.0,-0.210480476368,0.977598061101,0.25,0.15,0.0,1.0,0.0,0.0,1.0,2000000000,0,,,0
1449618717010793674,161,1449618717007617306,/odom,ga,2,2,0,3.14841714715,-1.21154278654,0.0,0.0,0.0,0.0,0.0,0.15,0.15,0.01,0.0,1.0,0.0,1.0,2000000000,0,,,0
1449618717210874540,162,1449618717204388652,/odom,ga,1,0,0,3.3088808346,-1.17382651447,0.0,0.0,0.0,-0.184721736784,0.982790862778,0.25,0.15,0.0,1.0,0.0,0.0,1.0,2000000000,0,,,0
1449618717210897997,163,1449618717204979705,/odom,ga,2,2,0,3.3088808346,-1.17382651447,0.0,0.0,0.0,0.0,0.0,0.15,0.15,0.01,0.0,1.0,0.0,1.0,2000000000,0,,,0
1449618717469652197,164,1449618717469470884,/odom,ga,1,0,0,3.40359583361,-1.12209657512,0.0,0.0,0.0,-0.163721554437,0.986506590253,0.25,0.15,0.0,1.0,0.0,0.0,1.0,2000000000,0,,,0
1449618717472016091,165,1449618717469718918,/odom,ga,2,2,0,3.40359583361,-1.12209657512,0.0,0.0,0.0,0.0,0.0,0.15,0.15,0.01,0.0,1.0,0.0,1.0,2000000000,0,,,0
1449618717649130930,166,1449618717649009840,/odom,ga,1,0,0,3.43698555456,-1.02403656894,0.0,0.0,0.0,-0.136627408626,0.990622506918,0.25,0.15,0.0,1.0,0.0,0.0,1.0,2000000000,0,,,0
1449618717650297914,167,1449618717649216650,/odom,ga,2,2,0,3.43698555456,-1.02403656894,0.0,0.0,0.0,0.0,0.0,0.15,0.15,0.01,0.0,1.0,0.0,1.0,2000000000,0,,,0
1449618717996354185,168,1449618717996153880,/odom,ga,1,0,0,3.50382451993,-0.981932423985,0.0,0.0,0.0,-0.120995231969,0.992653088365,0.25,0.15,0.0,1.0,0.0,0.0,1.0,2000000000,0,,,0
1449618717998214464,169,1449618717996370114,/odom,ga,2,2,0,3.50382451993,-0.981932423985,0.0,0.0,0.0,0.0,0.0,0.15,0.15,0.01,0.0,1.0,0.0,1.0,2000000000,0,,,0
1449618718171102761,170,1449618718169889951,/odom,ga,1,0,0,3.57070663389,-0.816803130556,0.0,0.0,0.0,-0.0740677832408,0.997253209313,0.25,0.15,0.0,1.0,0.0,0.0,1.0,2000000000,0,,,0
1449618718171108076,171,1449618718170321401,/odom,ga,2,2,0,2.3745033741,-0.326390594244,0.677478969097,0.0,0.0,0.0,0.0,0.15,0.15,0.01,0.0,1.0,0.0,1.0,2000000000,0,,,0
1449618718372657729,172,1449618718370938943,/odom,ga,1,0,0,3.54727682938,-0.740280686199,0.0,0.0,0.0,-0.0549045912084,0.998491605305,0.25,0.15,0.0,1.0,0.0,0.0,1.0,2000000000,0,,,0
1449618718372661721,173,1449618718371223436,/odom,ga,2,2,0,2.3745033741,-0.326390594244,0.677478969097,0.0,0.0,0.0,0.0,0.15,0.15,0.01,0.0,1.0,0.0,1.0,2000000000,0,,,0
1449618718525835652,174,1449618718523967315,/odom,ga,1,0,0,3.53357001595,-0.670185037508,0.0,0.0,0.0,-0.0358509740631,0.9993571472,0.25,0.15,0.0,1.0,0.0,0.0,1.0,2000000000,0,,,0
1449618718525849437,175,1449618718524264403,/odom,ga,2,2,0,2.3745033741,-0.326390594244,0.677478969097,0.0,0.0,0.0,0.0,0.15,0.15,0.01,0.0,1.0,0.0,1.0,2000000000,0,,,0
1449618718711874683,176,1449618718709864528,/odom,ga,1,0,0,3.49502126761,-0.615767488904,0.0,0.0,0.0,-0.0202412453876,0.999795125006,0.25,0.15,0.0,1.0,0.0,0.0,1.0,2000000000,0,,,0
1449618718711878941,177,1449618718710195372,/odom,ga,2,2,0,2.3745033741,-0.326390594244,0.677478969097,0.0,0.0,0.0,0.0,0.15,0.15,0.01,0.0,1.0,0.0,1.0,2000000000,0,,,0
1449618718898281195,178,1449618718896691350,/odom,ga,1,0,0,3.54513698523,-0.564242449733,0.0,0.0,0.0,-0.00185956783346,0.999998271002,0.25,0.15,0.0,1.0,0.0,0.0,1.0,2000000000,0,,,0
1449618718898284587,179,1449618718897048748,/odom,ga,2,2,0,2.3745033741,-0.326390594244,0.677478969097,0.0,0.0,0.0,0.0,0.15,0.15,0.01,0.0,1.0,0.0,1.0,2000000000,0,,,0
1449618719112808744,180,1449618719109940864,/odom,ga,1,0,0,3.49020354042,-0.514344107311,0.0,0.0,0.0,0.0138552997282,0.999904010728,0.25,0.15,0.0,1.0,0.0,0.0,1.0,2000000000,0,,,0
1449618719112828387,181,1449618719110383251,/odom,ga,2,2,0,2.3745033741,-0.326390594244,0.677478969097,0.0,0.0,0.0,0.0,0.15,0.15,0.01,0.0,1.0,0.0,1.0,2000000000,0,,,0
1449618719240126307,182,1449618719232302973,/odom,ga,1,0,0,3.53663228242,-0.447551329816,0.0,0.0,0.0,0.0369276886821,0.999317940302,0.25,0.15,0.0,1.0,0.0,0.0,1.0,2000000000,0,,,0
1449618719240233535,183,1449618719232564515,/odom,ga,2,2,0,2.3745033741,-0.326390594244,0.677478969097,0.0,0.0,0.0,0.0,0.15,0.15,0.01,0.0,1.0,0.0,1.0,2000000000,0,,,0
1449618719412158863,184,1449618719411362109,/odom,ga,1,0,0,3.46816959617,-0.43229927964,0.0,0.0,0.0,0.0443344950102,0.999016742879,0.25,0.15,0.0,1.0,0.0,0.0,1.0,2000000000,0,,,0
1449618719412511794,185,1449618719412211186,/odom,ga,2,2,0,2.3745033741,-0.326390594244,0.677478969097,0.0,0.0,0.0,0.0,0.15,0.15,0.01,0.0,1.0,0.0,1.0,2000000000,0,,,0
1449618719572238395,186,1449618719570875805,/odom,ga,1,0,0,3.49245631808,-0.390616683082,0.0,0.0,0.0,0.0617540351702,0.99809139819,0.25,0.15,0.0,1.0,0.0,0.0,1.0,2000000000,0,,,0
1449618719572251740,187,1449618719571128646,/odom,ga,2,2,0,2.3745033741,-0.326390594244,0.677478969097,0.0,0.0,0.0,0.0,0.15,0.15,0.01,0.0,1.0,0.0,1.0,2000000000,0,,,0
1449618719640589643,188,1449618719640413200,/odom,ga,1,0,0,3.51434983438,-0.344838829306,0.0,0.0,0.0,0.081576544524,0.996667079512,0.25,0.15,0.0,1.0,0.0,0.0,1.0,2000000000,0,,,0
1449618719641543161,189,1449618719640802755,/odom,ga,2,2,0,2.3745033741,-0.326390594244,0.677478969097,0.0,0.0,0.0,0.0,0.15,0.15,0.01,0.0,1.0,0.0,1.0,2000000000,0,,,0
1449618719693567217,190,1449618719693145359,/odom,ga,1,0,0,3.43033006504,-0.324291901739,0.0,0.0,0.0,0.0977937449388,0.995206703882,0.25,0.15,0.0,1.0,0.0,0.0,1.0,2000000000,0,,,0
1449618719693573906,191,1449618719693346656,/odom,ga,2,2,0,2.3745033741,-0.326390594244,0.677478969097,0.0,0.0,0.0,0.0,0.15,0.15,0.01,0.0,1.0,0.0,1.0,2000000000,0,,,0
1449618719842390245,192,1449618719841625479,/odom,ga,1,0,0,3.4207651677,-0.264079895999,0.0,0.0,0.0,0.136208082972,0.990680250198,0.25,0.15,0.0,1.0,0.0,0.0,1.0,2000000000,0,,,0
1449618719842394777,193,1449618719842047826,/odom,ga,2,2,0,2.3745033741,-0.326390594244,0.677478969097,0.0,0.0,0.0,0.0,0.15,0.15,0.01,0.0,1.0,0.0,1.0,2000000000,0,,,0
1449618719890059283,194,1449618719889721214,/odom,ga,1,0,0,3.36094951001,-0.2692750354,0.0,0.0,0.0,0.137268637265,0.990533856677,0.25,0.15,0.0,1.0,0.0,0.0,1.0,2000000000,0,,,0
1449618719891215954,195,1449618719890212634,/odom,ga,2,2,0,2.3745033741,-0.326390594244,0.677478969097,0.0,0.0,0.0,0.0,0.15,0.15,0.01,0.0,1.0,0.0,1.0,2000000000,0,,,0
1449618720013721410,196,1449618720013372634,/odom,ga,1,0,0,3.35699379713,-0.259550234409,0.0,0.0,0.0,0.144945469591,0.989439644872,0.25,0.15,0.0,1.0,0.0,0.0,1.0,2000000000,0,,,0
1449618720014660203,197,1449618720013785601,/odom,ga,2,2,0,2.3745033741,-0.326390594244,0.677478969097,0.0,0.0,0.0,0.0,0.15,0.15,0.01,0.0,1.0,0.0,1.0,2000000000,0,,,0
1449618720142177006,198,1449618720141925291,/odom,ga,1,0,0,3.3684316419,-0.231564343163,0.0,0.0,0.0,0.156101134314,0.987741077341,0.25,0.15,0.0,1.0,0.0,0.0,1.0,2000000000,0,,,0
1449618720142520513,199,1449618720142236658,/odom,ga,2,2,0,2.3745033741,-0.326390594244,0.677478969097,0.0,0.0,0.0,0.0,0.15,0.15,0.01,0.0,1.0,0.0,1.0,2000000000,0,,,0
1449618720248374167,200,1449618720246442352,/odom,ga,1,0,0,3.38127621987,-0.229291741979,0.0,0.0,0.0,0.156628821307,0.987657537984,0.25,0.15,0.0,1.0,0.0,0.0,1.0,2000000000,0,,,0
1449618720248378445,201,1449618720246701312,/odom,ga,2,2,0,2.3745033741,-0.326390594244,0.677478969097,0.0,0.0,0.0,0.0,0.15,0.15,0.01,0.0,1.0,0.0,1.0,2000000000,0,,,0
1449618720269953121,202,1449618720269041324,/odom,ga,1,0,0,2.9061627276,-0.350931097639,0.0,0.0,0.0,0.125409445524,0.992105070531,0.25,0.15,0.0,1.0,0.0,0.0,1.0,2000000000,0,,,0
1449618720269960545,203,1449618720269341785,/odom,ga,2,2,0,2.3745033741,-0.326390594244,0.677478969097,0.0,0.0,0.0,0.0,0.15,0.15,0.01,0.0,1.0,0.0,1.0,2000000000,0,,,0
1449618720452863675,204,1449618720452542376,/odom,ga,1,0,0,3.40145549364,-0.197995898179,0.0,0.0,0.0,0.168317514847,0.985732831043,0.25,0.15,0.0,1.0,0.0,0.0,1.0,2000000000,0,,,0
1449618720460927724,205,1449618720453460721,/odom,ga,2,2,0,2.3745033741,-0.326390594244,0.677478969097,0.0,0.0,0.0,0.0,0.15,0.15,0.01,0.0,1.0,0.0,1.0,2000000000,0,,,0
1449618720563001435,206,1449618720561451703,/odom,ga,1,0,0,3.4084440232,-0.184178487211,0.0,0.0,0.0,0.1735237802,0.984829679541,0.25,0.15,0.0,1.0,0.0,0.0,1.0,2000000000,0,,,0
1449618720563013732,207,1449618720561822045,/odom,ga,2,2,0,2.3745033741,-0.326390594244,0.677478969097,0.0,0.0,0.0,0.0,0.15,0.15,0.01,0.0,1.0,0.0,1.0,2000000000,0,,,0
1449618720651015086,208,1449618720649173056,/odom,ga,1,0,0,3.32032358986,-0.189941364284,0.0,0.0,0.0,0.181593892709,0.983373610654,0.25,0.15,0.0,1.0,0.0,0.0,1.0,2000000000,0,,,0
1449618720651021529,209,1449618720649445200,/odom,ga,2,2,0,2.3745033741,-0.326390594244,0.677478969097,0.0,0.0,0.0,0.0,0.15,0.15,0.01,0.0,1.0,0.0,1.0,2000000000,0,,,0
1449618720760913981,210,1449618720746876481,/odom,ga,1,0,0,3.33204335267,-0.194012334971,0.0,0.0,0.0,0.176592931028,0.984283971581,0.25,0.15,0.0,1.0,0.0,0.0,1.0,2000000000,0,,,0
1449618720760930427,211,1449618720747112144,/odom,ga,2,2,0,2.3745033741,-0.326390594244,0.677478969097,0.0,0.0,0.0,0.0,0.15,0.15,0.01,0.0,1.0,0.0,1.0,2000000000,0,,,0
1449618720827568636,212,1449618720827261518,/odom,ga,1,0,0,3.34929937998,-0.227992414924,0.0,0.0,0.0,0.147077284624,0.989125003398,0.25,0.15,0.0,1.0,0.0,0.0,1.0,2000000000,0,,,0
1449618720828638683,213,1449618720827851611,/odom,ga,2,2,0,2.3745033741,-0.326390594244,0.677478969097,0.0,0.0,0.0,0.0,0.15,0.15,0.01,0.0,1.0,0.0,1.0,2000000000,0,,,0
1449618720957878254,214,1449618720951939848,/odom,ga,1,0,0,3.35622858837,-0.267134595141,0.0,0.0,0.0,0.115442514528,0.99331416271,0.25,0.15,0.0,1.0,0.0,0.0,1.0,2000000000,0,,,0
1449618720957882713,215,1449618720952173654,/odom,ga,2,2,0,2.3745033741,-0.326390594244,0.677478969097,0.0,0.0,0.0,0.0,0.15,0.15,0.01,0.0,1.0,0.0,1.0,2000000000,0,,,0
1449618721013025490,216,1449618721009986493,/odom,ga,1,0,0,3.3563989815,-0.269054657967,0.0,0.0,0.0,0.113911529317,0.993490897537,0.25,0.15,0.0,1.0,0.0,0.0,1.0,2000000000,0,,,0
1449618721013032900,217,1449618721010674105,/odom,ga,2,2,0,2.3745033741,-0.326390594244,0.677478969097,0.0,0.0,0.0,0.0,0.15,0.15,0.01,0.0,1.0,0.0,1.0,2000000000,0,,,0
1449618721101044727,218,1449618721100909337,/odom,ga,1,0,0,3.35695454375,-0.27566846496,0.0,0.0,0.0,0.108636629539,0.994081527201,0.25,0.15,0.0,1.0,0.0,0.0,1.0,2000000000,0,,,0
1449618721102141753,219,1449618721101345010,/odom,ga,2,2,0,2.3745033741,-0.326390594244,0.677478969097,0.0,0.0,0.0,0.0,0.15,0.15,0.01,0.0,1.0,0.0,1.0,2000000000,0,,,0
1449618721189508970,220,1449618721189202193,/odom,ga,1,0,0,3.340651229,-0.242561577501,0.0,0.0,0.0,0.137235637283,0.990538429269,0.25,0.15,0.0,1.0,0.0,0.0,1.0,2000000000,0,,,0
1449618721189994595,221,1449618721189751731,/odom,ga,2,2,0,2.3745033741,-0.326390594244,0.677478969097,0.0,0.0,0.0,0.0,0.15,0.15,0.01,0.0,1.0,0.0,1.0,2000000000,0,,,0
1449618721292929358,222,1449618721292237940,/odom,ga,1,0,0,3.33116120318,-0.224730891509,0.0,0.0,0.0,0.152907220071,0.988240548677,0.25,0.15,0.0,1.0,0.0,0.0,1.0,2000000000,0,,,0
1449618721292942183,223,1449618721292470925,/odom,ga,2,2,0,2.3745033741,-0.326390594244,0.677478969097,0.0,0.0,0.0,0.0,0.15,0.15,0.01,0.0,1.0,0.0,1.0,2000000000,0,,,0
1449618721378446223,224,1449618721377144614,/odom,ga,1,0,0,3.35200109541,-0.214023582733,0.0,0.0,0.0,0.158118496268,0.987420144183,0.25,0.15,0.0,1.0,0.0,0.0,1.0,2000000000,0,,,0
1449618721378450729,225,1449618721377736714,/odom,ga,2,2,0,2.3745033741,-0.326390594244,0.677478969097,0.0,0.0,0.0,0.0,0.15,0.15,0.01,0.0,1.0,0.0,1.0,2000000000,0,,,0
1449618721524055839,226,1449618721523838116,/odom,ga,1,0,0,3.39860444458,-0.233598861982,0.0,0.0,0.0,0.134875801965,0.99086251218,0.25,0.15,0.0,1.0,0.0,0.0,1.0,2000000000,0,,,0
1449618721526417713,227,1449618721524348171,/odom,ga,2,2,0,2.3745033741,-0.326390594244,0.677478969097,0.0,0.0,0.0,0.0,0.15,0.15,0.01,0.0,1.0,0.0,1.0,2000000000,0,,,0
1449618721607223689,228,1449618721606802998,/odom,ga,1,0,0,3.27876019232,-0.241083294715,0.0,0.0,0.0,0.150010989532,0.988684329308,0.25,0.15,0.0,1.0,0.0,0.0,1.0,2000000000,0,,,0
1449618721607525053,229,1449618721607310616,/odom,ga,2,2,0,2.3745033741,-0.326390594244,0.677478969097,0.0,0.0,0.0,0.0,0.15,0.15,0.01,0.0,1.0,0.0,1.0,2000000000,0,,,0
1449618721635631817,230,1449618721627213377,/odom,ga,1,0,0,2.90811684093,-0.32823943181,0.0,0.0,0.0,0.142614631302,0.98977829181,0.25,0.15,0.0,1.0,0.0,0.0,1.0,2000000000,0,,,0
1449618721635701188,231,1449618721627556607,/odom,ga,2,2,0,2.3745033741,-0.326390594244,0.677478969097,0.0,0.0,0.0,0.0,0.15,0.15,0.01,0.0,1.0,0.0,1.0,2000000000,0,,,0
1449618721793650969,232,1449618721792323730,/odom,ga,1,0,0,3.23069710448,-0.197615328062,0.0,0.0,0.0,0.19172411426,0.9814488596,0.25,0.15,0.0,1.0,0.0,0.0,1.0,2000000000,0,,,0
1449618721793655386,233,1449618721792588983,/odom,ga,2,2,0,2.3745033741,-0.326390594244,0.677478969097,0.0,0.0,0.0,0.0,0.15,0.15,0.01,0.0,1.0,0.0,1.0,2000000000,0,,,0
1449618721899166386,234,1449618721897424536,/odom,ga,1,0,0,3.31800867611,-0.136918389799,0.0,0.0,0.0,0.212276364794,0.977209672972,0.25,0.15,0.0,1.0,0.0,0.0,1.0,2000000000,0,,,0
1449618721899170478,235,1449618721898519322,/odom,ga,2,2,0,2.3745033741,-0.326390594244,0.677478969097,0.0,0.0,0.0,0.0,0.15,0.15,0.01,0.0,1.0,0.0,1.0,2000000000,0,,,0
1449618722031276712,236,1449618722029740326,/odom,ga,1,0,0,3.32481380666,-0.117956808876,0.0,0.0,0.0,0.221381979389,0.975187171369,0.25,0.15,0.0,1.0,0.0,0.0,1.0,2000000000,0,,,0
1449618722031279736,237,1449618722030099254,/odom,ga,2,2,0,2.3745033741,-0.326390594244,0.677478969097,0.0,0.0,0.0,0.0,0.15,0.15,0.01,0.0,1.0,0.0,1.0,2000000000,0,,,0
1449618722058975048,238,1449618722054763283,/odom,ga,1,0,0,3.20344299718,-0.191216066107,0.0,0.0,0.0,0.194803389431,0.980842311213,0.25,0.15,0.0,1.0,0.0,0.0,1.0,2000000000,0,,,0
1449618722058977855,239,1449618722055216417,/odom,ga,2,2,0,2.3745033741,-0.326390594244,0.677478969097,0.0,0.0,0.0,0.0,0.15,0.15,0.01,0.0,1.0,0.0,1.0,2000000000,0,,,0
1449618722182338565,240,1449618722182070036,/odom,ga,1,0,0,3.21105475751,-0.196103343813,0.0,0.0,0.0,0.188419139141,0.982088706791,0.25,0.15,0.0,1.0,0.0,0.0,1.0,2000000000,0,,,0
1449618722183564235,241,1449618722182543950,/odom,ga,2,2,0,2.3745033741,-0.326390594244,0.677478969097,0.0,0.0,0.0,0.0,0.15,0.15,0.01,0.0,1.0,0.0,1.0,2000000000,0,,,0
1449618722303264820,242,1449618722302293726,/odom,ga,1,0,0,3.22631592195,-0.177520461437,0.0,0.0,0.0,0.193017755199,0.981195264042,0.25,0.15,0.0,1.0,0.0,0.0,1.0,2000000000,0,,,0
1449618722304260209,243,1449618722303603385,/odom,ga,2,2,0,2.3745033741,-0.326390594244,0.677478969097,0.0,0.0,0.0,0.0,0.15,0.15,0.01,0.0,1.0,0.0,1.0,2000000000,0,,,0
1449618722354728185,244,1449618722354202749,/odom,ga,1,0,0,3.16795515538,-0.186909222096,0.0,0.0,0.0,0.194024734183,0.980996637367,0.25,0.15,0.0,1.0,0.0,0.0,1.0,2000000000,0,,,0
1449618722354745272,245,1449618722354364904,/odom,ga,2,2,0,2.3745033741,-0.326390594244,0.677478969097,0.0,0.0,0.0,0.0,0.15,0.15,0.01,0.0,1.0,0.0,1.0,2000000000,0,,,0
1449618723272281771,246,1449618723270370543,/odom,ga,1,0,0,3.18037700961,-0.174720008396,0.0,0.0,0.0,0.198343406362,0.980132589578,0.25,0.15,0.0,1.0,0.0,0.0,1.0,2000000000,0,,,0
1449618723272286395,247,1449618723271312742,/odom,ga,2,2,0,2.3745033741,-0.326390594244,0.677478969097,0.0,0.0,0.0,0.0,0.15,0.15,0.01,0.0,1.0,0.0,1.0,2000000000,0,,,0
1449618723288233238,248,1449618723286669102,/odom,ga,1,0,0,3.19668137821,-0.0912550366788,0.0,0.0,0.0,0.240918256659,0.970545410379,0.25,0.15,0.0,1.0,0.0,0.0,1.0,2000000000,0,,,0
1449618723288238300,249,1449618723287158120,/odom,ga,2,2,0,2.3745033741,-0.326390594244,0.677478969097,0.0,0.0,0.0,0.0,0.15,0.15,0.01,0.0,1.0,0.0,1.0,2000000000,0,,,0
1449618723390435290,250,1449618723388034320,/odom,ga,1,0,0,3.22654350225,-0.116376305586,0.0,0.0,0.0,0.19972859959,0.979851257337,0.25,0.15,0.0,1.0,0.0,0.0,1.0,2000000000,0,,,0
1449618723390438607,251,1449618723388694512,/odom,ga,2,2,0,2.3745033741,-0.326390594244,0.677478969097,0.0,0.0,0.0,0.0,0.15,0.15,0.01,0.0,1.0,0.0,1.0,2000000000,0,,,0
1449618723483396680,252,1449618723482130550,/odom,ga,1,0,0,3.1691440662,-0.14428425839,0.0,0.0,0.0,0.194679397345,0.98086692892,0.25,0.15,0.0,1.0,0.0,0.0,1.0,2000000000,0,,,0
1449618723483399809,253,1449618723482713914,/odom,ga,2,2,0,2.3745033741,-0.326390594244,0.677478969097,0.0,0.0,0.0,0.0,0.15,0.15,0.01,0.0,1.0,0.0,1.0,2000000000,0,,,0
1449618723584150575,254,1449618723583406723,/odom,ga,1,0,0,3.06731839632,-0.190474185195,0.0,0.0,0.0,0.186250289668,0.982502330582,0.25,0.15,0.0,1.0,0.0,0.0,1.0,2000000000,0,,,0
1449618723584669721,255,1449618723584244550,/odom,ga,2,2,0,2.3745033741,-0.326390594244,0.677478969097,0.0,0.0,0.0,0.0,0.15,0.15,0.01,0.0,1.0,0.0,1.0,2000000000,0,,,0
1449618723684309055,256,1449618723682991932,/odom,ga,1,0,0,3.03794431788,-0.203988091913,0.0,0.0,0.0,0.182785753808,0.983152769515,0.25,0.15,0.0,1.0,0.0,0.0,1.0,2000000000,0,,,0
1449618723684331733,257,1449618723683614966,/odom,ga,2,2,0,3.03794431788,-0.203988091913,0.0,0.0,0.0,0.0,0.0,0.15,0.15,0.01,0.0,1.0,0.0,1.0,2000000000,0,,,0
1449618723790041876,258,1449618723788689887,/odom,ga,1,0,0,3.03993299989,-0.20395498536,0.0,0.0,0.0,0.181707220885,0.983352676245,0.25,0.15,0.0,1.0,0.0,0.0,1.0,2000000000,0,,,0
1449618723790045704,259,1449618723788952407,/odom,ga,2,2,0,3.03993299989,-0.20395498536,0.0,0.0,0.0,0.0,0.0,0.15,0.15,0.01,0.0,1.0,0.0,1.0,2000000000,0,,,0
1449618723882962980,260,1449618723880705522,/odom,ga,1,0,0,3.02139487244,-0.207252258278,0.0,0.0,0.0,0.184892833124,0.982758688722,0.25,0.15,0.0,1.0,0.0,0.0,1.0,2000000000,0,,,0
1449618723883180130,261,1449618723882036042,/odom,ga,2,2,0,3.02139487244,-0.207252258278,0.0,0.0,0.0,0.0,0.0,0.15,0.15,0.01,0.0,1.0,0.0,1.0,2000000000,0,,,0
1449618723979967185,262,1449618723979122475,/odom,ga,1,0,0,3.10493116419,-0.175683095708,0.0,0.0,0.0,0.183300700796,0.983056892091,0.25,0.15,0.0,1.0,0.0,0.0,1.0,2000000000,0,,,0
1449618723979971235,263,1449618723979435849,/odom,ga,2,2,0,3.10493116419,-0.175683095708,0.0,0.0,0.0,0.0,0.0,0.15,0.15,0.01,0.0,1.0,0.0,1.0,2000000000,0,,,0
1449618724084010638,264,1449618724081259182,/odom,ga,1,0,0,3.22055272047,-0.132452234912,0.0,0.0,0.0,0.181080483967,0.983468280285,0.25,0.15,0.0,1.0,0.0,0.0,1.0,2000000000,0,,,0
1449618724084019572,265,1449618724082030569,/odom,ga,2,2,0,3.22055272047,-0.132452234912,0.0,0.0,0.0,0.0,0.0,0.15,0.15,0.01,0.0,1.0,0.0,1.0,2000000000,0,,,0
1449618724178228363,266,1449618724176830721,/odom,ga,1,0,0,3.32262798059,-0.0870321284798,0.0,0.0,0.0,0.184380890827,0.982854865734,0.25,0.15,0.0,1.0,0.0,0.0,1.0,2000000000,0,,,0
1449618724178234052,267,1449618724177354365,/odom,ga,2,2,0,3.32262798059,-0.0870321284798,0.0,0.0,0.0,0.0,0.0,0.15,0.15,0.01,0.0,1.0,0.0,1.0,2000000000,0,,,0
1449618724276323467,268,1449618724276030758,/odom,ga,1,0,0,3.37885619244,-0.0656846217003,0.0,0.0,0.0,0.183433298461,0.983032158688,0.25,0.15,0.0,1.0,0.0,0.0,1.0,2000000000,0,,,0
1449618724277469160,269,1449618724276550643,/odom,ga,2,2,0,3.37885619244,-0.0656846217003,0.0,0.0,0.0,0.0,0.0,0.15,0.15,0.01,0.0,1.0,0.0,1.0,2000000000,0,,,0
1449618724376339518,270,1449618724376040528,/odom,ga,1,0,0,3.41467631577,-0.0434381391323,0.0,0.0,0.0,0.188280626776,0.982115271025,0.25,0.15,0.0,1.0,0.0,0.0,1.0,2000000000,0,,,0
1449618724376440035,271,1449618724376296171,/odom,ga,2,2,0,3.41467631577,-0.0434381391323,0.0,0.0,0.0,0.0,0.0,0.15,0.15,0.01,0.0,1.0,0.0,1.0,2000000000,0,,,0
1449618724488544728,272,1449618724488139805,/odom,ga,1,0,0,3.44351565024,-0.0424277058372,0.0,0.0,0.0,0.180577769351,0.983560709472,0.25,0.15,0.0,1.0,0.0,0.0,1.0,2000000000,0,,,0
1449618724489660229,273,1449618724488346527,/odom,ga,2,2,0,3.44351565024,-0.0424277058372,0.0,0.0,0.0,0.0,0.0,0.15,0.15,0.01,0.0,1.0,0.0,1.0,2000000000,0,,,0
1449618724580424020,274,1449618724580093564,/odom,ga,1,0,0,3.47330083484,-0.0295266809791,0.0,0.0,0.0,0.177103410476,0.984192248495,0.25,0.15,0.0,1.0,0.0,0.0,1.0,2000000000,0,,,0
1449618724583495809,275,1449618724581242900,/odom,ga,2,2,0,3.47330083484,-0.0295266809791,0.0,0.0,0.0,0.0,0.0,0.15,0.15,0.01,0.0,1.0,0.0,1.0,2000000000,0,,,0
1449618724689575334,276,1449618724680661729,/odom,ga,1,0,0,3.50069611692,-0.0651906667238,0.0,0.0,0.0,0.123132986404,0.992390179143,0.25,0.15,0.0,1.0,0.0,0.0,1.0,2000000000,0,,,0
1449618724689585636,277,1449618724681031590,/odom,ga,2,2,0,3.50069611692,-0.0651906667238,0.0,0.0,0.0,0.0,0.0,0.15,0.15,0.01,0.0,1.0,0.0,1.0,2000000000,0,,,0
1449618724784512439,278,1449618724783332514,/odom,ga,1,0,0,3.46318867987,-0.154230819242,0.0,0.0,0.0,0.0174823546826,0.999847171959,0.25,0.15,0.0,1.0,0.0,0.0,1.0,2000000000,0,,,0
1449618724784529637,279,1449618724783720282,/odom,ga,2,2,0,3.46318867987,-0.154230819242,0.0,0.0,0.0,0.0,0.0,0.15,0.15,0.01,0.0,1.0,0.0,1.0,2000000000,0,,,0
1449618724889441587,280,1449618724888647037,/odom,ga,1,0,0,3.47538435374,-0.19214721778,0.0,0.0,0.0,-0.0397978652721,0.999207751131,0.25,0.15,0.0,1.0,0.0,0.0,1.0,2000000000,0,,,0
1449618724889452606,281,1449618724888883367,/odom,ga,2,2,0,3.47538435374,-0.19214721778,0.0,0.0,0.0,0.0,0.0,0.15,0.15,0.01,0.0,1.0,0.0,1.0,2000000000,0,,,0
1449618724975236018,282,1449618724974731868,/odom,ga,1,0,0,3.51852121465,-0.205444843855,0.0,0.0,0.0,-0.0893638427431,0.995999047997,0.25,0.15,0.0,1.0,0.0,0.0,1.0,2000000000,0,,,0
1449618724975263095,283,1449618724974899195,/odom,ga,2,2,0,3.51852121465,-0.205444843855,0.0,0.0,0.0,0.0,0.0,0.15,0.15,0.01,0.0,1.0,0.0,1.0,2000000000,0,,,0
1449618725079668044,284,1449618725078947487,/odom,ga,1,0,0,3.53294784192,-0.216899137994,0.0,0.0,0.0,-0.114914149753,0.993375426607,0.25,0.15,0.0,1.0,0.0,0.0,1.0,2000000000,0,,,0
1449618725081202694,285,1449618725079905078,/odom,ga,2,2,0,3.53294784192,-0.216899137994,0.0,0.0,0.0,0.0,0.0,0.15,0.15,0.01,0.0,1.0,0.0,1.0,2000000000,0,,,0
1449618725176327800,286,1449618725175029599,/odom,ga,1,0,0,3.55738715159,-0.223319851614,0.0,0.0,0.0,-0.139811513109,0.990178135894,0.25,0.15,0.0,1.0,0.0,0.0,1.0,2000000000,0,,,0
1449618725176390306,287,1449618725175405485,/odom,ga,2,2,0,3.55738715159,-0.223319851614,0.0,0.0,0.0,0.0,0.0,0.15,0.15,0.01,0.0,1.0,0.0,1.0,2000000000,0,,,0
1449618725287936161,288,1449618725286959350,/odom,ga,1,0,0,3.57768286635,-0.220752210636,0.0,0.0,0.0,-0.14890495185,0.988851513279,0.25,0.15,0.0,1.0,0.0,0.0,1.0,2000000000,0,,,0
1449618725287984818,289,1449618725287280390,/odom,ga,2,2,0,3.57768286635,-0.220752210636,0.0,0.0,0.0,0.0,0.0,0.15,0.15,0.01,0.0,1.0,0.0,1.0,2000000000,0,,,0
1449618725385997672,290,1449618725383912206,/odom,ga,1,0,0,3.60987620942,-0.221119027625,0.0,0.0,0.0,-0.162337801931,0.986735242131,0.25,0.15,0.0,1.0,0.0,0.0,1.0,2000000000,0,,,0
1449618725386254932,291,1449618725385522479,/odom,ga,2,2,0,3.60987620942,-0.221119027625,0.0,0.0,0.0,0.0,0.0,0.15,0.15,0.01,0.0,1.0,0.0,1.0,2000000000,0,,,0
1449618725489474533,292,1449618725487051712,/odom,ga,1,0,0,3.62350092046,-0.218173723949,0.0,0.0,0.0,-0.167483201999,0.985874929719,0.25,0.15,0.0,1.0,0.0,0.0,1.0,2000000000,0,,,0
1449618725489480285,293,1449618725488480434,/odom,ga,2,2,0,3.62350092046,-0.218173723949,0.0,0.0,0.0,0.0,0.0,0.15,0.15,0.01,0.0,1.0,0.0,1.0,2000000000,0,,,0
1449618725584275111,294,1449618725582921973,/odom,ga,1,0,0,3.65657738462,-0.217394973699,0.0,0.0,0.0,-0.178527824855,0.983934863572,0.25,0.15,0.0,1.0,0.0,0.0,1.0,2000000000,0,,,0
1449618725584281502,295,1449618725583429384,/odom,ga,2,2,0,3.65657738462,-0.217394973699,0.0,0.0,0.0,0.0,0.0,0.15,0.15,0.01,0.0,1.0,0.0,1.0,2000000000,0,,,0
1449618725676679533,296,1449618725676000870,/odom,ga,1,0,0,3.67652449986,-0.21848019361,0.0,0.0,0.0,-0.18586027407,0.98257618459,0.25,0.15,0.0,1.0,0.0,0.0,1.0,2000000000,0,,,0
1449618725678007345,297,1449618725676721536,/odom,ga,2,2,0,3.67652449986,-0.21848019361,0.0,0.0,0.0,0.0,0.0,0.15,0.15,0.01,0.0,1.0,0.0,1.0,2000000000,0,,,0
1449618725795359232,298,1449618725793159450,/odom,ga,1,0,0,3.69908251176,-0.223551505922,0.0,0.0,0.0,-0.1984739454,0.980106164146,0.25,0.15,0.0,1.0,0.0,0.0,1.0,2000000000,0,,,0
1449618725795366082,299,1449618725793862189,/odom,ga,2,2,0,3.69908251176,-0.223551505922,0.0,0.0,0.0,0.0,0.0,0.15,0.15,0.01,0.0,1.0,0.0,1.0,2000000000,0,,,0
1449618725890425125,300,1449618725890031422,/odom,ga,1,0,0,3.72604727892,-0.234043804141,0.0,0.0,0.0,-0.214834299953,0.976650512498,0.25,0.15,0.0,1.0,0.0,0.0,1.0,2000000000,0,,,0
1449618725891131741,301,1449618725890743852,/odom,ga,2,2,0,3.72604727892,-0.234043804141,0.0,0.0,0.0,0.0,0.0,0.15,0.15,0.01,0.0,1.0,0.0,1.0,2000000000,0,,,0
1449618725975666820,302,1449618725975360421,/odom,ga,1,0,0,3.74892017116,-0.231238485212,0.0,0.0,0.0,-0.217771971308,0.975999676492,0.25,0.15,0.0,1.0,0.0,0.0,1.0,2000000000,0,,,0
1449618725976132317,303,1449618725975712379,/odom,ga,2,2,0,3.74892017116,-0.231238485212,0.0,0.0,0.0,0.0,0.0,0.15,0.15,0.01,0.0,1.0,0.0,1.0,2000000000,0,,,0
1449618726075751439,304,1449618726075535251,/odom,ga,1,0,0,3.73818485732,-0.222203360809,0.0,0.0,0.0,-0.210274471371,0.977642392028,0.25,0.15,0.0,1.0,0.0,0.0,1.0,2000000000,0,,,0
1449618726077350318,305,1449618726076008917,/odom,ga,2,2,0,3.73818485732,-0.222203360809,0.0,0.0,0.0,0.0,0.0,0.15,0.15,0.01,0.0,1.0,0.0,1.0,2000000000,0,,,0
1449618726178036077,306,1449618726176856263,/odom,ga,1,0,0,3.77951822939,-0.239447900552,0.0,0.0,0.0,-0.232396087452,0.972621230766,0.25,0.15,0.0,1.0,0.0,0.0,1.0,2000000000,0,,,0
1449618726178045182,307,1449618726177209489,/odom,ga,2,2,0,3.77951822939,-0.239447900552,0.0,0.0,0.0,0.0,0.0,0.15,0.15,0.01,0.0,1.0,0.0,1.0,2000000000,0,,,0
1449618726280805261,308,1449618726280527813,/odom,ga,1,0,0,3.7995174949,-0.251149010049,0.0,0.0,0.0,-0.245335153358,0.969438323219,0.25,0.15,0.0,1.0,0.0,0.0,1.0,2000000000,0,,,0
1449618726281065680,309,1449618726280908596,/odom,ga,2,2,0,3.7995174949,-0.251149010049,0.0,0.0,0.0,0.0,0.0,0.15,0.15,0.01,0.0,1.0,0.0,1.0,2000000000,0,,,0
1449618726381975120,310,1449618726379488270,/odom,ga,1,0,0,3.83106188474,-0.206104843035,0.0,0.0,0.0,-0.180160614333,0.983637206008,0.25,0.15,0.0,1.0,0.0,0.0,1.0,2000000000,0,,,0
1449618726381979953,311,1449618726380036228,/odom,ga,2,2,0,3.83106188474,-0.206104843035,0.0,0.0,0.0,0.0,0.0,0.15,0.15,0.01,0.0,1.0,0.0,1.0,2000000000,0,,,0
1449618726481212975,312,1449618726481012079,/odom,ga,1,0,0,3.89490835653,-0.163331270958,0.0,0.0,0.0,-0.110343358377,0.993893527126,0.25,0.15,0.0,1.0,0.0,0.0,1.0,2000000000,0,,,0
1449618726482030140,313,1449618726481299435,/odom,ga,2,2,0,3.89490835653,-0.163331270958,0.0,0.0,0.0,0.0,0.0,0.15,0.15,0.01,0.0,1.0,0.0,1.0,2000000000,0,,,0
1449618726577990717,314,1449618726576997405,/odom,ga,1,0,0,3.92143814235,-0.110987595666,0.0,0.0,0.0,-0.0259730596238,0.999662643182,0.25,0.15,0.0,1.0,0.0,0.0,1.0,2000000000,0,,,0
1449618726577994958,315,1449618726577205062,/odom,ga,2,2,0,3.92143814235,-0.110987595666,0.0,0.0,0.0,0.0,0.0,0.15,0.15,0.01,0.0,1.0,0.0,1.0,2000000000,0,,,0
1449618726679284687,316,1449618726678213089,/odom,ga,1,0,0,3.93213214584,-0.0794531268391,0.0,0.0,0.0,0.0200262109565,0.999799455328,0.25,0.15,0.0,1.0,0.0,0.0,1.0,2000000000,0,,,0
1449618726679306432,317,1449618726678711937,/odom,ga,2,2,0,3.93213214584,-0.0794531268391,0.0,0.0,0.0,0.0,0.0,0.15,0.15,0.01,0.0,1.0,0.0,1.0,2000000000,0,,,0
1449618726785220990,318,1449618726779999747,/odom,ga,1,0,0,3.96340640305,-0.0723956255943,0.0,0.0,0.0,0.0339098036588,0.999424897236,0.25,0.15,0.0,1.0,0.0,0.0,1.0,2000000000,0,,,0
1449618726785227407,319,1449618726780376756,/odom,ga,2,2,0,3.96340640305,-0.0723956255943,0.0,0.0,0.0,0.0,0.0,0.15,0.15,0.01,0.0,1.0,0.0,1.0,2000000000,0,,,0
1449618726878760369,320,1449618726878567473,/odom,ga,1,0,0,4.0073702116,-0.0650548286674,0.0,0.0,0.0,0.0473874132338,0.998876585503,0.25,0.15,0.0,1.0,0.0,0.0,1.0,2000000000,0,,,0
1449618726878987622,321,1449618726878868034,/odom,ga,2,2,0,4.0073702116,-0.0650548286674,0.0,0.0,0.0,0.0,0.0,0.15,0.15,0.01,0.0,1.0,0.0,1.0,2000000000,0,,,0
1449618726981537059,322,1449618726980494548,/odom,ga,1,0,0,4.06150536302,-0.0640109371376,0.0,0.0,0.0,0.0565460800664,0.998399990399,0.25,0.15,0.0,1.0,0.0,0.0,1.0,2000000000,0,,,0
1449618726982316306,323,1449618726980944823,/odom,ga,2,2,0,4.06150536302,-0.0640109371376,0.0,0.0,0.0,0.0,0.0,0.15,0.15,0.01,0.0,1.0,0.0,1.0,2000000000,0,,,0
1449618727091175820,324,1449618727090972479,/odom,ga,1,0,0,4.04704404651,0.011583055039,0.0,0.0,0.0,0.162213885628,0.986755620865,0.25,0.15,0.0,1.0,0.0,0.0,1.0,2000000000,0,,,0
1449618727093205674,325,1449618727091647024,/odom,ga,2,2,0,4.04704404651,0.011583055039,0.0,0.0,0.0,0.0,0.0,0.15,0.15,0.01,0.0,1.0,0.0,1.0,2000000000,0,,,0
1449618727186267712,326,1449618727178988091,/odom,ga,1,0,0,4.03502494222,0.0691909614971,0.0,0.0,0.0,0.250724821068,0.968058399117,0.25,0.15,0.0,1.0,0.0,0.0,1.0,2000000000,0,,,0
1449618727186275342,327,1449618727179250346,/odom,ga,2,2,0,4.03502494222,0.0691909614971,0.0,0.0,0.0,0.0,0.0,0.15,0.15,0.01,0.0,1.0,0.0,1.0,2000000000,0,,,0
1449618727275870722,328,1449618727275623583,/odom,ga,1,0,0,4.01241392454,0.0611249624716,0.0,0.0,0.0,0.264076976181,0.964501607386,0.25,0.15,0.0,1.0,0.0,0.0,1.0,2000000000,0,,,0
1449618727277070880,329,1449618727276176138,/odom,ga,2,2,0,4.01241392454,0.0611249624716,0.0,0.0,0.0,0.0,0.0,0.15,0.15,0.01,0.0,1.0,0.0,1.0,2000000000,0,,,0
1449618727385545236,330,1449618727385202347,/odom,ga,1,0,0,4.03301665559,0.0865957114246,0.0,0.0,0.0,0.303990862704,0.952674947394,0.25,0.15,0.0,1.0,0.0,0.0,1.0,2000000000,0,,,0
1449618727386794338,331,1449618727386356380,/odom,ga,2,2,0,4.03301665559,0.0865957114246,0.0,0.0,0.0,0.0,0.0,0.15,0.15,0.01,0.0,1.0,0.0,1.0,2000000000,0,,,0
1449618727494401804,332,1449618727488385473,/odom,ga,1,0,0,4.06113850774,0.101567664343,0.0,0.0,0.0,0.323561861018,0.946207018625,0.25,0.15,0.0,1.0,0.0,0.0,1.0,2000000000,0,,,0
1449618727494406550,333,1449618727489028846,/odom,ga,2,2,0,4.06113850774,0.101567664343,0.0,0.0,0.0,0.0,0.0,0.15,0.15,0.01,0.0,1.0,0.0,1.0,2000000000,0,,,0
1449618727585148570,334,1449618727584042821,/odom,ga,1,0,0,4.04503154329,0.0762153370333,0.0,0.0,0.0,0.312012436534,0.950078017559,0.25,0.15,0.0,1.0,0.0,0.0,1.0,2000000000,0,,,0
1449618727585154209,335,1449618727584286756,/odom,ga,2,2,0,4.04503154329,0.0762153370333,0.0,0.0,0.0,0.0,0.0,0.15,0.15,0.01,0.0,1.0,0.0,1.0,2000000000,0,,,0
1449618727679002941,336,1449618727678710769,/odom,ga,1,0,0,4.07322114648,0.0891623189103,0.0,0.0,0.0,0.32442558349,0.945911222461,0.25,0.15,0.0,1.0,0.0,0.0,1.0,2000000000,0,,,0
1449618727679526478,337,1449618727679143011,/odom,ga,2,2,0,4.07322114648,0.0891623189103,0.0,0.0,0.0,0.0,0.0,0.15,0.15,0.01,0.0,1.0,0.0,1.0,2000000000,0,,,0
1449618727792118661,338,1449618727790822022,/odom,ga,1,0,0,4.10976781728,0.103460146203,0.0,0.0,0.0,0.339682010856,0.940540340177,0.25,0.15,0.0,1.0,0.0,0.0,1.0,2000000000,0,,,0
1449618727792123379,339,1449618727791333241,/odom,ga,2,2,0,4.10976781728,0.103460146203,0.0,0.0,0.0,0.0,0.0,0.15,0.15,0.01,0.0,1.0,0.0,1.0,2000000000,0,,,0
1449618727878139777,340,1449618727877814507,/odom,ga,1,0,0,4.14418275597,0.111417205282,0.0,0.0,0.0,0.347379872584,0.937724492654,0.25,0.15,0.0,1.0,0.0,0.0,1.0,2000000000,0,,,0
1449618727878943561,341,1449618727878441333,/odom,ga,2,2,0,4.14418275597,0.111417205282,0.0,0.0,0.0,0.0,0.0,0.15,0.15,0.01,0.0,1.0,0.0,1.0,2000000000,0,,,0
1449618727975857445,342,1449618727975613680,/odom,ga,1,0,0,4.16159914628,0.116481967332,0.0,0.0,0.0,0.353910150607,0.93527942632,0.25,0.15,0.0,1.0,0.0,0.0,1.0,2000000000,0,,,0
1449618727976756331,343,1449618727976125446,/odom,ga,2,2,0,4.16159914628,0.116481967332,0.0,0.0,0.0,0.0,0.0,0.15,0.15,0.01,0.0,1.0,0.0,1.0,2000000000,0,,,0
1449618728080669605,344,1449618728079028543,/odom,ga,1,0,0,4.18860271918,0.124847594402,0.0,0.0,0.0,0.359637428274,0.933092128455,0.25,0.15,0.0,1.0,0.0,0.0,1.0,2000000000,0,,,0
1449618728080674707,345,1449618728079522741,/odom,ga,2,2,0,4.18860271918,0.124847594402,0.0,0.0,0.0,0.0,0.0,0.15,0.15,0.01,0.0,1.0,0.0,1.0,2000000000,0,,,0
1449618728183792689,346,1449618728182894049,/odom,ga,1,0,0,4.21569022586,0.14299679486,0.0,0.0,0.0,0.373893159019,0.927471781586,0.25,0.15,0.0,1.0,0.0,0.0,1.0,2000000000,0,,,0
1449618728183795617,347,1449618728183238052,/odom,ga,2,2,0,4.21569022586,0.14299679486,0.0,0.0,0.0,0.0,0.0,0.15,0.15,0.01,0.0,1.0,0.0,1.0,2000000000,0,,,0
1449618728278639338,348,1449618728277716346,/odom,ga,1,0,0,4.2314079142,0.148320087913,0.0,0.0,0.0,0.378044699651,0.925787343328,0.25,0.15,0.0,1.0,0.0,0.0,1.0,2000000000,0,,,0
1449618728278678635,349,1449618728278208843,/odom,ga,2,2,0,4.2314079142,0.148320087913,0.0,0.0,0.0,0.0,0.0,0.15,0.15,0.01,0.0,1.0,0.0,1.0,2000000000,0,,,0
1449618728376725504,350,1449618728376050883,/odom,ga,1,0,0,4.25781428953,0.156170197786,0.0,0.0,0.0,0.384887700767,0.922963410866,0.25,0.15,0.0,1.0,0.0,0.0,1.0,2000000000,0,,,0
1449618728376734791,351,1449618728376423461,/odom,ga,2,2,0,4.25781428953,0.156170197786,0.0,0.0,0.0,0.0,0.0,0.15,0.15,0.01,0.0,1.0,0.0,1.0,2000000000,0,,,0
1449618728477962236,352,1449618728477730487,/odom,ga,1,0,0,4.27758869607,0.170154468914,0.0,0.0,0.0,0.393637738033,0.919265647784,0.25,0.15,0.0,1.0,0.0,0.0,1.0,2000000000,0,,,0
1449618728478810154,353,1449618728478431474,/odom,ga,2,2,0,4.27758869607,0.170154468914,0.0,0.0,0.0,0.0,0.0,0.15,0.15,0.01,0.0,1.0,0.0,1.0,2000000000,0,,,0
1449618728590847887,354,1449618728589494967,/odom,ga,1,0,0,4.30830669779,0.181313930927,0.0,0.0,0.0,0.400509612502,0.916292557153,0.25,0.15,0.0,1.0,0.0,0.0,1.0,2000000000,0,,,0
1449618728591091321,355,1449618728590648977,/odom,ga,2,2,0,4.30830669779,0.181313930927,0.0,0.0,0.0,0.0,0.0,0.15,0.15,0.01,0.0,1.0,0.0,1.0,2000000000,0,,,0
1449618728674834296,356,1449618728674554194,/odom,ga,1,0,0,4.33156491012,0.201993463245,0.0,0.0,0.0,0.413590594368,0.91046297028,0.25,0.15,0.0,1.0,0.0,0.0,1.0,2000000000,0,,,0
1449618728675300836,357,1449618728674946071,/odom,ga,2,2,0,4.33156491012,0.201993463245,0.0,0.0,0.0,0.0,0.0,0.15,0.15,0.01,0.0,1.0,0.0,1.0,2000000000,0,,,0
1449618728783275768,358,1449618728783098264,/odom,ga,1,0,0,4.34306374505,0.215139735228,0.0,0.0,0.0,0.42467892956,0.905344026759,0.25,0.15,0.0,1.0,0.0,0.0,1.0,2000000000,0,,,0
1449618728785311073,359,1449618728783648061,/odom,ga,2,2,0,4.34306374505,0.215139735228,0.0,0.0,0.0,0.0,0.0,0.15,0.15,0.01,0.0,1.0,0.0,1.0,2000000000,0,,,0
1449618728876745029,360,1449618728876368962,/odom,ga,1,0,0,4.34131177875,0.198493439573,0.0,0.0,0.0,0.41316964158,0.910654076626,0.25,0.15,0.0,1.0,0.0,0.0,1.0,2000000000,0,,,0
1449618728877817077,361,1449618728877097392,/odom,ga,2,2,0,4.34131177875,0.198493439573,0.0,0.0,0.0,0.0,0.0,0.15,0.15,0.01,0.0,1.0,0.0,1.0,2000000000,0,,,0
1449618728987730731,362,1449618728987535778,/odom,ga,1,0,0,4.36762199594,0.222119051001,0.0,0.0,0.0,0.429098995085,0.903257467402,0.25,0.15,0.0,1.0,0.0,0.0,1.0,2000000000,0,,,0
1449618728988061051,363,1449618728987771470,/odom,ga,2,2,0,4.36762199594,0.222119051001,0.0,0.0,0.0,0.0,0.0,0.15,0.15,0.01,0.0,1.0,0.0,1.0,2000000000,0,,,0
