%time,field.x,field.y,field.z
1449618700371052678,6.0,6.0,0.0
1449618700404440266,6.0,6.0,0.0
1449618700437786336,6.0,6.0,0.0
1449618700471052182,6.0,6.0,0.0
1449618700504398286,6.0,6.0,0.0
1449618700537728357,6.0,6.0,0.0
1449618700571081333,6.0,6.0,0.0
1449618700604421875,6.0,6.0,0.0
1449618700637737926,6.0,6.0,0.0
1449618700671223067,6.0,6.0,0.0
1449618700704396394,6.0,6.0,0.0
1449618700737809494,6.0,6.0,0.0
1449618700771172538,6.0,6.0,0.0
1449618700804389797,6.0,6.0,0.0
1449618700837783758,6.0,6.0,0.0
1449618700871121388,6.0,6.0,0.0
1449618700904455648,6.0,6.0,0.0
1449618700937752101,6.0,6.0,0.0
1449618700971056315,6.0,6.0,0.0
1449618701004441900,6.0,6.0,0.0
1449618701037707980,6.0,6.0,0.0
1449618701071116827,6.0,6.0,0.0
1449618701104474832,6.0,6.0,0.0
1449618701137838830,6.0,6.0,0.0
1449618701171057916,6.0,6.0,0.0
1449618701204428944,6.0,6.0,0.0
1449618701237784494,6.0,6.0,0.0
1449618701271339431,6.0,6.0,0.0
1449618701304376183,6.0,6.0,0.0
1449618701337810063,6.0,6.0,0.0
1449618701371062798,6.0,6.0,0.0
1449618701404485449,6.0,6.0,0.0
1449618701437738456,6.0,6.0,0.0
1449618701471137691,6.0,6.0,0.0
1449618701504482428,6.0,6.0,0.0
1449618701537840847,6.0,6.0,0.0
1449618701571076426,6.0,6.0,0.0
1449618701604406845,6.0,6.0,0.0
1449618701637727327,6.0,6.0,0.0
1449618701671049057,6.0,6.0,0.0
1449618701704486260,6.0,6.0,0.0
1449618701737825727,6.0,6.0,0.0
1449618701771113876,6.0,6.0,0.0
1449618701804430917,6.0,6.0,0.0
1449618701837807035,6.0,6.0,0.0
1449618701871136010,6.0,6.0,0.0
1449618701904447256,6.0,6.0,0.0
1449618701938024934,6.0,6.0,0.0
1449618701971112354,6.0,6.0,0.0
1449618702004446490,6.0,6.0,0.0
1449618702037800860,6.0,6.0,0.0
1449618702071116408,6.0,6.0,0.0
1449618702104461484,6.0,6.0,0.0
1449618702137744848,6.0,6.0,0.0
1449618702171083076,6.0,6.0,0.0
1449618702204378486,6.0,6.0,0.0
1449618702237806930,6.0,6.0,0.0
1449618702271137701,6.0,6.0,0.0
1449618702304380850,6.0,6.0,0.0
1449618702337768870,6.0,6.0,0.0
1449618702371146555,6.0,6.0,0.0
1449618702404403102,6.0,6.0,0.0
1449618702437768382,6.0,6.0,0.0
1449618702471119606,6.0,6.0,0.0
1449618702504409558,6.0,6.0,0.0
1449618702537775816,6.0,6.0,0.0
1449618702571076605,6.0,6.0,0.0
1449618702604414891,6.0,6.0,0.0
1449618702637725409,6.0,6.0,0.0
1449618702671070303,6.0,6.0,0.0
1449618702704385971,6.0,6.0,0.0
1449618702737783590,6.0,6.0,0.0
1449618702771173432,6.0,6.0,0.0
1449618702804420507,6.0,6.0,0.0
1449618702837820811,6.0,6.0,0.0
1449618702871077028,6.0,6.0,0.0
1449618702904447973,6.0,6.0,0.0
1449618702937761429,6.0,6.0,0.0
1449618702971144999,6.0,6.0,0.0
1449618703004406886,6.0,6.0,0.0
1449618703037761466,6.0,6.0,0.0
1449618703071089916,6.0,6.0,0.0
1449618703104411840,6.0,6.0,0.0
1449618703137694806,6.0,6.0,0.0
1449618703171040794,6.0,6.0,0.0
1449618703204365476,6.0,6.0,0.0
1449618703237818306,6.0,6.0,0.0
1449618703271086901,6.0,6.0,0.0
1449618703304356828,6.0,6.0,0.0
1449618703337782450,6.0,6.0,0.0
1449618703371099973,6.0,6.0,0.0
1449618703404390722,6.0,6.0,0.0
1449618703437767197,6.0,6.0,0.0
1449618703471073634,6.0,6.0,0.0
1449618703504382154,6.0,6.0,0.0
1449618703537718482,6.0,6.0,0.0
1449618703571068200,6.0,6.0,0.0
1449618703604341666,6.0,6.0,0.0
1449618703637734578,6.0,6.0,0.0
1449618703671045484,6.0,6.0,0.0
1449618703704370762,6.0,6.0,0.0
1449618703737723490,6.0,6.0,0.0
1449618703771097385,6.0,6.0,0.0
1449618703804417625,6.0,6.0,0.0
1449618703837775047,6.0,6.0,0.0
1449618703871067574,6.0,6.0,0.0
1449618703904406508,6.0,6.0,0.0
1449618703937683309,6.0,6.0,0.0
1449618703971095433,6.0,6.0,0.0
1449618704004386380,6.0,6.0,0.0
1449618704037716045,6.0,6.0,0.0
1449618704071040689,6.0,6.0,0.0
1449618704104357050,6.0,6.0,0.0
1449618704137686752,6.0,6.0,0.0
1449618704171064217,6.0,6.0,0.0
1449618704204419713,6.0,6.0,0.0
1449618704237783553,6.0,6.0,0.0
1449618704271179335,6.0,6.0,0.0
1449618704304381239,6.0,6.0,0.0
1449618704337711873,6.0,6.0,0.0
1449618704371074735,6.0,6.0,0.0
1449618704404398806,6.0,6.0,0.0
1449618704437878505,6.0,6.0,0.0
1449618704471188096,6.0,6.0,0.0
1449618704504444524,6.0,6.0,0.0
1449618704537864997,6.0,6.0,0.0
1449618704571063447,6.0,6.0,0.0
1449618704604396903,6.0,6.0,0.0
1449618704638103567,6.0,6.0,0.0
1449618704671201654,6.0,6.0,0.0
1449618704704434145,6.0,6.0,0.0
1449618704737809395,6.0,6.0,0.0
1449618704771037385,6.0,6.0,0.0
1449618704804424425,6.0,6.0,0.0
1449618704837938701,6.0,6.0,0.0
1449618704871142282,6.0,6.0,0.0
1449618704904452125,6.0,6.0,0.0
1449618704939416622,6.0,6.0,0.0
1449618704972001778,6.0,6.0,0.0
1449618705005231829,6.0,6.0,0.0
1449618705037898269,6.0,6.0,0.0
1449618705071326550,6.0,6.0,0.0
1449618705105203843,6.0,6.0,0.0
1449618705139045723,6.0,6.0,0.0
1449618705171998733,6.0,6.0,0.0
1449618705204509778,6.0,6.0,0.0
1449618705238347525,6.0,6.0,0.0
1449618705271656825,6.0,6.0,0.0
1449618705306928388,6.0,6.0,0.0
1449618705339009849,6.0,6.0,0.0
1449618705371280126,6.0,6.0,0.0
1449618705405289420,6.0,6.0,0.0
1449618705437919464,6.0,6.0,0.0
1449618705471341926,6.0,6.0,0.0
1449618705504936572,6.0,6.0,0.0
1449618705542430794,6.0,6.0,0.0
1449618705572482291,6.0,6.0,0.0
1449618705604870768,6.0,6.0,0.0
1449618705638293178,6.0,6.0,0.0
1449618705671868630,6.0,6.0,0.0
1449618705704752177,6.0,6.0,0.0
1449618705738054528,6.0,6.0,0.0
1449618705771690512,6.0,6.0,0.0
1449618705805031210,6.0,6.0,0.0
1449618705839828786,6.0,6.0,0.0
1449618705871311189,6.0,6.0,0.0
1449618705906619574,6.0,6.0,0.0
1449618705938023293,6.0,6.0,0.0
1449618705971552389,6.0,6.0,0.0
1449618706004795172,6.0,6.0,0.0
1449618706038094147,6.0,6.0,0.0
1449618706071224703,6.0,6.0,0.0
1449618706104767057,6.0,6.0,0.0
1449618706137957485,6.0,6.0,0.0
1449618706171227020,6.0,6.0,0.0
1449618706204694469,6.0,6.0,0.0
1449618706238360047,6.0,6.0,0.0
1449618706271533430,6.0,6.0,0.0
1449618706304955714,6.0,6.0,0.0
1449618706338044644,6.0,6.0,0.0
1449618706372040753,6.0,6.0,0.0
1449618706404663819,6.0,6.0,0.0
1449618706438043653,6.0,6.0,0.0
1449618706472020188,6.0,6.0,0.0
1449618706504872031,6.0,6.0,0.0
1449618706538799622,6.0,6.0,0.0
1449618706571685554,6.0,6.0,0.0
1449618706605175882,6.0,6.0,0.0
1449618706638331798,6.0,6.0,0.0
1449618706671354852,6.0,6.0,0.0
1449618706704845379,6.0,6.0,0.0
1449618706739136639,6.0,6.0,0.0
1449618706777993692,6.0,6.0,0.0
1449618706804640175,6.0,6.0,0.0
1449618706838143637,6.0,6.0,0.0
1449618706872191895,6.0,6.0,0.0
1449618706905012272,6.0,6.0,0.0
1449618706938863374,6.0,6.0,0.0
1449618706971569948,6.0,6.0,0.0
1449618707004918051,6.0,6.0,0.0
1449618707038089012,6.0,6.0,0.0
1449618707071406772,6.0,6.0,0.0
1449618707104804178,6.0,6.0,0.0
1449618707138805621,6.0,6.0,0.0
1449618707171179865,6.0,6.0,0.0
1449618707205829832,6.0,6.0,0.0
1449618707238029184,6.0,6.0,0.0
1449618707271893782,6.0,6.0,0.0
1449618707305962679,6.0,6.0,0.0
1449618707340192231,6.0,6.0,0.0
1449618707371313917,6.0,6.0,0.0
1449618707406181756,6.0,6.0,0.0
1449618707438549888,6.0,6.0,0.0
1449618707471656739,6.0,6.0,0.0
1449618707505410953,6.0,6.0,0.0
1449618707539913564,6.0,6.0,0.0
1449618707571213003,6.0,6.0,0.0
1449618707605124082,6.0,6.0,0.0
1449618707638078022,6.0,6.0,0.0
1449618707672043756,6.0,6.0,0.0
1449618707704862693,6.0,6.0,0.0
1449618707741210393,6.0,6.0,0.0
1449618707771149131,6.0,6.0,0.0
1449618707804824225,6.0,6.0,0.0
1449618707841709404,6.0,6.0,0.0
1449618707871684273,6.0,6.0,0.0
1449618707904604957,6.0,6.0,0.0
1449618707944603014,6.0,6.0,0.0
1449618707971388288,6.0,6.0,0.0
1449618708004600878,6.0,6.0,0.0
1449618708038395813,6.0,6.0,0.0
1449618708072119587,6.0,6.0,0.0
1449618708105099928,6.0,6.0,0.0
1449618708138595619,6.0,6.0,0.0
1449618708171737312,6.0,6.0,0.0
1449618708204737442,6.0,6.0,0.0
1449618708239118061,6.0,6.0,0.0
1449618708271464772,6.0,6.0,0.0
1449618708304557750,6.0,6.0,0.0
1449618708337917187,6.0,6.0,0.0
1449618708371567206,6.0,6.0,0.0
1449618708404678536,6.0,6.0,0.0
1449618708438107630,6.0,6.0,0.0
1449618708471572352,6.0,6.0,0.0
1449618708504812161,6.0,6.0,0.0
1449618708538427588,6.0,6.0,0.0
1449618708571516561,6.0,6.0,0.0
1449618708604657785,6.0,6.0,0.0
1449618708638031342,6.0,6.0,0.0
1449618708671293261,6.0,6.0,0.0
1449618708705056088,6.0,6.0,0.0
1449618708738137794,6.0,6.0,0.0
1449618708771602816,6.0,6.0,0.0
1449618708805121809,6.0,6.0,0.0
1449618708838367361,6.0,6.0,0.0
1449618708871753237,6.0,6.0,0.0
1449618708904772967,6.0,6.0,0.0
1449618708937969932,6.0,6.0,0.0
1449618708971157009,6.0,6.0,0.0
1449618709004929549,6.0,6.0,0.0
1449618709038025754,6.0,6.0,0.0
1449618709071309170,6.0,6.0,0.0
1449618709105059713,6.0,6.0,0.0
1449618709138580585,6.0,6.0,0.0
1449618709171263757,6.01773968356,6.0,0.0
1449618709205006349,6.01773968356,6.0,0.0
1449618709238721810,6.01773968356,6.0,0.0
1449618709271220645,6.22617397324,6.01064285776,0.0
1449618709306947389,6.45726476234,6.01596428664,0.0
1449618709338071171,6.45726476234,6.01596428664,0.0
1449618709371670818,6.45726476234,6.01596428664,0.0
1449618709407806205,6.45726476234,6.01596428664,0.0
1449618709438637891,6.45726476234,6.01596428664,0.0
1449618709472927274,6.3982628611,6.00798214332,0.0
1449618709504750981,6.3982628611,6.00798214332,0.0
1449618709540074028,6.3982628611,6.00798214332,0.0
1449618709571632018,6.45726476234,6.01596428664,0.0
1449618709604767320,6.45726476234,6.01596428664,0.0
1449618709638885422,6.39088762344,6.00798214332,0.0
1449618709671872541,6.39088762344,6.00798214332,0.0
1449618709705269062,6.39088762344,6.00798214332,0.0
1449618709739300183,6.44368762344,6.01680451174,0.0
1449618709771724950,6.4104431749,6.0282875946,0.0
1449618709806338779,6.4104431749,6.0282875946,0.0
1449618709843231643,6.48120296324,6.01680451174,0.0
1449618709875076430,6.48120296324,6.01680451174,0.0
1449618709905738206,6.48120296324,6.01680451174,0.0
1449618709937902359,6.47072337917,6.0282875946,0.0
1449618709972047582,6.47072337917,6.0282875946,0.0
1449618710005343415,6.47072337917,6.0282875946,0.0
1449618710038590270,6.47072337917,6.0282875946,0.0
1449618710071638296,6.51070391386,6.02478665506,0.0
1449618710106844714,6.51070391386,6.02478665506,0.0
1449618710138209405,6.47072337917,6.0282875946,0.0
1449618710172840129,6.47072337917,6.0282875946,0.0
1449618710204776301,6.47072337917,6.0282875946,0.0
1449618710238032527,6.47072337917,6.0282875946,0.0
1449618710287095167,6.47072337917,6.0282875946,0.0
1449618710304846330,6.46987884676,6.0282875946,0.0
1449618710339615617,6.46987884676,6.0282875946,0.0
1449618710371519241,6.46987884676,6.0282875946,0.0
1449618710405923288,6.46987884676,6.0282875946,0.0
1449618710438059943,6.4681896356,6.0282875946,0.0
1449618710471530991,6.4681896356,6.0282875946,0.0
1449618710505183566,6.4681896356,6.0282875946,0.0
1449618710538830068,6.4681896356,6.0282875946,0.0
1449618710571603459,6.4681896356,6.0282875946,0.0
1449618710604650106,6.46650058376,6.0282875946,0.0
1449618710638221310,6.46650058376,6.0282875946,0.0
1449618710672086738,6.46565631141,6.0282875946,0.0
1449618710705289424,6.59992083199,6.02176045659,0.0
1449618710739322130,6.59966709231,6.02176437295,0.0
1449618710771731399,6.59950123335,6.02177229665,0.0
1449618710806558785,6.59950123335,6.02177229665,0.0
1449618710838056968,6.59769090626,6.02185225485,0.0
1449618710874395736,6.587873316,6.02187090431,0.0
1449618710915841128,6.587873316,6.02187090431,0.0
1449618710938150896,6.61010397767,6.03387018834,0.0
1449618710974445835,6.61010397767,6.03387018834,0.0
1449618711004754454,6.6101107809,6.03407519142,0.0
1449618711041025194,6.60999584173,6.02839039131,0.0
1449618711071512765,6.60999584173,6.03869828794,0.0
1449618711105386376,6.61000616937,6.03892419087,0.0
1449618711138644104,6.61000616937,6.03892419087,0.0
1449618711177366330,6.61000616937,6.03892419087,0.0
1449618711204871835,6.61005385642,6.03996728034,0.0
1449618711238530800,6.61005385642,6.03996728034,0.0
1449618711271502327,6.61008167948,6.04057587206,0.0
1449618711305383132,6.61009385987,6.03064048899,0.0
1449618711340172895,6.61009385987,6.04084230162,0.0
1449618711371989432,6.61010382762,6.04106033256,0.0
1449618711405252481,6.61011060037,6.04120847719,0.0
1449618711439214804,6.52556457095,6.56011518609,0.0
1449618711471606093,6.52563544008,6.56307431545,0.0
1449618711504790814,6.52563544008,6.56307431545,0.0
1449618711538192059,6.53515438295,6.56269523892,0.0
1449618711571229228,6.53515438295,6.56269523892,0.0
1449618711606102769,6.5365295699,6.55870019274,0.0
1449618711638213497,6.53679369294,6.55793289071,0.0
1449618711671340440,6.53697613507,6.54747661715,0.0
1449618711705638643,6.53523613243,6.55232224394,0.0
1449618711738721723,6.52587125826,6.56245774906,0.0
1449618711772287662,6.52587125826,6.56245774906,0.0
1449618711804829955,6.52587125826,6.56245774906,0.0
1449618711838263948,6.52587125826,6.56245774906,0.0
1449618711871689486,6.52594654681,6.56226090082,0.0
1449618711905240279,6.52594654681,6.56226090082,0.0
1449618711938198760,6.52594654681,6.56226090082,0.0
1449618711972037922,6.52638149721,6.56485444074,0.0
1449618712006186530,6.52685365522,6.55392964415,0.0
1449618712038159572,6.52685365522,6.55392964415,0.0
1449618712071481645,6.52685365522,6.55392964415,0.0
1449618712106485465,6.52703462324,6.5636155554,0.0
1449618712138403507,6.52849577219,6.56084396777,0.0
1449618712171406671,6.52849577219,6.56084396777,0.0
1449618712204734246,6.52849577219,6.56084396777,0.0
1449618712238173947,6.52878324611,6.55047832771,0.0
1449618712272215935,6.52890104091,6.55026763688,0.0
1449618712309568548,6.52914155399,6.54983744892,0.0
1449618712338149574,6.52914155399,6.54983744892,0.0
1449618712380673569,6.52914155399,6.54983744892,0.0
1449618712404719487,6.53857419842,6.54905283866,0.0
1449618712437951020,6.53857419842,6.54905283866,0.0
1449618712471794918,6.53905047869,6.54810629724,0.0
1449618712519590670,6.53905047869,6.54810629724,0.0
1449618712538204090,6.53948964806,6.54723350862,0.0
1449618712572593786,6.53948964806,6.54723350862,0.0
1449618712604863080,6.61068658097,6.05142590201,0.0
1449618712638320073,6.61068658097,6.05142590201,0.0
1449618712671873544,6.61068658097,6.05142590201,0.0
1449618712705633766,6.61070949812,6.04258095446,0.0
1449618712739825024,6.61070949812,6.04258095446,0.0
1449618712774302915,6.61070949812,6.04258095446,0.0
1449618712806729257,6.61077298492,6.04456272742,0.0
1449618712838116245,6.1124764842,6.04471524608,0.0
1449618712871847916,6.1144130103,6.05518286122,0.0
1449618712904678628,6.1144130103,6.05518286122,0.0
1449618712938496592,6.1144130103,6.05518286122,0.0
1449618712971450821,6.1144130103,6.05518286122,0.0
1449618713004677985,6.11844094653,6.04870328542,0.0
1449618713037946184,6.12546165256,6.05148202399,0.0
1449618713072439179,6.1780934333,6.04250291284,0.0
1449618713105609547,6.1780934333,6.04250291284,0.0
1449618713138321282,6.1780934333,6.04250291284,0.0
1449618713185358336,6.37628281273,6.04410417306,0.0
1449618713208437573,6.37628281273,6.04410417306,0.0
1449618713237849236,6.37628281273,6.04410417306,0.0
1449618713272925281,6.37876447535,6.04545442367,0.0
1449618713306011012,6.37876447535,6.03446071518,0.0
1449618713338141583,6.37876447535,6.03446071518,0.0
1449618713371734584,6.37876447535,6.03446071518,0.0
1449618713404784737,6.61124262843,6.03467181884,0.0
1449618713443385432,6.61124262843,6.03467181884,0.0
1449618713471742502,6.6113682088,6.0269293809,0.0
1449618713504658646,6.6113682088,6.0269293809,0.0
1449618713538406198,6.6113682088,6.0269293809,0.0
1449618713571662296,6.60328748133,6.02727345878,0.0
1449618713604721017,6.60340838848,6.01509876664,0.0
1449618713638049521,6.61148881058,6.01516046391,0.0
1449618713671666503,6.61150120374,6.00867866013,0.0
1449618713704814744,6.61150120374,6.00867866013,0.0
1449618713739695523,6.6115387261,6.00863805007,0.0
1449618713771427501,6.38879760008,6.0,0.0
1449618713805051484,6.38879760008,6.0,0.0
1449618713839202689,6.38953945231,6.0,0.0
1449618713871389993,6.38953945231,6.0,0.0
1449618713905262002,6.38953945231,6.0,0.0
1449618713939457793,6.38953945231,6.0,0.0
1449618713977868163,6.55649186019,5.99147316215,0.0
1449618714005173905,6.55723559976,5.98422387663,0.0
1449618714037969771,6.55734364016,5.98419002818,0.0
1449618714073295503,6.55756119332,5.98412187001,0.0
1449618714105195529,6.55756119332,5.98412187001,0.0
1449618714143748643,6.55789069754,5.9840186382,0.0
1449618714171257706,6.55789069754,5.9840186382,0.0
1449618714205753273,6.6118440993,5.98394905652,0.0
1449618714238791604,6.61191449131,5.967780614,0.0
1449618714271595303,6.55878971499,5.96764288295,0.0
1449618714304483009,6.55878971499,5.96764288295,0.0
1449618714340096922,6.55878971499,5.96764288295,0.0
1449618714373958223,6.55901870474,5.96736570107,0.0
1449618714404600920,6.55901870474,5.96736570107,0.0
1449618714437886751,6.59713749474,5.95830486191,0.0
1449618714474519517,6.59713749474,5.95830486191,0.0
1449618714505412027,6.59713749474,5.95830486191,0.0
1449618714538840716,6.59727072471,5.95792287586,0.0
1449618714571881104,6.59727072471,5.95792287586,0.0
1449618714605320063,6.59758676081,5.9389115463,0.0
1449618714639540753,6.612254778,5.93818797348,0.0
1449618714672344490,6.612254778,5.93818797348,0.0
1449618714710187774,6.61228561495,5.93770140827,0.0
1449618714738680447,6.61236342446,5.93647367987,0.0
1449618714772807897,6.61236342446,5.93647367987,0.0
1449618714808501466,6.61236342446,5.93647367987,0.0
1449618714839708357,6.61236342446,5.93647367987,0.0
1449618714871984478,6.61236342446,5.93647367987,0.0
1449618714904706771,6.61250624823,5.93422011466,0.0
1449618714940635608,6.61250624823,5.93422011466,0.0
1449618714971497986,6.61255457827,5.93345753228,0.0
1449618715004897068,6.61265245222,5.93191321418,0.0
1449618715038509176,6.61265245222,5.93191321418,0.0
1449618715074035586,6.61273495253,5.90873076895,0.0
1449618715118419480,6.61273495253,5.90873076895,0.0
1449618715138324152,6.61278478482,5.90758682229,0.0
1449618715171777545,6.61278478482,5.90758682229,0.0
1449618715206641264,6.61278478482,5.90758682229,0.0
1449618715238152802,6.60628444649,5.90489091386,0.0
1449618715272116105,6.60628444649,5.90489091386,0.0
1449618715305338856,6.60628444649,5.90489091386,0.0
1449618715338208062,6.60669410064,5.90018891758,0.0
1449618715371436168,6.61326311948,5.89660620459,0.0
1449618715404648155,6.61329801891,5.89580505577,0.0
1449618715439106154,6.61329801891,5.89580505577,0.0
1449618715471389826,6.60728646244,5.89338980911,0.0
1449618715505498299,6.60728646244,5.89338980911,0.0
1449618715540725749,6.60753324245,5.89055727669,0.0
1449618715575710557,6.60753324245,5.89055727669,0.0
1449618715604661287,6.60753324245,5.89055727669,0.0
1449618715637935554,6.61361465638,5.8539504655,0.0
1449618715671716681,6.61361465638,5.8539504655,0.0
1449618715709577406,6.61382725965,5.84777414242,0.0
1449618715740088435,6.61382725965,5.84777414242,0.0
1449618715771144266,6.6139336413,5.85072971405,0.0
1449618715804651841,6.61405719952,5.84700650696,0.0
1449618715844927180,6.61405719952,5.84700650696,0.0
1449618715871599598,6.6141629288,5.84382054323,0.0
1449618715904803510,6.6141629288,5.84382054323,0.0
1449618715938978570,6.6141629288,5.84382054323,0.0
1449618715971901748,6.6141629288,5.84382054323,0.0
1449618716005125031,6.61419811133,5.8427603804,0.0
1449618716038081073,6.61419811133,5.8427603804,0.0
1449618716071937351,6.61451246992,5.83870734173,0.0
1449618716105438060,6.61451246992,5.83870734173,0.0
1449618716138791877,6.61451246992,5.83870734173,0.0
1449618716171957813,6.61451246992,5.83870734173,0.0
1449618716204631457,6.61456407467,5.79672388639,0.0
1449618716238752417,6.61018674526,5.78593003216,0.0
1449618716271557968,6.61493657044,5.78778578053,0.0
1449618716305270048,6.61500255006,5.78525263826,0.0
1449618716353479226,6.61500255006,5.78525263826,0.0
1449618716373665951,6.61500255006,5.78525263826,0.0
1449618716404884743,6.57886309826,5.74220743398,0.0
1449618716441994265,6.58061877346,5.73352913098,0.0
1449618716471622486,6.61519765791,5.73352913098,0.0
1449618716504619069,6.61519765791,5.73352913098,0.0
1449618716543918874,6.61952,5.47065789474,0.0
1449618716571322137,6.61952,5.47065789474,0.0
1449618716604745133,6.61952,5.47065789474,0.0
1449618716642971711,6.61952,5.47065789474,0.0
1449618716672568996,6.61952,5.47065789474,0.0
1449618716704779510,6.61952,5.47065789474,0.0
1449618716738020599,6.61952,5.47065789474,0.0
1449618716772328230,6.61952,5.47065789474,0.0
1449618716804981972,6.61952,5.54123684211,0.0
1449618716838128192,6.61952,5.54123684211,0.0
1449618716871531035,6.61952,5.54123684211,0.0
1449618716904605491,6.61952,5.54123684211,0.0
1449618716938380374,6.61952,5.54123684211,0.0
1449618716971408185,6.61952,5.54123684211,0.0
1449618717004685487,6.61952,5.54123684211,0.0
1449618717038014565,6.61952,5.54123684211,0.0
1449618717071221110,6.61952,5.54123684211,0.0
1449618717105291302,6.61952,5.54123684211,0.0
1449618717139405240,6.61952,5.54123684211,0.0
1449618717171777099,6.61952,5.54123684211,0.0
1449618717210530826,6.61952,5.54123684211,0.0
1449618717240581312,6.61952,5.47065789474,0.0
1449618717272763183,6.61952,5.47065789474,0.0
1449618717304811906,6.61952,5.47065789474,0.0
1449618717338358932,6.61952,5.47065789474,0.0
1449618717371583186,6.61952,5.47065789474,0.0
1449618717405134661,6.61952,5.47065789474,0.0
1449618717438530352,6.61952,5.47065789474,0.0
1449618717477612988,6.61952,5.47065789474,0.0
1449618717504514503,6.61952,5.47065789474,0.0
1449618717538425330,6.61952,5.47065789474,0.0
1449618717571478760,6.61952,5.54123684211,0.0
1449618717604775341,6.61952,5.54123684211,0.0
1449618717637971432,6.61952,5.54123684211,0.0
1449618717671323485,6.61952,5.54123684211,0.0
1449618717704863766,6.61952,5.54123684211,0.0
1449618717738260374,6.61952,5.54123684211,0.0
1449618717773109111,6.61952,5.54123684211,0.0
1449618717805837266,6.61952,5.54123684211,0.0
1449618717838605831,6.61952,5.54123684211,0.0
1449618717872295405,6.61952,5.54123684211,0.0
1449618717904950546,6.61952,5.54123684211,0.0
1449618717938199780,6.537856,5.61181578947,0.0
1449618717978538338,6.537856,5.61181578947,0.0
1449618718010345252,6.537856,5.61181578947,0.0
1449618718038106816,6.537856,5.61181578947,0.0
1449618718071531833,6.537856,5.61181578947,0.0
1449618718104685698,6.537856,5.61181578947,0.0
1449618718139861276,6.537856,5.61181578947,0.0
1449618718171805582,6.537856,5.61181578947,0.0
1449618718204696417,6.537856,5.61181578947,0.0
1449618718240507612,6.456192,5.68239473684,0.0
1449618718272324253,6.456192,5.68239473684,0.0
1449618718304912976,6.456192,5.68239473684,0.0
1449618718338397546,6.456192,5.68239473684,0.0
1449618718371268723,6.456192,5.68239473684,0.0
1449618718406437633,6.48804427949,5.74388527589,0.0
1449618718437933609,6.48705017919,5.74196617364,0.0
1449618718471769641,6.48477451105,5.73923253037,0.0
1449618718513686082,6.48477451105,5.73923253037,0.0
1449618718539181084,6.48448066028,5.73864817474,0.0
1449618718571716290,6.48372374722,5.73714303244,0.0
1449618718604849219,6.48372374722,5.73714303244,0.0
1449618718638998745,6.48372374722,5.73714303244,0.0
1449618718671470366,6.48335971424,5.73641917064,0.0
1449618718708188834,6.41813105159,5.67787272385,0.0
1449618718739394350,6.48437703132,5.79247047759,0.0
1449618718776943725,6.48401875741,5.7919684141,0.0
1449618718804723460,6.48384368254,5.7917230615,0.0
1449618718838934359,6.48384368254,5.7917230615,0.0
1449618718871541245,6.41649452776,5.78946084958,0.0
1449618718904672494,6.41610489626,5.78912209034,0.0
1449618718938546092,6.41610489626,5.78912209034,0.0
1449618718973782862,6.41376000315,5.79042503041,0.0
1449618719005089625,6.41376000315,5.79042503041,0.0
1449618719038190274,6.41376000315,5.79042503041,0.0
1449618719072041239,6.41340567343,5.79008679189,0.0
1449618719105425965,6.41283059719,5.789537817,0.0
1449618719141711317,6.41426877705,5.78752568709,0.0
1449618719173768808,6.41426877705,5.78752568709,0.0
1449618719204685921,6.41392379806,5.78722576737,0.0
1449618719237869957,6.41174025926,5.78673932168,0.0
1449618719274866860,6.41153191344,5.84553838045,0.0
1449618719304666162,6.41153191344,5.84553838045,0.0
1449618719338004176,6.41153191344,5.84553838045,0.0
1449618719371255273,6.41153191344,5.84553838045,0.0
1449618719404714360,6.41271975919,5.84529524119,0.0
1449618719437962338,6.61793606066,5.99314287543,0.0
1449618719472269380,6.61793606066,5.99142859449,0.0
1449618719505689287,6.61795305172,5.96185430457,0.0
1449618719550862604,6.61796957125,5.96020641363,0.0
1449618719572123005,6.61796957125,5.96020641363,0.0
1449618719609770256,6.61796957125,5.96020641363,0.0
1449618719638109628,6.61796957125,5.96020641363,0.0
1449618719671240049,6.41103346838,5.84268307133,0.0
1449618719704563245,6.41103346838,5.84268307133,0.0
1449618719741882229,6.34039917093,5.71674202709,0.0
1449618719771858315,6.34039917093,5.71674202709,0.0
1449618719805420385,6.34039917093,5.71674202709,0.0
1449618719837954507,6.34004024766,5.71648268928,0.0
1449618719873800250,5.89547081663,5.98542493497,0.0
1449618719904920309,5.89444183131,5.98549535458,0.0
1449618719938297177,5.89292441804,5.98559920199,0.0
1449618719971646168,5.89292441804,5.98559920199,0.0
1449618720005761940,5.89292441804,5.98559920199,0.0
1449618720038624756,5.88783713902,5.98576696043,0.0
1449618720072826328,5.88783713902,5.98576696043,0.0
1449618720105971923,5.88643053418,5.98586446056,0.0
1449618720141509239,5.88551517914,5.98592790914,0.0
1449618720171234962,5.887661638,5.9859593701,0.0
1449618720204927793,5.88720936484,5.98599032292,0.0
1449618720238126568,5.88720936484,5.98599032292,0.0
1449618720271551594,5.88720936484,5.98599032292,0.0
1449618720305420613,5.88542162311,5.9861126698,0.0
1449618720341399365,5.88455448294,5.98617201485,0.0
1449618720372868619,5.88370507701,5.98623014525,0.0
1449618720406039534,5.88370507701,5.98623014525,0.0
1449618720438358581,5.88328412005,5.98625895424,0.0
1449618720473137364,5.88033088128,5.98628726082,0.0
1449618720504783542,5.88033088128,5.98628726082,0.0
1449618720538450392,5.87912328982,5.98182795502,0.0
1449618720571320044,5.87912328982,5.98182795502,0.0
1449618720605821814,5.87872657786,5.98186461807,0.0
1449618720642260009,5.8812456061,5.9863984632,0.0
1449618720672951083,5.8812456061,5.9863984632,0.0
1449618720709704083,5.8812456061,5.9863984632,0.0
1449618720738989042,6.61673280256,5.83498382103,0.0
1449618720781839046,6.61673830604,5.83496117911,0.0
1449618720805487617,6.6181291484,5.78640706421,0.0
1449618720837803853,6.6181291484,5.78640706421,0.0
1449618720872825454,6.61673830604,5.78490176993,0.0
1449618720904790760,6.61673830604,5.78490176993,0.0
1449618720938440768,6.61673830604,5.90458941382,0.0
1449618720971223501,6.61673830604,5.90458941382,0.0
1449618721005092433,6.61673830604,5.90458941382,0.0
1449618721038955221,6.61673830604,5.90458941382,0.0
1449618721073664341,6.61673830604,5.90458941382,0.0
1449618721106849526,6.61673830604,5.90458941382,0.0
1449618721138464905,6.61673830604,5.90458941382,0.0
1449618721172454400,6.61673830604,5.90458941382,0.0
1449618721204708028,6.61534746367,5.89555764811,0.0
1449618721237978144,6.61534746367,5.7137682411,0.0
1449618721273397049,6.61534746367,5.7137682411,0.0
1449618721310199522,6.61395662131,5.6987152986,0.0
1449618721339124457,6.61395662131,5.6987152986,0.0
1449618721371666113,6.55136871093,5.72280000682,0.0
1449618721404691277,6.55136871093,5.72280000682,0.0
1449618721439475252,6.6181291484,5.72280000682,0.0
1449618721472378724,6.6181291484,5.72280000682,0.0
1449618721504657047,6.6181291484,5.72280000682,0.0
1449618721538094760,6.6181291484,5.72280000682,0.0
1449618721573779337,6.61674379735,5.70919925482,0.0
1449618721605188714,6.61674920456,5.70914713176,0.0
1449618721638103862,6.61674920456,5.70914713176,0.0
1449618721671582854,6.615371886,5.70909521243,0.0
1449618721705164901,6.61537990955,5.89106579241,0.0
1449618721738838838,6.61537990955,5.89106579241,0.0
1449618721773820626,6.61537990955,5.89106579241,0.0
1449618721805323509,6.61538778891,5.89107162719,0.0
1449618721838444126,6.61541107005,5.83034024966,0.0
1449618721871691782,6.61541107005,5.83034024966,0.0
1449618721904897816,6.61541107005,5.83034024966,0.0
1449618721939193688,6.61541868917,5.8303276509,0.0
1449618721971682565,6.61541868917,5.8303276509,0.0
1449618722006323554,6.61544106473,5.83029067574,0.0
1449618722038438345,6.61544832689,5.64776542352,0.0
1449618722071649685,6.61682444667,5.71425527089,0.0
1449618722105181532,6.61683794673,5.83455255719,0.0
1449618722137901801,6.61683794673,5.83455255719,0.0
1449618722171319302,6.61683794673,5.83455255719,0.0
1449618722205005650,6.61684234316,5.83453449087,0.0
1449618722238833601,6.61686360946,5.83444734167,0.0
1449618722271295357,6.61686360946,5.83588483847,0.0
1449618722304872746,6.61686360946,5.83588483847,0.0
1449618722338064238,6.61687565886,5.83582881929,0.0
1449618722374243532,6.61687565886,5.83582881929,0.0
1449618722405127347,6.61689450415,5.8343205626,0.0
1449618722438137436,6.61691176132,5.77303098194,0.0
1449618722472270939,6.61822066254,5.83983540876,0.0
1449618722504737135,6.61822066254,5.83983540876,0.0
1449618722538150565,6.61822795606,5.84393947427,0.0
1449618722571142953,6.61822795606,5.84393947427,0.0
1449618722604525901,6.61822795606,5.78263396458,0.0
1449618722638282057,6.61823424115,5.78248926812,0.0
1449618722671351979,6.61823424115,5.78248926812,0.0
1449618722705009695,6.61823850759,5.78239174428,0.0
1449618722737875787,6.61824360635,5.84507397155,0.0
1449618722771220115,6.61824360635,5.78365613522,0.0
1449618722806510090,6.61824598985,5.78359862182,0.0
1449618722838115619,6.61824598985,5.78359862182,0.0
1449618722873412876,6.61824727876,5.7835676389,0.0
1449618722904822015,6.61153420968,5.78354711058,0.0
1449618722939903235,6.61153429945,5.78491530544,0.0
1449618722971678833,6.61153429945,5.78491530544,0.0
1449618723004912207,6.60721007294,5.78492244653,0.0
1449618723038216715,6.60288035077,5.78636683806,0.0
1449618723071748796,6.59277235389,5.78636683806,0.0
1449618723105099412,6.59277760374,5.78643608901,0.0
1449618723138708567,6.59278244465,5.78511583044,0.0
1449618723171310363,6.58701700888,5.78521602669,0.0
1449618723205725946,6.58702308753,5.78527336162,0.0
1449618723238093684,6.58702308753,5.78527336162,0.0
1449618723273815292,6.57258909432,5.84671557024,0.0
1449618723304922859,6.57258909432,5.84671557024,0.0
1449618723340433314,6.56395428465,5.78558378594,0.0
1449618723371467775,6.559548016,5.78583528514,0.0
1449618723404961834,6.55238619657,5.84715830787,0.0
1449618723438120965,6.51009537722,5.84730144537,0.0
1449618723471900998,6.50145092579,5.84730144537,0.0
1449618723505230684,6.50135409181,5.84737665303,0.0
1449618723538696817,6.50516091549,5.84753411479,0.0
1449618723573135991,6.50516091549,5.84753411479,0.0
1449618723610364573,6.49348610302,5.7867810317,0.0
1449618723637986801,6.4847026108,5.78702678858,0.0
1449618723672528214,6.5242515772,5.78606512487,0.0
1449618723704470822,6.5242515772,5.78606512487,0.0
1449618723738868698,6.5242515772,5.78606512487,0.0
1449618723771545229,6.46844033357,5.78798287133,0.0
1449618723805495894,6.46844033357,5.78798287133,0.0
1449618723838597291,6.45682913831,5.78828313615,0.0
1449618723871325849,6.60968634979,6.01064285776,0.0
1449618723904899181,6.60968634979,6.01064285776,0.0
1449618723943272453,6.60968634979,6.01064285776,0.0
1449618723971356360,6.60968634979,6.01064285776,0.0
1449618724005835691,6.60968634979,6.01064285776,0.0
1449618724039163117,6.60968634979,6.01064285776,0.0
1449618724074143395,6.60968634979,6.01064285776,0.0
1449618724105561413,6.60968634979,6.01064285776,0.0
1449618724141179222,6.60968634979,6.01064285776,0.0
1449618724171717883,6.60968634979,6.01064285776,0.0
1449618724205341238,6.60968634979,6.01064285776,0.0
1449618724238414627,6.60968634979,6.01064285776,0.0
1449618724271432735,6.60968634979,6.01064285776,0.0
1449618724305250923,6.60968634979,6.01064285776,0.0
1449618724344566352,6.60968634979,6.01064285776,0.0
1449618724371331968,6.60968634979,6.01064285776,0.0
1449618724404775929,6.60968634979,6.01064285776,0.0
1449618724438054134,6.60968634979,6.01064285776,0.0
1449618724471702461,6.60968634979,6.02128571551,0.0
1449618724504976022,6.60968634979,6.02128571551,0.0
1449618724538495103,6.59985269958,6.04257143103,0.0
1449618724571995833,6.59985269958,6.04257143103,0.0
1449618724605493627,6.59985269958,6.04257143103,0.0
1449618724638186630,6.59985269958,6.04257143103,0.0
1449618724671496591,6.57035174896,6.30864285873,0.0
1449618724704947205,6.57035174896,6.30864285873,0.0
1449618724738179392,6.44251429626,6.47892858285,0.0
1449618724771748810,6.44251429626,6.47892858285,0.0
1449618724804610902,6.44251429626,6.47892858285,0.0
1449618724840621598,6.44251429626,6.47892858285,0.0
1449618724871985234,6.53101714813,6.56407143492,0.0
1449618724904789974,6.53101714813,6.56407143492,0.0
1449618724940547623,6.52118349792,6.56407143492,0.0
1449618724972014672,6.52118349792,6.56407143492,0.0
1449618725004858283,6.52118349792,6.56407143492,0.0
1449618725038129377,6.52118349792,6.56407143492,0.0
1449618725072166487,6.52118349792,6.56407143492,0.0
1449618725104840002,6.52118349792,6.56407143492,0.0
1449618725141527865,6.52118349792,6.56407143492,0.0
1449618725171448986,6.52118349792,6.56407143492,0.0
1449618725204774908,6.52118349792,6.56407143492,0.0
1449618725238836432,6.52118349792,6.56407143492,0.0
1449618725271666951,6.52118349792,6.56407143492,0.0
1449618725304937778,6.52118349792,6.56407143492,0.0
1449618725338509537,6.53101714813,6.57471429142,0.0
1449618725371185524,6.53101714813,6.57471429142,0.0
1449618725404784894,6.53101714813,6.57471429142,0.0
1449618725437984259,6.53101714813,6.57471429142,0.0
1449618725474119885,6.52118349792,6.56407143492,0.0
1449618725505093745,6.52118349792,6.56407143492,0.0
1449618725538798703,6.53101714813,6.57471429142,0.0
1449618725571278212,6.53101714813,6.57471429142,0.0
1449618725605626391,6.53101714813,6.57471429142,0.0
1449618725638315567,6.53101714813,6.57471429142,0.0
1449618725671529669,6.53101714813,6.57471429142,0.0
1449618725705176418,6.53101714813,6.57471429142,0.0
1449618725738331707,6.52118349792,6.57471429142,0.0
1449618725771630600,6.52118349792,6.57471429142,0.0
1449618725807170072,6.52118349792,6.57471429142,0.0
1449618725838816286,6.52118349792,6.57471429142,0.0
1449618725871644184,6.52118349792,6.57471429142,0.0
1449618725905105657,6.52118349792,6.57471429142,0.0
1449618725938597309,6.52118349792,6.56407143492,0.0
1449618725971371092,6.52118349792,6.56407143492,0.0
1449618726004779695,6.43268064606,6.47892858285,0.0
1449618726038026716,6.43268064606,6.47892858285,0.0
1449618726071242176,6.43268064606,6.47892858285,0.0
1449618726104588868,6.43268064606,6.47892858285,0.0
1449618726138146007,6.52118349792,6.56407143492,0.0
1449618726171285425,6.52118349792,6.56407143492,0.0
1449618726204988429,6.52118349792,6.56407143492,0.0
1449618726238493262,6.52118349792,6.56407143492,0.0
1449618726271617521,6.52118349792,6.56407143492,0.0
1449618726304914125,6.52118349792,6.56407143492,0.0
1449618726337875816,6.48184889709,6.26607143269,0.0
1449618726371275253,6.48184889709,6.26607143269,0.0
1449618726405957503,6.48184889709,6.26607143269,0.0
1449618726438496686,6.48184889709,6.26607143269,0.0
1449618726472340884,6.60968634979,6.0,0.0
1449618726504782181,6.60968634979,6.0,0.0
1449618726546084039,6.52118349792,5.96807142798,0.0
1449618726571361100,6.52118349792,5.96807142798,0.0
1449618726604808019,6.52118349792,5.96807142798,0.0
1449618726638319420,6.52118349792,5.96807142798,0.0
1449618726671373461,6.59985269958,5.94678571246,0.0
1449618726704946373,6.59985269958,5.94678571246,0.0
1449618726738123485,6.53101714813,5.94678571246,0.0
1449618726771439236,6.53101714813,5.94678571246,0.0
1449618726805243950,6.53101714813,5.94678571246,0.0
1449618726838328963,6.53101714813,5.94678571246,0.0
1449618726872693868,6.59985269958,5.90421428143,0.0
1449618726904806402,6.59985269958,5.90421428143,0.0
1449618726941379382,6.59985269958,5.90421428143,0.0
1449618726972289824,6.59985269958,5.90421428143,0.0
1449618727005179888,6.59985269958,5.90421428143,0.0
1449618727038320276,6.59985269958,5.90421428143,0.0
1449618727071441407,6.53101714813,5.42528570858,0.0
1449618727105751043,6.53101714813,5.42528570858,0.0
1449618727138106050,6.52118349792,5.43592856508,0.0
1449618727171796167,6.52118349792,5.43592856508,0.0
1449618727204517396,6.52118349792,5.43592856508,0.0
1449618727237982792,6.52118349792,5.43592856508,0.0
1449618727271492774,6.44251429626,5.52107141715,0.0
1449618727308527501,6.44251429626,5.52107141715,0.0
1449618727339817830,6.52118349792,5.43592856508,0.0
1449618727371556800,6.52118349792,5.43592856508,0.0
1449618727404639942,6.52118349792,5.43592856508,0.0
1449618727438401029,6.52118349792,5.43592856508,0.0
1449618727471723512,6.53101714813,5.42528570858,0.0
1449618727505234538,6.53101714813,5.42528570858,0.0
1449618727539649493,6.53101714813,5.42528570858,0.0
1449618727571933550,6.44251429626,5.52107141715,0.0
1449618727604555621,6.44251429626,5.52107141715,0.0
1449618727638027179,6.53101714813,5.43592856508,0.0
1449618727672415425,6.53101714813,5.43592856508,0.0
1449618727704766009,6.53101714813,5.43592856508,0.0
1449618727740281058,6.52118349792,5.43592856508,0.0
1449618727771639768,6.52118349792,5.43592856508,0.0
1449618727804694482,6.52118349792,5.43592856508,0.0
1449618727837982983,6.52118349792,5.43592856508,0.0
1449618727871595656,6.53101714813,5.42528570858,0.0
1449618727904856334,6.53101714813,5.42528570858,0.0
1449618727938135970,6.53101714813,5.42528570858,0.0
1449618727971227169,6.52118349792,5.42528570858,0.0
1449618728004639986,6.53101714813,5.43592856508,0.0
1449618728038054816,6.53101714813,5.43592856508,0.0
1449618728071480600,6.53101714813,5.43592856508,0.0
1449618728104606059,6.53101714813,5.43592856508,0.0
1449618728137937422,6.53101714813,5.42528570858,0.0
1449618728171812880,6.53101714813,5.42528570858,0.0
1449618728204885571,6.53101714813,5.42528570858,0.0
1449618728238080015,6.53101714813,5.42528570858,0.0
1449618728277925417,6.52118349792,5.43592856508,0.0
1449618728304685408,6.52118349792,5.43592856508,0.0
1449618728338194371,6.52118349792,5.42528570858,0.0
1449618728371258823,6.52118349792,5.42528570858,0.0
1449618728406156652,6.52118349792,5.42528570858,0.0
1449618728437816805,6.52118349792,5.42528570858,0.0
1449618728471244802,6.53101714813,5.43592856508,0.0
1449618728504727143,6.53101714813,5.43592856508,0.0
1449618728538762519,6.53101714813,5.42528570858,0.0
1449618728571644072,6.53101714813,5.42528570858,0.0
1449618728605032759,6.53101714813,5.42528570858,0.0
1449618728638799241,6.53101714813,5.42528570858,0.0
1449618728671418152,6.53101714813,5.43592856508,0.0
1449618728704675209,6.53101714813,5.43592856508,0.0
1449618728738999684,6.52118349792,5.42528570858,0.0
1449618728771274142,6.52118349792,5.42528570858,0.0
1449618728804806211,6.52118349792,5.42528570858,0.0
1449618728838055141,6.52118349792,5.42528570858,0.0
1449618728871413296,6.44251429626,5.52107141715,0.0
1449618728904892140,6.44251429626,5.52107141715,0.0
1449618728938122010,6.52118349792,5.42528570858,0.0
1449618728971168875,6.52118349792,5.42528570858,0.0
1449618729004705212,6.53101714813,5.43592856508,0.0
1449618729038119912,6.53101714813,5.43592856508,0.0
1449618729072419913,6.53101714813,5.43592856508,0.0
1449618729104879178,6.53101714813,5.43592856508,0.0
1449618729137963283,6.44251429626,5.52107141715,0.0
1449618729172174388,6.44251429626,5.52107141715,0.0
1449618729205752103,6.44251429626,5.52107141715,0.0
1449618729238349182,6.44251429626,5.52107141715,0.0
1449618729271511449,6.52118349792,5.42528570858,0.0
1449618729304708021,6.52118349792,5.42528570858,0.0
1449618729338164442,6.53101714813,5.42528570858,0.0
1449618729371647766,6.53101714813,5.42528570858,0.0
1449618729405277195,6.53101714813,5.42528570858,0.0
1449618729438617071,6.53101714813,5.42528570858,0.0
1449618729472690298,6.52118349792,5.43592856508,0.0
1449618729505045829,6.52118349792,5.43592856508,0.0
1449618729538342916,6.52118349792,5.43592856508,0.0
1449618729571386127,6.53101714813,5.42528570858,0.0
1449618729604470826,6.53101714813,5.42528570858,0.0
1449618729638192606,6.52118349792,5.42528570858,0.0
1449618729671310734,6.52118349792,5.42528570858,0.0
1449618729705062048,6.52118349792,5.42528570858,0.0
1449618729738707310,6.53101714813,5.42528570858,0.0
1449618729771250217,6.53101714813,5.42528570858,0.0
1449618729804798529,6.53101714813,5.42528570858,0.0
1449618729838302069,6.53101714813,5.42528570858,0.0
1449618729871799457,6.52118349792,5.42528570858,0.0
1449618729905359083,6.52118349792,5.42528570858,0.0
1449618729938129124,6.53101714813,5.42528570858,0.0
1449618729971662395,6.53101714813,5.42528570858,0.0
1449618730004659391,6.53101714813,5.42528570858,0.0
1449618730038160373,6.53101714813,5.42528570858,0.0
1449618730071317105,6.52118349792,5.42528570858,0.0
1449618730104661384,6.52118349792,5.42528570858,0.0
1449618730137927170,6.53101714813,5.43592856508,0.0
1449618730171484906,6.53101714813,5.43592856508,0.0
1449618730204665457,6.53101714813,5.43592856508,0.0
1449618730237837713,6.53101714813,5.43592856508,0.0
1449618730271307592,6.52118349792,5.42528570858,0.0
1449618730305643084,6.52118349792,5.42528570858,0.0
1449618730342234669,6.53101714813,5.42528570858,0.0
1449618730371426834,6.53101714813,5.42528570858,0.0
1449618730404671183,6.53101714813,5.42528570858,0.0
1449618730438162732,6.53101714813,5.42528570858,0.0
1449618730472176820,6.53101714813,5.42528570858,0.0
1449618730504858616,6.53101714813,5.42528570858,0.0
1449618730538216387,6.53101714813,5.43592856508,0.0
1449618730571484892,6.53101714813,5.43592856508,0.0
1449618730606020034,6.53101714813,5.43592856508,0.0
1449618730638820196,6.53101714813,5.43592856508,0.0
1449618730671243990,6.59985269958,5.96807142798,0.0
1449618730704754806,6.59985269958,5.96807142798,0.0
1449618730740507807,6.60968634979,5.98935714224,0.0
1449618730771429314,6.60968634979,5.98935714224,0.0
1449618730804688017,6.60968634979,5.98935714224,0.0
1449618730838269790,6.60968634979,5.98935714224,0.0
1449618730871528473,6.60968634979,5.98935714224,0.0
1449618730905729664,6.60968634979,5.98935714224,0.0
1449618730942999993,6.60968634979,5.98935714224,0.0
1449618730971582952,6.60968634979,5.98935714224,0.0
1449618731004601842,6.60968634979,5.98935714224,0.0
1449618731038270438,6.60968634979,5.98935714224,0.0
1449618731072265330,6.60968634979,5.98935714224,0.0
1449618731104580184,6.60968634979,5.98935714224,0.0
1449618731139044459,6.60968634979,6.0,0.0
1449618731171576313,6.60968634979,6.0,0.0
1449618731204401549,6.60968634979,6.0,0.0
1449618731237989810,6.60968634979,6.0,0.0
1449618731272121341,6.55068444855,6.0,0.0
1449618731304555391,6.55068444855,6.0,0.0
1449618731337842304,6.61952,6.0,0.0
1449618731371146528,6.61952,6.0,0.0
1449618731404827508,6.61952,6.0,0.0
1449618731438338035,6.61952,6.0,0.0
1449618731474694962,6.55068444855,6.0,0.0
1449618731504420693,6.55068444855,6.0,0.0
1449618731538057939,6.60968634979,6.0,0.0
1449618731572327864,6.60968634979,6.0,0.0
1449618731605181532,6.60968634979,6.0,0.0
1449618731638175344,6.60968634979,6.0,0.0
1449618731671617710,6.60968634979,6.0,0.0
1449618731704921707,6.60968634979,6.0,0.0
1449618731738298273,6.60968634979,6.0,0.0
1449618731771182804,6.60968634979,6.0,0.0
1449618731805132117,6.60968634979,6.0,0.0
1449618731838316746,6.60968634979,6.0,0.0
1449618731871612935,6.60968634979,6.0,0.0
1449618731905547338,6.60968634979,6.0,0.0
1449618731938054596,6.61952,6.0,0.0
1449618731971462135,6.61952,6.0,0.0
1449618732005450200,6.61952,6.0,0.0
1449618732038122421,6.61952,6.0,0.0
1449618732071415580,6.60968634979,6.0,0.0
1449618732105500755,6.60968634979,6.0,0.0
1449618732138086433,6.60968634979,6.0,0.0
1449618732172817626,6.60968634979,6.0,0.0
1449618732207125708,6.60968634979,6.0,0.0
1449618732238050127,6.60968634979,6.0,0.0
1449618732275139483,6.60968634979,6.0,0.0
1449618732305212896,6.60968634979,6.0,0.0
1449618732338427957,6.61952,6.0,0.0
1449618732371413040,6.61952,6.0,0.0
1449618732404679714,6.61952,6.0,0.0
1449618732437989887,6.61952,6.0,0.0
1449618732471678941,6.60968634979,6.0,0.0
1449618732505381602,6.60968634979,6.0,0.0
1449618732538156332,6.59985269958,6.0,0.0
1449618732571266262,6.59985269958,6.0,0.0
1449618732606102781,6.59985269958,6.0,0.0
1449618732638591363,6.0,6.0,0.0
1449618732671444179,6.0,6.0,0.0
1449618732704665958,6.0,6.0,0.0
1449618732738227816,6.55068444855,6.0,0.0
1449618732771582247,6.55068444855,6.0,0.0
1449618732804578031,6.55068444855,6.0,0.0
1449618732841601798,6.55068444855,6.0,0.0
1449618732871444107,6.33434414398,6.0,0.0
1449618732904575215,6.33434414398,6.0,0.0
1449618732950187138,6.60968634979,6.0,0.0
1449618732971238561,6.60968634979,6.0,0.0
1449618733004850523,6.60968634979,6.0,0.0
1449618733038228857,6.60968634979,6.0,0.0
1449618733071230013,6.60968634979,6.0,0.0
1449618733105281733,6.60968634979,6.0,0.0
1449618733138602853,6.60968634979,6.0,0.0
1449618733171180267,6.60968634979,6.0,0.0
1449618733204555696,6.60968634979,6.0,0.0
1449618733239065741,6.60968634979,6.0,0.0
1449618733272242333,6.60968634979,6.0,0.0
1449618733304792297,6.60968634979,6.0,0.0
1449618733338065290,6.61952,6.0,0.0
1449618733371514250,6.61952,6.0,0.0
1449618733405436566,6.61952,6.0,0.0
1449618733439396811,6.61952,6.0,0.0
1449618733471409345,6.60968634979,6.0,0.0
1449618733504781458,6.60968634979,6.0,0.0
1449618733539944210,6.58018539917,5.78714284985,0.0
1449618733571415116,6.58018539917,5.78714284985,0.0
1449618733604873060,6.58018539917,5.78714284985,0.0
1449618733638936219,6.58018539917,5.78714284985,0.0
1449618733671740802,6.53101714813,5.42528570858,0.0
1449618733704652530,6.53101714813,5.42528570858,0.0
1449618733738408688,6.44251429626,5.53171427366,0.0
1449618733771641491,6.44251429626,5.53171427366,0.0
1449618733804634050,6.44251429626,5.53171427366,0.0
1449618733838005248,6.44251429626,5.53171427366,0.0
1449618733871664136,6.53101714813,5.43592856508,0.0
1449618733904773730,6.53101714813,5.43592856508,0.0
1449618733941823253,6.52118349792,5.43592856508,0.0
1449618733971490462,6.52118349792,5.43592856508,0.0
1449618734004622249,6.52118349792,5.43592856508,0.0
1449618734038190624,6.52118349792,5.43592856508,0.0
1449618734073858222,6.53101714813,5.42528570858,0.0
1449618734104937568,6.53101714813,5.42528570858,0.0
1449618734140108704,6.52118349792,5.42528570858,0.0
1449618734171272458,6.52118349792,5.42528570858,0.0
1449618734204527947,6.52118349792,5.42528570858,0.0
1449618734238888842,6.52118349792,5.42528570858,0.0
1449618734271879926,6.53101714813,5.42528570858,0.0
1449618734305288068,6.53101714813,5.42528570858,0.0
1449618734338267199,6.52118349792,5.43592856508,0.0
1449618734372482102,6.52118349792,5.43592856508,0.0
1449618734405034386,6.52118349792,5.43592856508,0.0
1449618734438688987,6.52118349792,5.43592856508,0.0
1449618734471176923,6.53101714813,5.43592856508,0.0
1449618734505680265,6.53101714813,5.43592856508,0.0
1449618734538636945,6.52118349792,5.43592856508,0.0
1449618734571795883,6.52118349792,5.43592856508,0.0
1449618734605355004,6.52118349792,5.43592856508,0.0
1449618734637916062,6.52118349792,5.43592856508,0.0
1449618734672079148,6.53101714813,5.42528570858,0.0
1449618734704925227,6.53101714813,5.42528570858,0.0
1449618734738254859,6.53101714813,5.42528570858,0.0
1449618734771673585,6.53101714813,5.42528570858,0.0
1449618734804832375,6.53101714813,5.42528570858,0.0
1449618734838169623,6.53101714813,5.42528570858,0.0
1449618734871247101,6.53101714813,5.43592856508,0.0
1449618734904545472,6.53101714813,5.43592856508,0.0
1449618734937897885,6.52118349792,5.42528570858,0.0
1449618734978041827,6.52118349792,5.42528570858,0.0
1449618735005383345,6.52118349792,5.42528570858,0.0
1449618735038046028,6.52118349792,5.42528570858,0.0
1449618735071712489,6.44251429626,5.53171427366,0.0
1449618735106045944,6.44251429626,5.53171427366,0.0
1449618735139214003,6.52118349792,5.42528570858,0.0
1449618735173121664,6.52118349792,5.42528570858,0.0
1449618735204913932,6.52118349792,5.42528570858,0.0
1449618735244374180,6.52118349792,5.42528570858,0.0
1449618735272743904,6.52118349792,5.43592856508,0.0
1449618735304726294,6.52118349792,5.43592856508,0.0
1449618735337926804,6.52118349792,5.42528570858,0.0
1449618735371582091,6.52118349792,5.42528570858,0.0
1449618735405032113,6.52118349792,5.42528570858,0.0
1449618735437905589,6.52118349792,5.42528570858,0.0
1449618735471630204,6.52118349792,5.43592856508,0.0
1449618735504527028,6.52118349792,5.43592856508,0.0
1449618735538275127,6.53101714813,5.42528570858,0.0
1449618735571457629,6.53101714813,5.42528570858,0.0
1449618735605400091,6.53101714813,5.42528570858,0.0
1449618735638867258,6.53101714813,5.42528570858,0.0
1449618735671305326,6.52118349792,5.43592856508,0.0
1449618735705162089,6.52118349792,5.43592856508,0.0
1449618735739906686,6.53101714813,5.42528570858,0.0
1449618735773340269,6.53101714813,5.42528570858,0.0
1449618735804872750,6.53101714813,5.42528570858,0.0
1449618735838150051,6.52118349792,5.43592856508,0.0
1449618735871166862,6.52118349792,5.43592856508,0.0
1449618735904498410,6.52118349792,5.43592856508,0.0
1449618735940394640,6.53101714813,5.42528570858,0.0
1449618735971126442,6.53101714813,5.42528570858,0.0
1449618736004692809,6.53101714813,5.42528570858,0.0
1449618736045059804,6.53101714813,5.42528570858,0.0
1449618736072097703,6.60968634979,5.97871428449,0.0
1449618736104856108,6.60968634979,5.97871428449,0.0
1449618736138581753,6.60968634979,5.97871428449,0.0
1449618736172371285,6.60968634979,5.98935714224,0.0
1449618736211860920,6.60968634979,5.98935714224,0.0
1449618736239848558,6.60968634979,5.98935714224,0.0
1449618736275801895,6.60968634979,5.98935714224,0.0
1449618736305900449,6.60968634979,5.98935714224,0.0
1449618736338407558,6.61952,5.98935714224,0.0
1449618736371418503,6.61952,5.98935714224,0.0
1449618736405278079,6.61952,5.98935714224,0.0
1449618736439257763,6.61952,5.98935714224,0.0
1449618736471477508,6.61952,6.0,0.0
1449618736505117172,6.61952,6.0,0.0
1449618736538991745,6.59985269958,6.01064285776,0.0
1449618736572172498,6.59985269958,6.01064285776,0.0
1449618736605307938,6.59985269958,6.01064285776,0.0
1449618736637893088,6.59985269958,6.01064285776,0.0
1449618736671708776,6.59985269958,6.01064285776,0.0
1449618736706663942,6.59985269958,6.09578571857,0.0
1449618736738165696,6.59985269958,6.09578571857,0.0
1449618736771491409,6.59985269958,6.09578571857,0.0
1449618736804794759,6.59985269958,6.09578571857,0.0
1449618736838603820,6.59985269958,6.09578571857,0.0
1449618736871546280,6.59001904938,6.12771428809,0.0
1449618736908893685,6.59001904938,6.12771428809,0.0
1449618736943169987,6.50151619751,6.12771428809,0.0
1449618736971580102,6.50151619751,6.12771428809,0.0
1449618737004549068,6.50151619751,6.12771428809,0.0
1449618737037853714,6.50151619751,6.12771428809,0.0
1449618737071526988,6.53101714813,6.57471429142,0.0
1449618737104483318,6.53101714813,6.57471429142,0.0
1449618737138110100,6.52118349792,6.56407143492,0.0
1449618737172289298,6.52118349792,6.56407143492,0.0
1449618737204589633,6.52118349792,6.56407143492,0.0
1449618737238616655,6.52118349792,6.56407143492,0.0
1449618737271330661,6.52118349792,6.56407143492,0.0
1449618737305756192,6.52118349792,6.56407143492,0.0
1449618737338144378,6.52118349792,6.56407143492,0.0
1449618737374046707,6.52118349792,6.56407143492,0.0
1449618737416241137,6.52118349792,6.56407143492,0.0
1449618737438321374,6.52118349792,6.56407143492,0.0
1449618737471959707,6.52118349792,6.56407143492,0.0
1449618737504695352,6.52118349792,6.56407143492,0.0
1449618737539260344,6.52118349792,6.57471429142,0.0
1449618737571914878,6.52118349792,6.57471429142,0.0
1449618737604741730,6.52118349792,6.57471429142,0.0
1449618737640178449,6.52118349792,6.57471429142,0.0
1449618737671410477,6.52118349792,6.56407143492,0.0
1449618737705087989,6.52118349792,6.56407143492,0.0
1449618737738933231,6.52118349792,6.56407143492,0.0
1449618737772440583,6.52118349792,6.57471429142,0.0
1449618737805461315,6.52118349792,6.57471429142,0.0
1449618737838050846,6.52118349792,6.57471429142,0.0
1449618737871236362,6.52118349792,6.57471429142,0.0
1449618737904852196,6.52118349792,6.57471429142,0.0
1449618737938697885,6.4916825473,6.53214286539,0.0
1449618737971678740,6.4916825473,6.53214286539,0.0
1449618738004942990,6.4916825473,6.53214286539,0.0
1449618738039261166,6.4916825473,6.53214286539,0.0
1449618738071285533,6.4916825473,6.53214286539,0.0
1449618738107261567,6.52118349792,6.56407143492,0.0
1449618738138276184,6.53101714813,6.56407143492,0.0
1449618738171395084,6.53101714813,6.56407143492,0.0
1449618738204510057,6.53101714813,6.56407143492,0.0
1449618738237776722,6.53101714813,6.56407143492,0.0
1449618738271177090,6.52118349792,6.56407143492,0.0
1449618738305024327,6.52118349792,6.56407143492,0.0
1449618738338476380,6.45726476234,6.01596428664,0.0
1449618738371218475,6.45726476234,6.01596428664,0.0
1449618738406744561,6.45726476234,6.01596428664,0.0
1449618738438900804,6.45726476234,6.01596428664,0.0
1449618738471176405,6.45726476234,6.01596428664,0.0
1449618738505387967,6.45726476234,6.0,0.0
1449618738538717627,6.45726476234,6.0,0.0
1449618738571287485,6.45726476234,6.0,0.0
1449618738605237706,6.45726476234,6.0,0.0
1449618738639009539,6.55068444855,6.0,0.0
1449618738674937525,6.55068444855,6.0,0.0
1449618738704659181,6.55068444855,6.0,0.0
1449618738738369046,6.55068444855,6.0,0.0
1449618738771418274,6.45726476234,6.0,0.0
1449618738804627856,6.45726476234,6.0,0.0
1449618738837882227,6.45726476234,6.0,0.0
1449618738871161354,6.45726476234,6.0,0.0
1449618738904987403,6.52118349792,5.97871428449,0.0
1449618738938270343,6.26059174896,5.71264285429,0.0
1449618738972355569,6.26059174896,5.71264285429,0.0
1449618739005248307,6.26059174896,5.71796428254,0.0
1449618739038714341,6.26059174896,5.71796428254,0.0
1449618739071371202,6.26059174896,5.71796428254,0.0
1449618739106041442,6.26059174896,5.71796428254,0.0
1449618739148755164,6.26059174896,5.71796428254,0.0
1449618739171340823,6.26059174896,5.71796428254,0.0
1449618739204508058,6.26550857407,5.71264285429,0.0
1449618739238260234,6.26059174896,5.71796428254,0.0
1449618739272173795,6.26059174896,5.71796428254,0.0
1449618739304495002,6.26059174896,5.71796428254,0.0
1449618739342278097,6.26059174896,5.71264285429,0.0
1449618739371689971,6.26059174896,5.71264285429,0.0
1449618739404890260,6.26059174896,5.71264285429,0.0
1449618739438025291,6.26059174896,5.71264285429,0.0
1449618739472266152,6.26059174896,5.71264285429,0.0
1449618739504844295,6.23109079834,5.74457142381,0.0
1449618739542407352,6.23109079834,5.74457142381,0.0
1449618739571402574,6.26550857407,5.71264285429,0.0
1449618739604945948,6.26550857407,5.71264285429,0.0
1449618739638297028,6.26550857407,5.71264285429,0.0
1449618739672129583,6.26059174896,5.71796428254,0.0
1449618739705029743,6.26059174896,5.71796428254,0.0
1449618739738032485,6.26059174896,5.71796428254,0.0
1449618739771934432,6.26059174896,5.71796428254,0.0
1449618739806527505,6.26059174896,5.71796428254,0.0
1449618739838449569,6.22617397324,5.75521428032,0.0
1449618739871657082,6.22617397324,5.75521428032,0.0
1449618739918105902,6.22617397324,5.75521428032,0.0
1449618739939033142,6.26059174896,5.71264285429,0.0
1449618739972000089,6.26550857407,5.71264285429,0.0
1449618740020350792,6.26550857407,5.71264285429,0.0
1449618740038947294,6.26550857407,5.71264285429,0.0
1449618740071110661,6.26550857407,5.71264285429,0.0
1449618740104805986,6.26059174896,5.71264285429,0.0
1449618740141963840,6.26059174896,5.71264285429,0.0
1449618740171267025,6.26550857407,5.71264285429,0.0
1449618740204711379,6.26550857407,5.71264285429,0.0
1449618740238109982,6.26059174896,5.71264285429,0.0
1449618740271264876,6.26059174896,5.71264285429,0.0
1449618740304568544,6.26059174896,5.71264285429,0.0
1449618740337999664,6.0,6.0,0.0
1449618740371961504,6.0,6.0,0.0
1449618740405972651,6.0,6.0,0.0
1449618740438457197,6.0,6.0,0.0
1449618740476565706,6.26550857407,5.71264285429,0.0
1449618740505006324,6.26550857407,5.71264285429,0.0
1449618740542269657,6.26550857407,5.71264285429,0.0
1449618740571829033,6.26550857407,5.71264285429,0.0
1449618740604718901,6.26550857407,5.71264285429,0.0
1449618740637895356,6.26550857407,5.71264285429,0.0
1449618740672328833,6.26059174896,5.71264285429,0.0
1449618740705993025,6.26059174896,5.71264285429,0.0
1449618740737973427,6.26550857407,5.71264285429,0.0
1449618740771374007,6.26550857407,5.71264285429,0.0
1449618740804822067,6.26550857407,5.71264285429,0.0
1449618740838961781,6.26550857407,5.71264285429,0.0
1449618740873599196,6.26550857407,5.71264285429,0.0
1449618740905286853,6.26550857407,5.71264285429,0.0
1449618740938172047,6.26550857407,5.71264285429,0.0
1449618740971339227,6.26550857407,5.71264285429,0.0
1449618741004762928,6.26550857407,5.71264285429,0.0
1449618741038077388,6.26550857407,5.71264285429,0.0
1449618741072306469,6.26550857407,5.71264285429,0.0
1449618741104823229,6.26550857407,5.71264285429,0.0
1449618741139245809,6.26550857407,5.71796428254,0.0
1449618741171318637,6.26550857407,5.71796428254,0.0
1449618741204616219,6.26550857407,5.71796428254,0.0
1449618741238412149,6.26550857407,5.71264285429,0.0
1449618741272339632,6.26550857407,5.71264285429,0.0
1449618741305295725,6.26059174896,5.71796428254,0.0
1449618741340936540,6.26059174896,5.71796428254,0.0
1449618741374124492,6.26059174896,5.71796428254,0.0
1449618741405005377,6.26059174896,5.71796428254,0.0
1449618741438274170,6.26550857407,5.71264285429,0.0
1449618741471627362,6.26550857407,5.71264285429,0.0
1449618741506354601,6.26550857407,5.71264285429,0.0
1449618741537913004,6.26550857407,5.71264285429,0.0
1449618741571596408,6.26550857407,5.71796428254,0.0
1449618741611939906,6.26550857407,5.71796428254,0.0
1449618741638036971,6.26550857407,5.71796428254,0.0
1449618741671254628,6.22125714813,5.76053570858,0.0
1449618741705287763,6.26059174896,5.71796428254,0.0
1449618741738696566,6.26059174896,5.71796428254,0.0
1449618741771854276,6.26059174896,5.71796428254,0.0
1449618741805537265,6.26059174896,5.71796428254,0.0
1449618741838304657,6.26059174896,5.71796428254,0.0
1449618741871308413,6.26059174896,5.71796428254,0.0
1449618741916925119,6.26550857407,5.71796428254,0.0
1449618741939931694,6.21634032303,5.76053570858,0.0
1449618741972234943,6.21634032303,5.76053570858,0.0
1449618742005299542,6.21634032303,5.76053570858,0.0
1449618742038166881,6.21634032303,5.76053570858,0.0
1449618742071644806,6.26550857407,5.71264285429,0.0
1449618742105112433,6.26550857407,5.71264285429,0.0
1449618742138590346,6.26059174896,5.71796428254,0.0
1449618742171958363,6.26059174896,5.71796428254,0.0
1449618742205291517,6.26059174896,5.71796428254,0.0
1449618742238152960,6.26059174896,5.71796428254,0.0
1449618742271211318,6.26059174896,5.71796428254,0.0
1449618742305116483,6.26550857407,5.71264285429,0.0
1449618742338111287,6.26550857407,5.71264285429,0.0
1449618742373692972,6.13029587448,5.85632142714,0.0
1449618742405138915,6.13029587448,5.85632142714,0.0
1449618742438118708,6.13029587448,5.85632142714,0.0
1449618742471165298,6.13275428703,5.85898214127,0.0
1449618742505468746,6.13029587448,5.85632142714,0.0
1449618742538228919,6.13029587448,5.85632142714,0.0
1449618742571505334,6.13029587448,5.85632142714,0.0
1449618742604758229,6.13029587448,5.85632142714,0.0
1449618742638096115,6.13029587448,5.85632142714,0.0
1449618742671936085,6.13029587448,5.85632142714,0.0
1449618742705536940,6.26059174896,5.71796428254,0.0
1449618742738230072,6.26059174896,5.71796428254,0.0
1449618742771374281,6.13029587448,5.85632142714,0.0
1449618742806104679,6.13029587448,5.85632142714,0.0
1449618742838117842,6.13275428703,5.85898214127,0.0
1449618742871353990,6.13275428703,5.85898214127,0.0
1449618742905708974,6.13275428703,5.85632142714,0.0
1449618742941539368,6.13275428703,5.85632142714,0.0
1449618742971381712,6.13275428703,5.85632142714,0.0
1449618743005120603,6.13275428703,5.85632142714,0.0
1449618743038147961,6.26059174896,5.71796428254,0.0
1449618743073133340,6.26059174896,5.71796428254,0.0
1449618743106643608,6.26059174896,5.71796428254,0.0
1449618743138230027,6.26059174896,5.71796428254,0.0
1449618743171642208,6.13029587448,5.85632142714,0.0
1449618743204855363,6.13029587448,5.85632142714,0.0
