%time,field.header.seq,field.header.stamp,field.header.frame_id,field.ns,field.id,field.type,field.action,field.pose.position.x,field.pose.position.y,field.pose.position.z,field.pose.orientation.x,field.pose.orientation.y,field.pose.orientation.z,field.pose.orientation.w,field.scale.x,field.scale.y,field.scale.z,field.color.r,field.color.g,field.color.b,field.color.a,field.lifetime,field.frame_locked,field.text,field.mesh_resource,field.mesh_use_embedded_materials
1450210775126522279,0,0,/odom,fullacmd_vector,0,0,0,0.0,0.0,0.0,0.0,0.0,0.0,1.0,0.1,0.0,0.0,0.0,1.0,1.0,0.0,0,0,,,0
1450210775166675170,1,0,/odom,fullacmd_vector,0,0,0,0.0,0.0,0.0,0.0,0.0,0.0,1.0,0.1,0.0,0.0,0.0,1.0,1.0,0.0,0,0,,,0
1450210775207134620,2,0,/odom,fullacmd_vector,0,0,0,0.0,0.0,0.0,0.0,0.0,0.0,1.0,0.1,0.0,0.0,0.0,1.0,1.0,0.0,0,0,,,0
1450210775246579784,3,0,/odom,fullacmd_vector,0,0,0,0.0,0.0,0.0,0.0,0.0,0.0,1.0,0.1,0.0,0.0,0.0,1.0,1.0,0.0,0,0,,,0
1450210775286568085,4,0,/odom,fullacmd_vector,0,0,0,0.0,0.0,0.0,0.0,0.0,0.0,1.0,0.1,0.0,0.0,0.0,1.0,1.0,0.0,0,0,,,0
1450210775326590371,5,0,/odom,fullacmd_vector,0,0,0,0.0,0.0,0.0,0.0,0.0,0.0,1.0,0.452,0.0,0.0,0.0,1.0,1.0,0.0,0,0,,,0
1450210775366615568,6,0,/odom,fullacmd_vector,0,0,0,0.0,0.0,0.0,0.0,0.0,0.0,1.0,0.452,0.0,0.0,0.0,1.0,1.0,0.0,0,0,,,0
1450210775407336649,7,0,/odom,fullacmd_vector,0,0,0,0.0,0.0,0.0,0.0,0.0,0.0,1.0,0.452,0.0,0.0,0.0,1.0,1.0,0.0,0,0,,,0
1450210775448810989,8,0,/odom,fullacmd_vector,0,0,0,0.0,0.0,0.0,0.0,0.0,0.0,1.0,0.452,0.0,0.0,0.0,1.0,1.0,0.0,0,0,,,0
1450210775487138862,9,0,/odom,fullacmd_vector,0,0,0,0.0,0.0,0.0,0.0,0.0,0.0,1.0,0.452,0.0,0.0,0.0,1.0,1.0,0.0,0,0,,,0
1450210775528477415,10,0,/odom,fullacmd_vector,0,0,0,0.0,0.0,0.0,0.0,0.0,0.0,1.0,0.452,0.0,0.0,0.0,1.0,1.0,0.0,0,0,,,0
1450210775567268500,11,0,/odom,fullacmd_vector,0,0,0,0.0,0.0,0.0,0.0,0.0,0.0,1.0,0.452,0.0,0.0,0.0,1.0,1.0,0.0,0,0,,,0
1450210775605970919,12,0,/odom,fullacmd_vector,0,0,0,0.0,0.0,0.0,0.0,0.0,0.0,1.0,0.452,0.0,0.0,0.0,1.0,1.0,0.0,0,0,,,0
1450210775646630924,13,0,/odom,fullacmd_vector,0,0,0,0.0,0.0,0.0,0.0,0.0,0.0,1.0,0.452,0.0,0.0,0.0,1.0,1.0,0.0,0,0,,,0
1450210775686409131,14,0,/odom,fullacmd_vector,0,0,0,0.0,0.0,0.0,0.0,0.0,0.0,1.0,0.452,0.0,0.0,0.0,1.0,1.0,0.0,0,0,,,0
1450210775727642150,15,0,/odom,fullacmd_vector,0,0,0,0.0,0.0,0.0,0.0,0.0,0.0,1.0,0.452,0.0,0.0,0.0,1.0,1.0,0.0,0,0,,,0
1450210775766269564,16,0,/odom,fullacmd_vector,0,0,0,0.0,0.0,0.0,0.0,0.0,0.0,1.0,0.452,0.0,0.0,0.0,1.0,1.0,0.0,0,0,,,0
1450210775806256616,17,0,/odom,fullacmd_vector,0,0,0,0.0,0.0,0.0,0.0,0.0,0.0,1.0,0.452,0.0,0.0,0.0,1.0,1.0,0.0,0,0,,,0
1450210775846827885,18,0,/odom,fullacmd_vector,0,0,0,0.0,0.0,0.0,0.0,0.0,0.0,1.0,0.452,0.0,0.0,0.0,1.0,1.0,0.0,0,0,,,0
1450210775886497081,19,0,/odom,fullacmd_vector,0,0,0,0.0,0.0,0.0,0.0,0.0,0.0,1.0,0.452,0.0,0.0,0.0,1.0,1.0,0.0,0,0,,,0
1450210775926175405,20,0,/odom,fullacmd_vector,0,0,0,0.0,0.0,0.0,0.0,0.0,0.0,1.0,0.452,0.0,0.0,0.0,1.0,1.0,0.0,0,0,,,0
1450210775966403559,21,0,/odom,fullacmd_vector,0,0,0,0.0,0.0,0.0,0.0,0.0,0.0,1.0,0.452,0.0,0.0,0.0,1.0,1.0,0.0,0,0,,,0
1450210776006853692,22,0,/odom,fullacmd_vector,0,0,0,0.0,0.0,0.0,0.0,0.0,0.0,1.0,0.452,0.0,0.0,0.0,1.0,1.0,0.0,0,0,,,0
1450210776046983935,23,0,/odom,fullacmd_vector,0,0,0,0.0,0.0,0.0,0.0,0.0,0.0,1.0,0.452,0.0,0.0,0.0,1.0,1.0,0.0,0,0,,,0
1450210776085958151,24,0,/odom,fullacmd_vector,0,0,0,0.0,0.0,0.0,0.0,0.0,0.0,1.0,0.452,0.0,0.0,0.0,1.0,1.0,0.0,0,0,,,0
1450210776126252241,25,0,/odom,fullacmd_vector,0,0,0,0.0,0.0,0.0,0.0,0.0,0.0,1.0,0.452,0.0,0.0,0.0,1.0,1.0,0.0,0,0,,,0
1450210776167300504,26,0,/odom,fullacmd_vector,0,0,0,0.0,0.0,0.0,0.0,0.0,0.0,1.0,0.452,0.0,0.0,0.0,1.0,1.0,0.0,0,0,,,0
1450210776206763685,27,0,/odom,fullacmd_vector,0,0,0,0.0,0.0,0.0,0.0,0.0,0.0,1.0,0.452,0.0,0.0,0.0,1.0,1.0,0.0,0,0,,,0
1450210776247021470,28,0,/odom,fullacmd_vector,0,0,0,0.0,0.0,0.0,0.0,0.0,0.0,1.0,0.452,0.0,0.0,0.0,1.0,1.0,0.0,0,0,,,0
1450210776286461282,29,0,/odom,fullacmd_vector,0,0,0,0.0,0.0,0.0,0.0,0.0,0.0,1.0,0.452,0.0,0.0,0.0,1.0,1.0,0.0,0,0,,,0
1450210776328053905,30,0,/odom,fullacmd_vector,0,0,0,0.00575958653158,0.0,0.0,0.0,0.0,0.0,1.0,0.452,0.0,0.0,0.0,1.0,1.0,0.0,0,0,,,0
1450210776366668883,31,0,/odom,fullacmd_vector,0,0,0,0.00575958653158,0.0,0.0,0.0,0.0,0.0,1.0,0.452,0.0,0.0,0.0,1.0,1.0,0.0,0,0,,,0
1450210776407960254,32,0,/odom,fullacmd_vector,0,0,0,0.00863921898595,3.04332289367e-05,0.0,0.0,0.0,0.0052839997518,0.999986039576,0.452,0.0,0.0,0.0,1.0,1.0,0.0,0,0,,,0
1450210776448249108,33,0,/odom,fullacmd_vector,0,0,0,0.0115190122517,3.04332289367e-05,0.0,0.0,0.0,0.0,1.0,0.452,0.0,0.0,0.0,1.0,1.0,0.0,0,0,,,0
1450210776486221417,34,0,/odom,fullacmd_vector,0,0,0,0.0115190122517,3.04332289367e-05,0.0,0.0,0.0,0.0,1.0,0.452,0.0,0.0,0.0,1.0,1.0,0.0,0,0,,,0
1450210776526627119,35,0,/odom,fullacmd_vector,0,0,0,0.0172785987833,3.04332289367e-05,0.0,0.0,0.0,0.0,1.0,0.452,0.0,0.0,0.0,1.0,1.0,0.0,0,0,,,0
1450210776566513966,36,0,/odom,fullacmd_vector,0,0,0,0.0201582312377,6.08664578733e-05,0.0,0.0,0.0,0.0052839997518,0.999986039576,0.452,0.0,0.0,0.0,1.0,1.0,0.0,0,0,,,0
1450210776607548175,37,0,/odom,fullacmd_vector,0,0,0,0.0230380245035,6.08664578733e-05,0.0,0.0,0.0,0.0,1.0,0.452,0.0,0.0,0.0,1.0,1.0,0.0,0,0,,,0
1450210776646010155,38,0,/odom,fullacmd_vector,0,0,0,0.0287976110351,6.08664578733e-05,0.0,0.0,0.0,0.0,1.0,0.452,0.0,0.0,0.0,1.0,1.0,0.0,0,0,,,0
1450210776687347306,39,0,/odom,fullacmd_vector,0,0,0,0.0345571975666,6.08664578733e-05,0.0,0.0,0.0,0.0,1.0,0.452,0.0,0.0,0.0,1.0,1.0,0.0,0,0,,,0
1450210776727131790,40,0,/odom,fullacmd_vector,0,0,0,0.037436830021,9.129968681e-05,0.0,0.0,0.0,0.0052839997518,0.999986039576,0.452,0.0,0.0,0.0,1.0,1.0,0.0,0,0,,,0
1450210776766600169,41,0,/odom,fullacmd_vector,0,0,0,0.0431960949298,0.000152166144683,0.0,0.0,0.0,0.0052839997518,0.999986039576,0.452,0.0,0.0,0.0,1.0,1.0,0.0,0,0,,,0
1450210776805895461,42,0,/odom,fullacmd_vector,0,0,0,0.0489553598385,0.000213032602557,0.0,0.0,0.0,0.0052839997518,0.999986039576,0.452,0.0,0.0,0.0,1.0,1.0,0.0,0,0,,,0
1450210776846861592,43,0,/odom,fullacmd_vector,0,0,0,0.0518351531043,0.000213032602557,0.0,0.0,0.0,0.0,1.0,0.452,0.0,0.0,0.0,1.0,1.0,0.0,0,0,,,0
1450210776888169100,44,0,/odom,fullacmd_vector,0,0,0,0.0604740504674,0.000304332289367,0.0,0.0,0.0,0.0052839997518,0.999986039576,0.452,0.0,0.0,0.0,1.0,1.0,0.0,0,0,,,0
1450210776927284280,45,0,/odom,fullacmd_vector,0,0,0,0.0662333153762,0.00036519874724,0.0,0.0,0.0,0.0052839997518,0.999986039576,0.452,0.0,0.0,0.0,1.0,1.0,0.0,0,0,,,0
1450210776968185079,46,0,/odom,fullacmd_vector,0,0,0,0.0719925802849,0.000426065205113,0.0,0.0,0.0,0.0052839997518,0.999986039576,0.452,0.0,0.0,0.0,1.0,1.0,0.0,0,0,,,0
1450210777007502348,47,0,/odom,fullacmd_vector,0,0,0,0.0777518451936,0.000486931662986,0.0,0.0,0.0,0.0052839997518,0.999986039576,0.452,0.0,0.0,0.0,1.0,1.0,0.0,0,0,,,0
1450210777047407398,48,0,/odom,fullacmd_vector,0,0,0,0.0892703750111,0.000608664578733,0.0,0.0,0.0,0.0052839997518,0.999986039576,0.452,0.0,0.0,0.0,1.0,1.0,0.0,0,0,,,0
1450210777086655572,49,0,/odom,fullacmd_vector,0,0,0,0.0950296399199,0.000669531036606,0.0,0.0,0.0,0.0052839997518,0.999986039576,0.452,0.0,0.0,0.0,1.0,1.0,0.0,0,0,,,0
1450210777126147922,50,0,/odom,fullacmd_vector,0,0,0,0.103667090034,0.000852120213639,0.0,0.0,0.0,0.0105678519699,0.999944158693,0.452,0.0,0.0,0.0,1.0,1.0,0.0,0,0,,,0
1450210777167226940,51,0,/odom,fullacmd_vector,0,0,0,0.115183690186,0.00109557244968,0.0,0.0,0.0,0.0105678519699,0.999944158693,0.452,0.0,0.0,0.0,1.0,1.0,0.0,0,0,,,0
1450210777207906362,52,0,/odom,fullacmd_vector,0,0,0,0.120941990263,0.0012172985677,0.0,0.0,0.0,0.0105678519699,0.999944158693,0.452,0.0,0.0,0.0,1.0,1.0,0.0,0,0,,,0
1450210777246742794,53,0,/odom,fullacmd_vector,0,0,0,0.129577028475,0.00149115684292,0.0,0.0,0.0,0.0158514091245,0.999874358521,0.452,0.0,0.0,0.0,1.0,1.0,0.0,0,0,,,0
1450210777286159250,54,0,/odom,fullacmd_vector,0,0,0,0.135333720616,0.0016737290264,0.0,0.0,0.0,0.0158514091245,0.999874358521,0.452,0.0,0.0,0.0,1.0,1.0,0.0,0,0,,,0
1450210777326735717,55,0,/odom,fullacmd_vector,0,0,0,0.1468471049,0.00203887339336,0.0,0.0,0.0,0.0158514091245,0.999874358521,0.452,0.0,0.0,0.0,1.0,1.0,0.0,0,0,,,0
1450210777367646213,56,0,/odom,fullacmd_vector,0,0,0,0.155478766826,0.00240397018155,0.0,0.0,0.0,0.0211345236944,0.999776641009,0.452,0.0,0.0,0.0,1.0,1.0,0.0,0,0,,,0
1450210777407603735,57,0,/odom,fullacmd_vector,0,0,0,0.166987649395,0.00289076589915,0.0,0.0,0.0,0.0106095825225,0.999943716795,0.452,0.0,0.0,0.0,1.0,1.0,0.0,0,0,,,0
1450210777447441579,58,0,/odom,fullacmd_vector,0,0,0,0.17274209068,0.00313416375795,0.0,0.0,0.0,0.0106095825225,0.999943716795,0.452,0.0,0.0,0.0,1.0,1.0,0.0,0,0,,,0
1450210777486594019,59,0,/odom,fullacmd_vector,0,0,0,0.184250973249,0.00362095947554,0.0,0.0,0.0,0.0106095825225,0.999943716795,0.452,0.0,0.0,0.0,1.0,1.0,0.0,0,0,,,0
1450210777526256778,60,0,/odom,fullacmd_vector,0,0,0,0.192878294884,0.00407725400175,0.0,0.0,0.0,0.0158931367596,0.999873696126,0.452,0.0,0.0,0.0,1.0,1.0,0.0,0,0,,,0
1450210777567690880,61,0,/odom,fullacmd_vector,0,0,0,0.204381390397,0.00468564670336,0.0,0.0,0.0,0.0158931367596,0.999873696126,0.452,0.0,0.0,0.0,1.0,1.0,0.0,0,0,,,0
1450210777606669968,62,0,/odom,fullacmd_vector,0,0,0,0.213003408217,0.00523308800742,0.0,0.0,0.0,0.0211762472469,0.999775758134,0.452,0.0,0.0,0.0,1.0,1.0,0.0,0,0,,,0
1450210777647208862,63,0,/odom,fullacmd_vector,0,0,0,0.224499431978,0.00596300974617,0.0,0.0,0.0,0.0211762472469,0.999775758134,0.452,0.0,0.0,0.0,1.0,1.0,0.0,0,0,,,0
1450210777686886263,64,0,/odom,fullacmd_vector,0,0,0,0.235995455739,0.00669293148492,0.0,0.0,0.0,0.0211762472469,0.999775758134,0.452,0.0,0.0,0.0,1.0,1.0,0.0,0,0,,,0
1450210777726995224,65,0,/odom,fullacmd_vector,0,0,0,0.24174346762,0.00705789235429,0.0,0.0,0.0,0.0211762472469,0.999775758134,0.452,0.0,0.0,0.0,1.0,1.0,0.0,0,0,,,0
1450210777766827470,66,0,/odom,fullacmd_vector,0,0,0,0.253239491381,0.00778781409304,0.0,0.0,0.0,0.0211762472469,0.999775758134,0.452,0.0,0.0,0.0,1.0,1.0,0.0,0,0,,,0
1450210777808576497,67,0,/odom,fullacmd_vector,0,0,0,0.26759907651,0.00885202566343,0.0,0.0,0.0,0.0264587664753,0.999649905555,0.452,0.0,0.0,0.0,1.0,1.0,0.0,0,0,,,0
1450210777848771654,68,0,/odom,fullacmd_vector,0,0,0,0.279086744613,0.00970339491974,0.0,0.0,0.0,0.0264587664753,0.999649905555,0.452,0.0,0.0,0.0,1.0,1.0,0.0,0,0,,,0
1450210777887302221,69,0,/odom,fullacmd_vector,0,0,0,0.290574412716,0.010554764176,0.0,0.0,0.0,0.0264587664753,0.999649905555,0.452,0.0,0.0,0.0,1.0,1.0,0.0,0,0,,,0
1450210777926347874,70,0,/odom,fullacmd_vector,0,0,0,0.296318246768,0.0109804488042,0.0,0.0,0.0,0.0264587664753,0.999649905555,0.452,0.0,0.0,0.0,1.0,1.0,0.0,0,0,,,0
1450210777966860917,71,0,/odom,fullacmd_vector,0,0,0,0.307805914871,0.0118318180605,0.0,0.0,0.0,0.0264587664753,0.999649905555,0.452,0.0,0.0,0.0,1.0,1.0,0.0,0,0,,,0
1450210778007872930,72,0,/odom,fullacmd_vector,0,0,0,0.319309010384,0.0124402107621,0.0,0.0,0.0,0.0158931367596,0.999873696126,0.452,0.0,0.0,0.0,1.0,1.0,0.0,0,0,,,0
1450210778047967581,73,0,/odom,fullacmd_vector,0,0,0,0.32506055814,0.0127444071129,0.0,0.0,0.0,0.0158931367596,0.999873696126,0.452,0.0,0.0,0.0,1.0,1.0,0.0,0,0,,,0
1450210778086549417,74,0,/odom,fullacmd_vector,0,0,0,0.336563653653,0.0133527998145,0.0,0.0,0.0,0.0158931367596,0.999873696126,0.452,0.0,0.0,0.0,1.0,1.0,0.0,0,0,,,0
1450210778126274127,75,0,/odom,fullacmd_vector,0,0,0,0.348077037936,0.0137179441815,0.0,0.0,0.0,0.00532573205691,0.999985818188,0.452,0.0,0.0,0.0,1.0,1.0,0.0,0,0,,,0
1450210778166316512,76,0,/odom,fullacmd_vector,0,0,0,0.356708699863,0.0140830409697,0.0,0.0,0.0,0.0106095825225,0.999943716795,0.452,0.0,0.0,0.0,1.0,1.0,0.0,0,0,,,0
1450210778206037444,77,0,/odom,fullacmd_vector,0,0,0,0.368225300016,0.0143264932057,0.0,0.0,0.0,4.17328923147e-05,0.999999999129,0.452,0.0,0.0,0.0,1.0,1.0,0.0,0,0,,,0
1450210778246596622,78,0,/odom,fullacmd_vector,0,0,0,0.379741900168,0.0145699454418,0.0,0.0,0.0,4.17328923147e-05,0.999999999129,0.452,0.0,0.0,0.0,1.0,1.0,0.0,0,0,,,0
1450210778286415808,79,0,/odom,fullacmd_vector,0,0,0,0.388380797531,0.0146612451286,0.0,0.0,0.0,-0.0052422674375,0.999986259222,0.452,0.0,0.0,0.0,1.0,1.0,0.0,0,0,,,0
1450210778327087370,80,0,/odom,fullacmd_vector,0,0,0,0.397020177328,0.0146612451286,0.0,0.0,0.0,-0.0105261213988,0.99994459885,0.452,0.0,0.0,0.0,1.0,1.0,0.0,0,0,,,0
1450210778367838353,81,0,/odom,fullacmd_vector,0,0,0,0.4114183396,0.0145090789839,0.0,0.0,0.0,-0.0158096814618,0.999875019176,0.452,0.0,0.0,0.0,1.0,1.0,0.0,0,0,,,0
1450210778407276347,82,0,/odom,fullacmd_vector,0,0,0,0.417177604509,0.014448212526,0.0,0.0,0.0,-0.0158096814618,0.999875019176,0.452,0.0,0.0,0.0,1.0,1.0,0.0,0,0,,,0
1450210778451340148,83,0,/odom,fullacmd_vector,0,0,0,0.431573354699,0.014143897231,0.0,0.0,0.0,-0.0210928001051,0.999777522144,0.452,0.0,0.0,0.0,1.0,1.0,0.0,0,0,,,0
1450210778486959510,84,0,/odom,fullacmd_vector,0,0,0,0.445965085053,0.0136874667723,0.0,0.0,0.0,-0.0263753298195,0.999652110475,0.452,0.0,0.0,0.0,1.0,1.0,0.0,0,0,,,0
1450210778526916513,85,0,/odom,fullacmd_vector,0,0,0,0.451721777195,0.0135048945888,0.0,0.0,0.0,-0.0158514091245,0.999874358521,0.452,0.0,0.0,0.0,1.0,1.0,0.0,0,0,,,0
1450210778566489872,86,0,/odom,fullacmd_vector,0,0,0,0.466107880406,0.0128963999418,0.0,0.0,0.0,-0.0211345236944,0.999776641009,0.452,0.0,0.0,0.0,1.0,1.0,0.0,0,0,,,0
1450210778607557543,87,0,/odom,fullacmd_vector,0,0,0,0.477616762975,0.0124096042242,0.0,0.0,0.0,-0.0106095825225,0.999943716795,0.452,0.0,0.0,0.0,1.0,1.0,0.0,0,0,,,0
1450210778647279280,88,0,/odom,fullacmd_vector,0,0,0,0.48624408461,0.011953309698,0.0,0.0,0.0,-0.0158931367596,0.999873696126,0.452,0.0,0.0,0.0,1.0,1.0,0.0,0,0,,,0
1450210778686782871,89,0,/odom,fullacmd_vector,0,0,0,0.500614114311,0.0110409075246,0.0,0.0,0.0,-0.0211762472469,0.999775758134,0.452,0.0,0.0,0.0,1.0,1.0,0.0,0,0,,,0
1450210778726934149,90,0,/odom,fullacmd_vector,0,0,0,0.512110138072,0.0103109857858,0.0,0.0,0.0,-0.0211762472469,0.999775758134,0.452,0.0,0.0,0.0,1.0,1.0,0.0,0,0,,,0
1450210778766596944,91,0,/odom,fullacmd_vector,0,0,0,0.52072588915,0.0096724588436,0.0,0.0,0.0,-0.00540919663922,0.999985370189,0.452,0.0,0.0,0.0,1.0,1.0,0.0,0,0,,,0
1450210778807361622,92,0,/odom,fullacmd_vector,0,0,0,0.532213557253,0.00882108958729,0.0,0.0,0.0,-0.00540919663922,0.999985370189,0.452,0.0,0.0,0.0,1.0,1.0,0.0,0,0,,,0
1450210778846761718,93,0,/odom,fullacmd_vector,0,0,0,0.540822079357,0.00809154831924,0.0,0.0,0.0,-0.0106930435724,0.999942827775,0.452,0.0,0.0,0.0,1.0,1.0,0.0,0,0,,,0
1450210778886241264,94,0,/odom,fullacmd_vector,0,0,0,0.55230010883,0.00711882662851,0.0,0.0,0.0,-0.0106930435724,0.999942827775,0.452,0.0,0.0,0.0,1.0,1.0,0.0,0,0,,,0
1450210778926589425,95,0,/odom,fullacmd_vector,0,0,0,0.560900440539,0.00629835251172,0.0,0.0,0.0,-0.0159765919468,0.99987236611,0.4056,0.0,0.0,0.0,1.0,1.0,0.0,0,0,,,0
1450210778967956940,96,0,/odom,fullacmd_vector,0,0,0,0.575219075216,0.00477949362366,0.0,0.0,0.0,-0.0212596942411,0.999773987159,0.4056,0.0,0.0,0.0,1.0,1.0,0.0,0,0,,,0
1450210779006249269,97,0,/odom,fullacmd_vector,0,0,0,0.580946529087,0.00417195006843,0.0,0.0,0.0,-0.0212596942411,0.999773987159,0.452,0.0,0.0,0.0,1.0,1.0,0.0,0,0,,,0
1450210779046563331,98,0,/odom,fullacmd_vector,0,0,0,0.592401436829,0.00295686295799,0.0,0.0,0.0,-0.0212596942411,0.999773987159,0.452,0.0,0.0,0.0,1.0,1.0,0.0,0,0,,,0
1450210779086402657,99,0,/odom,fullacmd_vector,0,0,0,0.606703220859,0.00128677167331,0.0,0.0,0.0,-0.0265422029468,0.999647693671,0.452,0.0,0.0,0.0,1.0,1.0,0.0,0,0,,,0
1450210779126739449,100,0,/odom,fullacmd_vector,0,0,0,0.618144648083,-4.93013544302e-05,0.0,0.0,0.0,-0.0265422029468,0.999647693671,0.452,0.0,0.0,0.0,1.0,1.0,0.0,0,0,,,0
1450210779168084829,101,0,/odom,fullacmd_vector,0,0,0,0.626714649756,-0.00114198365111,0.0,0.0,0.0,-0.0107765045478,0.999941931789,0.452,0.0,0.0,0.0,1.0,1.0,0.0,0,0,,,0
1450210779207227403,102,0,/odom,fullacmd_vector,0,0,0,0.638141318654,-0.00259889338001,0.0,0.0,0.0,-0.0107765045478,0.999941931789,0.452,0.0,0.0,0.0,1.0,1.0,0.0,0,0,,,0
1450210779247284278,103,0,/odom,fullacmd_vector,0,0,0,0.649567987552,-0.00405580310892,0.0,0.0,0.0,-0.0107765045478,0.999941931789,0.452,0.0,0.0,0.0,1.0,1.0,0.0,0,0,,,0
1450210779286735459,104,0,/odom,fullacmd_vector,0,0,0,0.655281322001,-0.00478425797337,0.0,0.0,0.0,-0.0107765045478,0.999941931789,0.452,0.0,0.0,0.0,1.0,1.0,0.0,0,0,,,0
1450210779326438457,105,0,/odom,fullacmd_vector,0,0,0,0.669544615015,-0.0067562376216,0.0,0.0,0.0,-0.0160600470226,0.999871029128,0.452,0.0,0.0,0.0,1.0,1.0,0.0,0,0,,,0
1450210779369444420,106,0,/odom,fullacmd_vector,0,0,0,0.675249932221,-0.00754502948089,0.0,0.0,0.0,-0.0160600470226,0.999871029128,0.452,0.0,0.0,0.0,1.0,1.0,0.0,0,0,,,0
1450210779406685173,107,0,/odom,fullacmd_vector,0,0,0,0.686660566632,-0.00912261319947,0.0,0.0,0.0,-0.0160600470226,0.999871029128,0.452,0.0,0.0,0.0,1.0,1.0,0.0,0,0,,,0
1450210779446757570,108,0,/odom,fullacmd_vector,0,0,0,0.698071201043,-0.0107001969181,0.0,0.0,0.0,-0.0160600470226,0.999871029128,0.452,0.0,0.0,0.0,1.0,1.0,0.0,0,0,,,0
1450210779486591548,109,0,/odom,fullacmd_vector,0,0,0,0.703776518249,-0.0114889887773,0.0,0.0,0.0,-0.0160600470226,0.999871029128,0.452,0.0,0.0,0.0,1.0,1.0,0.0,0,0,,,0
1450210779526305101,110,0,/odom,fullacmd_vector,0,0,0,0.718018175193,-0.0136115906768,0.0,0.0,0.0,-0.0213431410873,0.99977220922,0.452,0.0,0.0,0.0,1.0,1.0,0.0,0,0,,,0
1450210779568322712,111,0,/odom,fullacmd_vector,0,0,0,0.729411500749,-0.0153096721964,0.0,0.0,0.0,-0.0213431410873,0.99977220922,0.452,0.0,0.0,0.0,1.0,1.0,0.0,0,0,,,0
1450210779606289857,112,0,/odom,fullacmd_vector,0,0,0,0.737969476557,-0.0164928599854,0.0,0.0,0.0,-0.0160600470226,0.999871029128,0.452,0.0,0.0,0.0,1.0,1.0,0.0,0,0,,,0
1450210779647123358,113,0,/odom,fullacmd_vector,0,0,0,0.749380110969,-0.0180704437039,0.0,0.0,0.0,0.00499187336246,0.999987540523,0.452,0.0,0.0,0.0,1.0,1.0,0.0,0,0,,,0
1450210779686889323,114,0,/odom,fullacmd_vector,0,0,0,0.76079074538,-0.0196480274225,0.0,0.0,0.0,0.00499187336246,0.999987540523,0.452,0.0,0.0,0.0,1.0,1.0,0.0,0,0,,,0
1450210779726484086,115,0,/odom,fullacmd_vector,0,0,0,0.769335739547,-0.0209215885622,0.0,0.0,0.0,-0.000292130242133,0.99999995733,0.452,0.0,0.0,0.0,1.0,1.0,0.0,0,0,,,0
1450210779767279295,116,0,/odom,fullacmd_vector,0,0,0,0.780729065102,-0.0226196700818,0.0,0.0,0.0,-0.000292130242133,0.99999995733,0.452,0.0,0.0,0.0,1.0,1.0,0.0,0,0,,,0
1450210779806760386,117,0,/odom,fullacmd_vector,0,0,0,0.792122390658,-0.0243177516014,0.0,0.0,0.0,-0.0739088866573,0.997264998119,0.0,0.0,0.0,0.0,1.0,1.0,0.0,0,0,,,0
1450210779846491435,118,0,/odom,fullacmd_vector,0,0,0,0.803515716213,-0.026015833121,0.0,0.0,0.0,-0.0739088866573,0.997264998119,0.0,0.0,0.0,0.0,1.0,1.0,0.0,0,0,,,0
1450210779888139915,119,0,/odom,fullacmd_vector,0,0,0,0.814909041768,-0.0277139146406,0.0,0.0,0.0,-0.0739088866573,0.997264998119,0.0,0.0,0.0,0.0,1.0,1.0,0.0,0,0,,,0
1450210779926519699,120,0,/odom,fullacmd_vector,0,0,0,0.826302367324,-0.0294119961601,0.0,0.0,0.0,-0.0739088866573,0.997264998119,0.0,0.0,0.0,0.0,1.0,1.0,0.0,0,0,,,0
1450210779966702714,121,0,/odom,fullacmd_vector,0,0,0,0.837695692879,-0.0311100776797,0.0,0.0,0.0,-0.0739088866573,0.997264998119,0.0,0.0,0.0,0.0,1.0,1.0,0.0,0,0,,,0
1450210780006794073,122,0,/odom,fullacmd_vector,0,0,0,0.849089018435,-0.0328081591993,0.0,0.0,0.0,-0.0739088866573,0.997264998119,0.0,0.0,0.0,0.0,1.0,1.0,0.0,0,0,,,0
1450210780047073590,123,0,/odom,fullacmd_vector,0,0,0,0.86048234399,-0.0345062407189,0.0,0.0,0.0,-0.0739088866573,0.997264998119,0.0,0.0,0.0,0.0,1.0,1.0,0.0,0,0,,,0
1450210780087353141,124,0,/odom,fullacmd_vector,0,0,0,0.866179006768,-0.0353552814787,0.0,0.0,0.0,-0.0739088866573,0.997264998119,0.0,0.0,0.0,0.0,1.0,1.0,0.0,0,0,,,0
1450210780126391084,125,0,/odom,fullacmd_vector,0,0,0,0.877572332323,-0.0370533629983,0.0,0.0,0.0,-0.0739088866573,0.997264998119,0.0,0.0,0.0,0.0,1.0,1.0,0.0,0,0,,,0
1450210780168412150,126,0,/odom,fullacmd_vector,0,0,0,0.891835625337,-0.0390253426465,0.0,0.0,0.0,-0.0686383068554,0.997641610415,0.0,0.0,0.0,0.0,1.0,1.0,0.0,0,0,,,0
1450210780206489580,127,0,/odom,fullacmd_vector,0,0,0,0.900380619504,-0.0402989037862,0.0,0.0,0.0,0.0809350371851,0.99671937864,0.1,0.0,0.0,0.0,1.0,1.0,0.0,0,0,,,0
1450210780246004559,128,0,/odom,fullacmd_vector,0,0,0,0.911773945059,-0.0419969853058,0.0,0.0,0.0,0.0207590100743,0.999784508532,0.452,0.0,0.0,0.0,1.0,1.0,0.0,0,0,,,0
1450210780287587993,129,0,/odom,fullacmd_vector,0,0,0,0.923167270615,-0.0436950668254,0.0,0.0,0.0,0.0207590100743,0.999784508532,0.452,0.0,0.0,0.0,1.0,1.0,0.0,0,0,,,0
1450210780326303502,130,0,/odom,fullacmd_vector,0,0,0,0.928863933393,-0.0445441075852,0.0,0.0,0.0,0.0207590100743,0.999784508532,0.452,0.0,0.0,0.0,1.0,1.0,0.0,0,0,,,0
1450210780366932019,131,0,/odom,fullacmd_vector,0,0,0,0.940257258948,-0.0462421891048,0.0,0.0,0.0,0.0207590100743,0.999784508532,0.452,0.0,0.0,0.0,1.0,1.0,0.0,0,0,,,0
1450210780407538549,132,0,/odom,fullacmd_vector,0,0,0,0.948815234757,-0.0474253768937,0.0,0.0,0.0,0.0260415813646,0.999660860512,0.452,0.0,0.0,0.0,1.0,1.0,0.0,0,0,,,0
1450210780446283664,133,0,/odom,fullacmd_vector,0,0,0,0.957360228923,-0.0486989380334,0.0,0.0,0.0,0.0207590100743,0.999784508532,0.452,0.0,0.0,0.0,1.0,1.0,0.0,0,0,,,0
1450210780486477033,134,0,/odom,fullacmd_vector,0,0,0,0.963056891701,-0.0495479787932,0.0,0.0,0.0,0.0207590100743,0.999784508532,0.452,0.0,0.0,0.0,1.0,1.0,0.0,0,0,,,0
1450210780526028409,135,0,/odom,fullacmd_vector,0,0,0,0.974450217256,-0.0512460603128,0.0,0.0,0.0,-0.000292130242133,0.99999995733,0.452,0.0,0.0,0.0,1.0,1.0,0.0,0,0,,,0
1450210780566144359,136,0,/odom,fullacmd_vector,0,0,0,0.980146880034,-0.0520951010726,0.0,0.0,0.0,-0.000292130242133,0.99999995733,0.452,0.0,0.0,0.0,1.0,1.0,0.0,0,0,,,0
1450210780606720872,137,0,/odom,fullacmd_vector,0,0,0,0.985843542812,-0.0529441418324,0.0,0.0,0.0,0.0207590100743,0.999784508532,0.452,0.0,0.0,0.0,1.0,1.0,0.0,0,0,,,0
1450210780646452558,138,0,/odom,fullacmd_vector,0,0,0,0.997236868367,-0.0546422233519,0.0,0.0,0.0,0.0207590100743,0.999784508532,0.452,0.0,0.0,0.0,1.0,1.0,0.0,0,0,,,0
1450210780686755148,139,0,/odom,fullacmd_vector,0,0,0,1.00008952697,-0.0550366192816,0.0,0.0,0.0,0.0260415813646,0.999660860512,0.452,0.0,0.0,0.0,1.0,1.0,0.0,0,0,,,0
1450210780726531002,140,0,/odom,fullacmd_vector,0,0,0,1.00863452114,-0.0563101804213,0.0,0.0,0.0,0.0207590100743,0.999784508532,0.452,0.0,0.0,0.0,1.0,1.0,0.0,0,0,,,0
1450210780766254978,141,0,/odom,fullacmd_vector,0,0,0,1.01719249695,-0.0574933682102,0.0,0.0,0.0,0.0260415813646,0.999660860512,0.452,0.0,0.0,0.0,1.0,1.0,0.0,0,0,,,0
1450210780806320419,142,0,/odom,fullacmd_vector,0,0,0,1.02289781415,-0.0582821600695,0.0,0.0,0.0,0.0260415813646,0.999660860512,0.452,0.0,0.0,0.0,1.0,1.0,0.0,0,0,,,0
1450210780847122707,143,0,/odom,fullacmd_vector,0,0,0,1.03144280832,-0.0595557212092,0.0,0.0,0.0,0.0207590100743,0.999784508532,0.452,0.0,0.0,0.0,1.0,1.0,0.0,0,0,,,0
1450210780886607284,144,0,/odom,fullacmd_vector,0,0,0,1.04000078413,-0.0607389089981,0.0,0.0,0.0,0.0260415813646,0.999660860512,0.452,0.0,0.0,0.0,1.0,1.0,0.0,0,0,,,0
1450210780926680443,145,0,/odom,fullacmd_vector,0,0,0,1.04570610133,-0.0615277008574,0.0,0.0,0.0,0.0260415813646,0.999660860512,0.452,0.0,0.0,0.0,1.0,1.0,0.0,0,0,,,0
1450210780966028109,146,0,/odom,fullacmd_vector,0,0,0,1.054276103,-0.0626203831541,0.0,0.0,0.0,0.0313234255519,0.999509301113,0.452,0.0,0.0,0.0,1.0,1.0,0.0,0,0,,,0
1450210781007753603,147,0,/odom,fullacmd_vector,0,0,0,1.06283407881,-0.063803570943,0.0,0.0,0.0,0.0260415813646,0.999660860512,0.452,0.0,0.0,0.0,1.0,1.0,0.0,0,0,,,0
1450210781047221063,148,0,/odom,fullacmd_vector,0,0,0,1.07140408049,-0.0648962532397,0.0,0.0,0.0,0.0313234255519,0.999509301113,0.452,0.0,0.0,0.0,1.0,1.0,0.0,0,0,,,0
1450210781086862116,149,0,/odom,fullacmd_vector,0,0,0,1.08283074938,-0.0663531629686,0.0,0.0,0.0,0.0313234255519,0.999509301113,0.452,0.0,0.0,0.0,1.0,1.0,0.0,0,0,,,0
1450210781126899821,150,0,/odom,fullacmd_vector,0,0,0,1.0914118198,-0.0673552177394,0.0,0.0,0.0,0.0366043951626,0.999329834567,0.452,0.0,0.0,0.0,1.0,1.0,0.0,0,0,,,0
1450210781166383789,151,0,/odom,fullacmd_vector,0,0,0,1.09713253341,-0.0680232542533,0.0,0.0,0.0,0.0366043951626,0.999329834567,0.452,0.0,0.0,0.0,1.0,1.0,0.0,0,0,,,0
1450210781206604573,152,0,/odom,fullacmd_vector,0,0,0,1.10857396064,-0.069359327281,0.0,0.0,0.0,0.0366043951626,0.999329834567,0.452,0.0,0.0,0.0,1.0,1.0,0.0,0,0,,,0
1450210781246677773,153,0,/odom,fullacmd_vector,0,0,0,1.12001538786,-0.0706954003088,0.0,0.0,0.0,0.0366043951626,0.999329834567,0.452,0.0,0.0,0.0,1.0,1.0,0.0,0,0,,,0
1450210781288265251,154,0,/odom,fullacmd_vector,0,0,0,1.13145681509,-0.0720314733365,0.0,0.0,0.0,0.0366043951626,0.999329834567,0.452,0.0,0.0,0.0,1.0,1.0,0.0,0,0,,,0
1450210781326382359,155,0,/odom,fullacmd_vector,0,0,0,1.14577544976,-0.0735503322246,0.0,0.0,0.0,0.0418843427476,0.999122465883,0.452,0.0,0.0,0.0,1.0,1.0,0.0,0,0,,,0
1450210781366238493,156,0,/odom,fullacmd_vector,0,0,0,1.15150290364,-0.0741578757798,0.0,0.0,0.0,0.0418843427476,0.999122465883,0.452,0.0,0.0,0.0,1.0,1.0,0.0,0,0,,,0
1450210781406263583,157,0,/odom,fullacmd_vector,0,0,0,1.16583678982,-0.0755253326411,0.0,0.0,0.0,0.0471631208861,0.998887200853,0.452,0.0,0.0,0.0,1.0,1.0,0.0,0,0,,,0
1450210781446811448,158,0,/odom,fullacmd_vector,0,0,0,1.17157034429,-0.0760723153856,0.0,0.0,0.0,0.0471631208861,0.998887200853,0.452,0.0,0.0,0.0,1.0,1.0,0.0,0,0,,,0
1450210781486810672,159,0,/odom,fullacmd_vector,0,0,0,1.18591788113,-0.0772882174991,0.0,0.0,0.0,0.0524405821904,0.998624046045,0.452,0.0,0.0,0.0,1.0,1.0,0.0,0,0,,,0
1450210781526049079,160,0,/odom,fullacmd_vector,0,0,0,1.1973959106,-0.0782609391898,0.0,0.0,0.0,0.0524405821904,0.998624046045,0.452,0.0,0.0,0.0,1.0,1.0,0.0,0,0,,,0
1450210781567371201,161,0,/odom,fullacmd_vector,0,0,0,1.20601166168,-0.078899466132,0.0,0.0,0.0,0.057716579309,0.998333008807,0.452,0.0,0.0,0.0,1.0,1.0,0.0,0,0,,,0
1450210781608567393,162,0,/odom,fullacmd_vector,0,0,0,1.21749932978,-0.0797508353883,0.0,0.0,0.0,0.057716579309,0.998333008807,0.452,0.0,0.0,0.0,1.0,1.0,0.0,0,0,,,0
1450210781646537096,163,0,/odom,fullacmd_vector,0,0,0,1.23186935948,-0.0806632375618,0.0,0.0,0.0,0.0629909649319,0.998014097264,0.452,0.0,0.0,0.0,1.0,1.0,0.0,0,0,,,0
1450210781686486379,164,0,/odom,fullacmd_vector,0,0,0,1.23761737137,-0.0810281984311,0.0,0.0,0.0,0.0629909649319,0.998014097264,0.452,0.0,0.0,0.0,1.0,1.0,0.0,0,0,,,0
1450210781725917565,165,0,/odom,fullacmd_vector,0,0,0,1.25199624076,-0.0817886893082,0.0,0.0,0.0,0.0682635917935,0.99766732032,0.452,0.0,0.0,0.0,1.0,1.0,0.0,0,0,,,0
1450210781766841803,166,0,/odom,fullacmd_vector,0,0,0,1.25774778851,-0.082092885659,0.0,0.0,0.0,0.0682635917935,0.99766732032,0.452,0.0,0.0,0.0,1.0,1.0,0.0,0,0,,,0
1450210781806854731,167,0,/odom,fullacmd_vector,0,0,0,1.27213389172,-0.082701380306,0.0,0.0,0.0,0.0735343126778,0.997292687659,0.452,0.0,0.0,0.0,1.0,1.0,0.0,0,0,,,0
1450210781846024902,168,0,/odom,fullacmd_vector,0,0,0,1.28364277429,-0.0831881760236,0.0,0.0,0.0,0.0735343126778,0.997292687659,0.452,0.0,0.0,0.0,1.0,1.0,0.0,0,0,,,0
1450210781887171186,169,0,/odom,fullacmd_vector,0,0,0,1.29515165686,-0.0836749717411,0.0,0.0,0.0,0.0735343126778,0.997292687659,0.452,0.0,0.0,0.0,1.0,1.0,0.0,0,0,,,0
1450210781926410230,170,0,/odom,fullacmd_vector,0,0,0,1.30378669507,-0.0839488300164,0.0,0.0,0.0,0.0788029804216,0.996890209741,0.452,0.0,0.0,0.0,1.0,1.0,0.0,0,0,,,0
1450210781965937555,171,0,/odom,fullacmd_vector,0,0,0,1.31818244526,-0.0842531453114,0.0,0.0,0.0,0.0840694479195,0.996459897801,0.452,0.0,0.0,0.0,1.0,1.0,0.0,0,0,,,0
1450210782007840510,172,0,/odom,fullacmd_vector,0,0,0,1.32969904542,-0.0844965975475,0.0,0.0,0.0,0.0840694479195,0.996459897801,0.452,0.0,0.0,0.0,1.0,1.0,0.0,0,0,,,0
1450210782048007690,173,0,/odom,fullacmd_vector,0,0,0,1.33833794278,-0.0845878972343,0.0,0.0,0.0,0.089333568127,0.996001763857,0.452,0.0,0.0,0.0,1.0,1.0,0.0,0,0,,,0
1450210782086593705,174,0,/odom,fullacmd_vector,0,0,0,1.3498564726,-0.08470963015,0.0,0.0,0.0,0.089333568127,0.996001763857,0.452,0.0,0.0,0.0,1.0,1.0,0.0,0,0,,,0
1450210782126648905,175,0,/odom,fullacmd_vector,0,0,0,1.36425543893,-0.08470963015,0.0,0.0,0.0,0.0736175522382,0.997286546587,0.452,0.0,0.0,0.0,1.0,1.0,0.0,0,0,,,0
1450210782166368665,176,0,/odom,fullacmd_vector,0,0,0,1.37289433629,-0.0848009298368,0.0,0.0,0.0,0.0683468626413,0.997661619171,0.452,0.0,0.0,0.0,1.0,1.0,0.0,0,0,,,0
1450210782206552178,177,0,/odom,fullacmd_vector,0,0,0,1.38729330262,-0.0848009298368,0.0,0.0,0.0,0.0736175522382,0.997286546587,0.452,0.0,0.0,0.0,1.0,1.0,0.0,0,0,,,0
1450210782246727698,178,0,/odom,fullacmd_vector,0,0,0,1.39881247568,-0.0848009298368,0.0,0.0,0.0,0.0736175522382,0.997286546587,0.452,0.0,0.0,0.0,1.0,1.0,0.0,0,0,,,0
1450210782285984882,179,0,/odom,fullacmd_vector,0,0,0,1.40745137305,-0.08470963015,0.0,0.0,0.0,0.0788861863706,0.996883628916,0.452,0.0,0.0,0.0,1.0,1.0,0.0,0,0,,,0
1450210782326433183,180,0,/odom,fullacmd_vector,0,0,0,1.41608882316,-0.084527040973,0.0,0.0,0.0,0.0841526179338,0.996452877408,0.452,0.0,0.0,0.0,1.0,1.0,0.0,0,0,,,0
1450210782368627437,181,0,/odom,fullacmd_vector,0,0,0,1.42760542331,-0.0842835887369,0.0,0.0,0.0,0.0841526179338,0.996452877408,0.452,0.0,0.0,0.0,1.0,1.0,0.0,0,0,,,0
1450210782406333697,182,0,/odom,fullacmd_vector,0,0,0,1.43912202346,-0.0840401365009,0.0,0.0,0.0,0.0631575641129,0.998003568178,0.452,0.0,0.0,0.0,1.0,1.0,0.0,0,0,,,0
1450210782446615771,183,0,/odom,fullacmd_vector,0,0,0,1.45351375382,-0.0835837060422,0.0,0.0,0.0,0.068430133013,0.997655911071,0.452,0.0,0.0,0.0,1.0,1.0,0.0,0,0,,,0
1450210782486842714,184,0,/odom,fullacmd_vector,0,0,0,1.46214541574,-0.083218609254,0.0,0.0,0.0,0.0737007912858,0.997280398566,0.452,0.0,0.0,0.0,1.0,1.0,0.0,0,0,,,0
1450210782526726938,185,0,/odom,fullacmd_vector,0,0,0,1.47365429831,-0.0827318135364,0.0,0.0,0.0,0.094678285245,0.995507921768,0.452,0.0,0.0,0.0,1.0,1.0,0.0,0,0,,,0
1450210782566225689,186,0,/odom,fullacmd_vector,0,0,0,1.4880331677,-0.0819713226594,0.0,0.0,0.0,0.0999372271075,0.99499374402,0.452,0.0,0.0,0.0,1.0,1.0,0.0,0,0,,,0
1450210782608108013,187,0,/odom,fullacmd_vector,0,0,0,1.49953626322,-0.0813629299578,0.0,0.0,0.0,0.07896939177,0.996877041146,0.452,0.0,0.0,0.0,1.0,1.0,0.0,0,0,,,0
1450210782651183479,188,0,/odom,fullacmd_vector,0,0,0,1.50815828104,-0.0808154886537,0.0,0.0,0.0,0.0842357873618,0.996445850073,0.452,0.0,0.0,0.0,1.0,1.0,0.0,0,0,,,0
1450210782688355178,189,0,/odom,fullacmd_vector,0,0,0,1.5196543048,-0.080085566915,0.0,0.0,0.0,0.0842357873618,0.996445850073,0.452,0.0,0.0,0.0,1.0,1.0,0.0,0,0,,,0
1450210782726386734,190,0,/odom,fullacmd_vector,0,0,0,1.53115032856,-0.0793556451762,0.0,0.0,0.0,0.0842357873618,0.996445850073,0.452,0.0,0.0,0.0,1.0,1.0,0.0,0,0,,,0
1450210782766272128,191,0,/odom,fullacmd_vector,0,0,0,1.54264635232,-0.0786257234375,0.0,0.0,0.0,0.0842357873618,0.996445850073,0.452,0.0,0.0,0.0,1.0,1.0,0.0,0,0,,,0
1450210782807136366,192,0,/odom,fullacmd_vector,0,0,0,1.5512621034,-0.0779871964952,0.0,0.0,0.0,0.089499831019,0.995986837387,0.452,0.0,0.0,0.0,1.0,1.0,0.0,0,0,,,0
1450210782847484355,193,0,/odom,fullacmd_vector,0,0,0,1.5627497715,-0.0771358272389,0.0,0.0,0.0,0.089499831019,0.995986837387,0.452,0.0,0.0,0.0,1.0,1.0,0.0,0,0,,,0
1450210782886688846,194,0,/odom,fullacmd_vector,0,0,0,1.57423743961,-0.0762844579826,0.0,0.0,0.0,0.089499831019,0.995986837387,0.452,0.0,0.0,0.0,1.0,1.0,0.0,0,0,,,0
1450210782926104047,195,0,/odom,fullacmd_vector,0,0,0,1.58570454855,-0.0751904924936,0.0,0.0,0.0,0.100020274693,0.994985399215,0.452,0.0,0.0,0.0,1.0,1.0,0.0,0,0,,,0
1450210782967062678,196,0,/odom,fullacmd_vector,0,0,0,1.5971716575,-0.0740965270045,0.0,0.0,0.0,0.100020274693,0.994985399215,0.452,0.0,0.0,0.0,1.0,1.0,0.0,0,0,,,0
1450210783008514175,197,0,/odom,fullacmd_vector,0,0,0,1.60863876644,-0.0730025615155,0.0,0.0,0.0,0.100020274693,0.994985399215,0.452,0.0,0.0,0.0,1.0,1.0,0.0,0,0,,,0
1450210783046416896,198,0,/odom,fullacmd_vector,0,0,0,1.61722994725,-0.0720912461826,0.0,0.0,0.0,0.10527638097,0.99444300169,0.452,0.0,0.0,0.0,1.0,1.0,0.0,0,0,,,0
1450210783086636209,199,0,/odom,fullacmd_vector,0,0,0,1.63153173128,-0.070421154898,0.0,0.0,0.0,0.110529547841,0.993872838473,0.452,0.0,0.0,0.0,1.0,1.0,0.0,0,0,,,0
1450210783127118221,200,0,/odom,fullacmd_vector,0,0,0,1.64012291208,-0.0695098395651,0.0,0.0,0.0,0.10527638097,0.99444300169,0.452,0.0,0.0,0.0,1.0,1.0,0.0,0,0,,,0
1450210783166140699,201,0,/odom,fullacmd_vector,0,0,0,1.65442469611,-0.0678397482804,0.0,0.0,0.0,0.08958296153,0.995979363744,0.452,0.0,0.0,0.0,1.0,1.0,0.0,0,0,,,0
1450210783206834667,202,0,/odom,fullacmd_vector,0,0,0,1.66299469779,-0.0667470659838,0.0,0.0,0.0,0.0948444656247,0.995492103103,0.452,0.0,0.0,0.0,1.0,1.0,0.0,0,0,,,0
1450210783246184325,203,0,/odom,fullacmd_vector,0,0,0,1.67442136669,-0.0652901562549,0.0,0.0,0.0,0.115779628634,0.993274925483,0.452,0.0,0.0,0.0,1.0,1.0,0.0,0,0,,,0
1450210783286294337,204,0,/odom,fullacmd_vector,0,0,0,1.68584803558,-0.063833246526,0.0,0.0,0.0,0.115779628634,0.993274925483,0.452,0.0,0.0,0.0,1.0,1.0,0.0,0,0,,,0
1450210783326682874,205,0,/odom,fullacmd_vector,0,0,0,1.69727470448,-0.0623763367971,0.0,0.0,0.0,0.0948444656247,0.995492103103,0.452,0.0,0.0,0.0,1.0,1.0,0.0,0,0,,,0
1450210783366881002,206,0,/odom,fullacmd_vector,0,0,0,1.70583268029,-0.0611931490081,0.0,0.0,0.0,0.100103321581,0.994977047478,0.452,0.0,0.0,0.0,1.0,1.0,0.0,0,0,,,0
1450210783407432862,207,0,/odom,fullacmd_vector,0,0,0,1.72007433723,-0.0590705471086,0.0,0.0,0.0,0.105359382569,0.99443421125,0.452,0.0,0.0,0.0,1.0,1.0,0.0,0,0,,,0
1450210783446865992,208,0,/odom,fullacmd_vector,0,0,0,1.73146766279,-0.057372465589,0.0,0.0,0.0,0.105359382569,0.99443421125,0.452,0.0,0.0,0.0,1.0,1.0,0.0,0,0,,,0
1450210783486980209,209,0,/odom,fullacmd_vector,0,0,0,1.73716432557,-0.0565234248293,0.0,0.0,0.0,0.105359382569,0.99443421125,0.452,0.0,0.0,0.0,1.0,1.0,0.0,0,0,,,0
1450210783526181053,210,0,/odom,fullacmd_vector,0,0,0,1.7513827559,-0.0542504377362,0.0,0.0,0.0,0.110612501832,0.993863609575,0.452,0.0,0.0,0.0,1.0,1.0,0.0,0,0,,,0
1450210783566765904,211,0,/odom,fullacmd_vector,0,0,0,1.76275750016,-0.0524320480618,0.0,0.0,0.0,0.110612501832,0.993863609575,0.452,0.0,0.0,0.0,1.0,1.0,0.0,0,0,,,0
1450210783606094313,212,0,/odom,fullacmd_vector,0,0,0,1.77127366962,-0.0509781770018,0.0,0.0,0.0,0.115862532701,0.993265258386,0.452,0.0,0.0,0.0,1.0,1.0,0.0,0,0,,,0
1450210783646595754,213,0,/odom,fullacmd_vector,0,0,0,1.78262856223,-0.0490396822551,0.0,0.0,0.0,0.115862532701,0.993265258386,0.452,0.0,0.0,0.0,1.0,1.0,0.0,0,0,,,0
1450210783686428052,214,0,/odom,fullacmd_vector,0,0,0,1.79679577824,-0.0464667031015,0.0,0.0,0.0,0.12110932859,0.992639174387,0.452,0.0,0.0,0.0,1.0,1.0,0.0,0,0,,,0
1450210783726887284,215,0,/odom,fullacmd_vector,0,0,0,1.80246266465,-0.04543751144,0.0,0.0,0.0,0.12110932859,0.992639174387,0.452,0.0,0.0,0.0,1.0,1.0,0.0,0,0,,,0
1450210783766163738,216,0,/odom,fullacmd_vector,0,0,0,1.81660189868,-0.0427149589233,0.0,0.0,0.0,0.126352743003,0.991985375061,0.452,0.0,0.0,0.0,1.0,1.0,0.0,0,0,,,0
1450210783806131544,217,0,/odom,fullacmd_vector,0,0,0,1.82791328591,-0.0405369169099,0.0,0.0,0.0,0.126352743003,0.991985375061,0.452,0.0,0.0,0.0,1.0,1.0,0.0,0,0,,,0
1450210783847489854,218,0,/odom,fullacmd_vector,0,0,0,1.83922467314,-0.0383588748965,0.0,0.0,0.0,0.126352743003,0.991985375061,0.452,0.0,0.0,0.0,1.0,1.0,0.0,0,0,,,0
1450210783889039586,219,0,/odom,fullacmd_vector,0,0,0,1.84769047691,-0.0366357818056,0.0,0.0,0.0,0.131592629541,0.991303878662,0.452,0.0,0.0,0.0,1.0,1.0,0.0,0,0,,,0
1450210783926316698,220,0,/odom,fullacmd_vector,0,0,0,1.85897821527,-0.0343383243511,0.0,0.0,0.0,0.110695455053,0.993854373754,0.452,0.0,0.0,0.0,1.0,1.0,0.0,0,0,,,0
1450210783966830080,221,0,/odom,fullacmd_vector,0,0,0,1.86742533691,-0.032525862119,0.0,0.0,0.0,0.115945435962,0.993255584369,0.452,0.0,0.0,0.0,1.0,1.0,0.0,0,0,,,0
1450210784006695184,222,0,/odom,fullacmd_vector,0,0,0,1.87868816576,-0.0301092458094,0.0,0.0,0.0,0.115945435962,0.993255584369,0.452,0.0,0.0,0.0,1.0,1.0,0.0,0,0,,,0
1450210784047633907,223,0,/odom,fullacmd_vector,0,0,0,1.88995099461,-0.0276926294999,0.0,0.0,0.0,0.115945435962,0.993255584369,0.452,0.0,0.0,0.0,1.0,1.0,0.0,0,0,,,0
1450210784086366143,224,0,/odom,fullacmd_vector,0,0,0,1.89837849071,-0.025791000547,0.0,0.0,0.0,0.121192179576,0.992629062445,0.452,0.0,0.0,0.0,1.0,1.0,0.0,0,0,,,0
1450210784126847913,225,0,/odom,fullacmd_vector,0,0,0,1.90961515219,-0.0232554952764,0.0,0.0,0.0,0.121192179576,0.992629062445,0.452,0.0,0.0,0.0,1.0,1.0,0.0,0,0,,,0
1450210784167455528,226,0,/odom,fullacmd_vector,0,0,0,1.92085181366,-0.0207199900058,0.0,0.0,0.0,0.121192179576,0.992629062445,0.452,0.0,0.0,0.0,1.0,1.0,0.0,0,0,,,0
1450210784206051574,227,0,/odom,fullacmd_vector,0,0,0,1.93486336261,-0.0174023511812,0.0,0.0,0.0,0.115986887289,0.993250744765,0.452,0.0,0.0,0.0,1.0,1.0,0.0,0,0,,,0
1450210784246122522,228,0,/odom,fullacmd_vector,0,0,0,1.94046798219,-0.0160752956513,0.0,0.0,0.0,0.115986887289,0.993250744765,0.452,0.0,0.0,0.0,1.0,1.0,0.0,0,0,,,0
1450210784286375725,229,0,/odom,fullacmd_vector,0,0,0,1.9544436884,-0.0126097701128,0.0,0.0,0.0,0.121233604752,0.99262400388,0.452,0.0,0.0,0.0,1.0,1.0,0.0,0,0,,,0
1450210784326234225,230,0,/odom,fullacmd_vector,0,0,0,1.96562425337,-0.00983734968194,0.0,0.0,0.0,0.121233604752,0.99262400388,0.452,0.0,0.0,0.0,1.0,1.0,0.0,0,0,,,0
1450210784366719929,231,0,/odom,fullacmd_vector,0,0,0,1.97398723495,-0.00766953455386,0.0,0.0,0.0,0.126476937269,0.991969548091,0.452,0.0,0.0,0.0,1.0,1.0,0.0,0,0,,,0
1450210784408726550,232,0,/odom,fullacmd_vector,0,0,0,1.98513787705,-0.00477911438308,0.0,0.0,0.0,0.126476937269,0.991969548091,0.452,0.0,0.0,0.0,1.0,1.0,0.0,0,0,,,0
1450210784446292868,233,0,/odom,fullacmd_vector,0,0,0,1.99903721943,-0.00101899300677,0.0,0.0,0.0,0.121275029717,0.992618943587,0.452,0.0,0.0,0.0,1.0,1.0,0.0,0,0,,,0
1450210784486572484,234,0,/odom,fullacmd_vector,0,0,0,2.01015669333,0.00198910409428,0.0,0.0,0.0,0.121275029717,0.992618943587,0.452,0.0,0.0,0.0,1.0,1.0,0.0,0,0,,,0
1450210784527211084,235,0,/odom,fullacmd_vector,0,0,0,2.02127616723,0.00499720119533,0.0,0.0,0.0,0.121275029717,0.992618943587,0.452,0.0,0.0,0.0,1.0,1.0,0.0,0,0,,,0
1450210784566422732,236,0,/odom,fullacmd_vector,0,0,0,2.02959146512,0.0073412797547,0.0,0.0,0.0,0.126518334918,0.991964268978,0.452,0.0,0.0,0.0,1.0,1.0,0.0,0,0,,,0
1450210784606340826,237,0,/odom,fullacmd_vector,0,0,0,2.0434908075,0.011101401131,0.0,0.0,0.0,0.121275029717,0.992618943587,0.452,0.0,0.0,0.0,1.0,1.0,0.0,0,0,,,0
1450210784648382247,238,0,/odom,fullacmd_vector,0,0,0,2.05734963732,0.01500819873,0.0,0.0,0.0,0.126518334918,0.991964268978,0.452,0.0,0.0,0.0,1.0,1.0,0.0,0,0,,,0
1450210784686462024,239,0,/odom,fullacmd_vector,0,0,0,2.06289316925,0.0165709177696,0.0,0.0,0.0,0.126518334918,0.991964268978,0.452,0.0,0.0,0.0,1.0,1.0,0.0,0,0,,,0
1450210784735909049,240,0,/odom,fullacmd_vector,0,0,0,2.0739802331,0.0196963558487,0.0,0.0,0.0,0.126518334918,0.991964268978,0.452,0.0,0.0,0.0,1.0,1.0,0.0,0,0,,,0
1450210784766212706,241,0,/odom,fullacmd_vector,0,0,0,2.08506729695,0.0228217939279,0.0,0.0,0.0,0.105608382958,0.994407798365,0.452,0.0,0.0,0.0,1.0,1.0,0.0,0,0,,,0
1450210784806306844,242,0,/odom,fullacmd_vector,0,0,0,2.0961543608,0.0259472320071,0.0,0.0,0.0,0.105608382958,0.994407798365,0.452,0.0,0.0,0.0,1.0,1.0,0.0,0,0,,,0
1450210784848032926,243,0,/odom,fullacmd_vector,0,0,0,2.10724142466,0.0290726700862,0.0,0.0,0.0,0.105608382958,0.994407798365,0.452,0.0,0.0,0.0,1.0,1.0,0.0,0,0,,,0
1450210784886279784,244,0,/odom,fullacmd_vector,0,0,0,2.11832848851,0.0321981081654,0.0,0.0,0.0,0.126518334918,0.991964268978,0.44971841175,0.0,0.0,0.0,1.0,1.0,0.0,0,0,,,0
1450210784926526126,245,0,/odom,fullacmd_vector,0,0,0,2.12941555236,0.0353235462446,0.0,0.0,0.0,0.126518334918,0.991964268978,0.44971841175,0.0,0.0,0.0,1.0,1.0,0.0,0,0,,,0
1450210784967508635,246,0,/odom,fullacmd_vector,0,0,0,2.14050261621,0.0384489843237,0.0,0.0,0.0,0.126518334918,0.991964268978,0.442046566965,0.0,0.0,0.0,1.0,1.0,0.0,0,0,,,0
1450210785007237975,247,0,/odom,fullacmd_vector,0,0,0,2.15158968007,0.0415744224029,0.0,0.0,0.0,0.126518334918,0.991964268978,0.438210735262,0.0,0.0,0.0,1.0,1.0,0.0,0,0,,,0
1450210785046699722,248,0,/odom,fullacmd_vector,0,0,0,2.15987974174,0.0440062449031,0.0,0.0,0.0,0.131758107619,0.991281897886,0.434375071309,0.0,0.0,0.0,1.0,1.0,0.0,0,0,,,0
1450210785086243107,249,0,/odom,fullacmd_vector,0,0,0,2.17093315731,0.0472486749033,0.0,0.0,0.0,0.131758107619,0.991281897886,0.430539423027,0.0,0.0,0.0,1.0,1.0,0.0,0,0,,,0
1450210785126244603,250,0,/odom,fullacmd_vector,0,0,0,2.18479198713,0.0511554725022,0.0,0.0,0.0,0.126518334918,0.991964268978,0.430539423027,0.0,0.0,0.0,1.0,1.0,0.0,0,0,,,0
1450210785166361409,251,0,/odom,fullacmd_vector,0,0,0,2.19033551906,0.0527181915418,0.0,0.0,0.0,0.105608382958,0.994407798365,0.423828990092,0.0,0.0,0.0,1.0,1.0,0.0,0,0,,,0
1450210785209088840,252,0,/odom,fullacmd_vector,0,0,0,2.20142258291,0.055843629621,0.0,0.0,0.0,0.126518334918,0.991964268978,0.415201837485,0.0,0.0,0.0,1.0,1.0,0.0,0,0,,,0
1450210785248477208,253,0,/odom,fullacmd_vector,0,0,0,2.21523935237,0.0598966671212,0.0,0.0,0.0,0.131758107619,0.991281897886,0.415201837485,0.0,0.0,0.0,1.0,1.0,0.0,0,0,,,0
1450210785286130996,254,0,/odom,fullacmd_vector,0,0,0,2.22355465026,0.0622407456806,0.0,0.0,0.0,0.126518334918,0.991964268978,0.413284318956,0.0,0.0,0.0,1.0,1.0,0.0,0,0,,,0
1450210785328799216,255,0,/odom,fullacmd_vector,0,0,0,2.23464171411,0.0653661837598,0.0,0.0,0.0,0.126518334918,0.991964268978,0.413284318956,0.0,0.0,0.0,1.0,1.0,0.0,0,0,,,0
1450210785367057999,256,0,/odom,fullacmd_vector,0,0,0,2.24572877796,0.0684916218389,0.0,0.0,0.0,0.126518334918,0.991964268978,0.409449290876,0.0,0.0,0.0,1.0,1.0,0.0,0,0,,,0
1450210785406726789,257,0,/odom,fullacmd_vector,0,0,0,2.25681584182,0.0716170599181,0.0,0.0,0.0,0.105608382958,0.994407798365,0.401782588146,0.0,0.0,0.0,1.0,1.0,0.0,0,0,,,0
1450210785446264954,258,0,/odom,fullacmd_vector,0,0,0,2.26790290567,0.0747424979973,0.0,0.0,0.0,0.105608382958,0.994407798365,0.397947963702,0.0,0.0,0.0,1.0,1.0,0.0,0,0,,,0
1450210785486516823,259,0,/odom,fullacmd_vector,0,0,0,2.27898996952,0.0778679360764,0.0,0.0,0.0,0.105608382958,0.994407798365,0.394113551097,0.0,0.0,0.0,1.0,1.0,0.0,0,0,,,0
1450210785526440248,260,0,/odom,fullacmd_vector,0,0,0,2.29007703338,0.0809933741556,0.0,0.0,0.0,0.105608382958,0.994407798365,0.394113551097,0.0,0.0,0.0,1.0,1.0,0.0,0,0,,,0
1450210785568357162,261,0,/odom,fullacmd_vector,0,0,0,2.2956205653,0.0825560931952,0.0,0.0,0.0,0.105608382958,0.994407798365,0.382611017129,0.0,0.0,0.0,1.0,1.0,0.0,0,0,,,0
1450210785608908995,262,0,/odom,fullacmd_vector,0,0,0,2.30670762915,0.0856815312744,0.0,0.0,0.0,0.105608382958,0.994407798365,0.378777196291,0.0,0.0,0.0,1.0,1.0,0.0,0,0,,,0
1450210785647022651,263,0,/odom,fullacmd_vector,0,0,0,2.31779469301,0.0888069693535,0.0,0.0,0.0,0.105608382958,0.994407798365,0.378777196291,0.0,0.0,0.0,1.0,1.0,0.0,0,0,,,0
1450210785686512992,264,0,/odom,fullacmd_vector,0,0,0,2.32613429843,0.0910630421793,0.0,0.0,0.0,0.100352458061,0.99495195068,0.376860269786,0.0,0.0,0.0,1.0,1.0,0.0,0,0,,,0
1450210785727425077,265,0,/odom,fullacmd_vector,0,0,0,2.33725377234,0.0940711392804,0.0,0.0,0.0,0.100352458061,0.99495195068,0.376860269786,0.0,0.0,0.0,1.0,1.0,0.0,0,0,,,0
