%time,field.goals0.navgoal_poses0.header.seq,field.goals0.navgoal_poses0.header.stamp,field.goals0.navgoal_poses0.header.frame_id,field.goals0.navgoal_poses0.pose.position.x,field.goals0.navgoal_poses0.pose.position.y,field.goals0.navgoal_poses0.pose.position.z,field.goals0.navgoal_poses0.pose.orientation.x,field.goals0.navgoal_poses0.pose.orientation.y,field.goals0.navgoal_poses0.pose.orientation.z,field.goals0.navgoal_poses0.pose.orientation.w,field.goals0.goal_pose.header.seq,field.goals0.goal_pose.header.stamp,field.goals0.goal_pose.header.frame_id,field.goals0.goal_pose.pose.position.x,field.goals0.goal_pose.pose.position.y,field.goals0.goal_pose.pose.position.z,field.goals0.goal_pose.pose.orientation.x,field.goals0.goal_pose.pose.orientation.y,field.goals0.goal_pose.pose.orientation.z,field.goals0.goal_pose.pose.orientation.w,field.goals0.goal_type,field.goals0.goal_source,field.goals0.score,field.goals0.t_eval
1450210773544423885,0,1450210773537093305,/odom,nan,nan,0.0,nan,nan,nan,nan,0,1450210773537093305,/odom,nan,nan,0.0,nan,nan,nan,nan,0,user,1.0,0
1450210773675050813,0,1450210773652569807,/odom,0.0,0.0,0.0,0.0,0.0,0.0,1.0,0,1450210773652569807,/odom,0.0,0.0,0.0,0.0,0.0,0.0,1.0,0,user,1.0,0
1450210773757676377,0,1450210773743945043,/odom,0.0,0.0,0.0,0.0,0.0,0.0,1.0,0,1450210773743945043,/odom,0.0,0.0,0.0,0.0,0.0,0.0,1.0,0,user,1.0,0
1450210773843183528,0,1450210773833662965,/odom,0.0,0.0,0.0,0.0,0.0,0.0,1.0,0,1450210773833662965,/odom,0.0,0.0,0.0,0.0,0.0,0.0,1.0,0,user,1.0,0
1450210773932392666,0,1450210773925804388,/odom,0.0,0.0,0.0,0.0,0.0,0.0,1.0,0,1450210773925804388,/odom,0.0,0.0,0.0,0.0,0.0,0.0,1.0,0,user,1.0,0
1450210774056194570,0,1450210774028259927,/odom,0.0,0.0,0.0,0.0,0.0,0.0,1.0,0,1450210774028259927,/odom,0.0,0.0,0.0,0.0,0.0,0.0,1.0,0,user,1.0,0
1450210774168604044,0,1450210774147547674,/odom,0.0,0.0,0.0,0.0,0.0,0.0,1.0,0,1450210774147547674,/odom,0.0,0.0,0.0,0.0,0.0,0.0,1.0,0,user,1.0,0
1450210774245048836,0,1450210774242027843,/odom,0.0,0.0,0.0,0.0,0.0,0.0,1.0,0,1450210774242027843,/odom,0.0,0.0,0.0,0.0,0.0,0.0,1.0,0,user,1.0,0
1450210774335677583,0,1450210774331841450,/odom,0.0,0.0,0.0,0.0,0.0,0.0,1.0,0,1450210774331841450,/odom,0.0,0.0,0.0,0.0,0.0,0.0,1.0,0,user,1.0,0
1450210774448240453,0,1450210774443893261,/odom,0.0,0.0,0.0,0.0,0.0,0.0,1.0,0,1450210774443893261,/odom,0.0,0.0,0.0,0.0,0.0,0.0,1.0,0,user,1.0,0
1450210774584738577,0,1450210774546057749,/odom,0.0,0.0,0.0,0.0,0.0,0.0,1.0,0,1450210774546057749,/odom,0.0,0.0,0.0,0.0,0.0,0.0,1.0,0,user,1.0,0
1450210774691269911,0,1450210774667962918,/odom,0.0,0.0,0.0,0.0,0.0,0.0,1.0,0,1450210774667962918,/odom,0.0,0.0,0.0,0.0,0.0,0.0,1.0,0,user,1.0,0
1450210774742324251,0,1450210774729009810,/odom,0.0,0.0,0.0,0.0,0.0,0.0,1.0,0,1450210774729009810,/odom,0.0,0.0,0.0,0.0,0.0,0.0,1.0,0,user,1.0,0
1450210774854694812,0,1450210774843809985,/odom,0.0,0.0,0.0,0.0,0.0,0.0,1.0,0,1450210774843809985,/odom,0.0,0.0,0.0,0.0,0.0,0.0,1.0,0,user,1.0,0
1450210774933626418,0,1450210774929124725,/odom,0.0,0.0,0.0,0.0,0.0,0.0,1.0,0,1450210774929124725,/odom,0.0,0.0,0.0,0.0,0.0,0.0,1.0,0,user,1.0,0
1450210775038405010,0,1450210774836602402,/odom,1.12612511681,-0.0173313539111,0.0,0.0,0.0,0.0702022807155,0.997532776295,0,1450210774836602402,/odom,3.10641167594,0.262784950026,0.0,0.0,0.0,0.0702022807155,0.997532776295,0,1450210774836602402,/odom,2.11626839638,0.122726798058,0.71847230196,0.0,0.0,0.0702022807155,0.997532776295,1,doorway_assistance,0.899999976158,1450210774836602402,0,0
1450210775135518688,0,1450210774939652114,/odom,1.12945824888,-0.0192045509241,0.0,0.0,0.0,0.0740162958218,0.99725703204,0,1450210774939652114,/odom,3.1075446007,0.276048535051,0.0,0.0,0.0,0.0740162958218,0.99725703204,0,1450210774939652114,/odom,2.11850142479,0.128421992064,0.718150436878,0.0,0.0,0.0740162958218,0.99725703204,1,doorway_assistance,1.0,1450210774939652114,0,0
1450210775243220648,0,1450210775010425492,/odom,1.11240748778,0.00502056698361,0.0,0.0,0.0,0.0604573979075,0.998170778493,0,1450210775010425492,/odom,3.09778709993,0.246407798724,0.0,0.0,0.0,0.0604573979075,0.998170778493,0,1450210775010425492,/odom,2.10509729385,0.125714182854,0.737185001373,0.0,0.0,0.0604573979075,0.998170778493,1,doorway_assistance,1.0,1450210775010425492,0,0
1450210775333898690,0,1450210775110676563,/odom,1.12881115202,-0.0227989796918,0.0,0.0,0.0,0.072873527068,0.997341189891,0,1450210775110676563,/odom,3.10756894823,0.267920101098,0.0,0.0,0.0,0.072873527068,0.997341189891,0,1450210775110676563,/odom,2.11819005013,0.122560560703,0.718722105026,0.0,0.0,0.072873527068,0.997341189891,1,doorway_assistance,1.0,1450210775110676563,0,0
1450210775435511845,0,1450210775110676563,/odom,1.12881115202,-0.0227989796918,0.0,0.0,0.0,0.072873527068,0.997341189891,0,1450210775110676563,/odom,3.10756894823,0.267920101098,0.0,0.0,0.0,0.072873527068,0.997341189891,0,1450210775110676563,/odom,2.11819005013,0.122560560703,0.718722105026,0.0,0.0,0.072873527068,0.997341189891,1,doorway_assistance,1.0,1450210775110676563,0,0
1450210775575112045,0,1450210775247748965,/odom,1.12428614896,-0.0228321686062,0.0,0.0,0.0,0.0770045165809,0.997030743972,0,1450210775247748965,/odom,3.10056736666,0.284271313218,0.0,0.0,0.0,0.0770045165809,0.997030743972,0,1450210775247748965,/odom,2.11242675781,0.130719572306,0.718387186527,0.0,0.0,0.0770045165809,0.997030743972,1,doorway_assistance,1.0,1450210775247748965,0,0
1450210775628424864,0,1450210775404331255,/odom,1.60985446061,0.0550441044956,0.0,0.0,0.0,0.0757780464695,0.997124710191,0,1450210775404331255,/odom,3.09262752363,0.28172459237,0.0,0.0,0.0,0.0757780464695,0.997124710191,0,1450210775404331255,/odom,2.10411214828,0.13060426712,0.708493888378,0.0,0.0,0.0757780464695,0.997124710191,1,doorway_assistance,1.0,1450210775404331255,0,0
1450210775735816362,0,1450210775554674336,/odom,1.13408524434,-0.0384503545781,0.0,0.0,0.0,0.0856277965568,0.996327195482,0,1450210775554674336,/odom,3.10475676616,0.302802855017,0.0,0.0,0.0,0.0856277965568,0.996327195482,0,1450210775554674336,/odom,2.11942100525,0.132176250219,0.707857251167,0.0,0.0,0.0856277965568,0.996327195482,1,doorway_assistance,1.0,1450210775554674336,0,0
1450210775833152329,0,1450210775632836197,/odom,1.13246760293,-0.0394038345325,0.0,0.0,0.0,0.0837394491558,0.996487684146,0,1450210775632836197,/odom,3.10441842155,0.294377484511,0.0,0.0,0.0,0.0837394491558,0.996487684146,0,1450210775632836197,/odom,2.11844301224,0.127486824989,0.728028833866,0.0,0.0,0.0837394491558,0.996487684146,1,doorway_assistance,1.0,1450210775632836197,0,0
1450210775932601363,0,1450210775731824501,/odom,1.12935429609,-0.0320134276193,0.0,0.0,0.0,0.0819012594876,0.996640448554,0,1450210775731824501,/odom,3.10252303087,0.294491004352,0.0,0.0,0.0,0.0819012594876,0.996640448554,0,1450210775731824501,/odom,2.11593866348,0.131238788366,0.717971205711,0.0,0.0,0.0819012594876,0.996640448554,1,doorway_assistance,1.0,1450210775731824501,0,0
1450210776048667148,0,1450210775815168852,/odom,1.1277907641,-0.0375527259894,0.0,0.0,0.0,0.0822636630931,0.996610600854,0,1450210775815168852,/odom,3.10072152304,0.290386628825,0.0,0.0,0.0,0.0822636630931,0.996610600854,0,1450210775815168852,/odom,2.11425614357,0.126416951418,0.718075096607,0.0,0.0,0.0822636630931,0.996610600854,1,doorway_assistance,1.0,1450210775815168852,0,0
1450210776145629563,0,1450210775815168852,/odom,1.1277907641,-0.0375527259894,0.0,0.0,0.0,0.0822636630931,0.996610600854,0,1450210775815168852,/odom,3.10072152304,0.290386628825,0.0,0.0,0.0,0.0822636630931,0.996610600854,0,1450210775815168852,/odom,2.11425614357,0.126416951418,0.718075096607,0.0,0.0,0.0822636630931,0.996610600854,1,doorway_assistance,1.0,1450210775815168852,0,0
1450210776235971565,0,1450210776033972705,/odom,1.12856157016,-0.0302590451589,0.0,0.0,0.0,0.0808863409316,0.996723331648,0,1450210776033972705,/odom,3.10239116956,0.292226167714,0.0,0.0,0.0,0.0808863409316,0.996723331648,0,1450210776033972705,/odom,2.11547636986,0.130983561277,0.718083143234,0.0,0.0,0.0808863409316,0.996723331648,1,doorway_assistance,1.0,1450210776033972705,0,0
1450210776335604328,0,1450210776033972705,/odom,1.12856157016,-0.0302590451589,0.0,0.0,0.0,0.0808863409316,0.996723331648,0,1450210776033972705,/odom,3.10239116956,0.292226167714,0.0,0.0,0.0,0.0808863409316,0.996723331648,0,1450210776033972705,/odom,2.11547636986,0.130983561277,0.718083143234,0.0,0.0,0.0808863409316,0.996723331648,1,doorway_assistance,1.0,1450210776033972705,0,0
1450210776481900799,0,1450210776158283511,/odom,1.12603396749,-0.043187220919,0.0,0.0,0.0,0.0789158080527,0.996881284426,0,1450210776158283511,/odom,3.10112314845,0.271491547453,0.0,0.0,0.0,0.0789158080527,0.996881284426,0,1450210776158283511,/odom,2.11357855797,0.114152163267,0.718222498894,0.0,0.0,0.0789158080527,0.996881284426,1,doorway_assistance,1.0,1450210776158283511,0,0
1450210776548404306,0,1450210776305617254,/odom,1.12772104835,-0.0310356582603,0.0,0.0,0.0,0.0788501683574,0.996886478467,0,1450210776305617254,/odom,3.10285165215,0.283383008381,0.0,0.0,0.0,0.0788501683574,0.996886478467,0,1450210776305617254,/odom,2.11528635025,0.12617367506,0.727914512157,0.0,0.0,0.0788501683574,0.996886478467,1,doorway_assistance,1.0,1450210776305617254,0,0
1450210776629406840,0,1450210776305617254,/odom,1.12772104835,-0.0310356582603,0.0,0.0,0.0,0.0788501683574,0.996886478467,0,1450210776305617254,/odom,3.10285165215,0.283383008381,0.0,0.0,0.0,0.0788501683574,0.996886478467,0,1450210776305617254,/odom,2.11528635025,0.12617367506,0.727914512157,0.0,0.0,0.0788501683574,0.996886478467,1,doorway_assistance,1.0,1450210776305617254,0,0
1450210776774306048,0,1450210776459261964,/odom,1.11934272439,-0.0259821181438,0.0,0.0,0.0,0.0777346711917,0.996974082359,0,1450210776459261964,/odom,3.09517200797,0.284015691771,0.0,0.0,0.0,0.0777346711917,0.996974082359,0,1450210776459261964,/odom,2.10725736618,0.129016786814,0.718324899673,0.0,0.0,0.0777346711917,0.996974082359,1,doorway_assistance,1.0,1450210776459261964,0,0
1450210776827201143,0,1450210776603538690,/odom,1.12374095299,-0.0548026926893,0.0,0.0,0.0,0.0809230786246,0.99672034962,0,1450210776603538690,/odom,3.09754677437,0.267828024187,0.0,0.0,0.0,0.0809230786246,0.99672034962,0,1450210776603538690,/odom,2.11064386368,0.106512665749,0.727943956852,0.0,0.0,0.0809230786246,0.99672034962,1,doorway_assistance,1.0,1450210776603538690,0,0
1450210776940284237,0,1450210776748952292,/odom,1.11684613889,-0.0319655629372,0.0,0.0,0.0,0.0783392659009,0.996926757299,0,1450210776748952292,/odom,3.09229797656,0.280428478358,0.0,0.0,0.0,0.0783392659009,0.996926757299,0,1450210776748952292,/odom,2.10457205772,0.12423145771,0.737924158573,0.0,0.0,0.0783392659009,0.996926757299,1,doorway_assistance,1.0,1450210776748952292,0,0
1450210777065721172,0,1450210776795518908,/odom,1.1117035621,-0.0221042098878,0.0,0.0,0.0,0.0771775568605,0.997017364301,0,1450210776795518908,/odom,3.08787806097,0.285685247409,0.0,0.0,0.0,0.0771775568605,0.997017364301,0,1450210776795518908,/odom,2.09979081154,0.131790518761,0.717566907406,0.0,0.0,0.0771775568605,0.997017364301,1,doorway_assistance,1.0,1450210776795518908,0,0
1450210777153042820,0,1450210776936666609,/odom,1.12050468475,-0.0378767657916,0.0,0.0,0.0,0.079424376,0.996840894274,0,1450210776936666609,/odom,3.09527175873,0.278817098204,0.0,0.0,0.0,0.079424376,0.996840894274,0,1450210776936666609,/odom,2.10788822174,0.120470166206,0.718530893326,0.0,0.0,0.079424376,0.996840894274,1,doorway_assistance,1.0,1450210776936666609,0,0
1450210777275808629,0,1450210776936666609,/odom,1.12050468475,-0.0378767657916,0.0,0.0,0.0,0.079424376,0.996840894274,0,1450210776936666609,/odom,3.09527175873,0.278817098204,0.0,0.0,0.0,0.079424376,0.996840894274,0,1450210776936666609,/odom,2.10788822174,0.120470166206,0.718530893326,0.0,0.0,0.079424376,0.996840894274,1,doorway_assistance,1.0,1450210776936666609,0,0
1450210777328328649,0,1450210777062757459,/odom,1.10037668467,-0.0135029369646,0.0,0.0,0.0,0.0690035997808,0.99761641086,0,1450210777062757459,/odom,3.08133069754,0.261853557234,0.0,0.0,0.0,0.0690035997808,0.99761641086,0,1450210777062757459,/odom,2.0908536911,0.124175310135,0.74744862318,0.0,0.0,0.0690035997808,0.99761641086,1,doorway_assistance,1.0,1450210777062757459,0,0
1450210777456682857,0,1450210777062757459,/odom,1.10037668467,-0.0135029369646,0.0,0.0,0.0,0.0690035997808,0.99761641086,0,1450210777062757459,/odom,3.08133069754,0.261853557234,0.0,0.0,0.0,0.0690035997808,0.99761641086,0,1450210777062757459,/odom,2.0908536911,0.124175310135,0.74744862318,0.0,0.0,0.0690035997808,0.99761641086,1,doorway_assistance,1.0,1450210777062757459,0,0
1450210777529260300,0,1450210777250566659,/odom,1.10081726291,-0.0272591056502,0.0,0.0,0.0,0.0725949996121,0.99736150218,0,1450210777250566659,/odom,3.07973712704,0.262354725806,0.0,0.0,0.0,0.0725949996121,0.99736150218,0,1450210777250566659,/odom,2.09027719498,0.117547810078,0.728240132332,0.0,0.0,0.0725949996121,0.99736150218,1,doorway_assistance,1.0,1450210777250566659,0,0
1450210777659463618,0,1450210777437218574,/odom,1.11184451921,-0.0526131518656,0.0,0.0,0.0,0.0803863654019,0.996763779567,0,1450210777437218574,/odom,3.08599664824,0.267891717749,0.0,0.0,0.0,0.0803863654019,0.996763779567,0,1450210777437218574,/odom,2.09892058372,0.107639282942,0.718663752079,0.0,0.0,0.0803863654019,0.996763779567,1,doorway_assistance,1.0,1450210777437218574,0,0
1450210777772340231,0,1450210777515309997,/odom,1.11318211705,-0.0477919463482,0.0,0.0,0.0,0.078610404782,0.996905413898,0,1450210777515309997,/odom,3.08846373409,0.265676606115,0.0,0.0,0.0,0.078610404782,0.996905413898,0,1450210777515309997,/odom,2.10082292557,0.108942329884,0.727899909019,0.0,0.0,0.078610404782,0.996905413898,1,doorway_assistance,1.0,1450210777515309997,0,0
1450210777828240710,0,1450210777640746353,/odom,1.11164656595,-0.0325559116653,0.0,0.0,0.0,0.0668005853268,0.997766346296,0,1450210777640746353,/odom,3.09379729315,0.234049592142,0.0,0.0,0.0,0.0668005853268,0.997766346296,0,1450210777640746353,/odom,2.10272192955,0.100746840239,0.738395512104,0.0,0.0,0.0668005853268,0.997766346296,1,doorway_assistance,1.0,1450210777640746353,0,0
1450210777981525298,0,1450210777746553830,/odom,1.12879941574,-0.0845128534462,0.0,0.0,0.0,0.0880836264087,0.996113083319,0,1450210777746553830,/odom,3.09776451477,0.266452157321,0.0,0.0,0.0,0.0880836264087,0.996113083319,0,1450210777746553830,/odom,2.11328196526,0.0909696519375,0.71791934967,0.0,0.0,0.0880836264087,0.996113083319,1,doorway_assistance,1.0,1450210777746553830,0,0
1450210778059342638,0,1450210777806164203,/odom,1.09925778439,-0.0688810938926,0.0,0.0,0.0,0.0796469806685,0.996823132993,0,1450210777806164203,/odom,3.07388321827,0.248694717321,0.0,0.0,0.0,0.0796469806685,0.996823132993,0,1450210777806164203,/odom,2.08657050133,0.0899068117142,0.738328099251,0.0,0.0,0.0796469806685,0.996823132993,1,doorway_assistance,1.0,1450210777806164203,0,0
1450210778129777103,0,1450210777955571573,/odom,1.1216126787,-0.0736537527209,0.0,0.0,0.0,0.0858677978202,0.996306539825,0,1450210777955571573,/odom,3.09211956389,0.268548841394,0.0,0.0,0.0,0.0858677978202,0.996306539825,0,1450210777955571573,/odom,2.10686612129,0.0974475443363,0.718745052814,0.0,0.0,0.0858677978202,0.996306539825,1,doorway_assistance,1.0,1450210777955571573,0,0
1450210778230087185,0,1450210777955571573,/odom,1.1216126787,-0.0736537527209,0.0,0.0,0.0,0.0858677978202,0.996306539825,0,1450210777955571573,/odom,3.09211956389,0.268548841394,0.0,0.0,0.0,0.0858677978202,0.996306539825,0,1450210777955571573,/odom,2.10686612129,0.0974475443363,0.718745052814,0.0,0.0,0.0858677978202,0.996306539825,1,doorway_assistance,1.0,1450210777955571573,0,0
1450210778339641596,0,1450210778051933155,/odom,1.11542724567,-0.0768720308864,0.0,0.0,0.0,0.0843016964635,0.99644027617,0,1450210778051933155,/odom,3.08700014157,0.259134391936,0.0,0.0,0.0,0.0843016964635,0.99644027617,0,1450210778051933155,/odom,2.10121369362,0.0911311805248,0.717285633087,0.0,0.0,0.0843016964635,0.99644027617,1,doorway_assistance,1.0,1450210778051933155,0,0
1450210778445250343,0,1450210778210015853,/odom,1.11795672973,-0.0663068369922,0.0,0.0,0.0,0.0936624648177,0.995604008974,0,1450210778210015853,/odom,3.08286610047,0.306696064859,0.0,0.0,0.0,0.0936624648177,0.995604008974,0,1450210778210015853,/odom,2.1004114151,0.120194613934,0.737309813499,0.0,0.0,0.0936624648177,0.995604008974,1,doorway_assistance,1.0,1450210778210015853,0,0
1450210778543343528,0,1450210778313713703,/odom,1.11713559576,-0.0735126372911,0.0,0.0,0.0,0.0923273208366,0.995728710959,0,1450210778313713703,/odom,3.08303825907,0.294219219361,0.0,0.0,0.0,0.0923273208366,0.995728710959,0,1450210778313713703,/odom,2.10008692741,0.110353291035,0.737323224545,0.0,0.0,0.0923273208366,0.995728710959,1,doorway_assistance,1.0,1450210778313713703,0,0
1450210778663971164,0,1450210778415267725,/odom,1.11938089391,-0.0799263058995,0.0,0.0,0.0,0.0918486499264,0.9957729789,0,1450210778415267725,/odom,3.08563619594,0.285915309081,0.0,0.0,0.0,0.0918486499264,0.9957729789,0,1450210778415267725,/odom,2.10250854492,0.102994501591,0.727501928806,0.0,0.0,0.0918486499264,0.9957729789,1,doorway_assistance,1.0,1450210778415267725,0,0
1450210778750395533,0,1450210778530737999,/odom,1.10917010294,-0.0615814442204,0.0,0.0,0.0,0.0862591356094,0.996272734508,0,1450210778530737999,/odom,3.07940754904,0.282169055419,0.0,0.0,0.0,0.0862591356094,0.996272734508,0,1450210778530737999,/odom,2.09428882599,0.110293805599,0.727471411228,0.0,0.0,0.0862591356094,0.996272734508,1,doorway_assistance,1.0,1450210778530737999,0,0
1450210778836453942,0,1450210778530737999,/odom,1.10917010294,-0.0615814442204,0.0,0.0,0.0,0.0862591356094,0.996272734508,0,1450210778530737999,/odom,3.07940754904,0.282169055419,0.0,0.0,0.0,0.0862591356094,0.996272734508,0,1450210778530737999,/odom,2.09428882599,0.110293805599,0.727471411228,0.0,0.0,0.0862591356094,0.996272734508,1,doorway_assistance,1.0,1450210778530737999,0,0
1450210778961649168,0,1450210778645017638,/odom,1.12097886568,-0.0849161829981,0.0,0.0,0.0,0.0962330004512,0.995358834604,0,1450210778645017638,/odom,3.08393570418,0.29822928572,0.0,0.0,0.0,0.0962330004512,0.995358834604,0,1450210778645017638,/odom,2.10245728493,0.106656551361,0.717926263809,0.0,0.0,0.0962330004512,0.995358834604,1,doorway_assistance,1.0,1450210778645017638,0,0
1450210779028530146,0,1450210778815954246,/odom,1.11214830931,-0.0693518487389,0.0,0.0,0.0,0.0924130169639,0.995720761205,0,1450210778815954246,/odom,3.0779876465,0.298718389648,0.0,0.0,0.0,0.0924130169639,0.995720761205,0,1450210778815954246,/odom,2.09506797791,0.114683270454,0.727352678776,0.0,0.0,0.0924130169639,0.995720761205,1,doorway_assistance,1.0,1450210778815954246,0,0
1450210779136673927,0,1450210778932245138,/odom,1.12298855702,-0.0860273654073,0.0,0.0,0.0,0.097912503551,0.995195026941,0,1450210778932245138,/odom,3.08464112361,0.30374078103,0.0,0.0,0.0,0.097912503551,0.995195026941,0,1450210778932245138,/odom,2.10381484032,0.108856707811,0.71761906147,0.0,0.0,0.097912503551,0.995195026941,1,doorway_assistance,1.0,1450210778932245138,0,0
1450210779233545673,0,1450210779036608781,/odom,1.11909585441,-0.080691517296,0.0,0.0,0.0,0.0938816535657,0.995583364226,0,1450210779036608781,/odom,3.08384079491,0.293176532688,0.0,0.0,0.0,0.0938816535657,0.995583364226,0,1450210779036608781,/odom,2.10146832466,0.106242507696,0.71765089035,0.0,0.0,0.0938816535657,0.995583364226,1,doorway_assistance,1.0,1450210779036608781,0,0
1450210779331048406,0,1450210779131238943,/odom,1.12567693666,-0.0930290510255,0.0,0.0,0.0,0.0990268071077,0.995084765974,0,1450210779131238943,/odom,3.08645170256,0.301131217678,0.0,0.0,0.0,0.0990268071077,0.995084765974,0,1450210779131238943,/odom,2.10606431961,0.104051083326,0.727603197098,0.0,0.0,0.0990268071077,0.995084765974,1,doorway_assistance,1.0,1450210779131238943,0,0
1450210779464899589,0,1450210779239422228,/odom,1.12494688307,-0.0948591958187,0.0,0.0,0.0,0.0942883682831,0.99554492797,0,1450210779239422228,/odom,3.0893856975,0.280614031424,0.0,0.0,0.0,0.0942883682831,0.99554492797,0,1450210779239422228,/odom,2.10716629028,0.0928774178028,0.717417418957,0.0,0.0,0.0942883682831,0.99554492797,1,doorway_assistance,1.0,1450210779239422228,0,0
1450210779537589538,0,1450210779321050791,/odom,1.12479198147,-0.0950089671923,0.0,0.0,0.0,0.0968838515809,0.995295694406,0,1450210779321050791,/odom,3.08724605869,0.290703354151,0.0,0.0,0.0,0.0968838515809,0.995295694406,0,1450210779321050791,/odom,2.10601902008,0.0978471934795,0.727746248245,0.0,0.0,0.0968838515809,0.995295694406,1,doorway_assistance,1.0,1450210779321050791,0,0
1450210779650219075,0,1450210779321050791,/odom,1.12479198147,-0.0950089671923,0.0,0.0,0.0,0.0968838515809,0.995295694406,0,1450210779321050791,/odom,3.08724605869,0.290703354151,0.0,0.0,0.0,0.0968838515809,0.995295694406,0,1450210779321050791,/odom,2.10601902008,0.0978471934795,0.727746248245,0.0,0.0,0.0968838515809,0.995295694406,1,doorway_assistance,1.0,1450210779321050791,0,0
1450210779740634350,0,1450210779458139968,/odom,1.12674393532,-0.099860963573,0.0,0.0,0.0,0.0938558584235,0.995585796323,0,1450210779458139968,/odom,3.09150824668,0.27390527462,0.0,0.0,0.0,0.0938558584235,0.995585796323,0,1450210779458139968,/odom,2.109126091,0.0870221555233,0.727630198002,0.0,0.0,0.0938558584235,0.995585796323,1,doorway_assistance,1.0,1450210779458139968,0,0
1450210779845762833,0,1450210779617514771,/odom,1.19352029165,-0.0263436456806,0.0,0.0,0.0,0.0555750441877,0.998454512967,0,1450210779617514771,/odom,3.1811659495,0.19561296903,0.0,0.0,0.0,0.0555750441877,0.998454512967,0,1450210779617514771,/odom,2.18734312057,0.0846346616745,0.668018341064,0.0,0.0,0.0555750441877,0.998454512967,1,doorway_assistance,1.0,1450210779617514771,0,0
1450210779951141610,0,1450210779712290708,/odom,1.26128086673,0.0637884010056,0.0,0.0,0.0,0.0151932555854,0.999884575831,0,1450210779712290708,/odom,3.26035752667,0.124554408672,0.0,0.0,0.0,0.0151932555854,0.999884575831,0,1450210779712290708,/odom,2.2608191967,0.0941714048386,0.687641680241,0.0,0.0,0.0151932555854,0.999884575831,1,doorway_assistance,1.0,1450210779712290708,0,0
1450210780070526903,0,1450210779814863772,/odom,1.23266765721,0.0455964645748,0.0,0.0,0.0,0.0148660805242,0.999889493719,0,1450210779814863772,/odom,3.23178365581,0.10505421549,0.0,0.0,0.0,0.0148660805242,0.999889493719,0,1450210779814863772,/odom,2.23222565651,0.0753253400326,0.679498612881,0.0,0.0,0.0148660805242,0.999889493719,1,doorway_assistance,1.0,1450210779814863772,0,0
1450210780140604540,0,1450210779919152830,/odom,1.18495372809,-0.0364154694718,0.0,0.0,0.0,0.0648166108268,0.997897192581,0,1450210779919152830,/odom,3.16814895593,0.222305786435,0.0,0.0,0.0,0.0648166108268,0.997897192581,0,1450210779919152830,/odom,2.17655134201,0.0929451584816,0.688374996185,0.0,0.0,0.0648166108268,0.997897192581,1,doorway_assistance,1.0,1450210779919152830,0,0
1450210780230793485,0,1450210780036115039,/odom,1.13311063592,-0.0976264970654,0.0,0.0,0.0,0.0930329382904,0.995663031549,0,1450210780036115039,/odom,3.09849012549,0.272891332423,0.0,0.0,0.0,0.0930329382904,0.995663031549,0,1450210780036115039,/odom,2.11580038071,0.0876324176788,0.727245271206,0.0,0.0,0.0930329382904,0.995663031549,1,doorway_assistance,1.0,1450210780036115039,0,0
1450210780330690828,0,1450210780036115039,/odom,1.13311063592,-0.0976264970654,0.0,0.0,0.0,0.0930329382904,0.995663031549,0,1450210780036115039,/odom,3.09849012549,0.272891332423,0.0,0.0,0.0,0.0930329382904,0.995663031549,0,1450210780036115039,/odom,2.11580038071,0.0876324176788,0.727245271206,0.0,0.0,0.0930329382904,0.995663031549,1,doorway_assistance,1.0,1450210780036115039,0,0
1450210780428650192,0,1450210780137134414,/odom,1.13488394333,-0.0941158934323,0.0,0.0,0.0,0.0879192817945,0.996127602212,0,1450210780137134414,/odom,3.10396474289,0.256199400016,0.0,0.0,0.0,0.0879192817945,0.996127602212,0,1450210780137134414,/odom,2.11942434311,0.0810417532921,0.737618386745,0.0,0.0,0.0879192817945,0.996127602212,1,doorway_assistance,1.0,1450210780137134414,1,0
1450210780531843967,0,1450210780297050566,/odom,1.13695458341,-0.101740103445,0.0,0.0,0.0,0.0903776522644,0.995907565977,0,1450210780297050566,/odom,3.1042821033,0.258291047297,0.0,0.0,0.0,0.0903776522644,0.995907565977,0,1450210780297050566,/odom,2.12061834335,0.0782754719257,0.727350831032,0.0,0.0,0.0903776522644,0.995907565977,1,doorway_assistance,1.0,1450210780297050566,1,0
1450210780631543242,0,1450210780426486499,/odom,1.10606138807,-0.123623904543,0.0,0.0,0.0,0.0983972765272,0.995147213216,0,1450210780426486499,/odom,3.06733329196,0.268055197554,0.0,0.0,0.0,0.0983972765272,0.995147213216,0,1450210780426486499,/odom,2.08669734001,0.0722156465054,0.747981548309,0.0,0.0,0.0983972765272,0.995147213216,1,doorway_assistance,1.0,1450210780426486499,1,0
1450210780749646389,0,1450210780498345526,/odom,1.14178896795,-0.11977453893,0.0,0.0,0.0,0.0954368376955,0.995435487619,0,1450210780498345526,/odom,3.10535620799,0.260230321343,0.0,0.0,0.0,0.0954368376955,0.995435487619,0,1450210780498345526,/odom,2.12357258797,0.0702278912067,0.737652659416,0.0,0.0,0.0954368376955,0.995435487619,1,doorway_assistance,1.0,1450210780498345526,1,0
1450210780873751244,0,1450210780498345526,/odom,1.14178896795,-0.11977453893,0.0,0.0,0.0,0.0954368376955,0.995435487619,0,1450210780498345526,/odom,3.10535620799,0.260230321343,0.0,0.0,0.0,0.0954368376955,0.995435487619,0,1450210780498345526,/odom,2.12357258797,0.0702278912067,0.737652659416,0.0,0.0,0.0954368376955,0.995435487619,1,doorway_assistance,1.0,1450210780652473217,1,0
1450210780938192788,0,1450210780716381772,/odom,1.15440887115,-0.109813393236,0.0,0.0,0.0,0.0917661873035,0.995780581688,0,1450210780716381772,/odom,3.12072473862,0.255702556253,0.0,0.0,0.0,0.0917661873035,0.995780581688,0,1450210780716381772,/odom,2.13756680489,0.0729445815086,0.737642049789,0.0,0.0,0.0917661873035,0.995780581688,1,doorway_assistance,1.0,1450210780716381772,1,0
1450210781032593330,0,1450210780854345333,/odom,1.11884809204,-0.157019151331,0.0,0.0,0.0,0.105142741033,0.994457140357,0,1450210780854345333,/odom,3.07462810807,0.261220646978,0.0,0.0,0.0,0.105142741033,0.994457140357,0,1450210780854345333,/odom,2.09673810005,0.0521007478237,0.74716758728,0.0,0.0,0.105142741033,0.994457140357,1,doorway_assistance,1.0,1450210780854345333,1,0
1450210781150439245,0,1450210780914884847,/odom,1.1490891544,-0.119937467498,0.0,0.0,0.0,0.10106020426,0.994880311955,0,1450210780914884847,/odom,3.10823649486,0.282233762664,0.0,0.0,0.0,0.10106020426,0.994880311955,0,1450210780914884847,/odom,2.12866282463,0.081148147583,0.718536615372,0.0,0.0,0.10106020426,0.994880311955,1,doorway_assistance,1.0,1450210780914884847,1,0
1450210781280497194,0,1450210780995872828,/odom,1.20007862993,-0.0682507327358,0.0,0.0,0.0,0.0616652996994,0.998096884482,0,1450210780995872828,/odom,3.18486819319,0.177941041307,0.0,0.0,0.0,0.0616652996994,0.998096884482,0,1450210780995872828,/odom,2.19247341156,0.0548451542854,0.697421848774,0.0,0.0,0.0616652996994,0.998096884482,1,doorway_assistance,1.0,1450210780995872828,1,0
1450210781336639815,0,1450210781142106411,/odom,1.19724181317,-0.0649319611797,0.0,0.0,0.0,0.0657714353743,0.997834714915,0,1450210781142106411,/odom,3.17993828632,0.197584124685,0.0,0.0,0.0,0.0657714353743,0.997834714915,0,1450210781142106411,/odom,2.18859004974,0.0663260817528,0.687949419022,0.0,0.0,0.0657714353743,0.997834714915,1,doorway_assistance,1.0,1450210781142106411,1,0
1450210781443395728,0,1450210781244406807,/odom,1.20606168198,-0.0323032863431,0.0,0.0,0.0,0.0515863270974,0.998668539034,0,1450210781244406807,/odom,3.19541708541,0.173767281323,0.0,0.0,0.0,0.0515863270974,0.998668539034,0,1450210781244406807,/odom,2.2007393837,0.0707319974899,0.687986195087,0.0,0.0,0.0515863270974,0.998668539034,1,doorway_assistance,1.0,1450210781244406807,1,0
1450210781540206524,0,1450210781323558712,/odom,1.18778161055,-0.0686079931572,0.0,0.0,0.0,0.0705757809072,0.997506420606,0,1450210781323558712,/odom,3.16785784715,0.21299118522,0.0,0.0,0.0,0.0705757809072,0.997506420606,0,1450210781323558712,/odom,2.17781972885,0.0721915960312,0.688064813614,0.0,0.0,0.0705757809072,0.997506420606,1,doorway_assistance,1.0,1450210781323558712,1,0
1450210781666599869,0,1450210781401218792,/odom,1.20427677891,-0.0626259675278,0.0,0.0,0.0,0.0636199841519,0.997974196869,0,1450210781401218792,/odom,3.18808676937,0.191338442828,0.0,0.0,0.0,0.0636199841519,0.997974196869,0,1450210781401218792,/odom,2.19618177414,0.0643562376499,0.677954673767,0.0,0.0,0.0636199841519,0.997974196869,1,doorway_assistance,1.0,1450210781401218792,1,0
1450210781737467236,0,1450210781401218792,/odom,1.20427677891,-0.0626259675278,0.0,0.0,0.0,0.0636199841519,0.997974196869,0,1450210781401218792,/odom,3.18808676937,0.191338442828,0.0,0.0,0.0,0.0636199841519,0.997974196869,0,1450210781401218792,/odom,2.19618177414,0.0643562376499,0.677954673767,0.0,0.0,0.0636199841519,0.997974196869,1,doorway_assistance,1.0,1450210781401218792,1,0
1450210781839208969,0,1450210781401218792,/odom,1.20427677891,-0.0626259675278,0.0,0.0,0.0,0.0636199841519,0.997974196869,0,1450210781401218792,/odom,3.18808676937,0.191338442828,0.0,0.0,0.0,0.0636199841519,0.997974196869,0,1450210781401218792,/odom,2.19618177414,0.0643562376499,0.677954673767,0.0,0.0,0.0636199841519,0.997974196869,1,doorway_assistance,1.0,1450210781401218792,1,0
1450210781936399704,0,1450210781674966207,/odom,1.16158107844,-0.108392641459,0.0,0.0,0.0,0.0893755871698,0.995997994184,0,1450210781674966207,/odom,3.12962909612,0.247678980742,0.0,0.0,0.0,0.0893755871698,0.995997994184,0,1450210781674966207,/odom,2.14560508728,0.0696431696415,0.728498101234,0.0,0.0,0.0893755871698,0.995997994184,1,doorway_assistance,1.0,1450210781674966207,1,0
1450210782031516945,0,1450210781795340669,/odom,1.21666379816,-0.0526506094021,0.0,0.0,0.0,0.0622628818785,0.998059784552,0,1450210781795340669,/odom,3.20115713232,0.195917704491,0.0,0.0,0.0,0.0622628818785,0.998059784552,0,1450210781795340669,/odom,2.20891046524,0.0716335475445,0.68869549036,0.0,0.0,0.0622628818785,0.998059784552,1,doorway_assistance,1.0,1450210781795340669,1,0
1450210782139924970,0,1450210781900140578,/odom,1.21286764963,-0.0334042536197,0.0,0.0,0.0,0.0531460375997,0.998586750707,0,1450210781900140578,/odom,3.20156964438,0.178879462379,0.0,0.0,0.0,0.0531460375997,0.998586750707,0,1450210781900140578,/odom,2.207218647,0.0727376043797,0.708259701729,0.0,0.0,0.0531460375997,0.998586750707,1,doorway_assistance,1.0,1450210781900140578,1,0
1450210782228813328,0,1450210781998990051,/odom,1.23107993692,0.00288252830766,0.0,0.0,0.0,0.0380867258692,0.999274437436,0,1450210781998990051,/odom,3.22527754217,0.155118894574,0.0,0.0,0.0,0.0380867258692,0.999274437436,0,1450210781998990051,/odom,2.22817873955,0.079000711441,0.69986230135,0.0,0.0,0.0380867258692,0.999274437436,1,doorway_assistance,1.0,1450210781998990051,1,0
1450210782339179791,0,1450210782103122117,/odom,1.17926440713,-0.0902742861265,0.0,0.0,0.0,0.0769902172986,0.997031848258,0,1450210782103122117,/odom,3.15555443289,0.216772508478,0.0,0.0,0.0,0.0769902172986,0.997031848258,0,1450210782103122117,/odom,2.16740942001,0.0632491111755,0.697473824024,0.0,0.0,0.0769902172986,0.997031848258,1,doorway_assistance,1.0,1450210782103122117,1,0
1450210782439016173,0,1450210782194018486,/odom,1.21912637816,-0.0354567819614,0.0,0.0,0.0,0.0568115228246,0.998384921197,0,1450210782194018486,/odom,3.20621618166,0.191422288992,0.0,0.0,0.0,0.0568115228246,0.998384921197,0,1450210782194018486,/odom,2.21267127991,0.0779827535152,0.699264526367,0.0,0.0,0.0568115228246,0.998384921197,1,doorway_assistance,1.0,1450210782194018486,1,0
1450210782533130125,0,1450210782302189935,/odom,1.13806672339,-0.187445537604,0.0,0.0,0.0,0.128977350307,0.991647539758,0,1450210782302189935,/odom,3.07152609582,0.324154750861,0.0,0.0,0.0,0.128977350307,0.991647539758,0,1450210782302189935,/odom,2.10479640961,0.0683546066284,0.738066315651,0.0,0.0,0.128977350307,0.991647539758,1,doorway_assistance,1.0,1450210782302189935,1,0
1450210782636355454,0,1450210782399282442,/odom,1.17118219885,-0.144072430134,0.0,0.0,0.0,0.0970195192856,0.995282478936,0,1450210782399282442,/odom,3.13353105036,0.242174880505,0.0,0.0,0.0,0.0970195192856,0.995282478936,0,1450210782399282442,/odom,2.1523566246,0.0490512251854,0.687768757343,0.0,0.0,0.0970195192856,0.995282478936,1,doorway_assistance,1.0,1450210782399282442,1,0
1450210782739407340,0,1450210782497929174,/odom,1.24603026268,0.0068264317082,0.0,0.0,0.0,0.032676040441,0.99946599561,0,1450210782497929174,/odom,3.24175936821,0.137460796876,0.0,0.0,0.0,0.032676040441,0.99946599561,0,1450210782497929174,/odom,2.24389481544,0.0721436142921,0.689092993736,0.0,0.0,0.032676040441,0.99946599561,1,doorway_assistance,1.0,1450210782497929174,1,0
1450210782830980066,0,1450210782593146522,/odom,1.2012171921,-0.036908659643,0.0,0.0,0.0,0.0486190270314,0.998817395829,0,1450210782593146522,/odom,3.19176195295,0.157337460226,0.0,0.0,0.0,0.0486190270314,0.998817395829,0,1450210782593146522,/odom,2.19648957253,0.0602144002914,0.698344111443,0.0,0.0,0.0486190270314,0.998817395829,1,doorway_assistance,1.0,1450210782593146522,1,0
1450210783035114845,0,1450210782711357499,/odom,1.17144277131,-0.211065102497,0.0,0.0,0.0,0.139520803524,0.990219140082,0,1450210782711357499,/odom,3.09357855285,0.341559577861,0.0,0.0,0.0,0.139520803524,0.990219140082,0,1450210782711357499,/odom,2.13251066208,0.0652472376823,0.719355165958,0.0,0.0,0.139520803524,0.990219140082,1,doorway_assistance,1.0,1450210782711357499,1,0
1450210783043411393,0,1450210782816058048,/odom,1.22189031086,-0.0420278697119,0.0,0.0,0.0,0.058362804139,0.998295438782,0,1450210782816058048,/odom,3.20826544323,0.191025414954,0.0,0.0,0.0,0.058362804139,0.998295438782,0,1450210782816058048,/odom,2.21507787704,0.0744987726212,0.709203660488,0.0,0.0,0.058362804139,0.998295438782,1,doorway_assistance,1.0,1450210782816058048,1,0
1450210783140551443,0,1450210782816058048,/odom,1.22189031086,-0.0420278697119,0.0,0.0,0.0,0.058362804139,0.998295438782,0,1450210782816058048,/odom,3.20826544323,0.191025414954,0.0,0.0,0.0,0.058362804139,0.998295438782,0,1450210782816058048,/odom,2.21507787704,0.0744987726212,0.709203660488,0.0,0.0,0.058362804139,0.998295438782,1,doorway_assistance,1.0,1450210782816058048,1,0
1450210783228871027,0,1450210782816058048,/odom,1.22189031086,-0.0420278697119,0.0,0.0,0.0,0.058362804139,0.998295438782,0,1450210782816058048,/odom,3.20826544323,0.191025414954,0.0,0.0,0.0,0.058362804139,0.998295438782,0,1450210782816058048,/odom,2.21507787704,0.0744987726212,0.709203660488,0.0,0.0,0.058362804139,0.998295438782,1,doorway_assistance,1.0,1450210783018659742,1,0
1450210783335423684,0,1450210782816058048,/odom,1.22189031086,-0.0420278697119,0.0,0.0,0.0,0.058362804139,0.998295438782,0,1450210782816058048,/odom,3.20826544323,0.191025414954,0.0,0.0,0.0,0.058362804139,0.998295438782,0,1450210782816058048,/odom,2.21507787704,0.0744987726212,0.709203660488,0.0,0.0,0.058362804139,0.998295438782,1,doorway_assistance,1.0,1450210783115461259,1,0
1450210783443739133,0,1450210782816058048,/odom,1.22189031086,-0.0420278697119,0.0,0.0,0.0,0.058362804139,0.998295438782,0,1450210782816058048,/odom,3.20826544323,0.191025414954,0.0,0.0,0.0,0.058362804139,0.998295438782,0,1450210782816058048,/odom,2.21507787704,0.0744987726212,0.709203660488,0.0,0.0,0.058362804139,0.998295438782,1,doorway_assistance,1.0,1450210783197524677,1,0
1450210783527818462,0,1450210782816058048,/odom,1.22189031086,-0.0420278697119,0.0,0.0,0.0,0.058362804139,0.998295438782,0,1450210782816058048,/odom,3.20826544323,0.191025414954,0.0,0.0,0.0,0.058362804139,0.998295438782,0,1450210782816058048,/odom,2.21507787704,0.0744987726212,0.709203660488,0.0,0.0,0.058362804139,0.998295438782,1,doorway_assistance,1.0,1450210783305367470,1,0
1450210783630322301,0,1450210782816058048,/odom,1.22189031086,-0.0420278697119,0.0,0.0,0.0,0.058362804139,0.998295438782,0,1450210782816058048,/odom,3.20826544323,0.191025414954,0.0,0.0,0.0,0.058362804139,0.998295438782,0,1450210782816058048,/odom,2.21507787704,0.0744987726212,0.709203660488,0.0,0.0,0.058362804139,0.998295438782,1,doorway_assistance,1.0,1450210783423148170,1,0
1450210783744600463,0,1450210782816058048,/odom,1.22189031086,-0.0420278697119,0.0,0.0,0.0,0.058362804139,0.998295438782,0,1450210782816058048,/odom,3.20826544323,0.191025414954,0.0,0.0,0.0,0.058362804139,0.998295438782,0,1450210782816058048,/odom,2.21507787704,0.0744987726212,0.709203660488,0.0,0.0,0.058362804139,0.998295438782,1,doorway_assistance,1.0,1450210783423148170,1,0
1450210783830987302,0,1450210782816058048,/odom,1.22189031086,-0.0420278697119,0.0,0.0,0.0,0.058362804139,0.998295438782,0,1450210782816058048,/odom,3.20826544323,0.191025414954,0.0,0.0,0.0,0.058362804139,0.998295438782,0,1450210782816058048,/odom,2.21507787704,0.0744987726212,0.709203660488,0.0,0.0,0.058362804139,0.998295438782,1,doorway_assistance,1.0,1450210783561434596,1,0
1450210783930659668,0,1450210782816058048,/odom,1.22189031086,-0.0420278697119,0.0,0.0,0.0,0.058362804139,0.998295438782,0,1450210782816058048,/odom,3.20826544323,0.191025414954,0.0,0.0,0.0,0.058362804139,0.998295438782,0,1450210782816058048,/odom,2.21507787704,0.0744987726212,0.709203660488,0.0,0.0,0.058362804139,0.998295438782,1,doorway_assistance,1.0,1450210783729662812,1,0
1450210784030545680,0,1450210782816058048,/odom,1.22189031086,-0.0420278697119,0.0,0.0,0.0,0.058362804139,0.998295438782,0,1450210782816058048,/odom,3.20826544323,0.191025414954,0.0,0.0,0.0,0.058362804139,0.998295438782,0,1450210782816058048,/odom,2.21507787704,0.0744987726212,0.709203660488,0.0,0.0,0.058362804139,0.998295438782,1,doorway_assistance,1.0,1450210783828476237,1,0
1450210784136129690,0,1450210782816058048,/odom,1.22189031086,-0.0420278697119,0.0,0.0,0.0,0.058362804139,0.998295438782,0,1450210782816058048,/odom,3.20826544323,0.191025414954,0.0,0.0,0.0,0.058362804139,0.998295438782,0,1450210782816058048,/odom,2.21507787704,0.0744987726212,0.709203660488,0.0,0.0,0.058362804139,0.998295438782,1,doorway_assistance,1.0,1450210783895996840,1,0
1450210784230661803,0,1450210782816058048,/odom,1.22189031086,-0.0420278697119,0.0,0.0,0.0,0.058362804139,0.998295438782,0,1450210782816058048,/odom,3.20826544323,0.191025414954,0.0,0.0,0.0,0.058362804139,0.998295438782,0,1450210782816058048,/odom,2.21507787704,0.0744987726212,0.709203660488,0.0,0.0,0.058362804139,0.998295438782,1,doorway_assistance,1.0,1450210784022788139,1,0
1450210784441397926,0,1450210782816058048,/odom,1.22189031086,-0.0420278697119,0.0,0.0,0.0,0.058362804139,0.998295438782,0,1450210782816058048,/odom,3.20826544323,0.191025414954,0.0,0.0,0.0,0.058362804139,0.998295438782,0,1450210782816058048,/odom,2.21507787704,0.0744987726212,0.709203660488,0.0,0.0,0.058362804139,0.998295438782,1,doorway_assistance,1.0,1450210784129760461,1,0
1450210784548874178,0,1450210782816058048,/odom,1.22189031086,-0.0420278697119,0.0,0.0,0.0,0.058362804139,0.998295438782,0,1450210782816058048,/odom,3.20826544323,0.191025414954,0.0,0.0,0.0,0.058362804139,0.998295438782,0,1450210782816058048,/odom,2.21507787704,0.0744987726212,0.709203660488,0.0,0.0,0.058362804139,0.998295438782,1,doorway_assistance,1.0,1450210784219433043,1,0
1450210784562285331,0,1450210782816058048,/odom,1.22189031086,-0.0420278697119,0.0,0.0,0.0,0.058362804139,0.998295438782,0,1450210782816058048,/odom,3.20826544323,0.191025414954,0.0,0.0,0.0,0.058362804139,0.998295438782,0,1450210782816058048,/odom,2.21507787704,0.0744987726212,0.709203660488,0.0,0.0,0.058362804139,0.998295438782,1,doorway_assistance,1.0,1450210784424531038,1,0
1450210784648372145,0,1450210782816058048,/odom,1.22189031086,-0.0420278697119,0.0,0.0,0.0,0.058362804139,0.998295438782,0,1450210782816058048,/odom,3.20826544323,0.191025414954,0.0,0.0,0.0,0.058362804139,0.998295438782,0,1450210782816058048,/odom,2.21507787704,0.0744987726212,0.709203660488,0.0,0.0,0.058362804139,0.998295438782,1,doorway_assistance,1.0,1450210784424531038,1,0
1450210784736153702,0,1450210782816058048,/odom,1.22189031086,-0.0420278697119,0.0,0.0,0.0,0.058362804139,0.998295438782,0,1450210782816058048,/odom,3.20826544323,0.191025414954,0.0,0.0,0.0,0.058362804139,0.998295438782,0,1450210782816058048,/odom,2.21507787704,0.0744987726212,0.709203660488,0.0,0.0,0.058362804139,0.998295438782,1,doorway_assistance,1.0,1450210784541482744,1,0
1450210784850435699,0,1450210782816058048,/odom,1.22189031086,-0.0420278697119,0.0,0.0,0.0,0.058362804139,0.998295438782,0,1450210782816058048,/odom,3.20826544323,0.191025414954,0.0,0.0,0.0,0.058362804139,0.998295438782,0,1450210782816058048,/odom,2.21507787704,0.0744987726212,0.709203660488,0.0,0.0,0.058362804139,0.998295438782,1,doorway_assistance,1.0,1450210784626225699,1,0
1450210784954021389,0,1450210782816058048,/odom,1.22189031086,-0.0420278697119,0.0,0.0,0.0,0.058362804139,0.998295438782,0,1450210782816058048,/odom,3.20826544323,0.191025414954,0.0,0.0,0.0,0.058362804139,0.998295438782,0,1450210782816058048,/odom,2.21507787704,0.0744987726212,0.709203660488,0.0,0.0,0.058362804139,0.998295438782,1,doorway_assistance,1.0,1450210784726023776,1,0
1450210785034406273,0,1450210782816058048,/odom,1.22189031086,-0.0420278697119,0.0,0.0,0.0,0.058362804139,0.998295438782,0,1450210782816058048,/odom,3.20826544323,0.191025414954,0.0,0.0,0.0,0.058362804139,0.998295438782,0,1450210782816058048,/odom,2.21507787704,0.0744987726212,0.709203660488,0.0,0.0,0.058362804139,0.998295438782,1,doorway_assistance,1.0,1450210784726023776,1,0
1450210785145391648,0,1450210782816058048,/odom,1.22189031086,-0.0420278697119,0.0,0.0,0.0,0.058362804139,0.998295438782,0,1450210782816058048,/odom,3.20826544323,0.191025414954,0.0,0.0,0.0,0.058362804139,0.998295438782,0,1450210782816058048,/odom,2.21507787704,0.0744987726212,0.709203660488,0.0,0.0,0.058362804139,0.998295438782,1,doorway_assistance,1.0,1450210784854433949,1,0
1450210785231774478,0,1450210782816058048,/odom,1.22189031086,-0.0420278697119,0.0,0.0,0.0,0.058362804139,0.998295438782,0,1450210782816058048,/odom,3.20826544323,0.191025414954,0.0,0.0,0.0,0.058362804139,0.998295438782,0,1450210782816058048,/odom,2.21507787704,0.0744987726212,0.709203660488,0.0,0.0,0.058362804139,0.998295438782,1,doorway_assistance,1.0,1450210785039461920,1,0
1450210785344152652,0,1450210782816058048,/odom,1.22189031086,-0.0420278697119,0.0,0.0,0.0,0.058362804139,0.998295438782,0,1450210782816058048,/odom,3.20826544323,0.191025414954,0.0,0.0,0.0,0.058362804139,0.998295438782,0,1450210782816058048,/odom,2.21507787704,0.0744987726212,0.709203660488,0.0,0.0,0.058362804139,0.998295438782,1,doorway_assistance,1.0,1450210785160460304,1,0
1450210785437268159,0,1450210782816058048,/odom,1.22189031086,-0.0420278697119,0.0,0.0,0.0,0.058362804139,0.998295438782,0,1450210782816058048,/odom,3.20826544323,0.191025414954,0.0,0.0,0.0,0.058362804139,0.998295438782,0,1450210782816058048,/odom,2.21507787704,0.0744987726212,0.709203660488,0.0,0.0,0.058362804139,0.998295438782,1,doorway_assistance,1.0,1450210785230354150,1,0
1450210785534934850,0,1450210782816058048,/odom,1.22189031086,-0.0420278697119,0.0,0.0,0.0,0.058362804139,0.998295438782,0,1450210782816058048,/odom,3.20826544323,0.191025414954,0.0,0.0,0.0,0.058362804139,0.998295438782,0,1450210782816058048,/odom,2.21507787704,0.0744987726212,0.709203660488,0.0,0.0,0.058362804139,0.998295438782,1,doorway_assistance,1.0,1450210785351873931,1,0
1450210785631570896,0,1450210782816058048,/odom,1.22189031086,-0.0420278697119,0.0,0.0,0.0,0.058362804139,0.998295438782,0,1450210782816058048,/odom,3.20826544323,0.191025414954,0.0,0.0,0.0,0.058362804139,0.998295438782,0,1450210782816058048,/odom,2.21507787704,0.0744987726212,0.709203660488,0.0,0.0,0.058362804139,0.998295438782,1,doorway_assistance,1.0,1450210785413113575,1,0
1450210785750641306,0,1450210782816058048,/odom,1.22189031086,-0.0420278697119,0.0,0.0,0.0,0.058362804139,0.998295438782,0,1450210782816058048,/odom,3.20826544323,0.191025414954,0.0,0.0,0.0,0.058362804139,0.998295438782,0,1450210782816058048,/odom,2.21507787704,0.0744987726212,0.709203660488,0.0,0.0,0.058362804139,0.998295438782,1,doorway_assistance,1.0,1450210785518096922,1,0
1450210785863282447,0,1450210782816058048,/odom,1.22189031086,-0.0420278697119,0.0,0.0,0.0,0.058362804139,0.998295438782,0,1450210782816058048,/odom,3.20826544323,0.191025414954,0.0,0.0,0.0,0.058362804139,0.998295438782,0,1450210782816058048,/odom,2.21507787704,0.0744987726212,0.709203660488,0.0,0.0,0.058362804139,0.998295438782,1,doorway_assistance,1.0,1450210785603935632,1,0
1450210785938168478,0,1450210782816058048,/odom,1.22189031086,-0.0420278697119,0.0,0.0,0.0,0.058362804139,0.998295438782,0,1450210782816058048,/odom,3.20826544323,0.191025414954,0.0,0.0,0.0,0.058362804139,0.998295438782,0,1450210782816058048,/odom,2.21507787704,0.0744987726212,0.709203660488,0.0,0.0,0.058362804139,0.998295438782,1,doorway_assistance,1.0,1450210785741060353,1,0
1450210786046635748,0,1450210782816058048,/odom,1.22189031086,-0.0420278697119,0.0,0.0,0.0,0.058362804139,0.998295438782,0,1450210782816058048,/odom,3.20826544323,0.191025414954,0.0,0.0,0.0,0.058362804139,0.998295438782,0,1450210782816058048,/odom,2.21507787704,0.0744987726212,0.709203660488,0.0,0.0,0.058362804139,0.998295438782,1,doorway_assistance,1.0,1450210785845885740,1,0
1450210796440410769,0,1450210796426932041,/odom,2.18799159826,0.0539126607772,0.0,0.0,0.0,0.131716738444,0.99128739567,0,1450210796426932041,/odom,2.18799159826,0.0539126607772,0.0,0.0,0.0,0.131716738444,0.99128739567,0,user,1.0,0
1450210796541781054,0,1450210796526401713,/odom,1.97734668674,-0.00649894515215,0.0,0.0,0.0,0.137652947666,0.990480522776,0,1450210796526401713,/odom,1.97734668674,-0.00649894515215,0.0,0.0,0.0,0.137652947666,0.990480522776,0,user,1.0,0
1450210796628100555,0,1450210796625625332,/odom,1.90027982204,-0.0293481517127,0.0,0.0,0.0,0.139829133936,0.990175647702,0,1450210796625625332,/odom,1.90027982204,-0.0293481517127,0.0,0.0,0.0,0.139829133936,0.990175647702,0,user,1.0,0
1450210796730416597,0,1450210796726577556,/odom,1.81926926699,-0.0538008870265,0.0,0.0,0.0,0.14211927798,0.989849539489,0,1450210796726577556,/odom,1.81926926699,-0.0538008870265,0.0,0.0,0.0,0.14211927798,0.989849539489,0,user,1.0,0
1450210796831940694,0,1450210796826631757,/odom,1.78970511263,-0.0628359665653,0.0,0.0,0.0,0.142955721269,0.989729085031,0,1450210796826631757,/odom,1.78970511263,-0.0628359665653,0.0,0.0,0.0,0.142955721269,0.989729085031,0,user,1.0,0
1450210796935350781,0,1450210796927625982,/odom,1.75832923536,-0.072489968911,0.0,0.0,0.0,0.143843821513,0.989600401684,0,1450210796927625982,/odom,1.75832923536,-0.072489968911,0.0,0.0,0.0,0.143843821513,0.989600401684,0,user,1.0,0
1450210797031734311,0,1450210797028150233,/odom,1.74609667026,-0.072861568285,0.0,0.0,0.0,0.140205216715,0.990122465762,0,1450210797028150233,/odom,1.74609667026,-0.072861568285,0.0,0.0,0.0,0.140205216715,0.990122465762,0,user,1.0,0
1450210797136226932,0,1450210797128036376,/odom,1.73331267791,-0.0731473944996,0.0,0.0,0.0,0.136404124301,0.99065327682,0,1450210797128036376,/odom,1.73331267791,-0.0731473944996,0.0,0.0,0.0,0.136404124301,0.99065327682,0,user,1.0,0
1450210797233494418,0,1450210797228371548,/odom,1.7236883383,-0.0661549017193,0.0,0.0,0.0,0.129756992599,0.991545824898,0,1450210797228371548,/odom,1.7236883383,-0.0661549017193,0.0,0.0,0.0,0.129756992599,0.991545824898,0,user,1.0,0
1450210797336200522,0,1450210797326248445,/odom,1.71802840588,-0.0747692926125,0.0,0.0,0.0,0.133515955732,0.991046663667,0,1450210797326248445,/odom,1.71802840588,-0.0747692926125,0.0,0.0,0.0,0.133515955732,0.991046663667,0,user,1.0,0
1450210797433215631,0,1450210797426318924,/odom,1.70508233604,-0.0777983285244,0.0,0.0,0.0,0.132973103213,0.991119646573,0,1450210797426318924,/odom,1.70508233604,-0.0777983285244,0.0,0.0,0.0,0.132973103213,0.991119646573,0,user,1.0,0
1450210797532835833,0,1450210797527293865,/odom,2.03346214384,0.0118055214424,0.0,0.0,0.0,0.13240857168,0.991195223024,0,1450210797527293865,/odom,2.03346214384,0.0118055214424,0.0,0.0,0.0,0.13240857168,0.991195223024,0,user,1.0,0
1450210797659042978,0,1450210797654678762,/odom,2.14495649099,0.0421379699988,0.0,0.0,0.0,0.132201327705,0.991222885608,0,1450210797654678762,/odom,2.14495649099,0.0421379699988,0.0,0.0,0.0,0.132201327705,0.991222885608,0,user,1.0,0
1450210797737968632,0,1450210797732000578,/odom,2.2148724868,0.0611361788371,0.0,0.0,0.0,0.132054974999,0.991242393957,0,1450210797732000578,/odom,2.2148724868,0.0611361788371,0.0,0.0,0.0,0.132054974999,0.991242393957,0,user,1.0,0
1450210797832390838,0,1450210797828885618,/odom,2.29360530551,0.0824910671502,0.0,0.0,0.0,0.131903128039,0.991262611427,0,1450210797828885618,/odom,2.29360530551,0.0824910671502,0.0,0.0,0.0,0.131903128039,0.991262611427,0,user,1.0,0
1450210797930620889,0,1450210782816058048,/odom,1.22189031086,-0.0420278697119,0.0,0.0,0.0,0.058362804139,0.998295438782,0,1450210782816058048,/odom,3.20826544323,0.191025414954,0.0,0.0,0.0,0.058362804139,0.998295438782,0,1450210782816058048,/odom,2.21507787704,0.0744987726212,0.709203660488,0.0,0.0,0.058362804139,0.998295438782,1,doorway_assistance,1.0,1450210797651760032,1,0
1450210798031080432,0,1450210782816058048,/odom,1.22189031086,-0.0420278697119,0.0,0.0,0.0,0.058362804139,0.998295438782,0,1450210782816058048,/odom,3.20826544323,0.191025414954,0.0,0.0,0.0,0.058362804139,0.998295438782,0,1450210782816058048,/odom,2.21507787704,0.0744987726212,0.709203660488,0.0,0.0,0.058362804139,0.998295438782,1,doorway_assistance,1.0,1450210797830223231,1,0
1450210798142283281,0,1450210782816058048,/odom,1.22189031086,-0.0420278697119,0.0,0.0,0.0,0.058362804139,0.998295438782,0,1450210782816058048,/odom,3.20826544323,0.191025414954,0.0,0.0,0.0,0.058362804139,0.998295438782,0,1450210782816058048,/odom,2.21507787704,0.0744987726212,0.709203660488,0.0,0.0,0.058362804139,0.998295438782,1,doorway_assistance,1.0,1450210797967366188,1,0
1450210798252086365,0,1450210782816058048,/odom,1.22189031086,-0.0420278697119,0.0,0.0,0.0,0.058362804139,0.998295438782,0,1450210782816058048,/odom,3.20826544323,0.191025414954,0.0,0.0,0.0,0.058362804139,0.998295438782,0,1450210782816058048,/odom,2.21507787704,0.0744987726212,0.709203660488,0.0,0.0,0.058362804139,0.998295438782,1,doorway_assistance,1.0,1450210798007205696,1,0
1450210798348221052,0,1450210782816058048,/odom,1.22189031086,-0.0420278697119,0.0,0.0,0.0,0.058362804139,0.998295438782,0,1450210782816058048,/odom,3.20826544323,0.191025414954,0.0,0.0,0.0,0.058362804139,0.998295438782,0,1450210782816058048,/odom,2.21507787704,0.0744987726212,0.709203660488,0.0,0.0,0.058362804139,0.998295438782,1,doorway_assistance,1.0,1450210798007205696,1,0
1450210798451037943,0,1450210782816058048,/odom,1.22189031086,-0.0420278697119,0.0,0.0,0.0,0.058362804139,0.998295438782,0,1450210782816058048,/odom,3.20826544323,0.191025414954,0.0,0.0,0.0,0.058362804139,0.998295438782,0,1450210782816058048,/odom,2.21507787704,0.0744987726212,0.709203660488,0.0,0.0,0.058362804139,0.998295438782,1,doorway_assistance,1.0,1450210798211146113,1,0
1450210798549121404,0,1450210782816058048,/odom,1.22189031086,-0.0420278697119,0.0,0.0,0.0,0.058362804139,0.998295438782,0,1450210782816058048,/odom,3.20826544323,0.191025414954,0.0,0.0,0.0,0.058362804139,0.998295438782,0,1450210782816058048,/odom,2.21507787704,0.0744987726212,0.709203660488,0.0,0.0,0.058362804139,0.998295438782,1,doorway_assistance,1.0,1450210798336543717,1,0
1450210798634074760,0,1450210782816058048,/odom,1.22189031086,-0.0420278697119,0.0,0.0,0.0,0.058362804139,0.998295438782,0,1450210782816058048,/odom,3.20826544323,0.191025414954,0.0,0.0,0.0,0.058362804139,0.998295438782,0,1450210782816058048,/odom,2.21507787704,0.0744987726212,0.709203660488,0.0,0.0,0.058362804139,0.998295438782,1,doorway_assistance,1.0,1450210798418671490,1,0
1450210798753187844,0,1450210782816058048,/odom,1.22189031086,-0.0420278697119,0.0,0.0,0.0,0.058362804139,0.998295438782,0,1450210782816058048,/odom,3.20826544323,0.191025414954,0.0,0.0,0.0,0.058362804139,0.998295438782,0,1450210782816058048,/odom,2.21507787704,0.0744987726212,0.709203660488,0.0,0.0,0.058362804139,0.998295438782,1,doorway_assistance,1.0,1450210798543024900,1,0
1450210798831432612,0,1450210782816058048,/odom,1.22189031086,-0.0420278697119,0.0,0.0,0.0,0.058362804139,0.998295438782,0,1450210782816058048,/odom,3.20826544323,0.191025414954,0.0,0.0,0.0,0.058362804139,0.998295438782,0,1450210782816058048,/odom,2.21507787704,0.0744987726212,0.709203660488,0.0,0.0,0.058362804139,0.998295438782,1,doorway_assistance,1.0,1450210798543024900,1,0
1450210798941335891,0,1450210782816058048,/odom,1.22189031086,-0.0420278697119,0.0,0.0,0.0,0.058362804139,0.998295438782,0,1450210782816058048,/odom,3.20826544323,0.191025414954,0.0,0.0,0.0,0.058362804139,0.998295438782,0,1450210782816058048,/odom,2.21507787704,0.0744987726212,0.709203660488,0.0,0.0,0.058362804139,0.998295438782,1,doorway_assistance,1.0,1450210798679107031,1,0
1450210799052362560,0,1450210782816058048,/odom,1.22189031086,-0.0420278697119,0.0,0.0,0.0,0.058362804139,0.998295438782,0,1450210782816058048,/odom,3.20826544323,0.191025414954,0.0,0.0,0.0,0.058362804139,0.998295438782,0,1450210782816058048,/odom,2.21507787704,0.0744987726212,0.709203660488,0.0,0.0,0.058362804139,0.998295438782,1,doorway_assistance,1.0,1450210798823944764,1,0
1450210799145569335,0,1450210782816058048,/odom,1.22189031086,-0.0420278697119,0.0,0.0,0.0,0.058362804139,0.998295438782,0,1450210782816058048,/odom,3.20826544323,0.191025414954,0.0,0.0,0.0,0.058362804139,0.998295438782,0,1450210782816058048,/odom,2.21507787704,0.0744987726212,0.709203660488,0.0,0.0,0.058362804139,0.998295438782,1,doorway_assistance,1.0,1450210798926156052,1,0
1450210799229409213,0,1450210782816058048,/odom,1.22189031086,-0.0420278697119,0.0,0.0,0.0,0.058362804139,0.998295438782,0,1450210782816058048,/odom,3.20826544323,0.191025414954,0.0,0.0,0.0,0.058362804139,0.998295438782,0,1450210782816058048,/odom,2.21507787704,0.0744987726212,0.709203660488,0.0,0.0,0.058362804139,0.998295438782,1,doorway_assistance,1.0,1450210799036071625,1,0
1450210799343278551,0,1450210782816058048,/odom,1.22189031086,-0.0420278697119,0.0,0.0,0.0,0.058362804139,0.998295438782,0,1450210782816058048,/odom,3.20826544323,0.191025414954,0.0,0.0,0.0,0.058362804139,0.998295438782,0,1450210782816058048,/odom,2.21507787704,0.0744987726212,0.709203660488,0.0,0.0,0.058362804139,0.998295438782,1,doorway_assistance,1.0,1450210799036071625,1,0
1450210799433528640,0,1450210782816058048,/odom,1.22189031086,-0.0420278697119,0.0,0.0,0.0,0.058362804139,0.998295438782,0,1450210782816058048,/odom,3.20826544323,0.191025414954,0.0,0.0,0.0,0.058362804139,0.998295438782,0,1450210782816058048,/odom,2.21507787704,0.0744987726212,0.709203660488,0.0,0.0,0.058362804139,0.998295438782,1,doorway_assistance,1.0,1450210799201754400,1,0
1450210799551144708,0,1450210782816058048,/odom,1.22189031086,-0.0420278697119,0.0,0.0,0.0,0.058362804139,0.998295438782,0,1450210782816058048,/odom,3.20826544323,0.191025414954,0.0,0.0,0.0,0.058362804139,0.998295438782,0,1450210782816058048,/odom,2.21507787704,0.0744987726212,0.709203660488,0.0,0.0,0.058362804139,0.998295438782,1,doorway_assistance,1.0,1450210799201754400,1,0
1450210799638338431,0,1450210782816058048,/odom,1.22189031086,-0.0420278697119,0.0,0.0,0.0,0.058362804139,0.998295438782,0,1450210782816058048,/odom,3.20826544323,0.191025414954,0.0,0.0,0.0,0.058362804139,0.998295438782,0,1450210782816058048,/odom,2.21507787704,0.0744987726212,0.709203660488,0.0,0.0,0.058362804139,0.998295438782,1,doorway_assistance,1.0,1450210799342922669,1,0
1450210799740695130,0,1450210782816058048,/odom,1.22189031086,-0.0420278697119,0.0,0.0,0.0,0.058362804139,0.998295438782,0,1450210782816058048,/odom,3.20826544323,0.191025414954,0.0,0.0,0.0,0.058362804139,0.998295438782,0,1450210782816058048,/odom,2.21507787704,0.0744987726212,0.709203660488,0.0,0.0,0.058362804139,0.998295438782,1,doorway_assistance,1.0,1450210799532716192,1,0
1450210799831575720,0,1450210782816058048,/odom,1.22189031086,-0.0420278697119,0.0,0.0,0.0,0.058362804139,0.998295438782,0,1450210782816058048,/odom,3.20826544323,0.191025414954,0.0,0.0,0.0,0.058362804139,0.998295438782,0,1450210782816058048,/odom,2.21507787704,0.0744987726212,0.709203660488,0.0,0.0,0.058362804139,0.998295438782,1,doorway_assistance,1.0,1450210799619538054,1,0
1450210799939154572,0,1450210782816058048,/odom,1.22189031086,-0.0420278697119,0.0,0.0,0.0,0.058362804139,0.998295438782,0,1450210782816058048,/odom,3.20826544323,0.191025414954,0.0,0.0,0.0,0.058362804139,0.998295438782,0,1450210782816058048,/odom,2.21507787704,0.0744987726212,0.709203660488,0.0,0.0,0.058362804139,0.998295438782,1,doorway_assistance,1.0,1450210799714661770,1,0
1450210800036246434,0,1450210782816058048,/odom,1.22189031086,-0.0420278697119,0.0,0.0,0.0,0.058362804139,0.998295438782,0,1450210782816058048,/odom,3.20826544323,0.191025414954,0.0,0.0,0.0,0.058362804139,0.998295438782,0,1450210782816058048,/odom,2.21507787704,0.0744987726212,0.709203660488,0.0,0.0,0.058362804139,0.998295438782,1,doorway_assistance,1.0,1450210799714661770,1,0
1450210800135343764,0,1450210782816058048,/odom,1.22189031086,-0.0420278697119,0.0,0.0,0.0,0.058362804139,0.998295438782,0,1450210782816058048,/odom,3.20826544323,0.191025414954,0.0,0.0,0.0,0.058362804139,0.998295438782,0,1450210782816058048,/odom,2.21507787704,0.0744987726212,0.709203660488,0.0,0.0,0.058362804139,0.998295438782,1,doorway_assistance,1.0,1450210799848889628,1,0
1450210800243143836,0,1450210782816058048,/odom,1.22189031086,-0.0420278697119,0.0,0.0,0.0,0.058362804139,0.998295438782,0,1450210782816058048,/odom,3.20826544323,0.191025414954,0.0,0.0,0.0,0.058362804139,0.998295438782,0,1450210782816058048,/odom,2.21507787704,0.0744987726212,0.709203660488,0.0,0.0,0.058362804139,0.998295438782,1,doorway_assistance,1.0,1450210800025189647,1,0
1450210800337224952,0,1450210782816058048,/odom,1.22189031086,-0.0420278697119,0.0,0.0,0.0,0.058362804139,0.998295438782,0,1450210782816058048,/odom,3.20826544323,0.191025414954,0.0,0.0,0.0,0.058362804139,0.998295438782,0,1450210782816058048,/odom,2.21507787704,0.0744987726212,0.709203660488,0.0,0.0,0.058362804139,0.998295438782,1,doorway_assistance,1.0,1450210800113232913,1,0
1450210800438121500,0,1450210782816058048,/odom,1.22189031086,-0.0420278697119,0.0,0.0,0.0,0.058362804139,0.998295438782,0,1450210782816058048,/odom,3.20826544323,0.191025414954,0.0,0.0,0.0,0.058362804139,0.998295438782,0,1450210782816058048,/odom,2.21507787704,0.0744987726212,0.709203660488,0.0,0.0,0.058362804139,0.998295438782,1,doorway_assistance,1.0,1450210800113232913,1,0
1450210800532656480,0,1450210782816058048,/odom,1.22189031086,-0.0420278697119,0.0,0.0,0.0,0.058362804139,0.998295438782,0,1450210782816058048,/odom,3.20826544323,0.191025414954,0.0,0.0,0.0,0.058362804139,0.998295438782,0,1450210782816058048,/odom,2.21507787704,0.0744987726212,0.709203660488,0.0,0.0,0.058362804139,0.998295438782,1,doorway_assistance,1.0,1450210800260635775,1,0
1450210800664194868,0,1450210782816058048,/odom,1.22189031086,-0.0420278697119,0.0,0.0,0.0,0.058362804139,0.998295438782,0,1450210782816058048,/odom,3.20826544323,0.191025414954,0.0,0.0,0.0,0.058362804139,0.998295438782,0,1450210782816058048,/odom,2.21507787704,0.0744987726212,0.709203660488,0.0,0.0,0.058362804139,0.998295438782,1,doorway_assistance,1.0,1450210800433594962,1,0
1450210800733396403,0,1450210782816058048,/odom,1.22189031086,-0.0420278697119,0.0,0.0,0.0,0.058362804139,0.998295438782,0,1450210782816058048,/odom,3.20826544323,0.191025414954,0.0,0.0,0.0,0.058362804139,0.998295438782,0,1450210782816058048,/odom,2.21507787704,0.0744987726212,0.709203660488,0.0,0.0,0.058362804139,0.998295438782,1,doorway_assistance,1.0,1450210800531595802,1,0
