%time,field.robot_pose.position.x,field.robot_pose.position.y,field.robot_pose.position.z,field.robot_pose.orientation.x,field.robot_pose.orientation.y,field.robot_pose.orientation.z,field.robot_pose.orientation.w,field.ctime,field.hasac,field.acmd.linear.x,field.acmd.linear.y,field.acmd.linear.z,field.acmd.angular.x,field.acmd.angular.y,field.acmd.angular.z,field.hasuc,field.ucmd.linear.x,field.ucmd.linear.y,field.ucmd.linear.z,field.ucmd.angular.x,field.ucmd.angular.y,field.ucmd.angular.z,field.bcmd.linear.x,field.bcmd.linear.y,field.bcmd.linear.z,field.bcmd.angular.x,field.bcmd.angular.y,field.bcmd.angular.z,field.blending,field.blendingno,field.controlstate,field.alpha,field.source,field.sxb
1450210773606861602,0.0,0.0,0.0,0.0,0.0,0.0,1.0,1450210773605917084,1,0.0,0.0,0.0,0.0,0.0,0.0,1,-0.0,0.0,0.0,0.0,0.0,-0.0,0.0,0.0,0.0,0.0,0.0,0.0,,0,Sharing Zero Relinquish,10.0,,0
1450210773649094015,0.0,0.0,0.0,0.0,0.0,0.0,1.0,1450210773647103463,1,0.0,0.0,0.0,0.0,0.0,0.0,1,-0.0,0.0,0.0,0.0,0.0,-0.0,-0.0,0.0,0.0,0.0,0.0,-0.0,,0,Sharing Zero Relinquish,10.0,user,0
1450210773687147349,0.0,0.0,0.0,0.0,0.0,0.0,1.0,1450210773685785061,1,0.0,0.0,0.0,0.0,0.0,0.0,1,-0.0,0.0,0.0,0.0,0.0,-0.0,-0.0,0.0,0.0,0.0,0.0,-0.0,,0,Sharing Zero Relinquish,10.0,user,0
1450210773726807452,0.0,0.0,0.0,0.0,0.0,0.0,1.0,1450210773725781601,1,0.0,0.0,0.0,0.0,0.0,0.0,1,-0.0,0.0,0.0,0.0,0.0,-0.0,-0.0,0.0,0.0,0.0,0.0,-0.0,,0,Sharing Zero Relinquish,10.0,user,0
1450210773768502805,0.0,0.0,0.0,0.0,0.0,0.0,1.0,1450210773765896123,1,0.0,0.0,0.0,0.0,0.0,0.0,1,-0.0,0.0,0.0,0.0,0.0,-0.0,-0.0,0.0,0.0,0.0,0.0,-0.0,,0,Sharing Zero Relinquish,10.0,user,0
1450210773806652259,0.0,0.0,0.0,0.0,0.0,0.0,1.0,1450210773805772700,1,0.0,0.0,0.0,0.0,0.0,0.0,1,-0.0,0.0,0.0,0.0,0.0,-0.0,-0.0,0.0,0.0,0.0,0.0,-0.0,,0,Sharing Zero Relinquish,10.0,user,0
1450210773847810172,0.0,0.0,0.0,0.0,0.0,0.0,1.0,1450210773845778349,1,0.0,0.0,0.0,0.0,0.0,0.0,1,-0.0,0.0,0.0,0.0,0.0,-0.0,-0.0,0.0,0.0,0.0,0.0,-0.0,,0,Sharing Zero Relinquish,10.0,user,0
1450210773887595034,0.0,0.0,0.0,0.0,0.0,0.0,1.0,1450210773885780312,1,0.0,0.0,0.0,0.0,0.0,0.0,1,-0.0,0.0,0.0,0.0,0.0,-0.0,-0.0,0.0,0.0,0.0,0.0,-0.0,,0,Sharing Zero Relinquish,10.0,user,0
1450210773926348533,0.0,0.0,0.0,0.0,0.0,0.0,1.0,1450210773925772399,1,0.0,0.0,0.0,0.0,0.0,0.0,1,-0.0,0.0,0.0,0.0,0.0,-0.0,-0.0,0.0,0.0,0.0,0.0,-0.0,,0,Sharing Zero Relinquish,10.0,user,0
1450210773966332823,0.0,0.0,0.0,0.0,0.0,0.0,1.0,1450210773965875968,1,0.0,0.0,0.0,0.0,0.0,0.0,1,-0.0,0.0,0.0,0.0,0.0,-0.0,-0.0,0.0,0.0,0.0,0.0,-0.0,,0,Sharing Zero Relinquish,10.0,user,0
1450210774006157850,0.0,0.0,0.0,0.0,0.0,0.0,1.0,1450210774005794975,1,0.0,0.0,0.0,0.0,0.0,0.0,1,-0.0,0.0,0.0,0.0,0.0,-0.0,-0.0,0.0,0.0,0.0,0.0,-0.0,,0,Sharing Zero Relinquish,10.0,user,0
1450210774047082685,0.0,0.0,0.0,0.0,0.0,0.0,1.0,1450210774045795779,1,0.0,0.0,0.0,0.0,0.0,0.0,1,-0.0,0.0,0.0,0.0,0.0,-0.0,-0.0,0.0,0.0,0.0,0.0,-0.0,,0,Sharing Zero Relinquish,10.0,user,0
1450210774086363829,0.0,0.0,0.0,0.0,0.0,0.0,1.0,1450210774085767457,1,0.0,0.0,0.0,0.0,0.0,0.0,1,-0.0,0.0,0.0,0.0,0.0,-0.0,-0.0,0.0,0.0,0.0,0.0,-0.0,,0,Sharing Zero Relinquish,10.0,user,0
1450210774126965638,0.0,0.0,0.0,0.0,0.0,0.0,1.0,1450210774125781996,1,0.0,0.0,0.0,0.0,0.0,0.0,1,-0.0,0.0,0.0,0.0,0.0,-0.0,-0.0,0.0,0.0,0.0,0.0,-0.0,,0,Sharing Zero Relinquish,10.0,user,0
1450210774166843896,0.0,0.0,0.0,0.0,0.0,0.0,1.0,1450210774166200994,1,0.0,0.0,0.0,0.0,0.0,0.0,1,-0.0,0.0,0.0,0.0,0.0,-0.0,-0.0,0.0,0.0,0.0,0.0,-0.0,,0,Sharing Zero Relinquish,10.0,user,0
1450210774207891727,0.0,0.0,0.0,0.0,0.0,0.0,1.0,1450210774205814507,1,0.0,0.0,0.0,0.0,0.0,0.0,1,-0.0,0.0,0.0,0.0,0.0,-0.0,-0.0,0.0,0.0,0.0,0.0,-0.0,,0,Sharing Zero Relinquish,10.0,user,0
1450210774247575545,0.0,0.0,0.0,0.0,0.0,0.0,1.0,1450210774245784836,1,0.0,0.0,0.0,0.0,0.0,0.0,1,-0.0,0.0,0.0,0.0,0.0,-0.0,-0.0,0.0,0.0,0.0,0.0,-0.0,,0,Sharing Zero Relinquish,10.0,user,0
1450210774286581137,0.0,0.0,0.0,0.0,0.0,0.0,1.0,1450210774285774619,1,0.0,0.0,0.0,0.0,0.0,0.0,1,-0.0,0.0,0.0,0.0,0.0,-0.0,-0.0,0.0,0.0,0.0,0.0,-0.0,,0,Sharing Zero Relinquish,10.0,user,0
1450210774328156751,0.0,0.0,0.0,0.0,0.0,0.0,1.0,1450210774325915891,1,0.0,0.0,0.0,0.0,0.0,0.0,1,-0.0,0.0,0.0,0.0,0.0,-0.0,-0.0,0.0,0.0,0.0,0.0,-0.0,,0,Sharing Zero Relinquish,10.0,user,0
1450210774367904683,0.0,0.0,0.0,0.0,0.0,0.0,1.0,1450210774365785754,1,0.0,0.0,0.0,0.0,0.0,0.0,1,-0.0,0.0,0.0,0.0,0.0,-0.0,-0.0,0.0,0.0,0.0,0.0,-0.0,,0,Sharing Zero Relinquish,10.0,user,0
1450210774406256948,0.0,0.0,0.0,0.0,0.0,0.0,1.0,1450210774405787346,1,0.0,0.0,0.0,0.0,0.0,0.0,1,-0.0,0.0,0.0,0.0,0.0,-0.0,-0.0,0.0,0.0,0.0,0.0,-0.0,,0,Sharing Zero Relinquish,10.0,user,0
1450210774447892818,0.0,0.0,0.0,0.0,0.0,0.0,1.0,1450210774445786466,1,0.0,0.0,0.0,0.0,0.0,0.0,1,-0.0,0.0,0.0,0.0,0.0,-0.0,-0.0,0.0,0.0,0.0,0.0,-0.0,,0,Sharing Zero Relinquish,10.0,user,0
1450210774486368102,0.0,0.0,0.0,0.0,0.0,0.0,1.0,1450210774485771737,1,0.0,0.0,0.0,0.0,0.0,0.0,1,-0.0,0.0,0.0,0.0,0.0,-0.0,-0.0,0.0,0.0,0.0,0.0,-0.0,,0,Sharing Zero Relinquish,10.0,user,0
1450210774530975561,0.0,0.0,0.0,0.0,0.0,0.0,1.0,1450210774530011981,1,0.0,0.0,0.0,0.0,0.0,0.0,1,-0.0,0.0,0.0,0.0,0.0,-0.0,-0.0,0.0,0.0,0.0,0.0,-0.0,,0,Sharing Zero Relinquish,10.0,user,0
1450210774566752573,0.0,0.0,0.0,0.0,0.0,0.0,1.0,1450210774565796128,1,0.0,0.0,0.0,0.0,0.0,0.0,1,-0.0,0.0,0.0,0.0,0.0,-0.0,-0.0,0.0,0.0,0.0,0.0,-0.0,,0,Sharing Zero Relinquish,10.0,user,0
1450210774606460918,0.0,0.0,0.0,0.0,0.0,0.0,1.0,1450210774605809562,1,0.0,0.0,0.0,0.0,0.0,0.0,1,-0.0,0.0,0.0,0.0,0.0,-0.0,-0.0,0.0,0.0,0.0,0.0,-0.0,,0,Sharing Zero Relinquish,10.0,user,0
1450210774647863874,0.0,0.0,0.0,0.0,0.0,0.0,1.0,1450210774645802334,1,0.0,0.0,0.0,0.0,0.0,0.0,1,-0.0,0.0,0.0,0.0,0.0,-0.0,-0.0,0.0,0.0,0.0,0.0,-0.0,,0,Sharing Zero Relinquish,10.0,user,0
1450210774686593657,0.0,0.0,0.0,0.0,0.0,0.0,1.0,1450210774685786029,1,0.0,0.0,0.0,0.0,0.0,0.0,1,-0.0,0.0,0.0,0.0,0.0,-0.0,-0.0,0.0,0.0,0.0,0.0,-0.0,,0,Sharing Zero Relinquish,10.0,user,0
1450210774726201222,0.0,0.0,0.0,0.0,0.0,0.0,1.0,1450210774725778797,1,0.0,0.0,0.0,0.0,0.0,0.0,1,-0.0,0.0,0.0,0.0,0.0,-0.0,-0.0,0.0,0.0,0.0,0.0,-0.0,,0,Sharing Zero Relinquish,10.0,user,0
1450210774772364809,0.0,0.0,0.0,0.0,0.0,0.0,1.0,1450210774765783097,1,0.0,0.0,0.0,0.0,0.0,0.0,1,-0.0,0.0,0.0,0.0,0.0,-0.0,-0.0,0.0,0.0,0.0,0.0,-0.0,,0,Sharing Zero Relinquish,10.0,user,0
1450210774807879974,0.0,0.0,0.0,0.0,0.0,0.0,1.0,1450210774805798113,1,0.0,0.0,0.0,0.0,0.0,0.0,1,-0.0,0.0,0.0,0.0,0.0,-0.0,-0.0,0.0,0.0,0.0,0.0,-0.0,,0,Sharing Zero Relinquish,10.0,user,0
1450210774847782000,0.0,0.0,0.0,0.0,0.0,0.0,1.0,1450210774846605387,1,0.0,0.0,0.0,0.0,0.0,0.0,1,-0.0,0.0,0.0,0.0,0.0,-0.0,-0.0,0.0,0.0,0.0,0.0,-0.0,,0,Sharing Zero Relinquish,10.0,user,0
1450210774886573993,0.0,0.0,0.0,0.0,0.0,0.0,1.0,1450210774885780869,1,0.0,0.0,0.0,0.0,0.0,0.0,1,-0.0,0.0,0.0,0.0,0.0,-0.0,-0.0,0.0,0.0,0.0,0.0,-0.0,,0,Sharing Zero Relinquish,10.0,user,0
1450210774926078898,0.0,0.0,0.0,0.0,0.0,0.0,1.0,1450210774925772486,1,0.0,0.0,0.0,0.0,0.0,0.0,1,-0.0,0.0,0.0,0.0,0.0,-0.0,-0.0,0.0,0.0,0.0,0.0,-0.0,,0,Sharing Zero Relinquish,10.0,user,0
1450210774966299167,0.0,0.0,0.0,0.0,0.0,0.0,1.0,1450210774965790894,1,0.0,0.0,0.0,0.0,0.0,0.0,1,-0.0,0.0,0.0,0.0,0.0,-0.0,-0.0,0.0,0.0,0.0,0.0,-0.0,,0,Sharing Zero Relinquish,10.0,user,0
1450210775006822833,0.0,0.0,0.0,0.0,0.0,0.0,1.0,1450210775005804999,1,0.0,0.0,0.0,0.0,0.0,0.0,1,-0.0,0.0,0.0,0.0,0.0,-0.0,-0.0,0.0,0.0,0.0,0.0,-0.0,,0,Sharing Zero Relinquish,10.0,user,0
1450210775046806364,0.0,0.0,0.0,0.0,0.0,0.0,1.0,1450210775045793669,1,0.0,0.0,0.0,0.0,0.0,0.0,1,-0.0,0.0,0.0,0.0,0.0,-0.0,-0.0,0.0,0.0,0.0,0.0,-0.0,,0,Sharing Zero Relinquish,10.0,user,0
1450210775086032558,0.0,0.0,0.0,0.0,0.0,0.0,1.0,1450210775085768849,1,0.0,0.0,0.0,0.0,0.0,0.0,1,-0.0,0.0,0.0,0.0,0.0,-0.0,-0.0,0.0,0.0,0.0,0.0,-0.0,,0,Sharing Zero Relinquish,10.0,user,0
1450210775126528029,0.0,0.0,0.0,0.0,0.0,0.0,1.0,1450210775125893100,1,0.0,0.0,0.0,0.0,0.0,0.0,1,-0.0,0.0,0.0,0.0,0.0,-0.0,0.0,0.0,0.0,0.0,0.0,0.0,,3,Sharing Zero Relinquish,10.0,doorway_assistance,3
1450210775166690290,0.0,0.0,0.0,0.0,0.0,0.0,1.0,1450210775165792787,1,0.0,0.0,0.0,0.0,0.0,0.0,1,-0.0,0.0,0.0,0.0,0.0,-0.0,0.0,0.0,0.0,0.0,0.0,0.0,,3,Sharing Zero Relinquish,10.0,doorway_assistance,3
1450210775207156633,0.0,0.0,0.0,0.0,0.0,0.0,1.0,1450210775205845066,1,0.0,0.0,0.0,0.0,0.0,0.0,1,-0.0,0.0,0.0,0.0,0.0,-0.0,0.0,0.0,0.0,0.0,0.0,0.0,,3,Sharing Zero Relinquish,10.0,doorway_assistance,3
1450210775246595579,0.0,0.0,0.0,0.0,0.0,0.0,1.0,1450210775245846670,1,0.0,0.0,0.0,0.0,0.0,0.0,1,-0.0,0.0,0.0,0.0,0.0,-0.0,0.0,0.0,0.0,0.0,0.0,0.0,,3,Sharing Zero Relinquish,10.0,doorway_assistance,3
1450210775286584768,0.0,0.0,0.0,0.0,0.0,0.0,1.0,1450210775285863218,1,0.0,0.0,0.0,0.0,0.0,0.0,1,-0.0,0.0,0.0,0.0,0.0,-0.0,0.0,0.0,0.0,0.0,0.0,0.0,,3,Sharing Zero Relinquish,10.0,doorway_assistance,3
1450210775326625191,0.0,0.0,0.0,0.0,0.0,0.0,1.0,1450210775325789040,1,0.352,0.0,0.0,0.0,0.0,0.0,1,-0.0,0.0,0.0,0.0,0.0,-0.0,0.352,0.0,0.0,0.0,0.0,0.0,,3,Sharing Zero Relinquish,10.0,doorway_assistance,3
1450210775366636690,0.0,0.0,0.0,0.0,0.0,0.0,1.0,1450210775365821647,1,0.352,0.0,0.0,0.0,0.0,0.0,1,-0.0,0.0,0.0,0.0,0.0,-0.0,0.352,0.0,0.0,0.0,0.0,0.0,,3,Sharing Zero Relinquish,10.0,doorway_assistance,3
1450210775407351871,0.0,0.0,0.0,0.0,0.0,0.0,1.0,1450210775405834469,1,0.352,0.0,0.0,0.0,0.0,0.0,1,-0.0,0.0,0.0,0.0,0.0,-0.0,0.352,0.0,0.0,0.0,0.0,0.0,,3,Sharing Zero Relinquish,10.0,doorway_assistance,3
1450210775448844388,0.0,0.0,0.0,0.0,0.0,0.0,1.0,1450210775448314433,1,0.352,0.0,0.0,0.0,0.0,0.0,1,-0.0,0.0,0.0,0.0,0.0,-0.0,0.352,0.0,0.0,0.0,0.0,0.0,,3,Sharing Zero Relinquish,10.0,doorway_assistance,3
1450210775487153560,0.0,0.0,0.0,0.0,0.0,0.0,1.0,1450210775485854432,1,0.352,0.0,0.0,0.0,0.0,0.0,1,-0.0,0.0,0.0,0.0,0.0,-0.0,0.352,0.0,0.0,0.0,0.0,0.0,,3,Sharing Zero Relinquish,10.0,doorway_assistance,3
1450210775528494036,0.0,0.0,0.0,0.0,0.0,0.0,1.0,1450210775525809012,1,0.352,0.0,0.0,0.0,0.0,0.0,1,-0.0,0.0,0.0,0.0,0.0,-0.0,0.352,0.0,0.0,0.0,0.0,0.0,,3,Sharing Zero Relinquish,10.0,doorway_assistance,3
1450210775567275406,0.0,0.0,0.0,0.0,0.0,0.0,1.0,1450210775565794369,1,0.352,0.0,0.0,0.0,0.0,0.0,1,-0.0,0.0,0.0,0.0,0.0,-0.0,0.352,0.0,0.0,0.0,0.0,0.0,,3,Sharing Zero Relinquish,10.0,doorway_assistance,3
1450210775606271058,0.0,0.0,0.0,0.0,0.0,0.0,1.0,1450210775605779543,1,0.352,0.0,0.0,0.0,0.0,0.0,1,-0.0,0.0,0.0,0.0,0.0,-0.0,0.352,0.0,0.0,0.0,0.0,0.0,,3,Sharing Zero Relinquish,10.0,doorway_assistance,3
1450210775646640846,0.0,0.0,0.0,0.0,0.0,0.0,1.0,1450210775645813484,1,0.352,0.0,0.0,0.0,0.0,0.0,1,-0.0,0.0,0.0,0.0,0.0,-0.0,0.352,0.0,0.0,0.0,0.0,0.0,,3,Sharing Zero Relinquish,10.0,doorway_assistance,3
1450210775686421045,0.0,0.0,0.0,0.0,0.0,0.0,1.0,1450210775685818984,1,0.352,0.0,0.0,0.0,0.0,0.0,1,-0.0,0.0,0.0,0.0,0.0,-0.0,0.352,0.0,0.0,0.0,0.0,0.0,,3,Sharing Zero Relinquish,10.0,doorway_assistance,3
1450210775727659188,0.0,0.0,0.0,0.0,0.0,0.0,1.0,1450210775725878591,1,0.352,0.0,0.0,0.0,0.0,0.0,1,-0.0,0.0,0.0,0.0,0.0,-0.0,0.352,0.0,0.0,0.0,0.0,0.0,,3,Sharing Zero Relinquish,10.0,doorway_assistance,3
1450210775766278410,0.0,0.0,0.0,0.0,0.0,0.0,1.0,1450210775765808763,1,0.352,0.0,0.0,0.0,0.0,0.0,1,-0.0,0.0,0.0,0.0,0.0,-0.0,0.352,0.0,0.0,0.0,0.0,0.0,,3,Sharing Zero Relinquish,10.0,doorway_assistance,3
1450210775806283001,0.0,0.0,0.0,0.0,0.0,0.0,1.0,1450210775805793923,1,0.352,0.0,0.0,0.0,0.0,0.0,1,-0.0,0.0,0.0,0.0,0.0,-0.0,0.352,0.0,0.0,0.0,0.0,0.0,,3,Sharing Zero Relinquish,10.0,doorway_assistance,3
1450210775846842656,0.0,0.0,0.0,0.0,0.0,0.0,1.0,1450210775845813653,1,0.352,0.0,0.0,0.0,0.0,0.0,1,-0.0,0.0,0.0,0.0,0.0,-0.0,0.352,0.0,0.0,0.0,0.0,0.0,,3,Sharing Zero Relinquish,10.0,doorway_assistance,3
1450210775886508089,0.0,0.0,0.0,0.0,0.0,0.0,1.0,1450210775885786161,1,0.352,0.0,0.0,0.0,0.0,0.0,1,-0.0,0.0,0.0,0.0,0.0,-0.0,0.352,0.0,0.0,0.0,0.0,0.0,,3,Sharing Zero Relinquish,10.0,doorway_assistance,3
1450210775926189693,0.0,0.0,0.0,0.0,0.0,0.0,1.0,1450210775925785962,1,0.352,0.0,0.0,0.0,0.0,0.0,1,-0.0,0.0,0.0,0.0,0.0,-0.0,0.352,0.0,0.0,0.0,0.0,0.0,,3,Sharing Zero Relinquish,10.0,doorway_assistance,3
1450210775966411250,0.0,0.0,0.0,0.0,0.0,0.0,1.0,1450210775965830858,1,0.352,0.0,0.0,0.0,0.0,0.0,1,-0.0,0.0,0.0,0.0,0.0,-0.0,0.352,0.0,0.0,0.0,0.0,0.0,,3,Sharing Zero Relinquish,10.0,doorway_assistance,3
1450210776006869002,0.0,0.0,0.0,0.0,0.0,0.0,1.0,1450210776005847268,1,0.352,0.0,0.0,0.0,0.0,0.0,1,-0.0,0.0,0.0,0.0,0.0,-0.0,0.352,0.0,0.0,0.0,0.0,0.0,,3,Sharing Zero Relinquish,10.0,doorway_assistance,3
1450210776046992026,0.0,0.0,0.0,0.0,0.0,0.0,1.0,1450210776045810639,1,0.352,0.0,0.0,0.0,0.0,0.0,1,-0.0,0.0,0.0,0.0,0.0,-0.0,0.352,0.0,0.0,0.0,0.0,0.0,,3,Sharing Zero Relinquish,10.0,doorway_assistance,3
1450210776086000188,0.0,0.0,0.0,0.0,0.0,0.0,1.0,1450210776085788972,1,0.352,0.0,0.0,0.0,0.0,0.0,1,-0.0,0.0,0.0,0.0,0.0,-0.0,0.352,0.0,0.0,0.0,0.0,0.0,,3,Sharing Zero Relinquish,10.0,doorway_assistance,3
1450210776126266055,0.0,0.0,0.0,0.0,0.0,0.0,1.0,1450210776125829477,1,0.352,0.0,0.0,0.0,0.0,0.0,1,-0.0,0.0,0.0,0.0,0.0,-0.0,0.352,0.0,0.0,0.0,0.0,0.0,,3,Sharing Zero Relinquish,10.0,doorway_assistance,3
1450210776167354234,0.0,0.0,0.0,0.0,0.0,0.0,1.0,1450210776165793888,1,0.352,0.0,0.0,0.0,0.0,0.0,1,-0.0,0.0,0.0,0.0,0.0,-0.0,0.352,0.0,0.0,0.0,0.0,0.0,,3,Sharing Zero Relinquish,10.0,doorway_assistance,3
1450210776206776029,0.0,0.0,0.0,0.0,0.0,0.0,1.0,1450210776205806749,1,0.352,0.0,0.0,0.0,0.0,0.0,1,-0.0,0.0,0.0,0.0,0.0,-0.0,0.352,0.0,0.0,0.0,0.0,0.0,,3,Sharing Zero Relinquish,10.0,doorway_assistance,3
1450210776247036895,0.0,0.0,0.0,0.0,0.0,0.0,1.0,1450210776245809193,1,0.352,0.0,0.0,0.0,0.0,0.0,1,-0.0,0.0,0.0,0.0,0.0,-0.0,0.352,0.0,0.0,0.0,0.0,0.0,,3,Sharing Zero Relinquish,10.0,doorway_assistance,3
1450210776286475097,0.0,0.0,0.0,0.0,0.0,0.0,1.0,1450210776285804544,1,0.352,0.0,0.0,0.0,0.0,0.0,1,-0.0,0.0,0.0,0.0,0.0,-0.0,0.352,0.0,0.0,0.0,0.0,0.0,,3,Sharing Zero Relinquish,10.0,doorway_assistance,3
1450210776328060421,0.00575958653158,0.0,0.0,0.0,0.0,0.0,1.0,1450210776325790393,1,0.352,0.0,0.0,0.0,0.0,0.0,1,-0.0,0.0,0.0,0.0,0.0,-0.0,0.352,0.0,0.0,0.0,0.0,0.0,,3,Sharing Zero Relinquish,10.0,doorway_assistance,3
1450210776366679196,0.00575958653158,0.0,0.0,0.0,0.0,0.0,1.0,1450210776365972831,1,0.352,0.0,0.0,0.0,0.0,0.0,1,-0.0,0.0,0.0,0.0,0.0,-0.0,0.352,0.0,0.0,0.0,0.0,0.0,,3,Sharing Zero Relinquish,10.0,doorway_assistance,3
1450210776407986493,0.00863921898595,3.04332289367e-05,0.0,0.0,0.0,0.0052839997518,0.999986039576,1450210776407258950,1,0.352,0.0,0.0,0.0,0.0,0.0,1,-0.0,0.0,0.0,0.0,0.0,-0.0,0.352,0.0,0.0,0.0,0.0,0.0,,3,Sharing Zero Relinquish,10.0,doorway_assistance,3
1450210776448294858,0.0115190122517,3.04332289367e-05,0.0,0.0,0.0,0.0,1.0,1450210776445845794,1,0.352,0.0,0.0,0.0,0.0,0.0,1,-0.0,0.0,0.0,0.0,0.0,-0.0,0.352,0.0,0.0,0.0,0.0,0.0,,3,Sharing Zero Relinquish,10.0,doorway_assistance,3
1450210776486236724,0.0115190122517,3.04332289367e-05,0.0,0.0,0.0,0.0,1.0,1450210776485806602,1,0.352,0.0,0.0,0.0,0.0,0.0,1,-0.0,0.0,0.0,0.0,0.0,-0.0,0.352,0.0,0.0,0.0,0.0,0.0,,3,Sharing Zero Relinquish,10.0,doorway_assistance,3
1450210776526638355,0.0172785987833,3.04332289367e-05,0.0,0.0,0.0,0.0,1.0,1450210776525858057,1,0.352,0.0,0.0,0.0,0.0,0.0,1,-0.0,0.0,0.0,0.0,0.0,-0.0,0.352,0.0,0.0,0.0,0.0,0.0,,3,Sharing Zero Relinquish,10.0,doorway_assistance,3
1450210776566528226,0.0201582312377,6.08664578733e-05,0.0,0.0,0.0,0.0052839997518,0.999986039576,1450210776565823222,1,0.352,0.0,0.0,0.0,0.0,0.0,1,-0.0,0.0,0.0,0.0,0.0,-0.0,0.352,0.0,0.0,0.0,0.0,0.0,,3,Sharing Zero Relinquish,10.0,doorway_assistance,3
1450210776607566621,0.0230380245035,6.08664578733e-05,0.0,0.0,0.0,0.0,1.0,1450210776606246353,1,0.352,0.0,0.0,0.0,0.0,0.0,1,-0.0,0.0,0.0,0.0,0.0,-0.0,0.352,0.0,0.0,0.0,0.0,0.0,,3,Sharing Zero Relinquish,10.0,doorway_assistance,3
1450210776646020845,0.0287976110351,6.08664578733e-05,0.0,0.0,0.0,0.0,1.0,1450210776645790039,1,0.352,0.0,0.0,0.0,0.0,0.0,1,-0.0,0.0,0.0,0.0,0.0,-0.0,0.352,0.0,0.0,0.0,0.0,0.0,,3,Sharing Zero Relinquish,10.0,doorway_assistance,3
1450210776687489449,0.0345571975666,6.08664578733e-05,0.0,0.0,0.0,0.0,1.0,1450210776686545223,1,0.352,0.0,0.0,0.0,0.0,0.0,1,-0.0,0.0,0.0,0.0,0.0,-0.0,0.352,0.0,0.0,0.0,0.0,0.0,,3,Sharing Zero Relinquish,10.0,doorway_assistance,3
1450210776727148592,0.037436830021,9.129968681e-05,0.0,0.0,0.0,0.0052839997518,0.999986039576,1450210776725819363,1,0.352,0.0,0.0,0.0,0.0,0.0,1,-0.0,0.0,0.0,0.0,0.0,-0.0,0.352,0.0,0.0,0.0,0.0,0.0,,3,Sharing Zero Relinquish,10.0,doorway_assistance,3
1450210776766617397,0.0431960949298,0.000152166144683,0.0,0.0,0.0,0.0052839997518,0.999986039576,1450210776765805181,1,0.352,0.0,0.0,0.0,0.0,0.0,1,-0.0,0.0,0.0,0.0,0.0,-0.0,0.352,0.0,0.0,0.0,0.0,0.0,,3,Sharing Zero Relinquish,10.0,doorway_assistance,3
1450210776806029149,0.0489553598385,0.000213032602557,0.0,0.0,0.0,0.0052839997518,0.999986039576,1450210776805777096,1,0.352,0.0,0.0,0.0,0.0,0.0,1,-0.0,0.0,0.0,0.0,0.0,-0.0,0.352,0.0,0.0,0.0,0.0,0.0,,3,Sharing Zero Relinquish,10.0,doorway_assistance,3
1450210776846882964,0.0518351531043,0.000213032602557,0.0,0.0,0.0,0.0,1.0,1450210776846077654,1,0.352,0.0,0.0,0.0,0.0,0.0,1,-0.0,0.0,0.0,0.0,0.0,-0.0,0.352,0.0,0.0,0.0,0.0,0.0,,3,Sharing Zero Relinquish,10.0,doorway_assistance,3
1450210776888232887,0.0604740504674,0.000304332289367,0.0,0.0,0.0,0.0052839997518,0.999986039576,1450210776885924944,1,0.352,0.0,0.0,0.0,0.0,0.0,1,-0.0,0.0,0.0,0.0,0.0,-0.0,0.352,0.0,0.0,0.0,0.0,0.0,,3,Sharing Zero Relinquish,10.0,doorway_assistance,3
1450210776927301965,0.0662333153762,0.00036519874724,0.0,0.0,0.0,0.0052839997518,0.999986039576,1450210776925843607,1,0.352,0.0,0.0,0.0,0.0,0.0,1,-0.0,0.0,0.0,0.0,0.0,-0.0,0.352,0.0,0.0,0.0,0.0,0.0,,3,Sharing Zero Relinquish,10.0,doorway_assistance,3
1450210776968203660,0.0719925802849,0.000426065205113,0.0,0.0,0.0,0.0052839997518,0.999986039576,1450210776967722353,1,0.352,0.0,0.0,0.0,0.0,0.0,1,-0.0,0.0,0.0,0.0,0.0,-0.0,0.352,0.0,0.0,0.0,0.0,0.0,,3,Sharing Zero Relinquish,10.0,doorway_assistance,3
1450210777007517730,0.0777518451936,0.000486931662986,0.0,0.0,0.0,0.0052839997518,0.999986039576,1450210777005839264,1,0.352,0.0,0.0,0.0,0.0,0.0,1,-0.0,0.0,0.0,0.0,0.0,-0.0,0.352,0.0,0.0,0.0,0.0,0.0,,3,Sharing Zero Relinquish,10.0,doorway_assistance,3
1450210777047425914,0.0892703750111,0.000608664578733,0.0,0.0,0.0,0.0052839997518,0.999986039576,1450210777045832334,1,0.352,0.0,0.0,0.0,0.0,0.0,1,-0.0,0.0,0.0,0.0,0.0,-0.0,0.352,0.0,0.0,0.0,0.0,0.0,,3,Sharing Zero Relinquish,10.0,doorway_assistance,3
1450210777086664500,0.0950296399199,0.000669531036606,0.0,0.0,0.0,0.0052839997518,0.999986039576,1450210777085810155,1,0.352,0.0,0.0,0.0,0.0,0.0,1,-0.0,0.0,0.0,0.0,0.0,-0.0,0.352,0.0,0.0,0.0,0.0,0.0,,3,Sharing Zero Relinquish,10.0,doorway_assistance,3
1450210777126176717,0.103667090034,0.000852120213639,0.0,0.0,0.0,0.0105678519699,0.999944158693,1450210777125812940,1,0.352,0.0,0.0,0.0,0.0,0.0,1,-0.0,0.0,0.0,0.0,0.0,-0.0,0.352,0.0,0.0,0.0,0.0,0.0,,3,Sharing Zero Relinquish,10.0,doorway_assistance,3
1450210777167240631,0.115183690186,0.00109557244968,0.0,0.0,0.0,0.0105678519699,0.999944158693,1450210777165818143,1,0.352,0.0,0.0,0.0,0.0,0.0,1,-0.0,0.0,0.0,0.0,0.0,-0.0,0.352,0.0,0.0,0.0,0.0,0.0,,3,Sharing Zero Relinquish,10.0,doorway_assistance,3
1450210777207939462,0.120941990263,0.0012172985677,0.0,0.0,0.0,0.0105678519699,0.999944158693,1450210777205849820,1,0.352,0.0,0.0,0.0,0.0,0.0,1,-0.0,0.0,0.0,0.0,0.0,-0.0,0.352,0.0,0.0,0.0,0.0,0.0,,3,Sharing Zero Relinquish,10.0,doorway_assistance,3
1450210777246761642,0.129577028475,0.00149115684292,0.0,0.0,0.0,0.0158514091245,0.999874358521,1450210777245806412,1,0.352,0.0,0.0,0.0,0.0,0.0,1,-0.0,0.0,0.0,0.0,0.0,-0.0,0.352,0.0,0.0,0.0,0.0,0.0,,3,Sharing Zero Relinquish,10.0,doorway_assistance,3
1450210777286168370,0.135333720616,0.0016737290264,0.0,0.0,0.0,0.0158514091245,0.999874358521,1450210777285827526,1,0.352,0.0,0.0,0.0,0.0,0.0,1,-0.0,0.0,0.0,0.0,0.0,-0.0,0.352,0.0,0.0,0.0,0.0,0.0,,3,Sharing Zero Relinquish,10.0,doorway_assistance,3
1450210777326743592,0.1468471049,0.00203887339336,0.0,0.0,0.0,0.0158514091245,0.999874358521,1450210777325780101,1,0.352,0.0,0.0,0.0,0.0,0.0,1,-0.0,0.0,0.0,0.0,0.0,-0.0,0.352,0.0,0.0,0.0,0.0,0.0,,3,Sharing Zero Relinquish,10.0,doorway_assistance,3
1450210777367663716,0.155478766826,0.00240397018155,0.0,0.0,0.0,0.0211345236944,0.999776641009,1450210777365831812,1,0.352,0.0,0.0,0.0,0.0,0.0,1,-0.0,0.0,0.0,0.0,0.0,-0.0,0.352,0.0,0.0,0.0,0.0,0.0,,3,Sharing Zero Relinquish,10.0,doorway_assistance,3
1450210777407635915,0.166987649395,0.00289076589915,0.0,0.0,0.0,0.0211345236944,0.999776641009,1450210777405839168,1,0.352,0.0,0.0,0.0,0.0,-0.0210526315789,1,-0.0,0.0,0.0,0.0,0.0,-0.0,0.352,0.0,0.0,0.0,0.0,-0.0210526315789,,3,Sharing Zero Relinquish,10.0,doorway_assistance,3
1450210777447480737,0.17274209068,0.00313416375795,0.0,0.0,0.0,0.0211345236944,0.999776641009,1450210777445837911,1,0.352,0.0,0.0,0.0,0.0,-0.0210526315789,1,-0.0,0.0,0.0,0.0,0.0,-0.0,0.352,0.0,0.0,0.0,0.0,-0.0210526315789,,3,Sharing Zero Relinquish,10.0,doorway_assistance,3
1450210777486654248,0.184250973249,0.00362095947554,0.0,0.0,0.0,0.0211345236944,0.999776641009,1450210777485862711,1,0.352,0.0,0.0,0.0,0.0,-0.0210526315789,1,-0.0,0.0,0.0,0.0,0.0,-0.0,0.352,0.0,0.0,0.0,0.0,-0.0210526315789,,3,Sharing Zero Relinquish,10.0,doorway_assistance,3
1450210777526341932,0.192878294884,0.00407725400175,0.0,0.0,0.0,0.0264170481704,0.999651008886,1450210777525817873,1,0.352,0.0,0.0,0.0,0.0,-0.0210526315789,1,-0.0,0.0,0.0,0.0,0.0,-0.0,0.352,0.0,0.0,0.0,0.0,-0.0210526315789,,3,Sharing Zero Relinquish,10.0,doorway_assistance,3
1450210777567707811,0.204381390397,0.00468564670336,0.0,0.0,0.0,0.0264170481704,0.999651008886,1450210777565819917,1,0.352,0.0,0.0,0.0,0.0,-0.0210526315789,1,-0.0,0.0,0.0,0.0,0.0,-0.0,0.352,0.0,0.0,0.0,0.0,-0.0210526315789,,3,Sharing Zero Relinquish,10.0,doorway_assistance,3
1450210777606704227,0.213003408217,0.00523308800742,0.0,0.0,0.0,0.0316988350601,0.999497465658,1450210777605827117,1,0.352,0.0,0.0,0.0,0.0,-0.0210526315789,1,-0.0,0.0,0.0,0.0,0.0,-0.0,0.352,0.0,0.0,0.0,0.0,-0.0210526315789,,3,Sharing Zero Relinquish,10.0,doorway_assistance,3
1450210777647226413,0.224499431978,0.00596300974617,0.0,0.0,0.0,0.0316988350601,0.999497465658,1450210777645833709,1,0.352,0.0,0.0,0.0,0.0,-0.0210526315789,1,-0.0,0.0,0.0,0.0,0.0,-0.0,0.352,0.0,0.0,0.0,0.0,-0.0210526315789,,3,Sharing Zero Relinquish,10.0,doorway_assistance,3
1450210777686903307,0.235995455739,0.00669293148492,0.0,0.0,0.0,0.0316988350601,0.999497465658,1450210777685836700,1,0.352,0.0,0.0,0.0,0.0,-0.0210526315789,1,-0.0,0.0,0.0,0.0,0.0,-0.0,0.352,0.0,0.0,0.0,0.0,-0.0210526315789,,3,Sharing Zero Relinquish,10.0,doorway_assistance,3
1450210777727034631,0.24174346762,0.00705789235429,0.0,0.0,0.0,0.0316988350601,0.999497465658,1450210777725806106,1,0.352,0.0,0.0,0.0,0.0,-0.0210526315789,1,-0.0,0.0,0.0,0.0,0.0,-0.0,0.352,0.0,0.0,0.0,0.0,-0.0210526315789,,3,Sharing Zero Relinquish,10.0,doorway_assistance,3
1450210777766842456,0.253239491381,0.00778781409304,0.0,0.0,0.0,0.0316988350601,0.999497465658,1450210777765810666,1,0.352,0.0,0.0,0.0,0.0,-0.0210526315789,1,-0.0,0.0,0.0,0.0,0.0,-0.0,0.352,0.0,0.0,0.0,0.0,-0.0210526315789,,3,Sharing Zero Relinquish,10.0,doorway_assistance,3
1450210777808606149,0.26759907651,0.00885202566343,0.0,0.0,0.0,0.0369797368913,0.999316015612,1450210777807695916,1,0.352,0.0,0.0,0.0,0.0,-0.0210526315789,1,-0.0,0.0,0.0,0.0,0.0,-0.0,0.352,0.0,0.0,0.0,0.0,-0.0210526315789,,3,Sharing Zero Relinquish,10.0,doorway_assistance,3
1450210777848778845,0.279086744613,0.00970339491974,0.0,0.0,0.0,0.0369797368913,0.999316015612,1450210777845808326,1,0.352,0.0,0.0,0.0,0.0,-0.0210526315789,1,-0.0,0.0,0.0,0.0,0.0,-0.0,0.352,0.0,0.0,0.0,0.0,-0.0210526315789,,3,Sharing Zero Relinquish,10.0,doorway_assistance,3
1450210777887317913,0.290574412716,0.010554764176,0.0,0.0,0.0,0.0369797368913,0.999316015612,1450210777887122791,1,0.352,0.0,0.0,0.0,0.0,-0.0210526315789,1,-0.0,0.0,0.0,0.0,0.0,-0.0,0.352,0.0,0.0,0.0,0.0,-0.0210526315789,,3,Sharing Zero Relinquish,10.0,doorway_assistance,3
1450210777926358029,0.296318246768,0.0109804488042,0.0,0.0,0.0,0.0369797368913,0.999316015612,1450210777925809814,1,0.352,0.0,0.0,0.0,0.0,-0.0210526315789,1,-0.0,0.0,0.0,0.0,0.0,-0.0,0.352,0.0,0.0,0.0,0.0,-0.0210526315789,,3,Sharing Zero Relinquish,10.0,doorway_assistance,3
1450210777966876759,0.307805914871,0.0118318180605,0.0,0.0,0.0,0.0369797368913,0.999316015612,1450210777965836484,1,0.352,0.0,0.0,0.0,0.0,-0.0210526315789,1,-0.0,0.0,0.0,0.0,0.0,-0.0,0.352,0.0,0.0,0.0,0.0,-0.0210526315789,,3,Sharing Zero Relinquish,10.0,doorway_assistance,3
1450210778007896705,0.319309010384,0.0124402107621,0.0,0.0,0.0,0.0264170481704,0.999651008886,1450210778005821839,1,0.352,0.0,0.0,0.0,0.0,-0.0210526315789,1,-0.0,0.0,0.0,0.0,0.0,-0.0,0.352,0.0,0.0,0.0,0.0,-0.0210526315789,,3,Sharing Zero Relinquish,10.0,doorway_assistance,3
1450210778047986254,0.32506055814,0.0127444071129,0.0,0.0,0.0,0.0264170481704,0.999651008886,1450210778045840883,1,0.352,0.0,0.0,0.0,0.0,-0.0210526315789,1,-0.0,0.0,0.0,0.0,0.0,-0.0,0.352,0.0,0.0,0.0,0.0,-0.0210526315789,,3,Sharing Zero Relinquish,10.0,doorway_assistance,3
1450210778086579275,0.336563653653,0.0133527998145,0.0,0.0,0.0,0.0264170481704,0.999651008886,1450210778085866089,1,0.352,0.0,0.0,0.0,0.0,-0.0210526315789,1,-0.0,0.0,0.0,0.0,0.0,-0.0,0.352,0.0,0.0,0.0,0.0,-0.0210526315789,,3,Sharing Zero Relinquish,10.0,doorway_assistance,3
1450210778126278758,0.348077037936,0.0137179441815,0.0,0.0,0.0,0.0158514091245,0.999874358521,1450210778125789758,1,0.352,0.0,0.0,0.0,0.0,-0.0210526315789,1,-0.0,0.0,0.0,0.0,0.0,-0.0,0.352,0.0,0.0,0.0,0.0,-0.0210526315789,,3,Sharing Zero Relinquish,10.0,doorway_assistance,3
1450210778166391828,0.356708699863,0.0140830409697,0.0,0.0,0.0,0.0211345236944,0.999776641009,1450210778165823618,1,0.352,0.0,0.0,0.0,0.0,-0.0210526315789,1,-0.0,0.0,0.0,0.0,0.0,-0.0,0.352,0.0,0.0,0.0,0.0,-0.0210526315789,,3,Sharing Zero Relinquish,10.0,doorway_assistance,3
1450210778206050601,0.368225300016,0.0143264932057,0.0,0.0,0.0,0.0105678519699,0.999944158693,1450210778205784438,1,0.352,0.0,0.0,0.0,0.0,-0.0210526315789,1,-0.0,0.0,0.0,0.0,0.0,-0.0,0.352,0.0,0.0,0.0,0.0,-0.0210526315789,,3,Sharing Zero Relinquish,10.0,doorway_assistance,3
1450210778246625527,0.379741900168,0.0145699454418,0.0,0.0,0.0,0.0105678519699,0.999944158693,1450210778245847318,1,0.352,0.0,0.0,0.0,0.0,-0.0210526315789,1,-0.0,0.0,0.0,0.0,0.0,-0.0,0.352,0.0,0.0,0.0,0.0,-0.0210526315789,,3,Sharing Zero Relinquish,10.0,doorway_assistance,3
1450210778286546529,0.388380797531,0.0146612451286,0.0,0.0,0.0,0.0052839997518,0.999986039576,1450210778285842429,1,0.352,0.0,0.0,0.0,0.0,-0.0210526315789,1,-0.0,0.0,0.0,0.0,0.0,-0.0,0.352,0.0,0.0,0.0,0.0,-0.0210526315789,,3,Sharing Zero Relinquish,10.0,doorway_assistance,3
1450210778327099732,0.397020177328,0.0146612451286,0.0,0.0,0.0,0.0,1.0,1450210778325830819,1,0.352,0.0,0.0,0.0,0.0,-0.0210526315789,1,-0.0,0.0,0.0,0.0,0.0,-0.0,0.352,0.0,0.0,0.0,0.0,-0.0210526315789,,3,Sharing Zero Relinquish,10.0,doorway_assistance,3
1450210778367860597,0.4114183396,0.0145090789839,0.0,0.0,0.0,-0.0052839997518,0.999986039576,1450210778367642487,1,0.352,0.0,0.0,0.0,0.0,-0.0210526315789,1,-0.0,0.0,0.0,0.0,0.0,-0.0,0.352,0.0,0.0,0.0,0.0,-0.0210526315789,,3,Sharing Zero Relinquish,10.0,doorway_assistance,3
1450210778407293731,0.417177604509,0.014448212526,0.0,0.0,0.0,-0.0052839997518,0.999986039576,1450210778406680005,1,0.352,0.0,0.0,0.0,0.0,-0.0210526315789,1,-0.0,0.0,0.0,0.0,0.0,-0.0,0.352,0.0,0.0,0.0,0.0,-0.0210526315789,,3,Sharing Zero Relinquish,10.0,doorway_assistance,3
1450210778451354913,0.431573354699,0.014143897231,0.0,0.0,0.0,-0.0105678519699,0.999944158693,1450210778445867334,1,0.352,0.0,0.0,0.0,0.0,-0.0210526315789,1,-0.0,0.0,0.0,0.0,0.0,-0.0,0.352,0.0,0.0,0.0,0.0,-0.0210526315789,,3,Sharing Zero Relinquish,10.0,doorway_assistance,3
1450210778486991214,0.445965085053,0.0136874667723,0.0,0.0,0.0,-0.0158514091245,0.999874358521,1450210778485839691,1,0.352,0.0,0.0,0.0,0.0,-0.0210526315789,1,-0.0,0.0,0.0,0.0,0.0,-0.0,0.352,0.0,0.0,0.0,0.0,-0.0210526315789,,3,Sharing Zero Relinquish,10.0,doorway_assistance,3
1450210778526928551,0.451721777195,0.0135048945888,0.0,0.0,0.0,-0.0158514091245,0.999874358521,1450210778525799424,1,0.352,0.0,0.0,0.0,0.0,0.0,1,-0.0,0.0,0.0,0.0,0.0,-0.0,0.352,0.0,0.0,0.0,0.0,0.0,,3,Sharing Zero Relinquish,10.0,doorway_assistance,3
1450210778566528876,0.466107880406,0.0128963999418,0.0,0.0,0.0,-0.0211345236944,0.999776641009,1450210778565836039,1,0.352,0.0,0.0,0.0,0.0,0.0,1,-0.0,0.0,0.0,0.0,0.0,-0.0,0.352,0.0,0.0,0.0,0.0,0.0,,3,Sharing Zero Relinquish,10.0,doorway_assistance,3
1450210778607640004,0.477616762975,0.0124096042242,0.0,0.0,0.0,-0.0211345236944,0.999776641009,1450210778605845391,1,0.352,0.0,0.0,0.0,0.0,0.0210526315789,1,-0.0,0.0,0.0,0.0,0.0,-0.0,0.352,0.0,0.0,0.0,0.0,0.0210526315789,,3,Sharing Zero Relinquish,10.0,doorway_assistance,3
1450210778647297899,0.48624408461,0.011953309698,0.0,0.0,0.0,-0.0264170481704,0.999651008886,1450210778645850445,1,0.352,0.0,0.0,0.0,0.0,0.0210526315789,1,-0.0,0.0,0.0,0.0,0.0,-0.0,0.352,0.0,0.0,0.0,0.0,0.0210526315789,,3,Sharing Zero Relinquish,10.0,doorway_assistance,3
1450210778686786725,0.500614114311,0.0110409075246,0.0,0.0,0.0,-0.0316988350601,0.999497465658,1450210778685794995,1,0.352,0.0,0.0,0.0,0.0,0.0210526315789,1,-0.0,0.0,0.0,0.0,0.0,-0.0,0.352,0.0,0.0,0.0,0.0,0.0210526315789,,3,Sharing Zero Relinquish,10.0,doorway_assistance,3
1450210778726956515,0.512110138072,0.0103109857858,0.0,0.0,0.0,-0.0316988350601,0.999497465658,1450210778725889737,1,0.352,0.0,0.0,0.0,0.0,0.0210526315789,1,-0.0,0.0,0.0,0.0,0.0,-0.0,0.352,0.0,0.0,0.0,0.0,0.0210526315789,,3,Sharing Zero Relinquish,10.0,doorway_assistance,3
1450210778766660113,0.52072588915,0.0096724588436,0.0,0.0,0.0,-0.0369797368913,0.999316015612,1450210778765815984,1,0.352,0.0,0.0,0.0,0.0,0.0631578947368,1,-0.0,0.0,0.0,0.0,0.0,-0.0,0.352,0.0,0.0,0.0,0.0,0.0631578947368,,3,Sharing Zero Relinquish,10.0,doorway_assistance,3
1450210778807413366,0.532213557253,0.00882108958729,0.0,0.0,0.0,-0.0369797368913,0.999316015612,1450210778805837498,1,0.352,0.0,0.0,0.0,0.0,0.0631578947368,1,-0.0,0.0,0.0,0.0,0.0,-0.0,0.352,0.0,0.0,0.0,0.0,0.0631578947368,,3,Sharing Zero Relinquish,10.0,doorway_assistance,3
1450210778846778697,0.540822079357,0.00809154831924,0.0,0.0,0.0,-0.042259606217,0.999106663816,1450210778845785717,1,0.352,0.0,0.0,0.0,0.0,0.0631578947368,1,-0.0,0.0,0.0,0.0,0.0,-0.0,0.352,0.0,0.0,0.0,0.0,0.0631578947368,,3,Sharing Zero Relinquish,10.0,doorway_assistance,3
1450210778886271961,0.55230010883,0.00711882662851,0.0,0.0,0.0,-0.042259606217,0.999106663816,1450210778885816846,1,0.352,0.0,0.0,0.0,0.0,0.0631578947368,1,-0.0,0.0,0.0,0.0,0.0,-0.0,0.352,0.0,0.0,0.0,0.0,0.0631578947368,,3,Sharing Zero Relinquish,10.0,doorway_assistance,3
1450210778926634650,0.560900440539,0.00629835251172,0.0,0.0,0.0,-0.0475382956186,0.998869416115,1450210778925813453,1,0.3056,0.0,0.0,0.0,0.0,0.0631578947368,1,-0.0,0.0,0.0,0.0,0.0,-0.0,0.3056,0.0,0.0,0.0,0.0,0.0631578947368,,3,Sharing Zero Relinquish,10.0,doorway_assistance,3
1450210778967975592,0.575219075216,0.00477949362366,0.0,0.0,0.0,-0.0528156577107,0.998604279132,1450210778965806475,1,0.3056,0.0,0.0,0.0,0.0,0.0631578947368,1,-0.0,0.0,0.0,0.0,0.0,-0.0,0.3056,0.0,0.0,0.0,0.0,0.0631578947368,,3,Sharing Zero Relinquish,10.0,doorway_assistance,3
1450210779006263190,0.580946529087,0.00417195006843,0.0,0.0,0.0,-0.0528156577107,0.998604279132,1450210779005800825,1,0.352,0.0,0.0,0.0,0.0,0.0631578947368,1,-0.0,0.0,0.0,0.0,0.0,-0.0,0.352,0.0,0.0,0.0,0.0,0.0631578947368,,3,Sharing Zero Relinquish,10.0,doorway_assistance,3
1450210779046601234,0.592401436829,0.00295686295799,0.0,0.0,0.0,-0.0528156577107,0.998604279132,1450210779045810473,1,0.352,0.0,0.0,0.0,0.0,0.0631578947368,1,-0.0,0.0,0.0,0.0,0.0,-0.0,0.352,0.0,0.0,0.0,0.0,0.0631578947368,,3,Sharing Zero Relinquish,10.0,doorway_assistance,3
1450210779086417752,0.606703220859,0.00128677167331,0.0,0.0,0.0,-0.0580915451448,0.99831126027,1450210779085830999,1,0.352,0.0,0.0,0.0,0.0,0.0631578947368,1,-0.0,0.0,0.0,0.0,0.0,-0.0,0.352,0.0,0.0,0.0,0.0,0.0631578947368,,3,Sharing Zero Relinquish,10.0,doorway_assistance,3
1450210779126768283,0.618144648083,-4.93013544302e-05,0.0,0.0,0.0,-0.0580915451448,0.99831126027,1450210779125830611,1,0.352,0.0,0.0,0.0,0.0,0.0631578947368,1,-0.0,0.0,0.0,0.0,0.0,-0.0,0.352,0.0,0.0,0.0,0.0,0.0631578947368,,3,Sharing Zero Relinquish,10.0,doorway_assistance,3
1450210779168163465,0.626714649756,-0.00114198365111,0.0,0.0,0.0,-0.0633658106137,0.997990367712,1450210779165795253,1,0.352,0.0,0.0,0.0,0.0,0.105263157895,1,-0.0,0.0,0.0,0.0,0.0,-0.0,0.352,0.0,0.0,0.0,0.0,0.105263157895,,3,Sharing Zero Relinquish,10.0,doorway_assistance,3
1450210779207259867,0.638141318654,-0.00259889338001,0.0,0.0,0.0,-0.0633658106137,0.997990367712,1450210779205834478,1,0.352,0.0,0.0,0.0,0.0,0.105263157895,1,-0.0,0.0,0.0,0.0,0.0,-0.0,0.352,0.0,0.0,0.0,0.0,0.105263157895,,3,Sharing Zero Relinquish,10.0,doorway_assistance,3
1450210779247328035,0.649567987552,-0.00405580310892,0.0,0.0,0.0,-0.0633658106137,0.997990367712,1450210779245860983,1,0.352,0.0,0.0,0.0,0.0,0.105263157895,1,-0.0,0.0,0.0,0.0,0.0,-0.0,0.352,0.0,0.0,0.0,0.0,0.105263157895,,3,Sharing Zero Relinquish,10.0,doorway_assistance,3
1450210779286745001,0.655281322001,-0.00478425797337,0.0,0.0,0.0,-0.0633658106137,0.997990367712,1450210779285804450,1,0.352,0.0,0.0,0.0,0.0,0.105263157895,1,-0.0,0.0,0.0,0.0,0.0,-0.0,0.352,0.0,0.0,0.0,0.0,0.105263157895,,3,Sharing Zero Relinquish,10.0,doorway_assistance,3
1450210779326457640,0.669544615015,-0.0067562376216,0.0,0.0,0.0,-0.0686383068554,0.997641610415,1450210779325812807,1,0.352,0.0,0.0,0.0,0.0,0.105263157895,1,-0.0,0.0,0.0,0.0,0.0,-0.0,0.352,0.0,0.0,0.0,0.0,0.105263157895,,3,Sharing Zero Relinquish,10.0,doorway_assistance,3
1450210779369492447,0.675249932221,-0.00754502948089,0.0,0.0,0.0,-0.0686383068554,0.997641610415,1450210779367287486,1,0.352,0.0,0.0,0.0,0.0,0.105263157895,1,-0.0,0.0,0.0,0.0,0.0,-0.0,0.352,0.0,0.0,0.0,0.0,0.105263157895,,3,Sharing Zero Relinquish,10.0,doorway_assistance,3
1450210779406760982,0.686660566632,-0.00912261319947,0.0,0.0,0.0,-0.0686383068554,0.997641610415,1450210779405847574,1,0.352,0.0,0.0,0.0,0.0,0.105263157895,1,-0.0,0.0,0.0,0.0,0.0,-0.0,0.352,0.0,0.0,0.0,0.0,0.105263157895,,3,Sharing Zero Relinquish,10.0,doorway_assistance,3
1450210779452772512,0.698071201043,-0.0107001969181,0.0,0.0,0.0,-0.0686383068554,0.997641610415,1450210779445833963,1,0.352,0.0,0.0,0.0,0.0,0.105263157895,1,-0.0,0.0,0.0,0.0,0.0,-0.0,0.352,0.0,0.0,0.0,0.0,0.105263157895,,3,Sharing Zero Relinquish,10.0,doorway_assistance,3
1450210779486617432,0.703776518249,-0.0114889887773,0.0,0.0,0.0,-0.0686383068554,0.997641610415,1450210779485801179,1,0.352,0.0,0.0,0.0,0.0,0.105263157895,1,-0.0,0.0,0.0,0.0,0.0,-0.0,0.352,0.0,0.0,0.0,0.0,0.105263157895,,3,Sharing Zero Relinquish,10.0,doorway_assistance,3
1450210779526318480,0.718018175193,-0.0136115906768,0.0,0.0,0.0,-0.0739088866573,0.997264998119,1450210779525795500,1,0.352,0.0,0.0,0.0,0.0,0.105263157895,1,-0.0,0.0,0.0,0.0,0.0,-0.0,0.352,0.0,0.0,0.0,0.0,0.105263157895,,3,Sharing Zero Relinquish,10.0,doorway_assistance,3
1450210779568373261,0.729411500749,-0.0153096721964,0.0,0.0,0.0,-0.0739088866573,0.997264998119,1450210779567686492,1,0.352,0.0,0.0,0.0,0.0,0.105263157895,1,-0.0,0.0,0.0,0.0,0.0,-0.0,0.352,0.0,0.0,0.0,0.0,0.105263157895,,3,Sharing Zero Relinquish,10.0,doorway_assistance,3
1450210779606306950,0.737969476557,-0.0164928599854,0.0,0.0,0.0,-0.0686383068554,0.997641610415,1450210779605856383,1,0.352,0.0,0.0,0.0,0.0,0.105263157895,1,-0.0,0.0,0.0,0.0,0.0,-0.0,0.352,0.0,0.0,0.0,0.0,0.105263157895,,3,Sharing Zero Relinquish,10.0,doorway_assistance,3
1450210779647128981,0.749380110969,-0.0180704437039,0.0,0.0,0.0,-0.0686383068554,0.997641610415,1450210779646060695,1,0.352,0.0,0.0,0.0,0.0,0.147368421053,1,-0.0,0.0,0.0,0.0,0.0,-0.0,0.352,0.0,0.0,0.0,0.0,0.147368421053,,3,Sharing Zero Relinquish,10.0,doorway_assistance,3
1450210779687089332,0.76079074538,-0.0196480274225,0.0,0.0,0.0,-0.0686383068554,0.997641610415,1450210779685808787,1,0.352,0.0,0.0,0.0,0.0,0.147368421053,1,-0.0,0.0,0.0,0.0,0.0,-0.0,0.352,0.0,0.0,0.0,0.0,0.147368421053,,3,Sharing Zero Relinquish,10.0,doorway_assistance,3
1450210779726514284,0.769335739547,-0.0209215885622,0.0,0.0,0.0,-0.0739088866573,0.997264998119,1450210779725789878,1,0.352,0.0,0.0,0.0,0.0,0.147368421053,1,-0.0,0.0,0.0,0.0,0.0,-0.0,0.352,0.0,0.0,0.0,0.0,0.147368421053,,3,Sharing Zero Relinquish,10.0,doorway_assistance,3
1450210779767310623,0.780729065102,-0.0226196700818,0.0,0.0,0.0,-0.0739088866573,0.997264998119,1450210779765951974,1,0.352,0.0,0.0,0.0,0.0,0.147368421053,1,-0.0,0.0,0.0,0.0,0.0,-0.0,0.352,0.0,0.0,0.0,0.0,0.147368421053,,3,Sharing Zero Relinquish,10.0,doorway_assistance,3
1450210779806775765,0.792122390658,-0.0243177516014,0.0,0.0,0.0,-0.0739088866573,0.997264998119,1450210779805811634,1,-0.1,0.0,0.0,0.0,0.0,0.0,1,-0.0,0.0,0.0,0.0,0.0,-0.0,-0.1,0.0,0.0,0.0,0.0,0.0,,3,Sharing Zero Relinquish,10.0,doorway_assistance,3
1450210779846656269,0.803515716213,-0.026015833121,0.0,0.0,0.0,-0.0739088866573,0.997264998119,1450210779845948574,1,-0.1,0.0,0.0,0.0,0.0,0.0,1,-0.0,0.0,0.0,0.0,0.0,-0.0,-0.1,0.0,0.0,0.0,0.0,0.0,,3,Sharing Zero Relinquish,10.0,doorway_assistance,3
1450210779888180300,0.814909041768,-0.0277139146406,0.0,0.0,0.0,-0.0739088866573,0.997264998119,1450210779885811271,1,-0.1,0.0,0.0,0.0,0.0,0.0,1,-0.0,0.0,0.0,0.0,0.0,-0.0,-0.1,0.0,0.0,0.0,0.0,0.0,,3,Sharing Zero Relinquish,10.0,doorway_assistance,3
1450210779926576233,0.826302367324,-0.0294119961601,0.0,0.0,0.0,-0.0739088866573,0.997264998119,1450210779925823893,1,-0.1,0.0,0.0,0.0,0.0,0.0,1,-0.0,0.0,0.0,0.0,0.0,-0.0,-0.1,0.0,0.0,0.0,0.0,0.0,,3,Sharing Zero Relinquish,10.0,doorway_assistance,3
1450210779966715622,0.837695692879,-0.0311100776797,0.0,0.0,0.0,-0.0739088866573,0.997264998119,1450210779965788297,1,-0.1,0.0,0.0,0.0,0.0,0.0,1,-0.0,0.0,0.0,0.0,0.0,-0.0,-0.1,0.0,0.0,0.0,0.0,0.0,,3,Sharing Zero Relinquish,10.0,doorway_assistance,3
1450210780006805448,0.849089018435,-0.0328081591993,0.0,0.0,0.0,-0.0739088866573,0.997264998119,1450210780005830032,1,-0.1,0.0,0.0,0.0,0.0,0.0,1,-0.0,0.0,0.0,0.0,0.0,-0.0,-0.1,0.0,0.0,0.0,0.0,0.0,,3,Sharing Zero Relinquish,10.0,doorway_assistance,3
1450210780047349721,0.86048234399,-0.0345062407189,0.0,0.0,0.0,-0.0739088866573,0.997264998119,1450210780045865084,1,-0.1,0.0,0.0,0.0,0.0,0.0,1,-0.0,0.0,0.0,0.0,0.0,-0.0,-0.1,0.0,0.0,0.0,0.0,0.0,,3,Sharing Zero Relinquish,10.0,doorway_assistance,3
1450210780087367107,0.866179006768,-0.0353552814787,0.0,0.0,0.0,-0.0739088866573,0.997264998119,1450210780085829988,1,-0.1,0.0,0.0,0.0,0.0,0.0,1,-0.0,0.0,0.0,0.0,0.0,-0.0,-0.1,0.0,0.0,0.0,0.0,0.0,,3,Sharing Zero Relinquish,10.0,doorway_assistance,3
1450210780126567565,0.877572332323,-0.0370533629983,0.0,0.0,0.0,-0.0739088866573,0.997264998119,1450210780125786920,1,-0.1,0.0,0.0,0.0,0.0,0.0,1,-0.0,0.0,0.0,0.0,0.0,-0.0,-0.1,0.0,0.0,0.0,0.0,0.0,,3,Sharing Zero Relinquish,10.0,doorway_assistance,3
1450210780168431376,0.891835625337,-0.0390253426465,0.0,0.0,0.0,-0.0686383068554,0.997641610415,1450210780165890978,1,-0.1,0.0,0.0,0.0,0.0,0.0,1,-0.0,0.0,0.0,0.0,0.0,-0.0,-0.1,0.0,0.0,0.0,0.0,0.0,,3,Sharing Zero Relinquish,10.0,doorway_assistance,3
1450210780208685609,0.900380619504,-0.0402989037862,0.0,0.0,0.0,-0.0739088866573,0.997264998119,1450210780205847621,1,0.0,0.0,0.0,0.0,0.0,0.31,1,-0.0,0.0,0.0,0.0,0.0,-0.0,0.0,0.0,0.0,0.0,0.0,0.31,,3,Sharing Zero Relinquish,10.0,doorway_assistance,3
1450210780246039820,0.911773945059,-0.0419969853058,0.0,0.0,0.0,-0.0739088866573,0.997264998119,1450210780245765662,1,0.352,0.0,0.0,0.0,0.0,0.189473684211,1,-0.0,0.0,0.0,0.0,0.0,-0.0,0.352,0.0,0.0,0.0,0.0,0.189473684211,,3,Sharing Zero Relinquish,10.0,doorway_assistance,3
1450210780287602025,0.923167270615,-0.0436950668254,0.0,0.0,0.0,-0.0739088866573,0.997264998119,1450210780285840747,1,0.352,0.0,0.0,0.0,0.0,0.189473684211,1,-0.0,0.0,0.0,0.0,0.0,-0.0,0.352,0.0,0.0,0.0,0.0,0.189473684211,,3,Sharing Zero Relinquish,10.0,doorway_assistance,3
1450210780326313875,0.928863933393,-0.0445441075852,0.0,0.0,0.0,-0.0739088866573,0.997264998119,1450210780325803885,1,0.352,0.0,0.0,0.0,0.0,0.189473684211,1,-0.0,0.0,0.0,0.0,0.0,-0.0,0.352,0.0,0.0,0.0,0.0,0.189473684211,,3,Sharing Zero Relinquish,10.0,doorway_assistance,3
1450210780366967126,0.940257258948,-0.0462421891048,0.0,0.0,0.0,-0.0739088866573,0.997264998119,1450210780365828850,1,0.352,0.0,0.0,0.0,0.0,0.189473684211,1,-0.0,0.0,0.0,0.0,0.0,-0.0,0.352,0.0,0.0,0.0,0.0,0.189473684211,,3,Sharing Zero Relinquish,10.0,doorway_assistance,3
1450210780407623960,0.948815234757,-0.0474253768937,0.0,0.0,0.0,-0.0686383068554,0.997641610415,1450210780405888571,1,0.352,0.0,0.0,0.0,0.0,0.189473684211,1,-0.0,0.0,0.0,0.0,0.0,-0.0,0.352,0.0,0.0,0.0,0.0,0.189473684211,,3,Sharing Zero Relinquish,10.0,doorway_assistance,3
1450210780446312933,0.957360228923,-0.0486989380334,0.0,0.0,0.0,-0.0739088866573,0.997264998119,1450210780445816746,1,0.352,0.0,0.0,0.0,0.0,0.189473684211,1,-0.0,0.0,0.0,0.0,0.0,-0.0,0.352,0.0,0.0,0.0,0.0,0.189473684211,,3,Sharing Zero Relinquish,10.0,doorway_assistance,3
1450210780486487711,0.963056891701,-0.0495479787932,0.0,0.0,0.0,-0.0739088866573,0.997264998119,1450210780485800368,1,0.352,0.0,0.0,0.0,0.0,0.189473684211,1,-0.0,0.0,0.0,0.0,0.0,-0.0,0.352,0.0,0.0,0.0,0.0,0.189473684211,,3,Sharing Zero Relinquish,10.0,doorway_assistance,3
1450210780526040968,0.974450217256,-0.0512460603128,0.0,0.0,0.0,-0.0739088866573,0.997264998119,1450210780525786115,1,0.352,0.0,0.0,0.0,0.0,0.147368421053,1,-0.0,0.0,0.0,0.0,0.0,-0.0,0.352,0.0,0.0,0.0,0.0,0.147368421053,,3,Sharing Zero Relinquish,10.0,doorway_assistance,3
1450210780566157613,0.980146880034,-0.0520951010726,0.0,0.0,0.0,-0.0739088866573,0.997264998119,1450210780565801737,1,0.352,0.0,0.0,0.0,0.0,0.147368421053,1,-0.0,0.0,0.0,0.0,0.0,-0.0,0.352,0.0,0.0,0.0,0.0,0.147368421053,,3,Sharing Zero Relinquish,10.0,doorway_assistance,3
1450210780606728918,0.985843542812,-0.0529441418324,0.0,0.0,0.0,-0.0739088866573,0.997264998119,1450210780605780835,1,0.352,0.0,0.0,0.0,0.0,0.189473684211,1,-0.0,0.0,0.0,0.0,0.0,-0.0,0.352,0.0,0.0,0.0,0.0,0.189473684211,,3,Sharing Zero Relinquish,10.0,doorway_assistance,3
1450210780646467917,0.997236868367,-0.0546422233519,0.0,0.0,0.0,-0.0739088866573,0.997264998119,1450210780645817515,1,0.352,0.0,0.0,0.0,0.0,0.189473684211,1,-0.0,0.0,0.0,0.0,0.0,-0.0,0.352,0.0,0.0,0.0,0.0,0.189473684211,,3,Sharing Zero Relinquish,10.0,doorway_assistance,3
1450210780687048245,1.00008952697,-0.0550366192816,0.0,0.0,0.0,-0.0686383068554,0.997641610415,1450210780685822154,1,0.352,0.0,0.0,0.0,0.0,0.189473684211,1,-0.0,0.0,0.0,0.0,0.0,-0.0,0.352,0.0,0.0,0.0,0.0,0.189473684211,,3,Sharing Zero Relinquish,10.0,doorway_assistance,3
1450210780726540571,1.00863452114,-0.0563101804213,0.0,0.0,0.0,-0.0739088866573,0.997264998119,1450210780725881936,1,0.352,0.0,0.0,0.0,0.0,0.189473684211,1,-0.0,0.0,0.0,0.0,0.0,-0.0,0.352,0.0,0.0,0.0,0.0,0.189473684211,,3,Sharing Zero Relinquish,10.0,doorway_assistance,3
1450210780766261389,1.01719249695,-0.0574933682102,0.0,0.0,0.0,-0.0686383068554,0.997641610415,1450210780765786276,1,0.352,0.0,0.0,0.0,0.0,0.189473684211,1,-0.0,0.0,0.0,0.0,0.0,-0.0,0.352,0.0,0.0,0.0,0.0,0.189473684211,,3,Sharing Zero Relinquish,10.0,doorway_assistance,3
1450210780807513370,1.02289781415,-0.0582821600695,0.0,0.0,0.0,-0.0686383068554,0.997641610415,1450210780805829958,1,0.352,0.0,0.0,0.0,0.0,0.189473684211,1,-0.0,0.0,0.0,0.0,0.0,-0.0,0.352,0.0,0.0,0.0,0.0,0.189473684211,,3,Sharing Zero Relinquish,10.0,doorway_assistance,3
1450210780847548305,1.03144280832,-0.0595557212092,0.0,0.0,0.0,-0.0739088866573,0.997264998119,1450210780845790590,1,0.352,0.0,0.0,0.0,0.0,0.189473684211,1,-0.0,0.0,0.0,0.0,0.0,-0.0,0.352,0.0,0.0,0.0,0.0,0.189473684211,,3,Sharing Zero Relinquish,10.0,doorway_assistance,3
1450210780886640733,1.04000078413,-0.0607389089981,0.0,0.0,0.0,-0.0686383068554,0.997641610415,1450210780885871214,1,0.352,0.0,0.0,0.0,0.0,0.189473684211,1,-0.0,0.0,0.0,0.0,0.0,-0.0,0.352,0.0,0.0,0.0,0.0,0.189473684211,,3,Sharing Zero Relinquish,10.0,doorway_assistance,3
1450210780927750703,1.04570610133,-0.0615277008574,0.0,0.0,0.0,-0.0686383068554,0.997641610415,1450210780925934290,1,0.352,0.0,0.0,0.0,0.0,0.189473684211,1,-0.0,0.0,0.0,0.0,0.0,-0.0,0.352,0.0,0.0,0.0,0.0,0.189473684211,,3,Sharing Zero Relinquish,10.0,doorway_assistance,3
1450210780966048933,1.054276103,-0.0626203831541,0.0,0.0,0.0,-0.0633658106137,0.997990367712,1450210780965788831,1,0.352,0.0,0.0,0.0,0.0,0.189473684211,1,-0.0,0.0,0.0,0.0,0.0,-0.0,0.352,0.0,0.0,0.0,0.0,0.189473684211,,3,Sharing Zero Relinquish,10.0,doorway_assistance,3
1450210781007777866,1.06283407881,-0.063803570943,0.0,0.0,0.0,-0.0686383068554,0.997641610415,1450210781005809909,1,0.352,0.0,0.0,0.0,0.0,0.189473684211,1,-0.0,0.0,0.0,0.0,0.0,-0.0,0.352,0.0,0.0,0.0,0.0,0.189473684211,,3,Sharing Zero Relinquish,10.0,doorway_assistance,3
1450210781047283692,1.07140408049,-0.0648962532397,0.0,0.0,0.0,-0.0633658106137,0.997990367712,1450210781045815849,1,0.352,0.0,0.0,0.0,0.0,0.189473684211,1,-0.0,0.0,0.0,0.0,0.0,-0.0,0.352,0.0,0.0,0.0,0.0,0.189473684211,,3,Sharing Zero Relinquish,10.0,doorway_assistance,3
1450210781086887471,1.08283074938,-0.0663531629686,0.0,0.0,0.0,-0.0633658106137,0.997990367712,1450210781086522499,1,0.352,0.0,0.0,0.0,0.0,0.189473684211,1,-0.0,0.0,0.0,0.0,0.0,-0.0,0.352,0.0,0.0,0.0,0.0,0.189473684211,,3,Sharing Zero Relinquish,10.0,doorway_assistance,3
1450210781126937436,1.0914118198,-0.0673552177394,0.0,0.0,0.0,-0.0580915451448,0.99831126027,1450210781125823837,1,0.352,0.0,0.0,0.0,0.0,0.189473684211,1,-0.0,0.0,0.0,0.0,0.0,-0.0,0.352,0.0,0.0,0.0,0.0,0.189473684211,,3,Sharing Zero Relinquish,10.0,doorway_assistance,3
1450210781166400643,1.09713253341,-0.0680232542533,0.0,0.0,0.0,-0.0580915451448,0.99831126027,1450210781165805236,1,0.352,0.0,0.0,0.0,0.0,0.189473684211,1,-0.0,0.0,0.0,0.0,0.0,-0.0,0.352,0.0,0.0,0.0,0.0,0.189473684211,,3,Sharing Zero Relinquish,10.0,doorway_assistance,3
1450210781206618726,1.10857396064,-0.069359327281,0.0,0.0,0.0,-0.0580915451448,0.99831126027,1450210781205804014,1,0.352,0.0,0.0,0.0,0.0,0.189473684211,1,-0.0,0.0,0.0,0.0,0.0,-0.0,0.352,0.0,0.0,0.0,0.0,0.189473684211,,3,Sharing Zero Relinquish,10.0,doorway_assistance,3
1450210781246984689,1.12001538786,-0.0706954003088,0.0,0.0,0.0,-0.0580915451448,0.99831126027,1450210781245824517,1,0.352,0.0,0.0,0.0,0.0,0.189473684211,1,-0.0,0.0,0.0,0.0,0.0,-0.0,0.352,0.0,0.0,0.0,0.0,0.189473684211,,3,Sharing Zero Relinquish,10.0,doorway_assistance,3
1450210781288337157,1.13145681509,-0.0720314733365,0.0,0.0,0.0,-0.0580915451448,0.99831126027,1450210781285867699,1,0.352,0.0,0.0,0.0,0.0,0.189473684211,1,-0.0,0.0,0.0,0.0,0.0,-0.0,0.352,0.0,0.0,0.0,0.0,0.189473684211,,3,Sharing Zero Relinquish,10.0,doorway_assistance,3
1450210781326391105,1.14577544976,-0.0735503322246,0.0,0.0,0.0,-0.0528156577107,0.998604279132,1450210781325795609,1,0.352,0.0,0.0,0.0,0.0,0.189473684211,1,-0.0,0.0,0.0,0.0,0.0,-0.0,0.352,0.0,0.0,0.0,0.0,0.189473684211,,3,Sharing Zero Relinquish,10.0,doorway_assistance,3
1450210781366256254,1.15150290364,-0.0741578757798,0.0,0.0,0.0,-0.0528156577107,0.998604279132,1450210781365810694,1,0.352,0.0,0.0,0.0,0.0,0.189473684211,1,-0.0,0.0,0.0,0.0,0.0,-0.0,0.352,0.0,0.0,0.0,0.0,0.189473684211,,3,Sharing Zero Relinquish,10.0,doorway_assistance,3
1450210781406408428,1.16583678982,-0.0755253326411,0.0,0.0,0.0,-0.0475382956186,0.998869416115,1450210781405820312,1,0.352,0.0,0.0,0.0,0.0,0.189473684211,1,-0.0,0.0,0.0,0.0,0.0,-0.0,0.352,0.0,0.0,0.0,0.0,0.189473684211,,3,Sharing Zero Relinquish,10.0,doorway_assistance,3
1450210781446825600,1.17157034429,-0.0760723153856,0.0,0.0,0.0,-0.0475382956186,0.998869416115,1450210781445801218,1,0.352,0.0,0.0,0.0,0.0,0.189473684211,1,-0.0,0.0,0.0,0.0,0.0,-0.0,0.352,0.0,0.0,0.0,0.0,0.189473684211,,3,Sharing Zero Relinquish,10.0,doorway_assistance,3
1450210781486820211,1.18591788113,-0.0772882174991,0.0,0.0,0.0,-0.042259606217,0.999106663816,1450210781485822911,1,0.352,0.0,0.0,0.0,0.0,0.189473684211,1,-0.0,0.0,0.0,0.0,0.0,-0.0,0.352,0.0,0.0,0.0,0.0,0.189473684211,,3,Sharing Zero Relinquish,10.0,doorway_assistance,3
1450210781526415935,1.1973959106,-0.0782609391898,0.0,0.0,0.0,-0.042259606217,0.999106663816,1450210781525817773,1,0.352,0.0,0.0,0.0,0.0,0.189473684211,1,-0.0,0.0,0.0,0.0,0.0,-0.0,0.352,0.0,0.0,0.0,0.0,0.189473684211,,3,Sharing Zero Relinquish,10.0,doorway_assistance,3
1450210781567599300,1.20601166168,-0.078899466132,0.0,0.0,0.0,-0.0369797368913,0.999316015612,1450210781565818456,1,0.352,0.0,0.0,0.0,0.0,0.189473684211,1,-0.0,0.0,0.0,0.0,0.0,-0.0,0.352,0.0,0.0,0.0,0.0,0.189473684211,,3,Sharing Zero Relinquish,10.0,doorway_assistance,3
1450210781608587943,1.21749932978,-0.0797508353883,0.0,0.0,0.0,-0.0369797368913,0.999316015612,1450210781605898313,1,0.352,0.0,0.0,0.0,0.0,0.189473684211,1,-0.0,0.0,0.0,0.0,0.0,-0.0,0.352,0.0,0.0,0.0,0.0,0.189473684211,,3,Sharing Zero Relinquish,10.0,doorway_assistance,3
1450210781646589244,1.23186935948,-0.0806632375618,0.0,0.0,0.0,-0.0316988350601,0.999497465658,1450210781645805175,1,0.352,0.0,0.0,0.0,0.0,0.189473684211,1,-0.0,0.0,0.0,0.0,0.0,-0.0,0.352,0.0,0.0,0.0,0.0,0.189473684211,,3,Sharing Zero Relinquish,10.0,doorway_assistance,3
1450210781686602536,1.23761737137,-0.0810281984311,0.0,0.0,0.0,-0.0316988350601,0.999497465658,1450210781685858640,1,0.352,0.0,0.0,0.0,0.0,0.189473684211,1,-0.0,0.0,0.0,0.0,0.0,-0.0,0.352,0.0,0.0,0.0,0.0,0.189473684211,,3,Sharing Zero Relinquish,10.0,doorway_assistance,3
1450210781725925895,1.25199624076,-0.0817886893082,0.0,0.0,0.0,-0.0264170481704,0.999651008886,1450210781725781661,1,0.352,0.0,0.0,0.0,0.0,0.189473684211,1,-0.0,0.0,0.0,0.0,0.0,-0.0,0.352,0.0,0.0,0.0,0.0,0.189473684211,,3,Sharing Zero Relinquish,10.0,doorway_assistance,3
1450210781766969009,1.25774778851,-0.082092885659,0.0,0.0,0.0,-0.0264170481704,0.999651008886,1450210781765806352,1,0.352,0.0,0.0,0.0,0.0,0.189473684211,1,-0.0,0.0,0.0,0.0,0.0,-0.0,0.352,0.0,0.0,0.0,0.0,0.189473684211,,3,Sharing Zero Relinquish,10.0,doorway_assistance,3
1450210781806864982,1.27213389172,-0.082701380306,0.0,0.0,0.0,-0.0211345236944,0.999776641009,1450210781805843565,1,0.352,0.0,0.0,0.0,0.0,0.189473684211,1,-0.0,0.0,0.0,0.0,0.0,-0.0,0.352,0.0,0.0,0.0,0.0,0.189473684211,,3,Sharing Zero Relinquish,10.0,doorway_assistance,3
1450210781846036490,1.28364277429,-0.0831881760236,0.0,0.0,0.0,-0.0211345236944,0.999776641009,1450210781845785985,1,0.352,0.0,0.0,0.0,0.0,0.189473684211,1,-0.0,0.0,0.0,0.0,0.0,-0.0,0.352,0.0,0.0,0.0,0.0,0.189473684211,,3,Sharing Zero Relinquish,10.0,doorway_assistance,3
1450210781887416887,1.29515165686,-0.0836749717411,0.0,0.0,0.0,-0.0211345236944,0.999776641009,1450210781885826557,1,0.352,0.0,0.0,0.0,0.0,0.189473684211,1,-0.0,0.0,0.0,0.0,0.0,-0.0,0.352,0.0,0.0,0.0,0.0,0.189473684211,,3,Sharing Zero Relinquish,10.0,doorway_assistance,3
1450210781926432167,1.30378669507,-0.0839488300164,0.0,0.0,0.0,-0.0158514091245,0.999874358521,1450210781925822680,1,0.352,0.0,0.0,0.0,0.0,0.189473684211,1,-0.0,0.0,0.0,0.0,0.0,-0.0,0.352,0.0,0.0,0.0,0.0,0.189473684211,,3,Sharing Zero Relinquish,10.0,doorway_assistance,3
1450210781966369050,1.31818244526,-0.0842531453114,0.0,0.0,0.0,-0.0105678519699,0.999944158693,1450210781965786262,1,0.352,0.0,0.0,0.0,0.0,0.189473684211,1,-0.0,0.0,0.0,0.0,0.0,-0.0,0.352,0.0,0.0,0.0,0.0,0.189473684211,,3,Sharing Zero Relinquish,10.0,doorway_assistance,3
1450210782007860528,1.32969904542,-0.0844965975475,0.0,0.0,0.0,-0.0105678519699,0.999944158693,1450210782005844787,1,0.352,0.0,0.0,0.0,0.0,0.189473684211,1,-0.0,0.0,0.0,0.0,0.0,-0.0,0.352,0.0,0.0,0.0,0.0,0.189473684211,,3,Sharing Zero Relinquish,10.0,doorway_assistance,3
1450210782048018942,1.33833794278,-0.0845878972343,0.0,0.0,0.0,-0.0052839997518,0.999986039576,1450210782045823023,1,0.352,0.0,0.0,0.0,0.0,0.189473684211,1,-0.0,0.0,0.0,0.0,0.0,-0.0,0.352,0.0,0.0,0.0,0.0,0.189473684211,,3,Sharing Zero Relinquish,10.0,doorway_assistance,3
1450210782086607643,1.3498564726,-0.08470963015,0.0,0.0,0.0,-0.0052839997518,0.999986039576,1450210782085808068,1,0.352,0.0,0.0,0.0,0.0,0.189473684211,1,-0.0,0.0,0.0,0.0,0.0,-0.0,0.352,0.0,0.0,0.0,0.0,0.189473684211,,3,Sharing Zero Relinquish,10.0,doorway_assistance,3
1450210782126667385,1.36425543893,-0.08470963015,0.0,0.0,0.0,-8.881784197e-16,1.0,1450210782125794749,1,0.352,0.0,0.0,0.0,0.0,0.147368421053,1,-0.0,0.0,0.0,0.0,0.0,-0.0,0.352,0.0,0.0,0.0,0.0,0.147368421053,,3,Sharing Zero Relinquish,10.0,doorway_assistance,3
1450210782166414085,1.37289433629,-0.0848009298368,0.0,0.0,0.0,-0.0052839997518,0.999986039576,1450210782165856259,1,0.352,0.0,0.0,0.0,0.0,0.147368421053,1,-0.0,0.0,0.0,0.0,0.0,-0.0,0.352,0.0,0.0,0.0,0.0,0.147368421053,,3,Sharing Zero Relinquish,10.0,doorway_assistance,3
1450210782206563090,1.38729330262,-0.0848009298368,0.0,0.0,0.0,-8.881784197e-16,1.0,1450210782205816701,1,0.352,0.0,0.0,0.0,0.0,0.147368421053,1,-0.0,0.0,0.0,0.0,0.0,-0.0,0.352,0.0,0.0,0.0,0.0,0.147368421053,,3,Sharing Zero Relinquish,10.0,doorway_assistance,3
1450210782246740010,1.39881247568,-0.0848009298368,0.0,0.0,0.0,-8.881784197e-16,1.0,1450210782245903044,1,0.352,0.0,0.0,0.0,0.0,0.147368421053,1,-0.0,0.0,0.0,0.0,0.0,-0.0,0.352,0.0,0.0,0.0,0.0,0.147368421053,,3,Sharing Zero Relinquish,10.0,doorway_assistance,3
1450210782286636292,1.40745137305,-0.08470963015,0.0,0.0,0.0,0.0052839997518,0.999986039576,1450210782285791130,1,0.352,0.0,0.0,0.0,0.0,0.147368421053,1,-0.0,0.0,0.0,0.0,0.0,-0.0,0.352,0.0,0.0,0.0,0.0,0.147368421053,,3,Sharing Zero Relinquish,10.0,doorway_assistance,3
1450210782326539100,1.41608882316,-0.084527040973,0.0,0.0,0.0,0.0105678519699,0.999944158693,1450210782325831204,1,0.352,0.0,0.0,0.0,0.0,0.147368421053,1,-0.0,0.0,0.0,0.0,0.0,-0.0,0.352,0.0,0.0,0.0,0.0,0.147368421053,,3,Sharing Zero Relinquish,10.0,doorway_assistance,3
1450210782368601997,1.42760542331,-0.0842835887369,0.0,0.0,0.0,0.0105678519699,0.999944158693,1450210782365976190,1,0.352,0.0,0.0,0.0,0.0,0.147368421053,1,-0.0,0.0,0.0,0.0,0.0,-0.0,0.352,0.0,0.0,0.0,0.0,0.147368421053,,3,Sharing Zero Relinquish,10.0,doorway_assistance,3
1450210782406349337,1.43912202346,-0.0840401365009,0.0,0.0,0.0,0.0105678519699,0.999944158693,1450210782405803520,1,0.352,0.0,0.0,0.0,0.0,0.105263157895,1,-0.0,0.0,0.0,0.0,0.0,-0.0,0.352,0.0,0.0,0.0,0.0,0.105263157895,,3,Sharing Zero Relinquish,10.0,doorway_assistance,3
1450210782446627597,1.45351375382,-0.0835837060422,0.0,0.0,0.0,0.0158514091245,0.999874358521,1450210782445813263,1,0.352,0.0,0.0,0.0,0.0,0.105263157895,1,-0.0,0.0,0.0,0.0,0.0,-0.0,0.352,0.0,0.0,0.0,0.0,0.105263157895,,3,Sharing Zero Relinquish,10.0,doorway_assistance,3
1450210782486869074,1.46214541574,-0.083218609254,0.0,0.0,0.0,0.0211345236944,0.999776641009,1450210782485825894,1,0.352,0.0,0.0,0.0,0.0,0.105263157895,1,-0.0,0.0,0.0,0.0,0.0,-0.0,0.352,0.0,0.0,0.0,0.0,0.105263157895,,3,Sharing Zero Relinquish,10.0,doorway_assistance,3
1450210782526737147,1.47365429831,-0.0827318135364,0.0,0.0,0.0,0.0211345236944,0.999776641009,1450210782525793103,1,0.352,0.0,0.0,0.0,0.0,0.147368421053,1,-0.0,0.0,0.0,0.0,0.0,-0.0,0.352,0.0,0.0,0.0,0.0,0.147368421053,,3,Sharing Zero Relinquish,10.0,doorway_assistance,3
1450210782566237028,1.4880331677,-0.0819713226594,0.0,0.0,0.0,0.0264170481704,0.999651008886,1450210782565869060,1,0.352,0.0,0.0,0.0,0.0,0.147368421053,1,-0.0,0.0,0.0,0.0,0.0,-0.0,0.352,0.0,0.0,0.0,0.0,0.147368421053,,3,Sharing Zero Relinquish,10.0,doorway_assistance,3
1450210782608143248,1.49953626322,-0.0813629299578,0.0,0.0,0.0,0.0264170481704,0.999651008886,1450210782605909264,1,0.352,0.0,0.0,0.0,0.0,0.105263157895,1,-0.0,0.0,0.0,0.0,0.0,-0.0,0.352,0.0,0.0,0.0,0.0,0.105263157895,,3,Sharing Zero Relinquish,10.0,doorway_assistance,3
1450210782651246233,1.50815828104,-0.0808154886537,0.0,0.0,0.0,0.0316988350601,0.999497465658,1450210782645839733,1,0.352,0.0,0.0,0.0,0.0,0.105263157895,1,-0.0,0.0,0.0,0.0,0.0,-0.0,0.352,0.0,0.0,0.0,0.0,0.105263157895,,3,Sharing Zero Relinquish,10.0,doorway_assistance,3
1450210782688553711,1.5196543048,-0.080085566915,0.0,0.0,0.0,0.0316988350601,0.999497465658,1450210782685858269,1,0.352,0.0,0.0,0.0,0.0,0.105263157895,1,-0.0,0.0,0.0,0.0,0.0,-0.0,0.352,0.0,0.0,0.0,0.0,0.105263157895,,3,Sharing Zero Relinquish,10.0,doorway_assistance,3
1450210782726414584,1.53115032856,-0.0793556451762,0.0,0.0,0.0,0.0316988350601,0.999497465658,1450210782725798047,1,0.352,0.0,0.0,0.0,0.0,0.105263157895,1,-0.0,0.0,0.0,0.0,0.0,-0.0,0.352,0.0,0.0,0.0,0.0,0.105263157895,,3,Sharing Zero Relinquish,10.0,doorway_assistance,3
1450210782766300652,1.54264635232,-0.0786257234375,0.0,0.0,0.0,0.0316988350601,0.999497465658,1450210782765814027,1,0.352,0.0,0.0,0.0,0.0,0.105263157895,1,-0.0,0.0,0.0,0.0,0.0,-0.0,0.352,0.0,0.0,0.0,0.0,0.105263157895,,3,Sharing Zero Relinquish,10.0,doorway_assistance,3
1450210782807221572,1.5512621034,-0.0779871964952,0.0,0.0,0.0,0.0369797368913,0.999316015612,1450210782805824304,1,0.352,0.0,0.0,0.0,0.0,0.105263157895,1,-0.0,0.0,0.0,0.0,0.0,-0.0,0.352,0.0,0.0,0.0,0.0,0.105263157895,,3,Sharing Zero Relinquish,10.0,doorway_assistance,3
1450210782847538838,1.5627497715,-0.0771358272389,0.0,0.0,0.0,0.0369797368913,0.999316015612,1450210782847207878,1,0.352,0.0,0.0,0.0,0.0,0.105263157895,1,-0.0,0.0,0.0,0.0,0.0,-0.0,0.352,0.0,0.0,0.0,0.0,0.105263157895,,3,Sharing Zero Relinquish,10.0,doorway_assistance,3
1450210782886877656,1.57423743961,-0.0762844579826,0.0,0.0,0.0,0.0369797368913,0.999316015612,1450210782885789745,1,0.352,0.0,0.0,0.0,0.0,0.105263157895,1,-0.0,0.0,0.0,0.0,0.0,-0.0,0.352,0.0,0.0,0.0,0.0,0.105263157895,,3,Sharing Zero Relinquish,10.0,doorway_assistance,3
1450210782926119752,1.58570454855,-0.0751904924936,0.0,0.0,0.0,0.0475382956186,0.998869416115,1450210782925855568,1,0.352,0.0,0.0,0.0,0.0,0.105263157895,1,-0.0,0.0,0.0,0.0,0.0,-0.0,0.352,0.0,0.0,0.0,0.0,0.105263157895,,3,Sharing Zero Relinquish,10.0,doorway_assistance,3
1450210782967162991,1.5971716575,-0.0740965270045,0.0,0.0,0.0,0.0475382956186,0.998869416115,1450210782965919376,1,0.352,0.0,0.0,0.0,0.0,0.105263157895,1,-0.0,0.0,0.0,0.0,0.0,-0.0,0.352,0.0,0.0,0.0,0.0,0.105263157895,,3,Sharing Zero Relinquish,10.0,doorway_assistance,3
1450210783008564167,1.60863876644,-0.0730025615155,0.0,0.0,0.0,0.0475382956186,0.998869416115,1450210783008093118,1,0.352,0.0,0.0,0.0,0.0,0.105263157895,1,-0.0,0.0,0.0,0.0,0.0,-0.0,0.352,0.0,0.0,0.0,0.0,0.105263157895,,3,Sharing Zero Relinquish,10.0,doorway_assistance,3
1450210783046460141,1.61722994725,-0.0720912461826,0.0,0.0,0.0,0.0528156577107,0.998604279132,1450210783045819556,1,0.352,0.0,0.0,0.0,0.0,0.105263157895,1,-0.0,0.0,0.0,0.0,0.0,-0.0,0.352,0.0,0.0,0.0,0.0,0.105263157895,,3,Sharing Zero Relinquish,10.0,doorway_assistance,3
1450210783086653043,1.63153173128,-0.070421154898,0.0,0.0,0.0,0.0580915451448,0.99831126027,1450210783085831305,1,0.352,0.0,0.0,0.0,0.0,0.105263157895,1,-0.0,0.0,0.0,0.0,0.0,-0.0,0.352,0.0,0.0,0.0,0.0,0.105263157895,,3,Sharing Zero Relinquish,10.0,doorway_assistance,3
1450210783126550092,1.64012291208,-0.0695098395651,0.0,0.0,0.0,0.0528156577107,0.998604279132,1450210783125814040,1,0.352,0.0,0.0,0.0,0.0,0.105263157895,1,-0.0,0.0,0.0,0.0,0.0,-0.0,0.352,0.0,0.0,0.0,0.0,0.105263157895,,3,Sharing Zero Relinquish,10.0,doorway_assistance,3
1450210783166230389,1.65442469611,-0.0678397482804,0.0,0.0,0.0,0.0580915451448,0.99831126027,1450210783165786556,1,0.352,0.0,0.0,0.0,0.0,0.0631578947368,1,-0.0,0.0,0.0,0.0,0.0,-0.0,0.352,0.0,0.0,0.0,0.0,0.0631578947368,,3,Sharing Zero Relinquish,10.0,doorway_assistance,3
1450210783206858646,1.66299469779,-0.0667470659838,0.0,0.0,0.0,0.0633658106137,0.997990367712,1450210783205831918,1,0.352,0.0,0.0,0.0,0.0,0.0631578947368,1,-0.0,0.0,0.0,0.0,0.0,-0.0,0.352,0.0,0.0,0.0,0.0,0.0631578947368,,3,Sharing Zero Relinquish,10.0,doorway_assistance,3
