%time,field.header.seq,field.header.stamp,field.header.frame_id,field.polygon.points0.x,field.polygon.points0.y,field.polygon.points0.z,field.polygon.points1.x,field.polygon.points1.y,field.polygon.points1.z,field.polygon.points2.x,field.polygon.points2.y,field.polygon.points2.z,field.polygon.points3.x,field.polygon.points3.y,field.polygon.points3.z,field.polygon.points4.x,field.polygon.points4.y,field.polygon.points4.z
1450210771249130075,2,1450210771248974850,odom,0.569999992847,0.0,0.0,0.469999998808,-0.305000007153,0.0,-0.730000019073,-0.305000007153,0.0,-0.730000019073,0.305000007153,0.0,0.469999998808,0.305000007153,0.0
1450210771449897844,3,1450210771449377219,odom,0.569999992847,0.0,0.0,0.469999998808,-0.305000007153,0.0,-0.730000019073,-0.305000007153,0.0,-0.730000019073,0.305000007153,0.0,0.469999998808,0.305000007153,0.0
1450210771649715260,4,1450210771649237627,odom,0.569999992847,0.0,0.0,0.469999998808,-0.305000007153,0.0,-0.730000019073,-0.305000007153,0.0,-0.730000019073,0.305000007153,0.0,0.469999998808,0.305000007153,0.0
1450210771850604341,5,1450210771849425963,odom,0.569999992847,0.0,0.0,0.469999998808,-0.305000007153,0.0,-0.730000019073,-0.305000007153,0.0,-0.730000019073,0.305000007153,0.0,0.469999998808,0.305000007153,0.0
1450210772049631996,6,1450210772049233008,odom,0.569999992847,0.0,0.0,0.469999998808,-0.305000007153,0.0,-0.730000019073,-0.305000007153,0.0,-0.730000019073,0.305000007153,0.0,0.469999998808,0.305000007153,0.0
1450210772249607736,7,1450210772249297253,odom,0.569999992847,0.0,0.0,0.469999998808,-0.305000007153,0.0,-0.730000019073,-0.305000007153,0.0,-0.730000019073,0.305000007153,0.0,0.469999998808,0.305000007153,0.0
1450210772449827112,8,1450210772449338047,odom,0.569999992847,0.0,0.0,0.469999998808,-0.305000007153,0.0,-0.730000019073,-0.305000007153,0.0,-0.730000019073,0.305000007153,0.0,0.469999998808,0.305000007153,0.0
1450210772649441352,9,1450210772649139583,odom,0.569999992847,0.0,0.0,0.469999998808,-0.305000007153,0.0,-0.730000019073,-0.305000007153,0.0,-0.730000019073,0.305000007153,0.0,0.469999998808,0.305000007153,0.0
1450210772849834051,10,1450210772849267161,odom,0.569999992847,0.0,0.0,0.469999998808,-0.305000007153,0.0,-0.730000019073,-0.305000007153,0.0,-0.730000019073,0.305000007153,0.0,0.469999998808,0.305000007153,0.0
1450210773198665803,11,1450210773198177207,odom,0.569999992847,0.0,0.0,0.469999998808,-0.305000007153,0.0,-0.730000019073,-0.305000007153,0.0,-0.730000019073,0.305000007153,0.0,0.469999998808,0.305000007153,0.0
1450210773351175211,12,1450210773350633449,odom,0.569999992847,0.0,0.0,0.469999998808,-0.305000007153,0.0,-0.730000019073,-0.305000007153,0.0,-0.730000019073,0.305000007153,0.0,0.469999998808,0.305000007153,0.0
1450210773588132730,13,1450210773587882835,odom,0.569999992847,0.0,0.0,0.469999998808,-0.305000007153,0.0,-0.730000019073,-0.305000007153,0.0,-0.730000019073,0.305000007153,0.0,0.469999998808,0.305000007153,0.0
1450210773793438683,14,1450210773793270603,odom,0.569999992847,0.0,0.0,0.469999998808,-0.305000007153,0.0,-0.730000019073,-0.305000007153,0.0,-0.730000019073,0.305000007153,0.0,0.469999998808,0.305000007153,0.0
1450210773933127579,15,1450210773931854412,odom,0.569999992847,0.0,0.0,0.469999998808,-0.305000007153,0.0,-0.730000019073,-0.305000007153,0.0,-0.730000019073,0.305000007153,0.0,0.469999998808,0.305000007153,0.0
1450210774163801529,16,1450210774163224530,odom,0.569999992847,0.0,0.0,0.469999998808,-0.305000007153,0.0,-0.730000019073,-0.305000007153,0.0,-0.730000019073,0.305000007153,0.0,0.469999998808,0.305000007153,0.0
1450210774352374317,17,1450210774351167292,odom,0.569999992847,0.0,0.0,0.469999998808,-0.305000007153,0.0,-0.730000019073,-0.305000007153,0.0,-0.730000019073,0.305000007153,0.0,0.469999998808,0.305000007153,0.0
1450210774589416241,18,1450210774586969832,odom,0.569999992847,0.0,0.0,0.469999998808,-0.305000007153,0.0,-0.730000019073,-0.305000007153,0.0,-0.730000019073,0.305000007153,0.0,0.469999998808,0.305000007153,0.0
1450210774772528083,19,1450210774768822247,odom,0.569999992847,0.0,0.0,0.469999998808,-0.305000007153,0.0,-0.730000019073,-0.305000007153,0.0,-0.730000019073,0.305000007153,0.0,0.469999998808,0.305000007153,0.0
1450210774976587978,20,1450210774976325923,odom,0.569999992847,0.0,0.0,0.469999998808,-0.305000007153,0.0,-0.730000019073,-0.305000007153,0.0,-0.730000019073,0.305000007153,0.0,0.469999998808,0.305000007153,0.0
1450210775142373121,21,1450210775141053128,odom,0.569999992847,0.0,0.0,0.469999998808,-0.305000007153,0.0,-0.730000019073,-0.305000007153,0.0,-0.730000019073,0.305000007153,0.0,0.469999998808,0.305000007153,0.0
1450210775371321646,22,1450210775368376959,odom,0.569999992847,0.0,0.0,0.469999998808,-0.305000007153,0.0,-0.730000019073,-0.305000007153,0.0,-0.730000019073,0.305000007153,0.0,0.469999998808,0.305000007153,0.0
1450210775598227645,23,1450210775596973963,odom,0.569999992847,0.0,0.0,0.469999998808,-0.305000007153,0.0,-0.730000019073,-0.305000007153,0.0,-0.730000019073,0.305000007153,0.0,0.469999998808,0.305000007153,0.0
1450210775756559306,24,1450210775756281623,odom,0.569999992847,0.0,0.0,0.469999998808,-0.305000007153,0.0,-0.730000019073,-0.305000007153,0.0,-0.730000019073,0.305000007153,0.0,0.469999998808,0.305000007153,0.0
1450210775961657670,25,1450210775960499506,odom,0.569999992847,0.0,0.0,0.469999998808,-0.305000007153,0.0,-0.730000019073,-0.305000007153,0.0,-0.730000019073,0.305000007153,0.0,0.469999998808,0.305000007153,0.0
1450210776145605561,26,1450210776144671908,odom,0.569999992847,0.0,0.0,0.469999998808,-0.305000007153,0.0,-0.730000019073,-0.305000007153,0.0,-0.730000019073,0.305000007153,0.0,0.469999998808,0.305000007153,0.0
1450210776344200041,27,1450210776344041880,odom,0.569999992847,0.0,0.0,0.469999998808,-0.305000007153,0.0,-0.730000019073,-0.305000007153,0.0,-0.730000019073,0.305000007153,0.0,0.469999998808,0.305000007153,0.0
1450210776559395304,28,1450210776556877468,odom,0.581519007683,3.04332297674e-05,0.0,0.481519013643,-0.304969578981,0.0,-0.718481004238,-0.304969578981,0.0,-0.718481004238,0.305030435324,0.0,0.481519013643,0.305030435324,0.0
1450210776757600283,29,1450210776757419122,odom,0.604557216167,6.08664595347e-05,0.0,0.504557192326,-0.30493915081,0.0,-0.695442795753,-0.30493915081,0.0,-0.695442795753,0.305060863495,0.0,0.504557192326,0.305060863495,0.0
1450210776948084013,30,1450210776947900031,odom,0.630442202091,0.00632800767198,0.0,0.533671021461,-0.299711763859,0.0,-0.666262030602,-0.312393188477,0.0,-0.672708392143,0.297572761774,0.0,0.527224600315,0.310254186392,0.0
1450210777151512676,31,1450210777150643393,odom,0.664997816086,0.0066932067275,0.0,0.568226575851,-0.2993465662,0.0,-0.631706416607,-0.312027990818,0.0,-0.638152837753,0.297937989235,0.0,0.56178021431,0.31061938405,0.0
1450210777357294416,32,1450210777355511328,odom,0.705047249794,0.019742064178,0.0,0.614765644073,-0.288274556398,0.0,-0.584631323814,-0.32631316781,0.0,-0.603967607021,0.283380299807,0.0,0.595429360867,0.321418911219,0.0
1450210777551767402,33,1450210777549868028,odom,0.75374174118,0.02770893462,0.0,0.666720271111,-0.281244575977,0.0,-0.532207727432,-0.331956088543,0.0,-0.557986080647,0.277498990297,0.0,0.640941917896,0.328210502863,0.0
1450210777771305254,34,1450210777768588909,odom,0.804849982262,0.0428114421666,0.0,0.724377512932,-0.267912209034,0.0,-0.473210960627,-0.343951195478,0.0,-0.511864125729,0.2648229599,0.0,0.685724377632,0.340861946344,0.0
1450210777987401878,35,1450210777984738809,odom,0.859015464783,0.0526828281581,0.0,0.781831145287,-0.25887387991,0.0,-0.414886832237,-0.347564548254,0.0,-0.459971278906,0.260767102242,0.0,0.73674672842,0.349457770586,0.0
1450210778182562749,36,1450210778179594217,odom,0.905768096447,0.043457724154,0.0,0.82201641798,-0.26639816165,0.0,-0.376308709383,-0.32977694273,0.0,-0.408526271582,0.279371678829,0.0,0.789798915386,0.342750459909,0.0
1450210778347735480,37,1450210778345503163,odom,0.958348989487,0.0206849202514,0.0,0.861577749252,-0.285354852676,0.0,-0.338355273008,-0.298036277294,0.0,-0.344801664352,0.311929702759,0.0,0.855131328106,0.324611097574,0.0
1450210778525142994,38,1450210778524458032,odom,1.01567864418,-0.00438086921349,0.0,0.906060755253,-0.306057721376,0.0,-0.293336242437,-0.268019109964,0.0,-0.273999929428,0.341674357653,0.0,0.92539703846,0.303635746241,0.0
1450210778747427826,39,1450210778747021405,odom,1.06946861744,-0.0250776037574,0.0,0.95034301281,-0.32312810421,0.0,-0.247245445848,-0.247089117765,0.0,-0.208592295647,0.361685007811,0.0,0.988996148109,0.285646051168,0.0
1450210778952975575,40,1450210778947146162,odom,1.12026417255,-0.0410140864551,0.0,0.994866073132,-0.336480349302,0.0,-0.200847864151,-0.235147893429,0.0,-0.149337202311,0.372673362494,0.0,1.04637670517,0.27134090662,0.0
1450210779167660994,41,1450210779164098446,odom,1.17285609245,-0.0648257508874,0.0,1.03815507889,-0.356168538332,0.0,-0.15374584496,-0.216984286904,0.0,-0.0829938426614,0.388898700476,0.0,1.10890710354,0.249714419246,0.0
1450210779342573711,42,1450210779341400251,odom,1.22070395947,-0.0768761113286,0.0,1.08293151855,-0.366779148579,0.0,-0.107431933284,-0.215006813407,0.0,-0.0302809998393,0.390094637871,0.0,1.16008245945,0.238322302699,0.0
1450210779555743341,43,1450210779553877639,odom,1.26840567589,-0.0895521193743,0.0,1.12757730484,-0.377983003855,0.0,-0.0611157491803,-0.213639557362,0.0,0.022425500676,0.390612781048,0.0,1.21111857891,0.226269334555,0.0
1450210779750452670,44,1450210779749973622,odom,1.3254199028,-0.097711160779,0.0,1.18459153175,-0.386142045259,0.0,-0.00410152040422,-0.221798598766,0.0,0.0794397294521,0.382453739643,0.0,1.26813280582,0.21811029315,0.0
1450210779949523972,45,1450210779942284065,odom,1.37868177891,-0.111739605665,0.0,1.23481309414,-0.398666113615,0.0,0.0479231923819,-0.221769928932,0.0,0.137845426798,0.38156580925,0.0,1.32473540306,0.204669609666,0.0
1450210780152137276,46,1450210780149075481,odom,1.42995166779,-0.119380973279,0.0,1.28608310223,-0.40630748868,0.0,0.0991931557655,-0.229411303997,0.0,0.189115390182,0.373924434185,0.0,1.37600529194,0.197028249502,0.0
1450210780344288530,47,1450210780341832178,odom,1.48694002628,-0.127720758319,0.0,1.34307134151,-0.41464728117,0.0,0.156181424856,-0.237751081586,0.0,0.246103659272,0.365584641695,0.0,1.43299365044,0.188688457012,0.0
1450210780591878541,48,1450210780580056444,odom,1.52682960033,-0.133573666215,0.0,1.38296103477,-0.420500189066,0.0,0.196071043611,-0.243603989482,0.0,0.285993278027,0.359731733799,0.0,1.47288322449,0.182835549116,0.0
1450210780768722047,49,1450210780768545439,odom,1.5647187233,-0.133099749684,0.0,1.42389035225,-0.421530634165,0.0,0.235197260976,-0.257187187672,0.0,0.318738520145,0.347065150738,0.0,1.50743162632,0.182721704245,0.0
1450210780995852800,50,1450210780993542588,odom,1.60462999344,-0.138802036643,0.0,1.46380162239,-0.427232921124,0.0,0.275108516216,-0.26288947463,0.0,0.358649760485,0.341362833977,0.0,1.54734289646,0.177019417286,0.0
1450210781161668892,51,1450210781161297533,odom,1.64825344086,-0.138445019722,0.0,1.51048099995,-0.42834803462,0.0,0.320117503405,-0.27657571435,0.0,0.397268414497,0.328525722027,0.0,1.58763194084,0.176753401756,0.0
1450210781375948690,52,1450210781374743611,odom,1.69760978222,-0.138144001365,0.0,1.56290864944,-0.429486781359,0.0,0.371007740498,-0.29030251503,0.0,0.441759765148,0.315580427647,0.0,1.6336606741,0.176396176219,0.0
1450210781542109859,53,1450210781540412305,odom,1.7538819313,-0.125421136618,0.0,1.62848377228,-0.420887380838,0.0,0.4327698946,-0.319554924965,0.0,0.48428055644,0.288266301155,0.0,1.67999446392,0.186933860183,0.0
1450210781738246005,54,1450210781738135885,odom,1.80647182465,-0.117146708071,0.0,1.68734622002,-0.415197193623,0.0,0.489757806063,-0.33915823698,0.0,0.528410971165,0.269615918398,0.0,1.72599947453,0.193576946855,0.0
1450210781943674217,55,1450210781943436939,odom,1.86464250088,-0.107762947679,0.0,1.75184261799,-0.408264517784,0.0,0.552914619446,-0.357553005219,0.0,0.57869297266,0.251902073622,0.0,1.7776209116,0.201190546155,0.0
1450210782144325782,56,1450210782141339707,odom,1.91982460022,-0.0907333046198,0.0,1.81660699844,-0.394659489393,0.0,0.616674005985,-0.381978064775,0.0,0.623120427132,0.227987870574,0.0,1.82305347919,0.215306460857,0.0
1450210782378621185,57,1450210782374873984,odom,1.97741949558,-0.0786859542131,0.0,1.88064837456,-0.38472571969,0.0,0.680715322495,-0.397407144308,0.0,0.674268901348,0.212558805943,0.0,1.87420189381,0.22524023056,0.0
1450210782532086499,58,1450210782531676349,odom,2.0316362381,-0.0591306351125,0.0,1.94461476803,-0.368084132671,0.0,0.745686709881,-0.418795675039,0.0,0.719908356667,0.190659418702,0.0,1.91883635521,0.241370946169,0.0
1450210782723929730,59,1450210782721951482,odom,2.08850884438,-0.0439670570195,0.0,2.00803637505,-0.354690700769,0.0,0.810447871685,-0.430729687214,0.0,0.771794736385,0.178044453263,0.0,1.96938323975,0.254083424807,0.0
1450210782921924554,60,1450210782921446012,odom,2.14267849922,-0.0341563932598,0.0,2.06549429893,-0.345713108778,0.0,0.868776202202,-0.434403777122,0.0,0.823691785336,0.173927888274,0.0,2.02040982246,0.262618541718,0.0
1450210783121663491,61,1450210783121402830,odom,2.19768476486,-0.00430862978101,0.0,2.13373565674,-0.318848788738,0.0,0.941834688187,-0.458033055067,0.0,0.871082663536,0.147849902511,0.0,2.06298351288,0.287034153938,0.0
1450210783308726308,62,1450210783306142174,odom,2.25127077103,0.00825860723853,0.0,2.19064927101,-0.306939810514,0.0,1.00028574467,-0.458712130785,0.0,0.923134803772,0.146389305592,0.0,2.11349821091,0.298161625862,0.0
1450210783545426274,63,1450210783545230015,odom,2.30093693733,0.0275022648275,0.0,2.24699068069,-0.288906961679,0.0,1.06010067463,-0.465803146362,0.0,0.970178484917,0.13753259182,0.0,2.15706849098,0.314428776503,0.0
1450210783716650901,64,1450210783716486361,odom,2.35762166977,0.0553876981139,0.0,2.31373214722,-0.262572556734,0.0,1.13304615021,-0.477002859116,0.0,1.02404403687,0.123179234564,0.0,2.20473003387,0.337609559298,0.0
1450210783926226309,65,1450210783925660040,odom,2.40623855591,0.0770486593246,0.0,2.36907863617,-0.241768151522,0.0,1.19318819046,-0.481103807688,0.0,1.07152593136,0.116640523076,0.0,2.24741649628,0.355976194143,0.0
1450210784138856417,66,1450210784137103450,odom,2.45439910889,0.0996726900339,0.0,2.42398571968,-0.219858258963,0.0,1.2534160614,-0.483992367983,0.0,1.11914789677,0.111047200859,0.0,2.28971743584,0.375181287527,0.0
1450210784313954789,67,1450210784313644896,odom,2.50768852234,0.124577127397,0.0,2.48403501511,-0.195525228977,0.0,1.31930911541,-0.484339743853,0.0,1.17249512672,0.107729203999,0.0,2.33722090721,0.396543741226,0.0
1450210784533059444,68,1450210784530192872,odom,2.56037855148,0.150837928057,0.0,2.54349541664,-0.169692829251,0.0,1.3851338625,-0.483058780432,0.0,1.22583949566,0.105775088072,0.0,2.38420128822,0.419141024351,0.0
1450210784735792443,69,1450210784730468236,odom,2.61151123047,0.171226084232,0.0,2.59801650047,-0.149465188384,0.0,1.44303107262,-0.475055038929,0.0,1.27752292156,0.112062558532,0.0,2.43250846863,0.437652409077,0.0
1450210784939903178,70,1450210784935568551,odom,2.66694664955,0.186853274703,0.0,2.65345191956,-0.133837997913,0.0,1.4984664917,-0.459427833557,0.0,1.33295822144,0.127689749002,0.0,2.48794364929,0.453279584646,0.0
1450210785142055689,71,1450210785138345360,odom,2.71788620949,0.207692921162,0.0,2.70778131485,-0.113123059273,0.0,1.55630111694,-0.450900435448,0.0,1.38459765911,0.13443531096,0.0,2.53607773781,0.472212672234,0.0
1450210785328394715,72,1450210785325769518,odom,2.77217268944,0.216895923018,0.0,2.75867795944,-0.103795364499,0.0,1.60369265079,-0.429385215044,0.0,1.43818438053,0.157732382417,0.0,2.5931699276,0.483322232962,0.0
1450210785511644276,73,1450210785510628761,odom,2.82760810852,0.232523113489,0.0,2.81411337852,-0.0881681740284,0.0,1.65912795067,-0.413758009672,0.0,1.49361979961,0.173359572887,0.0,2.64860510826,0.498949408531,0.0
1450210785717263663,74,1450210785717039194,odom,2.87635612488,0.239911869168,0.0,2.85947322845,-0.0806188955903,0.0,1.70111143589,-0.393984854221,0.0,1.54181706905,0.194849029183,0.0,2.70017886162,0.508214950562,0.0
1450210785949033770,75,1450210785945527953,odom,2.92198586464,0.258590638638,0.0,2.90849113464,-0.06210064888,0.0,1.75350570679,-0.387690484524,0.0,1.58799755573,0.199427098036,0.0,2.74298286438,0.525016963482,0.0
1450210786154056823,76,1450210786152732093,odom,2.95971155167,0.262619256973,0.0,2.94282865524,-0.0579114928842,0.0,1.78446698189,-0.371277451515,0.0,1.62517261505,0.21755643189,0.0,2.78353428841,0.530922353268,0.0
1450210786335917034,77,1450210786335694198,odom,2.98867034912,0.276756554842,0.0,2.97517561913,-0.043934725225,0.0,1.82019019127,-0.369524568319,0.0,1.65468192101,0.21759301424,0.0,2.80966734886,0.543182849884,0.0
1450210786536777273,78,1450210786533480234,odom,3.00973296165,0.276214361191,0.0,2.99285006523,-0.0443163849413,0.0,1.83448839188,-0.357682347298,0.0,1.67519402504,0.231151536107,0.0,2.83355569839,0.544517457485,0.0
1450210786750270823,79,1450210786742672096,odom,3.01962280273,0.272618055344,0.0,2.99935340881,-0.0477163903415,0.0,1.83774483204,-0.348823457956,0.0,1.6846820116,0.241660937667,0.0,2.84629058838,0.542768001556,0.0
1450210786943081108,80,1450210786942827785,odom,3.01961493492,0.272647470236,0.0,2.999345541,-0.047686971724,0.0,1.83773696423,-0.348794013262,0.0,1.684674263,0.24169036746,0.0,2.84628295898,0.542797386646,0.0
1450210787135683093,81,1450210787129288190,odom,3.01529288292,0.277718424797,0.0,2.99840974808,-0.0428123362362,0.0,1.84004819393,-0.356178283691,0.0,1.6807538271,0.232655584812,0.0,2.83911538124,0.546021521091,0.0
1450210787326487790,82,1450210787325033435,odom,3.01529288292,0.277718424797,0.0,2.99840974808,-0.0428123362362,0.0,1.84004819393,-0.356178283691,0.0,1.6807538271,0.232655584812,0.0,2.83911538124,0.546021521091,0.0
1450210787532714405,83,1450210787532558254,odom,3.01529288292,0.277718424797,0.0,2.99840974808,-0.0428123362362,0.0,1.84004819393,-0.356178283691,0.0,1.6807538271,0.232655584812,0.0,2.83911538124,0.546021521091,0.0
1450210787728910260,84,1450210787727349490,odom,3.01529288292,0.277718424797,0.0,2.99840974808,-0.0428123362362,0.0,1.84004819393,-0.356178283691,0.0,1.6807538271,0.232655584812,0.0,2.83911538124,0.546021521091,0.0
1450210787959838615,85,1450210787958958243,odom,3.01529288292,0.277718424797,0.0,2.99840974808,-0.0428123362362,0.0,1.84004819393,-0.356178283691,0.0,1.6807538271,0.232655584812,0.0,2.83911538124,0.546021521091,0.0
1450210788168317833,86,1450210788164873397,odom,3.01529288292,0.277718424797,0.0,2.99840974808,-0.0428123362362,0.0,1.84004819393,-0.356178283691,0.0,1.6807538271,0.232655584812,0.0,2.83911538124,0.546021521091,0.0
1450210788354793799,87,1450210788354480099,odom,3.01529288292,0.277718424797,0.0,2.99840974808,-0.0428123362362,0.0,1.84004819393,-0.356178283691,0.0,1.6807538271,0.232655584812,0.0,2.83911538124,0.546021521091,0.0
1450210788534123145,88,1450210788531954697,odom,3.01529288292,0.277718424797,0.0,2.99840974808,-0.0428123362362,0.0,1.84004819393,-0.356178283691,0.0,1.6807538271,0.232655584812,0.0,2.83911538124,0.546021521091,0.0
1450210788763722187,89,1450210788762887050,odom,3.01529288292,0.277718424797,0.0,2.99840974808,-0.0428123362362,0.0,1.84004819393,-0.356178283691,0.0,1.6807538271,0.232655584812,0.0,2.83911538124,0.546021521091,0.0
1450210788958991013,90,1450210788958788176,odom,3.01529288292,0.277718424797,0.0,2.99840974808,-0.0428123362362,0.0,1.84004819393,-0.356178283691,0.0,1.6807538271,0.232655584812,0.0,2.83911538124,0.546021521091,0.0
1450210789124450467,91,1450210789120496341,odom,3.01529288292,0.277718424797,0.0,2.99840974808,-0.0428123362362,0.0,1.84004819393,-0.356178283691,0.0,1.6807538271,0.232655584812,0.0,2.83911538124,0.546021521091,0.0
1450210789389147869,92,1450210789388257514,odom,3.01529288292,0.277718424797,0.0,2.99840974808,-0.0428123362362,0.0,1.84004819393,-0.356178283691,0.0,1.6807538271,0.232655584812,0.0,2.83911538124,0.546021521091,0.0
1450210789541292395,93,1450210789541047448,odom,3.01529288292,0.277718424797,0.0,2.99840974808,-0.0428123362362,0.0,1.84004819393,-0.356178283691,0.0,1.6807538271,0.232655584812,0.0,2.83911538124,0.546021521091,0.0
1450210789761236460,94,1450210789761059351,odom,3.01529288292,0.277718424797,0.0,2.99840974808,-0.0428123362362,0.0,1.84004819393,-0.356178283691,0.0,1.6807538271,0.232655584812,0.0,2.83911538124,0.546021521091,0.0
1450210789927338758,95,1450210789926155503,odom,3.01529288292,0.277718424797,0.0,2.99840974808,-0.0428123362362,0.0,1.84004819393,-0.356178283691,0.0,1.6807538271,0.232655584812,0.0,2.83911538124,0.546021521091,0.0
1450210790153801040,96,1450210790150324557,odom,3.01529288292,0.277718424797,0.0,2.99840974808,-0.0428123362362,0.0,1.84004819393,-0.356178283691,0.0,1.6807538271,0.232655584812,0.0,2.83911538124,0.546021521091,0.0
1450210790369330292,97,1450210790369050677,odom,3.01529288292,0.277718424797,0.0,2.99840974808,-0.0428123362362,0.0,1.84004819393,-0.356178283691,0.0,1.6807538271,0.232655584812,0.0,2.83911538124,0.546021521091,0.0
1450210790524115493,98,1450210790521277845,odom,3.01529288292,0.277718424797,0.0,2.99840974808,-0.0428123362362,0.0,1.84004819393,-0.356178283691,0.0,1.6807538271,0.232655584812,0.0,2.83911538124,0.546021521091,0.0
1450210790747903900,99,1450210790745880707,odom,3.01529288292,0.277718424797,0.0,2.99840974808,-0.0428123362362,0.0,1.84004819393,-0.356178283691,0.0,1.6807538271,0.232655584812,0.0,2.83911538124,0.546021521091,0.0
1450210790931530877,100,1450210790931241644,odom,3.01529288292,0.277718424797,0.0,2.99840974808,-0.0428123362362,0.0,1.84004819393,-0.356178283691,0.0,1.6807538271,0.232655584812,0.0,2.83911538124,0.546021521091,0.0
1450210791142013813,101,1450210791141701470,odom,3.01529288292,0.277718424797,0.0,2.99840974808,-0.0428123362362,0.0,1.84004819393,-0.356178283691,0.0,1.6807538271,0.232655584812,0.0,2.83911538124,0.546021521091,0.0
1450210791323673822,102,1450210791323444734,odom,3.01529288292,0.277718424797,0.0,2.99840974808,-0.0428123362362,0.0,1.84004819393,-0.356178283691,0.0,1.6807538271,0.232655584812,0.0,2.83911538124,0.546021521091,0.0
1450210791521018764,103,1450210791518777996,odom,3.01529288292,0.277718424797,0.0,2.99840974808,-0.0428123362362,0.0,1.84004819393,-0.356178283691,0.0,1.6807538271,0.232655584812,0.0,2.83911538124,0.546021521091,0.0
1450210791746524012,104,1450210791743195567,odom,3.01529288292,0.277718424797,0.0,2.99840974808,-0.0428123362362,0.0,1.84004819393,-0.356178283691,0.0,1.6807538271,0.232655584812,0.0,2.83911538124,0.546021521091,0.0
1450210791923160535,105,1450210791923047549,odom,3.01529288292,0.277718424797,0.0,2.99840974808,-0.0428123362362,0.0,1.84004819393,-0.356178283691,0.0,1.6807538271,0.232655584812,0.0,2.83911538124,0.546021521091,0.0
1450210792122371407,106,1450210792121854980,odom,3.01529288292,0.277718424797,0.0,2.99840974808,-0.0428123362362,0.0,1.84004819393,-0.356178283691,0.0,1.6807538271,0.232655584812,0.0,2.83911538124,0.546021521091,0.0
1450210792338606042,107,1450210792337395252,odom,3.01529288292,0.277718424797,0.0,2.99840974808,-0.0428123362362,0.0,1.84004819393,-0.356178283691,0.0,1.6807538271,0.232655584812,0.0,2.83911538124,0.546021521091,0.0
1450210792527811022,108,1450210792527557117,odom,3.01529288292,0.277718424797,0.0,2.99840974808,-0.0428123362362,0.0,1.84004819393,-0.356178283691,0.0,1.6807538271,0.232655584812,0.0,2.83911538124,0.546021521091,0.0
1450210792730316107,109,1450210792730086771,odom,3.01529288292,0.277718424797,0.0,2.99840974808,-0.0428123362362,0.0,1.84004819393,-0.356178283691,0.0,1.6807538271,0.232655584812,0.0,2.83911538124,0.546021521091,0.0
1450210792942842806,110,1450210792942155153,odom,3.01529288292,0.277718424797,0.0,2.99840974808,-0.0428123362362,0.0,1.84004819393,-0.356178283691,0.0,1.6807538271,0.232655584812,0.0,2.83911538124,0.546021521091,0.0
1450210793122454808,111,1450210793120922437,odom,3.01529288292,0.277718424797,0.0,2.99840974808,-0.0428123362362,0.0,1.84004819393,-0.356178283691,0.0,1.6807538271,0.232655584812,0.0,2.83911538124,0.546021521091,0.0
1450210793328380125,112,1450210793327829273,odom,3.01529288292,0.277718424797,0.0,2.99840974808,-0.0428123362362,0.0,1.84004819393,-0.356178283691,0.0,1.6807538271,0.232655584812,0.0,2.83911538124,0.546021521091,0.0
1450210793593147674,113,1450210793586590444,odom,3.01529288292,0.277718424797,0.0,2.99840974808,-0.0428123362362,0.0,1.84004819393,-0.356178283691,0.0,1.6807538271,0.232655584812,0.0,2.83911538124,0.546021521091,0.0
1450210793765791522,114,1450210793764311108,odom,3.01529288292,0.277718424797,0.0,2.99840974808,-0.0428123362362,0.0,1.84004819393,-0.356178283691,0.0,1.6807538271,0.232655584812,0.0,2.83911538124,0.546021521091,0.0
1450210793965057452,115,1450210793952479459,odom,3.01529288292,0.277718424797,0.0,2.99840974808,-0.0428123362362,0.0,1.84004819393,-0.356178283691,0.0,1.6807538271,0.232655584812,0.0,2.83911538124,0.546021521091,0.0
1450210794178084478,116,1450210794177626588,odom,3.01529288292,0.277718424797,0.0,2.99840974808,-0.0428123362362,0.0,1.84004819393,-0.356178283691,0.0,1.6807538271,0.232655584812,0.0,2.83911538124,0.546021521091,0.0
1450210794313226014,117,1450210794312767223,odom,3.01529288292,0.277718424797,0.0,2.99840974808,-0.0428123362362,0.0,1.84004819393,-0.356178283691,0.0,1.6807538271,0.232655584812,0.0,2.83911538124,0.546021521091,0.0
1450210794523533655,118,1450210794523308832,odom,3.01529288292,0.277718424797,0.0,2.99840974808,-0.0428123362362,0.0,1.84004819393,-0.356178283691,0.0,1.6807538271,0.232655584812,0.0,2.83911538124,0.546021521091,0.0
1450210794731917235,119,1450210794731267513,odom,3.01529288292,0.277718424797,0.0,2.99840974808,-0.0428123362362,0.0,1.84004819393,-0.356178283691,0.0,1.6807538271,0.232655584812,0.0,2.83911538124,0.546021521091,0.0
1450210794925650904,120,1450210794925072460,odom,3.01529288292,0.277718424797,0.0,2.99840974808,-0.0428123362362,0.0,1.84004819393,-0.356178283691,0.0,1.6807538271,0.232655584812,0.0,2.83911538124,0.546021521091,0.0
1450210795193152690,121,1450210795173776105,odom,3.01529288292,0.277718424797,0.0,2.99840974808,-0.0428123362362,0.0,1.84004819393,-0.356178283691,0.0,1.6807538271,0.232655584812,0.0,2.83911538124,0.546021521091,0.0
1450210795326447069,122,1450210795324802997,odom,3.01529288292,0.277718424797,0.0,2.99840974808,-0.0428123362362,0.0,1.84004819393,-0.356178283691,0.0,1.6807538271,0.232655584812,0.0,2.83911538124,0.546021521091,0.0
1450210795542863261,123,1450210795542656487,odom,3.01529288292,0.277718424797,0.0,2.99840974808,-0.0428123362362,0.0,1.84004819393,-0.356178283691,0.0,1.6807538271,0.232655584812,0.0,2.83911538124,0.546021521091,0.0
1450210795738442487,124,1450210795738244555,odom,3.01529288292,0.277718424797,0.0,2.99840974808,-0.0428123362362,0.0,1.84004819393,-0.356178283691,0.0,1.6807538271,0.232655584812,0.0,2.83911538124,0.546021521091,0.0
1450210795939639777,125,1450210795936014381,odom,3.01529288292,0.277718424797,0.0,2.99840974808,-0.0428123362362,0.0,1.84004819393,-0.356178283691,0.0,1.6807538271,0.232655584812,0.0,2.83911538124,0.546021521091,0.0
1450210796142808258,126,1450210796138981431,odom,3.01529288292,0.277718424797,0.0,2.99840974808,-0.0428123362362,0.0,1.84004819393,-0.356178283691,0.0,1.6807538271,0.232655584812,0.0,2.83911538124,0.546021521091,0.0
1450210796338606931,127,1450210796330664506,odom,3.01529288292,0.277718424797,0.0,2.99840974808,-0.0428123362362,0.0,1.84004819393,-0.356178283691,0.0,1.6807538271,0.232655584812,0.0,2.83911538124,0.546021521091,0.0
1450210796541725169,128,1450210796520992909,odom,3.01529288292,0.277718424797,0.0,2.99840974808,-0.0428123362362,0.0,1.84004819393,-0.356178283691,0.0,1.6807538271,0.232655584812,0.0,2.83911538124,0.546021521091,0.0
1450210796727577689,129,1450210796727288730,odom,3.01529288292,0.277718424797,0.0,2.99840974808,-0.0428123362362,0.0,1.84004819393,-0.356178283691,0.0,1.6807538271,0.232655584812,0.0,2.83911538124,0.546021521091,0.0
1450210796965481221,130,1450210796961927089,odom,3.01529288292,0.277718424797,0.0,2.99840974808,-0.0428123362362,0.0,1.84004819393,-0.356178283691,0.0,1.6807538271,0.232655584812,0.0,2.83911538124,0.546021521091,0.0
1450210797138624132,131,1450210797136444403,odom,3.01529288292,0.277718424797,0.0,2.99840974808,-0.0428123362362,0.0,1.84004819393,-0.356178283691,0.0,1.6807538271,0.232655584812,0.0,2.83911538124,0.546021521091,0.0
1450210797340034366,132,1450210797338910589,odom,3.00416564941,0.274739742279,0.0,2.98728251457,-0.045791015029,0.0,1.82892084122,-0.359156966209,0.0,1.66962647438,0.229676902294,0.0,2.82798814774,0.543042838573,0.0
1450210797539445130,133,1450210797536191476,odom,2.9930460453,0.271731644869,0.0,2.97616314888,-0.0487991124392,0.0,1.81780135632,-0.36216506362,0.0,1.65850698948,0.226668804884,0.0,2.81686878204,0.540034770966,0.0
1450210797733174845,134,1450210797729638777,odom,2.96524739265,0.264211416245,0.0,2.94836449623,-0.0563193559647,0.0,1.79000270367,-0.369685292244,0.0,1.63070833683,0.219148561358,0.0,2.78907012939,0.532514512539,0.0
1450210797925059688,135,1450210797924835768,odom,2.93744874001,0.256691157818,0.0,2.92056584358,-0.0638395994902,0.0,1.76220405102,-0.377205550671,0.0,1.60290968418,0.211628317833,0.0,2.76127147675,0.524994254112,0.0
1450210798138606970,136,1450210798132427841,odom,2.91083431244,0.255699962378,0.0,2.89733958244,-0.0649913176894,0.0,1.74235415459,-0.390581160784,0.0,1.57684600353,0.196536421776,0.0,2.73183131218,0.52212625742,0.0
1450210798324693704,137,1450210798321675147,odom,2.89855480194,0.246074810624,0.0,2.88167190552,-0.0744559466839,0.0,1.72331023216,-0.387821882963,0.0,1.56401586533,0.201011970639,0.0,2.72237753868,0.514377951622,0.0
1450210798523201245,138,1450210798517081652,odom,2.89300322533,0.244541436434,0.0,2.8761203289,-0.0759893283248,0.0,1.71775853634,-0.389355272055,0.0,1.5584641695,0.199478596449,0.0,2.71682596207,0.512844562531,0.0
1450210798719742479,139,1450210798718150715,odom,2.89300322533,0.244541436434,0.0,2.8761203289,-0.0759893283248,0.0,1.71775853634,-0.389355272055,0.0,1.5584641695,0.199478596449,0.0,2.71682596207,0.512844562531,0.0
1450210798915811205,140,1450210798914431507,odom,2.89300322533,0.244541436434,0.0,2.8761203289,-0.0759893283248,0.0,1.71775853634,-0.389355272055,0.0,1.5584641695,0.199478596449,0.0,2.71682596207,0.512844562531,0.0
1450210799124459887,141,1450210799120657286,odom,2.88307595253,0.248033046722,0.0,2.86958146095,-0.0726582407951,0.0,1.71459591389,-0.398248076439,0.0,1.54908776283,0.188869506121,0.0,2.70407319069,0.514459371567,0.0
1450210799348702848,142,1450210799346435003,odom,2.86642932892,0.243403553963,0.0,2.85293459892,-0.0772877261043,0.0,1.69794917107,-0.402877569199,0.0,1.53244102001,0.184240013361,0.0,2.68742632866,0.509829878807,0.0
1450210799532465417,143,1450210799531496704,odom,2.84421467781,0.237299352884,0.0,2.83071994781,-0.0833919271827,0.0,1.67573451996,-0.408981770277,0.0,1.5102263689,0.178135827184,0.0,2.66521167755,0.503725647926,0.0
1450210799718751505,144,1450210799718517826,odom,2.81090474129,0.228099048138,0.0,2.79741001129,-0.0925922244787,0.0,1.64242470264,-0.418182075024,0.0,1.47691655159,0.168935522437,0.0,2.63190197945,0.494525372982,0.0
1450210799943286769,145,1450210799942689179,odom,2.76653218269,0.21568530798,0.0,2.7530374527,-0.105005972087,0.0,1.59805214405,-0.430595815182,0.0,1.432543993,0.156521767378,0.0,2.58752942085,0.482111603022,0.0
1450210800151536457,146,1450210800151270463,odom,2.72218394279,0.203183546662,0.0,2.7086892128,-0.117507725954,0.0,1.55370390415,-0.443097561598,0.0,1.3881957531,0.144020020962,0.0,2.54318118095,0.469609856606,0.0
1450210800367491081,147,1450210800363900991,odom,2.66248846054,0.191949874163,0.0,2.6523835659,-0.128866106272,0.0,1.50090348721,-0.466643482447,0.0,1.32920002937,0.11869224906,0.0,2.48068022728,0.456469625235,0.0
1450210800531096081,148,1450210800527848214,odom,2.60043668747,0.168072536588,0.0,2.58694195747,-0.15261875093,0.0,1.43195652962,-0.478208601475,0.0,1.26644837856,0.108909003437,0.0,2.42143368721,0.434498846531,0.0
1450210800773333498,149,1450210800770228524,odom,2.53512191772,0.155539363623,0.0,2.52501702309,-0.165276616812,0.0,1.37353682518,-0.503053963184,0.0,1.20183336735,0.0822817459702,0.0,2.35331344604,0.420059114695,0.0
1450210800926191769,150,1450210800923187313,odom,2.46994328499,0.142316669226,0.0,2.4632294178,-0.178588181734,0.0,1.31538307667,-0.528515398502,0.0,1.13750338554,0.0549731403589,0.0,2.28534960747,0.404900312424,0.0
1450210801155078454,151,1450210801151491834,odom,2.3939166069,0.124959655106,0.0,2.390594244,-0.195998236537,0.0,1.24651014805,-0.558036148548,0.0,1.06247425079,0.0235399771482,0.0,2.20655846596,0.385577887297,0.0
1450210801323480305,152,1450210801322998236,odom,2.32913470268,0.110043749213,0.0,2.32920432091,-0.210931316018,0.0,1.18901014328,-0.585039556026,0.0,0.998838424683,-0.00544074783102,0.0,2.13903284073,0.368667453527,0.0
1450210801558399213,153,1450210801558104091,odom,2.26346588135,0.0884971693158,0.0,2.26353549957,-0.232477903366,0.0,1.12334120274,-0.606586098671,0.0,0.933169484138,-0.0269873328507,0.0,2.07336378098,0.347120881081,0.0
1450210801719667226,154,1450210801719056082,odom,2.20550775528,0.0518096424639,0.0,2.19540286064,-0.269006341696,0.0,1.04392266273,-0.606783688068,0.0,0.872219145298,-0.0214479789138,0.0,2.0236992836,0.316329389811,0.0
1450210801929357480,155,1450210801929222134,odom,2.14348936081,0.0278153121471,0.0,2.12999463081,-0.29287597537,0.0,0.975009262562,-0.618465781212,0.0,0.809501111507,-0.031348221004,0.0,1.96448647976,0.294241607189,0.0
1450210802164812561,156,1450210802164586659,odom,2.07566928864,0.00294433697127,0.0,2.05878639221,-0.317586421967,0.0,0.900424659252,-0.630952358246,0.0,0.741130292416,-0.0421185009181,0.0,1.89949202538,0.271247446537,0.0
1450210802311627907,157,1450210802311274457,odom,2.00613212585,-0.0271804947406,0.0,1.98247861862,-0.347282856703,0.0,0.81775277853,-0.636097371578,0.0,0.67093873024,-0.0440284237266,0.0,1.83566451073,0.244786113501,0.0
1450210802533787909,158,1450210802524110586,odom,1.93600976467,-0.0559767708182,0.0,1.90559637547,-0.375507712364,0.0,0.735026836395,-0.639641821384,0.0,0.600758671761,-0.0446022637188,0.0,1.77132821083,0.219531834126,0.0
1450210802743774895,159,1450210802742105505,odom,1.85977101326,-0.0849989503622,0.0,1.82261121273,-0.403815746307,0.0,0.646720707417,-0.643151402473,0.0,0.525058448315,-0.0454070791602,0.0,1.70094895363,0.193928584456,0.0
1450210802931868831,160,1450210802931719585,odom,1.79036319256,-0.105117790401,0.0,1.74983644485,-0.423524081707,0.0,0.571482300758,-0.650419771671,0.0,0.456143647432,-0.0514230877161,0.0,1.63449776173,0.175472572446,0.0
1450210803129318420,161,1450210803126300109,odom,1.7168391943,-0.119275063276,0.0,1.67631232738,-0.437681376934,0.0,0.497958272696,-0.664577007294,0.0,0.382619649172,-0.0655803605914,0.0,1.56097376347,0.161315307021,0.0
1450210803386661550,162,1450210803385698122,odom,1.63956582546,-0.145027667284,0.0,1.59231865406,-0.462506353855,0.0,0.409432411194,-0.664447367191,0.0,0.306779056787,-0.063146866858,0.0,1.48966526985,0.13879416883,0.0
1450210803539362115,163,1450210803539120482,odom,1.56950557232,-0.162635996938,0.0,1.51890599728,-0.479597628117,0.0,0.333951741457,-0.669026851654,0.0,0.237658575177,-0.0666750669479,0.0,1.42261278629,0.122754126787,0.0
1450210803736655910,164,1450210803736385026,odom,1.51431584358,-0.183041989803,0.0,1.4570287466,-0.498863428831,0.0,0.268335670233,-0.663206875324,0.0,0.184794411063,-0.0589545480907,0.0,1.37348747253,0.105388887227,0.0
1450210803944750155,165,1450210803942344046,odom,1.46091842651,-0.196566909552,0.0,1.4002969265,-0.511765301228,0.0,0.209933444858,-0.663537621498,0.0,0.132782518864,-0.0584362074733,0.0,1.3231459856,0.0933361202478,0.0
1450210804205254747,166,1450210804199973056,odom,1.42665040493,-0.201028138399,0.0,1.36602890491,-0.516226530075,0.0,0.175665467978,-0.667998850346,0.0,0.098514534533,-0.0628974437714,0.0,1.28887796402,0.0888748839498,0.0
1450210804359660725,167,1450210804359119596,odom,1.40165960789,-0.210194885731,0.0,1.33771061897,-0.524735033512,0.0,0.145809650421,-0.663919329643,0.0,0.0750576555729,-0.0580363571644,0.0,1.26695859432,0.0811479091644,0.0
1450210804572895643,168,1450210804571823812,odom,1.39022195339,-0.211561173201,0.0,1.32627284527,-0.526101350784,0.0,0.13437192142,-0.665285587311,0.0,0.0636199191213,-0.059402640909,0.0,1.25552082062,0.0797816291451,0.0
1450210804756657467,169,1450210804752096118,odom,1.38450491428,-0.212259411812,0.0,1.32055580616,-0.526799559593,0.0,0.128654897213,-0.665983855724,0.0,0.0579028949142,-0.0601008869708,0.0,1.24980378151,0.0790833830833,0.0
1450210804941693875,170,1450210804940707007,odom,1.38663125038,-0.205915853381,0.0,1.32600975037,-0.521114289761,0.0,0.135646298528,-0.672886610031,0.0,0.0584953688085,-0.0677851587534,0.0,1.24885880947,0.0839871689677,0.0
1450210805170293727,171,1450210805167443355,odom,1.38663125038,-0.205915853381,0.0,1.32600975037,-0.521114289761,0.0,0.135646298528,-0.672886610031,0.0,0.0584953688085,-0.0677851587534,0.0,1.24885880947,0.0839871689677,0.0
1450210805340423625,172,1450210805336231811,odom,1.38663125038,-0.205915853381,0.0,1.32600975037,-0.521114289761,0.0,0.135646298528,-0.672886610031,0.0,0.0584953688085,-0.0677851587534,0.0,1.24885880947,0.0839871689677,0.0
1450210805572454760,173,1450210805571958384,odom,1.38663125038,-0.205915853381,0.0,1.32600975037,-0.521114289761,0.0,0.135646298528,-0.672886610031,0.0,0.0584953688085,-0.0677851587534,0.0,1.24885880947,0.0839871689677,0.0
1450210805761095005,174,1450210805759848497,odom,1.38663125038,-0.205915853381,0.0,1.32600975037,-0.521114289761,0.0,0.135646298528,-0.672886610031,0.0,0.0584953688085,-0.0677851587534,0.0,1.24885880947,0.0839871689677,0.0
