%time,field.x,field.y,field.z
1450210769849969782,0.0,0.0,263.0
1450210769862425524,0.0,0.0,265.0
1450210769878871141,0.0,0.0,266.0
1450210769890937525,0.0,0.0,263.0
1450210769907325681,0.0,0.0,265.0
1450210769923750831,0.0,0.0,264.0
1450210769935979043,0.0,0.0,259.0
1450210769952503065,0.0,0.0,264.0
1450210769968901331,0.0,0.0,264.0
1450210769981243970,0.0,0.0,270.0
1450210769999114391,0.0,0.0,269.0
1450210770013817443,0.0,0.0,261.0
1450210770026163864,0.0,0.0,265.0
1450210770042614372,0.0,0.0,262.0
1450210770059792846,0.0,0.0,263.0
1450210770071217175,0.0,0.0,265.0
1450210770087663949,0.0,0.0,263.0
1450210770104102325,0.0,0.0,266.0
1450210770116315602,0.0,0.0,266.0
1450210770132824123,0.0,0.0,265.0
1450210770149021867,0.0,0.0,265.0
1450210770161521876,0.0,0.0,260.0
1450210770177675376,0.0,0.0,262.0
1450210770194153861,0.0,0.0,264.0
1450210770206406936,0.0,0.0,262.0
1450210770222694964,0.0,0.0,264.0
1450210770239154947,0.0,0.0,270.0
1450210770251490432,0.0,0.0,270.0
1450210770267966466,0.0,0.0,271.0
1450210770280116256,0.0,0.0,263.0
1450210770296620236,0.0,0.0,267.0
1450210770312885091,0.0,0.0,262.0
1450210770325183508,0.0,0.0,265.0
1450210770341596692,0.0,0.0,267.0
1450210770362069094,0.0,0.0,261.0
1450210770374379564,0.0,0.0,273.0
1450210770390751478,0.0,0.0,265.0
1450210770402978172,0.0,0.0,267.0
1450210770419389806,0.0,0.0,263.0
1450210770435808866,0.0,0.0,268.0
1450210770448031250,0.0,0.0,263.0
1450210770464614147,0.0,0.0,268.0
1450210770480942729,0.0,0.0,267.0
1450210770493207278,0.0,0.0,267.0
1450210770509498963,0.0,0.0,270.0
1450210770525946112,0.0,0.0,256.0
1450210770538324811,0.0,0.0,270.0
1450210770554680167,0.0,0.0,263.0
1450210770570952886,0.0,0.0,264.0
1450210770583263748,0.0,0.0,264.0
1450210770599788430,0.0,0.0,269.0
1450210770616138610,0.0,0.0,263.0
1450210770628388281,0.0,0.0,263.0
1450210770644674295,0.0,0.0,263.0
1450210770661285040,0.0,0.0,268.0
1450210770673423297,0.0,0.0,266.0
1450210770689795486,0.0,0.0,260.0
1450210770706147451,0.0,0.0,263.0
1450210770718437466,0.0,0.0,262.0
1450210770734859919,0.0,0.0,263.0
1450210770751199367,0.0,0.0,258.0
1450210770763642307,0.0,0.0,261.0
1450210770779834758,0.0,0.0,248.0
1450210770792262350,0.0,0.0,265.0
1450210770808536461,0.0,0.0,260.0
1450210770825042559,0.0,0.0,258.0
1450210770837313075,0.0,0.0,263.0
1450210770853645912,0.0,0.0,264.0
1450210770870085589,0.0,0.0,263.0
1450210770882343833,0.0,0.0,257.0
1450210770898882330,0.0,0.0,262.0
1450210770916162108,0.0,0.0,262.0
1450210770927382154,0.0,0.0,258.0
1450210770943778506,0.0,0.0,261.0
1450210770960596577,0.0,0.0,257.0
1450210770973105601,0.0,0.0,258.0
1450210770988886353,0.0,0.0,261.0
1450210771005301701,0.0,0.0,259.0
1450210771017484395,0.0,0.0,257.0
1450210771034004748,0.0,0.0,260.0
1450210771050261268,0.0,0.0,260.0
1450210771062624177,0.0,0.0,260.0
1450210771079009373,0.0,0.0,256.0
1450210771095447078,0.0,0.0,255.0
1450210771107910690,0.0,0.0,256.0
1450210771124058978,0.0,0.0,257.0
1450210771140400224,0.0,0.0,259.0
1450210771152721889,0.0,0.0,263.0
1450210771169177013,0.0,0.0,260.0
1450210771181472641,0.0,0.0,265.0
1450210771197862870,0.0,0.0,256.0
1450210771214095751,0.0,0.0,258.0
1450210771226631564,0.0,0.0,259.0
1450210771242867120,0.0,0.0,258.0
1450210771259280812,0.0,0.0,257.0
1450210771271526977,0.0,0.0,265.0
1450210771288109609,0.0,0.0,266.0
1450210771304392747,0.0,0.0,263.0
1450210771316561257,0.0,0.0,258.0
1450210771332951852,0.0,0.0,255.0
1450210771349342906,0.0,0.0,268.0
1450210771361667960,0.0,0.0,255.0
1450210771377968845,0.0,0.0,249.0
1450210771394395840,0.0,0.0,243.0
1450210771407226006,0.0,0.0,259.0
1450210771423050096,0.0,0.0,257.0
1450210771439872556,0.0,0.0,259.0
1450210771452436947,0.0,0.0,257.0
1450210771468417151,0.0,0.0,255.0
1450210771484569452,0.0,0.0,254.0
1450210771497518792,0.0,0.0,254.0
1450210771513458090,0.0,0.0,252.0
1450210771529851300,0.0,0.0,254.0
1450210771542227648,0.0,0.0,257.0
1450210771558677785,0.0,0.0,257.0
1450210771571085770,0.0,0.0,257.0
1450210771587335345,0.0,0.0,253.0
1450210771603683599,0.0,0.0,255.0
1450210771616463361,0.0,0.0,257.0
1450210771632111086,0.0,0.0,255.0
1450210771649695591,0.0,0.0,263.0
1450210771660940169,0.0,0.0,254.0
1450210771680155047,0.0,0.0,261.0
1450210771693498002,0.0,0.0,251.0
1450210771706077250,0.0,0.0,252.0
1450210771722601672,0.0,0.0,255.0
1450210771739101255,0.0,0.0,255.0
1450210771751727675,0.0,0.0,256.0
1450210771767527996,0.0,0.0,256.0
1450210771783708099,0.0,0.0,254.0
1450210771796290492,0.0,0.0,255.0
1450210771812679588,0.0,0.0,254.0
1450210771829131229,0.0,0.0,260.0
1450210771841197498,0.0,0.0,256.0
1450210771860459545,0.0,0.0,254.0
1450210771876228412,0.0,0.0,257.0
1450210771886369143,0.0,0.0,254.0
1450210771903295892,0.0,0.0,255.0
1450210771919668033,0.0,0.0,253.0
1450210771931218171,0.0,0.0,254.0
1450210771947483809,0.0,0.0,252.0
1450210771960141104,0.0,0.0,253.0
1450210771976152294,0.0,0.0,255.0
1450210771992746042,0.0,0.0,255.0
1450210772009410013,0.0,0.0,253.0
1450210772025903230,0.0,0.0,254.0
1450210772037910699,0.0,0.0,255.0
1450210772054144902,0.0,0.0,257.0
1450210772070501619,0.0,0.0,258.0
1450210772083103014,0.0,0.0,255.0
1450210772099707604,0.0,0.0,255.0
1450210772115520104,0.0,0.0,254.0
1450210772127768684,0.0,0.0,254.0
1450210772144629697,0.0,0.0,252.0
1450210772160465976,0.0,0.0,256.0
1450210772173267712,0.0,0.0,253.0
1450210772189836826,0.0,0.0,254.0
1450210772205656193,0.0,0.0,253.0
1450210772217917850,0.0,0.0,248.0
1450210772234462958,0.0,0.0,258.0
1450210772250727721,0.0,0.0,264.0
1450210772263006886,0.0,0.0,252.0
1450210772279513983,0.0,0.0,251.0
1450210772295936327,0.0,0.0,254.0
1450210772308528615,0.0,0.0,251.0
1450210772324629642,0.0,0.0,255.0
1450210772336675823,0.0,0.0,251.0
1450210772353319769,0.0,0.0,257.0
1450210772369629968,0.0,0.0,256.0
1450210772382019401,0.0,0.0,251.0
1450210772398322256,0.0,0.0,254.0
1450210772414659559,0.0,0.0,250.0
1450210772426726863,0.0,0.0,251.0
1450210772443312271,0.0,0.0,253.0
1450210772459858175,0.0,0.0,261.0
1450210772472426407,0.0,0.0,253.0
1450210772488608369,0.0,0.0,252.0
1450210772505016205,0.0,0.0,242.0
1450210772517271321,0.0,0.0,249.0
1450210772533392913,0.0,0.0,249.0
1450210772550138817,0.0,0.0,253.0
1450210772562109647,0.0,0.0,251.0
1450210772578426423,0.0,0.0,251.0
1450210772594814541,0.0,0.0,251.0
1450210772607622315,0.0,0.0,255.0
1450210772623451987,0.0,0.0,251.0
1450210772639806878,0.0,0.0,253.0
1450210772652238430,0.0,0.0,244.0
1450210772668751690,0.0,0.0,256.0
1450210772685082518,0.0,0.0,251.0
1450210772701425461,0.0,0.0,253.0
1450210772713710915,0.0,0.0,254.0
1450210772726583016,0.0,0.0,256.0
1450210772742324237,0.0,0.0,252.0
1450210772760396334,0.0,0.0,253.0
1450210772770947328,0.0,0.0,252.0
1450210772787203864,0.0,0.0,257.0
1450210772803589189,0.0,0.0,256.0
1450210772817464699,0.0,0.0,256.0
1450210772833197937,0.0,0.0,252.0
1450210772849814725,0.0,0.0,261.0
1450210772861144240,0.0,0.0,250.0
1450210772878060689,0.0,0.0,252.0
1450210772894678597,0.0,0.0,255.0
1450210772907228327,0.0,0.0,252.0
1450210772922860749,0.0,0.0,256.0
1450210772939000345,0.0,0.0,254.0
1450210772951154795,0.0,0.0,252.0
1450210772967675438,0.0,0.0,252.0
1450210772984593999,0.0,0.0,246.0
1450210772996564960,0.0,0.0,253.0
1450210773013505065,0.0,0.0,249.0
1450210773029401376,0.0,0.0,252.0
1450210773041278383,0.0,0.0,251.0
1450210773057831635,0.0,0.0,256.0
1450210773074380954,0.0,0.0,250.0
1450210773086647961,0.0,0.0,250.0
1450210773103125968,0.0,0.0,254.0
1450210773115235858,0.0,0.0,249.0
1450210773131512840,0.0,0.0,251.0
1450210773147911058,0.0,0.0,252.0
1450210773160157274,0.0,0.0,250.0
1450210773176555871,0.0,0.0,252.0
1450210773192801163,0.0,0.0,252.0
1450210773206598981,0.0,0.0,256.0
1450210773221670789,0.0,0.0,249.0
1450210773242179073,0.0,0.0,257.0
1450210773250151926,0.0,0.0,253.0
1450210773268714003,0.0,0.0,247.0
1450210773283302271,0.0,0.0,255.0
1450210773295216510,0.0,0.0,249.0
1450210773311808078,0.0,0.0,243.0
1450210773327986330,0.0,0.0,250.0
1450210773340517181,0.0,0.0,250.0
1450210773356836288,0.0,0.0,252.0
1450210773373260613,0.0,0.0,255.0
1450210773385596676,0.0,0.0,248.0
1450210773402196183,0.0,0.0,249.0
1450210773424662291,0.0,0.0,251.0
1450210773430716058,0.0,0.0,247.0
1450210773446782578,0.0,0.0,250.0
1450210773465258017,0.0,0.0,249.0
1450210773475906392,0.0,0.0,252.0
1450210773491824278,0.0,0.0,250.0
1450210773504204535,0.0,0.0,250.0
1450210773520634453,0.0,0.0,248.0
1450210773537093391,0.0,0.0,251.0
1450210773549262702,0.0,0.0,251.0
1450210773565798835,0.0,0.0,248.0
1450210773582240410,0.0,0.0,248.0
1450210773594721956,0.0,0.0,252.0
1450210773610966199,0.0,0.0,247.0
1450210773630391475,0.0,0.0,260.0
1450210773639629206,0.0,0.0,252.0
1450210773656202746,0.0,0.0,251.0
1450210773672492283,0.0,0.0,251.0
1450210773684718622,0.0,0.0,251.0
1450210773701445186,0.0,0.0,251.0
1450210773717195702,0.0,0.0,252.0
1450210773729474360,0.0,0.0,250.0
1450210773746168177,0.0,0.0,255.0
1450210773762466511,0.0,0.0,253.0
1450210773774495105,0.0,0.0,249.0
1450210773793393470,0.0,0.0,250.0
1450210773810418984,0.0,0.0,251.0
1450210773820157922,0.0,0.0,248.0
1450210773835981835,0.0,0.0,248.0
1450210773856236169,0.0,0.0,260.0
1450210773864861565,0.0,0.0,250.0
1450210773881258647,0.0,0.0,250.0
1450210773895565665,0.0,0.0,250.0
1450210773909662380,0.0,0.0,248.0
1450210773926327205,0.0,0.0,248.0
1450210773939496217,0.0,0.0,245.0
1450210773955075796,0.0,0.0,252.0
1450210773971263162,0.0,0.0,250.0
1450210773983641401,0.0,0.0,251.0
1450210774000017067,0.0,0.0,235.0
1450210774016639116,0.0,0.0,256.0
1450210774035034876,0.0,0.0,248.0
1450210774046884550,0.0,0.0,249.0
1450210774061384814,0.0,0.0,247.0
1450210774073838524,0.0,0.0,246.0
1450210774090277400,0.0,0.0,248.0
1450210774106671809,0.0,0.0,249.0
1450210774119025609,0.0,0.0,251.0
1450210774137826955,0.0,0.0,249.0
1450210774151501957,0.0,0.0,252.0
1450210774164991487,0.0,0.0,248.0
1450210774182669614,0.0,0.0,245.0
1450210774196413582,0.0,0.0,247.0
1450210774208702960,0.0,0.0,249.0
1450210774226485683,0.0,0.0,250.0
1450210774241714435,0.0,0.0,246.0
1450210774254073903,0.0,0.0,253.0
1450210774270558480,0.0,0.0,238.0
1450210774282865681,0.0,0.0,248.0
1450210774298992923,0.0,0.0,248.0
1450210774315916333,0.0,0.0,245.0
1450210774328022524,0.0,0.0,246.0
1450210774344097821,0.0,0.0,250.0
1450210774361063929,0.0,0.0,249.0
1450210774372705668,0.0,0.0,248.0
1450210774389069192,0.0,0.0,249.0
1450210774405434767,0.0,0.0,254.0
1450210774418668980,0.0,0.0,246.0
1450210774434215340,0.0,0.0,248.0
1450210774451632816,0.0,0.0,248.0
1450210774463148035,0.0,0.0,247.0
1450210774479449540,0.0,0.0,249.0
1450210774495494347,0.0,0.0,248.0
1450210774512433715,0.0,0.0,249.0
1450210774528685456,0.0,0.0,248.0
1450210774540931347,0.0,0.0,249.0
1450210774557827610,0.0,0.0,248.0
1450210774573838756,0.0,0.0,246.0
1450210774585952657,0.0,0.0,250.0
1450210774602045194,0.0,0.0,247.0
1450210774618449595,0.0,0.0,248.0
1450210774631386048,0.0,0.0,247.0
1450210774647837839,0.0,0.0,249.0
1450210774659920427,0.0,0.0,252.0
1450210774675852560,0.0,0.0,248.0
1450210774692669056,0.0,0.0,249.0
1450210774704643715,0.0,0.0,247.0
1450210774720882214,0.0,0.0,244.0
1450210774737741367,0.0,0.0,252.0
1450210774749456665,0.0,0.0,252.0
1450210774772491433,0.0,0.0,248.0
1450210774782359747,0.0,0.0,248.0
1450210774797000306,0.0,0.0,249.0
1450210774811945935,0.0,0.0,249.0
1450210774828069803,0.0,0.0,234.0
1450210774839740446,0.0,0.0,247.0
1450210774856569941,0.0,0.0,254.0
1450210774872634994,0.0,0.0,257.0
1450210774884697087,0.0,0.0,242.0
1450210774901178619,0.0,0.0,250.0
1450210774917968894,0.0,0.0,246.0
1450210774929742948,0.0,0.0,240.0
1450210774946338602,0.0,0.0,245.0
1450210774962769288,0.0,0.0,249.0
1450210774974874532,0.0,0.0,245.0
1450210774991307572,0.0,0.0,247.0
1450210775008472195,0.0,0.0,247.0
1450210775020136404,0.0,0.0,247.0
1450210775036134036,0.0,0.0,248.0
1450210775049109095,0.0,0.0,248.0
1450210775070517257,0.0,0.0,249.0
1450210775081581331,0.0,0.0,244.0
1450210775101784949,0.0,0.0,244.0
1450210775109911629,0.0,0.0,251.0
1450210775129270939,0.0,0.0,251.0
1450210775139404359,0.0,0.0,244.0
1450210775155118498,0.0,0.0,248.0
1450210775171345343,0.0,0.0,248.0
1450210775183859763,0.0,0.0,252.0
1450210775200392011,0.0,0.0,250.0
1450210775217209361,0.0,0.0,247.0
1450210775231428227,0.0,0.0,246.0
1450210775246573577,0.0,0.0,248.0
1450210775261673239,0.0,0.0,247.0
1450210775274211177,0.0,0.0,254.0
1450210775290508799,0.0,0.0,248.0
1450210775306985648,0.0,0.0,250.0
1450210775319298556,0.0,0.0,251.0
1450210775337485881,0.0,0.0,248.0
1450210775353108162,0.0,0.0,256.0
1450210775365109510,0.0,0.0,244.0
1450210775380703393,0.0,0.0,249.0
1450210775397105502,0.0,0.0,244.0
1450210775409446525,0.0,0.0,255.0
1450210775429288265,0.0,0.0,254.0
1450210775437911666,0.0,0.0,248.0
1450210775454397727,0.0,0.0,248.0
1450210775471044689,0.0,0.0,245.0
1450210775483972280,0.0,0.0,248.0
1450210775499179804,0.0,0.0,247.0
1450210775515994478,0.0,0.0,246.0
1450210775528008821,0.0,0.0,245.0
1450210775544875204,0.0,0.0,251.0
1450210775564476253,0.0,0.0,248.0
1450210775572992961,0.0,0.0,248.0
1450210775589308316,0.0,0.0,246.0
1450210775606841900,0.0,0.0,243.0
1450210775617984440,0.0,0.0,249.0
1450210775634631168,0.0,0.0,251.0
1450210775651543695,0.0,0.0,257.0
1450210775663937999,0.0,0.0,249.0
1450210775680373043,0.0,0.0,250.0
1450210775695932533,0.0,0.0,242.0
1450210775708196170,0.0,0.0,246.0
1450210775724812144,0.0,0.0,247.0
1450210775740894150,0.0,0.0,232.0
1450210775753607557,0.0,0.0,247.0
1450210775769707020,0.0,0.0,249.0
1450210775786147530,0.0,0.0,248.0
1450210775798458878,0.0,0.0,246.0
1450210775814972056,0.0,0.0,247.0
1450210775831610993,0.0,0.0,242.0
1450210775843797614,0.0,0.0,250.0
1450210775860118796,0.0,0.0,295.0
1450210775872043009,0.0,0.0,250.0
1450210775888722099,0.0,0.0,303.0
1450210775905890626,0.0,0.0,249.0
1450210775918258583,0.0,0.0,291.0
1450210775935135335,0.0,0.0,248.0
1450210775950446488,0.0,0.0,253.0
1450210775963687033,0.0,0.0,254.0
1450210775980144493,0.0,0.0,259.0
1450210775995052088,0.0,0.0,254.0
1450210776007532491,0.0,0.0,255.0
1450210776023651254,0.0,0.0,249.0
1450210776040059384,0.0,0.0,250.0
1450210776055079599,0.0,0.0,252.0
1450210776074949303,0.0,0.0,252.0
1450210776084895308,0.0,0.0,253.0
1450210776098625044,0.0,0.0,256.0
1450210776114660589,0.0,0.0,254.0
1450210776134017320,0.0,0.0,258.0
1450210776143050757,0.0,0.0,255.0
1450210776158933266,0.0,0.0,257.0
1450210776176126632,0.0,0.0,255.0
1450210776188564568,0.0,0.0,251.0
1450210776206241747,0.0,-2.0,247.0
1450210776235912873,-2.0,-2.0,265.0
1450210776235917135,-2.0,-2.0,241.0
1450210776256946318,-2.0,-2.0,288.0
1450210776263797132,-2.0,-2.0,230.0
1450210776277667344,-2.0,-2.0,234.0
1450210776293994673,-2.0,-2.0,230.0
1450210776306234864,-4.0,-2.0,289.0
1450210776323626956,-4.0,-4.0,240.0
1450210776339623642,-4.0,-4.0,287.0
1450210776351852879,-4.0,-4.0,243.0
1450210776367716133,-4.0,-4.0,281.0
1450210776387625625,-4.0,-4.0,246.0
1450210776397821919,-6.0,-6.0,234.0
1450210776415813130,-6.0,-6.0,228.0
1450210776429614531,-6.0,-6.0,222.0
1450210776442579330,-6.0,-6.0,215.0
1450210776459939804,-8.0,-6.0,227.0
1450210776474856281,-8.0,-8.0,229.0
1450210776487798510,-8.0,-8.0,233.0
1450210776505922810,-8.0,-8.0,235.0
1450210776519672765,-8.0,-8.0,229.0
1450210776531390926,-10.0,-10.0,230.0
1450210776548362097,-10.0,-10.0,209.0
1450210776564219304,-10.0,-10.0,209.0
1450210776576794218,-12.0,-10.0,223.0
1450210776593174185,-12.0,-12.0,224.0
1450210776605984651,-12.0,-12.0,222.0
1450210776621592875,-14.0,-12.0,217.0
1450210776637985371,-14.0,-12.0,209.0
1450210776653879406,-14.0,-14.0,202.0
1450210776666704406,-16.0,-14.0,200.0
1450210776683952978,-16.0,-14.0,213.0
1450210776695629438,-16.0,-16.0,221.0
1450210776711916651,-18.0,-16.0,226.0
1450210776733184317,-18.0,-18.0,193.0
1450210776740837962,-18.0,-18.0,217.0
1450210776756925650,-20.0,-18.0,202.0
1450210776773339568,-20.0,-20.0,208.0
1450210776786060974,-22.0,-20.0,199.0
1450210776801928609,-22.0,-20.0,244.0
1450210776818242992,-24.0,-22.0,198.0
1450210776833349726,-24.0,-22.0,255.0
1450210776847167797,-24.0,-24.0,205.0
1450210776868207565,-26.0,-24.0,242.0
1450210776875904698,-26.0,-26.0,189.0
1450210776895260101,-28.0,-26.0,192.0
1450210776908448326,-28.0,-26.0,202.0
1450210776920606120,-30.0,-28.0,241.0
1450210776937399617,-30.0,-28.0,182.0
1450210776954972732,-32.0,-30.0,240.0
1450210776968026924,-32.0,-30.0,192.0
1450210776983086653,-34.0,-32.0,180.0
1450210776995313209,-36.0,-32.0,195.0
1450210777015082720,-36.0,-34.0,243.0
1450210777031984051,-38.0,-34.0,183.0
1450210777045304465,-38.0,-36.0,229.0
1450210777060503424,-40.0,-36.0,193.0
1450210777072914943,-42.0,-38.0,175.0
1450210777088736907,-42.0,-38.0,169.0
1450210777105101158,-44.0,-40.0,184.0
1450210777117481220,-44.0,-40.0,191.0
1450210777134403908,-46.0,-42.0,177.0
1450210777150297255,-48.0,-42.0,195.0
1450210777162364259,-48.0,-42.0,189.0
1450210777179145428,-50.0,-44.0,177.0
1450210777195902814,-50.0,-46.0,170.0
1450210777207879660,-52.0,-46.0,188.0
1450210777224413693,-54.0,-48.0,175.0
1450210777240366066,-54.0,-48.0,171.0
1450210777252650101,-56.0,-50.0,181.0
1450210777268957449,-58.0,-50.0,172.0
1450210777285250636,-58.0,-52.0,168.0
1450210777301283200,-60.0,-52.0,181.0
1450210777315446861,-62.0,-54.0,175.0
1450210777331521697,-62.0,-54.0,161.0
1450210777344869873,-64.0,-56.0,182.0
1450210777359060881,-66.0,-56.0,172.0
1450210777371829465,-66.0,-58.0,166.0
1450210777388069846,-68.0,-60.0,183.0
1450210777404045788,-70.0,-60.0,197.0
1450210777417181100,-72.0,-62.0,175.0
1450210777432732949,-72.0,-62.0,209.0
1450210777449268970,-74.0,-64.0,175.0
1450210777463168544,-76.0,-66.0,178.0
1450210777484572662,-76.0,-66.0,178.0
1450210777495954514,-78.0,-68.0,214.0
1450210777506464291,-80.0,-68.0,176.0
1450210777522897126,-82.0,-70.0,172.0
1450210777542440581,-82.0,-72.0,165.0
1450210777552213417,-84.0,-72.0,185.0
1450210777567792575,-86.0,-74.0,172.0
1450210777586140888,-88.0,-76.0,177.0
1450210777600439861,-88.0,-76.0,186.0
1450210777613818260,-90.0,-78.0,216.0
1450210777635384381,-92.0,-80.0,183.0
1450210777643783131,-94.0,-80.0,213.0
1450210777658837428,-94.0,-82.0,149.0
1450210777674514804,-96.0,-84.0,186.0
1450210777687038014,-98.0,-84.0,171.0
1450210777703272118,-100.0,-86.0,229.0
1450210777719811995,-100.0,-86.0,187.0
1450210777731756688,-102.0,-88.0,168.0
1450210777748447512,-104.0,-90.0,181.0
1450210777760546784,-104.0,-92.0,189.0
1450210777777033764,-106.0,-92.0,173.0
1450210777796818399,-108.0,-94.0,184.0
1450210777808328813,-108.0,-96.0,190.0
1450210777821946169,-110.0,-96.0,175.0
1450210777839090475,-110.0,-98.0,174.0
1450210777851111433,-112.0,-100.0,195.0
1450210777871633160,-114.0,-100.0,178.0
1450210777883887760,-114.0,-102.0,171.0
1450210777895673433,-116.0,-104.0,170.0
1450210777914373455,-116.0,-106.0,194.0
1450210777928657260,-118.0,-106.0,185.0
1450210777941717755,-118.0,-108.0,180.0
1450210777959631301,-120.0,-110.0,189.0
1450210777975631286,-120.0,-112.0,198.0
1450210777987086675,-122.0,-112.0,182.0
1450210778002404955,-122.0,-114.0,180.0
1450210778019585898,-124.0,-116.0,192.0
1450210778031075050,-124.0,-118.0,195.0
1450210778048896392,-126.0,-118.0,181.0
1450210778063946401,-128.0,-120.0,191.0
1450210778078280072,-128.0,-122.0,256.0
1450210778095188583,-130.0,-124.0,192.0
1450210778111779450,-130.0,-126.0,179.0
1450210778121050153,-132.0,-126.0,193.0
1450210778138957580,-132.0,-128.0,252.0
1450210778149695966,-134.0,-130.0,191.0
1450210778169483027,-134.0,-132.0,233.0
1450210778182821785,-136.0,-134.0,199.0
1450210778196512741,-136.0,-136.0,206.0
1450210778211451435,-138.0,-136.0,193.0
1450210778227414753,-138.0,-138.0,245.0
1450210778239791350,-140.0,-140.0,208.0
1450210778256513202,-142.0,-142.0,190.0
1450210778272577663,-142.0,-144.0,183.0
1450210778284912568,-144.0,-146.0,255.0
1450210778301126499,-144.0,-146.0,201.0
1450210778317539744,-146.0,-148.0,190.0
1450210778329860661,-148.0,-150.0,191.0
1450210778346240088,-148.0,-152.0,204.0
1450210778362769418,-150.0,-154.0,194.0
1450210778374800940,-150.0,-156.0,183.0
1450210778392294828,-152.0,-158.0,197.0
1450210778413908758,-152.0,-158.0,201.0
1450210778420286810,-154.0,-160.0,184.0
1450210778436606347,-156.0,-162.0,196.0
1450210778454241207,-156.0,-164.0,206.0
1450210778468043003,-158.0,-166.0,188.0
1450210778481672774,-160.0,-168.0,182.0
1450210778497893292,-160.0,-170.0,201.0
1450210778510101793,-162.0,-170.0,187.0
1450210778526889337,-162.0,-172.0,230.0
1450210778539278351,-164.0,-174.0,198.0
1450210778556274746,-166.0,-176.0,189.0
1450210778571612804,-166.0,-178.0,180.0
1450210778590341375,-168.0,-180.0,191.0
1450210778600591436,-168.0,-180.0,194.0
1450210778623677234,-170.0,-182.0,177.0
1450210778631431376,-172.0,-184.0,189.0
1450210778645439299,-172.0,-186.0,195.0
1450210778661867498,-174.0,-188.0,179.0
1450210778674887169,-174.0,-190.0,221.0
1450210778691770273,-176.0,-190.0,193.0
1450210778707628884,-178.0,-192.0,173.0
1450210778719413458,-178.0,-194.0,175.0
1450210778735945764,-180.0,-196.0,187.0
1450210778752351017,-180.0,-196.0,195.0
1450210778764478004,-182.0,-198.0,179.0
1450210778780628802,-184.0,-200.0,190.0
1450210778797106755,-184.0,-202.0,195.0
1450210778809124698,-186.0,-204.0,186.0
1450210778827585483,-186.0,-204.0,174.0
1450210778844407428,-188.0,-206.0,191.0
1450210778854170968,-190.0,-208.0,187.0
1450210778871903753,-190.0,-210.0,176.0
1450210778890273616,-192.0,-210.0,187.0
1450210778899933782,-192.0,-212.0,250.0
1450210778918085909,-194.0,-214.0,181.0
1450210778928251525,-196.0,-216.0,246.0
1450210778944468126,-196.0,-216.0,206.0
1450210778961504990,-198.0,-218.0,243.0
1450210778973805174,-200.0,-220.0,204.0
1450210778989542556,-200.0,-222.0,265.0
1450210779006235635,-202.0,-222.0,202.0
1450210779018120390,-202.0,-224.0,252.0
1450210779034520993,-204.0,-226.0,222.0
1450210779051014540,-206.0,-228.0,257.0
1450210779063423493,-206.0,-230.0,207.0
1450210779079827455,-208.0,-230.0,278.0
1450210779096222509,-208.0,-232.0,227.0
1450210779108413742,-210.0,-234.0,266.0
1450210779125449300,-212.0,-234.0,239.0
1450210779140986279,-212.0,-236.0,274.0
1450210779153404289,-214.0,-238.0,239.0
1450210779171245799,-216.0,-240.0,257.0
1450210779186354757,-216.0,-240.0,263.0
1450210779202686056,-218.0,-242.0,257.0
1450210779214858572,-218.0,-244.0,256.0
1450210779231440779,-220.0,-246.0,280.0
1450210779243827495,-222.0,-246.0,271.0
1450210779260481365,-222.0,-248.0,267.0
1450210779276234957,-224.0,-250.0,285.0
1450210779288503822,-224.0,-250.0,285.0
1450210779305688909,-226.0,-252.0,277.0
1450210779317103280,-228.0,-254.0,290.0
1450210779339734336,-228.0,-254.0,299.0
1450210779349873890,-230.0,-256.0,335.0
1450210779362299467,-232.0,-258.0,289.0
1450210779379363517,-232.0,-258.0,362.0
1450210779396046896,-234.0,-260.0,274.0
1450210779409821685,-236.0,-262.0,307.0
1450210779424616405,-236.0,-264.0,281.0
1450210779440855038,-238.0,-264.0,264.0
1450210779453493180,-240.0,-266.0,266.0
1450210779470369580,-240.0,-268.0,266.0
1450210779485132935,-242.0,-270.0,249.0
1450210779501625574,-244.0,-270.0,246.0
1450210779518526801,-244.0,-272.0,243.0
1450210779531253395,-246.0,-274.0,216.0
1450210779547122977,-248.0,-274.0,225.0
1450210779563628725,-248.0,-276.0,227.0
1450210779575364040,-250.0,-278.0,201.0
1450210779591978714,-252.0,-278.0,208.0
1450210779608146368,-252.0,-280.0,205.0
1450210779620985810,-254.0,-282.0,189.0
1450210779636719618,-256.0,-284.0,197.0
1450210779653537990,-258.0,-286.0,190.0
1450210779665251497,-258.0,-286.0,175.0
1450210779682842146,-260.0,-288.0,194.0
1450210779693894311,-262.0,-290.0,182.0
1450210779712008118,-262.0,-290.0,172.0
1450210779727113936,-264.0,-292.0,196.0
1450210779740379141,-266.0,-294.0,179.0
1450210779758586805,-268.0,-294.0,184.0
1450210779772051680,-268.0,-296.0,185.0
1450210779784105458,-270.0,-298.0,173.0
1450210779800906296,-272.0,-298.0,172.0
1450210779817338228,-272.0,-300.0,186.0
1450210779832274146,-274.0,-302.0,167.0
1450210779845569678,-276.0,-304.0,177.0
1450210779862428996,-278.0,-306.0,195.0
1450210779874336652,-278.0,-306.0,162.0
1450210779890629149,-280.0,-308.0,199.0
1450210779907002471,-282.0,-310.0,166.0
1450210779919470078,-284.0,-310.0,190.0
1450210779937931867,-284.0,-312.0,179.0
1450210779952224833,-286.0,-314.0,204.0
1450210779964453606,-288.0,-314.0,169.0
1450210779981324791,-288.0,-316.0,228.0
1450210779997274343,-290.0,-318.0,160.0
1450210780009580888,-292.0,-318.0,165.0
1450210780026685120,-292.0,-320.0,173.0
1450210780042931238,-294.0,-322.0,209.0
1450210780054906884,-296.0,-324.0,173.0
1450210780071199222,-298.0,-324.0,220.0
1450210780084006507,-298.0,-326.0,163.0
1450210780103760891,-300.0,-328.0,228.0
1450210780115922782,-302.0,-328.0,166.0
1450210780128225459,-302.0,-330.0,215.0
1450210780144551177,-304.0,-332.0,181.0
1450210780161129691,-306.0,-332.0,169.0
1450210780173874030,-306.0,-334.0,162.0
1450210780189889493,-308.0,-336.0,185.0
1450210780206448863,-310.0,-336.0,176.0
1450210780224936664,-310.0,-338.0,168.0
1450210780236035909,-312.0,-338.0,182.0
1450210780251091567,-312.0,-340.0,189.0
1450210780264184895,-314.0,-342.0,177.0
1450210780281073866,-316.0,-342.0,241.0
1450210780296248975,-316.0,-344.0,193.0
1450210780308803108,-318.0,-344.0,181.0
1450210780325424375,-318.0,-346.0,179.0
1450210780341422522,-320.0,-348.0,191.0
1450210780354624794,-320.0,-348.0,198.0
1450210780371582483,-322.0,-350.0,182.0
1450210780386214114,-322.0,-350.0,181.0
1450210780399446807,-324.0,-352.0,197.0
1450210780415116391,-324.0,-352.0,202.0
1450210780431397125,-326.0,-354.0,185.0
1450210780444584222,-328.0,-354.0,190.0
1450210780460114339,-328.0,-356.0,197.0
1450210780474240948,-328.0,-356.0,202.0
1450210780493535234,-330.0,-358.0,187.0
1450210780507658027,-330.0,-358.0,192.0
1450210780518351814,-332.0,-360.0,200.0
1450210780534757656,-332.0,-360.0,207.0
1450210780551674357,-334.0,-362.0,195.0
1450210780562642758,-334.0,-362.0,188.0
1450210780579705073,-336.0,-362.0,200.0
1450210780595698432,-336.0,-364.0,208.0
1450210780615783467,-338.0,-364.0,199.0
1450210780624269259,-338.0,-366.0,194.0
1450210780641454258,-340.0,-366.0,211.0
1450210780652905454,-340.0,-368.0,216.0
1450210780670359053,-342.0,-368.0,204.0
1450210780685562258,-342.0,-370.0,203.0
1450210780697659397,-344.0,-370.0,211.0
1450210780716141865,-344.0,-372.0,228.0
1450210780730595509,-346.0,-372.0,211.0
1450210780743039686,-346.0,-374.0,228.0
1450210780759262635,-348.0,-374.0,219.0
1450210780775620580,-348.0,-374.0,233.0
1450210780787796087,-350.0,-376.0,216.0
1450210780804314791,-350.0,-376.0,241.0
1450210780820645556,-352.0,-378.0,233.0
1450210780832984912,-352.0,-378.0,282.0
1450210780851360844,-354.0,-380.0,220.0
1450210780864890583,-356.0,-380.0,281.0
1450210780880135143,-356.0,-382.0,238.0
1450210780894268480,-358.0,-382.0,229.0
1450210780907697567,-358.0,-384.0,226.0
1450210780922934930,-360.0,-384.0,296.0
1450210780939472582,-362.0,-386.0,231.0
1450210780951829334,-362.0,-386.0,272.0
1450210780968745516,-364.0,-388.0,242.0
1450210780984620489,-366.0,-390.0,282.0
1450210780996585019,-366.0,-390.0,223.0
1450210781014698735,-368.0,-392.0,243.0
1450210781029722879,-370.0,-392.0,233.0
1450210781041745522,-370.0,-394.0,244.0
1450210781059646348,-372.0,-394.0,245.0
1450210781075491194,-374.0,-396.0,239.0
1450210781086769716,-374.0,-398.0,227.0
1450210781103328391,-376.0,-398.0,241.0
1450210781120005876,-378.0,-400.0,233.0
1450210781133340349,-380.0,-400.0,232.0
1450210781148853627,-380.0,-402.0,246.0
1450210781165636967,-382.0,-402.0,223.0
1450210781178765405,-384.0,-404.0,241.0
1450210781193329273,-384.0,-406.0,245.0
1450210781210365789,-386.0,-406.0,227.0
1450210781222112065,-388.0,-408.0,248.0
1450210781238489900,-390.0,-410.0,236.0
1450210781251049734,-392.0,-410.0,239.0
1450210781269096343,-392.0,-412.0,243.0
1450210781283715728,-394.0,-412.0,226.0
1450210781295914569,-396.0,-414.0,236.0
1450210781312176455,-398.0,-416.0,231.0
1450210781329107206,-398.0,-416.0,224.0
1450210781341181802,-400.0,-418.0,240.0
1450210781357286494,-402.0,-420.0,220.0
1450210781373619109,-404.0,-420.0,236.0
1450210781386466565,-406.0,-422.0,226.0
1450210781403640092,-406.0,-422.0,217.0
1450210781419233919,-408.0,-424.0,234.0
1450210781434160152,-410.0,-426.0,220.0
1450210781447191370,-412.0,-426.0,228.0
1450210781464054089,-414.0,-428.0,220.0
1450210781476167060,-414.0,-430.0,214.0
1450210781494981970,-416.0,-430.0,231.0
1450210781509082648,-418.0,-432.0,210.0
1450210781521134337,-420.0,-434.0,224.0
1450210781538154567,-422.0,-434.0,244.0
1450210781553984731,-424.0,-436.0,215.0
1450210781567037486,-424.0,-438.0,257.0
1450210781582676150,-426.0,-438.0,211.0
1450210781599112008,-428.0,-440.0,244.0
1450210781611549146,-430.0,-440.0,214.0
1450210781627817350,-432.0,-442.0,267.0
1450210781639912313,-432.0,-444.0,227.0
1450210781656194188,-434.0,-444.0,204.0
1450210781676138043,-436.0,-446.0,221.0
1450210781691751564,-438.0,-448.0,262.0
1450210781701764774,-440.0,-448.0,215.0
1450210781720143685,-440.0,-450.0,274.0
1450210781731675586,-442.0,-452.0,203.0
1450210781746935289,-444.0,-452.0,269.0
1450210781762957111,-446.0,-454.0,207.0
1450210781775043444,-448.0,-454.0,269.0
1450210781792580747,-448.0,-456.0,215.0
1450210781807917618,-450.0,-458.0,255.0
1450210781820411641,-452.0,-458.0,218.0
1450210781839468439,-454.0,-460.0,205.0
1450210781853096573,-456.0,-462.0,209.0
1450210781866023965,-458.0,-462.0,202.0
1450210781883769832,-458.0,-464.0,194.0
1450210781898117934,-460.0,-466.0,216.0
1450210781910284760,-462.0,-466.0,196.0
1450210781929016929,-464.0,-468.0,259.0
1450210781942875076,-466.0,-468.0,204.0
1450210781955523429,-468.0,-470.0,205.0
1450210781971624751,-468.0,-472.0,207.0
1450210781988305679,-470.0,-472.0,197.0
1450210782000695614,-472.0,-474.0,213.0
1450210782020525270,-474.0,-476.0,221.0
1450210782033146318,-476.0,-476.0,208.0
1450210782049513640,-478.0,-478.0,204.0
1450210782061814125,-478.0,-480.0,196.0
1450210782078719734,-480.0,-480.0,216.0
1450210782094858370,-482.0,-482.0,194.0
1450210782109791361,-484.0,-484.0,208.0
1450210782123362867,-486.0,-484.0,203.0
1450210782144267115,-488.0,-486.0,199.0
1450210782152159231,-488.0,-488.0,217.0
1450210782168900127,-490.0,-488.0,196.0
1450210782184710926,-492.0,-490.0,216.0
1450210782196947097,-494.0,-490.0,206.0
1450210782213235149,-496.0,-492.0,206.0
1450210782236036044,-496.0,-494.0,215.0
1450210782242695880,-498.0,-494.0,193.0
1450210782260873485,-500.0,-496.0,219.0
1450210782275067329,-502.0,-498.0,202.0
1450210782287109278,-504.0,-498.0,206.0
1450210782310378129,-504.0,-500.0,210.0
1450210782320025976,-506.0,-502.0,222.0
1450210782333540164,-508.0,-502.0,219.0
1450210782348951906,-510.0,-504.0,227.0
1450210782367867764,-512.0,-506.0,211.0
1450210782380472966,-514.0,-506.0,207.0
1450210782395093275,-514.0,-508.0,199.0
1450210782405899556,-516.0,-510.0,215.0
1450210782422422314,-518.0,-510.0,198.0
1450210782439025587,-520.0,-512.0,213.0
1450210782450857444,-522.0,-512.0,206.0
1450210782470928003,-524.0,-514.0,209.0
1450210782483839030,-524.0,-516.0,217.0
1450210782495964900,-526.0,-516.0,198.0
1450210782512744130,-528.0,-518.0,222.0
1450210782529452704,-530.0,-520.0,208.0
1450210782541061055,-532.0,-520.0,211.0
1450210782557356174,-532.0,-522.0,225.0
1450210782579477166,-534.0,-524.0,201.0
1450210782586220732,-536.0,-524.0,247.0
1450210782602953591,-538.0,-526.0,208.0
1450210782618988962,-540.0,-528.0,241.0
1450210782631687740,-540.0,-528.0,219.0
1450210782651395797,-542.0,-530.0,251.0
1450210782664058466,-544.0,-532.0,272.0
1450210782679597315,-546.0,-532.0,258.0
1450210782693412132,-548.0,-534.0,216.0
1450210782709431122,-548.0,-534.0,270.0
1450210782721632594,-550.0,-536.0,203.0
1450210782740052292,-552.0,-538.0,275.0
1450210782759747255,-554.0,-538.0,205.0
1450210782766369726,-556.0,-540.0,272.0
1450210782782648212,-556.0,-542.0,222.0
1450210782796365705,-558.0,-542.0,207.0
1450210782811442732,-560.0,-544.0,230.0
1450210782827923679,-562.0,-544.0,266.0
1450210782840285959,-564.0,-546.0,226.0
1450210782856962260,-564.0,-548.0,247.0
1450210782874844635,-566.0,-548.0,217.0
1450210782885197507,-568.0,-550.0,238.0
1450210782901520287,-570.0,-552.0,227.0
1450210782917917368,-572.0,-552.0,236.0
1450210782930323454,-572.0,-554.0,245.0
1450210782950591340,-574.0,-554.0,228.0
1450210782963611019,-576.0,-556.0,246.0
1450210782975632242,-578.0,-558.0,236.0
1450210782991809499,-580.0,-558.0,243.0
1450210783008124837,-580.0,-560.0,254.0
1450210783020342841,-582.0,-562.0,237.0
1450210783036742782,-584.0,-562.0,256.0
1450210783056606605,-586.0,-564.0,243.0
1450210783075789700,-588.0,-566.0,301.0
1450210783084972330,-588.0,-566.0,256.0
1450210783098399216,-590.0,-568.0,236.0
1450210783111808245,-592.0,-568.0,254.0
1450210783126702666,-594.0,-570.0,236.0
1450210783144643650,-596.0,-572.0,238.0
1450210783156793343,-596.0,-572.0,239.0
1450210783171900554,-598.0,-574.0,219.0
1450210783184212685,-600.0,-576.0,233.0
1450210783206720972,-602.0,-576.0,218.0
1450210783217322507,-604.0,-578.0,212.0
1450210783231991497,-604.0,-580.0,213.0
1450210783245787263,-606.0,-580.0,196.0
1450210783262099924,-608.0,-582.0,208.0
1450210783274528032,-610.0,-584.0,193.0
1450210783291172341,-612.0,-584.0,193.0
1450210783307350423,-614.0,-586.0,197.0
1450210783319649864,-614.0,-586.0,176.0
1450210783335877477,-616.0,-588.0,189.0
1450210783352245427,-618.0,-590.0,176.0
1450210783364847461,-620.0,-590.0,178.0
1450210783383460168,-620.0,-592.0,174.0
1450210783397319873,-622.0,-594.0,163.0
1450210783410321791,-624.0,-594.0,179.0
1450210783426916446,-626.0,-596.0,166.0
1450210783442847129,-628.0,-598.0,196.0
1450210783454938213,-628.0,-598.0,167.0
1450210783473237634,-630.0,-600.0,201.0
1450210783488439260,-632.0,-602.0,172.0
1450210783499624917,-634.0,-602.0,206.0
1450210783515924282,-636.0,-604.0,160.0
1450210783533672894,-636.0,-606.0,211.0
1450210783544827254,-638.0,-606.0,147.0
1450210783561234317,-640.0,-608.0,212.0
1450210783573443913,-642.0,-608.0,156.0
1450210783590359539,-644.0,-610.0,209.0
1450210783606088896,-644.0,-612.0,158.0
1450210783618458354,-646.0,-612.0,194.0
1450210783634961036,-648.0,-614.0,158.0
1450210783652379263,-650.0,-614.0,209.0
1450210783663936833,-652.0,-616.0,154.0
1450210783680040860,-652.0,-618.0,153.0
1450210783696164847,-654.0,-618.0,139.0
1450210783708494983,-656.0,-620.0,154.0
1450210783727049861,-658.0,-622.0,144.0
1450210783742299089,-660.0,-622.0,141.0
1450210783753895912,-660.0,-624.0,161.0
1450210783771477941,-662.0,-626.0,145.0
1450210783786927629,-664.0,-626.0,149.0
1450210783798859283,-666.0,-628.0,144.0
1450210783815451160,-666.0,-628.0,136.0
1450210783833164971,-668.0,-630.0,209.0
1450210783843785594,-670.0,-632.0,145.0
1450210783861658025,-672.0,-632.0,152.0
1450210783888667518,-672.0,-634.0,157.0
1450210783888690946,-674.0,-634.0,137.0
1450210783906010039,-676.0,-636.0,156.0
1450210783917548670,-678.0,-638.0,149.0
1450210783933718019,-680.0,-638.0,150.0
1450210783950269277,-680.0,-640.0,161.0
1450210783962953287,-682.0,-642.0,140.0
1450210783979758105,-684.0,-642.0,152.0
1450210783995180321,-686.0,-644.0,148.0
1450210784007812191,-686.0,-644.0,142.0
1450210784024299281,-688.0,-646.0,159.0
1450210784040856171,-690.0,-648.0,151.0
1450210784053038864,-692.0,-648.0,152.0
1450210784069253641,-692.0,-650.0,163.0
1450210784085548595,-694.0,-650.0,142.0
1450210784097589174,-696.0,-652.0,164.0
1450210784114637956,-698.0,-654.0,152.0
1450210784130522124,-700.0,-654.0,161.0
1450210784143428672,-700.0,-656.0,170.0
1450210784159291440,-702.0,-658.0,154.0
1450210784175406801,-704.0,-658.0,175.0
1450210784187786173,-706.0,-660.0,165.0
1450210784207801954,-708.0,-662.0,171.0
1450210784221392052,-708.0,-662.0,175.0
1450210784233341671,-710.0,-664.0,157.0
1450210784249775563,-712.0,-666.0,188.0
1450210784265689456,-714.0,-666.0,193.0
1450210784277850406,-716.0,-668.0,183.0
1450210784294468742,-718.0,-670.0,182.0
1450210784308635053,-718.0,-670.0,179.0
1450210784322909141,-720.0,-672.0,248.0
1450210784339763448,-722.0,-674.0,173.0
1450210784352046459,-724.0,-674.0,239.0
1450210784368172325,-726.0,-676.0,186.0
1450210784384645977,-728.0,-678.0,238.0
1450210784396759873,-728.0,-678.0,204.0
1450210784413201327,-730.0,-680.0,236.0
1450210784430167587,-732.0,-682.0,210.0
1450210784441896654,-734.0,-684.0,198.0
1450210784458461597,-736.0,-684.0,206.0
1450210784474748069,-736.0,-686.0,268.0
1450210784486838744,-738.0,-688.0,199.0
1450210784503234446,-740.0,-690.0,271.0
1450210784520399693,-742.0,-690.0,204.0
1450210784535993402,-744.0,-692.0,220.0
1450210784552383427,-746.0,-694.0,273.0
1450210784564591304,-746.0,-694.0,211.0
1450210784581094942,-748.0,-696.0,232.0
1450210784597503573,-750.0,-698.0,220.0
1450210784609958378,-752.0,-700.0,238.0
1450210784626541207,-752.0,-700.0,235.0
1450210784648121714,-754.0,-702.0,225.0
1450210784655235738,-756.0,-704.0,242.0
1450210784677643446,-758.0,-706.0,229.0
1450210784687497701,-758.0,-706.0,228.0
1450210784732051624,-760.0,-708.0,295.0
1450210784732061987,-762.0,-710.0,236.0
1450210784732067841,-764.0,-710.0,244.0
1450210784748259484,-764.0,-712.0,252.0
1450210784763834528,-766.0,-714.0,236.0
1450210784775327512,-768.0,-716.0,248.0
1450210784791145479,-768.0,-716.0,255.0
1450210784806787645,-770.0,-718.0,243.0
1450210784818947169,-772.0,-720.0,249.0
1450210784835673138,-774.0,-720.0,250.0
1450210784852150286,-774.0,-722.0,240.0
1450210784863840893,-776.0,-724.0,256.0
1450210784880452232,-778.0,-726.0,244.0
1450210784897635517,-778.0,-726.0,238.0
1450210784910439675,-780.0,-728.0,256.0
1450210784926519015,-782.0,-730.0,242.0
1450210784941802347,-784.0,-730.0,238.0
1450210784954420313,-784.0,-732.0,251.0
1450210784970145940,-786.0,-734.0,243.0
1450210784986929446,-788.0,-734.0,247.0
1450210784999971525,-788.0,-736.0,257.0
1450210785015595216,-790.0,-738.0,268.0
1450210785031893029,-792.0,-740.0,250.0
1450210785047746504,-792.0,-740.0,256.0
1450210785060555278,-794.0,-742.0,245.0
1450210785077478530,-796.0,-744.0,310.0
1450210785088992771,-798.0,-746.0,306.0
1450210785107733820,-798.0,-746.0,299.0
1450210785118903757,-800.0,-748.0,269.0
1450210785135707188,-802.0,-750.0,312.0
1450210785150777496,-804.0,-750.0,266.0
1450210785163235360,-804.0,-752.0,274.0
1450210785181021359,-806.0,-754.0,258.0
1450210785196112469,-808.0,-756.0,313.0
1450210785208188655,-808.0,-756.0,279.0
1450210785227724166,-810.0,-758.0,309.0
1450210785257784876,-812.0,-760.0,269.0
1450210785257798311,-812.0,-762.0,319.0
1450210785270233048,-814.0,-762.0,256.0
1450210785285689481,-816.0,-764.0,299.0
1450210785303823715,-818.0,-766.0,263.0
1450210785315767308,-818.0,-766.0,279.0
1450210785330875325,-820.0,-768.0,279.0
1450210785343805249,-822.0,-770.0,261.0
1450210785359307182,-822.0,-772.0,253.0
1450210785375807163,-824.0,-772.0,274.0
1450210785388165846,-826.0,-774.0,262.0
1450210785406697951,-826.0,-776.0,259.0
1450210785423549320,-828.0,-776.0,276.0
1450210785433535996,-830.0,-778.0,263.0
1450210785449397001,-830.0,-780.0,260.0
1450210785465919146,-832.0,-780.0,276.0
1450210785478289081,-834.0,-782.0,260.0
1450210785495642942,-834.0,-784.0,260.0
1450210785513747090,-836.0,-784.0,273.0
1450210785525117803,-838.0,-786.0,262.0
1450210785543880851,-838.0,-788.0,259.0
1450210785551861740,-840.0,-788.0,277.0
1450210785568498976,-842.0,-790.0,272.0
1450210785585779026,-842.0,-792.0,262.0
1450210785597006658,-844.0,-792.0,274.0
1450210785614168455,-844.0,-794.0,279.0
1450210785630271343,-846.0,-796.0,263.0
1450210785642053728,-848.0,-796.0,279.0
1450210785658554394,-848.0,-798.0,282.0
1450210785675358730,-850.0,-800.0,267.0
1450210785687866684,-852.0,-800.0,274.0
1450210785704500359,-852.0,-802.0,284.0
1450210785720229396,-854.0,-802.0,273.0
1450210785732740369,-854.0,-804.0,261.0
1450210785748716419,-856.0,-806.0,277.0
1450210785764941688,-856.0,-806.0,277.0
1450210785777409949,-858.0,-808.0,264.0
1450210785793652393,-860.0,-808.0,275.0
1450210785811549987,-860.0,-810.0,283.0
1450210785824163020,-862.0,-810.0,270.0
1450210785839082325,-862.0,-812.0,260.0
1450210785853148862,-864.0,-814.0,277.0
1450210785867928171,-864.0,-814.0,285.0
1450210785885023432,-866.0,-816.0,274.0
1450210785896324926,-866.0,-816.0,259.0
1450210785912396203,-868.0,-818.0,274.0
1450210785929084251,-868.0,-818.0,281.0
1450210785942966861,-870.0,-820.0,264.0
1450210785957645103,-870.0,-820.0,258.0
1450210785974208347,-872.0,-822.0,275.0
1450210785987639076,-872.0,-822.0,324.0
1450210786008161668,-874.0,-824.0,265.0
1450210786020479688,-874.0,-824.0,312.0
1450210786031950495,-876.0,-826.0,273.0
1450210786047873564,-876.0,-826.0,330.0
1450210786065031467,-878.0,-826.0,270.0
1450210786078554742,-878.0,-828.0,312.0
1450210786093582441,-878.0,-828.0,263.0
1450210786111248749,-880.0,-830.0,319.0
1450210786121367636,-880.0,-830.0,281.0
1450210786139023258,-880.0,-830.0,276.0
1450210786154068236,-882.0,-832.0,266.0
1450210786166767238,-882.0,-832.0,259.0
1450210786182739841,-884.0,-832.0,270.0
1450210786199300680,-884.0,-834.0,277.0
1450210786211888056,-884.0,-834.0,279.0
1450210786228087215,-884.0,-834.0,280.0
1450210786245262860,-886.0,-836.0,270.0
1450210786258445865,-886.0,-836.0,262.0
1450210786272807223,-886.0,-836.0,262.0
1450210786285221698,-888.0,-838.0,271.0
1450210786302442829,-888.0,-838.0,270.0
1450210786317950718,-888.0,-838.0,275.0
1450210786330390471,-888.0,-838.0,277.0
1450210786346681476,-888.0,-838.0,332.0
1450210786362984373,-890.0,-840.0,267.0
1450210786375702318,-890.0,-840.0,262.0
1450210786391660789,-890.0,-840.0,265.0
1450210786408661046,-890.0,-840.0,261.0
1450210786423647570,-890.0,-840.0,267.0
1450210786437646678,-892.0,-842.0,272.0
1450210786453362254,-892.0,-842.0,269.0
1450210786465852757,-892.0,-842.0,269.0
1450210786481816486,-892.0,-842.0,275.0
1450210786498267434,-892.0,-842.0,279.0
1450210786510788070,-892.0,-842.0,281.0
1450210786528063934,-892.0,-842.0,281.0
1450210786543307882,-892.0,-842.0,284.0
1450210786557552375,-892.0,-842.0,284.0
1450210786572477317,-892.0,-844.0,274.0
1450210786588610325,-892.0,-844.0,277.0
1450210786600834136,-894.0,-844.0,269.0
1450210786617370980,-894.0,-844.0,267.0
1450210786634797477,-894.0,-844.0,265.0
1450210786645753306,-894.0,-844.0,265.0
1450210786670598506,-894.0,-844.0,266.0
1450210786680743040,-894.0,-844.0,268.0
1450210786690853281,-894.0,-844.0,267.0
1450210786707212370,-894.0,-844.0,266.0
1450210786719415376,-894.0,-844.0,266.0
1450210786736227791,-894.0,-844.0,264.0
1450210786752402013,-894.0,-844.0,263.0
1450210786764703251,-894.0,-844.0,267.0
1450210786781118728,-892.0,-844.0,266.0
1450210786798247775,-892.0,-844.0,273.0
1450210786809737554,-892.0,-844.0,277.0
1450210786826139719,-892.0,-844.0,273.0
1450210786844531743,-892.0,-844.0,275.0
1450210786855124030,-892.0,-844.0,274.0
1450210786871095840,-892.0,-844.0,276.0
1450210786887442840,-892.0,-844.0,275.0
1450210786899892383,-892.0,-842.0,273.0
1450210786917737697,-892.0,-842.0,269.0
1450210786932413302,-892.0,-842.0,272.0
1450210786944555841,-892.0,-842.0,276.0
1450210786961354369,-892.0,-842.0,272.0
1450210786977537773,-892.0,-842.0,277.0
1450210786989784393,-892.0,-842.0,276.0
1450210787012269331,-892.0,-842.0,276.0
1450210787024060748,-892.0,-842.0,276.0
1450210787040217444,-892.0,-842.0,281.0
1450210787051255676,-892.0,-842.0,272.0
1450210787067653981,-892.0,-842.0,275.0
1450210787085872776,-892.0,-842.0,274.0
1450210787096853903,-892.0,-842.0,276.0
1450210787115835235,-892.0,-842.0,271.0
1450210787134289832,-892.0,-842.0,277.0
1450210787144525091,-892.0,-842.0,276.0
1450210787157963447,-892.0,-842.0,279.0
1450210787176639785,-892.0,-842.0,279.0
1450210787186654571,-892.0,-842.0,278.0
1450210787203264184,-892.0,-842.0,277.0
1450210787219653079,-892.0,-842.0,281.0
1450210787231599593,-892.0,-842.0,278.0
1450210787247890955,-892.0,-842.0,276.0
1450210787267858325,-892.0,-842.0,276.0
1450210787276744919,-892.0,-842.0,279.0
1450210787294819372,-892.0,-842.0,287.0
1450210787311627296,-892.0,-842.0,274.0
1450210787322664481,-892.0,-842.0,276.0
1450210787338423309,-892.0,-842.0,277.0
1450210787354817384,-892.0,-842.0,279.0
1450210787367072353,-892.0,-842.0,280.0
1450210787383541048,-892.0,-842.0,276.0
1450210787396643720,-892.0,-842.0,279.0
1450210787411803104,-892.0,-842.0,275.0
1450210787428446042,-892.0,-842.0,275.0
1450210787441244439,-892.0,-842.0,273.0
1450210787457086393,-892.0,-842.0,277.0
1450210787474363081,-892.0,-842.0,275.0
1450210787491661158,-892.0,-842.0,276.0
1450210787503234089,-892.0,-842.0,276.0
1450210787518317579,-892.0,-842.0,277.0
1450210787530540004,-892.0,-842.0,272.0
1450210787549885116,-892.0,-842.0,275.0
1450210787563426032,-892.0,-842.0,278.0
1450210787579447658,-892.0,-842.0,275.0
1450210787592151000,-892.0,-842.0,285.0
1450210787611771023,-892.0,-842.0,276.0
1450210787621865899,-892.0,-842.0,274.0
1450210787637014820,-892.0,-842.0,277.0
1450210787655221065,-892.0,-842.0,276.0
1450210787667701960,-892.0,-842.0,277.0
1450210787682212496,-892.0,-842.0,276.0
1450210787699053124,-892.0,-842.0,278.0
1450210787710923937,-892.0,-842.0,275.0
1450210787729140797,-892.0,-842.0,273.0
1450210787744053228,-892.0,-842.0,275.0
1450210787756510408,-892.0,-842.0,277.0
1450210787775173697,-892.0,-842.0,278.0
1450210787789851736,-892.0,-842.0,278.0
1450210787800977745,-892.0,-842.0,275.0
1450210787817318857,-892.0,-842.0,278.0
1450210787830389021,-892.0,-842.0,279.0
1450210787846158302,-892.0,-842.0,277.0
1450210787865413377,-892.0,-842.0,274.0
1450210787875327976,-892.0,-842.0,277.0
1450210787891894345,-892.0,-842.0,276.0
1450210787909826307,-892.0,-842.0,275.0
1450210787919880130,-892.0,-842.0,275.0
1450210787939653960,-892.0,-842.0,271.0
1450210787952465642,-892.0,-842.0,275.0
1450210787964870948,-892.0,-842.0,274.0
1450210787981320037,-892.0,-842.0,274.0
1450210787997608527,-892.0,-842.0,277.0
1450210788009765117,-892.0,-842.0,275.0
1450210788026600611,-892.0,-842.0,274.0
1450210788044389781,-892.0,-842.0,276.0
1450210788055734651,-892.0,-842.0,274.0
1450210788072023086,-892.0,-842.0,277.0
1450210788099834979,-892.0,-842.0,276.0
1450210788099848473,-892.0,-842.0,275.0
1450210788116543055,-892.0,-842.0,274.0
1450210788136126001,-892.0,-842.0,274.0
1450210788145142394,-892.0,-842.0,275.0
1450210788161652754,-892.0,-842.0,273.0
1450210788174345230,-892.0,-842.0,273.0
1450210788190216623,-892.0,-842.0,274.0
1450210788206581497,-892.0,-842.0,276.0
1450210788218950299,-892.0,-842.0,277.0
1450210788235394776,-892.0,-842.0,272.0
1450210788251831910,-892.0,-842.0,273.0
1450210788265160172,-892.0,-842.0,278.0
1450210788280354089,-892.0,-842.0,275.0
1450210788297857571,-892.0,-842.0,276.0
1450210788315065199,-892.0,-842.0,274.0
1450210788325924594,-892.0,-842.0,275.0
1450210788342071402,-892.0,-842.0,273.0
1450210788353849316,-892.0,-842.0,277.0
1450210788370320185,-892.0,-842.0,273.0
1450210788386887253,-892.0,-842.0,274.0
1450210788398987599,-892.0,-842.0,275.0
1450210788415672912,-892.0,-842.0,275.0
1450210788432103049,-892.0,-842.0,276.0
1450210788446251430,-892.0,-842.0,275.0
1450210788463679555,-892.0,-842.0,274.0
1450210788476844764,-892.0,-842.0,274.0
1450210788489179845,-892.0,-842.0,268.0
1450210788505722962,-892.0,-842.0,272.0
1450210788522053384,-892.0,-842.0,272.0
1450210788534386730,-892.0,-842.0,273.0
1450210788551387426,-892.0,-842.0,273.0
1450210788567652102,-892.0,-842.0,276.0
1450210788580554840,-892.0,-842.0,273.0
1450210788596588015,-892.0,-842.0,273.0
1450210788608605974,-892.0,-842.0,273.0
1450210788624462659,-892.0,-842.0,274.0
1450210788640966654,-892.0,-842.0,274.0
1450210788653499419,-892.0,-842.0,273.0
1450210788670758844,-892.0,-842.0,271.0
1450210788685863647,-892.0,-842.0,272.0
1450210788698147205,-892.0,-842.0,272.0
1450210788714677803,-892.0,-842.0,281.0
1450210788731635614,-892.0,-842.0,274.0
1450210788745769200,-892.0,-842.0,274.0
1450210788760260116,-892.0,-842.0,274.0
1450210788776751404,-892.0,-842.0,272.0
1450210788792470140,-892.0,-842.0,272.0
1450210788805314795,-892.0,-842.0,274.0
1450210788823642942,-892.0,-842.0,276.0
1450210788833373904,-892.0,-842.0,275.0
1450210788850244329,-892.0,-842.0,274.0
1450210788866349952,-892.0,-842.0,276.0
1450210788879564414,-892.0,-842.0,274.0
1450210788894770418,-892.0,-842.0,273.0
1450210788915972946,-892.0,-842.0,273.0
1450210788923920568,-892.0,-842.0,272.0
1450210788943637029,-892.0,-842.0,274.0
1450210788951990881,-892.0,-842.0,274.0
1450210788970424838,-892.0,-842.0,272.0
1450210788984801969,-892.0,-842.0,274.0
1450210789004715236,-892.0,-842.0,275.0
1450210789013538573,-892.0,-842.0,275.0
1450210789029943014,-892.0,-842.0,274.0
1450210789042654960,-892.0,-842.0,274.0
1450210789059771884,-892.0,-842.0,275.0
1450210789075385624,-892.0,-842.0,273.0
1450210789087131372,-892.0,-842.0,271.0
1450210789103586918,-892.0,-842.0,270.0
1450210789123900376,-892.0,-842.0,272.0
1450210789132169974,-892.0,-842.0,271.0
1450210789149964269,-892.0,-842.0,273.0
1450210789165820745,-892.0,-842.0,273.0
1450210789177729567,-892.0,-842.0,273.0
1450210789193823823,-892.0,-842.0,272.0
1450210789210143023,-892.0,-842.0,272.0
1450210789222880213,-892.0,-842.0,274.0
1450210789238747826,-892.0,-842.0,274.0
1450210789259218747,-892.0,-842.0,273.0
1450210789268036651,-892.0,-842.0,274.0
1450210789284413564,-892.0,-842.0,274.0
1450210789300114970,-892.0,-842.0,271.0
1450210789315660021,-892.0,-842.0,273.0
1450210789329165726,-892.0,-842.0,272.0
1450210789341413652,-892.0,-842.0,273.0
1450210789358042959,-892.0,-842.0,275.0
1450210789373875912,-892.0,-842.0,272.0
1450210789387358815,-892.0,-842.0,273.0
1450210789402780461,-892.0,-842.0,272.0
1450210789418994208,-892.0,-842.0,276.0
1450210789431638273,-892.0,-842.0,272.0
1450210789447803963,-892.0,-842.0,271.0
1450210789468762801,-892.0,-842.0,274.0
1450210789478348331,-892.0,-842.0,272.0
1450210789493951033,-892.0,-842.0,268.0
1450210789509466409,-892.0,-842.0,273.0
1450210789525583389,-892.0,-842.0,271.0
1450210789541962995,-892.0,-842.0,270.0
1450210789555633826,-892.0,-842.0,271.0
1450210789570913808,-892.0,-842.0,272.0
1450210789587611007,-892.0,-842.0,267.0
1450210789599241763,-892.0,-842.0,271.0
1450210789619952054,-892.0,-842.0,273.0
1450210789632038461,-892.0,-842.0,272.0
1450210789644686761,-892.0,-842.0,271.0
1450210789660969105,-892.0,-842.0,273.0
1450210789677290025,-892.0,-842.0,273.0
1450210789689668412,-892.0,-842.0,272.0
1450210789706767924,-892.0,-842.0,272.0
1450210789723119141,-892.0,-842.0,271.0
1450210789734814427,-892.0,-842.0,271.0
1450210789751430489,-892.0,-842.0,270.0
1450210789766312024,-892.0,-842.0,269.0
1450210789782347496,-892.0,-842.0,272.0
1450210789796278867,-892.0,-842.0,272.0
1450210789808308895,-892.0,-842.0,270.0
1450210789825645245,-892.0,-842.0,271.0
1450210789856771303,-892.0,-842.0,261.0
1450210789931585502,-892.0,-842.0,271.0
1450210789947627881,-892.0,-842.0,271.0
1450210789960063852,-892.0,-842.0,270.0
1450210789976051529,-892.0,-842.0,270.0
1450210789993162477,-892.0,-842.0,270.0
1450210790006624517,-892.0,-842.0,271.0
1450210790021220574,-892.0,-842.0,271.0
1450210790040015584,-892.0,-842.0,269.0
1450210790056762631,-892.0,-842.0,269.0
1450210790066744426,-892.0,-842.0,269.0
1450210790082694462,-892.0,-842.0,270.0
1450210790095314424,-892.0,-842.0,267.0
1450210790111870611,-892.0,-842.0,270.0
1450210790130217376,-892.0,-842.0,270.0
1450210790143634987,-892.0,-842.0,271.0
1450210790158745603,-892.0,-842.0,267.0
1450210790173259610,-892.0,-842.0,271.0
1450210790185116483,-892.0,-842.0,268.0
1450210790203013797,-892.0,-842.0,264.0
1450210790218030374,-892.0,-842.0,271.0
1450210790231158329,-892.0,-842.0,271.0
1450210790253913885,-892.0,-842.0,271.0
1450210790263497773,-892.0,-842.0,270.0
1450210790275650798,-892.0,-842.0,272.0
1450210790292901040,-892.0,-842.0,274.0
1450210790305118761,-892.0,-842.0,265.0
1450210790320520164,-892.0,-842.0,271.0
1450210790337305383,-892.0,-842.0,268.0
1450210790349225530,-892.0,-842.0,266.0
1450210790366021795,-892.0,-842.0,269.0
1450210790387769667,-892.0,-842.0,270.0
1450210790394036148,-892.0,-842.0,268.0
1450210790410255027,-892.0,-842.0,269.0
1450210790426869061,-892.0,-842.0,270.0
1450210790439414056,-892.0,-842.0,267.0
1450210790461822290,-892.0,-842.0,269.0
1450210790473925615,-892.0,-842.0,268.0
1450210790495959081,-892.0,-842.0,271.0
1450210790503654836,-892.0,-842.0,267.0
1450210790516798944,-892.0,-842.0,270.0
1450210790531506236,-892.0,-842.0,266.0
1450210790551792466,-892.0,-842.0,268.0
1450210790562020864,-892.0,-842.0,268.0
1450210790578921936,-892.0,-842.0,270.0
1450210790592522727,-892.0,-842.0,274.0
1450210790607255656,-892.0,-842.0,269.0
1450210790619525673,-892.0,-842.0,268.0
1450210790635694040,-892.0,-842.0,270.0
1450210790652500455,-892.0,-842.0,269.0
1450210790665209347,-892.0,-842.0,269.0
1450210790680849070,-892.0,-842.0,268.0
1450210790693452015,-892.0,-842.0,264.0
1450210790709490227,-892.0,-842.0,268.0
1450210790726136866,-892.0,-842.0,268.0
1450210790739535359,-892.0,-842.0,269.0
1450210790755504009,-892.0,-842.0,268.0
1450210790771777551,-892.0,-842.0,267.0
1450210790783756834,-892.0,-842.0,269.0
1450210790799455672,-892.0,-842.0,270.0
1450210790816030697,-892.0,-842.0,268.0
1450210790829210860,-892.0,-842.0,269.0
1450210790858758617,-892.0,-842.0,268.0
1450210790867657665,-892.0,-842.0,268.0
1450210790873729959,-892.0,-842.0,268.0
1450210790890491293,-892.0,-842.0,268.0
1450210790905993003,-892.0,-842.0,267.0
1450210790918353479,-892.0,-842.0,268.0
1450210790934931184,-892.0,-842.0,268.0
1450210790951356900,-892.0,-842.0,267.0
1450210790963347838,-892.0,-842.0,269.0
1450210790987568541,-892.0,-842.0,268.0
1450210790996508826,-892.0,-842.0,269.0
1450210791008550767,-892.0,-842.0,266.0
1450210791027483803,-892.0,-842.0,268.0
1450210791041514460,-892.0,-842.0,269.0
1450210791055298973,-892.0,-842.0,267.0
1450210791069915597,-892.0,-842.0,268.0
1450210791087878063,-892.0,-842.0,265.0
1450210791098641393,-892.0,-842.0,267.0
1450210791119748801,-892.0,-842.0,269.0
1450210791127390823,-892.0,-842.0,261.0
1450210791143773273,-892.0,-842.0,269.0
1450210791163955601,-892.0,-842.0,267.0
1450210791175637200,-892.0,-842.0,267.0
1450210791191651155,-892.0,-842.0,261.0
1450210791205306511,-892.0,-842.0,268.0
1450210791219294570,-892.0,-842.0,270.0
1450210791233816690,-892.0,-842.0,277.0
1450210791251795018,-892.0,-842.0,269.0
1450210791262865084,-892.0,-842.0,268.0
1450210791279781809,-892.0,-842.0,270.0
1450210791295420431,-892.0,-842.0,267.0
1450210791307602920,-892.0,-842.0,267.0
1450210791323896161,-892.0,-842.0,271.0
1450210791340751251,-892.0,-842.0,266.0
1450210791353364033,-892.0,-842.0,267.0
1450210791370055870,-892.0,-842.0,268.0
1450210791386268191,-892.0,-842.0,263.0
1450210791398259647,-892.0,-842.0,267.0
1450210791414617053,-892.0,-842.0,266.0
1450210791440207443,-892.0,-842.0,266.0
1450210791443631646,-892.0,-842.0,266.0
1450210791459205513,-892.0,-842.0,272.0
1450210791473215525,-892.0,-842.0,267.0
1450210791497676604,-892.0,-842.0,267.0
1450210791504115202,-892.0,-842.0,267.0
1450210791518598980,-892.0,-842.0,266.0
1450210791533309707,-892.0,-842.0,266.0
1450210791552470240,-892.0,-842.0,269.0
1450210791563709342,-892.0,-842.0,270.0
1450210791577960641,-892.0,-842.0,268.0
1450210791594482616,-892.0,-842.0,268.0
1450210791613835947,-892.0,-842.0,265.0
1450210791627997988,-892.0,-842.0,265.0
1450210791640196674,-892.0,-842.0,267.0
1450210791653142682,-892.0,-842.0,267.0
1450210791668139451,-892.0,-842.0,269.0
1450210791684274759,-892.0,-842.0,270.0
1450210791697085663,-892.0,-842.0,264.0
1450210791713073861,-892.0,-842.0,263.0
1450210791729965096,-892.0,-842.0,266.0
1450210791741831281,-892.0,-842.0,266.0
1450210791757990759,-892.0,-842.0,267.0
1450210791774676579,-892.0,-842.0,265.0
1450210791787075733,-892.0,-842.0,266.0
1450210791803156205,-892.0,-842.0,263.0
1450210791819838077,-892.0,-842.0,268.0
1450210791833368451,-892.0,-842.0,266.0
1450210791848628024,-892.0,-842.0,267.0
1450210791860724702,-892.0,-842.0,265.0
1450210791876905478,-892.0,-842.0,265.0
1450210791893417141,-892.0,-842.0,267.0
1450210791906020359,-892.0,-842.0,263.0
1450210791921891897,-892.0,-842.0,264.0
1450210791939796918,-892.0,-842.0,267.0
1450210791951034498,-892.0,-842.0,268.0
1450210791967434614,-892.0,-842.0,266.0
1450210791983933902,-892.0,-842.0,268.0
1450210791996077324,-892.0,-842.0,254.0
1450210792012219634,-892.0,-842.0,265.0
1450210792029726103,-892.0,-842.0,265.0
1450210792041223790,-892.0,-842.0,264.0
1450210792057101725,-892.0,-842.0,267.0
1450210792074087632,-892.0,-842.0,263.0
1450210792086198637,-892.0,-842.0,267.0
1450210792102501408,-892.0,-842.0,263.0
1450210792118629961,-892.0,-842.0,263.0
1450210792137020726,-892.0,-842.0,265.0
1450210792147236131,-892.0,-842.0,266.0
1450210792163672267,-892.0,-842.0,263.0
1450210792175903715,-892.0,-842.0,268.0
1450210792192878729,-892.0,-842.0,267.0
1450210792208659160,-892.0,-842.0,264.0
1450210792224036283,-892.0,-842.0,268.0
1450210792237315323,-892.0,-842.0,266.0
1450210792250178924,-892.0,-842.0,264.0
1450210792266083263,-892.0,-842.0,265.0
1450210792283965651,-892.0,-842.0,267.0
1450210792298430750,-892.0,-842.0,264.0
1450210792311262168,-892.0,-842.0,265.0
1450210792328563856,-892.0,-842.0,266.0
1450210792340210607,-892.0,-842.0,265.0
1450210792357048355,-892.0,-842.0,264.0
1450210792375172789,-892.0,-842.0,262.0
1450210792389125990,-892.0,-842.0,264.0
1450210792406788600,-892.0,-842.0,265.0
1450210792417773082,-892.0,-842.0,273.0
1450210792436419863,-892.0,-842.0,266.0
1450210792451698904,-892.0,-842.0,265.0
1450210792463948747,-892.0,-842.0,265.0
1450210792478991360,-892.0,-842.0,266.0
1450210792495876382,-892.0,-842.0,262.0
1450210792507956400,-892.0,-842.0,264.0
1450210792524331891,-892.0,-842.0,263.0
1450210792540499473,-892.0,-842.0,266.0
1450210792552805814,-892.0,-842.0,271.0
1450210792569222082,-892.0,-842.0,264.0
1450210792585669757,-892.0,-842.0,265.0
1450210792597945682,-892.0,-842.0,265.0
1450210792614824352,-892.0,-842.0,265.0
1450210792626982365,-892.0,-842.0,263.0
1450210792643422538,-892.0,-842.0,265.0
1450210792659418370,-892.0,-842.0,264.0
1450210792671696720,-892.0,-842.0,265.0
1450210792688522594,-892.0,-842.0,264.0
1450210792704521268,-892.0,-842.0,270.0
1450210792720284507,-892.0,-842.0,261.0
1450210792733159076,-892.0,-842.0,262.0
1450210792749698210,-892.0,-842.0,264.0
1450210792762187248,-892.0,-842.0,263.0
1450210792778499546,-892.0,-842.0,262.0
1450210792794744918,-892.0,-842.0,265.0
1450210792808433526,-892.0,-842.0,268.0
1450210792827692053,-892.0,-842.0,266.0
1450210792840005998,-892.0,-842.0,262.0
1450210792853550287,-892.0,-842.0,266.0
1450210792870129384,-892.0,-842.0,267.0
1450210792884616143,-892.0,-842.0,265.0
1450210792900041649,-892.0,-842.0,263.0
1450210792913381856,-892.0,-842.0,264.0
1450210792931368160,-892.0,-842.0,265.0
1450210792942085793,-892.0,-842.0,266.0
1450210792958359974,-892.0,-842.0,264.0
1450210792991181325,-892.0,-842.0,262.0
1450210792991185559,-892.0,-842.0,262.0
1450210793003559176,-892.0,-842.0,266.0
1450210793016690073,-892.0,-842.0,264.0
1450210793033594387,-892.0,-842.0,264.0
1450210793048875075,-892.0,-842.0,264.0
1450210793061593105,-892.0,-842.0,263.0
1450210793078173282,-892.0,-842.0,264.0
1450210793097155440,-892.0,-842.0,264.0
1450210793105884598,-892.0,-842.0,264.0
1450210793122463439,-892.0,-842.0,262.0
1450210793138479416,-892.0,-842.0,264.0
1450210793150802360,-892.0,-842.0,262.0
1450210793167318982,-892.0,-842.0,254.0
1450210793184147970,-892.0,-842.0,261.0
1450210793197025188,-892.0,-842.0,270.0
1450210793217044566,-892.0,-842.0,261.0
1450210793228740896,-892.0,-842.0,262.0
1450210793241326408,-892.0,-842.0,261.0
1450210793257508010,-892.0,-842.0,265.0
1450210793274399794,-892.0,-842.0,264.0
1450210793286706166,-892.0,-842.0,264.0
1450210793302940768,-892.0,-842.0,263.0
1450210793319567274,-892.0,-842.0,263.0
1450210793331517345,-892.0,-842.0,270.0
1450210793347955358,-892.0,-842.0,262.0
1450210793364447220,-892.0,-842.0,263.0
1450210793376453110,-892.0,-842.0,264.0
1450210793393379534,-892.0,-842.0,263.0
1450210793405434377,-892.0,-842.0,263.0
1450210793422315687,-892.0,-842.0,263.0
