%time,field.header.seq,field.header.stamp,field.header.frame_id,field.polygon.points0.x,field.polygon.points0.y,field.polygon.points0.z,field.polygon.points1.x,field.polygon.points1.y,field.polygon.points1.z,field.polygon.points2.x,field.polygon.points2.y,field.polygon.points2.z,field.polygon.points3.x,field.polygon.points3.y,field.polygon.points3.z,field.polygon.points4.x,field.polygon.points4.y,field.polygon.points4.z
1450210771262059340,1,1450210771261952110,odom,0.469999998808,0.0,0.0,0.319999992847,-0.254999995232,0.0,-0.52999997139,-0.254999995232,0.0,-0.52999997139,0.254999995232,0.0,0.319999992847,0.254999995232,0.0
1450210771526055972,2,1450210771523137963,odom,0.469999998808,0.0,0.0,0.319999992847,-0.254999995232,0.0,-0.52999997139,-0.254999995232,0.0,-0.52999997139,0.254999995232,0.0,0.319999992847,0.254999995232,0.0
1450210771734033595,3,1450210771733716401,odom,0.469999998808,0.0,0.0,0.319999992847,-0.254999995232,0.0,-0.52999997139,-0.254999995232,0.0,-0.52999997139,0.254999995232,0.0,0.319999992847,0.254999995232,0.0
1450210771957890953,4,1450210771957638313,odom,0.469999998808,0.0,0.0,0.319999992847,-0.254999995232,0.0,-0.52999997139,-0.254999995232,0.0,-0.52999997139,0.254999995232,0.0,0.319999992847,0.254999995232,0.0
1450210772183332737,5,1450210772182986273,odom,0.469999998808,0.0,0.0,0.319999992847,-0.254999995232,0.0,-0.52999997139,-0.254999995232,0.0,-0.52999997139,0.254999995232,0.0,0.319999992847,0.254999995232,0.0
1450210772366237114,6,1450210772365701536,odom,0.469999998808,0.0,0.0,0.319999992847,-0.254999995232,0.0,-0.52999997139,-0.254999995232,0.0,-0.52999997139,0.254999995232,0.0,0.319999992847,0.254999995232,0.0
1450210772548895852,7,1450210772548614705,odom,0.469999998808,0.0,0.0,0.319999992847,-0.254999995232,0.0,-0.52999997139,-0.254999995232,0.0,-0.52999997139,0.254999995232,0.0,0.319999992847,0.254999995232,0.0
1450210772755869329,8,1450210772755729661,odom,0.469999998808,0.0,0.0,0.319999992847,-0.254999995232,0.0,-0.52999997139,-0.254999995232,0.0,-0.52999997139,0.254999995232,0.0,0.319999992847,0.254999995232,0.0
1450210772953083502,9,1450210772951274045,odom,0.469999998808,0.0,0.0,0.319999992847,-0.254999995232,0.0,-0.52999997139,-0.254999995232,0.0,-0.52999997139,0.254999995232,0.0,0.319999992847,0.254999995232,0.0
1450210773198641828,10,1450210773198092940,odom,0.469999998808,0.0,0.0,0.319999992847,-0.254999995232,0.0,-0.52999997139,-0.254999995232,0.0,-0.52999997139,0.254999995232,0.0,0.319999992847,0.254999995232,0.0
1450210773449920628,11,1450210773449678827,odom,0.469999998808,0.0,0.0,0.319999992847,-0.254999995232,0.0,-0.52999997139,-0.254999995232,0.0,-0.52999997139,0.254999995232,0.0,0.319999992847,0.254999995232,0.0
1450210773553719102,12,1450210773553269076,odom,0.469999998808,0.0,0.0,0.319999992847,-0.254999995232,0.0,-0.52999997139,-0.254999995232,0.0,-0.52999997139,0.254999995232,0.0,0.319999992847,0.254999995232,0.0
1450210773767973920,13,1450210773765437258,odom,0.469999998808,0.0,0.0,0.319999992847,-0.254999995232,0.0,-0.52999997139,-0.254999995232,0.0,-0.52999997139,0.254999995232,0.0,0.319999992847,0.254999995232,0.0
1450210773967595113,14,1450210773967421350,odom,0.469999998808,0.0,0.0,0.319999992847,-0.254999995232,0.0,-0.52999997139,-0.254999995232,0.0,-0.52999997139,0.254999995232,0.0,0.319999992847,0.254999995232,0.0
1450210774156684935,15,1450210774156390483,odom,0.469999998808,0.0,0.0,0.319999992847,-0.254999995232,0.0,-0.52999997139,-0.254999995232,0.0,-0.52999997139,0.254999995232,0.0,0.319999992847,0.254999995232,0.0
1450210774388557771,16,1450210774388153206,odom,0.469999998808,0.0,0.0,0.319999992847,-0.254999995232,0.0,-0.52999997139,-0.254999995232,0.0,-0.52999997139,0.254999995232,0.0,0.319999992847,0.254999995232,0.0
1450210774594770280,17,1450210774592312288,odom,0.469999998808,0.0,0.0,0.319999992847,-0.254999995232,0.0,-0.52999997139,-0.254999995232,0.0,-0.52999997139,0.254999995232,0.0,0.319999992847,0.254999995232,0.0
1450210774763713283,18,1450210774763553104,odom,0.469999998808,0.0,0.0,0.319999992847,-0.254999995232,0.0,-0.52999997139,-0.254999995232,0.0,-0.52999997139,0.254999995232,0.0,0.319999992847,0.254999995232,0.0
1450210774962532509,19,1450210774962001267,odom,0.469999998808,0.0,0.0,0.319999992847,-0.254999995232,0.0,-0.52999997139,-0.254999995232,0.0,-0.52999997139,0.254999995232,0.0,0.319999992847,0.254999995232,0.0
1450210775153683245,20,1450210775153538189,odom,0.469999998808,0.0,0.0,0.319999992847,-0.254999995232,0.0,-0.52999997139,-0.254999995232,0.0,-0.52999997139,0.254999995232,0.0,0.319999992847,0.254999995232,0.0
1450210775384054280,21,1450210775383362984,odom,0.469999998808,0.0,0.0,0.319999992847,-0.254999995232,0.0,-0.52999997139,-0.254999995232,0.0,-0.52999997139,0.254999995232,0.0,0.319999992847,0.254999995232,0.0
1450210775634641920,22,1450210775634085290,odom,0.469999998808,0.0,0.0,0.319999992847,-0.254999995232,0.0,-0.52999997139,-0.254999995232,0.0,-0.52999997139,0.254999995232,0.0,0.319999992847,0.254999995232,0.0
1450210775749319215,23,1450210775749129496,odom,0.469999998808,0.0,0.0,0.319999992847,-0.254999995232,0.0,-0.52999997139,-0.254999995232,0.0,-0.52999997139,0.254999995232,0.0,0.319999992847,0.254999995232,0.0
1450210776020646099,24,1450210776020250000,odom,0.469999998808,0.0,0.0,0.319999992847,-0.254999995232,0.0,-0.52999997139,-0.254999995232,0.0,-0.52999997139,0.254999995232,0.0,0.319999992847,0.254999995232,0.0
1450210776186472652,25,1450210776184532358,odom,0.469999998808,0.0,0.0,0.319999992847,-0.254999995232,0.0,-0.52999997139,-0.254999995232,0.0,-0.52999997139,0.254999995232,0.0,0.319999992847,0.254999995232,0.0
1450210776351862837,26,1450210776351656065,odom,0.469999998808,0.0,0.0,0.319999992847,-0.254999995232,0.0,-0.52999997139,-0.254999995232,0.0,-0.52999997139,0.254999995232,0.0,0.319999992847,0.254999995232,0.0
1450210776567902047,27,1450210776567435883,odom,0.481519013643,3.04332297674e-05,0.0,0.331519007683,-0.25496956706,0.0,-0.518480956554,-0.25496956706,0.0,-0.518480956554,0.255030423403,0.0,0.331519007683,0.255030423403,0.0
1450210776776713577,28,1450210776776370364,odom,0.504557192326,6.08664595347e-05,0.0,0.354557186365,-0.254939138889,0.0,-0.495442777872,-0.254939138889,0.0,-0.495442777872,0.255060851574,0.0,0.354557186365,0.255060851574,0.0
1450210776985972750,29,1450210776985368146,odom,0.530447781086,0.00527122290805,0.0,0.383150964975,-0.251299709082,0.0,-0.466801524162,-0.26028239727,0.0,-0.472191125154,0.249689131975,0.0,0.377761363983,0.258671790361,0.0
1450210777182150070,30,1450210777182025185,odom,0.565003395081,0.00563642149791,0.0,0.41770657897,-0.250934511423,0.0,-0.43224593997,-0.259917199612,0.0,-0.437635540962,0.250054329634,0.0,0.412316948175,0.25903698802,0.0
1450210777369673522,31,1450210777369513490,odom,0.605097532272,0.0165721811354,0.0,0.463256090879,-0.243054494262,0.0,-0.386316716671,-0.26999849081,0.0,-0.402483105659,0.23974519968,0.0,0.447089701891,0.26668921113,0.0
1450210777589213752,32,1450210777587944474,odom,0.653831124306,0.0234829746187,0.0,0.514741301537,-0.237628161907,0.0,-0.334499329329,-0.273548811674,0.0,-0.356051743031,0.235995560884,0.0,0.493188887835,0.271916240454,0.0
1450210777765222604,33,1450210777765075305,odom,0.705050945282,0.0364748612046,0.0,0.571510672569,-0.227517545223,0.0,-0.276781141758,-0.281378477812,0.0,-0.309097677469,0.227596595883,0.0,0.539194107056,0.281457543373,0.0
1450210778042576585,34,1450210778042271561,odom,0.759288966656,0.045291941613,0.0,0.628545999527,-0.220096960664,0.0,-0.219129249454,-0.2829195261,0.0,-0.256822764874,0.225685626268,0.0,0.590852439404,0.288508176804,0.0
1450210778185237244,35,1450210778184887360,odom,0.805907666683,0.0381761603057,0.0,0.669584989548,-0.224390283227,0.0,-0.179228588939,-0.269283592701,0.0,-0.206164583564,0.240004584193,0.0,0.642648994923,0.284897893667,0.0
1450210778404092943,36,1450210778403920586,odom,0.858354568481,0.0196281354874,0.0,0.711057722569,-0.236942797899,0.0,-0.13889478147,-0.245925471187,0.0,-0.144284382463,0.264046043158,0.0,0.705668091774,0.273028701544,0.0
1450210778590388347,37,1450210778585700547,odom,0.915728867054,-0.00121098570526,0.0,0.757721066475,-0.251328021288,0.0,-0.0918517485261,-0.224383994937,0.0,-0.0756853371859,0.285359710455,0.0,0.773887455463,0.258415699005,0.0
1450210778795178550,38,1450210778794647107,odom,0.96966958046,-0.0187410227954,0.0,0.803812742233,-0.263723701239,0.0,-0.0444790348411,-0.209862753749,0.0,-0.0121624702588,0.299112319946,0.0,0.836129307747,0.245251387358,0.0
1450210779001186745,39,1450210779000951118,odom,1.02062141895,-0.0325697176158,0.0,0.849623978138,-0.273992359638,0.0,0.00266001885757,-0.202215209603,0.0,0.0457263104618,0.30596318841,0.0,0.892690300941,0.234186038375,0.0
1450210779218178080,40,1450210779215185153,odom,1.07353103161,-0.0532270669937,0.0,0.894966781139,-0.289107978344,0.0,0.0507037006319,-0.190519109368,0.0,0.109857007861,0.316038757563,0.0,0.954120099545,0.217449903488,0.0
1450210779351652255,41,1450210779350534746,odom,1.12150704861,-0.0642284154892,0.0,0.94045996666,-0.298209100962,0.0,0.0972858741879,-0.190703719854,0.0,0.161789104342,0.315200746059,0.0,1.00496315956,0.207695350051,0.0
1450210779590263966,42,1450210779589050485,odom,1.16934800148,-0.07585683465,0.0,0.985838353634,-0.30791118741,0.0,0.143847450614,-0.191501244903,0.0,0.213693410158,0.313693284988,0.0,1.05568432808,0.197283372283,0.0
1450210779808008282,43,1450210779807695181,odom,1.22636222839,-0.0840158760548,0.0,1.04285252094,-0.316070228815,0.0,0.200861677527,-0.199660286307,0.0,0.270707637072,0.305534273386,0.0,1.11269855499,0.189124330878,0.0
1450210779964547997,44,1450210779964361314,odom,1.2797743082,-0.0969982519746,0.0,1.09382259846,-0.327100336552,0.0,0.253108918667,-0.20179887116,0.0,0.32828977704,0.302629351616,0.0,1.16900348663,0.177327871323,0.0
1450210780151997319,45,1450210780151444169,odom,1.33104419708,-0.104639619589,0.0,1.14509248734,-0.334741711617,0.0,0.304378867149,-0.209440246224,0.0,0.379559755325,0.294987976551,0.0,1.22027337551,0.169686511159,0.0
1450210780394622716,46,1450210780394257086,odom,1.38803255558,-0.112979404628,0.0,1.20208084583,-0.343081504107,0.0,0.36136713624,-0.217780023813,0.0,0.436548024416,0.286648184061,0.0,1.27726173401,0.161346718669,0.0
1450210780582511976,47,1450210780581876605,odom,1.42792212963,-0.118832319975,0.0,1.24197041988,-0.348934412003,0.0,0.401256769896,-0.22363294661,0.0,0.476437628269,0.280795276165,0.0,1.31715130806,0.155493810773,0.0
1450210780789018333,48,1450210780788611892,odom,1.46566092968,-0.11940446496,0.0,1.28215134144,-0.35145881772,0.0,0.44016045332,-0.235048875213,0.0,0.510006427765,0.270145654678,0.0,1.35199737549,0.153735741973,0.0
1450210781014722066,49,1450210781013948202,odom,1.50557219982,-0.125106751919,0.0,1.32206261158,-0.357161104679,0.0,0.480071723461,-0.240751177073,0.0,0.549917697906,0.26444336772,0.0,1.39190852642,0.148033455014,0.0
1450210781196516299,50,1450210781191364480,odom,1.54905641079,-0.125797316432,0.0,1.36800932884,-0.359778016806,0.0,0.524835288525,-0.252272605896,0.0,0.589338541031,0.253631830215,0.0,1.43251264095,0.146126449108,0.0
1450210781365310106,51,1450210781364884917,odom,1.59828472137,-0.12654531002,0.0,1.4197204113,-0.362426221371,0.0,0.575457274914,-0.263837367296,0.0,0.634610593319,0.242720514536,0.0,1.47887372971,0.144131660461,0.0
1450210781568010980,52,1450210781567860681,odom,1.6542391777,-0.116976760328,0.0,1.48324179649,-0.358399391174,0.0,0.636277794838,-0.286622256041,0.0,0.679344058037,0.221556141973,0.0,1.52630805969,0.149778991938,0.0
1450210781770308934,53,1450210781768172336,odom,1.70667278767,-0.110810130835,0.0,1.54081594944,-0.355792790651,0.0,0.692524194717,-0.301931858063,0.0,0.724840760231,0.207043215632,0.0,1.57313251495,0.153182283044,0.0
1450210781949293392,54,1450210781948999458,odom,1.76473176479,-0.103536985815,0.0,1.60408961773,-0.351970225573,0.0,0.754848957062,-0.316049575806,0.0,0.776401340961,0.193494811654,0.0,1.62564194202,0.157574146986,0.0
1450210782151350316,55,1450210782150380126,odom,1.81983017921,-0.0896765217185,0.0,1.66714382172,-0.343077093363,0.0,0.817191302776,-0.334094434977,0.0,0.822580873966,0.175877079368,0.0,1.67253339291,0.16689440608,0.0
1450210782429662949,56,1450210782428905464,odom,1.87742507458,-0.0797427371144,0.0,1.73012828827,-0.336313664913,0.0,0.880175828934,-0.345296353102,0.0,0.874786198139,0.164675161242,0.0,1.72473871708,0.17365783453,0.0
1450210782538812565,57,1450210782538497225,odom,1.93172550201,-0.0633565932512,0.0,1.79263579845,-0.324467718601,0.0,0.943395137787,-0.36038839817,0.0,0.921842694283,0.149155989289,0.0,1.77108335495,0.185076653957,0.0
1450210782744154999,58,1450210782743932134,odom,1.9887098074,-0.0503036342561,0.0,1.85516953468,-0.314296036959,0.0,1.00687766075,-0.368156969547,0.0,0.974561154842,0.140818089247,0.0,1.82285296917,0.194679036736,0.0
1450210782951418302,59,1450210782951083178,odom,2.0429520607,-0.0415472798049,0.0,1.91220903397,-0.306936174631,0.0,1.06453382969,-0.369758725166,0.0,1.02684020996,0.1388463974,0.0,1.87451541424,0.201668947935,0.0
1450210783151972441,60,1450210783151665803,odom,2.09835958481,-0.0159073174,0.0,1.97894859314,-0.286584287882,0.0,1.13468551636,-0.385173141956,0.0,1.07553219795,0.121384732425,0.0,1.91979527473,0.219973579049,0.0
1450210783328031497,61,1450210783327713579,odom,2.15207362175,-0.00438908627257,0.0,2.03552985191,-0.276312857866,0.0,1.1923558712,-0.383818238974,0.0,1.12785255909,0.122086212039,0.0,1.97102665901,0.229591608047,0.0
1450210783539770981,62,1450210783539484217,odom,2.20202946663,0.0127609157935,0.0,2.09125876427,-0.261565208435,0.0,1.25054502487,-0.386866688728,0.0,1.1753641367,0.117561534047,0.0,2.01607775688,0.242862999439,0.0
1450210783735654842,63,1450210783734269110,odom,2.25923109055,0.037518505007,0.0,2.15721178055,-0.240181073546,0.0,1.3208925724,-0.392069220543,0.0,1.22975969315,0.109722368419,0.0,2.06607890129,0.261610507965,0.0
1450210783950294213,64,1450210783948698764,odom,2.30824756622,0.0571040213108,0.0,2.21212005615,-0.222689658403,0.0,1.37919771671,-0.392219096422,0.0,1.27748000622,0.107534363866,0.0,2.11040234566,0.277063786983,0.0
1450210784159598996,65,1450210784159318463,odom,2.35685157776,0.0776615217328,0.0,2.26665878296,-0.204101279378,0.0,1.43750548363,-0.391196250916,0.0,1.32524847984,0.1062958166,0.0,2.15440177917,0.293390780687,0.0
1450210784347854450,66,1450210784347319377,odom,2.41062784195,0.100509256124,0.0,2.32641029358,-0.183096796274,0.0,1.50139629841,-0.387673735619,0.0,1.37865006924,0.107334710658,0.0,2.20366406441,0.311911672354,0.0
1450210784550902216,67,1450210784550353473,odom,2.46384835243,0.12472409755,0.0,2.38564348221,-0.160598501563,0.0,1.56513726711,-0.382566034794,0.0,1.43195676804,0.109737671912,0.0,2.25246286392,0.331705212593,0.0
1450210784735786115,68,1450210784726939702,odom,2.51526236534,0.144093602896,0.0,2.44007706642,-0.142039522529,0.0,1.6219625473,-0.372665643692,0.0,1.48358678818,0.118203140795,0.0,2.30170154572,0.348829269409,0.0
1450210784964135003,69,1450210784963851614,odom,2.57069778442,0.159720793366,0.0,2.4955124855,-0.126412332058,0.0,1.67739784718,-0.357038468122,0.0,1.53902208805,0.133830323815,0.0,2.35713672638,0.364456444979,0.0
1450210785158222934,70,1450210785157775754,odom,2.62192964554,0.17954480648,0.0,2.54977226257,-0.107366882265,0.0,1.73414051533,-0.346625834703,0.0,1.59058511257,0.142753198743,0.0,2.40621685982,0.382012158632,0.0
1450210785371697135,71,1450210785371186385,odom,2.67592382431,0.189763426781,0.0,2.60073852539,-0.0963696911931,0.0,1.78262400627,-0.326995819807,0.0,1.64424824715,0.163872972131,0.0,2.46236300468,0.394499093294,0.0
1450210785535650528,72,1450210785535424843,odom,2.73135924339,0.205390617251,0.0,2.65617394447,-0.0807425007224,0.0,1.83805930614,-0.311368614435,0.0,1.69968366623,0.179500162601,0.0,2.51779818535,0.410126268864,0.0
1450210785758593037,73,1450210785758303933,odom,2.77982592583,0.213798031211,0.0,2.7016210556,-0.0715245604515,0.0,1.88111484051,-0.293492108583,0.0,1.74793434143,0.198811605573,0.0,2.56844043732,0.420779138803,0.0
1450210785979817679,74,1450210785976719452,odom,2.82573699951,0.2314581424,0.0,2.75055170059,-0.054674975574,0.0,1.93243706226,-0.285301089287,0.0,1.79406142235,0.20556768775,0.0,2.61217594147,0.436193794012,0.0
1450210786199968640,75,1450210786199791677,odom,2.86318159103,0.236505433917,0.0,2.78497648239,-0.0488171577454,0.0,1.96447038651,-0.270784676075,0.0,1.83128988743,0.22151902318,0.0,2.65179610252,0.44348654151,0.0
1450210786370326368,76,1450210786370149903,odom,2.89242148399,0.249624073505,0.0,2.81723618507,-0.036509051919,0.0,1.99912154675,-0.267135173082,0.0,1.86074578762,0.223733603954,0.0,2.67886042595,0.454359740019,0.0
1450210786575902897,77,1450210786574429611,odom,2.91320300102,0.250100553036,0.0,2.83499789238,-0.0352220498025,0.0,2.01449179649,-0.257189571857,0.0,1.88131129742,0.235114127398,0.0,2.70181751251,0.457081645727,0.0
1450210786772473296,78,1450210786771854465,odom,2.9228219986,0.247525796294,0.0,2.84160614014,-0.0369544029236,0.0,2.01880025864,-0.250238567591,0.0,1.89082968235,0.2434450984,0.0,2.71363568306,0.456729233265,0.0
1450210786952127823,79,1450210786951904283,odom,2.92281413078,0.247555226088,0.0,2.84159851074,-0.0369249843061,0.0,2.01879239082,-0.250209122896,0.0,1.89082181454,0.243474513292,0.0,2.71362781525,0.456758648157,0.0
1450210787184303421,80,1450210787183555595,odom,2.91876268387,0.25160458684,0.0,2.84055781364,-0.0337180010974,0.0,2.02005147934,-0.255685538054,0.0,1.88687098026,0.236618176103,0.0,2.70737719536,0.458585709333,0.0
1450210787350377553,81,1450210787349514815,odom,2.91876268387,0.25160458684,0.0,2.84055781364,-0.0337180010974,0.0,2.02005147934,-0.255685538054,0.0,1.88687098026,0.236618176103,0.0,2.70737719536,0.458585709333,0.0
1450210787551966815,82,1450210787551772071,odom,2.91876268387,0.25160458684,0.0,2.84055781364,-0.0337180010974,0.0,2.02005147934,-0.255685538054,0.0,1.88687098026,0.236618176103,0.0,2.70737719536,0.458585709333,0.0
1450210787782529574,83,1450210787782009365,odom,2.91876268387,0.25160458684,0.0,2.84055781364,-0.0337180010974,0.0,2.02005147934,-0.255685538054,0.0,1.88687098026,0.236618176103,0.0,2.70737719536,0.458585709333,0.0
1450210787969944366,84,1450210787968598188,odom,2.91876268387,0.25160458684,0.0,2.84055781364,-0.0337180010974,0.0,2.02005147934,-0.255685538054,0.0,1.88687098026,0.236618176103,0.0,2.70737719536,0.458585709333,0.0
1450210788172677710,85,1450210788172149540,odom,2.91876268387,0.25160458684,0.0,2.84055781364,-0.0337180010974,0.0,2.02005147934,-0.255685538054,0.0,1.88687098026,0.236618176103,0.0,2.70737719536,0.458585709333,0.0
1450210788377322418,86,1450210788374644985,odom,2.91876268387,0.25160458684,0.0,2.84055781364,-0.0337180010974,0.0,2.02005147934,-0.255685538054,0.0,1.88687098026,0.236618176103,0.0,2.70737719536,0.458585709333,0.0
1450210788585707342,87,1450210788585296197,odom,2.91876268387,0.25160458684,0.0,2.84055781364,-0.0337180010974,0.0,2.02005147934,-0.255685538054,0.0,1.88687098026,0.236618176103,0.0,2.70737719536,0.458585709333,0.0
1450210788723986963,88,1450210788721677346,odom,2.91876268387,0.25160458684,0.0,2.84055781364,-0.0337180010974,0.0,2.02005147934,-0.255685538054,0.0,1.88687098026,0.236618176103,0.0,2.70737719536,0.458585709333,0.0
1450210788953575935,89,1450210788953009633,odom,2.91876268387,0.25160458684,0.0,2.84055781364,-0.0337180010974,0.0,2.02005147934,-0.255685538054,0.0,1.88687098026,0.236618176103,0.0,2.70737719536,0.458585709333,0.0
1450210789147661438,90,1450210789147501846,odom,2.91876268387,0.25160458684,0.0,2.84055781364,-0.0337180010974,0.0,2.02005147934,-0.255685538054,0.0,1.88687098026,0.236618176103,0.0,2.70737719536,0.458585709333,0.0
1450210789332846316,91,1450210789329308558,odom,2.91876268387,0.25160458684,0.0,2.84055781364,-0.0337180010974,0.0,2.02005147934,-0.255685538054,0.0,1.88687098026,0.236618176103,0.0,2.70737719536,0.458585709333,0.0
1450210789548748332,92,1450210789543762603,odom,2.91876268387,0.25160458684,0.0,2.84055781364,-0.0337180010974,0.0,2.02005147934,-0.255685538054,0.0,1.88687098026,0.236618176103,0.0,2.70737719536,0.458585709333,0.0
1450210789787518366,93,1450210789787305231,odom,2.91876268387,0.25160458684,0.0,2.84055781364,-0.0337180010974,0.0,2.02005147934,-0.255685538054,0.0,1.88687098026,0.236618176103,0.0,2.70737719536,0.458585709333,0.0
1450210789975710812,94,1450210789973286688,odom,2.91876268387,0.25160458684,0.0,2.84055781364,-0.0337180010974,0.0,2.02005147934,-0.255685538054,0.0,1.88687098026,0.236618176103,0.0,2.70737719536,0.458585709333,0.0
1450210790147747129,95,1450210790144984164,odom,2.91876268387,0.25160458684,0.0,2.84055781364,-0.0337180010974,0.0,2.02005147934,-0.255685538054,0.0,1.88687098026,0.236618176103,0.0,2.70737719536,0.458585709333,0.0
1450210790377646477,96,1450210790376266553,odom,2.91876268387,0.25160458684,0.0,2.84055781364,-0.0337180010974,0.0,2.02005147934,-0.255685538054,0.0,1.88687098026,0.236618176103,0.0,2.70737719536,0.458585709333,0.0
1450210790539602466,97,1450210790539150407,odom,2.91876268387,0.25160458684,0.0,2.84055781364,-0.0337180010974,0.0,2.02005147934,-0.255685538054,0.0,1.88687098026,0.236618176103,0.0,2.70737719536,0.458585709333,0.0
1450210790779475919,98,1450210790778458697,odom,2.91876268387,0.25160458684,0.0,2.84055781364,-0.0337180010974,0.0,2.02005147934,-0.255685538054,0.0,1.88687098026,0.236618176103,0.0,2.70737719536,0.458585709333,0.0
1450210790943324036,99,1450210790942740966,odom,2.91876268387,0.25160458684,0.0,2.84055781364,-0.0337180010974,0.0,2.02005147934,-0.255685538054,0.0,1.88687098026,0.236618176103,0.0,2.70737719536,0.458585709333,0.0
1450210791163973161,100,1450210791160679075,odom,2.91876268387,0.25160458684,0.0,2.84055781364,-0.0337180010974,0.0,2.02005147934,-0.255685538054,0.0,1.88687098026,0.236618176103,0.0,2.70737719536,0.458585709333,0.0
1450210791332056649,101,1450210791331857667,odom,2.91876268387,0.25160458684,0.0,2.84055781364,-0.0337180010974,0.0,2.02005147934,-0.255685538054,0.0,1.88687098026,0.236618176103,0.0,2.70737719536,0.458585709333,0.0
1450210791568153109,102,1450210791567601387,odom,2.91876268387,0.25160458684,0.0,2.84055781364,-0.0337180010974,0.0,2.02005147934,-0.255685538054,0.0,1.88687098026,0.236618176103,0.0,2.70737719536,0.458585709333,0.0
1450210791775144262,103,1450210791774708738,odom,2.91876268387,0.25160458684,0.0,2.84055781364,-0.0337180010974,0.0,2.02005147934,-0.255685538054,0.0,1.88687098026,0.236618176103,0.0,2.70737719536,0.458585709333,0.0
1450210791946504308,104,1450210791943698149,odom,2.91876268387,0.25160458684,0.0,2.84055781364,-0.0337180010974,0.0,2.02005147934,-0.255685538054,0.0,1.88687098026,0.236618176103,0.0,2.70737719536,0.458585709333,0.0
1450210792137162888,105,1450210792136678309,odom,2.91876268387,0.25160458684,0.0,2.84055781364,-0.0337180010974,0.0,2.02005147934,-0.255685538054,0.0,1.88687098026,0.236618176103,0.0,2.70737719536,0.458585709333,0.0
1450210792375184320,106,1450210792373629502,odom,2.91876268387,0.25160458684,0.0,2.84055781364,-0.0337180010974,0.0,2.02005147934,-0.255685538054,0.0,1.88687098026,0.236618176103,0.0,2.70737719536,0.458585709333,0.0
1450210792540488090,107,1450210792537912859,odom,2.91876268387,0.25160458684,0.0,2.84055781364,-0.0337180010974,0.0,2.02005147934,-0.255685538054,0.0,1.88687098026,0.236618176103,0.0,2.70737719536,0.458585709333,0.0
1450210792765859610,108,1450210792765143969,odom,2.91876268387,0.25160458684,0.0,2.84055781364,-0.0337180010974,0.0,2.02005147934,-0.255685538054,0.0,1.88687098026,0.236618176103,0.0,2.70737719536,0.458585709333,0.0
1450210792959080986,109,1450210792958626999,odom,2.91876268387,0.25160458684,0.0,2.84055781364,-0.0337180010974,0.0,2.02005147934,-0.255685538054,0.0,1.88687098026,0.236618176103,0.0,2.70737719536,0.458585709333,0.0
1450210793159115820,110,1450210793157171375,odom,2.91876268387,0.25160458684,0.0,2.84055781364,-0.0337180010974,0.0,2.02005147934,-0.255685538054,0.0,1.88687098026,0.236618176103,0.0,2.70737719536,0.458585709333,0.0
1450210793354472724,111,1450210793354196273,odom,2.91876268387,0.25160458684,0.0,2.84055781364,-0.0337180010974,0.0,2.02005147934,-0.255685538054,0.0,1.88687098026,0.236618176103,0.0,2.70737719536,0.458585709333,0.0
1450210793619788527,112,1450210793615661451,odom,2.91876268387,0.25160458684,0.0,2.84055781364,-0.0337180010974,0.0,2.02005147934,-0.255685538054,0.0,1.88687098026,0.236618176103,0.0,2.70737719536,0.458585709333,0.0
1450210793790270798,113,1450210793786220067,odom,2.91876268387,0.25160458684,0.0,2.84055781364,-0.0337180010974,0.0,2.02005147934,-0.255685538054,0.0,1.88687098026,0.236618176103,0.0,2.70737719536,0.458585709333,0.0
1450210793937766687,114,1450210793934675845,odom,2.91876268387,0.25160458684,0.0,2.84055781364,-0.0337180010974,0.0,2.02005147934,-0.255685538054,0.0,1.88687098026,0.236618176103,0.0,2.70737719536,0.458585709333,0.0
1450210794160385883,115,1450210794160147729,odom,2.91876268387,0.25160458684,0.0,2.84055781364,-0.0337180010974,0.0,2.02005147934,-0.255685538054,0.0,1.88687098026,0.236618176103,0.0,2.70737719536,0.458585709333,0.0
1450210794359405383,116,1450210794358437003,odom,2.91876268387,0.25160458684,0.0,2.84055781364,-0.0337180010974,0.0,2.02005147934,-0.255685538054,0.0,1.88687098026,0.236618176103,0.0,2.70737719536,0.458585709333,0.0
1450210794571569983,117,1450210794571030047,odom,2.91876268387,0.25160458684,0.0,2.84055781364,-0.0337180010974,0.0,2.02005147934,-0.255685538054,0.0,1.88687098026,0.236618176103,0.0,2.70737719536,0.458585709333,0.0
1450210794779624876,118,1450210794779050454,odom,2.91876268387,0.25160458684,0.0,2.84055781364,-0.0337180010974,0.0,2.02005147934,-0.255685538054,0.0,1.88687098026,0.236618176103,0.0,2.70737719536,0.458585709333,0.0
1450210794938690347,119,1450210794937559730,odom,2.91876268387,0.25160458684,0.0,2.84055781364,-0.0337180010974,0.0,2.02005147934,-0.255685538054,0.0,1.88687098026,0.236618176103,0.0,2.70737719536,0.458585709333,0.0
1450210795193135051,120,1450210795175253548,odom,2.91876268387,0.25160458684,0.0,2.84055781364,-0.0337180010974,0.0,2.02005147934,-0.255685538054,0.0,1.88687098026,0.236618176103,0.0,2.70737719536,0.458585709333,0.0
1450210795340943558,121,1450210795340657594,odom,2.91876268387,0.25160458684,0.0,2.84055781364,-0.0337180010974,0.0,2.02005147934,-0.255685538054,0.0,1.88687098026,0.236618176103,0.0,2.70737719536,0.458585709333,0.0
1450210795557976831,122,1450210795557781551,odom,2.91876268387,0.25160458684,0.0,2.84055781364,-0.0337180010974,0.0,2.02005147934,-0.255685538054,0.0,1.88687098026,0.236618176103,0.0,2.70737719536,0.458585709333,0.0
1450210795761908216,123,1450210795761613410,odom,2.91876268387,0.25160458684,0.0,2.84055781364,-0.0337180010974,0.0,2.02005147934,-0.255685538054,0.0,1.88687098026,0.236618176103,0.0,2.70737719536,0.458585709333,0.0
1450210795949664003,124,1450210795949167805,odom,2.91876268387,0.25160458684,0.0,2.84055781364,-0.0337180010974,0.0,2.02005147934,-0.255685538054,0.0,1.88687098026,0.236618176103,0.0,2.70737719536,0.458585709333,0.0
1450210796142372913,125,1450210796141960155,odom,2.91876268387,0.25160458684,0.0,2.84055781364,-0.0337180010974,0.0,2.02005147934,-0.255685538054,0.0,1.88687098026,0.236618176103,0.0,2.70737719536,0.458585709333,0.0
1450210796360575155,126,1450210796360334079,odom,2.91876268387,0.25160458684,0.0,2.84055781364,-0.0337180010974,0.0,2.02005147934,-0.255685538054,0.0,1.88687098026,0.236618176103,0.0,2.70737719536,0.458585709333,0.0
1450210796564939694,127,1450210796560949877,odom,2.91876268387,0.25160458684,0.0,2.84055781364,-0.0337180010974,0.0,2.02005147934,-0.255685538054,0.0,1.88687098026,0.236618176103,0.0,2.70737719536,0.458585709333,0.0
1450210796773166855,128,1450210796772821391,odom,2.91876268387,0.25160458684,0.0,2.84055781364,-0.0337180010974,0.0,2.02005147934,-0.255685538054,0.0,1.88687098026,0.236618176103,0.0,2.70737719536,0.458585709333,0.0
1450210796956599729,129,1450210796955875797,odom,2.91876268387,0.25160458684,0.0,2.84055781364,-0.0337180010974,0.0,2.02005147934,-0.255685538054,0.0,1.88687098026,0.236618176103,0.0,2.70737719536,0.458585709333,0.0
1450210797193136360,130,1450210797192687422,odom,2.91876268387,0.25160458684,0.0,2.84055781364,-0.0337180010974,0.0,2.02005147934,-0.255685538054,0.0,1.88687098026,0.236618176103,0.0,2.70737719536,0.458585709333,0.0
1450210797359748608,131,1450210797359044126,odom,2.90763545036,0.248625919223,0.0,2.82943034172,-0.0366966798902,0.0,2.00892424583,-0.258664220572,0.0,1.87574374676,0.233639493585,0.0,2.69624996185,0.455607026815,0.0
1450210797547291019,132,1450210797546074042,odom,2.89651584625,0.245617821813,0.0,2.81831097603,-0.0397047773004,0.0,1.99780476093,-0.261672317982,0.0,1.86462426186,0.230631396174,0.0,2.68513035774,0.452598929405,0.0
1450210797778838794,133,1450210797778479576,odom,2.8687171936,0.238097578287,0.0,2.79051232338,-0.0472250171006,0.0,1.97000610828,-0.269192546606,0.0,1.83682560921,0.223111152649,0.0,2.65733170509,0.445078700781,0.0
1450210797956105724,134,1450210797955966918,odom,2.84091854095,0.230577334762,0.0,2.76271367073,-0.0547452606261,0.0,1.94220745564,-0.276712805033,0.0,1.80902695656,0.215590909123,0.0,2.62953305244,0.437558442354,0.0
1450210798167994346,135,1450210798167742479,odom,2.81458544731,0.228567481041,0.0,2.73940014839,-0.0575656481087,0.0,1.92128551006,-0.288191765547,0.0,1.78290987015,0.20267701149,0.0,2.60102438927,0.433303147554,0.0
1450210798334676696,136,1450210798334347813,odom,2.80202460289,0.219960987568,0.0,2.72381973267,-0.0653616040945,0.0,1.90331363678,-0.287329137325,0.0,1.77013301849,0.20497456193,0.0,2.59063911438,0.426942110062,0.0
1450210798577422862,137,1450210798577171264,odom,2.79647302628,0.218427613378,0.0,2.71826815605,-0.066894993186,0.0,1.89776194096,-0.288862526417,0.0,1.76458144188,0.203441187739,0.0,2.58508753777,0.42540872097,0.0
1450210798771303556,138,1450210798768623193,odom,2.79647302628,0.218427613378,0.0,2.71826815605,-0.066894993186,0.0,1.89776194096,-0.288862526417,0.0,1.76458144188,0.203441187739,0.0,2.58508753777,0.42540872097,0.0
1450210798949276282,139,1450210798948975000,odom,2.79647302628,0.218427613378,0.0,2.71826815605,-0.066894993186,0.0,1.89776194096,-0.288862526417,0.0,1.76458144188,0.203441187739,0.0,2.58508753777,0.42540872097,0.0
1450210799140110523,140,1450210799139795331,odom,2.78682732582,0.220900550485,0.0,2.7116420269,-0.0652325674891,0.0,1.89352726936,-0.295858681202,0.0,1.75515162945,0.195010095835,0.0,2.57326626778,0.425636202097,0.0
1450210799365780810,141,1450210799361050898,odom,2.77018046379,0.216271072626,0.0,2.69499516487,-0.0698620527983,0.0,1.87688052654,-0.300488173962,0.0,1.73850488663,0.190380603075,0.0,2.55661940575,0.42100673914,0.0
1450210799541331386,142,1450210799540269003,odom,2.74796581268,0.210166871548,0.0,2.67278051376,-0.0759662538767,0.0,1.85466587543,-0.30659237504,0.0,1.71629023552,0.184276401997,0.0,2.53440475464,0.414902538061,0.0
1450210799731429289,143,1450210799731223796,odom,2.71465611458,0.200966566801,0.0,2.63947081566,-0.0851665586233,0.0,1.82135605812,-0.315792679787,0.0,1.68298041821,0.17507609725,0.0,2.50109505653,0.405702233315,0.0
1450210799996568575,144,1450210799995698554,odom,2.67028355598,0.188552826643,0.0,2.59509801865,-0.097580306232,0.0,1.77698349953,-0.328206419945,0.0,1.63860785961,0.162662357092,0.0,2.45672249794,0.393288493156,0.0
1450210800145026707,145,1450210800144863480,odom,2.62593531609,0.176051065326,0.0,2.55074977875,-0.110082052648,0.0,1.73263525963,-0.340708166361,0.0,1.59425961971,0.150160595775,0.0,2.41237425804,0.380786716938,0.0
1450210800382459618,146,1450210800381960848,odom,2.56653189659,0.163801759481,0.0,2.49437451363,-0.123109929264,0.0,1.67874288559,-0.362368881702,0.0,1.53518748283,0.127010151744,0.0,2.35081911087,0.366269111633,0.0
1450210800584483328,147,1450210800583994859,odom,2.50418782234,0.140940055251,0.0,2.42900252342,-0.145193070173,0.0,1.61088788509,-0.375819206238,0.0,1.47251212597,0.1150495857,0.0,2.2906267643,0.345675706863,0.0
1450210800775780659,148,1450210800775625864,odom,2.43916535378,0.127391248941,0.0,2.36700797081,-0.159520432353,0.0,1.55137622356,-0.398779392242,0.0,1.40782082081,0.0905996412039,0.0,2.22345256805,0.329858601093,0.0
1450210800959323904,149,1450210800958922738,odom,2.37428951263,0.113156065345,0.0,2.30516815186,-0.174502149224,0.0,1.4921104908,-0.422367215157,0.0,1.34339141846,0.0654674097896,0.0,2.15644907951,0.313332498074,0.0
1450210801180497235,150,1450210801179738578,odom,2.29857635498,0.0947898253798,0.0,2.2324988842,-0.19358278811,0.0,1.42210590839,-0.45002630353,0.0,1.26823985577,0.0362094566226,0.0,2.07863283157,0.292652964592,0.0
1450210801360637376,151,1450210801360485864,odom,2.23411870003,0.0788680687547,0.0,2.1710922718,-0.210186734796,0.0,1.36345469952,-0.475180029869,0.0,1.20445871353,0.00940252747387,0.0,2.01209640503,0.274395823479,0.0
1450210801546506225,152,1450210801544813632,odom,2.16844964027,0.057321485132,0.0,2.10542345047,-0.231733322144,0.0,1.29778575897,-0.496726632118,0.0,1.13878977299,-0.0121440570801,0.0,1.94642734528,0.252849251032,0.0
1450210801761016402,153,1450210801760846189,odom,2.10955095291,0.0236615296453,0.0,2.03739356995,-0.263250172138,0.0,1.22176194191,-0.502509117126,0.0,1.07820653915,-0.0131300855428,0.0,1.8938382864,0.226128876209,0.0
1450210801933851801,154,1450210801933474976,odom,2.04724049568,0.000682826677803,0.0,1.97205519676,-0.285450309515,0.0,1.15394067764,-0.51607644558,0.0,1.01556491852,-0.0252076387405,0.0,1.83367955685,0.205418482423,0.0
1450210802165031724,155,1450210802164773393,odom,1.97913920879,-0.0231694895774,0.0,1.90093421936,-0.308492094278,0.0,1.08042812347,-0.53045964241,0.0,0.947247564793,-0.038155913353,0.0,1.76775372028,0.183811619878,0.0
1450210802346053998,156,1450210802345685203,odom,1.90907156467,-0.0512483716011,0.0,1.82485389709,-0.334854424,0.0,0.999839842319,-0.539431333542,0.0,0.877093672752,-0.0444229096174,0.0,1.70210778713,0.160154044628,0.0
1450210802540659960,157,1450210802540423267,odom,1.83846235275,-0.0779879465699,0.0,1.74826967716,-0.359750747681,0.0,0.919116199017,-0.546845734119,0.0,0.806859195232,-0.0493536479771,0.0,1.63601267338,0.137741327286,0.0
1450210802758145733,158,1450210802757877066,odom,1.76178014278,-0.104943580925,0.0,1.66565263271,-0.384737253189,0.0,0.832730233669,-0.554266691208,0.0,0.731012523174,-0.0545132420957,0.0,1.56393492222,0.115016177297,0.0
1450210802953247898,159,1450210802952775569,odom,1.69216704369,-0.124025754631,0.0,1.59308815002,-0.402787953615,0.0,0.758420705795,-0.563505709171,0.0,0.661990046501,-0.0627052336931,0.0,1.49665749073,0.098012521863,0.0
1450210803165221576,160,1450210803164939133,odom,1.61864304543,-0.138183027506,0.0,1.51956415176,-0.41694521904,0.0,0.68489664793,-0.577663004398,0.0,0.588466048241,-0.0768625065684,0.0,1.42313349247,0.0838552489877,0.0
1450210803363475113,161,1450210803363222753,odom,1.54099202156,-0.161856085062,0.0,1.43604362011,-0.438462018967,0.0,0.598165929317,-0.58150357008,0.0,0.512341022491,-0.0787769556046,0.0,1.35021877289,0.0642646029592,0.0
1450210803559360699,162,1450210803558815981,odom,1.47075939178,-0.178421750665,0.0,1.36289381981,-0.45390316844,0.0,0.523551285267,-0.588082194328,0.0,0.443043887615,-0.08447663486,0.0,1.28238642216,0.0497023686767,0.0
1450210803777191176,163,1450210803776870580,odom,1.41525816917,-0.196737274528,0.0,1.30159449577,-0.469877481461,0.0,0.459603577852,-0.586287379265,0.0,0.389757603407,-0.0810928568244,0.0,1.23174846172,0.0353170707822,0.0
1450210803979025328,164,1450210803978862749,odom,1.36172151566,-0.20921459794,0.0,1.24517762661,-0.481138378382,0.0,0.40200355649,-0.588643789291,0.0,0.337500333786,-0.0827393010259,0.0,1.18067443371,0.0247660893947,0.0
1450210804208991094,165,1450210804206342469,odom,1.32745349407,-0.213675826788,0.0,1.21090960503,-0.485599607229,0.0,0.367735564709,-0.593105018139,0.0,0.303232342005,-0.087200537324,0.0,1.14640641212,0.0203048549592,0.0
1450210804401723401,166,1450210804399960298,odom,1.30233454704,-0.221793577075,0.0,1.18292355537,-0.492470532656,0.0,0.338660508394,-0.59105938673,0.0,0.279507189989,-0.0845015272498,0.0,1.12377023697,0.014087324962,0.0
1450210804594969966,167,1450210804594542643,odom,1.29089677334,-0.223159864545,0.0,1.17148590088,-0.493836820126,0.0,0.327222764492,-0.592425704002,0.0,0.268069446087,-0.0858678072691,0.0,1.11233258247,0.0127210430801,0.0
1450210804795391138,168,1450210804794769222,odom,1.28517985344,-0.223858103156,0.0,1.16576886177,-0.494535058737,0.0,0.321505755186,-0.593123912811,0.0,0.262352436781,-0.0865660533309,0.0,1.10661554337,0.0120227970183,0.0
1450210804959905948,169,1450210804958964404,odom,1.28743433952,-0.218563556671,0.0,1.17089045048,-0.490487337112,0.0,0.32771641016,-0.59799271822,0.0,0.263213187456,-0.0920882597566,0.0,1.10638725758,0.0154171353206,0.0
1450210805230943094,170,1450210805230359158,odom,1.28743433952,-0.218563556671,0.0,1.17089045048,-0.490487337112,0.0,0.32771641016,-0.59799271822,0.0,0.263213187456,-0.0920882597566,0.0,1.10638725758,0.0154171353206,0.0
1450210805408307028,171,1450210805408128153,odom,1.28743433952,-0.218563556671,0.0,1.17089045048,-0.490487337112,0.0,0.32771641016,-0.59799271822,0.0,0.263213187456,-0.0920882597566,0.0,1.10638725758,0.0154171353206,0.0
1450210805572376780,172,1450210805572171611,odom,1.28743433952,-0.218563556671,0.0,1.17089045048,-0.490487337112,0.0,0.32771641016,-0.59799271822,0.0,0.263213187456,-0.0920882597566,0.0,1.10638725758,0.0154171353206,0.0
1450210805763321250,173,1450210805763002340,odom,1.28743433952,-0.218563556671,0.0,1.17089045048,-0.490487337112,0.0,0.32771641016,-0.59799271822,0.0,0.263213187456,-0.0920882597566,0.0,1.10638725758,0.0154171353206,0.0
