%time,field.header.seq,field.header.stamp,field.header.frame_id,field.ns,field.id,field.type,field.action,field.pose.position.x,field.pose.position.y,field.pose.position.z,field.pose.orientation.x,field.pose.orientation.y,field.pose.orientation.z,field.pose.orientation.w,field.scale.x,field.scale.y,field.scale.z,field.color.r,field.color.g,field.color.b,field.color.a,field.lifetime,field.frame_locked,field.text,field.mesh_resource,field.mesh_use_embedded_materials
1450210773544148905,4,1450210773544056243,/odom,ga,1,0,0,nan,nan,0.0,nan,nan,nan,nan,0.25,0.15,0.0,1.0,0.0,0.0,1.0,2000000000,0,,,0
1450210773544416570,5,1450210773544246478,/odom,ga,2,2,0,nan,nan,0.0,0.0,0.0,0.0,0.0,0.15,0.15,0.01,0.0,1.0,0.0,1.0,2000000000,0,,,0
1450210773674990476,6,1450210773673884087,/odom,ga,1,0,0,0.0,0.0,0.0,0.0,0.0,0.0,1.0,0.25,0.15,0.0,1.0,0.0,0.0,1.0,2000000000,0,,,0
1450210773675004046,7,1450210773674606112,/odom,ga,2,2,0,0.0,0.0,0.0,0.0,0.0,0.0,0.0,0.15,0.15,0.01,0.0,1.0,0.0,1.0,2000000000,0,,,0
1450210773757645896,8,1450210773756897929,/odom,ga,1,0,0,0.0,0.0,0.0,0.0,0.0,0.0,1.0,0.25,0.15,0.0,1.0,0.0,0.0,1.0,2000000000,0,,,0
1450210773757661696,9,1450210773757028380,/odom,ga,2,2,0,0.0,0.0,0.0,0.0,0.0,0.0,0.0,0.15,0.15,0.01,0.0,1.0,0.0,1.0,2000000000,0,,,0
1450210773842909916,10,1450210773842687112,/odom,ga,1,0,0,0.0,0.0,0.0,0.0,0.0,0.0,1.0,0.25,0.15,0.0,1.0,0.0,0.0,1.0,2000000000,0,,,0
1450210773843177071,11,1450210773842820045,/odom,ga,2,2,0,0.0,0.0,0.0,0.0,0.0,0.0,0.0,0.15,0.15,0.01,0.0,1.0,0.0,1.0,2000000000,0,,,0
1450210773932384065,12,1450210773927769355,/odom,ga,1,0,0,0.0,0.0,0.0,0.0,0.0,0.0,1.0,0.25,0.15,0.0,1.0,0.0,0.0,1.0,2000000000,0,,,0
1450210773932387653,13,1450210773927920928,/odom,ga,2,2,0,0.0,0.0,0.0,0.0,0.0,0.0,0.0,0.15,0.15,0.01,0.0,1.0,0.0,1.0,2000000000,0,,,0
1450210774056137679,14,1450210774054222214,/odom,ga,1,0,0,0.0,0.0,0.0,0.0,0.0,0.0,1.0,0.25,0.15,0.0,1.0,0.0,0.0,1.0,2000000000,0,,,0
1450210774056189835,15,1450210774054482037,/odom,ga,2,2,0,0.0,0.0,0.0,0.0,0.0,0.0,0.0,0.15,0.15,0.01,0.0,1.0,0.0,1.0,2000000000,0,,,0
1450210774168595576,16,1450210774167713371,/odom,ga,1,0,0,0.0,0.0,0.0,0.0,0.0,0.0,1.0,0.25,0.15,0.0,1.0,0.0,0.0,1.0,2000000000,0,,,0
1450210774168599003,17,1450210774168316843,/odom,ga,2,2,0,0.0,0.0,0.0,0.0,0.0,0.0,0.0,0.15,0.15,0.01,0.0,1.0,0.0,1.0,2000000000,0,,,0
1450210774245051411,18,1450210774244603691,/odom,ga,1,0,0,0.0,0.0,0.0,0.0,0.0,0.0,1.0,0.25,0.15,0.0,1.0,0.0,0.0,1.0,2000000000,0,,,0
1450210774245057367,19,1450210774244747806,/odom,ga,2,2,0,0.0,0.0,0.0,0.0,0.0,0.0,0.0,0.15,0.15,0.01,0.0,1.0,0.0,1.0,2000000000,0,,,0
1450210774334936003,20,1450210774334785225,/odom,ga,1,0,0,0.0,0.0,0.0,0.0,0.0,0.0,1.0,0.25,0.15,0.0,1.0,0.0,0.0,1.0,2000000000,0,,,0
1450210774335675356,21,1450210774334965411,/odom,ga,2,2,0,0.0,0.0,0.0,0.0,0.0,0.0,0.0,0.15,0.15,0.01,0.0,1.0,0.0,1.0,2000000000,0,,,0
1450210774448225998,22,1450210774447011348,/odom,ga,1,0,0,0.0,0.0,0.0,0.0,0.0,0.0,1.0,0.25,0.15,0.0,1.0,0.0,0.0,1.0,2000000000,0,,,0
1450210774448230806,23,1450210774447505455,/odom,ga,2,2,0,0.0,0.0,0.0,0.0,0.0,0.0,0.0,0.15,0.15,0.01,0.0,1.0,0.0,1.0,2000000000,0,,,0
1450210774584032510,24,1450210774583859311,/odom,ga,1,0,0,0.0,0.0,0.0,0.0,0.0,0.0,1.0,0.25,0.15,0.0,1.0,0.0,0.0,1.0,2000000000,0,,,0
1450210774584731794,25,1450210774584347974,/odom,ga,2,2,0,0.0,0.0,0.0,0.0,0.0,0.0,0.0,0.15,0.15,0.01,0.0,1.0,0.0,1.0,2000000000,0,,,0
1450210774691236931,26,1450210774689544394,/odom,ga,1,0,0,0.0,0.0,0.0,0.0,0.0,0.0,1.0,0.25,0.15,0.0,1.0,0.0,0.0,1.0,2000000000,0,,,0
1450210774691257745,27,1450210774690472712,/odom,ga,2,2,0,0.0,0.0,0.0,0.0,0.0,0.0,0.0,0.15,0.15,0.01,0.0,1.0,0.0,1.0,2000000000,0,,,0
1450210774742197457,28,1450210774741611406,/odom,ga,1,0,0,0.0,0.0,0.0,0.0,0.0,0.0,1.0,0.25,0.15,0.0,1.0,0.0,0.0,1.0,2000000000,0,,,0
1450210774742316865,29,1450210774741993619,/odom,ga,2,2,0,0.0,0.0,0.0,0.0,0.0,0.0,0.0,0.15,0.15,0.01,0.0,1.0,0.0,1.0,2000000000,0,,,0
1450210774852764581,30,1450210774852380142,/odom,ga,1,0,0,0.0,0.0,0.0,0.0,0.0,0.0,1.0,0.25,0.15,0.0,1.0,0.0,0.0,1.0,2000000000,0,,,0
1450210774854671165,31,1450210774853521584,/odom,ga,2,2,0,0.0,0.0,0.0,0.0,0.0,0.0,0.0,0.15,0.15,0.01,0.0,1.0,0.0,1.0,2000000000,0,,,0
1450210774933608400,32,1450210774932479037,/odom,ga,1,0,0,0.0,0.0,0.0,0.0,0.0,0.0,1.0,0.25,0.15,0.0,1.0,0.0,0.0,1.0,2000000000,0,,,0
1450210774933615932,33,1450210774932806644,/odom,ga,2,2,0,0.0,0.0,0.0,0.0,0.0,0.0,0.0,0.15,0.15,0.01,0.0,1.0,0.0,1.0,2000000000,0,,,0
1450210775038182953,34,1450210775037870741,/odom,ga,1,0,0,0.0,0.0,0.0,0.0,0.0,0.0,1.0,0.25,0.15,0.0,1.0,0.0,0.0,1.0,2000000000,0,,,0
1450210775038399207,35,1450210775038179890,/odom,ga,2,2,0,2.11626839638,0.122726798058,0.71847230196,0.0,0.0,0.0,0.0,0.15,0.15,0.01,0.0,1.0,0.0,1.0,2000000000,0,,,0
1450210775135504041,36,1450210775134766609,/odom,ga,1,0,0,0.0,0.0,0.0,0.0,0.0,0.0,1.0,0.25,0.15,0.0,1.0,0.0,0.0,1.0,2000000000,0,,,0
1450210775135513908,37,1450210775135292027,/odom,ga,2,2,0,2.11850142479,0.128421992064,0.718150436878,0.0,0.0,0.0,0.0,0.15,0.15,0.01,0.0,1.0,0.0,1.0,2000000000,0,,,0
1450210775243200290,38,1450210775241074552,/odom,ga,1,0,0,0.0,0.0,0.0,0.0,0.0,0.0,1.0,0.25,0.15,0.0,1.0,0.0,0.0,1.0,2000000000,0,,,0
1450210775243212029,39,1450210775241692331,/odom,ga,2,2,0,2.10509729385,0.125714182854,0.737185001373,0.0,0.0,0.0,0.0,0.15,0.15,0.01,0.0,1.0,0.0,1.0,2000000000,0,,,0
1450210775333878934,40,1450210775333016754,/odom,ga,1,0,0,0.0,0.0,0.0,0.0,0.0,0.0,1.0,0.25,0.15,0.0,1.0,0.0,0.0,1.0,2000000000,0,,,0
1450210775333884646,41,1450210775333188686,/odom,ga,2,2,0,2.11819005013,0.122560560703,0.718722105026,0.0,0.0,0.0,0.0,0.15,0.15,0.01,0.0,1.0,0.0,1.0,2000000000,0,,,0
1450210775435445851,42,1450210775434130223,/odom,ga,1,0,0,0.0,0.0,0.0,0.0,0.0,0.0,1.0,0.25,0.15,0.0,1.0,0.0,0.0,1.0,2000000000,0,,,0
1450210775435480674,43,1450210775434548475,/odom,ga,2,2,0,2.11819005013,0.122560560703,0.718722105026,0.0,0.0,0.0,0.0,0.15,0.15,0.01,0.0,1.0,0.0,1.0,2000000000,0,,,0
1450210775574671060,44,1450210775574273753,/odom,ga,1,0,0,0.0,0.0,0.0,0.0,0.0,0.0,1.0,0.25,0.15,0.0,1.0,0.0,0.0,1.0,2000000000,0,,,0
1450210775575117143,45,1450210775574863474,/odom,ga,2,2,0,2.11242675781,0.130719572306,0.718387186527,0.0,0.0,0.0,0.0,0.15,0.15,0.01,0.0,1.0,0.0,1.0,2000000000,0,,,0
1450210775628110761,46,1450210775627792415,/odom,ga,1,0,0,0.0,0.0,0.0,0.0,0.0,0.0,1.0,0.25,0.15,0.0,1.0,0.0,0.0,1.0,2000000000,0,,,0
1450210775628418217,47,1450210775628239730,/odom,ga,2,2,0,2.10411214828,0.13060426712,0.708493888378,0.0,0.0,0.0,0.0,0.15,0.15,0.01,0.0,1.0,0.0,1.0,2000000000,0,,,0
1450210775735784884,48,1450210775734909007,/odom,ga,1,0,0,0.0,0.0,0.0,0.0,0.0,0.0,1.0,0.25,0.15,0.0,1.0,0.0,0.0,1.0,2000000000,0,,,0
1450210775735826524,49,1450210775735207846,/odom,ga,2,2,0,2.11942100525,0.132176250219,0.707857251167,0.0,0.0,0.0,0.0,0.15,0.15,0.01,0.0,1.0,0.0,1.0,2000000000,0,,,0
1450210775833136239,50,1450210775829848511,/odom,ga,1,0,0,0.0,0.0,0.0,0.0,0.0,0.0,1.0,0.25,0.15,0.0,1.0,0.0,0.0,1.0,2000000000,0,,,0
1450210775833141670,51,1450210775830149828,/odom,ga,2,2,0,2.11844301224,0.127486824989,0.728028833866,0.0,0.0,0.0,0.0,0.15,0.15,0.01,0.0,1.0,0.0,1.0,2000000000,0,,,0
1450210775932569917,52,1450210775930720869,/odom,ga,1,0,0,0.0,0.0,0.0,0.0,0.0,0.0,1.0,0.25,0.15,0.0,1.0,0.0,0.0,1.0,2000000000,0,,,0
1450210775932596830,53,1450210775930907027,/odom,ga,2,2,0,2.11593866348,0.131238788366,0.717971205711,0.0,0.0,0.0,0.0,0.15,0.15,0.01,0.0,1.0,0.0,1.0,2000000000,0,,,0
1450210776047748537,54,1450210776047262652,/odom,ga,1,0,0,0.0,0.0,0.0,0.0,0.0,0.0,1.0,0.25,0.15,0.0,1.0,0.0,0.0,1.0,2000000000,0,,,0
1450210776048657410,55,1450210776048001487,/odom,ga,2,2,0,2.11425614357,0.126416951418,0.718075096607,0.0,0.0,0.0,0.0,0.15,0.15,0.01,0.0,1.0,0.0,1.0,2000000000,0,,,0
1450210776145620245,56,1450210776144797907,/odom,ga,1,0,0,0.0,0.0,0.0,0.0,0.0,0.0,1.0,0.25,0.15,0.0,1.0,0.0,0.0,1.0,2000000000,0,,,0
1450210776145623831,57,1450210776145014244,/odom,ga,2,2,0,2.11425614357,0.126416951418,0.718075096607,0.0,0.0,0.0,0.0,0.15,0.15,0.01,0.0,1.0,0.0,1.0,2000000000,0,,,0
1450210776235960430,58,1450210776232099999,/odom,ga,1,0,0,0.0,0.0,0.0,0.0,0.0,0.0,1.0,0.25,0.15,0.0,1.0,0.0,0.0,1.0,2000000000,0,,,0
1450210776235965850,59,1450210776232251650,/odom,ga,2,2,0,2.11547636986,0.130983561277,0.718083143234,0.0,0.0,0.0,0.0,0.15,0.15,0.01,0.0,1.0,0.0,1.0,2000000000,0,,,0
1450210776335588618,60,1450210776334802499,/odom,ga,1,0,0,0.0,0.0,0.0,0.0,0.0,0.0,1.0,0.25,0.15,0.0,1.0,0.0,0.0,1.0,2000000000,0,,,0
1450210776335595488,61,1450210776335111330,/odom,ga,2,2,0,2.11547636986,0.130983561277,0.718083143234,0.0,0.0,0.0,0.0,0.15,0.15,0.01,0.0,1.0,0.0,1.0,2000000000,0,,,0
1450210776481890917,62,1450210776480093339,/odom,ga,1,0,0,0.00575958653158,0.0,0.0,0.0,0.0,0.0,1.0,0.25,0.15,0.0,1.0,0.0,0.0,1.0,2000000000,0,,,0
1450210776481896722,63,1450210776480533184,/odom,ga,2,2,0,2.11357855797,0.114152163267,0.718222498894,0.0,0.0,0.0,0.0,0.15,0.15,0.01,0.0,1.0,0.0,1.0,2000000000,0,,,0
1450210776548393413,64,1450210776547890159,/odom,ga,1,0,0,0.0172785987833,3.04332289367e-05,0.0,0.0,0.0,0.0,1.0,0.25,0.15,0.0,1.0,0.0,0.0,1.0,2000000000,0,,,0
1450210776548398171,65,1450210776548192286,/odom,ga,2,2,0,2.11528635025,0.12617367506,0.727914512157,0.0,0.0,0.0,0.0,0.15,0.15,0.01,0.0,1.0,0.0,1.0,2000000000,0,,,0
1450210776629372360,66,1450210776628652636,/odom,ga,1,0,0,0.0201582312377,6.08664578733e-05,0.0,0.0,0.0,0.0052839997518,0.999986039576,0.25,0.15,0.0,1.0,0.0,0.0,1.0,2000000000,0,,,0
1450210776629377016,67,1450210776628838256,/odom,ga,2,2,0,2.11528635025,0.12617367506,0.727914512157,0.0,0.0,0.0,0.0,0.15,0.15,0.01,0.0,1.0,0.0,1.0,2000000000,0,,,0
1450210776774282918,68,1450210776773344584,/odom,ga,1,0,0,0.0287976110351,6.08664578733e-05,0.0,0.0,0.0,0.0,1.0,0.25,0.15,0.0,1.0,0.0,0.0,1.0,2000000000,0,,,0
1450210776774285819,69,1450210776773910270,/odom,ga,2,2,0,2.10725736618,0.129016786814,0.718324899673,0.0,0.0,0.0,0.0,0.15,0.15,0.01,0.0,1.0,0.0,1.0,2000000000,0,,,0
1450210776826845991,70,1450210776826728710,/odom,ga,1,0,0,0.0489553598385,0.000213032602557,0.0,0.0,0.0,0.0052839997518,0.999986039576,0.25,0.15,0.0,1.0,0.0,0.0,1.0,2000000000,0,,,0
1450210776827195353,71,1450210776826909842,/odom,ga,2,2,0,2.11064386368,0.106512665749,0.727943956852,0.0,0.0,0.0,0.0,0.15,0.15,0.01,0.0,1.0,0.0,1.0,2000000000,0,,,0
1450210776940273314,72,1450210776938742572,/odom,ga,1,0,0,0.0518351531043,0.000213032602557,0.0,0.0,0.0,0.0,1.0,0.25,0.15,0.0,1.0,0.0,0.0,1.0,2000000000,0,,,0
1450210776940278428,73,1450210776939066045,/odom,ga,2,2,0,2.10457205772,0.12423145771,0.737924158573,0.0,0.0,0.0,0.0,0.15,0.15,0.01,0.0,1.0,0.0,1.0,2000000000,0,,,0
1450210777064922343,74,1450210777064642288,/odom,ga,1,0,0,0.0719925802849,0.000426065205113,0.0,0.0,0.0,0.0052839997518,0.999986039576,0.25,0.15,0.0,1.0,0.0,0.0,1.0,2000000000,0,,,0
1450210777065713454,75,1450210777065160483,/odom,ga,2,2,0,2.09979081154,0.131790518761,0.717566907406,0.0,0.0,0.0,0.0,0.15,0.15,0.01,0.0,1.0,0.0,1.0,2000000000,0,,,0
1450210777153014006,76,1450210777152358647,/odom,ga,1,0,0,0.0950296399199,0.000669531036606,0.0,0.0,0.0,0.0052839997518,0.999986039576,0.25,0.15,0.0,1.0,0.0,0.0,1.0,2000000000,0,,,0
1450210777153017764,77,1450210777152537304,/odom,ga,2,2,0,2.10788822174,0.120470166206,0.718530893326,0.0,0.0,0.0,0.0,0.15,0.15,0.01,0.0,1.0,0.0,1.0,2000000000,0,,,0
1450210777275772053,78,1450210777273906477,/odom,ga,1,0,0,0.115183690186,0.00109557244968,0.0,0.0,0.0,0.0105678519699,0.999944158693,0.25,0.15,0.0,1.0,0.0,0.0,1.0,2000000000,0,,,0
1450210777275987888,79,1450210777274370203,/odom,ga,2,2,0,2.10788822174,0.120470166206,0.718530893326,0.0,0.0,0.0,0.0,0.15,0.15,0.01,0.0,1.0,0.0,1.0,2000000000,0,,,0
1450210777328321689,80,1450210777327937992,/odom,ga,1,0,0,0.135333720616,0.0016737290264,0.0,0.0,0.0,0.0158514091245,0.999874358521,0.25,0.15,0.0,1.0,0.0,0.0,1.0,2000000000,0,,,0
1450210777328324672,81,1450210777328108149,/odom,ga,2,2,0,2.0908536911,0.124175310135,0.74744862318,0.0,0.0,0.0,0.0,0.15,0.15,0.01,0.0,1.0,0.0,1.0,2000000000,0,,,0
1450210777456062108,82,1450210777455513575,/odom,ga,1,0,0,0.155478766826,0.00240397018155,0.0,0.0,0.0,0.0211345236944,0.999776641009,0.25,0.15,0.0,1.0,0.0,0.0,1.0,2000000000,0,,,0
1450210777456666980,83,1450210777456032146,/odom,ga,2,2,0,2.0908536911,0.124175310135,0.74744862318,0.0,0.0,0.0,0.0,0.15,0.15,0.01,0.0,1.0,0.0,1.0,2000000000,0,,,0
1450210777529222061,84,1450210777528746011,/odom,ga,1,0,0,0.184250973249,0.00362095947554,0.0,0.0,0.0,0.0211345236944,0.999776641009,0.25,0.15,0.0,1.0,0.0,0.0,1.0,2000000000,0,,,0
1450210777529253677,85,1450210777528905850,/odom,ga,2,2,0,2.09027719498,0.117547810078,0.728240132332,0.0,0.0,0.0,0.0,0.15,0.15,0.01,0.0,1.0,0.0,1.0,2000000000,0,,,0
1450210777659446959,86,1450210777658305574,/odom,ga,1,0,0,0.204381390397,0.00468564670336,0.0,0.0,0.0,0.0264170481704,0.999651008886,0.25,0.15,0.0,1.0,0.0,0.0,1.0,2000000000,0,,,0
1450210777659452772,87,1450210777658698551,/odom,ga,2,2,0,2.09892058372,0.107639282942,0.718663752079,0.0,0.0,0.0,0.0,0.15,0.15,0.01,0.0,1.0,0.0,1.0,2000000000,0,,,0
1450210777772328441,88,1450210777771168194,/odom,ga,1,0,0,0.235995455739,0.00669293148492,0.0,0.0,0.0,0.0316988350601,0.999497465658,0.25,0.15,0.0,1.0,0.0,0.0,1.0,2000000000,0,,,0
1450210777772334273,89,1450210777771407217,/odom,ga,2,2,0,2.10082292557,0.108942329884,0.727899909019,0.0,0.0,0.0,0.0,0.15,0.15,0.01,0.0,1.0,0.0,1.0,2000000000,0,,,0
1450210777828219026,90,1450210777827760805,/odom,ga,1,0,0,0.26759907651,0.00885202566343,0.0,0.0,0.0,0.0369797368913,0.999316015612,0.25,0.15,0.0,1.0,0.0,0.0,1.0,2000000000,0,,,0
1450210777828223194,91,1450210777827936664,/odom,ga,2,2,0,2.10272192955,0.100746840239,0.738395512104,0.0,0.0,0.0,0.0,0.15,0.15,0.01,0.0,1.0,0.0,1.0,2000000000,0,,,0
1450210777977990187,92,1450210777977693604,/odom,ga,1,0,0,0.279086744613,0.00970339491974,0.0,0.0,0.0,0.0369797368913,0.999316015612,0.25,0.15,0.0,1.0,0.0,0.0,1.0,2000000000,0,,,0
1450210777981512528,93,1450210777978261492,/odom,ga,2,2,0,2.11328196526,0.0909696519375,0.71791934967,0.0,0.0,0.0,0.0,0.15,0.15,0.01,0.0,1.0,0.0,1.0,2000000000,0,,,0
1450210778059109347,94,1450210778058662444,/odom,ga,1,0,0,0.319309010384,0.0124402107621,0.0,0.0,0.0,0.0264170481704,0.999651008886,0.25,0.15,0.0,1.0,0.0,0.0,1.0,2000000000,0,,,0
1450210778059333178,95,1450210778058926662,/odom,ga,2,2,0,2.08657050133,0.0899068117142,0.738328099251,0.0,0.0,0.0,0.0,0.15,0.15,0.01,0.0,1.0,0.0,1.0,2000000000,0,,,0
1450210778129755961,96,1450210778129063562,/odom,ga,1,0,0,0.336563653653,0.0133527998145,0.0,0.0,0.0,0.0264170481704,0.999651008886,0.25,0.15,0.0,1.0,0.0,0.0,1.0,2000000000,0,,,0
1450210778129766080,97,1450210778129511167,/odom,ga,2,2,0,2.10686612129,0.0974475443363,0.718745052814,0.0,0.0,0.0,0.0,0.15,0.15,0.01,0.0,1.0,0.0,1.0,2000000000,0,,,0
1450210778230073813,98,1450210778229085666,/odom,ga,1,0,0,0.356708699863,0.0140830409697,0.0,0.0,0.0,0.0211345236944,0.999776641009,0.25,0.15,0.0,1.0,0.0,0.0,1.0,2000000000,0,,,0
1450210778230084002,99,1450210778229557993,/odom,ga,2,2,0,2.10686612129,0.0974475443363,0.718745052814,0.0,0.0,0.0,0.0,0.15,0.15,0.01,0.0,1.0,0.0,1.0,2000000000,0,,,0
1450210778333530906,100,1450210778331703432,/odom,ga,1,0,0,0.379741900168,0.0145699454418,0.0,0.0,0.0,0.0105678519699,0.999944158693,0.25,0.15,0.0,1.0,0.0,0.0,1.0,2000000000,0,,,0
1450210778339651417,101,1450210778332220378,/odom,ga,2,2,0,2.10121369362,0.0911311805248,0.717285633087,0.0,0.0,0.0,0.0,0.15,0.15,0.01,0.0,1.0,0.0,1.0,2000000000,0,,,0
1450210778445239854,102,1450210778444361330,/odom,ga,1,0,0,0.4114183396,0.0145090789839,0.0,0.0,0.0,-0.0052839997518,0.999986039576,0.25,0.15,0.0,1.0,0.0,0.0,1.0,2000000000,0,,,0
1450210778445244337,103,1450210778444573404,/odom,ga,2,2,0,2.1004114151,0.120194613934,0.737309813499,0.0,0.0,0.0,0.0,0.15,0.15,0.01,0.0,1.0,0.0,1.0,2000000000,0,,,0
1450210778543305254,104,1450210778539839071,/odom,ga,1,0,0,0.445965085053,0.0136874667723,0.0,0.0,0.0,-0.0158514091245,0.999874358521,0.25,0.15,0.0,1.0,0.0,0.0,1.0,2000000000,0,,,0
1450210778543311599,105,1450210778540336183,/odom,ga,2,2,0,2.10008692741,0.110353291035,0.737323224545,0.0,0.0,0.0,0.0,0.15,0.15,0.01,0.0,1.0,0.0,1.0,2000000000,0,,,0
1450210778663855158,106,1450210778662300064,/odom,ga,1,0,0,0.466107880406,0.0128963999418,0.0,0.0,0.0,-0.0211345236944,0.999776641009,0.25,0.15,0.0,1.0,0.0,0.0,1.0,2000000000,0,,,0
1450210778663911388,107,1450210778662848113,/odom,ga,2,2,0,2.10250854492,0.102994501591,0.727501928806,0.0,0.0,0.0,0.0,0.15,0.15,0.01,0.0,1.0,0.0,1.0,2000000000,0,,,0
1450210778749537708,108,1450210778748551894,/odom,ga,1,0,0,0.500614114311,0.0110409075246,0.0,0.0,0.0,-0.0316988350601,0.999497465658,0.25,0.15,0.0,1.0,0.0,0.0,1.0,2000000000,0,,,0
1450210778749651763,109,1450210778748891214,/odom,ga,2,2,0,2.09428882599,0.110293805599,0.727471411228,0.0,0.0,0.0,0.0,0.15,0.15,0.01,0.0,1.0,0.0,1.0,2000000000,0,,,0
1450210778836430294,110,1450210778835802817,/odom,ga,1,0,0,0.52072588915,0.0096724588436,0.0,0.0,0.0,-0.0369797368913,0.999316015612,0.25,0.15,0.0,1.0,0.0,0.0,1.0,2000000000,0,,,0
1450210778836445946,111,1450210778836077552,/odom,ga,2,2,0,2.09428882599,0.110293805599,0.727471411228,0.0,0.0,0.0,0.0,0.15,0.15,0.01,0.0,1.0,0.0,1.0,2000000000,0,,,0
1450210778961637317,112,1450210778961070042,/odom,ga,1,0,0,0.55230010883,0.00711882662851,0.0,0.0,0.0,-0.042259606217,0.999106663816,0.25,0.15,0.0,1.0,0.0,0.0,1.0,2000000000,0,,,0
1450210778961646742,113,1450210778961296229,/odom,ga,2,2,0,2.10245728493,0.106656551361,0.717926263809,0.0,0.0,0.0,0.0,0.15,0.15,0.01,0.0,1.0,0.0,1.0,2000000000,0,,,0
1450210779028313982,114,1450210779028181860,/odom,ga,1,0,0,0.580946529087,0.00417195006843,0.0,0.0,0.0,-0.0528156577107,0.998604279132,0.25,0.15,0.0,1.0,0.0,0.0,1.0,2000000000,0,,,0
1450210779028520234,115,1450210779028351520,/odom,ga,2,2,0,2.09506797791,0.114683270454,0.727352678776,0.0,0.0,0.0,0.0,0.15,0.15,0.01,0.0,1.0,0.0,1.0,2000000000,0,,,0
1450210779136647355,116,1450210779135834953,/odom,ga,1,0,0,0.592401436829,0.00295686295799,0.0,0.0,0.0,-0.0528156577107,0.998604279132,0.25,0.15,0.0,1.0,0.0,0.0,1.0,2000000000,0,,,0
1450210779136651712,117,1450210779136112850,/odom,ga,2,2,0,2.10381484032,0.108856707811,0.71761906147,0.0,0.0,0.0,0.0,0.15,0.15,0.01,0.0,1.0,0.0,1.0,2000000000,0,,,0
1450210779232498598,118,1450210779232299008,/odom,ga,1,0,0,0.626714649756,-0.00114198365111,0.0,0.0,0.0,-0.0633658106137,0.997990367712,0.25,0.15,0.0,1.0,0.0,0.0,1.0,2000000000,0,,,0
1450210779233502677,119,1450210779232751177,/odom,ga,2,2,0,2.10146832466,0.106242507696,0.71765089035,0.0,0.0,0.0,0.0,0.15,0.15,0.01,0.0,1.0,0.0,1.0,2000000000,0,,,0
1450210779331038342,120,1450210779330206453,/odom,ga,1,0,0,0.649567987552,-0.00405580310892,0.0,0.0,0.0,-0.0633658106137,0.997990367712,0.25,0.15,0.0,1.0,0.0,0.0,1.0,2000000000,0,,,0
1450210779331042077,121,1450210779330474721,/odom,ga,2,2,0,2.10606431961,0.104051083326,0.727603197098,0.0,0.0,0.0,0.0,0.15,0.15,0.01,0.0,1.0,0.0,1.0,2000000000,0,,,0
1450210779464879441,122,1450210779463946211,/odom,ga,1,0,0,0.675249932221,-0.00754502948089,0.0,0.0,0.0,-0.0686383068554,0.997641610415,0.25,0.15,0.0,1.0,0.0,0.0,1.0,2000000000,0,,,0
1450210779464892214,123,1450210779464431733,/odom,ga,2,2,0,2.10716629028,0.0928774178028,0.717417418957,0.0,0.0,0.0,0.0,0.15,0.15,0.01,0.0,1.0,0.0,1.0,2000000000,0,,,0
1450210779537578968,124,1450210779536552405,/odom,ga,1,0,0,0.703776518249,-0.0114889887773,0.0,0.0,0.0,-0.0686383068554,0.997641610415,0.25,0.15,0.0,1.0,0.0,0.0,1.0,2000000000,0,,,0
1450210779537582489,125,1450210779537087304,/odom,ga,2,2,0,2.10601902008,0.0978471934795,0.727746248245,0.0,0.0,0.0,0.0,0.15,0.15,0.01,0.0,1.0,0.0,1.0,2000000000,0,,,0
1450210779649691597,126,1450210779648062266,/odom,ga,1,0,0,0.729411500749,-0.0153096721964,0.0,0.0,0.0,-0.0739088866573,0.997264998119,0.25,0.15,0.0,1.0,0.0,0.0,1.0,2000000000,0,,,0
1450210779650205195,127,1450210779648660583,/odom,ga,2,2,0,2.10601902008,0.0978471934795,0.727746248245,0.0,0.0,0.0,0.0,0.15,0.15,0.01,0.0,1.0,0.0,1.0,2000000000,0,,,0
1450210779740494985,128,1450210779737969448,/odom,ga,1,0,0,0.76079074538,-0.0196480274225,0.0,0.0,0.0,-0.0686383068554,0.997641610415,0.25,0.15,0.0,1.0,0.0,0.0,1.0,2000000000,0,,,0
1450210779740564763,129,1450210779738229159,/odom,ga,2,2,0,2.109126091,0.0870221555233,0.727630198002,0.0,0.0,0.0,0.0,0.15,0.15,0.01,0.0,1.0,0.0,1.0,2000000000,0,,,0
1450210779845742173,130,1450210779845077797,/odom,ga,1,0,0,0.780729065102,-0.0226196700818,0.0,0.0,0.0,-0.0739088866573,0.997264998119,0.25,0.15,0.0,1.0,0.0,0.0,1.0,2000000000,0,,,0
1450210779845749343,131,1450210779845377252,/odom,ga,2,2,0,2.18734312057,0.0846346616745,0.668018341064,0.0,0.0,0.0,0.0,0.15,0.15,0.01,0.0,1.0,0.0,1.0,2000000000,0,,,0
1450210779951117928,132,1450210779948409474,/odom,ga,1,0,0,0.814909041768,-0.0277139146406,0.0,0.0,0.0,-0.0739088866573,0.997264998119,0.25,0.15,0.0,1.0,0.0,0.0,1.0,2000000000,0,,,0
1450210779951131830,133,1450210779949165403,/odom,ga,2,2,0,2.2608191967,0.0941714048386,0.687641680241,0.0,0.0,0.0,0.0,0.15,0.15,0.01,0.0,1.0,0.0,1.0,2000000000,0,,,0
1450210780070519936,134,1450210780065982384,/odom,ga,1,0,0,0.837695692879,-0.0311100776797,0.0,0.0,0.0,-0.0739088866573,0.997264998119,0.25,0.15,0.0,1.0,0.0,0.0,1.0,2000000000,0,,,0
1450210780070523526,135,1450210780066321770,/odom,ga,2,2,0,2.23222565651,0.0753253400326,0.679498612881,0.0,0.0,0.0,0.0,0.15,0.15,0.01,0.0,1.0,0.0,1.0,2000000000,0,,,0
1450210780140070129,136,1450210780139908301,/odom,ga,1,0,0,0.866179006768,-0.0353552814787,0.0,0.0,0.0,-0.0739088866573,0.997264998119,0.25,0.15,0.0,1.0,0.0,0.0,1.0,2000000000,0,,,0
1450210780140600205,137,1450210780140314846,/odom,ga,2,2,0,2.17655134201,0.0929451584816,0.688374996185,0.0,0.0,0.0,0.0,0.15,0.15,0.01,0.0,1.0,0.0,1.0,2000000000,0,,,0
1450210780230130097,138,1450210780229946116,/odom,ga,1,0,0,0.891835625337,-0.0390253426465,0.0,0.0,0.0,-0.0686383068554,0.997641610415,0.25,0.15,0.0,1.0,0.0,0.0,1.0,2000000000,0,,,0
1450210780230789253,139,1450210780230277088,/odom,ga,2,2,0,2.11580038071,0.0876324176788,0.727245271206,0.0,0.0,0.0,0.0,0.15,0.15,0.01,0.0,1.0,0.0,1.0,2000000000,0,,,0
1450210780330572794,140,1450210780330247380,/odom,ga,1,0,0,0.911773945059,-0.0419969853058,0.0,0.0,0.0,-0.0739088866573,0.997264998119,0.25,0.15,0.0,1.0,0.0,0.0,1.0,2000000000,0,,,0
1450210780330576694,141,1450210780330428521,/odom,ga,2,2,0,2.11580038071,0.0876324176788,0.727245271206,0.0,0.0,0.0,0.0,0.15,0.15,0.01,0.0,1.0,0.0,1.0,2000000000,0,,,0
1450210780428637470,142,1450210780427999445,/odom,ga,1,0,0,0.940257258948,-0.0462421891048,0.0,0.0,0.0,-0.0739088866573,0.997264998119,0.25,0.15,0.0,1.0,0.0,0.0,1.0,2000000000,0,,,0
1450210780428641933,143,1450210780428399614,/odom,ga,2,2,0,2.11942434311,0.0810417532921,0.737618386745,0.0,0.0,0.0,0.0,0.15,0.15,0.01,0.0,1.0,0.0,1.0,2000000000,0,,,0
1450210780531379854,144,1450210780531204225,/odom,ga,1,0,0,0.957360228923,-0.0486989380334,0.0,0.0,0.0,-0.0739088866573,0.997264998119,0.25,0.15,0.0,1.0,0.0,0.0,1.0,2000000000,0,,,0
1450210780531812401,145,1450210780531566549,/odom,ga,2,2,0,2.12061834335,0.0782754719257,0.727350831032,0.0,0.0,0.0,0.0,0.15,0.15,0.01,0.0,1.0,0.0,1.0,2000000000,0,,,0
1450210780631447958,146,1450210780630925185,/odom,ga,1,0,0,0.980146880034,-0.0520951010726,0.0,0.0,0.0,-0.0739088866573,0.997264998119,0.25,0.15,0.0,1.0,0.0,0.0,1.0,2000000000,0,,,0
1450210780631451445,147,1450210780631187733,/odom,ga,2,2,0,2.08669734001,0.0722156465054,0.747981548309,0.0,0.0,0.0,0.0,0.15,0.15,0.01,0.0,1.0,0.0,1.0,2000000000,0,,,0
1450210780749634026,148,1450210780748687202,/odom,ga,1,0,0,0.997236868367,-0.0546422233519,0.0,0.0,0.0,-0.0739088866573,0.997264998119,0.25,0.15,0.0,1.0,0.0,0.0,1.0,2000000000,0,,,0
1450210780749649198,149,1450210780748938078,/odom,ga,2,2,0,2.12357258797,0.0702278912067,0.737652659416,0.0,0.0,0.0,0.0,0.15,0.15,0.01,0.0,1.0,0.0,1.0,2000000000,0,,,0
1450210780873742693,150,1450210780873011519,/odom,ga,1,0,0,1.01719249695,-0.0574933682102,0.0,0.0,0.0,-0.0686383068554,0.997641610415,0.25,0.15,0.0,1.0,0.0,0.0,1.0,2000000000,0,,,0
1450210780873745935,151,1450210780873441989,/odom,ga,2,2,0,2.12357258797,0.0702278912067,0.737652659416,0.0,0.0,0.0,0.0,0.15,0.15,0.01,0.0,1.0,0.0,1.0,2000000000,0,,,0
1450210780938032685,152,1450210780936942114,/odom,ga,1,0,0,1.04000078413,-0.0607389089981,0.0,0.0,0.0,-0.0686383068554,0.997641610415,0.25,0.15,0.0,1.0,0.0,0.0,1.0,2000000000,0,,,0
1450210780938037014,153,1450210780937308076,/odom,ga,2,2,0,2.13756680489,0.0729445815086,0.737642049789,0.0,0.0,0.0,0.0,0.15,0.15,0.01,0.0,1.0,0.0,1.0,2000000000,0,,,0
1450210781032137344,154,1450210781031744261,/odom,ga,1,0,0,1.054276103,-0.0626203831541,0.0,0.0,0.0,-0.0633658106137,0.997990367712,0.25,0.15,0.0,1.0,0.0,0.0,1.0,2000000000,0,,,0
1450210781032585314,155,1450210781031963988,/odom,ga,2,2,0,2.09673810005,0.0521007478237,0.74716758728,0.0,0.0,0.0,0.0,0.15,0.15,0.01,0.0,1.0,0.0,1.0,2000000000,0,,,0
1450210781150134498,156,1450210781149279373,/odom,ga,1,0,0,1.07140408049,-0.0648962532397,0.0,0.0,0.0,-0.0633658106137,0.997990367712,0.25,0.15,0.0,1.0,0.0,0.0,1.0,2000000000,0,,,0
1450210781150418580,157,1450210781149816434,/odom,ga,2,2,0,2.12866282463,0.081148147583,0.718536615372,0.0,0.0,0.0,0.0,0.15,0.15,0.01,0.0,1.0,0.0,1.0,2000000000,0,,,0
1450210781280242902,158,1450210781277548181,/odom,ga,1,0,0,1.09713253341,-0.0680232542533,0.0,0.0,0.0,-0.0580915451448,0.99831126027,0.25,0.15,0.0,1.0,0.0,0.0,1.0,2000000000,0,,,0
1450210781280275698,159,1450210781278335302,/odom,ga,2,2,0,2.19247341156,0.0548451542854,0.697421848774,0.0,0.0,0.0,0.0,0.15,0.15,0.01,0.0,1.0,0.0,1.0,2000000000,0,,,0
1450210781336626667,160,1450210781335568075,/odom,ga,1,0,0,1.14577544976,-0.0735503322246,0.0,0.0,0.0,-0.0528156577107,0.998604279132,0.25,0.15,0.0,1.0,0.0,0.0,1.0,2000000000,0,,,0
1450210781336630318,161,1450210781335737249,/odom,ga,2,2,0,2.18859004974,0.0663260817528,0.687949419022,0.0,0.0,0.0,0.0,0.15,0.15,0.01,0.0,1.0,0.0,1.0,2000000000,0,,,0
1450210781442395675,162,1450210781442139093,/odom,ga,1,0,0,1.15150290364,-0.0741578757798,0.0,0.0,0.0,-0.0528156577107,0.998604279132,0.25,0.15,0.0,1.0,0.0,0.0,1.0,2000000000,0,,,0
1450210781443295534,163,1450210781442360292,/odom,ga,2,2,0,2.2007393837,0.0707319974899,0.687986195087,0.0,0.0,0.0,0.0,0.15,0.15,0.01,0.0,1.0,0.0,1.0,2000000000,0,,,0
1450210781539960553,164,1450210781539072449,/odom,ga,1,0,0,1.18591788113,-0.0772882174991,0.0,0.0,0.0,-0.042259606217,0.999106663816,0.25,0.15,0.0,1.0,0.0,0.0,1.0,2000000000,0,,,0
1450210781540181947,165,1450210781539817642,/odom,ga,2,2,0,2.17781972885,0.0721915960312,0.688064813614,0.0,0.0,0.0,0.0,0.15,0.15,0.01,0.0,1.0,0.0,1.0,2000000000,0,,,0
1450210781666484952,166,1450210781665455364,/odom,ga,1,0,0,1.20601166168,-0.078899466132,0.0,0.0,0.0,-0.0369797368913,0.999316015612,0.25,0.15,0.0,1.0,0.0,0.0,1.0,2000000000,0,,,0
1450210781666489977,167,1450210781665956368,/odom,ga,2,2,0,2.19618177414,0.0643562376499,0.677954673767,0.0,0.0,0.0,0.0,0.15,0.15,0.01,0.0,1.0,0.0,1.0,2000000000,0,,,0
1450210781737458313,168,1450210781736746838,/odom,ga,1,0,0,1.23761737137,-0.0810281984311,0.0,0.0,0.0,-0.0316988350601,0.999497465658,0.25,0.15,0.0,1.0,0.0,0.0,1.0,2000000000,0,,,0
1450210781737462503,169,1450210781737097099,/odom,ga,2,2,0,2.19618177414,0.0643562376499,0.677954673767,0.0,0.0,0.0,0.0,0.15,0.15,0.01,0.0,1.0,0.0,1.0,2000000000,0,,,0
1450210781834039508,170,1450210781833402738,/odom,ga,1,0,0,1.25774778851,-0.082092885659,0.0,0.0,0.0,-0.0264170481704,0.999651008886,0.25,0.15,0.0,1.0,0.0,0.0,1.0,2000000000,0,,,0
1450210781839199614,171,1450210781833782594,/odom,ga,2,2,0,2.19618177414,0.0643562376499,0.677954673767,0.0,0.0,0.0,0.0,0.15,0.15,0.01,0.0,1.0,0.0,1.0,2000000000,0,,,0
1450210781936329059,172,1450210781933940805,/odom,ga,1,0,0,1.28364277429,-0.0831881760236,0.0,0.0,0.0,-0.0211345236944,0.999776641009,0.25,0.15,0.0,1.0,0.0,0.0,1.0,2000000000,0,,,0
1450210781936357270,173,1450210781934314168,/odom,ga,2,2,0,2.14560508728,0.0696431696415,0.728498101234,0.0,0.0,0.0,0.0,0.15,0.15,0.01,0.0,1.0,0.0,1.0,2000000000,0,,,0
1450210782031480844,174,1450210782030463261,/odom,ga,1,0,0,1.31818244526,-0.0842531453114,0.0,0.0,0.0,-0.0105678519699,0.999944158693,0.25,0.15,0.0,1.0,0.0,0.0,1.0,2000000000,0,,,0
1450210782031486459,175,1450210782031099205,/odom,ga,2,2,0,2.20891046524,0.0716335475445,0.68869549036,0.0,0.0,0.0,0.0,0.15,0.15,0.01,0.0,1.0,0.0,1.0,2000000000,0,,,0
1450210782139881804,176,1450210782138519873,/odom,ga,1,0,0,1.33833794278,-0.0845878972343,0.0,0.0,0.0,-0.0052839997518,0.999986039576,0.25,0.15,0.0,1.0,0.0,0.0,1.0,2000000000,0,,,0
1450210782139914648,177,1450210782139129058,/odom,ga,2,2,0,2.207218647,0.0727376043797,0.708259701729,0.0,0.0,0.0,0.0,0.15,0.15,0.01,0.0,1.0,0.0,1.0,2000000000,0,,,0
1450210782228757965,178,1450210782227591767,/odom,ga,1,0,0,1.37289433629,-0.0848009298368,0.0,0.0,0.0,-0.0052839997518,0.999986039576,0.25,0.15,0.0,1.0,0.0,0.0,1.0,2000000000,0,,,0
1450210782228762116,179,1450210782227940579,/odom,ga,2,2,0,2.22817873955,0.079000711441,0.69986230135,0.0,0.0,0.0,0.0,0.15,0.15,0.01,0.0,1.0,0.0,1.0,2000000000,0,,,0
1450210782339162023,180,1450210782337361319,/odom,ga,1,0,0,1.39881247568,-0.0848009298368,0.0,0.0,0.0,-8.881784197e-16,1.0,0.25,0.15,0.0,1.0,0.0,0.0,1.0,2000000000,0,,,0
1450210782339170606,181,1450210782337767475,/odom,ga,2,2,0,2.16740942001,0.0632491111755,0.697473824024,0.0,0.0,0.0,0.0,0.15,0.15,0.01,0.0,1.0,0.0,1.0,2000000000,0,,,0
1450210782435203129,182,1450210782434820200,/odom,ga,1,0,0,1.42760542331,-0.0842835887369,0.0,0.0,0.0,0.0105678519699,0.999944158693,0.25,0.15,0.0,1.0,0.0,0.0,1.0,2000000000,0,,,0
1450210782437031576,183,1450210782435677967,/odom,ga,2,2,0,2.21267127991,0.0779827535152,0.699264526367,0.0,0.0,0.0,0.0,0.15,0.15,0.01,0.0,1.0,0.0,1.0,2000000000,0,,,0
1450210782532198757,184,1450210782531842385,/odom,ga,1,0,0,1.45351375382,-0.0835837060422,0.0,0.0,0.0,0.0158514091245,0.999874358521,0.25,0.15,0.0,1.0,0.0,0.0,1.0,2000000000,0,,,0
1450210782533100389,185,1450210782532230199,/odom,ga,2,2,0,2.10479640961,0.0683546066284,0.738066315651,0.0,0.0,0.0,0.0,0.15,0.15,0.01,0.0,1.0,0.0,1.0,2000000000,0,,,0
1450210782636266629,186,1450210782632710509,/odom,ga,1,0,0,1.4880331677,-0.0819713226594,0.0,0.0,0.0,0.0264170481704,0.999651008886,0.25,0.15,0.0,1.0,0.0,0.0,1.0,2000000000,0,,,0
1450210782636307377,187,1450210782633267597,/odom,ga,2,2,0,2.1523566246,0.0490512251854,0.687768757343,0.0,0.0,0.0,0.0,0.15,0.15,0.01,0.0,1.0,0.0,1.0,2000000000,0,,,0
1450210782739393094,188,1450210782738678681,/odom,ga,1,0,0,1.50815828104,-0.0808154886537,0.0,0.0,0.0,0.0316988350601,0.999497465658,0.25,0.15,0.0,1.0,0.0,0.0,1.0,2000000000,0,,,0
1450210782739397879,189,1450210782739189644,/odom,ga,2,2,0,2.24389481544,0.0721436142921,0.689092993736,0.0,0.0,0.0,0.0,0.15,0.15,0.01,0.0,1.0,0.0,1.0,2000000000,0,,,0
1450210782830947069,190,1450210782828206844,/odom,ga,1,0,0,1.54264635232,-0.0786257234375,0.0,0.0,0.0,0.0316988350601,0.999497465658,0.25,0.15,0.0,1.0,0.0,0.0,1.0,2000000000,0,,,0
1450210782830953474,191,1450210782828903355,/odom,ga,2,2,0,2.19648957253,0.0602144002914,0.698344111443,0.0,0.0,0.0,0.0,0.15,0.15,0.01,0.0,1.0,0.0,1.0,2000000000,0,,,0
1450210783034145735,192,1450210783033651728,/odom,ga,1,0,0,1.5627497715,-0.0771358272389,0.0,0.0,0.0,0.0369797368913,0.999316015612,0.25,0.15,0.0,1.0,0.0,0.0,1.0,2000000000,0,,,0
1450210783035108619,193,1450210783034163094,/odom,ga,2,2,0,2.13251066208,0.0652472376823,0.719355165958,0.0,0.0,0.0,0.0,0.15,0.15,0.01,0.0,1.0,0.0,1.0,2000000000,0,,,0
1450210783043271450,194,1450210783042973497,/odom,ga,1,0,0,1.61722994725,-0.0720912461826,0.0,0.0,0.0,0.0528156577107,0.998604279132,0.25,0.15,0.0,1.0,0.0,0.0,1.0,2000000000,0,,,0
1450210783043402822,195,1450210783043156431,/odom,ga,2,2,0,2.21507787704,0.0744987726212,0.709203660488,0.0,0.0,0.0,0.0,0.15,0.15,0.01,0.0,1.0,0.0,1.0,2000000000,0,,,0
1450210783140538505,196,1450210783140084930,/odom,ga,1,0,0,1.63153173128,-0.070421154898,0.0,0.0,0.0,0.0580915451448,0.99831126027,0.25,0.15,0.0,1.0,0.0,0.0,1.0,2000000000,0,,,0
1450210783140542051,197,1450210783140282817,/odom,ga,2,2,0,2.21507787704,0.0744987726212,0.709203660488,0.0,0.0,0.0,0.0,0.15,0.15,0.01,0.0,1.0,0.0,1.0,2000000000,0,,,0
1450210783228639060,198,1450210783228476033,/odom,ga,1,0,0,1.65442469611,-0.0678397482804,0.0,0.0,0.0,0.0580915451448,0.99831126027,0.25,0.15,0.0,1.0,0.0,0.0,1.0,2000000000,0,,,0
1450210783228851175,199,1450210783228669258,/odom,ga,2,2,0,2.21507787704,0.0744987726212,0.709203660488,0.0,0.0,0.0,0.0,0.15,0.15,0.01,0.0,1.0,0.0,1.0,2000000000,0,,,0
1450210783335407346,200,1450210783334316056,/odom,ga,1,0,0,1.67442136669,-0.0652901562549,0.0,0.0,0.0,0.0633658106137,0.997990367712,0.25,0.15,0.0,1.0,0.0,0.0,1.0,2000000000,0,,,0
1450210783335417771,201,1450210783334993438,/odom,ga,2,2,0,2.21507787704,0.0744987726212,0.709203660488,0.0,0.0,0.0,0.0,0.15,0.15,0.01,0.0,1.0,0.0,1.0,2000000000,0,,,0
1450210783442877465,202,1450210783442009268,/odom,ga,1,0,0,1.70583268029,-0.0611931490081,0.0,0.0,0.0,0.0686383068554,0.997641610415,0.25,0.15,0.0,1.0,0.0,0.0,1.0,2000000000,0,,,0
1450210783443720132,203,1450210783442200122,/odom,ga,2,2,0,2.21507787704,0.0744987726212,0.709203660488,0.0,0.0,0.0,0.0,0.15,0.15,0.01,0.0,1.0,0.0,1.0,2000000000,0,,,0
1450210783527775881,204,1450210783527293139,/odom,ga,1,0,0,1.73716432557,-0.0565234248293,0.0,0.0,0.0,0.0739088866573,0.997264998119,0.25,0.15,0.0,1.0,0.0,0.0,1.0,2000000000,0,,,0
1450210783527798007,205,1450210783527489739,/odom,ga,2,2,0,2.21507787704,0.0744987726212,0.709203660488,0.0,0.0,0.0,0.0,0.15,0.15,0.01,0.0,1.0,0.0,1.0,2000000000,0,,,0
1450210783630295832,206,1450210783629458917,/odom,ga,1,0,0,1.76275750016,-0.0524320480618,0.0,0.0,0.0,0.0791774028604,0.996860541338,0.25,0.15,0.0,1.0,0.0,0.0,1.0,2000000000,0,,,0
1450210783630318462,207,1450210783629991688,/odom,ga,2,2,0,2.21507787704,0.0744987726212,0.709203660488,0.0,0.0,0.0,0.0,0.15,0.15,0.01,0.0,1.0,0.0,1.0,2000000000,0,,,0
1450210783744581444,208,1450210783743457918,/odom,ga,1,0,0,1.78262856223,-0.0490396822551,0.0,0.0,0.0,0.0844437083633,0.996428251365,0.25,0.15,0.0,1.0,0.0,0.0,1.0,2000000000,0,,,0
1450210783744587137,209,1450210783743749332,/odom,ga,2,2,0,2.21507787704,0.0744987726212,0.709203660488,0.0,0.0,0.0,0.0,0.15,0.15,0.01,0.0,1.0,0.0,1.0,2000000000,0,,,0
1450210783830917141,210,1450210783830257980,/odom,ga,1,0,0,1.81660189868,-0.0427149589233,0.0,0.0,0.0,0.0949690991753,0.995480220899,0.25,0.15,0.0,1.0,0.0,0.0,1.0,2000000000,0,,,0
1450210783830923265,211,1450210783830466509,/odom,ga,2,2,0,2.21507787704,0.0744987726212,0.709203660488,0.0,0.0,0.0,0.0,0.15,0.15,0.01,0.0,1.0,0.0,1.0,2000000000,0,,,0
1450210783930649536,212,1450210783930104670,/odom,ga,1,0,0,1.83922467314,-0.0383588748965,0.0,0.0,0.0,0.0949690991753,0.995480220899,0.25,0.15,0.0,1.0,0.0,0.0,1.0,2000000000,0,,,0
1450210783930653485,213,1450210783930273189,/odom,ga,2,2,0,2.21507787704,0.0744987726212,0.709203660488,0.0,0.0,0.0,0.0,0.15,0.15,0.01,0.0,1.0,0.0,1.0,2000000000,0,,,0
1450210784030529998,214,1450210784029383821,/odom,ga,1,0,0,1.86742533691,-0.032525862119,0.0,0.0,0.0,0.10548388359,0.994421012601,0.25,0.15,0.0,1.0,0.0,0.0,1.0,2000000000,0,,,0
1450210784030533655,215,1450210784030114996,/odom,ga,2,2,0,2.21507787704,0.0744987726212,0.709203660488,0.0,0.0,0.0,0.0,0.15,0.15,0.01,0.0,1.0,0.0,1.0,2000000000,0,,,0
1450210784136071196,216,1450210784134434099,/odom,ga,1,0,0,1.88995099461,-0.0276926294999,0.0,0.0,0.0,0.10548388359,0.994421012601,0.25,0.15,0.0,1.0,0.0,0.0,1.0,2000000000,0,,,0
1450210784136074753,217,1450210784135009247,/odom,ga,2,2,0,2.21507787704,0.0744987726212,0.709203660488,0.0,0.0,0.0,0.0,0.15,0.15,0.01,0.0,1.0,0.0,1.0,2000000000,0,,,0
1450210784230052173,218,1450210784229826813,/odom,ga,1,0,0,1.92085181366,-0.0207199900058,0.0,0.0,0.0,0.110736931374,0.993849753247,0.25,0.15,0.0,1.0,0.0,0.0,1.0,2000000000,0,,,0
1450210784230441464,219,1450210784230287424,/odom,ga,2,2,0,2.21507787704,0.0744987726212,0.709203660488,0.0,0.0,0.0,0.0,0.15,0.15,0.01,0.0,1.0,0.0,1.0,2000000000,0,,,0
1450210784441348277,220,1450210784439886825,/odom,ga,1,0,0,1.94046798219,-0.0160752956513,0.0,0.0,0.0,0.115986887289,0.993250744765,0.25,0.15,0.0,1.0,0.0,0.0,1.0,2000000000,0,,,0
1450210784441370884,221,1450210784440188016,/odom,ga,2,2,0,2.21507787704,0.0744987726212,0.709203660488,0.0,0.0,0.0,0.0,0.15,0.15,0.01,0.0,1.0,0.0,1.0,2000000000,0,,,0
1450210784548878182,222,1450210784545167764,/odom,ga,1,0,0,2.01015669333,0.00198910409428,0.0,0.0,0.0,0.131716738444,0.99128739567,0.25,0.15,0.0,1.0,0.0,0.0,1.0,2000000000,0,,,0
1450210784548884857,223,1450210784546418559,/odom,ga,2,2,0,2.21507787704,0.0744987726212,0.709203660488,0.0,0.0,0.0,0.0,0.15,0.15,0.01,0.0,1.0,0.0,1.0,2000000000,0,,,0
1450210784562113469,224,1450210784560250745,/odom,ga,1,0,0,2.02959146512,0.0073412797547,0.0,0.0,0.0,0.136952861975,0.990577565664,0.25,0.15,0.0,1.0,0.0,0.0,1.0,2000000000,0,,,0
1450210784562193155,225,1450210784560516049,/odom,ga,2,2,0,2.21507787704,0.0744987726212,0.709203660488,0.0,0.0,0.0,0.0,0.15,0.15,0.01,0.0,1.0,0.0,1.0,2000000000,0,,,0
1450210784648309835,226,1450210784630138298,/odom,ga,1,0,0,2.0434908075,0.011101401131,0.0,0.0,0.0,0.131716738444,0.99128739567,0.25,0.15,0.0,1.0,0.0,0.0,1.0,2000000000,0,,,0
1450210784648325606,227,1450210784630554687,/odom,ga,2,2,0,2.21507787704,0.0744987726212,0.709203660488,0.0,0.0,0.0,0.0,0.15,0.15,0.01,0.0,1.0,0.0,1.0,2000000000,0,,,0
1450210784736138413,228,1450210784733352475,/odom,ga,1,0,0,2.05734963732,0.01500819873,0.0,0.0,0.0,0.136952861975,0.990577565664,0.25,0.15,0.0,1.0,0.0,0.0,1.0,2000000000,0,,,0
1450210784736142845,229,1450210784733732957,/odom,ga,2,2,0,2.21507787704,0.0744987726212,0.709203660488,0.0,0.0,0.0,0.0,0.15,0.15,0.01,0.0,1.0,0.0,1.0,2000000000,0,,,0
1450210784850348709,230,1450210784848843076,/odom,ga,1,0,0,2.08506729695,0.0228217939279,0.0,0.0,0.0,0.136952861975,0.990577565664,0.25,0.15,0.0,1.0,0.0,0.0,1.0,2000000000,0,,,0
1450210784850386433,231,1450210784849197361,/odom,ga,2,2,0,2.21507787704,0.0744987726212,0.709203660488,0.0,0.0,0.0,0.0,0.15,0.15,0.01,0.0,1.0,0.0,1.0,2000000000,0,,,0
1450210784953904050,232,1450210784952630816,/odom,ga,1,0,0,2.11832848851,0.0321981081654,0.0,0.0,0.0,0.136952861975,0.990577565664,0.25,0.15,0.0,1.0,0.0,0.0,1.0,2000000000,0,,,0
1450210784953959835,233,1450210784953272557,/odom,ga,2,2,0,2.21507787704,0.0744987726212,0.709203660488,0.0,0.0,0.0,0.0,0.15,0.15,0.01,0.0,1.0,0.0,1.0,2000000000,0,,,0
1450210785034189569,234,1450210785032529096,/odom,ga,1,0,0,2.14050261621,0.0384489843237,0.0,0.0,0.0,0.136952861975,0.990577565664,0.25,0.15,0.0,1.0,0.0,0.0,1.0,2000000000,0,,,0
1450210785034215618,235,1450210785033402010,/odom,ga,2,2,0,2.21507787704,0.0744987726212,0.709203660488,0.0,0.0,0.0,0.0,0.15,0.15,0.01,0.0,1.0,0.0,1.0,2000000000,0,,,0
1450210785145364906,236,1450210785144565532,/odom,ga,1,0,0,2.15987974174,0.0440062449031,0.0,0.0,0.0,0.142185161666,0.989840077892,0.25,0.15,0.0,1.0,0.0,0.0,1.0,2000000000,0,,,0
1450210785145368646,237,1450210785144900133,/odom,ga,2,2,0,2.21507787704,0.0744987726212,0.709203660488,0.0,0.0,0.0,0.0,0.15,0.15,0.01,0.0,1.0,0.0,1.0,2000000000,0,,,0
1450210785231765100,238,1450210785229308192,/odom,ga,1,0,0,2.19033551906,0.0527181915418,0.0,0.0,0.0,0.136952861975,0.990577565664,0.25,0.15,0.0,1.0,0.0,0.0,1.0,2000000000,0,,,0
1450210785231770611,239,1450210785229737189,/odom,ga,2,2,0,2.21507787704,0.0744987726212,0.709203660488,0.0,0.0,0.0,0.0,0.15,0.15,0.01,0.0,1.0,0.0,1.0,2000000000,0,,,0
1450210785344124666,240,1450210785343338532,/odom,ga,1,0,0,2.21523935237,0.0598966671212,0.0,0.0,0.0,0.142185161666,0.989840077892,0.25,0.15,0.0,1.0,0.0,0.0,1.0,2000000000,0,,,0
1450210785344136755,241,1450210785343567708,/odom,ga,2,2,0,2.21507787704,0.0744987726212,0.709203660488,0.0,0.0,0.0,0.0,0.15,0.15,0.01,0.0,1.0,0.0,1.0,2000000000,0,,,0
1450210785437221794,242,1450210785435512952,/odom,ga,1,0,0,2.24572877796,0.0684916218389,0.0,0.0,0.0,0.136952861975,0.990577565664,0.25,0.15,0.0,1.0,0.0,0.0,1.0,2000000000,0,,,0
1450210785437259639,243,1450210785435953549,/odom,ga,2,2,0,2.21507787704,0.0744987726212,0.709203660488,0.0,0.0,0.0,0.0,0.15,0.15,0.01,0.0,1.0,0.0,1.0,2000000000,0,,,0
1450210785534926296,244,1450210785533890526,/odom,ga,1,0,0,2.26790290567,0.0747424979973,0.0,0.0,0.0,0.136952861975,0.990577565664,0.25,0.15,0.0,1.0,0.0,0.0,1.0,2000000000,0,,,0
1450210785534930116,245,1450210785534514232,/odom,ga,2,2,0,2.21507787704,0.0744987726212,0.709203660488,0.0,0.0,0.0,0.0,0.15,0.15,0.01,0.0,1.0,0.0,1.0,2000000000,0,,,0
1450210785630883412,246,1450210785630510217,/odom,ga,1,0,0,2.2956205653,0.0825560931952,0.0,0.0,0.0,0.136952861975,0.990577565664,0.25,0.15,0.0,1.0,0.0,0.0,1.0,2000000000,0,,,0
1450210785631560252,247,1450210785631280640,/odom,ga,2,2,0,2.21507787704,0.0744987726212,0.709203660488,0.0,0.0,0.0,0.0,0.15,0.15,0.01,0.0,1.0,0.0,1.0,2000000000,0,,,0
1450210785750605719,248,1450210785749616371,/odom,ga,1,0,0,2.31779469301,0.0888069693535,0.0,0.0,0.0,0.136952861975,0.990577565664,0.25,0.15,0.0,1.0,0.0,0.0,1.0,2000000000,0,,,0
1450210785750617638,249,1450210785749898531,/odom,ga,2,2,0,2.21507787704,0.0744987726212,0.709203660488,0.0,0.0,0.0,0.0,0.15,0.15,0.01,0.0,1.0,0.0,1.0,2000000000,0,,,0
1450210785863160223,250,1450210785859664397,/odom,ga,1,0,0,2.34281350929,0.0955751878309,0.0,0.0,0.0,0.131716738444,0.99128739567,0.25,0.15,0.0,1.0,0.0,0.0,1.0,2000000000,0,,,0
1450210785863191899,251,1450210785860363013,/odom,ga,2,2,0,2.21507787704,0.0744987726212,0.709203660488,0.0,0.0,0.0,0.0,0.15,0.15,0.01,0.0,1.0,0.0,1.0,2000000000,0,,,0
1450210785937608088,252,1450210785937379298,/odom,ga,1,0,0,2.37336775499,0.103935460592,0.0,0.0,0.0,0.136952861975,0.990577565664,0.25,0.15,0.0,1.0,0.0,0.0,1.0,2000000000,0,,,0
1450210785937691830,253,1450210785937570229,/odom,ga,2,2,0,2.21507787704,0.0744987726212,0.709203660488,0.0,0.0,0.0,0.0,0.15,0.15,0.01,0.0,1.0,0.0,1.0,2000000000,0,,,0
1450210786046593063,254,1450210786045033398,/odom,ga,1,0,0,2.38725089234,0.107754252458,0.0,0.0,0.0,0.131716738444,0.99128739567,0.25,0.15,0.0,1.0,0.0,0.0,1.0,2000000000,0,,,0
1450210786046600096,255,1450210786045246038,/odom,ga,2,2,0,2.21507787704,0.0744987726212,0.709203660488,0.0,0.0,0.0,0.0,0.15,0.15,0.01,0.0,1.0,0.0,1.0,2000000000,0,,,0
1450210786166773816,256,1450210786166135877,/odom,ga,1,0,0,2.40948984015,0.11377044666,0.0,0.0,0.0,0.131716738444,0.99128739567,0.25,0.15,0.0,1.0,0.0,0.0,1.0,2000000000,0,,,0
1450210786166778097,257,1450210786166478576,/odom,ga,2,2,0,0.0,0.0,0.0,0.0,0.0,0.0,0.0,0.15,0.15,0.01,0.0,1.0,0.0,1.0,2000000000,0,,,0
1450210786238157191,258,1450210786237631385,/odom,ga,1,0,0,2.43172068544,0.119815976106,0.0,0.0,0.0,0.131716738444,0.99128739567,0.25,0.15,0.0,1.0,0.0,0.0,1.0,2000000000,0,,,0
1450210786238679875,259,1450210786238376181,/odom,ga,2,2,0,0.0,0.0,0.0,0.0,0.0,0.0,0.0,0.15,0.15,0.01,0.0,1.0,0.0,1.0,2000000000,0,,,0
1450210786349480856,260,1450210786348754413,/odom,ga,1,0,0,2.43728042239,0.121320024657,0.0,0.0,0.0,0.131716738444,0.99128739567,0.25,0.15,0.0,1.0,0.0,0.0,1.0,2000000000,0,,,0
1450210786349502073,261,1450210786349159014,/odom,ga,2,2,0,0.0,0.0,0.0,0.0,0.0,0.0,0.0,0.15,0.15,0.01,0.0,1.0,0.0,1.0,2000000000,0,,,0
1450210786432526489,262,1450210786432345899,/odom,ga,1,0,0,2.44839179378,0.124357457003,0.0,0.0,0.0,0.131716738444,0.99128739567,0.25,0.15,0.0,1.0,0.0,0.0,1.0,2000000000,0,,,0
1450210786432924691,263,1450210786432764134,/odom,ga,2,2,0,0.0,0.0,0.0,0.0,0.0,0.0,0.0,0.15,0.15,0.01,0.0,1.0,0.0,1.0,2000000000,0,,,0
1450210786536807874,264,1450210786533563376,/odom,ga,1,0,0,2.45395153074,0.125861505553,0.0,0.0,0.0,0.131716738444,0.99128739567,0.25,0.15,0.0,1.0,0.0,0.0,1.0,2000000000,0,,,0
1450210786536811568,265,1450210786533896262,/odom,ga,2,2,0,0.0,0.0,0.0,0.0,0.0,0.0,0.0,0.15,0.15,0.01,0.0,1.0,0.0,1.0,2000000000,0,,,0
1450210786627841597,266,1450210786627581760,/odom,ga,1,0,0,2.46507100464,0.128869602654,0.0,0.0,0.0,0.131716738444,0.99128739567,0.25,0.15,0.0,1.0,0.0,0.0,1.0,2000000000,0,,,0
1450210786628159670,267,1450210786627951196,/odom,ga,2,2,0,0.0,0.0,0.0,0.0,0.0,0.0,0.0,0.15,0.15,0.01,0.0,1.0,0.0,1.0,2000000000,0,,,0
1450210786727677995,268,1450210786727515001,/odom,ga,1,0,0,2.46507100464,0.128869602654,0.0,0.0,0.0,0.131716738444,0.99128739567,0.25,0.15,0.0,1.0,0.0,0.0,1.0,2000000000,0,,,0
1450210786728274878,269,1450210786727904061,/odom,ga,2,2,0,0.0,0.0,0.0,0.0,0.0,0.0,0.0,0.15,0.15,0.01,0.0,1.0,0.0,1.0,2000000000,0,,,0
1450210786834154473,270,1450210786832411787,/odom,ga,1,0,0,2.47063853364,0.130344231972,0.0,0.0,0.0,0.131716738444,0.99128739567,0.25,0.15,0.0,1.0,0.0,0.0,1.0,2000000000,0,,,0
1450210786834162424,271,1450210786832811121,/odom,ga,2,2,0,0.0,0.0,0.0,0.0,0.0,0.0,0.0,0.15,0.15,0.01,0.0,1.0,0.0,1.0,2000000000,0,,,0
1450210786930522705,272,1450210786930004153,/odom,ga,1,0,0,2.47063853364,0.130344231972,0.0,0.0,0.0,0.131716738444,0.99128739567,0.25,0.15,0.0,1.0,0.0,0.0,1.0,2000000000,0,,,0
1450210786930538985,273,1450210786930219389,/odom,ga,2,2,0,0.0,0.0,0.0,0.0,0.0,0.0,0.0,0.15,0.15,0.01,0.0,1.0,0.0,1.0,2000000000,0,,,0
1450210787034960608,274,1450210787032853912,/odom,ga,1,0,0,2.46785087311,0.129621626929,0.0,0.0,0.0,0.126476937269,0.991969548091,0.25,0.15,0.0,1.0,0.0,0.0,1.0,2000000000,0,,,0
1450210787035025788,275,1450210787033421921,/odom,ga,2,2,0,0.0,0.0,0.0,0.0,0.0,0.0,0.0,0.15,0.15,0.01,0.0,1.0,0.0,1.0,2000000000,0,,,0
1450210787135834202,276,1450210787134338552,/odom,ga,1,0,0,2.46507100464,0.128869602654,0.0,0.0,0.0,0.131716738444,0.99128739567,0.25,0.15,0.0,1.0,0.0,0.0,1.0,2000000000,0,,,0
1450210787135849722,277,1450210787135072259,/odom,ga,2,2,0,0.0,0.0,0.0,0.0,0.0,0.0,0.0,0.15,0.15,0.01,0.0,1.0,0.0,1.0,2000000000,0,,,0
1450210787232089167,278,1450210787231754252,/odom,ga,1,0,0,2.46507100464,0.128869602654,0.0,0.0,0.0,0.131716738444,0.99128739567,0.25,0.15,0.0,1.0,0.0,0.0,1.0,2000000000,0,,,0
1450210787232556980,279,1450210787232380668,/odom,ga,2,2,0,0.0,0.0,0.0,0.0,0.0,0.0,0.0,0.15,0.15,0.01,0.0,1.0,0.0,1.0,2000000000,0,,,0
1450210787335647985,280,1450210787333394517,/odom,ga,1,0,0,2.46507100464,0.128869602654,0.0,0.0,0.0,0.131716738444,0.99128739567,0.25,0.15,0.0,1.0,0.0,0.0,1.0,2000000000,0,,,0
1450210787335666215,281,1450210787334187153,/odom,ga,2,2,0,0.0,0.0,0.0,0.0,0.0,0.0,0.0,0.15,0.15,0.01,0.0,1.0,0.0,1.0,2000000000,0,,,0
1450210787445575335,282,1450210787444477530,/odom,ga,1,0,0,2.46507100464,0.128869602654,0.0,0.0,0.0,0.131716738444,0.99128739567,0.25,0.15,0.0,1.0,0.0,0.0,1.0,2000000000,0,,,0
1450210787445578536,283,1450210787444992063,/odom,ga,2,2,0,0.0,0.0,0.0,0.0,0.0,0.0,0.0,0.15,0.15,0.01,0.0,1.0,0.0,1.0,2000000000,0,,,0
1450210787552630930,284,1450210787551992317,/odom,ga,1,0,0,2.46507100464,0.128869602654,0.0,0.0,0.0,0.131716738444,0.99128739567,0.25,0.15,0.0,1.0,0.0,0.0,1.0,2000000000,0,,,0
1450210787552634261,285,1450210787552377877,/odom,ga,2,2,0,0.0,0.0,0.0,0.0,0.0,0.0,0.0,0.15,0.15,0.01,0.0,1.0,0.0,1.0,2000000000,0,,,0
1450210787629694574,286,1450210787629151828,/odom,ga,1,0,0,2.46507100464,0.128869602654,0.0,0.0,0.0,0.131716738444,0.99128739567,0.25,0.15,0.0,1.0,0.0,0.0,1.0,2000000000,0,,,0
1450210787629699127,287,1450210787629374910,/odom,ga,2,2,0,0.0,0.0,0.0,0.0,0.0,0.0,0.0,0.15,0.15,0.01,0.0,1.0,0.0,1.0,2000000000,0,,,0
1450210787732755090,288,1450210787732522494,/odom,ga,1,0,0,2.46507100464,0.128869602654,0.0,0.0,0.0,0.131716738444,0.99128739567,0.25,0.15,0.0,1.0,0.0,0.0,1.0,2000000000,0,,,0
1450210787733146234,289,1450210787732729109,/odom,ga,2,2,0,0.0,0.0,0.0,0.0,0.0,0.0,0.0,0.15,0.15,0.01,0.0,1.0,0.0,1.0,2000000000,0,,,0
1450210787831468197,290,1450210787830926814,/odom,ga,1,0,0,2.46507100464,0.128869602654,0.0,0.0,0.0,0.131716738444,0.99128739567,0.25,0.15,0.0,1.0,0.0,0.0,1.0,2000000000,0,,,0
1450210787831661288,291,1450210787831485808,/odom,ga,2,2,0,0.0,0.0,0.0,0.0,0.0,0.0,0.0,0.15,0.15,0.01,0.0,1.0,0.0,1.0,2000000000,0,,,0
1450210787949888488,292,1450210787949372194,/odom,ga,1,0,0,2.46507100464,0.128869602654,0.0,0.0,0.0,0.131716738444,0.99128739567,0.25,0.15,0.0,1.0,0.0,0.0,1.0,2000000000,0,,,0
1450210787949892938,293,1450210787949618227,/odom,ga,2,2,0,0.0,0.0,0.0,0.0,0.0,0.0,0.0,0.15,0.15,0.01,0.0,1.0,0.0,1.0,2000000000,0,,,0
1450210788034083100,294,1450210788032455868,/odom,ga,1,0,0,2.46507100464,0.128869602654,0.0,0.0,0.0,0.131716738444,0.99128739567,0.25,0.15,0.0,1.0,0.0,0.0,1.0,2000000000,0,,,0
1450210788034089396,295,1450210788032992157,/odom,ga,2,2,0,0.0,0.0,0.0,0.0,0.0,0.0,0.0,0.15,0.15,0.01,0.0,1.0,0.0,1.0,2000000000,0,,,0
1450210788141430044,296,1450210788140712181,/odom,ga,1,0,0,2.46507100464,0.128869602654,0.0,0.0,0.0,0.131716738444,0.99128739567,0.25,0.15,0.0,1.0,0.0,0.0,1.0,2000000000,0,,,0
1450210788141450803,297,1450210788140918378,/odom,ga,2,2,0,0.0,0.0,0.0,0.0,0.0,0.0,0.0,0.15,0.15,0.01,0.0,1.0,0.0,1.0,2000000000,0,,,0
1450210788246458289,298,1450210788245678049,/odom,ga,1,0,0,2.46507100464,0.128869602654,0.0,0.0,0.0,0.131716738444,0.99128739567,0.25,0.15,0.0,1.0,0.0,0.0,1.0,2000000000,0,,,0
1450210788247128840,299,1450210788246713195,/odom,ga,2,2,0,0.0,0.0,0.0,0.0,0.0,0.0,0.0,0.15,0.15,0.01,0.0,1.0,0.0,1.0,2000000000,0,,,0
1450210788337419033,300,1450210788336739045,/odom,ga,1,0,0,2.46507100464,0.128869602654,0.0,0.0,0.0,0.131716738444,0.99128739567,0.25,0.15,0.0,1.0,0.0,0.0,1.0,2000000000,0,,,0
1450210788337422240,301,1450210788337155990,/odom,ga,2,2,0,0.0,0.0,0.0,0.0,0.0,0.0,0.0,0.15,0.15,0.01,0.0,1.0,0.0,1.0,2000000000,0,,,0
1450210788432815376,302,1450210788432189267,/odom,ga,1,0,0,2.46507100464,0.128869602654,0.0,0.0,0.0,0.131716738444,0.99128739567,0.25,0.15,0.0,1.0,0.0,0.0,1.0,2000000000,0,,,0
1450210788434491674,303,1450210788433351107,/odom,ga,2,2,0,0.0,0.0,0.0,0.0,0.0,0.0,0.0,0.15,0.15,0.01,0.0,1.0,0.0,1.0,2000000000,0,,,0
1450210788543954238,304,1450210788541086999,/odom,ga,1,0,0,2.46507100464,0.128869602654,0.0,0.0,0.0,0.131716738444,0.99128739567,0.25,0.15,0.0,1.0,0.0,0.0,1.0,2000000000,0,,,0
1450210788544046475,305,1450210788542974275,/odom,ga,2,2,0,0.0,0.0,0.0,0.0,0.0,0.0,0.0,0.15,0.15,0.01,0.0,1.0,0.0,1.0,2000000000,0,,,0
1450210788641794391,306,1450210788641606632,/odom,ga,1,0,0,2.46507100464,0.128869602654,0.0,0.0,0.0,0.131716738444,0.99128739567,0.25,0.15,0.0,1.0,0.0,0.0,1.0,2000000000,0,,,0
1450210788642270955,307,1450210788642141872,/odom,ga,2,2,0,0.0,0.0,0.0,0.0,0.0,0.0,0.0,0.15,0.15,0.01,0.0,1.0,0.0,1.0,2000000000,0,,,0
1450210788740608504,308,1450210788739442638,/odom,ga,1,0,0,2.46507100464,0.128869602654,0.0,0.0,0.0,0.131716738444,0.99128739567,0.25,0.15,0.0,1.0,0.0,0.0,1.0,2000000000,0,,,0
1450210788740636985,309,1450210788740165003,/odom,ga,2,2,0,0.0,0.0,0.0,0.0,0.0,0.0,0.0,0.15,0.15,0.01,0.0,1.0,0.0,1.0,2000000000,0,,,0
1450210788837163528,310,1450210788836714894,/odom,ga,1,0,0,2.46507100464,0.128869602654,0.0,0.0,0.0,0.131716738444,0.99128739567,0.25,0.15,0.0,1.0,0.0,0.0,1.0,2000000000,0,,,0
1450210788837576066,311,1450210788837323733,/odom,ga,2,2,0,0.0,0.0,0.0,0.0,0.0,0.0,0.0,0.15,0.15,0.01,0.0,1.0,0.0,1.0,2000000000,0,,,0
1450210788961552924,312,1450210788961365889,/odom,ga,1,0,0,2.46507100464,0.128869602654,0.0,0.0,0.0,0.131716738444,0.99128739567,0.25,0.15,0.0,1.0,0.0,0.0,1.0,2000000000,0,,,0
1450210788962608654,313,1450210788961788612,/odom,ga,2,2,0,0.0,0.0,0.0,0.0,0.0,0.0,0.0,0.15,0.15,0.01,0.0,1.0,0.0,1.0,2000000000,0,,,0
1450210789055561599,314,1450210789054060795,/odom,ga,1,0,0,2.46507100464,0.128869602654,0.0,0.0,0.0,0.131716738444,0.99128739567,0.25,0.15,0.0,1.0,0.0,0.0,1.0,2000000000,0,,,0
1450210789072081843,315,1450210789054745105,/odom,ga,2,2,0,0.0,0.0,0.0,0.0,0.0,0.0,0.0,0.15,0.15,0.01,0.0,1.0,0.0,1.0,2000000000,0,,,0
1450210789134737409,316,1450210789134456905,/odom,ga,1,0,0,2.46507100464,0.128869602654,0.0,0.0,0.0,0.131716738444,0.99128739567,0.25,0.15,0.0,1.0,0.0,0.0,1.0,2000000000,0,,,0
1450210789134984445,317,1450210789134866702,/odom,ga,2,2,0,0.0,0.0,0.0,0.0,0.0,0.0,0.0,0.15,0.15,0.01,0.0,1.0,0.0,1.0,2000000000,0,,,0
1450210789231300281,318,1450210789230876904,/odom,ga,1,0,0,2.46507100464,0.128869602654,0.0,0.0,0.0,0.131716738444,0.99128739567,0.25,0.15,0.0,1.0,0.0,0.0,1.0,2000000000,0,,,0
1450210789231320712,319,1450210789231040626,/odom,ga,2,2,0,0.0,0.0,0.0,0.0,0.0,0.0,0.0,0.15,0.15,0.01,0.0,1.0,0.0,1.0,2000000000,0,,,0
1450210789347290151,320,1450210789346123099,/odom,ga,1,0,0,2.46507100464,0.128869602654,0.0,0.0,0.0,0.131716738444,0.99128739567,0.25,0.15,0.0,1.0,0.0,0.0,1.0,2000000000,0,,,0
1450210789347294938,321,1450210789346708554,/odom,ga,2,2,0,0.0,0.0,0.0,0.0,0.0,0.0,0.0,0.15,0.15,0.01,0.0,1.0,0.0,1.0,2000000000,0,,,0
1450210789427460150,322,1450210789427317486,/odom,ga,1,0,0,2.46507100464,0.128869602654,0.0,0.0,0.0,0.131716738444,0.99128739567,0.25,0.15,0.0,1.0,0.0,0.0,1.0,2000000000,0,,,0
1450210789427595971,323,1450210789427449727,/odom,ga,2,2,0,0.0,0.0,0.0,0.0,0.0,0.0,0.0,0.15,0.15,0.01,0.0,1.0,0.0,1.0,2000000000,0,,,0
1450210789548769196,324,1450210789548018694,/odom,ga,1,0,0,2.46507100464,0.128869602654,0.0,0.0,0.0,0.131716738444,0.99128739567,0.25,0.15,0.0,1.0,0.0,0.0,1.0,2000000000,0,,,0
1450210789548774320,325,1450210789548319736,/odom,ga,2,2,0,0.0,0.0,0.0,0.0,0.0,0.0,0.0,0.15,0.15,0.01,0.0,1.0,0.0,1.0,2000000000,0,,,0
1450210789631621903,326,1450210789630050420,/odom,ga,1,0,0,2.46507100464,0.128869602654,0.0,0.0,0.0,0.131716738444,0.99128739567,0.25,0.15,0.0,1.0,0.0,0.0,1.0,2000000000,0,,,0
1450210789631643233,327,1450210789630847280,/odom,ga,2,2,0,0.0,0.0,0.0,0.0,0.0,0.0,0.0,0.15,0.15,0.01,0.0,1.0,0.0,1.0,2000000000,0,,,0
1450210789753645359,328,1450210789752849825,/odom,ga,1,0,0,2.46507100464,0.128869602654,0.0,0.0,0.0,0.131716738444,0.99128739567,0.25,0.15,0.0,1.0,0.0,0.0,1.0,2000000000,0,,,0
1450210789753650085,329,1450210789753328335,/odom,ga,2,2,0,0.0,0.0,0.0,0.0,0.0,0.0,0.0,0.15,0.15,0.01,0.0,1.0,0.0,1.0,2000000000,0,,,0
1450210789831567879,330,1450210789831270858,/odom,ga,1,0,0,2.46507100464,0.128869602654,0.0,0.0,0.0,0.131716738444,0.99128739567,0.25,0.15,0.0,1.0,0.0,0.0,1.0,2000000000,0,,,0
1450210789833139744,331,1450210789831646094,/odom,ga,2,2,0,0.0,0.0,0.0,0.0,0.0,0.0,0.0,0.15,0.15,0.01,0.0,1.0,0.0,1.0,2000000000,0,,,0
1450210789938049169,332,1450210789935987362,/odom,ga,1,0,0,2.46507100464,0.128869602654,0.0,0.0,0.0,0.131716738444,0.99128739567,0.25,0.15,0.0,1.0,0.0,0.0,1.0,2000000000,0,,,0
1450210789938067980,333,1450210789937299424,/odom,ga,2,2,0,0.0,0.0,0.0,0.0,0.0,0.0,0.0,0.15,0.15,0.01,0.0,1.0,0.0,1.0,2000000000,0,,,0
1450210790033966888,334,1450210790033153774,/odom,ga,1,0,0,2.46507100464,0.128869602654,0.0,0.0,0.0,0.131716738444,0.99128739567,0.25,0.15,0.0,1.0,0.0,0.0,1.0,2000000000,0,,,0
1450210790033971765,335,1450210790033467198,/odom,ga,2,2,0,0.0,0.0,0.0,0.0,0.0,0.0,0.0,0.15,0.15,0.01,0.0,1.0,0.0,1.0,2000000000,0,,,0
1450210790161932995,336,1450210790160463407,/odom,ga,1,0,0,2.46507100464,0.128869602654,0.0,0.0,0.0,0.131716738444,0.99128739567,0.25,0.15,0.0,1.0,0.0,0.0,1.0,2000000000,0,,,0
1450210790161937009,337,1450210790160815407,/odom,ga,2,2,0,0.0,0.0,0.0,0.0,0.0,0.0,0.0,0.15,0.15,0.01,0.0,1.0,0.0,1.0,2000000000,0,,,0
1450210790248514302,338,1450210790247379782,/odom,ga,1,0,0,2.46507100464,0.128869602654,0.0,0.0,0.0,0.131716738444,0.99128739567,0.25,0.15,0.0,1.0,0.0,0.0,1.0,2000000000,0,,,0
1450210790248535502,339,1450210790247824979,/odom,ga,2,2,0,0.0,0.0,0.0,0.0,0.0,0.0,0.0,0.15,0.15,0.01,0.0,1.0,0.0,1.0,2000000000,0,,,0
1450210790331499516,340,1450210790330441147,/odom,ga,1,0,0,2.46507100464,0.128869602654,0.0,0.0,0.0,0.131716738444,0.99128739567,0.25,0.15,0.0,1.0,0.0,0.0,1.0,2000000000,0,,,0
1450210790331514442,341,1450210790330909821,/odom,ga,2,2,0,0.0,0.0,0.0,0.0,0.0,0.0,0.0,0.15,0.15,0.01,0.0,1.0,0.0,1.0,2000000000,0,,,0
1450210790430620396,342,1450210790430377674,/odom,ga,1,0,0,2.46507100464,0.128869602654,0.0,0.0,0.0,0.131716738444,0.99128739567,0.25,0.15,0.0,1.0,0.0,0.0,1.0,2000000000,0,,,0
1450210790432448230,343,1450210790431140018,/odom,ga,2,2,0,0.0,0.0,0.0,0.0,0.0,0.0,0.0,0.15,0.15,0.01,0.0,1.0,0.0,1.0,2000000000,0,,,0
1450210790565067978,344,1450210790564823671,/odom,ga,1,0,0,2.46507100464,0.128869602654,0.0,0.0,0.0,0.131716738444,0.99128739567,0.25,0.15,0.0,1.0,0.0,0.0,1.0,2000000000,0,,,0
1450210790566299258,345,1450210790565025460,/odom,ga,2,2,0,0.0,0.0,0.0,0.0,0.0,0.0,0.0,0.15,0.15,0.01,0.0,1.0,0.0,1.0,2000000000,0,,,0
1450210790637614744,346,1450210790636651349,/odom,ga,1,0,0,2.46507100464,0.128869602654,0.0,0.0,0.0,0.131716738444,0.99128739567,0.25,0.15,0.0,1.0,0.0,0.0,1.0,2000000000,0,,,0
1450210790637618326,347,1450210790636887718,/odom,ga,2,2,0,0.0,0.0,0.0,0.0,0.0,0.0,0.0,0.15,0.15,0.01,0.0,1.0,0.0,1.0,2000000000,0,,,0
1450210790733665396,348,1450210790732922698,/odom,ga,1,0,0,2.46507100464,0.128869602654,0.0,0.0,0.0,0.131716738444,0.99128739567,0.25,0.15,0.0,1.0,0.0,0.0,1.0,2000000000,0,,,0
1450210790733671305,349,1450210790733146418,/odom,ga,2,2,0,0.0,0.0,0.0,0.0,0.0,0.0,0.0,0.15,0.15,0.01,0.0,1.0,0.0,1.0,2000000000,0,,,0
1450210790858468361,350,1450210790833682715,/odom,ga,1,0,0,2.46507100464,0.128869602654,0.0,0.0,0.0,0.131716738444,0.99128739567,0.25,0.15,0.0,1.0,0.0,0.0,1.0,2000000000,0,,,0
1450210790858472274,351,1450210790834554600,/odom,ga,2,2,0,0.0,0.0,0.0,0.0,0.0,0.0,0.0,0.15,0.15,0.01,0.0,1.0,0.0,1.0,2000000000,0,,,0
1450210790962680059,352,1450210790961266504,/odom,ga,1,0,0,2.46507100464,0.128869602654,0.0,0.0,0.0,0.131716738444,0.99128739567,0.25,0.15,0.0,1.0,0.0,0.0,1.0,2000000000,0,,,0
1450210790962941137,353,1450210790961919760,/odom,ga,2,2,0,0.0,0.0,0.0,0.0,0.0,0.0,0.0,0.15,0.15,0.01,0.0,1.0,0.0,1.0,2000000000,0,,,0
1450210791051058454,354,1450210791048883970,/odom,ga,1,0,0,2.46507100464,0.128869602654,0.0,0.0,0.0,0.131716738444,0.99128739567,0.25,0.15,0.0,1.0,0.0,0.0,1.0,2000000000,0,,,0
1450210791051112079,355,1450210791050051055,/odom,ga,2,2,0,0.0,0.0,0.0,0.0,0.0,0.0,0.0,0.15,0.15,0.01,0.0,1.0,0.0,1.0,2000000000,0,,,0
1450210791147287830,356,1450210791145789595,/odom,ga,1,0,0,2.46507100464,0.128869602654,0.0,0.0,0.0,0.131716738444,0.99128739567,0.25,0.15,0.0,1.0,0.0,0.0,1.0,2000000000,0,,,0
1450210791147293072,357,1450210791146533825,/odom,ga,2,2,0,0.0,0.0,0.0,0.0,0.0,0.0,0.0,0.15,0.15,0.01,0.0,1.0,0.0,1.0,2000000000,0,,,0
1450210791235502366,358,1450210791234077970,/odom,ga,1,0,0,2.46507100464,0.128869602654,0.0,0.0,0.0,0.131716738444,0.99128739567,0.25,0.15,0.0,1.0,0.0,0.0,1.0,2000000000,0,,,0
1450210791235510994,359,1450210791234573020,/odom,ga,2,2,0,0.0,0.0,0.0,0.0,0.0,0.0,0.0,0.15,0.15,0.01,0.0,1.0,0.0,1.0,2000000000,0,,,0
1450210791334808448,360,1450210791333818517,/odom,ga,1,0,0,2.46507100464,0.128869602654,0.0,0.0,0.0,0.131716738444,0.99128739567,0.25,0.15,0.0,1.0,0.0,0.0,1.0,2000000000,0,,,0
1450210791334869585,361,1450210791334308493,/odom,ga,2,2,0,0.0,0.0,0.0,0.0,0.0,0.0,0.0,0.15,0.15,0.01,0.0,1.0,0.0,1.0,2000000000,0,,,0
1450210791464705138,362,1450210791463735069,/odom,ga,1,0,0,2.46507100464,0.128869602654,0.0,0.0,0.0,0.131716738444,0.99128739567,0.25,0.15,0.0,1.0,0.0,0.0,1.0,2000000000,0,,,0
1450210791464713524,363,1450210791464072546,/odom,ga,2,2,0,0.0,0.0,0.0,0.0,0.0,0.0,0.0,0.15,0.15,0.01,0.0,1.0,0.0,1.0,2000000000,0,,,0
1450210791546487558,364,1450210791546245028,/odom,ga,1,0,0,2.46507100464,0.128869602654,0.0,0.0,0.0,0.131716738444,0.99128739567,0.25,0.15,0.0,1.0,0.0,0.0,1.0,2000000000,0,,,0
1450210791546782671,365,1450210791546555690,/odom,ga,2,2,0,0.0,0.0,0.0,0.0,0.0,0.0,0.0,0.15,0.15,0.01,0.0,1.0,0.0,1.0,2000000000,0,,,0
1450210791639697657,366,1450210791637822761,/odom,ga,1,0,0,2.46507100464,0.128869602654,0.0,0.0,0.0,0.131716738444,0.99128739567,0.25,0.15,0.0,1.0,0.0,0.0,1.0,2000000000,0,,,0
1450210791639832773,367,1450210791638219059,/odom,ga,2,2,0,0.0,0.0,0.0,0.0,0.0,0.0,0.0,0.15,0.15,0.01,0.0,1.0,0.0,1.0,2000000000,0,,,0
1450210791751741579,368,1450210791751013495,/odom,ga,1,0,0,2.46507100464,0.128869602654,0.0,0.0,0.0,0.131716738444,0.99128739567,0.25,0.15,0.0,1.0,0.0,0.0,1.0,2000000000,0,,,0
1450210791751976208,369,1450210791751387830,/odom,ga,2,2,0,0.0,0.0,0.0,0.0,0.0,0.0,0.0,0.15,0.15,0.01,0.0,1.0,0.0,1.0,2000000000,0,,,0
