%time,field.goals0.navgoal_poses0.header.seq,field.goals0.navgoal_poses0.header.stamp,field.goals0.navgoal_poses0.header.frame_id,field.goals0.navgoal_poses0.pose.position.x,field.goals0.navgoal_poses0.pose.position.y,field.goals0.navgoal_poses0.pose.position.z,field.goals0.navgoal_poses0.pose.orientation.x,field.goals0.navgoal_poses0.pose.orientation.y,field.goals0.navgoal_poses0.pose.orientation.z,field.goals0.navgoal_poses0.pose.orientation.w,field.goals0.goal_pose.header.seq,field.goals0.goal_pose.header.stamp,field.goals0.goal_pose.header.frame_id,field.goals0.goal_pose.pose.position.x,field.goals0.goal_pose.pose.position.y,field.goals0.goal_pose.pose.position.z,field.goals0.goal_pose.pose.orientation.x,field.goals0.goal_pose.pose.orientation.y,field.goals0.goal_pose.pose.orientation.z,field.goals0.goal_pose.pose.orientation.w,field.goals0.goal_type,field.goals0.goal_source,field.goals0.score,field.goals0.t_eval
1449618217450294260,0,1449618217411061034,/odom,nan,nan,0.0,nan,nan,nan,nan,0,1449618217411061034,/odom,nan,nan,0.0,nan,nan,nan,nan,0,user,1.0,0
1449618217611163758,0,1449618217510356665,/odom,nan,nan,0.0,nan,nan,nan,nan,0,1449618217510356665,/odom,nan,nan,0.0,nan,nan,nan,nan,0,user,1.0,0
1449618217654995982,0,1449618217626715969,/odom,0.0,0.0,0.0,0.0,0.0,0.0,1.0,0,1449618217626715969,/odom,0.0,0.0,0.0,0.0,0.0,0.0,1.0,0,user,1.0,0
1449618217774525923,0,1449618217697381643,/odom,0.0,0.0,0.0,0.0,0.0,0.0,1.0,0,1449618217697381643,/odom,0.0,0.0,0.0,0.0,0.0,0.0,1.0,0,user,1.0,0
1449618217814408285,0,1449618217800388108,/odom,0.0,0.0,0.0,0.0,0.0,0.0,1.0,0,1449618217800388108,/odom,0.0,0.0,0.0,0.0,0.0,0.0,1.0,0,user,1.0,0
1449618217922451406,0,1449618217914814096,/odom,0.0,0.0,0.0,0.0,0.0,0.0,1.0,0,1449618217914814096,/odom,0.0,0.0,0.0,0.0,0.0,0.0,1.0,0,user,1.0,0
1449618218003020456,0,1449618217997100242,/odom,0.0,0.0,0.0,0.0,0.0,0.0,1.0,0,1449618217997100242,/odom,0.0,0.0,0.0,0.0,0.0,0.0,1.0,0,user,1.0,0
1449618218102650548,0,1449618218099318868,/odom,0.0,0.0,0.0,0.0,0.0,0.0,1.0,0,1449618218099318868,/odom,0.0,0.0,0.0,0.0,0.0,0.0,1.0,0,user,1.0,0
1449618218204044167,0,1449618218198797049,/odom,0.0,0.0,0.0,0.0,0.0,0.0,1.0,0,1449618218198797049,/odom,0.0,0.0,0.0,0.0,0.0,0.0,1.0,0,user,1.0,0
1449618218335484567,0,1449618218304692261,/odom,0.0,0.0,0.0,0.0,0.0,0.0,1.0,0,1449618218304692261,/odom,0.0,0.0,0.0,0.0,0.0,0.0,1.0,0,user,1.0,0
1449618218397321303,0,1449618218395373287,/odom,0.0,0.0,0.0,0.0,0.0,0.0,1.0,0,1449618218395373287,/odom,0.0,0.0,0.0,0.0,0.0,0.0,1.0,0,user,1.0,0
1449618218502407630,0,1449618218497502583,/odom,0.0,0.0,0.0,0.0,0.0,0.0,1.0,0,1449618218497502583,/odom,0.0,0.0,0.0,0.0,0.0,0.0,1.0,0,user,1.0,0
1449618218597909708,0,1449618218595663744,/odom,0.0,0.0,0.0,0.0,0.0,0.0,1.0,0,1449618218595663744,/odom,0.0,0.0,0.0,0.0,0.0,0.0,1.0,0,user,1.0,0
1449618218750662107,0,1449618218717866917,/odom,0.0,0.0,0.0,0.0,0.0,0.0,1.0,0,1449618218717866917,/odom,0.0,0.0,0.0,0.0,0.0,0.0,1.0,0,user,1.0,0
1449618218810594798,0,1449618218796895915,/odom,0.0,0.0,0.0,0.0,0.0,0.0,1.0,0,1449618218796895915,/odom,0.0,0.0,0.0,0.0,0.0,0.0,1.0,0,user,1.0,0
1449618218902235230,0,1449618218896099006,/odom,0.0,0.0,0.0,0.0,0.0,0.0,1.0,0,1449618218896099006,/odom,0.0,0.0,0.0,0.0,0.0,0.0,1.0,0,user,1.0,0
1449618219005411964,0,1449618218996491496,/odom,0.0,0.0,0.0,0.0,0.0,0.0,1.0,0,1449618218996491496,/odom,0.0,0.0,0.0,0.0,0.0,0.0,1.0,0,user,1.0,0
1449618219101180794,0,1449618219096358989,/odom,0.0,0.0,0.0,0.0,0.0,0.0,1.0,0,1449618219096358989,/odom,0.0,0.0,0.0,0.0,0.0,0.0,1.0,0,user,1.0,0
1449618219204892093,0,1449618219198681259,/odom,0.0,0.0,0.0,0.0,0.0,0.0,1.0,0,1449618219198681259,/odom,0.0,0.0,0.0,0.0,0.0,0.0,1.0,0,user,1.0,0
1449618219319239961,0,1449618219315565658,/odom,0.0,0.0,0.0,0.0,0.0,0.0,1.0,0,1449618219315565658,/odom,0.0,0.0,0.0,0.0,0.0,0.0,1.0,0,user,1.0,0
1449618219404370926,0,1449618219400837265,/odom,0.0,0.0,0.0,0.0,0.0,0.0,1.0,0,1449618219400837265,/odom,0.0,0.0,0.0,0.0,0.0,0.0,1.0,0,user,1.0,0
1449618219533362968,0,1449618219516503289,/odom,0.0,0.0,0.0,0.0,0.0,0.0,1.0,0,1449618219516503289,/odom,0.0,0.0,0.0,0.0,0.0,0.0,1.0,0,user,1.0,0
1449618219598210721,0,1449618219595720868,/odom,0.0,0.0,0.0,0.0,0.0,0.0,1.0,0,1449618219595720868,/odom,0.0,0.0,0.0,0.0,0.0,0.0,1.0,0,user,1.0,0
1449618219707307470,0,1449618219697458356,/odom,0.0,0.0,0.0,0.0,0.0,0.0,1.0,0,1449618219697458356,/odom,0.0,0.0,0.0,0.0,0.0,0.0,1.0,0,user,1.0,0
1449618219796977817,0,1449618219795265586,/odom,0.0,0.0,0.0,0.0,0.0,0.0,1.0,0,1449618219795265586,/odom,0.0,0.0,0.0,0.0,0.0,0.0,1.0,0,user,1.0,0
1449618219908795163,0,1449618219902950938,/odom,0.0,0.0,0.0,0.0,0.0,0.0,1.0,0,1449618219902950938,/odom,0.0,0.0,0.0,0.0,0.0,0.0,1.0,0,user,1.0,0
1449618220019053846,0,1449618219999343226,/odom,0.0,0.0,0.0,0.0,0.0,0.0,1.0,0,1449618219999343226,/odom,0.0,0.0,0.0,0.0,0.0,0.0,1.0,0,user,1.0,0
1449618220107859741,0,1449618220096987222,/odom,0.0,0.0,0.0,0.0,0.0,0.0,1.0,0,1449618220096987222,/odom,0.0,0.0,0.0,0.0,0.0,0.0,1.0,0,user,1.0,0
1449618220219215079,0,1449618220205693645,/odom,0.0,0.0,0.0,0.0,0.0,0.0,1.0,0,1449618220205693645,/odom,0.0,0.0,0.0,0.0,0.0,0.0,1.0,0,user,1.0,0
1449618220333129656,0,1449618220309808278,/odom,0.0,0.0,0.0,0.0,0.0,0.0,1.0,0,1449618220309808278,/odom,0.0,0.0,0.0,0.0,0.0,0.0,1.0,0,user,1.0,0
1449618220413014937,0,1449618220405799949,/odom,0.0,0.0,0.0,0.0,0.0,0.0,1.0,0,1449618220405799949,/odom,0.0,0.0,0.0,0.0,0.0,0.0,1.0,0,user,1.0,0
1449618220520373704,0,1449618220497196284,/odom,0.0,0.0,0.0,0.0,0.0,0.0,1.0,0,1449618220497196284,/odom,0.0,0.0,0.0,0.0,0.0,0.0,1.0,0,user,1.0,0
1449618220600708192,0,1449618220597328872,/odom,0.0,0.0,0.0,0.0,0.0,0.0,1.0,0,1449618220597328872,/odom,0.0,0.0,0.0,0.0,0.0,0.0,1.0,0,user,1.0,0
1449618220698127329,0,1449618220695644636,/odom,0.0,0.0,0.0,0.0,0.0,0.0,1.0,0,1449618220695644636,/odom,0.0,0.0,0.0,0.0,0.0,0.0,1.0,0,user,1.0,0
1449618220803252211,0,1449618220796321847,/odom,0.0,0.0,0.0,0.0,0.0,0.0,1.0,0,1449618220796321847,/odom,0.0,0.0,0.0,0.0,0.0,0.0,1.0,0,user,1.0,0
1449618220915747993,0,1449618220910738996,/odom,0.0,0.0,0.0,0.0,0.0,0.0,1.0,0,1449618220910738996,/odom,0.0,0.0,0.0,0.0,0.0,0.0,1.0,0,user,1.0,0
1449618221006568294,0,1449618221004328033,/odom,0.0,0.0,0.0,0.0,0.0,0.0,1.0,0,1449618221004328033,/odom,0.0,0.0,0.0,0.0,0.0,0.0,1.0,0,user,1.0,0
1449618221110427740,0,1449618221096227922,/odom,0.0,0.0,0.0,0.0,0.0,0.0,1.0,0,1449618221096227922,/odom,0.0,0.0,0.0,0.0,0.0,0.0,1.0,0,user,1.0,0
1449618221203381566,0,1449618221196363827,/odom,0.0,0.0,0.0,0.0,0.0,0.0,1.0,0,1449618221196363827,/odom,0.0,0.0,0.0,0.0,0.0,0.0,1.0,0,user,1.0,0
1449618221309283621,0,1449618221301831177,/odom,0.0,0.0,0.0,0.0,0.0,0.0,1.0,0,1449618221301831177,/odom,0.0,0.0,0.0,0.0,0.0,0.0,1.0,0,user,1.0,0
1449618221399384449,0,1449618221397354253,/odom,0.0,0.0,0.0,0.0,0.0,0.0,1.0,0,1449618221397354253,/odom,0.0,0.0,0.0,0.0,0.0,0.0,1.0,0,user,1.0,0
1449618221529768470,0,1449618221502432659,/odom,0.0,0.0,0.0,0.0,0.0,0.0,1.0,0,1449618221502432659,/odom,0.0,0.0,0.0,0.0,0.0,0.0,1.0,0,user,1.0,0
1449618221609884341,0,1449618221604812780,/odom,0.0,0.0,0.0,0.0,0.0,0.0,1.0,0,1449618221604812780,/odom,0.0,0.0,0.0,0.0,0.0,0.0,1.0,0,user,1.0,0
1449618221736236253,0,1449618221732804800,/odom,0.0,0.0,0.0,0.0,0.0,0.0,1.0,0,1449618221732804800,/odom,0.0,0.0,0.0,0.0,0.0,0.0,1.0,0,user,1.0,0
1449618221803071075,0,1449618221798320448,/odom,0.0,0.0,0.0,0.0,0.0,0.0,1.0,0,1449618221798320448,/odom,0.0,0.0,0.0,0.0,0.0,0.0,1.0,0,user,1.0,0
1449618221901087404,0,1449618221897345218,/odom,0.0,0.0,0.0,0.0,0.0,0.0,1.0,0,1449618221897345218,/odom,0.0,0.0,0.0,0.0,0.0,0.0,1.0,0,user,1.0,0
1449618222037616984,0,1449618221998223635,/odom,0.0,0.0,0.0,0.0,0.0,0.0,1.0,0,1449618221998223635,/odom,0.0,0.0,0.0,0.0,0.0,0.0,1.0,0,user,1.0,0
1449618222134847118,0,1449618222122054100,/odom,0.0,0.0,0.0,0.0,0.0,0.0,1.0,0,1449618222122054100,/odom,0.0,0.0,0.0,0.0,0.0,0.0,1.0,0,user,1.0,0
1449618222223171515,0,1449618222214966599,/odom,0.0,0.0,0.0,0.0,0.0,0.0,1.0,0,1449618222214966599,/odom,0.0,0.0,0.0,0.0,0.0,0.0,1.0,0,user,1.0,0
1449618222330952753,0,1449618222327859983,/odom,-0.00287963245437,-3.04332289367e-05,0.0,0.0,0.0,0.0052839997518,0.999986039576,0,1449618222327859983,/odom,-0.00287963245437,-3.04332289367e-05,0.0,0.0,0.0,0.0052839997518,0.999986039576,0,user,1.0,0
1449618222397889621,0,1449618222395710155,/odom,-0.00287963245437,-3.04332289367e-05,0.0,0.0,0.0,0.0052839997518,0.999986039576,0,1449618222395710155,/odom,-0.00287963245437,-3.04332289367e-05,0.0,0.0,0.0,0.0052839997518,0.999986039576,0,user,1.0,0
1449618222499589356,0,1449618222496361943,/odom,-0.00287963245437,-3.04332289367e-05,0.0,0.0,0.0,0.0052839997518,0.999986039576,0,1449618222496361943,/odom,-0.00287963245437,-3.04332289367e-05,0.0,0.0,0.0,0.0052839997518,0.999986039576,0,user,1.0,0
1449618222610696860,0,1449618222606120761,/odom,1.60811419144e-07,-3.04332289367e-05,0.0,0.0,0.0,0.0,1.0,0,1449618222606120761,/odom,1.60811419144e-07,-3.04332289367e-05,0.0,0.0,0.0,0.0,1.0,0,user,1.0,0
1449618222702773031,0,1449618222389701081,/odom,2.19518718697,0.1062760857,0.0,0.0,0.0,0.44145658738,0.897282609582,0,1449618222389701081,/odom,3.11053543135,1.29461004192,0.0,0.0,0.0,0.44145658738,0.897282609582,0,1449618222389701081,/odom,2.50030326843,0.502387404442,0.758508145809,0.0,0.0,0.44145658738,0.897282609582,1,doorway_assistance,0.899999976158,1449618222389701081,0,0
1449618222839999985,0,1449618222389701081,/odom,2.19518718697,0.1062760857,0.0,0.0,0.0,0.44145658738,0.897282609582,0,1449618222389701081,/odom,3.11053543135,1.29461004192,0.0,0.0,0.0,0.44145658738,0.897282609582,0,1449618222389701081,/odom,2.50030326843,0.502387404442,0.758508145809,0.0,0.0,0.44145658738,0.897282609582,1,doorway_assistance,0.899999976158,1449618222389701081,0,0
1449618222900562843,0,1449618222625708248,/odom,2.12581888149,0.0918345464567,0.0,0.0,0.0,0.40126043987,0.915964005513,0,1449618222625708248,/odom,3.14278905968,1.19445490573,0.0,0.0,0.0,0.40126043987,0.915964005513,0,1449618222625708248,/odom,2.46480894089,0.459374666214,0.728970050812,0.0,0.0,0.40126043987,0.915964005513,1,doorway_assistance,1.0,1449618222625708248,0,0
1449618223016557736,0,1449618222625708248,/odom,2.12581888149,0.0918345464567,0.0,0.0,0.0,0.40126043987,0.915964005513,0,1449618222625708248,/odom,3.14278905968,1.19445490573,0.0,0.0,0.0,0.40126043987,0.915964005513,0,1449618222625708248,/odom,2.46480894089,0.459374666214,0.728970050812,0.0,0.0,0.40126043987,0.915964005513,1,doorway_assistance,1.0,1449618222625708248,0,0
1449618223102094491,0,1449618222822397061,/odom,2.18115351413,0.107023077097,0.0,0.0,0.0,0.435195550959,0.900335955311,0,1449618222822397061,/odom,3.11296801141,1.28248968346,0.0,0.0,0.0,0.435195550959,0.900335955311,0,1449618222822397061,/odom,2.49175834656,0.498845279217,0.73823428154,0.0,0.0,0.435195550959,0.900335955311,1,doorway_assistance,1.0,1449618222822397061,0,0
1449618223209639800,0,1449618222822397061,/odom,2.18115351413,0.107023077097,0.0,0.0,0.0,0.435195550959,0.900335955311,0,1449618222822397061,/odom,3.11296801141,1.28248968346,0.0,0.0,0.0,0.435195550959,0.900335955311,0,1449618222822397061,/odom,2.49175834656,0.498845279217,0.73823428154,0.0,0.0,0.435195550959,0.900335955311,1,doorway_assistance,1.0,1449618222822397061,0,0
1449618223312917584,0,1449618223027232408,/odom,2.19899542847,0.0985886491825,0.0,0.0,0.0,0.441957739356,0.89703587254,0,1449618223027232408,/odom,3.11301549834,1.28794448823,0.0,0.0,0.0,0.441957739356,0.89703587254,0,1449618223027232408,/odom,2.5036687851,0.495040595531,0.748087644577,0.0,0.0,0.441957739356,0.89703587254,1,doorway_assistance,1.0,1449618223027232408,0,0
1449618223404078071,0,1449618223027232408,/odom,2.19899542847,0.0985886491825,0.0,0.0,0.0,0.441957739356,0.89703587254,0,1449618223027232408,/odom,3.11301549834,1.28794448823,0.0,0.0,0.0,0.441957739356,0.89703587254,0,1449618223027232408,/odom,2.5036687851,0.495040595531,0.748087644577,0.0,0.0,0.441957739356,0.89703587254,1,doorway_assistance,1.0,1449618223027232408,0,0
1449618223519190512,0,1449618223232860142,/odom,2.11493864957,0.0993760216418,0.0,0.0,0.0,0.399211845461,0.916858714549,0,1449618223232860142,/odom,3.1368283569,1.19743860003,0.0,0.0,0.0,0.399211845461,0.916858714549,0,1449618223232860142,/odom,2.45556855202,0.465396881104,0.75888478756,0.0,0.0,0.399211845461,0.916858714549,1,doorway_assistance,1.0,1449618223232860142,0,0
1449618223598665019,0,1449618223232860142,/odom,2.11493864957,0.0993760216418,0.0,0.0,0.0,0.399211845461,0.916858714549,0,1449618223232860142,/odom,3.1368283569,1.19743860003,0.0,0.0,0.0,0.399211845461,0.916858714549,0,1449618223232860142,/odom,2.45556855202,0.465396881104,0.75888478756,0.0,0.0,0.399211845461,0.916858714549,1,doorway_assistance,1.0,1449618223232860142,0,0
1449618223719295721,0,1449618223422341171,/odom,2.12569747594,0.093181866317,0.0,0.0,0.0,0.401922038616,0.915673891118,0,1449618223422341171,/odom,3.14107350057,1.19727041739,0.0,0.0,0.0,0.401922038616,0.915673891118,0,1449618223422341171,/odom,2.46415615082,0.461211383343,0.739003956318,0.0,0.0,0.401922038616,0.915673891118,1,doorway_assistance,1.0,1449618223422341171,0,0
1449618223840851417,0,1449618223422341171,/odom,2.12569747594,0.093181866317,0.0,0.0,0.0,0.401922038616,0.915673891118,0,1449618223422341171,/odom,3.14107350057,1.19727041739,0.0,0.0,0.0,0.401922038616,0.915673891118,0,1449618223422341171,/odom,2.46415615082,0.461211383343,0.739003956318,0.0,0.0,0.401922038616,0.915673891118,1,doorway_assistance,1.0,1449618223422341171,0,0
1449618223904059308,0,1449618223610299989,/odom,2.11492056923,0.103496606492,0.0,0.0,0.0,0.401073577699,0.916045842342,0,1449618223610299989,/odom,3.13234052505,1.20570195647,0.0,0.0,0.0,0.401073577699,0.916045842342,0,1449618223610299989,/odom,2.4540605545,0.470898389816,0.749102175236,0.0,0.0,0.401073577699,0.916045842342,1,doorway_assistance,1.0,1449618223610299989,0,0
1449618224028296791,0,1449618223610299989,/odom,2.11492056923,0.103496606492,0.0,0.0,0.0,0.401073577699,0.916045842342,0,1449618223610299989,/odom,3.13234052505,1.20570195647,0.0,0.0,0.0,0.401073577699,0.916045842342,0,1449618223610299989,/odom,2.4540605545,0.470898389816,0.749102175236,0.0,0.0,0.401073577699,0.916045842342,1,doorway_assistance,1.0,1449618223610299989,0,0
1449618224103850903,0,1449618223857022639,/odom,2.12992400101,0.0964454739159,0.0,0.0,0.0,0.407082147655,0.913391550793,0,1449618223857022639,/odom,3.13277637619,1.21192165636,0.0,0.0,0.0,0.407082147655,0.913391550793,0,1449618223857022639,/odom,2.46420812607,0.468270868063,0.728970825672,0.0,0.0,0.407082147655,0.913391550793,1,doorway_assistance,1.0,1449618223857022639,0,0
1449618224305790611,0,1449618223857022639,/odom,2.12992400101,0.0964454739159,0.0,0.0,0.0,0.407082147655,0.913391550793,0,1449618223857022639,/odom,3.13277637619,1.21192165636,0.0,0.0,0.0,0.407082147655,0.913391550793,0,1449618223857022639,/odom,2.46420812607,0.468270868063,0.728970825672,0.0,0.0,0.407082147655,0.913391550793,1,doorway_assistance,1.0,1449618223857022639,0,0
1449618224319788870,0,1449618224026262764,/odom,2.12382155558,0.0969292732857,0.0,0.0,0.0,0.403199479029,0.915112113411,0,1449618224026262764,/odom,3.13611209591,1.20384745543,0.0,0.0,0.0,0.403199479029,0.915112113411,0,1449618224026262764,/odom,2.46125173569,0.465902000666,0.739027500153,0.0,0.0,0.403199479029,0.915112113411,1,doorway_assistance,1.0,1449618224026262764,0,0
1449618224413066649,0,1449618224026262764,/odom,2.12382155558,0.0969292732857,0.0,0.0,0.0,0.403199479029,0.915112113411,0,1449618224026262764,/odom,3.13611209591,1.20384745543,0.0,0.0,0.0,0.403199479029,0.915112113411,0,1449618224026262764,/odom,2.46125173569,0.465902000666,0.739027500153,0.0,0.0,0.403199479029,0.915112113411,1,doorway_assistance,1.0,1449618224026262764,0,0
1449618224511520647,0,1449618224026262764,/odom,2.12382155558,0.0969292732857,0.0,0.0,0.0,0.403199479029,0.915112113411,0,1449618224026262764,/odom,3.13611209591,1.20384745543,0.0,0.0,0.0,0.403199479029,0.915112113411,0,1449618224026262764,/odom,2.46125173569,0.465902000666,0.739027500153,0.0,0.0,0.403199479029,0.915112113411,1,doorway_assistance,1.0,1449618224026262764,0,0
1449618224615530079,0,1449618224334627861,/odom,2.17402578083,0.0975607962863,0.0,0.0,0.0,0.430326237745,0.902673434365,0,1449618224334627861,/odom,3.11848376816,1.26289298505,0.0,0.0,0.0,0.430326237745,0.902673434365,0,1449618224334627861,/odom,2.48884510994,0.486004859209,0.747720181942,0.0,0.0,0.430326237745,0.902673434365,1,doorway_assistance,1.0,1449618224334627861,0,0
1449618224707430395,0,1449618224506609130,/odom,2.14048754026,0.100526994963,0.0,0.0,0.0,0.41368732429,0.910419023155,0,1449618224506609130,/odom,3.12707593343,1.23041342398,0.0,0.0,0.0,0.41368732429,0.910419023155,0,1449618224506609130,/odom,2.46935033798,0.477155804634,0.758703052998,0.0,0.0,0.41368732429,0.910419023155,1,doorway_assistance,1.0,1449618224506609130,0,0
1449618224807139909,0,1449618224506609130,/odom,2.14048754026,0.100526994963,0.0,0.0,0.0,0.41368732429,0.910419023155,0,1449618224506609130,/odom,3.12707593343,1.23041342398,0.0,0.0,0.0,0.41368732429,0.910419023155,0,1449618224506609130,/odom,2.46935033798,0.477155804634,0.758703052998,0.0,0.0,0.41368732429,0.910419023155,1,doorway_assistance,1.0,1449618224506609130,0,0
1449618224938785642,0,1449618224624342723,/odom,2.13891691476,0.0955179117319,0.0,0.0,0.0,0.409316235241,0.912392579742,0,1449618224624342723,/odom,3.13629757346,1.21588919914,0.0,0.0,0.0,0.409316235241,0.912392579742,0,1449618224624342723,/odom,2.47137713432,0.468975007534,0.748950183392,0.0,0.0,0.409316235241,0.912392579742,1,doorway_assistance,1.0,1449618224624342723,0,0
1449618225007481237,0,1449618224805250239,/odom,2.18538124517,0.112566228479,0.0,0.0,0.0,0.444148714135,0.895953078979,0,1449618224805250239,/odom,3.09357700437,1.30637545234,0.0,0.0,0.0,0.444148714135,0.895953078979,0,1449618224805250239,/odom,2.4881131649,0.510502636433,0.768262505531,0.0,0.0,0.444148714135,0.895953078979,1,doorway_assistance,1.0,1449618224805250239,0,0
1449618225120910394,0,1449618224805250239,/odom,2.18538124517,0.112566228479,0.0,0.0,0.0,0.444148714135,0.895953078979,0,1449618224805250239,/odom,3.09357700437,1.30637545234,0.0,0.0,0.0,0.444148714135,0.895953078979,0,1449618224805250239,/odom,2.4881131649,0.510502636433,0.768262505531,0.0,0.0,0.444148714135,0.895953078979,1,doorway_assistance,1.0,1449618224805250239,0,0
1449618225201201460,0,1449618224941081342,/odom,2.21339590115,0.0778418666041,0.0,0.0,0.0,0.440250275748,0.897875099724,0,1449618224941081342,/odom,3.13193498526,1.26371114733,0.0,0.0,0.0,0.440250275748,0.897875099724,0,1449618224941081342,/odom,2.51957559586,0.473131626844,0.768297672272,0.0,0.0,0.440250275748,0.897875099724,1,doorway_assistance,1.0,1449618224941081342,0,0
1449618225322624169,0,1449618224941081342,/odom,2.21339590115,0.0778418666041,0.0,0.0,0.0,0.440250275748,0.897875099724,0,1449618224941081342,/odom,3.13193498526,1.26371114733,0.0,0.0,0.0,0.440250275748,0.897875099724,0,1449618224941081342,/odom,2.51957559586,0.473131626844,0.768297672272,0.0,0.0,0.440250275748,0.897875099724,1,doorway_assistance,1.0,1449618224941081342,0,0
1449618225407611457,0,1449618225132900122,/odom,2.15885150728,0.100626286663,0.0,0.0,0.0,0.430461536605,0.902608921684,0,1449618225132900122,/odom,3.10296010379,1.26624155681,0.0,0.0,0.0,0.430461536605,0.902608921684,0,1449618225132900122,/odom,2.47355437279,0.489164710045,0.738593101501,0.0,0.0,0.430461536605,0.902608921684,1,doorway_assistance,1.0,1449618225132900122,0,0
1449618225512187222,0,1449618225132900122,/odom,2.15885150728,0.100626286663,0.0,0.0,0.0,0.430461536605,0.902608921684,0,1449618225132900122,/odom,3.10296010379,1.26624155681,0.0,0.0,0.0,0.430461536605,0.902608921684,0,1449618225132900122,/odom,2.47355437279,0.489164710045,0.738593101501,0.0,0.0,0.430461536605,0.902608921684,1,doorway_assistance,1.0,1449618225132900122,0,0
1449618225615068333,0,1449618225342260858,/odom,2.14942846884,0.0646860605427,0.0,0.0,0.0,0.421848274962,0.906666439718,0,1449618225342260858,/odom,3.11556056758,1.21211308123,0.0,0.0,0.0,0.421848274962,0.906666439718,0,1449618225342260858,/odom,2.47147250175,0.447161734104,0.759232878685,0.0,0.0,0.421848274962,0.906666439718,1,doorway_assistance,1.0,1449618225342260858,0,0
1449618225756875315,0,1449618225342260858,/odom,2.14942846884,0.0646860605427,0.0,0.0,0.0,0.421848274962,0.906666439718,0,1449618225342260858,/odom,3.11556056758,1.21211308123,0.0,0.0,0.0,0.421848274962,0.906666439718,0,1449618225342260858,/odom,2.47147250175,0.447161734104,0.759232878685,0.0,0.0,0.421848274962,0.906666439718,1,doorway_assistance,1.0,1449618225342260858,0,0
1449618225806561985,0,1449618225509617094,/odom,2.1558292812,0.0680147988993,0.0,0.0,0.0,0.426050329297,0.9046994622,0,1449618225509617094,/odom,3.11127263191,1.22435731026,0.0,0.0,0.0,0.426050329297,0.9046994622,0,1449618225509617094,/odom,2.4743103981,0.453462302685,0.7491492033,0.0,0.0,0.426050329297,0.9046994622,1,doorway_assistance,1.0,1449618225509617094,0,0
1449618225915160040,0,1449618225509617094,/odom,2.1558292812,0.0680147988993,0.0,0.0,0.0,0.426050329297,0.9046994622,0,1449618225509617094,/odom,3.11127263191,1.22435731026,0.0,0.0,0.0,0.426050329297,0.9046994622,0,1449618225509617094,/odom,2.4743103981,0.453462302685,0.7491492033,0.0,0.0,0.426050329297,0.9046994622,1,doorway_assistance,1.0,1449618225509617094,0,0
1449618226040417826,0,1449618225767601327,/odom,2.1385286865,0.0384616176978,0.0,0.0,0.0,0.410759015759,0.911743950335,0,1449618225767601327,/odom,3.13235977941,1.16198276069,0.0,0.0,0.0,0.410759015759,0.911743950335,0,1449618225767601327,/odom,2.46980571747,0.412968665361,0.749452650547,0.0,0.0,0.410759015759,0.911743950335,1,doorway_assistance,1.0,1449618225767601327,0,0
1449618226105328592,0,1449618225767601327,/odom,2.1385286865,0.0384616176978,0.0,0.0,0.0,0.410759015759,0.911743950335,0,1449618225767601327,/odom,3.13235977941,1.16198276069,0.0,0.0,0.0,0.410759015759,0.911743950335,0,1449618225767601327,/odom,2.46980571747,0.412968665361,0.749452650547,0.0,0.0,0.410759015759,0.911743950335,1,doorway_assistance,1.0,1449618225767601327,0,0
1449618226213172494,0,1449618225908625348,/odom,2.12609222039,0.0483436070376,0.0,0.0,0.0,0.409684294236,0.912227372455,0,1449618225908625348,/odom,3.12256855756,1.16951928884,0.0,0.0,0.0,0.409684294236,0.912227372455,0,1449618225908625348,/odom,2.45825099945,0.422068834305,0.759434103966,0.0,0.0,0.409684294236,0.912227372455,1,doorway_assistance,1.0,1449618225908625348,0,0
1449618226307192997,0,1449618225908625348,/odom,2.12609222039,0.0483436070376,0.0,0.0,0.0,0.409684294236,0.912227372455,0,1449618225908625348,/odom,3.12256855756,1.16951928884,0.0,0.0,0.0,0.409684294236,0.912227372455,0,1449618225908625348,/odom,2.45825099945,0.422068834305,0.759434103966,0.0,0.0,0.409684294236,0.912227372455,1,doorway_assistance,1.0,1449618225908625348,0,0
1449618226405189957,0,1449618226119526745,/odom,2.15227024106,0.0248254769298,0.0,0.0,0.0,0.400852939425,0.916142413031,0,1449618226119526745,/odom,3.17022100393,1.12654061452,0.0,0.0,0.0,0.400852939425,0.916142413031,0,1449618226119526745,/odom,2.49158716202,0.392063856125,0.709027707577,0.0,0.0,0.400852939425,0.916142413031,1,doorway_assistance,1.0,1449618226119526745,0,0
1449618226505915828,0,1449618226119526745,/odom,2.15227024106,0.0248254769298,0.0,0.0,0.0,0.400852939425,0.916142413031,0,1449618226119526745,/odom,3.17022100393,1.12654061452,0.0,0.0,0.0,0.400852939425,0.916142413031,0,1449618226119526745,/odom,2.49158716202,0.392063856125,0.709027707577,0.0,0.0,0.400852939425,0.916142413031,1,doorway_assistance,1.0,1449618226119526745,0,0
1449618226608574734,0,1449618226331423315,/odom,2.13852343046,0.0545629708488,0.0,0.0,0.0,0.407963405022,0.912998280482,0,1449618226331423315,/odom,3.13922101094,1.1719726327,0.0,0.0,0.0,0.407963405022,0.912998280482,0,1449618226331423315,/odom,2.47208929062,0.427032858133,0.738767504692,0.0,0.0,0.407963405022,0.912998280482,1,doorway_assistance,1.0,1449618226331423315,0,0
1449618226716832633,0,1449618226331423315,/odom,2.13852343046,0.0545629708488,0.0,0.0,0.0,0.407963405022,0.912998280482,0,1449618226331423315,/odom,3.13922101094,1.1719726327,0.0,0.0,0.0,0.407963405022,0.912998280482,0,1449618226331423315,/odom,2.47208929062,0.427032858133,0.738767504692,0.0,0.0,0.407963405022,0.912998280482,1,doorway_assistance,1.0,1449618226331423315,0,0
1449618226798879588,0,1449618226533723207,/odom,2.12816492455,0.041516696995,0.0,0.0,0.0,0.399661605182,0.916662752239,0,1449618226533723207,/odom,3.14897672858,1.14058141791,0.0,0.0,0.0,0.399661605182,0.916662752239,0,1449618226533723207,/odom,2.46843552589,0.407871603966,0.69815325737,0.0,0.0,0.399661605182,0.916662752239,1,doorway_assistance,1.0,1449618226533723207,0,0
1449618226934644939,0,1449618226533723207,/odom,2.12816492455,0.041516696995,0.0,0.0,0.0,0.399661605182,0.916662752239,0,1449618226533723207,/odom,3.14897672858,1.14058141791,0.0,0.0,0.0,0.399661605182,0.916662752239,0,1449618226533723207,/odom,2.46843552589,0.407871603966,0.69815325737,0.0,0.0,0.399661605182,0.916662752239,1,doorway_assistance,1.0,1449618226533723207,0,0
1449618227018907335,0,1449618226723967130,/odom,2.22641373661,0.0530678821093,0.0,0.0,0.0,0.438569272067,0.89869738711,0,1449618226723967130,/odom,3.14938471741,1.23549105873,0.0,0.0,0.0,0.438569272067,0.89869738711,0,1449618226723967130,/odom,2.53407073021,0.447208940983,0.757932424545,0.0,0.0,0.438569272067,0.89869738711,1,doorway_assistance,1.0,1449618226723967130,0,0
1449618227104504276,0,1449618226723967130,/odom,2.22641373661,0.0530678821093,0.0,0.0,0.0,0.438569272067,0.89869738711,0,1449618226723967130,/odom,3.14938471741,1.23549105873,0.0,0.0,0.0,0.438569272067,0.89869738711,0,1449618226723967130,/odom,2.53407073021,0.447208940983,0.757932424545,0.0,0.0,0.438569272067,0.89869738711,1,doorway_assistance,1.0,1449618226723967130,0,0
1449618227629032708,0,1449618226929036457,/odom,2.15624106766,0.0588024684632,0.0,0.0,0.0,0.412069030543,0.911152629403,0,1449618226929036457,/odom,3.14683840987,1.18517581049,0.0,0.0,0.0,0.412069030543,0.911152629403,0,1449618226929036457,/odom,2.48644018173,0.434260249138,0.707369685173,0.0,0.0,0.412069030543,0.911152629403,1,doorway_assistance,1.0,1449618226929036457,0,0
1449618227652866680,0,1449618227109206134,/odom,2.10505167377,0.0713492167134,0.0,0.0,0.0,0.388718079702,0.921356746604,0,1449618227109206134,/odom,3.15174643731,1.14579329249,0.0,0.0,0.0,0.388718079702,0.921356746604,0,1449618227109206134,/odom,2.45394992828,0.429497241974,0.707999885082,0.0,0.0,0.388718079702,0.921356746604,1,doorway_assistance,1.0,1449618227109206134,0,0
1449618227741042169,0,1449618227109206134,/odom,2.10505167377,0.0713492167134,0.0,0.0,0.0,0.388718079702,0.921356746604,0,1449618227109206134,/odom,3.15174643731,1.14579329249,0.0,0.0,0.0,0.388718079702,0.921356746604,0,1449618227109206134,/odom,2.45394992828,0.429497241974,0.707999885082,0.0,0.0,0.388718079702,0.921356746604,1,doorway_assistance,1.0,1449618227109206134,0,0
1449618227858505113,0,1449618227109206134,/odom,2.10505167377,0.0713492167134,0.0,0.0,0.0,0.388718079702,0.921356746604,0,1449618227109206134,/odom,3.15174643731,1.14579329249,0.0,0.0,0.0,0.388718079702,0.921356746604,0,1449618227109206134,/odom,2.45394992828,0.429497241974,0.707999885082,0.0,0.0,0.388718079702,0.921356746604,1,doorway_assistance,1.0,1449618227109206134,0,0
1449618227953929192,0,1449618227109206134,/odom,2.10505167377,0.0713492167134,0.0,0.0,0.0,0.388718079702,0.921356746604,0,1449618227109206134,/odom,3.15174643731,1.14579329249,0.0,0.0,0.0,0.388718079702,0.921356746604,0,1449618227109206134,/odom,2.45394992828,0.429497241974,0.707999885082,0.0,0.0,0.388718079702,0.921356746604,1,doorway_assistance,1.0,1449618227637711582,0,0
1449618228042021600,0,1449618227109206134,/odom,2.10505167377,0.0713492167134,0.0,0.0,0.0,0.388718079702,0.921356746604,0,1449618227109206134,/odom,3.15174643731,1.14579329249,0.0,0.0,0.0,0.388718079702,0.921356746604,0,1449618227109206134,/odom,2.45394992828,0.429497241974,0.707999885082,0.0,0.0,0.388718079702,0.921356746604,1,doorway_assistance,1.0,1449618227637711582,0,0
1449618228168364217,0,1449618227833982624,/odom,2.00441830851,0.00832574163284,0.0,0.0,0.0,0.354180225848,0.935177185146,0,1449618227833982624,/odom,3.12808741137,1.00198954156,0.0,0.0,0.0,0.354180225848,0.935177185146,0,1449618227833982624,/odom,2.37897467613,0.339547008276,0.66853260994,0.0,0.0,0.354180225848,0.935177185146,1,doorway_assistance,1.0,1449618227833982624,0,0
1449618228245202846,0,1449618227833982624,/odom,2.00441830851,0.00832574163284,0.0,0.0,0.0,0.354180225848,0.935177185146,0,1449618227833982624,/odom,3.12808741137,1.00198954156,0.0,0.0,0.0,0.354180225848,0.935177185146,0,1449618227833982624,/odom,2.37897467613,0.339547008276,0.66853260994,0.0,0.0,0.354180225848,0.935177185146,1,doorway_assistance,1.0,1449618227833982624,0,0
1449618228358482355,0,1449618227833982624,/odom,2.00441830851,0.00832574163284,0.0,0.0,0.0,0.354180225848,0.935177185146,0,1449618227833982624,/odom,3.12808741137,1.00198954156,0.0,0.0,0.0,0.354180225848,0.935177185146,0,1449618227833982624,/odom,2.37897467613,0.339547008276,0.66853260994,0.0,0.0,0.354180225848,0.935177185146,1,doorway_assistance,1.0,1449618228059362663,0,0
1449618228459477852,0,1449618227833982624,/odom,2.00441830851,0.00832574163284,0.0,0.0,0.0,0.354180225848,0.935177185146,0,1449618227833982624,/odom,3.12808741137,1.00198954156,0.0,0.0,0.0,0.354180225848,0.935177185146,0,1449618227833982624,/odom,2.37897467613,0.339547008276,0.66853260994,0.0,0.0,0.354180225848,0.935177185146,1,doorway_assistance,1.0,1449618228224602262,0,0
1449618228552925607,0,1449618227833982624,/odom,2.00441830851,0.00832574163284,0.0,0.0,0.0,0.354180225848,0.935177185146,0,1449618227833982624,/odom,3.12808741137,1.00198954156,0.0,0.0,0.0,0.354180225848,0.935177185146,0,1449618227833982624,/odom,2.37897467613,0.339547008276,0.66853260994,0.0,0.0,0.354180225848,0.935177185146,1,doorway_assistance,1.0,1449618228224602262,0,0
1449618228634094522,0,1449618228334864648,/odom,2.176285081,0.0697068484849,0.0,0.0,0.0,0.437641725844,0.899149442418,0,1449618228334864648,/odom,3.1016942404,1.2502227898,0.0,0.0,0.0,0.437641725844,0.899149442418,0,1449618228334864648,/odom,2.4847548008,0.463212162256,0.727487385273,0.0,0.0,0.437641725844,0.899149442418,1,doorway_assistance,1.0,1449618228334864648,0,0
1449618228743795779,0,1449618228535631724,/odom,2.13356592116,0.0904922773713,0.0,0.0,0.0,0.409853309986,0.912151448112,0,1449618228535631724,/odom,3.12962671404,1.21203714802,0.0,0.0,0.0,0.409853309986,0.912151448112,0,1449618228535631724,/odom,2.46558618546,0.464340567589,0.69746285677,0.0,0.0,0.409853309986,0.912151448112,1,doorway_assistance,1.0,1449618228535631724,0,0
1449618228860038935,0,1449618228535631724,/odom,2.13356592116,0.0904922773713,0.0,0.0,0.0,0.409853309986,0.912151448112,0,1449618228535631724,/odom,3.12962671404,1.21203714802,0.0,0.0,0.0,0.409853309986,0.912151448112,0,1449618228535631724,/odom,2.46558618546,0.464340567589,0.69746285677,0.0,0.0,0.409853309986,0.912151448112,1,doorway_assistance,0.899999976158,1449618228535631724,0,0
1449618228969557898,0,1449618228535631724,/odom,2.13356592116,0.0904922773713,0.0,0.0,0.0,0.409853309986,0.912151448112,0,1449618228535631724,/odom,3.12962671404,1.21203714802,0.0,0.0,0.0,0.409853309986,0.912151448112,0,1449618228535631724,/odom,2.46558618546,0.464340567589,0.69746285677,0.0,0.0,0.409853309986,0.912151448112,1,doorway_assistance,0.899999976158,1449618228535631724,0,0
1449618229045870679,0,1449618228535631724,/odom,2.13356592116,0.0904922773713,0.0,0.0,0.0,0.409853309986,0.912151448112,0,1449618228535631724,/odom,3.12962671404,1.21203714802,0.0,0.0,0.0,0.409853309986,0.912151448112,0,1449618228535631724,/odom,2.46558618546,0.464340567589,0.69746285677,0.0,0.0,0.409853309986,0.912151448112,1,doorway_assistance,0.899999976158,1449618228741615279,0,0
1449618229149747017,0,1449618228535631724,/odom,2.13356592116,0.0904922773713,0.0,0.0,0.0,0.409853309986,0.912151448112,0,1449618228535631724,/odom,3.12962671404,1.21203714802,0.0,0.0,0.0,0.409853309986,0.912151448112,0,1449618228535631724,/odom,2.46558618546,0.464340567589,0.69746285677,0.0,0.0,0.409853309986,0.912151448112,1,doorway_assistance,0.899999976158,1449618228741615279,0,0
1449618229232956578,0,1449618228535631724,/odom,2.13356592116,0.0904922773713,0.0,0.0,0.0,0.409853309986,0.912151448112,0,1449618228535631724,/odom,3.12962671404,1.21203714802,0.0,0.0,0.0,0.409853309986,0.912151448112,0,1449618228535631724,/odom,2.46558618546,0.464340567589,0.69746285677,0.0,0.0,0.409853309986,0.912151448112,1,doorway_assistance,0.899999976158,1449618228964021252,0,0
1449618229345916189,0,1449618228535631724,/odom,2.13356592116,0.0904922773713,0.0,0.0,0.0,0.409853309986,0.912151448112,0,1449618228535631724,/odom,3.12962671404,1.21203714802,0.0,0.0,0.0,0.409853309986,0.912151448112,0,1449618228535631724,/odom,2.46558618546,0.464340567589,0.69746285677,0.0,0.0,0.409853309986,0.912151448112,1,doorway_assistance,0.899999976158,1449618228964021252,0,0
1449618229479917321,0,1449618228535631724,/odom,2.13356592116,0.0904922773713,0.0,0.0,0.0,0.409853309986,0.912151448112,0,1449618228535631724,/odom,3.12962671404,1.21203714802,0.0,0.0,0.0,0.409853309986,0.912151448112,0,1449618228535631724,/odom,2.46558618546,0.464340567589,0.69746285677,0.0,0.0,0.409853309986,0.912151448112,1,doorway_assistance,0.899999976158,1449618229166767548,0,0
1449618229550046823,0,1449618228535631724,/odom,2.13356592116,0.0904922773713,0.0,0.0,0.0,0.409853309986,0.912151448112,0,1449618228535631724,/odom,3.12962671404,1.21203714802,0.0,0.0,0.0,0.409853309986,0.912151448112,0,1449618228535631724,/odom,2.46558618546,0.464340567589,0.69746285677,0.0,0.0,0.409853309986,0.912151448112,1,doorway_assistance,0.899999976158,1449618229328469673,0,0
1449618229697672301,0,1449618228535631724,/odom,2.13356592116,0.0904922773713,0.0,0.0,0.0,0.409853309986,0.912151448112,0,1449618228535631724,/odom,3.12962671404,1.21203714802,0.0,0.0,0.0,0.409853309986,0.912151448112,0,1449618228535631724,/odom,2.46558618546,0.464340567589,0.69746285677,0.0,0.0,0.409853309986,0.912151448112,1,doorway_assistance,0.899999976158,1449618229328469673,0,0
1449618230061344550,0,1449618228535631724,/odom,2.13356592116,0.0904922773713,0.0,0.0,0.0,0.409853309986,0.912151448112,0,1449618228535631724,/odom,3.12962671404,1.21203714802,0.0,0.0,0.0,0.409853309986,0.912151448112,0,1449618228535631724,/odom,2.46558618546,0.464340567589,0.69746285677,0.0,0.0,0.409853309986,0.912151448112,1,doorway_assistance,0.899999976158,1449618229450229164,0,0
1449618230369459742,0,1449618230362227545,/odom,3.24336257204,0.0702495335461,0.0,0.0,0.0,-0.0418287667556,0.999124794143,0,1449618230362227545,/odom,3.24336257204,0.0702495335461,0.0,0.0,0.0,-0.0418287667556,0.999124794143,0,user,1.0,0
1449618230759836749,0,1449618230752739432,/odom,3.3065424239,0.0919964256249,0.0,0.0,0.0,-0.0145385015939,0.999894310401,0,1449618230752739432,/odom,3.3065424239,0.0919964256249,0.0,0.0,0.0,-0.0145385015939,0.999894310401,0,user,1.0,0
1449618231153016376,0,1449618231130085300,/odom,3.40287352265,0.159049681185,0.0,0.0,0.0,0.0220330675573,0.999757242501,0,1449618231130085300,/odom,3.40287352265,0.159049681185,0.0,0.0,0.0,0.0220330675573,0.999757242501,0,user,1.0,0
1449618231552089127,0,1449618231545675494,/odom,3.51234457962,0.211942904342,0.0,0.0,0.0,0.0362320235484,0.999343404676,0,1449618231545675494,/odom,3.51234457962,0.211942904342,0.0,0.0,0.0,0.0362320235484,0.999343404676,0,user,1.0,0
1449618231985119647,0,1449618231980563222,/odom,3.6270792232,0.31351875984,0.0,0.0,0.0,0.061780734568,0.998089745883,0,1449618231980563222,/odom,3.6270792232,0.31351875984,0.0,0.0,0.0,0.061780734568,0.998089745883,0,user,1.0,0
1449618232252615197,0,1449618232232816806,/odom,3.65978778562,0.448855838868,0.0,0.0,0.0,0.0958228116676,0.995398407053,0,1449618232232816806,/odom,3.65978778562,0.448855838868,0.0,0.0,0.0,0.0958228116676,0.995398407053,0,user,1.0,0
1449618232477040239,0,1449618232467220554,/odom,3.64398506174,0.493954751944,0.0,0.0,0.0,0.107152333191,0.994242615005,0,1449618232467220554,/odom,3.64398506174,0.493954751944,0.0,0.0,0.0,0.107152333191,0.994242615005,0,user,1.0,0
1449618232717986977,0,1449618232709823059,/odom,3.63130198877,0.55148884257,0.0,0.0,0.0,0.120780244099,0.992679269772,0,1449618232709823059,/odom,3.63130198877,0.55148884257,0.0,0.0,0.0,0.120780244099,0.992679269772,0,user,1.0,0
1449618232985495572,0,1449618232975171433,/odom,3.67455263184,0.607186021188,0.0,0.0,0.0,0.13231031699,0.991208343396,0,1449618232975171433,/odom,3.67455263184,0.607186021188,0.0,0.0,0.0,0.13231031699,0.991208343396,0,user,1.0,0
1449618233307064983,0,1449618228535631724,/odom,2.13356592116,0.0904922773713,0.0,0.0,0.0,0.409853309986,0.912151448112,0,1449618228535631724,/odom,3.12962671404,1.21203714802,0.0,0.0,0.0,0.409853309986,0.912151448112,0,1449618228535631724,/odom,2.46558618546,0.464340567589,0.69746285677,0.0,0.0,0.409853309986,0.912151448112,1,doorway_assistance,0.899999976158,1449618232693841943,0,0
1449618233430318974,0,1449618228535631724,/odom,2.13356592116,0.0904922773713,0.0,0.0,0.0,0.409853309986,0.912151448112,0,1449618228535631724,/odom,3.12962671404,1.21203714802,0.0,0.0,0.0,0.409853309986,0.912151448112,0,1449618228535631724,/odom,2.46558618546,0.464340567589,0.69746285677,0.0,0.0,0.409853309986,0.912151448112,1,doorway_assistance,0.899999976158,1449618232947659797,0,0
1449618233560257311,0,1449618228535631724,/odom,2.13356592116,0.0904922773713,0.0,0.0,0.0,0.409853309986,0.912151448112,0,1449618228535631724,/odom,3.12962671404,1.21203714802,0.0,0.0,0.0,0.409853309986,0.912151448112,0,1449618228535631724,/odom,2.46558618546,0.464340567589,0.69746285677,0.0,0.0,0.409853309986,0.912151448112,1,doorway_assistance,0.899999976158,1449618233287788722,0,0
1449618233666283235,0,1449618228535631724,/odom,2.13356592116,0.0904922773713,0.0,0.0,0.0,0.409853309986,0.912151448112,0,1449618228535631724,/odom,3.12962671404,1.21203714802,0.0,0.0,0.0,0.409853309986,0.912151448112,0,1449618228535631724,/odom,2.46558618546,0.464340567589,0.69746285677,0.0,0.0,0.409853309986,0.912151448112,1,doorway_assistance,0.899999976158,1449618233399555720,0,0
1449618233885206130,0,1449618228535631724,/odom,2.13356592116,0.0904922773713,0.0,0.0,0.0,0.409853309986,0.912151448112,0,1449618228535631724,/odom,3.12962671404,1.21203714802,0.0,0.0,0.0,0.409853309986,0.912151448112,0,1449618228535631724,/odom,2.46558618546,0.464340567589,0.69746285677,0.0,0.0,0.409853309986,0.912151448112,1,doorway_assistance,0.899999976158,1449618233523348708,0,0
1449618234018704617,0,1449618228535631724,/odom,2.13356592116,0.0904922773713,0.0,0.0,0.0,0.409853309986,0.912151448112,0,1449618228535631724,/odom,3.12962671404,1.21203714802,0.0,0.0,0.0,0.409853309986,0.912151448112,0,1449618228535631724,/odom,2.46558618546,0.464340567589,0.69746285677,0.0,0.0,0.409853309986,0.912151448112,1,doorway_assistance,0.899999976158,1449618233640785430,0,0
1449618234023765290,0,1449618228535631724,/odom,2.13356592116,0.0904922773713,0.0,0.0,0.0,0.409853309986,0.912151448112,0,1449618228535631724,/odom,3.12962671404,1.21203714802,0.0,0.0,0.0,0.409853309986,0.912151448112,0,1449618228535631724,/odom,2.46558618546,0.464340567589,0.69746285677,0.0,0.0,0.409853309986,0.912151448112,1,doorway_assistance,0.899999976158,1449618233858235096,0,0
1449618234176911952,0,1449618228535631724,/odom,2.13356592116,0.0904922773713,0.0,0.0,0.0,0.409853309986,0.912151448112,0,1449618228535631724,/odom,3.12962671404,1.21203714802,0.0,0.0,0.0,0.409853309986,0.912151448112,0,1449618228535631724,/odom,2.46558618546,0.464340567589,0.69746285677,0.0,0.0,0.409853309986,0.912151448112,1,doorway_assistance,0.899999976158,1449618233858235096,0,0
1449618234232865673,0,1449618228535631724,/odom,2.13356592116,0.0904922773713,0.0,0.0,0.0,0.409853309986,0.912151448112,0,1449618228535631724,/odom,3.12962671404,1.21203714802,0.0,0.0,0.0,0.409853309986,0.912151448112,0,1449618228535631724,/odom,2.46558618546,0.464340567589,0.69746285677,0.0,0.0,0.409853309986,0.912151448112,1,doorway_assistance,0.899999976158,1449618233987981110,0,0
1449618234373647390,0,1449618228535631724,/odom,2.13356592116,0.0904922773713,0.0,0.0,0.0,0.409853309986,0.912151448112,0,1449618228535631724,/odom,3.12962671404,1.21203714802,0.0,0.0,0.0,0.409853309986,0.912151448112,0,1449618228535631724,/odom,2.46558618546,0.464340567589,0.69746285677,0.0,0.0,0.409853309986,0.912151448112,1,doorway_assistance,0.899999976158,1449618234151749933,0,0
1449618234452293619,0,1449618228535631724,/odom,2.13356592116,0.0904922773713,0.0,0.0,0.0,0.409853309986,0.912151448112,0,1449618228535631724,/odom,3.12962671404,1.21203714802,0.0,0.0,0.0,0.409853309986,0.912151448112,0,1449618228535631724,/odom,2.46558618546,0.464340567589,0.69746285677,0.0,0.0,0.409853309986,0.912151448112,1,doorway_assistance,0.899999976158,1449618234151749933,0,0
1449618234824491863,0,1449618228535631724,/odom,2.13356592116,0.0904922773713,0.0,0.0,0.0,0.409853309986,0.912151448112,0,1449618228535631724,/odom,3.12962671404,1.21203714802,0.0,0.0,0.0,0.409853309986,0.912151448112,0,1449618228535631724,/odom,2.46558618546,0.464340567589,0.69746285677,0.0,0.0,0.409853309986,0.912151448112,1,doorway_assistance,0.899999976158,1449618234245976688,0,0
1449618234848155935,0,1449618228535631724,/odom,2.13356592116,0.0904922773713,0.0,0.0,0.0,0.409853309986,0.912151448112,0,1449618228535631724,/odom,3.12962671404,1.21203714802,0.0,0.0,0.0,0.409853309986,0.912151448112,0,1449618228535631724,/odom,2.46558618546,0.464340567589,0.69746285677,0.0,0.0,0.409853309986,0.912151448112,1,doorway_assistance,0.899999976158,1449618234449339499,0,0
1449618234956375345,0,1449618228535631724,/odom,2.13356592116,0.0904922773713,0.0,0.0,0.0,0.409853309986,0.912151448112,0,1449618228535631724,/odom,3.12962671404,1.21203714802,0.0,0.0,0.0,0.409853309986,0.912151448112,0,1449618228535631724,/odom,2.46558618546,0.464340567589,0.69746285677,0.0,0.0,0.409853309986,0.912151448112,1,doorway_assistance,0.899999976158,1449618234449339499,0,0
1449618235049494693,0,1449618235036093616,/odom,3.08689796427,0.942958581482,0.0,0.0,0.0,0.509763798856,0.860314401469,0,1449618235036093616,/odom,3.08689796427,0.942958581482,0.0,0.0,0.0,0.509763798856,0.860314401469,0,user,1.0,0
1449618235177940185,0,1449618235167213572,/odom,3.23928418439,0.990732158279,0.0,0.0,0.0,0.44076927428,0.897620435847,0,1449618235167213572,/odom,3.23928418439,0.990732158279,0.0,0.0,0.0,0.44076927428,0.897620435847,0,user,1.0,0
1449618235232220289,0,1449618235229464234,/odom,3.27262760717,0.937718403425,0.0,0.0,0.0,0.375756130831,0.926718581956,0,1449618235229464234,/odom,3.27262760717,0.937718403425,0.0,0.0,0.0,0.375756130831,0.926718581956,0,user,1.0,0
1449618235327755547,0,1449618235323993353,/odom,3.26962217097,0.867329175579,0.0,0.0,0.0,0.309599282804,0.950867122203,0,1449618235323993353,/odom,3.26962217097,0.867329175579,0.0,0.0,0.0,0.309599282804,0.950867122203,0,user,1.0,0
1449618235462266256,0,1449618235435544309,/odom,3.30988620114,0.885291339644,0.0,0.0,0.0,0.290315995363,0.956930834928,0,1449618235435544309,/odom,3.30988620114,0.885291339644,0.0,0.0,0.0,0.290315995363,0.956930834928,0,user,1.0,0
1449618235548653326,0,1449618235538324324,/odom,3.33842976336,0.904338652254,0.0,0.0,0.0,0.287583828931,0.957755470534,0,1449618235538324324,/odom,3.33842976336,0.904338652254,0.0,0.0,0.0,0.287583828931,0.957755470534,0,user,1.0,0
1449618235629695653,0,1449618235625746561,/odom,3.3555350223,0.917972301581,0.0,0.0,0.0,0.28609044475,0.958202618147,0,1449618235625746561,/odom,3.3555350223,0.917972301581,0.0,0.0,0.0,0.28609044475,0.958202618147,0,user,1.0,0
1449618235733284543,0,1449618235725123467,/odom,3.37600221266,0.926387301284,0.0,0.0,0.0,0.277145584943,0.960827937118,0,1449618235725123467,/odom,3.37600221266,0.926387301284,0.0,0.0,0.0,0.277145584943,0.960827937118,0,user,1.0,0
1449618235827030888,0,1449618235824269403,/odom,3.39897758109,0.928100308621,0.0,0.0,0.0,0.259448414116,0.965756967571,0,1449618235824269403,/odom,3.39897758109,0.928100308621,0.0,0.0,0.0,0.259448414116,0.965756967571,0,user,1.0,0
1449618235949857692,0,1449618235930126818,/odom,3.42176876273,0.941887998738,0.0,0.0,0.0,0.253538558747,0.967325280983,0,1449618235930126818,/odom,3.42176876273,0.941887998738,0.0,0.0,0.0,0.253538558747,0.967325280983,0,user,1.0,0
1449618236034569950,0,1449618236026539704,/odom,3.44517018369,0.964549013273,0.0,0.0,0.0,0.255453668848,0.966821298417,0,1449618236026539704,/odom,3.44517018369,0.964549013273,0.0,0.0,0.0,0.255453668848,0.966821298417,0,user,1.0,0
1449618236140645220,0,1449618236126675405,/odom,3.45842392625,0.98149926739,0.0,0.0,0.0,0.25841482932,0.966034044942,0,1449618236126675405,/odom,3.45842392625,0.98149926739,0.0,0.0,0.0,0.25841482932,0.966034044942,0,user,1.0,0
1449618236239886640,0,1449618236229395118,/odom,3.48250175506,1.00274699085,0.0,0.0,0.0,0.257693117299,0.966226814623,0,1449618236229395118,/odom,3.48250175506,1.00274699085,0.0,0.0,0.0,0.257693117299,0.966226814623,0,user,1.0,0
1449618236330990871,0,1449618236324490086,/odom,3.50104571272,1.01654631686,0.0,0.0,0.0,0.25785296105,0.966184170062,0,1449618236324490086,/odom,3.50104571272,1.01654631686,0.0,0.0,0.0,0.25785296105,0.966184170062,0,user,1.0,0
1449618236432016458,0,1449618236427636819,/odom,3.52346470033,1.04011336496,0.0,0.0,0.0,0.260244664573,0.96554270468,0,1449618236427636819,/odom,3.52346470033,1.04011336496,0.0,0.0,0.0,0.260244664573,0.96554270468,0,user,1.0,0
1449618236531069708,0,1449618236524354085,/odom,3.54242767142,1.05313631784,0.0,0.0,0.0,0.25907820266,0.965856347966,0,1449618236524354085,/odom,3.54242767142,1.05313631784,0.0,0.0,0.0,0.25907820266,0.965856347966,0,user,1.0,0
1449618236626426980,0,1449618236623695439,/odom,3.56382400709,1.07811173366,0.0,0.0,0.0,0.263054981937,0.964780843756,0,1449618236623695439,/odom,3.56382400709,1.07811173366,0.0,0.0,0.0,0.263054981937,0.964780843756,0,user,1.0,0
1449618236732029686,0,1449618236725476221,/odom,3.58447883318,1.08333885542,0.0,0.0,0.0,0.257562568311,0.966261622649,0,1449618236725476221,/odom,3.58447883318,1.08333885542,0.0,0.0,0.0,0.257562568311,0.966261622649,0,user,1.0,0
1449618236830241442,0,1449618236824271242,/odom,3.60554157461,1.10882168463,0.0,0.0,0.0,0.262186195957,0.965017304845,0,1449618236824271242,/odom,3.60554157461,1.10882168463,0.0,0.0,0.0,0.262186195957,0.965017304845,0,user,1.0,0
1449618236948148407,0,1449618236936567377,/odom,3.62540685715,1.1222871977,0.0,0.0,0.0,0.265171554513,0.964201248017,0,1449618236936567377,/odom,3.62540685715,1.1222871977,0.0,0.0,0.0,0.265171554513,0.964201248017,0,user,1.0,0
1449618237041653147,0,1449618237037764772,/odom,3.64235030744,1.15088263912,0.0,0.0,0.0,0.275331726879,0.961349281049,0,1449618237037764772,/odom,3.64235030744,1.15088263912,0.0,0.0,0.0,0.275331726879,0.961349281049,0,user,1.0,0
1449618237140240124,0,1449618237127919560,/odom,3.66434086459,1.16320401017,0.0,0.0,0.0,0.275571196547,0.96128066434,0,1449618237127919560,/odom,3.66434086459,1.16320401017,0.0,0.0,0.0,0.275571196547,0.96128066434,0,user,1.0,0
1449618237246382437,0,1449618237237303060,/odom,3.69018070903,1.18583834826,0.0,0.0,0.0,0.278311139151,0.960490973318,0,1449618237237303060,/odom,3.69018070903,1.18583834826,0.0,0.0,0.0,0.278311139151,0.960490973318,0,user,1.0,0
1449618237332375867,0,1449618237328613026,/odom,3.70071877755,1.20556852045,0.0,0.0,0.0,0.284897689105,0.958557930823,0,1449618237328613026,/odom,3.70071877755,1.20556852045,0.0,0.0,0.0,0.284897689105,0.958557930823,0,user,1.0,0
1449618237449117519,0,1449618237434408433,/odom,3.72736830095,1.22733213887,0.0,0.0,0.0,0.286330508228,0.958130909666,0,1449618237434408433,/odom,3.72736830095,1.22733213887,0.0,0.0,0.0,0.286330508228,0.958130909666,0,user,1.0,0
1449618237534265048,0,1449618237529615974,/odom,3.75830878443,1.24837864699,0.0,0.0,0.0,0.288691399602,0.957422203521,0,1449618237529615974,/odom,3.75830878443,1.24837864699,0.0,0.0,0.0,0.288691399602,0.957422203521,0,user,1.0,0
1449618237629663697,0,1449618237626129955,/odom,3.77992309607,1.26507897169,0.0,0.0,0.0,0.289054799271,0.957312552419,0,1449618237626129955,/odom,3.77992309607,1.26507897169,0.0,0.0,0.0,0.289054799271,0.957312552419,0,user,1.0,0
1449618237735511988,0,1449618237724541899,/odom,3.79567392949,1.27721444025,0.0,0.0,0.0,0.289422896074,0.957201330561,0,1449618237724541899,/odom,3.79567392949,1.27721444025,0.0,0.0,0.0,0.289422896074,0.957201330561,0,user,1.0,0
1449618237836718745,0,1449618237827031849,/odom,3.82355791966,1.30186977279,0.0,0.0,0.0,0.292921749311,0.956136417453,0,1449618237827031849,/odom,3.82355791966,1.30186977279,0.0,0.0,0.0,0.292921749311,0.956136417453,0,user,1.0,0
1449618237944795255,0,1449618237925381150,/odom,3.84559072298,1.30710349144,0.0,0.0,0.0,0.286952683792,0.957944756896,0,1449618237925381150,/odom,3.84559072298,1.30710349144,0.0,0.0,0.0,0.286952683792,0.957944756896,0,user,1.0,0
1449618238034920923,0,1449618238028690323,/odom,3.86731860205,1.33260721122,0.0,0.0,0.0,0.291227909057,0.956653701705,0,1449618238028690323,/odom,3.86731860205,1.33260721122,0.0,0.0,0.0,0.291227909057,0.956653701705,0,user,1.0,0
1449618238129540491,0,1449618238125170366,/odom,3.88780807932,1.34048460936,0.0,0.0,0.0,0.288480329887,0.957485821967,0,1449618238125170366,/odom,3.88780807932,1.34048460936,0.0,0.0,0.0,0.288480329887,0.957485821967,0,user,1.0,0
1449618238236415710,0,1449618238230337356,/odom,3.90985111062,1.3685445134,0.0,0.0,0.0,0.29499119262,0.955499971887,0,1449618238230337356,/odom,3.90985111062,1.3685445134,0.0,0.0,0.0,0.29499119262,0.955499971887,0,user,1.0,0
1449618238337071517,0,1449618238325495348,/odom,3.93128704582,1.37499126495,0.0,0.0,0.0,0.290560709084,0.956856558914,0,1449618238325495348,/odom,3.93128704582,1.37499126495,0.0,0.0,0.0,0.290560709084,0.956856558914,0,user,1.0,0
1449618238458740839,0,1449618238429677263,/odom,3.95634335711,1.3940228583,0.0,0.0,0.0,0.29093306999,0.956743408018,0,1449618238429677263,/odom,3.95634335711,1.3940228583,0.0,0.0,0.0,0.29093306999,0.956743408018,0,user,1.0,0
1449618238564059011,0,1449618238554033906,/odom,3.97851080533,1.41599349839,0.0,0.0,0.0,0.296262621432,0.955106517171,0,1449618238554033906,/odom,3.97851080533,1.41599349839,0.0,0.0,0.0,0.296262621432,0.955106517171,0,user,1.0,0
1449618238646346498,0,1449618238637265347,/odom,3.9871983789,1.44023646357,0.0,0.0,0.0,0.308521822577,0.951217264874,0,1449618238637265347,/odom,3.9871983789,1.44023646357,0.0,0.0,0.0,0.308521822577,0.951217264874,0,user,1.0,0
1449618238753628946,0,1449618238729247671,/odom,3.92819571086,1.49753514241,0.0,0.0,0.0,0.403204618315,0.915109849018,0,1449618238729247671,/odom,3.92819571086,1.49753514241,0.0,0.0,0.0,0.403204618315,0.915109849018,0,user,1.0,0
1449618238831405195,0,1449618238826717543,/odom,3.84500340988,1.55320785676,0.0,0.0,0.0,0.524852666965,0.851193090891,0,1449618238826717543,/odom,3.84500340988,1.55320785676,0.0,0.0,0.0,0.524852666965,0.851193090891,0,user,1.0,0
1449618238929050744,0,1449618238925087369,/odom,3.81954901224,1.57529385067,0.0,0.0,0.0,0.56528307759,0.824896988836,0,1449618238925087369,/odom,3.81954901224,1.57529385067,0.0,0.0,0.0,0.56528307759,0.824896988836,0,user,1.0,0
1449618239036383517,0,1449618239027285923,/odom,3.87179532849,1.58549039339,0.0,0.0,0.0,0.532582668132,0.846377989793,0,1449618239027285923,/odom,3.87179532849,1.58549039339,0.0,0.0,0.0,0.532582668132,0.846377989793,0,user,1.0,0
1449618239136761783,0,1449618239127058132,/odom,3.90609635258,1.5898616889,0.0,0.0,0.0,0.505787361416,0.862658185513,0,1449618239127058132,/odom,3.90609635258,1.5898616889,0.0,0.0,0.0,0.505787361416,0.862658185513,0,user,1.0,0
1449618239235492072,0,1449618239224682070,/odom,3.9890574873,1.57743923385,0.0,0.0,0.0,0.431671018632,0.902031114581,0,1449618239224682070,/odom,3.9890574873,1.57743923385,0.0,0.0,0.0,0.431671018632,0.902031114581,0,user,1.0,0
1449618239331771942,0,1449618239325836702,/odom,4.01661722593,1.58686296483,0.0,0.0,0.0,0.416028302318,0.909351665568,0,1449618239325836702,/odom,4.01661722593,1.58686296483,0.0,0.0,0.0,0.416028302318,0.909351665568,0,user,1.0,0
1449618239440354049,0,1449618239432016648,/odom,4.05583496551,1.59584433316,0.0,0.0,0.0,0.395890464494,0.918297740454,0,1449618239432016648,/odom,4.05583496551,1.59584433316,0.0,0.0,0.0,0.395890464494,0.918297740454,0,user,1.0,0
1449618239526478852,0,1449618239523388703,/odom,4.08432822526,1.59803752636,0.0,0.0,0.0,0.377331561517,0.926078232485,0,1449618239523388703,/odom,4.08432822526,1.59803752636,0.0,0.0,0.0,0.377331561517,0.926078232485,0,user,1.0,0
1449618239635193403,0,1449618239623216992,/odom,4.10132431784,1.62488528247,0.0,0.0,0.0,0.380698519766,0.924699214365,0,1449618239623216992,/odom,4.10132431784,1.62488528247,0.0,0.0,0.0,0.380698519766,0.924699214365,0,user,1.0,0
1449618239739348984,0,1449618239734473277,/odom,4.11724989863,1.6343621557,0.0,0.0,0.0,0.377495910419,0.926011251345,0,1449618239734473277,/odom,4.11724989863,1.6343621557,0.0,0.0,0.0,0.377495910419,0.926011251345,0,user,1.0,0
1449618239856708795,0,1449618239830151363,/odom,4.13924779176,1.65887203659,0.0,0.0,0.0,0.378581773663,0.925567847675,0,1449618239830151363,/odom,4.13924779176,1.65887203659,0.0,0.0,0.0,0.378581773663,0.925567847675,0,user,1.0,0
1449618239948722342,0,1449618239929525087,/odom,4.16085335475,1.6747218912,0.0,0.0,0.0,0.376570673614,0.926387892718,0,1449618239929525087,/odom,4.16085335475,1.6747218912,0.0,0.0,0.0,0.376570673614,0.926387892718,0,user,1.0,0
1449618240056995640,0,1449618240050074181,/odom,4.17488413273,1.68604501595,0.0,0.0,0.0,0.376163818124,0.926553172751,0,1449618240050074181,/odom,4.17488413273,1.68604501595,0.0,0.0,0.0,0.376163818124,0.926553172751,0,user,1.0,0
1449618240127850489,0,1449618240124647682,/odom,4.19407243604,1.70136409442,0.0,0.0,0.0,0.375342773956,0.926886078242,0,1449618240124647682,/odom,4.19407243604,1.70136409442,0.0,0.0,0.0,0.375342773956,0.926886078242,0,user,1.0,0
1449618240229147683,0,1449618240223678017,/odom,4.18847159233,1.71724061562,0.0,0.0,0.0,0.38460811974,0.923079950075,0,1449618240223678017,/odom,4.18847159233,1.71724061562,0.0,0.0,0.0,0.38460811974,0.923079950075,0,user,1.0,0
1449618240338023921,0,1449618240328028703,/odom,4.20618286595,1.73243355435,0.0,0.0,0.0,0.384447600767,0.923146815119,0,1449618240328028703,/odom,4.20618286595,1.73243355435,0.0,0.0,0.0,0.384447600767,0.923146815119,0,user,1.0,0
1449618240431380299,0,1449618240425605541,/odom,4.21556769978,1.74020059497,0.0,0.0,0.0,0.384295884219,0.923209983358,0,1449618240425605541,/odom,4.21556769978,1.74020059497,0.0,0.0,0.0,0.384295884219,0.923209983358,0,user,1.0,0
1449618240544441537,0,1449618240540569016,/odom,4.22980686465,1.75279437165,0.0,0.0,0.0,0.384237212167,0.923234404031,0,1449618240540569016,/odom,4.22980686465,1.75279437165,0.0,0.0,0.0,0.384237212167,0.923234404031,0,user,1.0,0
1449618240642464389,0,1449618240635428107,/odom,4.23707709943,1.7698027227,0.0,0.0,0.0,0.389058739173,0.921212949037,0,1449618240635428107,/odom,4.23707709943,1.7698027227,0.0,0.0,0.0,0.389058739173,0.921212949037,0,user,1.0,0
1449618240747224641,0,1449618240731081812,/odom,4.24092933201,1.78390185622,0.0,0.0,0.0,0.39389178273,0.919156822037,0,1449618240731081812,/odom,4.24092933201,1.78390185622,0.0,0.0,0.0,0.39389178273,0.919156822037,0,user,1.0,0
1449618240848041490,0,1449618240825218980,/odom,4.25452102585,1.79241260432,0.0,0.0,0.0,0.390731119431,0.920504857297,0,1449618240825218980,/odom,4.25452102585,1.79241260432,0.0,0.0,0.0,0.390731119431,0.920504857297,0,user,1.0,0
1449618240938175204,0,1449618240927168380,/odom,4.26083435027,1.81009718077,0.0,0.0,0.0,0.396334564453,0.918106155638,0,1449618240927168380,/odom,4.26083435027,1.81009718077,0.0,0.0,0.0,0.396334564453,0.918106155638,0,user,1.0,0
1449618241029884908,0,1449618241026385675,/odom,4.27543336714,1.82495017547,0.0,0.0,0.0,0.397542221392,0.917583882929,0,1449618241026385675,/odom,4.27543336714,1.82495017547,0.0,0.0,0.0,0.397542221392,0.917583882929,0,user,1.0,0
1449618241128263163,0,1449618241124615228,/odom,4.29012244725,1.83925100221,0.0,0.0,0.0,0.397905237382,0.917426521343,0,1449618241124615228,/odom,4.29012244725,1.83925100221,0.0,0.0,0.0,0.397905237382,0.917426521343,0,user,1.0,0
1449618241240908900,0,1449618241228799389,/odom,4.27828508903,1.86071119668,0.0,0.0,0.0,0.420636495862,0.907229264491,0,1449618241228799389,/odom,4.27828508903,1.86071119668,0.0,0.0,0.0,0.420636495862,0.907229264491,0,user,1.0,0
1449618241327533944,0,1449618241324720792,/odom,4.27921503421,1.88845451354,0.0,0.0,0.0,0.44291451661,0.89656384657,0,1449618241324720792,/odom,4.27921503421,1.88845451354,0.0,0.0,0.0,0.44291451661,0.89656384657,0,user,1.0,0
1449618241441321649,0,1449618241435392379,/odom,4.23907614364,1.91409272207,0.0,0.0,0.0,0.497669072056,0.867366989641,0,1449618241435392379,/odom,4.23907614364,1.91409272207,0.0,0.0,0.0,0.497669072056,0.867366989641,0,user,1.0,0
1449618241546375923,0,1449618241534028227,/odom,4.24291990821,1.94366681209,0.0,0.0,0.0,0.515668736554,0.85678804505,0,1449618241534028227,/odom,4.24291990821,1.94366681209,0.0,0.0,0.0,0.515668736554,0.85678804505,0,user,1.0,0
1449618241633332131,0,1449618241630242303,/odom,4.24810749381,1.97655665771,0.0,0.0,0.0,0.534225823001,0.845341806631,0,1449618241630242303,/odom,4.24810749381,1.97655665771,0.0,0.0,0.0,0.534225823001,0.845341806631,0,user,1.0,0
1449618241727140920,0,1449618241723879606,/odom,4.25706670019,1.99671314772,0.0,0.0,0.0,0.543266805303,0.839560109972,0,1449618241723879606,/odom,4.25706670019,1.99671314772,0.0,0.0,0.0,0.543266805303,0.839560109972,0,user,1.0,0
1449618241831934472,0,1449618241827408701,/odom,4.25715896204,2.01195954075,0.0,0.0,0.0,0.552942815864,0.833219204282,0,1449618241827408701,/odom,4.25715896204,2.01195954075,0.0,0.0,0.0,0.552942815864,0.833219204282,0,user,1.0,0
1449618241928635075,0,1449618241924591364,/odom,4.27715405651,2.03441129121,0.0,0.0,0.0,0.554282591176,0.83232854638,0,1449618241924591364,/odom,4.27715405651,2.03441129121,0.0,0.0,0.0,0.554282591176,0.83232854638,0,user,1.0,0
1449618242044259677,0,1449618242038925614,/odom,4.2819286448,2.05713054755,0.0,0.0,0.0,0.563756269151,0.825941201898,0,1449618242038925614,/odom,4.2819286448,2.05713054755,0.0,0.0,0.0,0.563756269151,0.825941201898,0,user,1.0,0
1449618242143757576,0,1449618242130749222,/odom,4.28653893028,2.05290989145,0.0,0.0,0.0,0.560720272821,0.828005299287,0,1449618242130749222,/odom,4.28653893028,2.05290989145,0.0,0.0,0.0,0.560720272821,0.828005299287,0,user,1.0,0
1449618242235286850,0,1449618242227052328,/odom,4.30299924341,2.09066940656,0.0,0.0,0.0,0.570375147296,0.821384314037,0,1449618242227052328,/odom,4.30299924341,2.09066940656,0.0,0.0,0.0,0.570375147296,0.821384314037,0,user,1.0,0
1449618242333622604,0,1449618242328489019,/odom,4.3105252058,2.11275581017,0.0,0.0,0.0,0.576391056888,0.817174001997,0,1449618242328489019,/odom,4.3105252058,2.11275581017,0.0,0.0,0.0,0.576391056888,0.817174001997,0,user,1.0,0
1449618242454703792,0,1449618242425366043,/odom,4.32749102017,2.14681409836,0.0,0.0,0.0,0.582257662362,0.813004314023,0,1449618242425366043,/odom,4.32749102017,2.14681409836,0.0,0.0,0.0,0.582257662362,0.813004314023,0,user,1.0,0
1449618242548392402,0,1449618242538080203,/odom,4.33843925584,2.17072908997,0.0,0.0,0.0,0.585340031112,0.810787918002,0,1449618242538080203,/odom,4.33843925584,2.17072908997,0.0,0.0,0.0,0.585340031112,0.810787918002,0,user,1.0,0
1449618242650482171,0,1449618242644540680,/odom,4.33574076208,2.15579237953,0.0,0.0,0.0,0.582407218135,0.812897184313,0,1449618242644540680,/odom,4.33574076208,2.15579237953,0.0,0.0,0.0,0.582407218135,0.812897184313,0,user,1.0,0
1449618242745759815,0,1449618242733125560,/odom,4.34692798045,2.19028364542,0.0,0.0,0.0,0.590571085321,0.806985621423,0,1449618242733125560,/odom,4.34692798045,2.19028364542,0.0,0.0,0.0,0.590571085321,0.806985621423,0,user,1.0,0
