%time,field.header.seq,field.header.stamp,field.header.frame_id,field.ns,field.id,field.type,field.action,field.pose.position.x,field.pose.position.y,field.pose.position.z,field.pose.orientation.x,field.pose.orientation.y,field.pose.orientation.z,field.pose.orientation.w,field.scale.x,field.scale.y,field.scale.z,field.color.r,field.color.g,field.color.b,field.color.a,field.lifetime,field.frame_locked,field.text,field.mesh_resource,field.mesh_use_embedded_materials
1449618223070266990,0,0,/odom,bcmd_vector,0,0,0,3.21622838287e-07,-6.08664578733e-05,0.0,0.0,0.0,0.00135015521941,0.99999908854,0.0119448090781,0.05,0.05,0.0,1.0,0.0,1.0,0,0,,,0
1449618223100603947,1,0,/odom,bcmd_vector,0,0,0,3.21622838287e-07,-6.08664578733e-05,0.0,0.0,0.0,0.00135015521941,0.99999908854,0.0119448090781,0.05,0.05,0.0,1.0,0.0,1.0,0,0,,,0
1449618223199085123,2,0,/odom,bcmd_vector,0,0,0,3.21622838287e-07,-6.08664578733e-05,0.0,0.0,0.0,0.000933876027338,0.999999563938,0.0172320893719,0.05,0.05,0.0,1.0,0.0,1.0,0,0,,,0
1449618223209658155,3,0,/odom,bcmd_vector,0,0,0,3.21622838287e-07,-6.08664578733e-05,0.0,0.0,0.0,0.00130742625584,0.999999145318,0.0172320893719,0.05,0.05,0.0,1.0,0.0,1.0,0,0,,,0
1449618223229023261,4,0,/odom,bcmd_vector,0,0,0,3.21622838287e-07,-6.08664578733e-05,0.0,0.0,0.0,0.00130742625584,0.999999145318,0.192853297575,0.05,0.05,0.0,1.0,0.0,1.0,0,0,,,0
1449618223316314948,5,0,/odom,bcmd_vector,0,0,0,3.21622838287e-07,-6.08664578733e-05,0.0,0.0,0.0,0.00130742625584,0.999999145318,0.192853297575,0.05,0.05,0.0,1.0,0.0,1.0,0,0,,,0
1449618223365508196,6,0,/odom,bcmd_vector,0,0,0,3.21622838287e-07,-6.08664578733e-05,0.0,0.0,0.0,0.00152692108049,0.999998834255,0.193335967649,0.05,0.05,0.0,1.0,0.0,1.0,0,0,,,0
1449618223394247406,7,0,/odom,bcmd_vector,0,0,0,3.21622838287e-07,-6.08664578733e-05,0.0,0.0,0.0,0.00152692108049,0.999998834255,0.171449883948,0.05,0.05,0.0,1.0,0.0,1.0,0,0,,,0
1449618223424276458,8,0,/odom,bcmd_vector,0,0,0,3.21622838287e-07,-6.08664578733e-05,0.0,0.0,0.0,0.00152692108049,0.999998834255,0.187864449292,0.05,0.05,0.0,1.0,0.0,1.0,0,0,,,0
1449618223517141297,9,0,/odom,bcmd_vector,0,0,0,3.21622838287e-07,-6.08664578733e-05,0.0,0.0,0.0,0.00152692108049,0.999998834255,0.187864449292,0.05,0.05,0.0,1.0,0.0,1.0,0,0,,,0
1449618223539458485,10,0,/odom,bcmd_vector,0,0,0,3.21622838287e-07,-6.08664578733e-05,0.0,0.0,0.0,0.00149299352795,0.999998885485,0.187787269797,0.05,0.05,0.0,1.0,0.0,1.0,0,0,,,0
1449618223568197376,11,0,/odom,bcmd_vector,0,0,0,3.21622838287e-07,-6.08664578733e-05,0.0,0.0,0.0,0.00149299352795,0.999998885485,0.193261360804,0.05,0.05,0.0,1.0,0.0,1.0,0,0,,,0
1449618223612976389,12,0,/odom,bcmd_vector,0,0,0,3.21622838287e-07,-6.08664578733e-05,0.0,0.0,0.0,0.00149299352795,0.999998885485,0.176839077505,0.05,0.05,0.0,1.0,0.0,1.0,0,0,,,0
1449618223681042870,13,0,/odom,bcmd_vector,0,0,0,3.21622838287e-07,-6.08664578733e-05,0.0,0.0,0.0,0.00149299352795,0.999998885485,0.176839077505,0.05,0.05,0.0,1.0,0.0,1.0,0,0,,,0
1449618223705051371,14,0,/odom,bcmd_vector,0,0,0,3.21622838287e-07,-6.08664578733e-05,0.0,0.0,0.0,0.00152894136188,0.999998831168,0.176926304494,0.05,0.05,0.0,1.0,0.0,1.0,0,0,,,0
1449618223730656282,15,0,/odom,bcmd_vector,0,0,0,3.21622838287e-07,-6.08664578733e-05,0.0,0.0,0.0,0.00152894136188,0.999998831168,0.193340410257,0.05,0.05,0.0,1.0,0.0,1.0,0,0,,,0
1449618223779301161,16,0,/odom,bcmd_vector,0,0,0,3.21622838287e-07,-6.08664578733e-05,0.0,0.0,0.0,0.00152894136188,0.999998831168,0.193340410257,0.05,0.05,0.0,1.0,0.0,1.0,0,0,,,0
1449618223840951610,17,0,/odom,bcmd_vector,0,0,0,3.21622838287e-07,-6.08664578733e-05,0.0,0.0,0.0,0.00152894136188,0.999998831168,0.193340410257,0.05,0.05,0.0,1.0,0.0,1.0,0,0,,,0
1449618223858592937,18,0,/odom,bcmd_vector,0,0,0,3.21622838287e-07,-6.08664578733e-05,0.0,0.0,0.0,0.00152894136188,0.999998831168,0.193340410257,0.05,0.05,0.0,1.0,0.0,1.0,0,0,,,0
1449618223886174821,19,0,/odom,bcmd_vector,0,0,0,3.21622838287e-07,-6.08664578733e-05,0.0,0.0,0.0,0.00152894136188,0.999998831168,0.176926304494,0.05,0.05,0.0,1.0,0.0,1.0,0,0,,,0
1449618223927665011,20,0,/odom,bcmd_vector,0,0,0,3.21622838287e-07,-6.08664578733e-05,0.0,0.0,0.0,0.00152894136188,0.999998831168,0.176926304494,0.05,0.05,0.0,1.0,0.0,1.0,0,0,,,0
1449618223962674375,21,0,/odom,bcmd_vector,0,0,0,3.21622838287e-07,-6.08664578733e-05,0.0,0.0,0.0,0.00148705565708,0.999998894332,0.176824669333,0.05,0.05,0.0,1.0,0.0,1.0,0,0,,,0
1449618224027772400,22,0,/odom,bcmd_vector,0,0,0,3.21622838287e-07,-6.08664578733e-05,0.0,0.0,0.0,0.00148705565708,0.999998894332,0.176824669333,0.05,0.05,0.0,1.0,0.0,1.0,0,0,,,0
1449618224045568315,23,0,/odom,bcmd_vector,0,0,0,3.21622838287e-07,-6.08664578733e-05,0.0,0.0,0.0,0.00148705565708,0.999998894332,0.193248303398,0.05,0.05,0.0,1.0,0.0,1.0,0,0,,,0
1449618224084899250,24,0,/odom,bcmd_vector,0,0,0,0.00287995407721,-9.129968681e-05,0.0,0.0,0.0,-0.00378459584297,0.999992838392,0.193275490229,0.05,0.05,0.0,1.0,0.0,1.0,0,0,,,0
1449618224310140328,25,0,/odom,bcmd_vector,0,0,0,0.00287995407721,-9.129968681e-05,0.0,0.0,0.0,-0.00376981274169,0.999992894231,0.193307998533,0.05,0.05,0.0,1.0,0.0,1.0,0,0,,,0
1449618224318236225,26,0,/odom,bcmd_vector,0,0,0,0.00863937979737,-0.000121732915747,0.0,0.0,0.0,-0.00374451984606,0.999992989261,0.193363618057,0.05,0.05,0.0,1.0,0.0,1.0,0,0,,,0
1449618224378699581,27,0,/odom,bcmd_vector,0,0,0,0.00863937979737,-0.000121732915747,0.0,0.0,0.0,-0.00374451984606,0.999992989261,0.193363618057,0.05,0.05,0.0,1.0,0.0,1.0,0,0,,,0
1449618224447590554,28,0,/odom,bcmd_vector,0,0,0,0.0115185298354,-0.000182595974757,0.0,0.0,0.0,-0.00901566787449,0.999959358041,0.193391683752,0.05,0.05,0.0,1.0,0.0,1.0,0,0,,,0
1449618224513035538,29,0,/odom,bcmd_vector,0,0,0,0.0172773123279,-0.000273892262705,0.0,0.0,0.0,-0.00912654175499,0.999958352251,0.19314786182,0.05,0.05,0.0,1.0,0.0,1.0,0,0,,,0
1449618224555172672,30,0,/odom,bcmd_vector,0,0,0,0.023035612404,-0.000395618380726,0.0,0.0,0.0,-0.00952120961358,0.999954672256,0.17677205606,0.05,0.05,0.0,1.0,0.0,1.0,0,0,,,0
1449618224594670020,31,0,/odom,bcmd_vector,0,0,0,0.023035612404,-0.000395618380726,0.0,0.0,0.0,-0.00952120961358,0.999954672256,0.17677205606,0.05,0.05,0.0,1.0,0.0,1.0,0,0,,,0
1449618224636249433,32,0,/odom,bcmd_vector,0,0,0,0.0259139584748,-0.000486904472466,0.0,0.0,0.0,-0.0147297369969,0.999891511539,0.193431850725,0.05,0.05,0.0,1.0,0.0,1.0,0,0,,,0
1449618224676576820,33,0,/odom,bcmd_vector,0,0,0,0.0259139584748,-0.000486904472466,0.0,0.0,0.0,-0.0147297369969,0.999891511539,0.193431850725,0.05,0.05,0.0,1.0,0.0,1.0,0,0,,,0
1449618224709936260,34,0,/odom,bcmd_vector,0,0,0,0.0259139584748,-0.000486904472466,0.0,0.0,0.0,-0.0142810628765,0.999898020422,0.193431850725,0.05,0.05,0.0,1.0,0.0,1.0,0,0,,,0
1449618224821397000,35,0,/odom,bcmd_vector,0,0,0,0.0316706506164,-0.000669476655944,0.0,0.0,0.0,-0.0142570371219,0.999898363281,0.19348468879,0.05,0.05,0.0,1.0,0.0,1.0,0,0,,,0
1449618224848303675,36,0,/odom,bcmd_vector,0,0,0,0.0403045634002,-0.000973747768822,0.0,0.0,0.0,-0.0195005219579,0.999809846743,0.1935721792,0.05,0.05,0.0,1.0,0.0,1.0,0,0,,,0
1449618224941323829,37,0,/odom,bcmd_vector,0,0,0,0.0403045634002,-0.000973747768822,0.0,0.0,0.0,-0.0199673851028,0.999800631892,0.177182049549,0.05,0.05,0.0,1.0,0.0,1.0,0,0,,,0
1449618224976299667,38,0,/odom,bcmd_vector,0,0,0,0.0489347785629,-0.00136924380302,0.0,0.0,0.0,-0.0221976302198,0.99975360225,0.346540875789,0.05,0.05,0.0,1.0,0.0,1.0,0,0,,,0
1449618225069173370,39,0,/odom,bcmd_vector,0,0,0,0.0518087845032,-0.00155172423771,0.0,0.0,0.0,-0.0150467361304,0.999886791458,0.341073680483,0.05,0.05,0.0,1.0,0.0,1.0,0,0,,,0
1449618225121059058,40,0,/odom,bcmd_vector,0,0,0,0.0575585643217,-0.0018863028478,0.0,0.0,0.0,-0.0150867673829,0.999886188248,0.341061509601,0.05,0.05,0.0,1.0,0.0,1.0,0,0,,,0
1449618225169660954,41,0,/odom,bcmd_vector,0,0,0,0.066178493228,-0.00246410603125,0.0,0.0,0.0,0.132026962826,0.991246125383,0.297295575737,0.05,0.05,0.0,1.0,0.0,1.0,0,0,,,0
1449618225207796423,42,0,/odom,bcmd_vector,0,0,0,0.0690524991683,-0.00264658646594,0.0,0.0,0.0,0.137246399635,0.990536938124,0.297305077058,0.05,0.05,0.0,1.0,0.0,1.0,0,0,,,0
1449618225231228463,43,0,/odom,bcmd_vector,0,0,0,0.0719244161941,-0.00285942878001,0.0,0.0,0.0,0.131727019688,0.991286029501,0.302922686958,0.05,0.05,0.0,1.0,0.0,1.0,0,0,,,0
1449618225339636224,44,0,/odom,bcmd_vector,0,0,0,0.0719244161941,-0.00285942878001,0.0,0.0,0.0,0.132224352882,0.991219814423,0.302922686958,0.05,0.05,0.0,1.0,0.0,1.0,0,0,,,0
1449618225376219982,45,0,/odom,bcmd_vector,0,0,0,0.0834141732117,-0.00368043615693,0.0,0.0,0.0,0.131651045884,0.991296122315,0.302962115939,0.05,0.05,0.0,1.0,0.0,1.0,0,0,,,0
1449618225425759531,46,0,/odom,bcmd_vector,0,0,0,0.0891580072633,-0.00410612078509,0.0,0.0,0.0,0.129065588343,0.9916360592,0.297534757241,0.05,0.05,0.0,1.0,0.0,1.0,0,0,,,0
1449618225509689782,47,0,/odom,bcmd_vector,0,0,0,0.0920320132035,-0.00428860121978,0.0,0.0,0.0,0.134233224517,0.990949767362,0.297588724608,0.05,0.05,0.0,1.0,0.0,1.0,0,0,,,0
1449618225564496257,48,0,/odom,bcmd_vector,0,0,0,0.100655477986,-0.00480563988466,0.0,0.0,0.0,0.139420826615,0.990233221573,0.297624568531,0.05,0.05,0.0,1.0,0.0,1.0,0,0,,,0
1449618225587963211,49,0,/odom,bcmd_vector,0,0,0,0.109284246385,-0.00523153516487,0.0,0.0,0.0,0.147120469813,0.989118581042,0.297643814283,0.05,0.05,0.0,1.0,0.0,1.0,0,0,,,0
1449618225647896991,50,0,/odom,bcmd_vector,0,0,0,0.109284246385,-0.00523153516487,0.0,0.0,0.0,0.144064397518,0.989568314654,0.303080432855,0.05,0.05,0.0,1.0,0.0,1.0,0,0,,,0
1449618225689135109,51,0,/odom,bcmd_vector,0,0,0,0.123673725881,-0.00574879129888,0.0,0.0,0.0,0.149186273797,0.988809109844,0.303136892278,0.05,0.05,0.0,1.0,0.0,1.0,0,0,,,0
1449618225778909898,52,0,/odom,bcmd_vector,0,0,0,0.126552875919,-0.00580965435789,0.0,0.0,0.0,0.0531875719646,0.99858453933,0.330293774081,0.05,0.05,0.0,1.0,0.0,1.0,0,0,,,0
1449618225815191153,53,0,/odom,bcmd_vector,0,0,0,0.140951359814,-0.00571835467108,0.0,0.0,0.0,0.0690219370365,0.997615142331,0.330320316501,0.05,0.05,0.0,1.0,0.0,1.0,0,0,,,0
1449618225830196270,54,0,/odom,bcmd_vector,0,0,0,0.146708051956,-0.0055357824876,0.0,0.0,0.0,0.0211404170111,0.999776516412,0.314072239683,0.05,0.05,0.0,1.0,0.0,1.0,0,0,,,0
1449618225933899277,55,0,/odom,bcmd_vector,0,0,0,0.146708051956,-0.0055357824876,0.0,0.0,0.0,0.0212148469442,0.999774939809,0.314113534626,0.05,0.05,0.0,1.0,0.0,1.0,0,0,,,0
1449618225950567819,56,0,/odom,bcmd_vector,0,0,0,0.169710869569,-0.00428870654504,0.0,0.0,0.0,0.0424894368337,0.999096916099,0.314196569772,0.05,0.05,0.0,1.0,0.0,1.0,0,0,,,0
1449618226040513263,57,0,/odom,bcmd_vector,0,0,0,0.169710869569,-0.00428870654504,0.0,0.0,0.0,0.0363556738478,0.999338913972,0.346608081396,0.05,0.05,0.0,1.0,0.0,1.0,0,0,,,0
1449618226060083391,58,0,/odom,bcmd_vector,0,0,0,0.19548249377,-0.0015549708587,0.0,0.0,0.0,0.0630173383602,0.99801243232,0.30895476357,0.05,0.05,0.0,1.0,0.0,1.0,0,0,,,0
1449618226108044471,59,0,/odom,bcmd_vector,0,0,0,0.19548249377,-0.0015549708587,0.0,0.0,0.0,0.0614724938952,0.998108777887,0.346628095446,0.05,0.05,0.0,1.0,0.0,1.0,0,0,,,0
1449618226153697973,60,0,/odom,bcmd_vector,0,0,0,0.204040469578,-0.000371783069764,0.0,0.0,0.0,0.0667776743121,0.997767879927,0.346633256731,0.05,0.05,0.0,1.0,0.0,1.0,0,0,,,0
1449618226238727718,61,0,/odom,bcmd_vector,0,0,0,0.215415213841,0.00144660660465,0.0,0.0,0.0,0.0773621182883,0.997003060504,0.346640337263,0.05,0.05,0.0,1.0,0.0,1.0,0,0,,,0
1449618226275038803,62,0,/odom,bcmd_vector,0,0,0,0.240919899207,0.00604771627477,0.0,0.0,0.0,0.092884437649,0.995676896007,0.346639343837,0.05,0.05,0.0,1.0,0.0,1.0,0,0,,,0
1449618226347766824,63,0,/odom,bcmd_vector,0,0,0,0.246551313631,0.00725602442954,0.0,0.0,0.0,0.103419314981,0.994637846298,0.346642951209,0.05,0.05,0.0,1.0,0.0,1.0,0,0,,,0
1449618226473203348,64,0,/odom,bcmd_vector,0,0,0,0.257814142479,0.00967264073909,0.0,0.0,0.0,0.102666606661,0.994715822673,0.346650338793,0.05,0.05,0.0,1.0,0.0,1.0,0,0,,,0
1449618226501532900,65,0,/odom,bcmd_vector,0,0,0,0.283033991681,0.0156441683099,0.0,0.0,0.0,0.118461247184,0.992958676338,0.346677084361,0.05,0.05,0.0,1.0,0.0,1.0,0,0,,,0
1449618226536408546,66,0,/odom,bcmd_vector,0,0,0,0.294153465585,0.018652265411,0.0,0.0,0.0,0.125716550387,0.992066201903,0.346685534641,0.05,0.05,0.0,1.0,0.0,1.0,0,0,,,0
1449618226574410329,67,0,/odom,bcmd_vector,0,0,0,0.299713202536,0.0201563139615,0.0,0.0,0.0,0.125721425095,0.992065584159,0.346689858691,0.05,0.05,0.0,1.0,0.0,1.0,0,0,,,0
1449618226692735882,68,0,/odom,bcmd_vector,0,0,0,0.313572032352,0.0240631115605,0.0,0.0,0.0,0.0769783221595,0.997032766722,0.330773812892,0.05,0.05,0.0,1.0,0.0,1.0,0,0,,,0
1449618226743997885,69,0,/odom,bcmd_vector,0,0,0,0.344002573451,0.03286280214,0.0,0.0,0.0,0.0826079081852,0.996582125821,0.330901791981,0.05,0.05,0.0,1.0,0.0,1.0,0,0,,,0
1449618226774652506,70,0,/odom,bcmd_vector,0,0,0,0.354984992928,0.0363381165875,0.0,0.0,0.0,-0.0101728023093,0.999948255708,0.29934071081,0.05,0.05,0.0,1.0,0.0,1.0,0,0,,,0
1449618226798233583,71,0,/odom,bcmd_vector,0,0,0,0.363248892537,0.0388574114362,0.0,0.0,0.0,-0.0135096709224,0.999908740232,0.304677874569,0.05,0.05,0.0,1.0,0.0,1.0,0,0,,,0
1449618226834700581,72,0,/odom,bcmd_vector,0,0,0,0.363248892537,0.0388574114362,0.0,0.0,0.0,-0.014752459382,0.99989117655,0.304137315377,0.05,0.05,0.0,1.0,0.0,1.0,0,0,,,0
1449618226930344278,73,0,/odom,bcmd_vector,0,0,0,0.376976916882,0.0432015544956,0.0,0.0,0.0,-0.00923923715138,0.999957317338,0.304237172157,0.05,0.05,0.0,1.0,0.0,1.0,0,0,,,0
1449618226962403233,74,0,/odom,bcmd_vector,0,0,0,0.407113225649,0.0529614356315,0.0,0.0,0.0,-0.00642017999382,0.999979390432,0.299188266737,0.05,0.05,0.0,1.0,0.0,1.0,0,0,,,0
1449618226988718938,75,0,/odom,bcmd_vector,0,0,0,0.415293113653,0.0557414204386,0.0,0.0,0.0,0.000199582368324,0.999999980083,0.299262608824,0.05,0.05,0.0,1.0,0.0,1.0,0,0,,,0
1449618227043837754,76,0,/odom,bcmd_vector,0,0,0,0.415293113653,0.0557414204386,0.0,0.0,0.0,0.00319658778799,0.9999948909,0.304537347942,0.05,0.05,0.0,1.0,0.0,1.0,0,0,,,0
1449618227111449938,77,0,/odom,bcmd_vector,0,0,0,0.442559406999,0.0650080364623,0.0,0.0,0.0,0.00504789696612,0.999987259287,0.305218490708,0.05,0.05,0.0,1.0,0.0,1.0,0,0,,,0
1449618227157445811,78,0,/odom,bcmd_vector,0,0,0,0.456142828266,0.0697851588201,0.0,0.0,0.0,0.00919085843184,0.999957763169,0.305358501806,0.05,0.05,0.0,1.0,0.0,1.0,0,0,,,0
1449618227184834105,79,0,/odom,bcmd_vector,0,0,0,0.461576196773,0.0716960077632,0.0,0.0,0.0,0.0108683283525,0.999940937975,0.305415917356,0.05,0.05,0.0,1.0,0.0,1.0,0,0,,,0
1449618227315754526,80,0,/odom,bcmd_vector,0,0,0,0.472442933787,0.0755177056495,0.0,0.0,0.0,0.00924831302934,0.999957233439,0.305891070297,0.05,0.05,0.0,1.0,0.0,1.0,0,0,,,0
1449618227357614629,81,0,/odom,bcmd_vector,0,0,0,0.50499190239,0.0871260801326,0.0,0.0,0.0,0.0103695840115,0.999946234418,0.306294264973,0.05,0.05,0.0,1.0,0.0,1.0,0,0,,,0
1449618227397321223,82,0,/odom,bcmd_vector,0,0,0,0.518524081219,0.0920464833148,0.0,0.0,0.0,0.0190218348735,0.999819068531,0.306472005605,0.05,0.05,0.0,1.0,0.0,1.0,0,0,,,0
1449618227496773744,83,0,/odom,bcmd_vector,0,0,0,0.523936952751,0.0940146445877,0.0,0.0,0.0,0.0102958778738,0.999946996045,0.301493091247,0.05,0.05,0.0,1.0,0.0,1.0,0,0,,,0
1449618227554532733,84,0,/odom,bcmd_vector,0,0,0,0.553820479539,0.104524313775,0.0,0.0,0.0,0.00565060426385,0.999984035208,0.301958336239,0.05,0.05,0.0,1.0,0.0,1.0,0,0,,,0
1449618227643062545,85,0,/odom,bcmd_vector,0,0,0,0.567453626212,0.109157621787,0.0,0.0,0.0,0.0307036839261,0.999528530755,0.262318728251,0.05,0.05,0.0,1.0,0.0,1.0,0,0,,,0
1449618227750103207,86,0,/odom,bcmd_vector,0,0,0,0.600173178227,0.120277561015,0.0,0.0,0.0,0.101422879459,0.994843404523,0.332304886235,0.05,0.05,0.0,1.0,0.0,1.0,0,0,,,0
1449618227823881957,87,0,/odom,bcmd_vector,0,0,0,0.619364407399,0.126446261186,0.0,0.0,0.0,0.137629636877,0.990483762135,0.342227667633,0.05,0.05,0.0,1.0,0.0,1.0,0,0,,,0
1449618227866157237,88,0,/odom,bcmd_vector,0,0,0,0.641401473024,0.133164380783,0.0,0.0,0.0,0.132343649821,0.991203893431,0.347160947012,0.05,0.05,0.0,1.0,0.0,1.0,0,0,,,0
1449618227897007399,89,0,/odom,bcmd_vector,0,0,0,0.655218242485,0.137217418283,0.0,0.0,0.0,0.129755616205,0.991546005016,0.347188357972,0.05,0.05,0.0,1.0,0.0,1.0,0,0,,,0
1449618227927723713,90,0,/odom,bcmd_vector,0,0,0,0.663533540375,0.139561496842,0.0,0.0,0.0,0.124448425549,0.992226077756,0.342400443799,0.05,0.05,0.0,1.0,0.0,1.0,0,0,,,0
1449618227985477198,91,0,/odom,bcmd_vector,0,0,0,0.674620604228,0.142686934921,0.0,0.0,0.0,0.12360801772,0.992331123141,0.342829563792,0.05,0.05,0.0,1.0,0.0,1.0,0,0,,,0
1449618228060944735,92,0,/odom,bcmd_vector,0,0,0,0.68577124633,0.145577355092,0.0,0.0,0.0,0.109168699904,0.99402323663,0.342884844626,0.05,0.05,0.0,1.0,0.0,1.0,0,0,,,0
1449618228160607403,93,0,/odom,bcmd_vector,0,0,0,0.705322273592,0.150488090716,0.0,0.0,0.0,0.103532787375,0.994626041253,0.347497198841,0.05,0.05,0.0,1.0,0.0,1.0,0,0,,,0
1449618228230702287,94,0,/odom,bcmd_vector,0,0,0,0.724924105026,0.155191939756,0.0,0.0,0.0,0.097879737851,0.995198250058,0.34754877406,0.05,0.05,0.0,1.0,0.0,1.0,0,0,,,0
1449618228288092503,95,0,/odom,bcmd_vector,0,0,0,0.744588262605,0.15962907398,0.0,0.0,0.0,0.0966338817773,0.995319995224,0.343194329907,0.05,0.05,0.0,1.0,0.0,1.0,0,0,,,0
1449618228371011000,96,0,/odom,bcmd_vector,0,0,0,0.753035384242,0.161441536212,0.0,0.0,0.0,0.091281134566,0.995825162603,0.343241203753,0.05,0.05,0.0,1.0,0.0,1.0,0,0,,,0
1449618228428574405,97,0,/odom,bcmd_vector,0,0,0,0.781247557283,0.167214777122,0.0,0.0,0.0,0.0804356923305,0.996759800252,0.347706072033,0.05,0.05,0.0,1.0,0.0,1.0,0,0,,,0
1449618228481325857,98,0,/odom,bcmd_vector,0,0,0,0.792558944512,0.169392819136,0.0,0.0,0.0,0.0789771599737,0.996876425743,0.347415402563,0.05,0.05,0.0,1.0,0.0,1.0,0,0,,,0
1449618228589299208,99,0,/odom,bcmd_vector,0,0,0,0.801059274121,0.170936606628,0.0,0.0,0.0,0.0736384284064,0.997285005333,0.347436213885,0.05,0.05,0.0,1.0,0.0,1.0,0,0,,,0
1449618228619408488,100,0,/odom,bcmd_vector,0,0,0,0.832285228797,0.176267467181,0.0,0.0,0.0,0.0706487687409,0.997501253872,0.343020603941,0.05,0.05,0.0,1.0,0.0,1.0,0,0,,,0
1449618228657407242,101,0,/odom,bcmd_vector,0,0,0,0.840816286995,0.177631259437,0.0,0.0,0.0,0.0650944504643,0.997879107166,0.347587030446,0.05,0.05,0.0,1.0,0.0,1.0,0,0,,,0
1449618228751264247,102,0,/odom,bcmd_vector,0,0,0,0.852191031258,0.179449649112,0.0,0.0,0.0,0.0649715447543,0.997887117049,0.347618232609,0.05,0.05,0.0,1.0,0.0,1.0,0,0,,,0
1449618228791381833,103,0,/odom,bcmd_vector,0,0,0,0.875012300081,0.182604816549,0.0,0.0,0.0,0.0589083764934,0.998263393689,0.347682307409,0.05,0.05,0.0,1.0,0.0,1.0,0,0,,,0
1449618228869883779,104,0,/odom,bcmd_vector,0,0,0,0.886422934492,0.184182400267,0.0,0.0,0.0,0.0589024868653,0.998263741223,0.343420378741,0.05,0.05,0.0,1.0,0.0,1.0,0,0,,,0
1449618228910863501,105,0,/odom,bcmd_vector,0,0,0,0.906419605063,0.186731992293,0.0,0.0,0.0,0.048531173562,0.998821668364,0.343538077888,0.05,0.05,0.0,1.0,0.0,1.0,0,0,,,0
1449618229021895854,106,0,/odom,bcmd_vector,0,0,0,0.920721389093,0.188402083578,0.0,0.0,0.0,0.0407027642161,0.99917129912,0.343624141268,0.05,0.05,0.0,1.0,0.0,1.0,0,0,,,0
1449618229063760686,107,0,/odom,bcmd_vector,0,0,0,0.955101363823,0.191895942882,0.0,0.0,0.0,0.0297815883654,0.99955643012,0.343837192642,0.05,0.05,0.0,1.0,0.0,1.0,0,0,,,0
1449618229152043444,108,0,/odom,bcmd_vector,0,0,0,0.960834918296,0.192442925627,0.0,0.0,0.0,0.0406105965188,0.999175049453,0.347941788702,0.05,0.05,0.0,1.0,0.0,1.0,0,0,,,0
1449618229180393970,109,0,/odom,bcmd_vector,0,0,0,0.989542040266,0.194723039311,0.0,0.0,0.0,0.0332419893432,0.999447332351,0.324181066459,0.05,0.05,0.0,1.0,0.0,1.0,0,0,,,0
1449618229224687062,110,0,/odom,bcmd_vector,0,0,0,1.00102970837,0.195574408567,0.0,0.0,0.0,0.0333777707158,0.999442806979,0.348072296814,0.05,0.05,0.0,1.0,0.0,1.0,0,0,,,0
1449618229303395911,111,0,/odom,bcmd_vector,0,0,0,1.00965172619,0.196121849871,0.0,0.0,0.0,0.0281990308086,0.999602328259,0.348100949973,0.05,0.05,0.0,1.0,0.0,1.0,0,0,,,0
1449618229350710177,112,0,/odom,bcmd_vector,0,0,0,1.03553369109,0.19749073345,0.0,0.0,0.0,0.0298799010163,0.999553496075,0.348188226911,0.05,0.05,0.0,1.0,0.0,1.0,0,0,,,0
1449618229398424312,113,0,/odom,bcmd_vector,0,0,0,1.04703678661,0.198099126151,0.0,0.0,0.0,0.0301699308072,0.999544784027,0.31418669879,0.05,0.05,0.0,1.0,0.0,1.0,0,0,,,0
1449618229480348483,114,0,/odom,bcmd_vector,0,0,0,1.06142288982,0.198707620798,0.0,0.0,0.0,0.025253844458,0.999681070812,0.348277428091,0.05,0.05,0.0,1.0,0.0,1.0,0,0,,,0
1449618229524926235,115,0,/odom,bcmd_vector,0,0,0,1.0815668106,0.199468274791,0.0,0.0,0.0,0.0204899068823,0.999790059821,0.348347955996,0.05,0.05,0.0,1.0,0.0,1.0,0,0,,,0
1449618229595160675,116,0,/odom,bcmd_vector,0,0,0,1.09596256079,0.199772590086,0.0,0.0,0.0,0.0196836922899,0.999806257361,0.319509168971,0.05,0.05,0.0,1.0,0.0,1.0,0,0,,,0
1449618229644936608,117,0,/odom,bcmd_vector,0,0,0,1.11611805831,0.200107342009,0.0,0.0,0.0,0.00713127931142,0.999974572104,0.320155954123,0.05,0.05,0.0,1.0,0.0,1.0,0,0,,,0
1449618229722847579,118,0,/odom,bcmd_vector,0,0,0,1.12763658812,0.200229074925,0.0,0.0,0.0,0.0229757453337,0.999736022721,0.348512032443,0.05,0.05,0.0,1.0,0.0,1.0,0,0,,,0
1449618229759309372,119,0,/odom,bcmd_vector,0,0,0,1.14779514098,0.200229074925,0.0,0.0,0.0,0.0242566748127,0.999705763576,0.317758116249,0.05,0.05,0.0,1.0,0.0,1.0,0,0,,,0
1449618229873031957,120,0,/odom,bcmd_vector,0,0,0,1.16219330325,0.20007690878,0.0,0.0,0.0,0.0110638988133,0.999938793198,0.318280339191,0.05,0.05,0.0,1.0,0.0,1.0,0,0,,,0
1449618229904012391,121,0,/odom,bcmd_vector,0,0,0,1.19386491851,0.199468274791,0.0,0.0,0.0,0.0100029337286,0.999949969407,0.345494942264,0.05,0.05,0.0,1.0,0.0,1.0,0,0,,,0
1449618230002588016,122,0,/odom,bcmd_vector,0,0,0,1.20249995672,0.199194416516,0.0,0.0,0.0,0.0466990798472,0.998909002833,0.30684591137,0.05,0.05,0.0,1.0,0.0,1.0,0,0,,,0
1449618230046370530,123,0,/odom,bcmd_vector,0,0,0,1.22552672528,0.198464127782,0.0,0.0,0.0,0.0464399841558,0.998921081904,0.308024843066,0.05,0.05,0.0,1.0,0.0,1.0,0,0,,,0
1449618230111881694,124,0,/odom,bcmd_vector,0,0,0,1.23415838721,0.198099030994,0.0,0.0,0.0,0.0974710683137,0.995238358807,0.32090723282,0.05,0.05,0.0,1.0,0.0,1.0,0,0,,,0
1449618230179396029,125,0,/odom,bcmd_vector,0,0,0,1.25717615235,0.197125439558,0.0,0.0,0.0,0.0939814013361,0.995573953156,0.321747372007,0.05,0.05,0.0,1.0,0.0,1.0,0,0,,,0
1449618230194172882,126,0,/odom,bcmd_vector,0,0,0,1.27442018799,0.19603055695,0.0,0.0,0.0,0.0821659520845,0.996618661434,0.32237247097,0.05,0.05,0.0,1.0,0.0,1.0,0,0,,,0
1449618230286123442,127,0,/odom,bcmd_vector,0,0,0,1.27442018799,0.19603055695,0.0,0.0,0.0,0.083844091299,0.996478885052,0.325336223873,0.05,0.05,0.0,1.0,0.0,1.0,0,0,,,0
1449618230317357038,128,0,/odom,bcmd_vector,0,0,0,1.29741223551,0.194570713473,0.0,0.0,0.0,0.0820852100217,0.996625314898,0.326083318392,0.05,0.05,0.0,1.0,0.0,1.0,0,0,,,0
1449618230344138414,129,0,/odom,bcmd_vector,0,0,0,1.30602798659,0.193932186531,0.0,0.0,0.0,0.0848300177581,0.996395437609,0.323511530423,0.05,0.05,0.0,1.0,0.0,1.0,0,0,,,0
1449618230430863506,130,0,/odom,bcmd_vector,0,0,0,1.31751565469,0.193080817274,0.0,0.0,0.0,0.0841376259166,0.996454143403,0.323922072054,0.05,0.05,0.0,1.0,0.0,1.0,0,0,,,0
1449618230453416918,131,0,/odom,bcmd_vector,0,0,0,1.3376118449,0.19149990675,0.0,0.0,0.0,0.0792187846666,0.996857253651,0.327372521686,0.05,0.05,0.0,1.0,0.0,1.0,0,0,,,0
1449618230510488751,132,0,/odom,bcmd_vector,0,0,0,1.34908987437,0.190527185059,0.0,0.0,0.0,0.0785148256936,0.996912946122,0.327735789836,0.05,0.05,0.0,1.0,0.0,1.0,0,0,,,0
1449618230616020305,133,0,/odom,bcmd_vector,0,0,0,1.36056790385,0.189554463368,0.0,0.0,0.0,0.0764501325456,0.997073406141,0.298930638084,0.05,0.05,0.0,1.0,0.0,1.0,0,0,,,0
1449618230650254369,134,0,/odom,bcmd_vector,0,0,0,1.38926297753,0.187122659142,0.0,0.0,0.0,0.0764501325456,0.997073406141,0.298930638084,0.05,0.05,0.0,1.0,0.0,1.0,0,0,,,0
1449618230681137292,135,0,/odom,bcmd_vector,0,0,0,1.39787872861,0.186484132199,0.0,0.0,0.0,0.0959467134434,0.995386471768,0.326867144356,0.05,0.05,0.0,1.0,0.0,1.0,0,0,,,0
1449618230760122424,136,0,/odom,bcmd_vector,0,0,0,1.39787872861,0.186484132199,0.0,0.0,0.0,0.0959467134434,0.995386471768,0.324073493729,0.05,0.05,0.0,1.0,0.0,1.0,0,0,,,0
1449618230848035490,137,0,/odom,bcmd_vector,0,0,0,1.42085406481,0.184781393687,0.0,0.0,0.0,0.057716579309,0.998333008807,0.35201,0.05,0.05,0.0,1.0,0.0,1.0,0,0,,,0
1449618230875381401,138,0,/odom,bcmd_vector,0,0,0,1.45530984015,0.182136271592,0.0,0.0,0.0,0.057716579309,0.998333008807,0.35201,0.05,0.05,0.0,1.0,0.0,1.0,0,0,,,0
1449618230969651591,139,0,/odom,bcmd_vector,0,0,0,1.45530984015,0.182136271592,0.0,0.0,0.0,0.057716579309,0.998333008807,0.35201,0.05,0.05,0.0,1.0,0.0,1.0,0,0,,,0
1449618231081342533,140,0,/odom,bcmd_vector,0,0,0,1.48691972766,0.180068263052,0.0,0.0,0.0,0.0629909649319,0.998014097264,0.35201,0.05,0.05,0.0,1.0,0.0,1.0,0,0,,,0
1449618231211752114,141,0,/odom,bcmd_vector,0,0,0,1.50705014481,0.179003575824,0.0,0.0,0.0,0.0682635917935,0.99766732032,0.35201,0.05,0.05,0.0,1.0,0.0,1.0,0,0,,,0
1449618231259750735,142,0,/odom,bcmd_vector,0,0,0,1.55309580394,0.177330108492,0.0,0.0,0.0,0.0997711298487,0.995010412834,0.35201,0.05,0.05,0.0,1.0,0.0,1.0,0,0,,,0
1449618231348614851,143,0,/odom,bcmd_vector,0,0,0,1.56173325406,0.177147519315,0.0,0.0,0.0,0.105027371776,0.994469331442,0.35201,0.05,0.05,0.0,1.0,0.0,1.0,0,0,,,0
1449618231394191638,144,0,/odom,bcmd_vector,0,0,0,1.58764801648,0.176751900935,0.0,0.0,0.0,0.11028068125,0.993900483622,0.35201,0.05,0.05,0.0,1.0,0.0,1.0,0,0,,,0
1449618231485139951,145,0,/odom,bcmd_vector,0,0,0,1.59628546659,0.176569311758,0.0,0.0,0.0,0.0840694479195,0.996459897801,0.35201,0.05,0.05,0.0,1.0,0.0,1.0,0,0,,,0
1449618231552053629,146,0,/odom,bcmd_vector,0,0,0,1.6250825952,0.176417145613,0.0,0.0,0.0,0.0945951940655,0.995515820698,0.35201,0.05,0.05,0.0,1.0,0.0,1.0,0,0,,,0
1449618231663736113,147,0,/odom,bcmd_vector,0,0,0,1.645240344,0.176569311758,0.0,0.0,0.0,0.0998541788259,0.995002081893,0.35201,0.05,0.05,0.0,1.0,0.0,1.0,0,0,,,0
1449618231765766602,148,0,/odom,bcmd_vector,0,0,0,1.67978612462,0.177451783629,0.0,0.0,0.0,0.0894166998844,0.995994304091,0.35201,0.05,0.05,0.0,1.0,0.0,1.0,0,0,,,0
1449618231868686255,149,0,/odom,bcmd_vector,0,0,0,1.7056811104,0.178547073994,0.0,0.0,0.0,0.094678285245,0.995507921768,0.35201,0.05,0.05,0.0,1.0,0.0,1.0,0,0,,,0
1449618231906709643,150,0,/odom,bcmd_vector,0,0,0,1.74019088018,0.180341801893,0.0,0.0,0.0,0.105193378638,0.994451785202,0.35201,0.05,0.05,0.0,1.0,0.0,1.0,0,0,,,0
1449618231990960001,151,0,/odom,bcmd_vector,0,0,0,1.75455046531,0.181406013463,0.0,0.0,0.0,0.11044659308,0.993882060446,0.35201,0.05,0.05,0.0,1.0,0.0,1.0,0,0,,,0
1449618232022826039,152,0,/odom,bcmd_vector,0,0,0,1.77464665552,0.182986923987,0.0,0.0,0.0,0.115696723759,0.993284585661,0.35201,0.05,0.05,0.0,1.0,0.0,1.0,0,0,,,0
1449618232108552230,153,0,/odom,bcmd_vector,0,0,0,1.7889805417,0.184354380849,0.0,0.0,0.0,0.120943624088,0.992659377527,0.35201,0.05,0.05,0.0,1.0,0.0,1.0,0,0,,,0
1449618232187971878,154,0,/odom,bcmd_vector,0,0,0,1.81191475959,0.186542311827,0.0,0.0,0.0,0.120943624088,0.992659377527,0.35201,0.05,0.05,0.0,1.0,0.0,1.0,0,0,,,0
1449618232223808684,155,0,/odom,bcmd_vector,0,0,0,1.8405351783,0.189731262,0.0,0.0,0.0,0.110529547841,0.993872838473,0.35201,0.05,0.05,0.0,1.0,0.0,1.0,0,0,,,0
1449618232280842827,156,0,/odom,bcmd_vector,0,0,0,1.84625589191,0.190399298513,0.0,0.0,0.0,0.110529547841,0.993872838473,0.35201,0.05,0.05,0.0,1.0,0.0,1.0,0,0,,,0
1449618232303261532,157,0,/odom,bcmd_vector,0,0,0,1.86053922803,0.192220435675,0.0,0.0,0.0,0.115779628634,0.993274925483,0.35201,0.05,0.05,0.0,1.0,0.0,1.0,0,0,,,0
1449618232411892403,158,0,/odom,bcmd_vector,0,0,0,1.87480252105,0.194192415323,0.0,0.0,0.0,0.121026476761,0.992649279415,0.35201,0.05,0.05,0.0,1.0,0.0,1.0,0,0,,,0
1449618232477134413,159,0,/odom,bcmd_vector,0,0,0,1.90896792553,0.199376796175,0.0,0.0,0.0,0.152348991643,0.988326760108,0.35201,0.05,0.05,0.0,1.0,0.0,1.0,0,0,,,0
1449618232514265177,160,0,/odom,bcmd_vector,0,0,0,1.92034266979,0.201195185849,0.0,0.0,0.0,0.131509889127,0.991314858691,0.35201,0.05,0.05,0.0,1.0,0.0,1.0,0,0,,,0
1449618232638756844,161,0,/odom,bcmd_vector,0,0,0,1.92885883925,0.202649056909,0.0,0.0,0.0,0.13674616066,0.990606121294,0.35201,0.05,0.05,0.0,1.0,0.0,1.0,0,0,,,0
1449618232696270306,162,0,/odom,bcmd_vector,0,0,0,1.96569360088,0.209338802708,0.0,0.0,0.0,0.141978614125,0.989869725333,0.35201,0.05,0.05,0.0,1.0,0.0,1.0,0,0,,,0
1449618232721704730,163,0,/odom,bcmd_vector,0,0,0,1.98551091412,0.213030717541,0.0,0.0,0.0,0.147207103426,0.98910569137,0.35201,0.05,0.05,0.0,1.0,0.0,1.0,0,0,,,0
1449618232810867268,164,0,/odom,bcmd_vector,0,0,0,1.98551091412,0.213030717541,0.0,0.0,0.0,0.147207103426,0.98910569137,0.35201,0.05,0.05,0.0,1.0,0.0,1.0,0,0,,,0
1449618232851228652,165,0,/odom,bcmd_vector,0,0,0,2.01935544707,0.220012459046,0.0,0.0,0.0,0.157651605718,0.987494795538,0.35201,0.05,0.05,0.0,1.0,0.0,1.0,0,0,,,0
1449618232948657732,166,0,/odom,bcmd_vector,0,0,0,2.03340127391,0.223181840634,0.0,0.0,0.0,0.162867327089,0.986647978646,0.35201,0.05,0.05,0.0,1.0,0.0,1.0,0,0,,,0
1449618232983488653,167,0,/odom,bcmd_vector,0,0,0,2.05304486475,0.2277079292,0.0,0.0,0.0,0.147289659396,0.989093401168,0.35201,0.05,0.05,0.0,1.0,0.0,1.0,0,0,,,0
1449618233118517899,168,0,/odom,bcmd_vector,0,0,0,2.06425410391,0.230362040259,0.0,0.0,0.0,0.168078501067,0.985773613706,0.35201,0.05,0.05,0.0,1.0,0.0,1.0,0,0,,,0
1449618233186505640,169,0,/odom,bcmd_vector,0,0,0,2.09777335667,0.238767801357,0.0,0.0,0.0,0.178486624969,0.983942338101,0.35201,0.05,0.05,0.0,1.0,0.0,1.0,0,0,,,0
1449618233258779351,170,0,/odom,bcmd_vector,0,0,0,2.1172636042,0.243914294353,0.0,0.0,0.0,0.18368328429,0.982985478566,0.30561,0.05,0.05,0.0,1.0,0.0,1.0,0,0,,,0
1449618233319733757,171,0,/odom,bcmd_vector,0,0,0,2.14224190792,0.250829189053,0.0,0.0,0.0,0.14737221434,0.989081104076,0.35201,0.05,0.05,0.0,1.0,0.0,1.0,0,0,,,0
1449618233379171865,172,0,/odom,bcmd_vector,0,0,0,2.1505319696,0.253261011554,0.0,0.0,0.0,0.152596461269,0.988288581341,0.35201,0.05,0.05,0.0,1.0,0.0,1.0,0,0,,,0
1449618233403395563,173,0,/odom,bcmd_vector,0,0,0,2.17263880073,0.259745871554,0.0,0.0,0.0,0.150954096242,0.988540773478,0.351128020201,0.05,0.05,0.0,1.0,0.0,1.0,0,0,,,0
1449618233448980775,174,0,/odom,bcmd_vector,0,0,0,2.17263880073,0.259745871554,0.0,0.0,0.0,0.150954096242,0.988540773478,0.351128020201,0.05,0.05,0.0,1.0,0.0,1.0,0,0,,,0
1449618233530379582,175,0,/odom,bcmd_vector,0,0,0,2.19192123316,0.265624226201,0.0,0.0,0.0,0.147413491427,0.989074952946,0.351144939745,0.05,0.05,0.0,1.0,0.0,1.0,0,0,,,0
1449618233601226609,176,0,/odom,bcmd_vector,0,0,0,2.21663167698,0.273443683708,0.0,0.0,0.0,0.152637705278,0.988282212188,0.351165399055,0.05,0.05,0.0,1.0,0.0,1.0,0,0,,,0
1449618233641247779,177,0,/odom,bcmd_vector,0,0,0,2.22484048667,0.276137069431,0.0,0.0,0.0,0.254124173552,0.967171600295,0.351171917267,0.05,0.05,0.0,1.0,0.0,1.0,0,0,,,0
1449618233717008978,178,0,/odom,bcmd_vector,0,0,0,2.23847363335,0.280770377443,0.0,0.0,0.0,0.259442062385,0.965758673927,0.351182454641,0.05,0.05,0.0,1.0,0.0,1.0,0,0,,,0
1449618233784938371,179,0,/odom,bcmd_vector,0,0,0,2.25754918006,0.287285461053,0.0,0.0,0.0,0.247882591839,0.968790080803,0.351196480495,0.05,0.05,0.0,1.0,0.0,1.0,0,0,,,0
1449618233881381286,180,0,/odom,bcmd_vector,0,0,0,2.27928265408,0.294928856825,0.0,0.0,0.0,0.265560295364,0.964094253445,0.351211542236,0.05,0.05,0.0,1.0,0.0,1.0,0,0,,,0
1449618233897751695,181,0,/odom,bcmd_vector,0,0,0,2.30101612811,0.302572252598,0.0,0.0,0.0,0.231208187789,0.972904298428,0.351225568256,0.05,0.05,0.0,1.0,0.0,1.0,0,0,,,0
1449618233970021688,182,0,/odom,bcmd_vector,0,0,0,2.30913543541,0.305524494507,0.0,0.0,0.0,0.261241482776,0.96527347818,0.348892279665,0.05,0.05,0.0,1.0,0.0,1.0,0,0,,,0
1449618234022228797,183,0,/odom,bcmd_vector,0,0,0,2.33078692154,0.313397139599,0.0,0.0,0.0,0.26131673778,0.965253108027,0.348942902754,0.05,0.05,0.0,1.0,0.0,1.0,0,0,,,0
1449618234043627802,184,0,/odom,bcmd_vector,0,0,0,2.33887457658,0.316435020289,0.0,0.0,0.0,0.315722039522,0.948851723801,0.3451495701,0.05,0.05,0.0,1.0,0.0,1.0,0,0,,,0
1449618234071887175,185,0,/odom,bcmd_vector,0,0,0,2.33887457658,0.316435020289,0.0,0.0,0.0,0.315722039522,0.948851723801,0.3451495701,0.05,0.05,0.0,1.0,0.0,1.0,0,0,,,0
1449618234156427483,186,0,/odom,bcmd_vector,0,0,0,2.34965811665,0.320485527875,0.0,0.0,0.0,0.312015145356,0.950077127958,0.338393261334,0.05,0.05,0.0,1.0,0.0,1.0,0,0,,,0
1449618234196268261,187,0,/odom,bcmd_vector,0,0,0,2.3738234153,0.329855068451,0.0,0.0,0.0,0.317018609461,0.948419317209,0.338611681554,0.05,0.05,0.0,1.0,0.0,1.0,0,0,,,0
1449618234225769228,188,0,/odom,bcmd_vector,0,0,0,2.38184505974,0.333063199341,0.0,0.0,0.0,0.308284500359,0.951294206247,0.345344769782,0.05,0.05,0.0,1.0,0.0,1.0,0,0,,,0
1449618234246364482,189,0,/odom,bcmd_vector,0,0,0,2.39254058566,0.337340707193,0.0,0.0,0.0,0.308239234605,0.951308874262,0.345387774497,0.05,0.05,0.0,1.0,0.0,1.0,0,0,,,0
1449618234282260337,190,0,/odom,bcmd_vector,0,0,0,2.4058527414,0.34282857935,0.0,0.0,0.0,0.313208635675,0.949684342578,0.34543822441,0.05,0.05,0.0,1.0,0.0,1.0,0,0,,,0
1449618234341347859,191,0,/odom,bcmd_vector,0,0,0,2.4058527414,0.34282857935,0.0,0.0,0.0,0.330535659286,0.943793503867,0.344708025957,0.05,0.05,0.0,1.0,0.0,1.0,0,0,,,0
1449618234382284080,192,0,/odom,bcmd_vector,0,0,0,2.42443102105,0.35065197481,0.0,0.0,0.0,0.335476894535,0.942048434654,0.344778574926,0.05,0.05,0.0,1.0,0.0,1.0,0,0,,,0
1449618234472956697,193,0,/odom,bcmd_vector,0,0,0,2.4324183145,0.353944698104,0.0,0.0,0.0,0.292127652964,0.956379336024,0.339041490418,0.05,0.05,0.0,1.0,0.0,1.0,0,0,,,0
1449618234494330996,194,0,/odom,bcmd_vector,0,0,0,2.45358765113,0.363033740179,0.0,0.0,0.0,0.30216804211,0.953254674432,0.339151462956,0.05,0.05,0.0,1.0,0.0,1.0,0,0,,,0
1449618234538865519,195,0,/odom,bcmd_vector,0,0,0,2.46414221016,0.367648134149,0.0,0.0,0.0,0.305617074352,0.952154506298,0.345602200116,0.05,0.05,0.0,1.0,0.0,1.0,0,0,,,0
1449618234606677561,196,0,/odom,bcmd_vector,0,0,0,2.47202111422,0.371192390634,0.0,0.0,0.0,0.310624699985,0.950532637924,0.345615507959,0.05,0.05,0.0,1.0,0.0,1.0,0,0,,,0
1449618234623683120,197,0,/odom,bcmd_vector,0,0,0,2.49554414098,0.382074355616,0.0,0.0,0.0,0.315609787557,0.948889067277,0.30511765784,0.05,0.05,0.0,1.0,0.0,1.0,0,0,,,0
1449618234659260666,198,0,/odom,bcmd_vector,0,0,0,2.49554414098,0.382074355616,0.0,0.0,0.0,0.315609787557,0.948889067277,0.30511765784,0.05,0.05,0.0,1.0,0.0,1.0,0,0,,,0
1449618234726027991,199,0,/odom,bcmd_vector,0,0,0,2.50599881953,0.386910784498,0.0,0.0,0.0,0.315608600983,0.948889461942,0.305117716572,0.05,0.05,0.0,1.0,0.0,1.0,0,0,,,0
1449618234788026599,200,0,/odom,bcmd_vector,0,0,0,2.51645349809,0.391747213379,0.0,0.0,0.0,0.315615964216,0.948887012838,0.34156712637,0.05,0.05,0.0,1.0,0.0,1.0,0,0,,,0
1449618234847584080,201,0,/odom,bcmd_vector,0,0,0,2.53452571255,0.400677566307,0.0,0.0,0.0,0.330647052766,0.943754484226,0.341545875471,0.05,0.05,0.0,1.0,0.0,1.0,0,0,,,0
1449618234921842893,202,0,/odom,bcmd_vector,0,0,0,2.55511794367,0.411008365389,0.0,0.0,0.0,0.347593876747,0.937645187077,0.33926014841,0.05,0.05,0.0,1.0,0.0,1.0,0,0,,,0
1449618234952505061,203,0,/odom,bcmd_vector,0,0,0,2.56541405923,0.41617376493,0.0,0.0,0.0,0.312194316627,0.950018267543,0.300356999893,0.05,0.05,0.0,1.0,0.0,1.0,0,0,,,0
1449618234987628286,204,0,/odom,bcmd_vector,0,0,0,2.57821525103,0.422766163584,0.0,0.0,0.0,0.317154216927,0.948373978284,0.333141381064,0.05,0.05,0.0,1.0,0.0,1.0,0,0,,,0
1449618234998493531,205,0,/odom,bcmd_vector,0,0,0,2.58585373671,0.426802550559,0.0,0.0,0.0,0.320562893542,0.947227233183,0.333871477852,0.05,0.05,0.0,1.0,0.0,1.0,0,0,,,0
1449618235030197369,206,0,/odom,bcmd_vector,0,0,0,2.58585373671,0.426802550559,0.0,0.0,0.0,0.320562893542,0.947227233183,0.333871477852,0.05,0.05,0.0,1.0,0.0,1.0,0,0,,,0
1449618235076290001,207,0,/odom,bcmd_vector,0,0,0,2.59603838428,0.43218439986,0.0,0.0,0.0,0.32050149724,0.947248008848,0.294653686126,0.05,0.05,0.0,1.0,0.0,1.0,0,0,,,0
1449618235135543637,208,0,/odom,bcmd_vector,0,0,0,2.6061070142,0.437780294751,0.0,0.0,0.0,0.330429196971,0.943830782391,0.294699914569,0.05,0.05,0.0,1.0,0.0,1.0,0,0,,,0
1449618235159814029,209,0,/odom,bcmd_vector,0,0,0,2.62624427403,0.448972084535,0.0,0.0,0.0,0.253994309849,0.96720571264,0.346422698746,0.05,0.05,0.0,1.0,0.0,1.0,0,0,,,0
1449618235200038142,210,0,/odom,bcmd_vector,0,0,0,2.62624427403,0.448972084535,0.0,0.0,0.0,0.250922540614,0.968007168678,0.346422698746,0.05,0.05,0.0,1.0,0.0,1.0,0,0,,,0
1449618235224100327,211,0,/odom,bcmd_vector,0,0,0,2.63631290395,0.454567979426,0.0,0.0,0.0,0.250922540614,0.968007168678,0.346422698746,0.05,0.05,0.0,1.0,0.0,1.0,0,0,,,0
1449618235257855679,212,0,/odom,bcmd_vector,0,0,0,2.6488240678,0.461695462176,0.0,0.0,0.0,0.256033987268,0.966667780245,0.346422698746,0.05,0.05,0.0,1.0,0.0,1.0,0,0,,,0
1449618235300097721,213,0,/odom,bcmd_vector,0,0,0,2.65871025454,0.467607708777,0.0,0.0,0.0,0.266235292001,0.963908070976,0.346422698746,0.05,0.05,0.0,1.0,0.0,1.0,0,0,,,0
1449618235340035274,214,0,/odom,bcmd_vector,0,0,0,2.66617134036,0.471963289299,0.0,0.0,0.0,0.258072525423,0.966125546511,0.346422698746,0.05,0.05,0.0,1.0,0.0,1.0,0,0,,,0
1449618235376617856,215,0,/odom,bcmd_vector,0,0,0,2.67599449529,0.477979681511,0.0,0.0,0.0,0.268267986076,0.963344324552,0.346422698746,0.05,0.05,0.0,1.0,0.0,1.0,0,0,,,0
1449618235422240640,216,0,/odom,bcmd_vector,0,0,0,2.68340913534,0.482413866462,0.0,0.0,0.0,0.263173929769,0.964748403829,0.346422698746,0.05,0.05,0.0,1.0,0.0,1.0,0,0,,,0
1449618235505790036,217,0,/odom,bcmd_vector,0,0,0,2.69568807901,0.489934356727,0.0,0.0,0.0,0.268267986076,0.963344324552,0.346422698746,0.05,0.05,0.0,1.0,0.0,1.0,0,0,,,0
1449618235517839158,218,0,/odom,bcmd_vector,0,0,0,2.7127663746,0.500644122044,0.0,0.0,0.0,0.273354552113,0.961913347885,0.346422698746,0.05,0.05,0.0,1.0,0.0,1.0,0,0,,,0
1449618235548668366,219,0,/odom,bcmd_vector,0,0,0,2.7127663746,0.500644122044,0.0,0.0,0.0,0.270299486451,0.962776291578,0.346422698746,0.05,0.05,0.0,1.0,0.0,1.0,0,0,,,0
1449618235575164731,220,0,/odom,bcmd_vector,0,0,0,2.72003673004,0.505311114117,0.0,0.0,0.0,0.275383022641,0.961334588393,0.346422698746,0.05,0.05,0.0,1.0,0.0,1.0,0,0,,,0
1449618235616955172,221,0,/odom,bcmd_vector,0,0,0,2.7297305373,0.511533770214,0.0,0.0,0.0,0.266215104436,0.963913646636,0.346422698746,0.05,0.05,0.0,1.0,0.0,1.0,0,0,,,0
1449618235678528572,222,0,/odom,bcmd_vector,0,0,0,2.73695116668,0.516277333716,0.0,0.0,0.0,0.27130470743,0.962493509446,0.346422698746,0.05,0.05,0.0,1.0,0.0,1.0,0,0,,,0
1449618235701184944,223,0,/odom,bcmd_vector,0,0,0,2.74657867251,0.522602085052,0.0,0.0,0.0,0.27130470743,0.962493509446,0.346422698746,0.05,0.05,0.0,1.0,0.0,1.0,0,0,,,0
1449618235739872443,224,0,/odom,bcmd_vector,0,0,0,2.75620617835,0.528926836388,0.0,0.0,0.0,0.285947214668,0.958245370677,0.294777611421,0.05,0.05,0.0,1.0,0.0,1.0,0,0,,,0
1449618235784745464,225,0,/odom,bcmd_vector,0,0,0,2.76337627523,0.533746441545,0.0,0.0,0.0,0.267221514594,0.963635129153,0.335248096237,0.05,0.05,0.0,1.0,0.0,1.0,0,0,,,0
1449618235828279080,226,0,/odom,bcmd_vector,0,0,0,2.77293640442,0.540172581755,0.0,0.0,0.0,0.291006591024,0.956721048154,0.300699732834,0.05,0.05,0.0,1.0,0.0,1.0,0,0,,,0
1449618235861397420,227,0,/odom,bcmd_vector,0,0,0,2.78480101047,0.548331096,0.0,0.0,0.0,0.272309631851,0.962209677981,0.340835397491,0.05,0.05,0.0,1.0,0.0,1.0,0,0,,,0
1449618235900755088,228,0,/odom,bcmd_vector,0,0,0,2.79429269531,0.554857907396,0.0,0.0,0.0,0.272309631851,0.962209677981,0.340835397491,0.05,0.05,0.0,1.0,0.0,1.0,0,0,,,0
1449618235951648259,229,0,/odom,bcmd_vector,0,0,0,2.80135933063,0.559827972634,0.0,0.0,0.0,0.277390145993,0.960757361099,0.340835397491,0.05,0.05,0.0,1.0,0.0,1.0,0,0,,,0
1449618235987167800,230,0,/odom,bcmd_vector,0,0,0,2.81078151106,0.566454726285,0.0,0.0,0.0,0.277390145993,0.960757361099,0.340835397491,0.05,0.05,0.0,1.0,0.0,1.0,0,0,,,0
1449618236032305060,231,0,/odom,bcmd_vector,0,0,0,2.81549260128,0.569768103111,0.0,0.0,0.0,0.277390145993,0.960757361099,0.340835397491,0.05,0.05,0.0,1.0,0.0,1.0,0,0,,,0
1449618236058366767,232,0,/odom,bcmd_vector,0,0,0,2.82718213095,0.578175547876,0.0,0.0,0.0,0.282462915166,0.959278219056,0.340835397491,0.05,0.05,0.0,1.0,0.0,1.0,0,0,,,0
1449618236095871084,233,0,/odom,bcmd_vector,0,0,0,2.83653375468,0.584901503688,0.0,0.0,0.0,0.282462915166,0.959278219056,0.340835397491,0.05,0.05,0.0,1.0,0.0,1.0,0,0,,,0
1449618236142172105,234,0,/odom,bcmd_vector,0,0,0,2.84349377165,0.590019808789,0.0,0.0,0.0,0.284485807195,0.958680251963,0.340835397491,0.05,0.05,0.0,1.0,0.0,1.0,0,0,,,0
1449618236176307131,235,0,/odom,bcmd_vector,0,0,0,2.85277379427,0.59684421559,0.0,0.0,0.0,0.284485807195,0.958680251963,0.340835397491,0.05,0.05,0.0,1.0,0.0,1.0,0,0,,,0
1449618236227723933,236,0,/odom,bcmd_vector,0,0,0,2.86205381689,0.603668622391,0.0,0.0,0.0,0.287527797736,0.957772293152,0.340835397491,0.05,0.05,0.0,1.0,0.0,1.0,0,0,,,0
1449618236262072549,237,0,/odom,bcmd_vector,0,0,0,2.87133383952,0.610493029193,0.0,0.0,0.0,0.287527797736,0.957772293152,0.340835397491,0.05,0.05,0.0,1.0,0.0,1.0,0,0,,,0
1449618236301787494,238,0,/odom,bcmd_vector,0,0,0,2.88061386214,0.617317435994,0.0,0.0,0.0,0.287527797736,0.957772293152,0.340835397491,0.05,0.05,0.0,1.0,0.0,1.0,0,0,,,0
1449618236352126290,239,0,/odom,bcmd_vector,0,0,0,2.88989388476,0.624141842795,0.0,0.0,0.0,0.284485807195,0.958680251963,0.340835397491,0.05,0.05,0.0,1.0,0.0,1.0,0,0,,,0
1449618236376166072,240,0,/odom,bcmd_vector,0,0,0,2.89679942358,0.629333414512,0.0,0.0,0.0,0.289547501866,0.957163645446,0.340835397491,0.05,0.05,0.0,1.0,0.0,1.0,0,0,,,0
1449618236423671143,241,0,/odom,bcmd_vector,0,0,0,2.90600680867,0.636255510135,0.0,0.0,0.0,0.289547501866,0.957163645446,0.340835397491,0.05,0.05,0.0,1.0,0.0,1.0,0,0,,,0
1449618236456020178,242,0,/odom,bcmd_vector,0,0,0,2.91521419377,0.643177605758,0.0,0.0,0.0,0.289547501866,0.957163645446,0.340835397491,0.05,0.05,0.0,1.0,0.0,1.0,0,0,,,0
1449618236503810014,243,0,/odom,bcmd_vector,0,0,0,2.91981788631,0.64663865357,0.0,0.0,0.0,0.289547501866,0.957163645446,0.340835397491,0.05,0.05,0.0,1.0,0.0,1.0,0,0,,,0
1449618236536946498,244,0,/odom,bcmd_vector,0,0,0,2.92902527141,0.653560749192,0.0,0.0,0.0,0.289547501866,0.957163645446,0.340835397491,0.05,0.05,0.0,1.0,0.0,1.0,0,0,,,0
1449618236582416352,245,0,/odom,bcmd_vector,0,0,0,2.94044242048,0.662334513401,0.0,0.0,0.0,0.294601112125,0.955620314107,0.340835397491,0.05,0.05,0.0,1.0,0.0,1.0,0,0,,,0
1449618236615829288,246,0,/odom,bcmd_vector,0,0,0,2.9473479593,0.667526085118,0.0,0.0,0.0,0.289547501866,0.957163645446,0.340835397491,0.05,0.05,0.0,1.0,0.0,1.0,0,0,,,0
1449618236655547626,247,0,/odom,bcmd_vector,0,0,0,2.95655534439,0.674448180741,0.0,0.0,0.0,0.289547501866,0.957163645446,0.340835397491,0.05,0.05,0.0,1.0,0.0,1.0,0,0,,,0
1449618236699822444,248,0,/odom,bcmd_vector,0,0,0,2.96576272948,0.681370276364,0.0,0.0,0.0,0.289547501866,0.957163645446,0.340835397491,0.05,0.05,0.0,1.0,0.0,1.0,0,0,,,0
1449618236749094169,249,0,/odom,bcmd_vector,0,0,0,2.97261301893,0.686634534889,0.0,0.0,0.0,0.294601112125,0.955620314107,0.340835397491,0.05,0.05,0.0,1.0,0.0,1.0,0,0,,,0
1449618236773438627,250,0,/odom,bcmd_vector,0,0,0,2.98174673819,0.693653546255,0.0,0.0,0.0,0.294601112125,0.955620314107,0.340835397491,0.05,0.05,0.0,1.0,0.0,1.0,0,0,,,0
1449618236821946418,251,0,/odom,bcmd_vector,0,0,0,2.99088045744,0.700672557622,0.0,0.0,0.0,0.306711895984,0.951802402215,0.346422698746,0.05,0.05,0.0,1.0,0.0,1.0,0,0,,,0
1449618236857482398,252,0,/odom,bcmd_vector,0,0,0,2.99778599626,0.705864129339,0.0,0.0,0.0,0.301678290499,0.953409780232,0.346422698746,0.05,0.05,0.0,1.0,0.0,1.0,0,0,,,0
1449618236897939552,253,0,/odom,bcmd_vector,0,0,0,3.00920314534,0.714637893547,0.0,0.0,0.0,0.306711895984,0.951802402215,0.346422698746,0.05,0.05,0.0,1.0,0.0,1.0,0,0,,,0
1449618236949108402,254,0,/odom,bcmd_vector,0,0,0,3.0183368646,0.721656904914,0.0,0.0,0.0,0.303688760776,0.952771292902,0.340835397491,0.05,0.05,0.0,1.0,0.0,1.0,0,0,,,0
1449618236982221961,255,0,/odom,bcmd_vector,0,0,0,3.02290372423,0.725166410597,0.0,0.0,0.0,0.303688760776,0.952771292902,0.340835397491,0.05,0.05,0.0,1.0,0.0,1.0,0,0,,,0
1449618237054424399,256,0,/odom,bcmd_vector,0,0,0,3.03441295559,0.733819030126,0.0,0.0,0.0,0.301678290499,0.953409780232,0.340835397491,0.05,0.05,0.0,1.0,0.0,1.0,0,0,,,0
1449618237054453175,257,0,/odom,bcmd_vector,0,0,0,3.05503748976,0.749514889957,0.0,0.0,0.0,0.306711895984,0.951802402215,0.340835397491,0.05,0.05,0.0,1.0,0.0,1.0,0,0,,,0
1449618237092802266,258,0,/odom,bcmd_vector,0,0,0,3.05503748976,0.749514889957,0.0,0.0,0.0,0.306711895984,0.951802402215,0.340835397491,0.05,0.05,0.0,1.0,0.0,1.0,0,0,,,0
1449618237145054321,259,0,/odom,bcmd_vector,0,0,0,3.05960434939,0.753024395641,0.0,0.0,0.0,0.306711895984,0.951802402215,0.340835397491,0.05,0.05,0.0,1.0,0.0,1.0,0,0,,,0
1449618237176406162,260,0,/odom,bcmd_vector,0,0,0,3.07111358075,0.761677015169,0.0,0.0,0.0,0.301678290499,0.953409780232,0.340835397491,0.05,0.05,0.0,1.0,0.0,1.0,0,0,,,0
1449618237236136066,261,0,/odom,bcmd_vector,0,0,0,3.0779638702,0.766941273694,0.0,0.0,0.0,0.306711895984,0.951802402215,0.340835397491,0.05,0.05,0.0,1.0,0.0,1.0,0,0,,,0
1449618237265004985,262,0,/odom,bcmd_vector,0,0,0,3.08709758946,0.773960285061,0.0,0.0,0.0,0.306711895984,0.951802402215,0.340835397491,0.05,0.05,0.0,1.0,0.0,1.0,0,0,,,0
1449618237307828828,263,0,/odom,bcmd_vector,0,0,0,3.09860682082,0.782612904589,0.0,0.0,0.0,0.301678290499,0.953409780232,0.340835397491,0.05,0.05,0.0,1.0,0.0,1.0,0,0,,,0
1449618237346593543,264,0,/odom,bcmd_vector,0,0,0,3.10321051337,0.786073952401,0.0,0.0,0.0,0.301678290499,0.953409780232,0.340835397491,0.05,0.05,0.0,1.0,0.0,1.0,0,0,,,0
1449618237381150627,265,0,/odom,bcmd_vector,0,0,0,3.11462766244,0.794847716609,0.0,0.0,0.0,0.306711895984,0.951802402215,0.340835397491,0.05,0.05,0.0,1.0,0.0,1.0,0,0,,,0
1449618237445349148,266,0,/odom,bcmd_vector,0,0,0,3.12613689381,0.803500336138,0.0,0.0,0.0,0.307725564936,0.951475158207,0.346422698746,0.05,0.05,0.0,1.0,0.0,1.0,0,0,,,0
1449618237467008444,267,0,/odom,bcmd_vector,0,0,0,3.13074058635,0.806961383949,0.0,0.0,0.0,0.307725564936,0.951475158207,0.346422698746,0.05,0.05,0.0,1.0,0.0,1.0,0,0,,,0
1449618237510329457,268,0,/odom,bcmd_vector,0,0,0,3.13994797145,0.813883479572,0.0,0.0,0.0,0.304703462779,0.952447268761,0.340835397491,0.05,0.05,0.0,1.0,0.0,1.0,0,0,,,0
1449618237537915153,269,0,/odom,bcmd_vector,0,0,0,3.14915535654,0.820805575195,0.0,0.0,0.0,0.304703462779,0.952447268761,0.340835397491,0.05,0.05,0.0,1.0,0.0,1.0,0,0,,,0
1449618237592872957,270,0,/odom,bcmd_vector,0,0,0,3.16296643418,0.831188718629,0.0,0.0,0.0,0.304703462779,0.952447268761,0.340835397491,0.05,0.05,0.0,1.0,0.0,1.0,0,0,,,0
1449618237624229798,271,0,/odom,bcmd_vector,0,0,0,3.16757012672,0.83464976644,0.0,0.0,0.0,0.304703462779,0.952447268761,0.346422698746,0.05,0.05,0.0,1.0,0.0,1.0,0,0,,,0
1449618237672086866,272,0,/odom,bcmd_vector,0,0,0,3.17677751182,0.841571862063,0.0,0.0,0.0,0.304703462779,0.952447268761,0.346422698746,0.05,0.05,0.0,1.0,0.0,1.0,0,0,,,0
1449618237695802868,273,0,/odom,bcmd_vector,0,0,0,3.18598489691,0.848493957686,0.0,0.0,0.0,0.304703462779,0.952447268761,0.346422698746,0.05,0.05,0.0,1.0,0.0,1.0,0,0,,,0
1449618237740175228,274,0,/odom,bcmd_vector,0,0,0,3.195192282,0.855416053309,0.0,0.0,0.0,0.307725564936,0.951475158207,0.346422698746,0.05,0.05,0.0,1.0,0.0,1.0,0,0,,,0
1449618237778628041,275,0,/odom,bcmd_vector,0,0,0,3.2043996671,0.862338148932,0.0,0.0,0.0,0.307725564936,0.951475158207,0.346422698746,0.05,0.05,0.0,1.0,0.0,1.0,0,0,,,0
1449618237814539772,276,0,/odom,bcmd_vector,0,0,0,3.21135968406,0.867456454033,0.0,0.0,0.0,0.299666477857,0.954044025215,0.346422698746,0.05,0.05,0.0,1.0,0.0,1.0,0,0,,,0
1449618237864805456,277,0,/odom,bcmd_vector,0,0,0,3.22063970668,0.874280860834,0.0,0.0,0.0,0.299666477857,0.954044025215,0.346422698746,0.05,0.05,0.0,1.0,0.0,1.0,0,0,,,0
1449618237897786175,278,0,/odom,bcmd_vector,0,0,0,3.23214893805,0.882933480363,0.0,0.0,0.0,0.304703462779,0.952447268761,0.346422698746,0.05,0.05,0.0,1.0,0.0,1.0,0,0,,,0
1449618237954299338,279,0,/odom,bcmd_vector,0,0,0,3.24135632314,0.889855575986,0.0,0.0,0.0,0.304703462779,0.952447268761,0.346422698746,0.05,0.05,0.0,1.0,0.0,1.0,0,0,,,0
1449618237976151641,280,0,/odom,bcmd_vector,0,0,0,3.24596001569,0.893316623797,0.0,0.0,0.0,0.304703462779,0.952447268761,0.346422698746,0.05,0.05,0.0,1.0,0.0,1.0,0,0,,,0
1449618238035105588,281,0,/odom,bcmd_vector,0,0,0,3.25516740078,0.90023871942,0.0,0.0,0.0,0.307725564936,0.951475158207,0.340835397491,0.05,0.05,0.0,1.0,0.0,1.0,0,0,,,0
1449618238053748288,282,0,/odom,bcmd_vector,0,0,0,3.26676742906,0.908769227921,0.0,0.0,0.0,0.302693674457,0.953087897019,0.340835397491,0.05,0.05,0.0,1.0,0.0,1.0,0,0,,,0
1449618238131667746,283,0,/odom,bcmd_vector,0,0,0,3.27367296788,0.913960799639,0.0,0.0,0.0,0.357119885228,0.934058556823,0.259819524059,0.05,0.05,0.0,1.0,0.0,1.0,0,0,,,0
1449618238144901329,284,0,/odom,bcmd_vector,0,0,0,3.29208773807,0.927804990884,0.0,0.0,0.0,0.357119885228,0.934058556823,0.259819524059,0.05,0.05,0.0,1.0,0.0,1.0,0,0,,,0
1449618238227593921,285,0,/odom,bcmd_vector,0,0,0,3.29208773807,0.927804990884,0.0,0.0,0.0,0.357119885228,0.934058556823,0.259819524059,0.05,0.05,0.0,1.0,0.0,1.0,0,0,,,0
1449618238260415671,286,0,/odom,bcmd_vector,0,0,0,3.30832777765,0.939747702787,0.0,0.0,0.0,0.352179334501,0.935932538354,0.259819524059,0.05,0.05,0.0,1.0,0.0,1.0,0,0,,,0
1449618238298312613,287,0,/odom,bcmd_vector,0,0,0,3.31523331647,0.944939274504,0.0,0.0,0.0,0.357119885228,0.934058556823,0.259819524059,0.05,0.05,0.0,1.0,0.0,1.0,0,0,,,0
1449618238337317118,288,0,/odom,bcmd_vector,0,0,0,3.32683334475,0.953469783005,0.0,0.0,0.0,0.352179334501,0.935932538354,0.255629048119,0.05,0.05,0.0,1.0,0.0,1.0,0,0,,,0
1449618238355645814,289,0,/odom,bcmd_vector,0,0,0,3.33611336737,0.960294189807,0.0,0.0,0.0,0.352179334501,0.935932538354,0.255629048119,0.05,0.05,0.0,1.0,0.0,1.0,0,0,,,0
1449618238425408722,290,0,/odom,bcmd_vector,0,0,0,3.33611336737,0.960294189807,0.0,0.0,0.0,0.352179334501,0.935932538354,0.255629048119,0.05,0.05,0.0,1.0,0.0,1.0,0,0,,,0
1449618238472245159,291,0,/odom,bcmd_vector,0,0,0,3.35003340131,0.970530800008,0.0,0.0,0.0,0.356632146309,0.934244888784,0.259819524059,0.05,0.05,0.0,1.0,0.0,1.0,0,0,,,0
1449618238496749345,292,0,/odom,bcmd_vector,0,0,0,3.35931342393,0.97735520681,0.0,0.0,0.0,0.356632146309,0.934244888784,0.259819524059,0.05,0.05,0.0,1.0,0.0,1.0,0,0,,,0
1449618238564104763,293,0,/odom,bcmd_vector,0,0,0,3.36859344655,0.984179613611,0.0,0.0,0.0,0.361076871496,0.932536054462,0.259819524059,0.05,0.05,0.0,1.0,0.0,1.0,0,0,,,0
1449618238593246679,294,0,/odom,bcmd_vector,0,0,0,3.37549898537,0.989371185328,0.0,0.0,0.0,0.36599935099,0.930615105763,0.259819524059,0.05,0.05,0.0,1.0,0.0,1.0,0,0,,,0
1449618238601824063,295,0,/odom,bcmd_vector,0,0,0,3.38470637046,0.996293280951,0.0,0.0,0.0,0.473934892803,0.880559888584,0.301724288712,0.05,0.05,0.0,1.0,0.0,1.0,0,0,,,0
1449618238615078750,296,0,/odom,bcmd_vector,0,0,0,3.38470637046,0.996293280951,0.0,0.0,0.0,0.473934892803,0.880559888584,0.301724288712,0.05,0.05,0.0,1.0,0.0,1.0,0,0,,,0
1449618238653743588,297,0,/odom,bcmd_vector,0,0,0,3.38931006301,0.999754328762,0.0,0.0,0.0,0.473934892803,0.880559888584,0.301724288712,0.05,0.05,0.0,1.0,0.0,1.0,0,0,,,0
1449618238708316291,298,0,/odom,bcmd_vector,0,0,0,3.3985174481,1.00667642439,0.0,0.0,0.0,0.473934892803,0.880559888584,0.301724288712,0.05,0.05,0.0,1.0,0.0,1.0,0,0,,,0
1449618238755292911,299,0,/odom,bcmd_vector,0,0,0,3.40547746507,1.01179472949,0.0,0.0,0.0,0.466469699151,0.884537178288,0.301724288712,0.05,0.05,0.0,1.0,0.0,1.0,0,0,,,0
1449618238787607078,300,0,/odom,bcmd_vector,0,0,0,3.41011747638,1.01520693289,0.0,0.0,0.0,0.466469699151,0.884537178288,0.301724288712,0.05,0.05,0.0,1.0,0.0,1.0,0,0,,,0
1449618238825004541,301,0,/odom,bcmd_vector,0,0,0,3.419397499,1.02203133969,0.0,0.0,0.0,0.466469699151,0.884537178288,0.296136987457,0.05,0.05,0.0,1.0,0.0,1.0,0,0,,,0
1449618238853833877,302,0,/odom,bcmd_vector,0,0,0,3.42630303782,1.02722291141,0.0,0.0,0.0,0.471137081267,0.882060003999,0.296136987457,0.05,0.05,0.0,1.0,0.0,1.0,0,0,,,0
1449618238914325890,303,0,/odom,bcmd_vector,0,0,0,3.43090673037,1.03068395922,0.0,0.0,0.0,0.471137081267,0.882060003999,0.296136987457,0.05,0.05,0.0,1.0,0.0,1.0,0,0,,,0
1449618238935867199,304,0,/odom,bcmd_vector,0,0,0,3.43786674734,1.03580226432,0.0,0.0,0.0,0.397788302179,0.917477229499,0.324073493729,0.05,0.05,0.0,1.0,0.0,1.0,0,0,,,0
1449618238998384410,305,0,/odom,bcmd_vector,0,0,0,3.44477228616,1.04099383603,0.0,0.0,0.0,0.402630698339,0.915362507838,0.324073493729,0.05,0.05,0.0,1.0,0.0,1.0,0,0,,,0
1449618239012439663,306,0,/odom,bcmd_vector,0,0,0,3.4493759787,1.04445488385,0.0,0.0,0.0,0.352667955966,0.935748530768,0.335248096237,0.05,0.05,0.0,1.0,0.0,1.0,0,0,,,0
1449618239066978873,307,0,/odom,bcmd_vector,0,0,0,3.45622626815,1.04971914237,0.0,0.0,0.0,0.357607527576,0.93387196993,0.335248096237,0.05,0.05,0.0,1.0,0.0,1.0,0,0,,,0
1449618239094219187,308,0,/odom,bcmd_vector,0,0,0,3.46313180697,1.05491071409,0.0,0.0,0.0,0.352667955966,0.935748530768,0.335248096237,0.05,0.05,0.0,1.0,0.0,1.0,0,0,,,0
1449618239140379103,309,0,/odom,bcmd_vector,0,0,0,3.46773549951,1.0583717619,0.0,0.0,0.0,0.374845619781,0.927087245803,0.255629048119,0.05,0.05,0.0,1.0,0.0,1.0,0,0,,,0
1449618239198981030,310,0,/odom,bcmd_vector,0,0,0,3.47458578896,1.06363602042,0.0,0.0,0.0,0.379739115554,0.92509361911,0.255629048119,0.05,0.05,0.0,1.0,0.0,1.0,0,0,,,0
1449618239220737863,311,0,/odom,bcmd_vector,0,0,0,3.48371950821,1.07065503179,0.0,0.0,0.0,0.379739115554,0.92509361911,0.255629048119,0.05,0.05,0.0,1.0,0.0,1.0,0,0,,,0
1449618239300986710,312,0,/odom,bcmd_vector,0,0,0,3.49051378322,1.0759913892,0.0,0.0,0.0,0.384622008688,0.923074163019,0.255629048119,0.05,0.05,0.0,1.0,0.0,1.0,0,0,,,0
1449618239311306257,313,0,/odom,bcmd_vector,0,0,0,3.50415834768,1.08659200513,0.0,0.0,0.0,0.384622008688,0.923074163019,0.255629048119,0.05,0.05,0.0,1.0,0.0,1.0,0,0,,,0
1449618239345542905,314,0,/odom,bcmd_vector,0,0,0,3.50415834768,1.08659200513,0.0,0.0,0.0,0.384622008688,0.923074163019,0.255629048119,0.05,0.05,0.0,1.0,0.0,1.0,0,0,,,0
1449618239415697111,315,0,/odom,bcmd_vector,0,0,0,3.51321738103,1.09370714834,0.0,0.0,0.0,0.384622008688,0.923074163019,0.255629048119,0.05,0.05,0.0,1.0,0.0,1.0,0,0,,,0
1449618239458299818,316,0,/odom,bcmd_vector,0,0,0,3.52680593105,1.10437986315,0.0,0.0,0.0,0.384622008688,0.923074163019,0.255629048119,0.05,0.05,0.0,1.0,0.0,1.0,0,0,,,0
1449618239469564813,317,0,/odom,bcmd_vector,0,0,0,3.53354343282,1.10978772346,0.0,0.0,0.0,0.38949416285,0.921028933913,0.255629048119,0.05,0.05,0.0,1.0,0.0,1.0,0,0,,,0
1449618239520023105,318,0,/odom,bcmd_vector,0,0,0,3.53354343282,1.10978772346,0.0,0.0,0.0,0.38949416285,0.921028933913,0.255629048119,0.05,0.05,0.0,1.0,0.0,1.0,0,0,,,0
1449618239539274086,319,0,/odom,bcmd_vector,0,0,0,3.54252676852,1.11699820388,0.0,0.0,0.0,0.38949416285,0.921028933913,0.255629048119,0.05,0.05,0.0,1.0,0.0,1.0,0,0,,,0
1449618239594435882,320,0,/odom,bcmd_vector,0,0,0,3.54920674459,1.12247696313,0.0,0.0,0.0,0.394355442005,0.918957988899,0.255629048119,0.05,0.05,0.0,1.0,0.0,1.0,0,0,,,0
1449618239622565279,321,0,/odom,bcmd_vector,0,0,0,3.55811337936,1.12978197546,0.0,0.0,0.0,0.394355442005,0.918957988899,0.255629048119,0.05,0.05,0.0,1.0,0.0,1.0,0,0,,,0
1449618239670132913,322,0,/odom,bcmd_vector,0,0,0,3.56256669674,1.13343448162,0.0,0.0,0.0,0.394355442005,0.918957988899,0.255629048119,0.05,0.05,0.0,1.0,0.0,1.0,0,0,,,0
1449618239703014015,323,0,/odom,bcmd_vector,0,0,0,3.57147333151,1.14073949396,0.0,0.0,0.0,0.394355442005,0.918957988899,0.255629048119,0.05,0.05,0.0,1.0,0.0,1.0,0,0,,,0
1449618239745428153,324,0,/odom,bcmd_vector,0,0,0,3.57592664889,1.14439200012,0.0,0.0,0.0,0.394355442005,0.918957988899,0.259819524059,0.05,0.05,0.0,1.0,0.0,1.0,0,0,,,0
1449618239787754729,325,0,/odom,bcmd_vector,0,0,0,3.58254835323,1.14994104643,0.0,0.0,0.0,0.399205710421,0.916861385798,0.259819524059,0.05,0.05,0.0,1.0,0.0,1.0,0,0,,,0
1449618239863334596,326,0,/odom,bcmd_vector,0,0,0,3.58922832931,1.15541980568,0.0,0.0,0.0,0.394355442005,0.918957988899,0.259819524059,0.05,0.05,0.0,1.0,0.0,1.0,0,0,,,0
1449618239915969077,327,0,/odom,bcmd_vector,0,0,0,3.60026450321,1.16466821619,0.0,0.0,0.0,0.399205710421,0.916861385798,0.259819524059,0.05,0.05,0.0,1.0,0.0,1.0,0,0,,,0
1449618239947543535,328,0,/odom,bcmd_vector,0,0,0,3.60909344233,1.1720669446,0.0,0.0,0.0,0.399205710421,0.916861385798,0.259819524059,0.05,0.05,0.0,1.0,0.0,1.0,0,0,,,0
1449618239965947752,329,0,/odom,bcmd_vector,0,0,0,3.61350791189,1.1757663088,0.0,0.0,0.0,0.399205710421,0.916861385798,0.259819524059,0.05,0.05,0.0,1.0,0.0,1.0,0,0,,,0
1449618239993517197,330,0,/odom,bcmd_vector,0,0,0,3.61350791189,1.1757663088,0.0,0.0,0.0,0.399205710421,0.916861385798,0.259819524059,0.05,0.05,0.0,1.0,0.0,1.0,0,0,,,0
1449618240027458007,331,0,/odom,bcmd_vector,0,0,0,3.61792238145,1.17946567301,0.0,0.0,0.0,0.399205710421,0.916861385798,0.259819524059,0.05,0.05,0.0,1.0,0.0,1.0,0,0,,,0
1449618240065227800,332,0,/odom,bcmd_vector,0,0,0,3.62448507453,1.18508438664,0.0,0.0,0.0,0.404044832675,0.914739183149,0.259819524059,0.05,0.05,0.0,1.0,0.0,1.0,0,0,,,0
1449618240100127556,333,0,/odom,bcmd_vector,0,0,0,3.63110677887,1.19063343295,0.0,0.0,0.0,0.399205710421,0.916861385798,0.259819524059,0.05,0.05,0.0,1.0,0.0,1.0,0,0,,,0
1449618240139862379,334,0,/odom,bcmd_vector,0,0,0,3.63544207811,1.19442526858,0.0,0.0,0.0,0.366446222048,0.930439233022,0.346422698746,0.05,0.05,0.0,1.0,0.0,1.0,0,0,,,0
1449618240180741977,335,0,/odom,bcmd_vector,0,0,0,3.64200477119,1.20004398221,0.0,0.0,0.0,0.404044832675,0.914739183149,0.259819524059,0.05,0.05,0.0,1.0,0.0,1.0,0,0,,,0
1449618240226094384,336,0,/odom,bcmd_vector,0,0,0,3.64850772006,1.20573173565,0.0,0.0,0.0,0.408872673654,0.912591440207,0.259819524059,0.05,0.05,0.0,1.0,0.0,1.0,0,0,,,0
1449618240263010575,337,0,/odom,bcmd_vector,0,0,0,3.65284301931,1.20952357128,0.0,0.0,0.0,0.408872673654,0.912591440207,0.259819524059,0.05,0.05,0.0,1.0,0.0,1.0,0,0,,,0
1449618240303888697,338,0,/odom,bcmd_vector,0,0,0,3.65717831856,1.21331540691,0.0,0.0,0.0,0.408872673654,0.912591440207,0.259819524059,0.05,0.05,0.0,1.0,0.0,1.0,0,0,,,0
1449618240349884925,339,0,/odom,bcmd_vector,0,0,0,3.66151361781,1.21710724254,0.0,0.0,0.0,0.408872673654,0.912591440207,0.255629048119,0.05,0.05,0.0,1.0,0.0,1.0,0,0,,,0
1449618240388218384,340,0,/odom,bcmd_vector,0,0,0,3.66584891706,1.22089907817,0.0,0.0,0.0,0.408872673654,0.912591440207,0.255629048119,0.05,0.05,0.0,1.0,0.0,1.0,0,0,,,0
1449618240414377475,341,0,/odom,bcmd_vector,0,0,0,3.67229139546,1.22665523621,0.0,0.0,0.0,0.37135754698,0.928489941949,0.346422698746,0.05,0.05,0.0,1.0,0.0,1.0,0,0,,,0
1449618240479870932,342,0,/odom,bcmd_vector,0,0,0,3.67879434433,1.23234298965,0.0,0.0,0.0,0.408872673654,0.912591440207,0.259819524059,0.05,0.05,0.0,1.0,0.0,1.0,0,0,,,0
1449618240497077495,343,0,/odom,bcmd_vector,0,0,0,3.68094183713,1.234261709,0.0,0.0,0.0,0.37135754698,0.928489941949,0.346422698746,0.05,0.05,0.0,1.0,0.0,1.0,0,0,,,0
1449618240547686995,344,0,/odom,bcmd_vector,0,0,0,3.68953180834,1.24193658638,0.0,0.0,0.0,0.37135754698,0.928489941949,0.340835397491,0.05,0.05,0.0,1.0,0.0,1.0,0,0,,,0
1449618240585707086,345,0,/odom,bcmd_vector,0,0,0,3.69382679394,1.24577402507,0.0,0.0,0.0,0.37135754698,0.928489941949,0.340835397491,0.05,0.05,0.0,1.0,0.0,1.0,0,0,,,0
1449618240613645342,346,0,/odom,bcmd_vector,0,0,0,3.69812177954,1.24961146375,0.0,0.0,0.0,0.37135754698,0.928489941949,0.340835397491,0.05,0.05,0.0,1.0,0.0,1.0,0,0,,,0
1449618240666666501,347,0,/odom,bcmd_vector,0,0,0,3.70450306796,1.25543538352,0.0,0.0,0.0,0.376258503294,0.92651472665,0.340835397491,0.05,0.05,0.0,1.0,0.0,1.0,0,0,,,0
1449618240731925915,348,0,/odom,bcmd_vector,0,0,0,3.70875726024,1.25931799669,0.0,0.0,0.0,0.376258503294,0.92651472665,0.340835397491,0.05,0.05,0.0,1.0,0.0,1.0,0,0,,,0
