%time,field.robot_pose.position.x,field.robot_pose.position.y,field.robot_pose.position.z,field.robot_pose.orientation.x,field.robot_pose.orientation.y,field.robot_pose.orientation.z,field.robot_pose.orientation.w,field.ctime,field.hasac,field.acmd.linear.x,field.acmd.linear.y,field.acmd.linear.z,field.acmd.angular.x,field.acmd.angular.y,field.acmd.angular.z,field.hasuc,field.ucmd.linear.x,field.ucmd.linear.y,field.ucmd.linear.z,field.ucmd.angular.x,field.ucmd.angular.y,field.ucmd.angular.z,field.bcmd.linear.x,field.bcmd.linear.y,field.bcmd.linear.z,field.bcmd.angular.x,field.bcmd.angular.y,field.bcmd.angular.z,field.blending,field.blendingno,field.controlstate,field.alpha,field.source,field.sxb
1449618217611201313,0.0,0.0,0.0,0.0,0.0,0.0,1.0,1449618217609352456,1,0.0,0.0,0.0,0.0,0.0,0.0,1,-0.0,0.0,0.0,0.0,0.0,-0.0,-0.0,0.0,0.0,0.0,0.0,-0.0,,0,Sharing Zero Relinquish,10.0,,0
1449618217650093265,0.0,0.0,0.0,0.0,0.0,0.0,1.0,1449618217649543354,1,0.0,0.0,0.0,0.0,0.0,0.0,1,-0.0,0.0,0.0,0.0,0.0,-0.0,-0.0,0.0,0.0,0.0,0.0,-0.0,,0,Sharing Zero Relinquish,10.0,,0
1449618217691950271,0.0,0.0,0.0,0.0,0.0,0.0,1.0,1449618217689517292,1,0.0,0.0,0.0,0.0,0.0,0.0,1,-0.0,0.0,0.0,0.0,0.0,-0.0,-0.0,0.0,0.0,0.0,0.0,-0.0,,0,Sharing Zero Relinquish,10.0,,0
1449618217734813238,0.0,0.0,0.0,0.0,0.0,0.0,1.0,1449618217733658945,1,0.0,0.0,0.0,0.0,0.0,0.0,1,-0.0,0.0,0.0,0.0,0.0,-0.0,-0.0,0.0,0.0,0.0,0.0,-0.0,,0,Sharing Zero Relinquish,10.0,user,0
1449618217771179721,0.0,0.0,0.0,0.0,0.0,0.0,1.0,1449618217769362545,1,0.0,0.0,0.0,0.0,0.0,0.0,1,-0.0,0.0,0.0,0.0,0.0,-0.0,-0.0,0.0,0.0,0.0,0.0,-0.0,,0,Sharing Zero Relinquish,10.0,user,0
1449618217810020321,0.0,0.0,0.0,0.0,0.0,0.0,1.0,1449618217809339769,1,0.0,0.0,0.0,0.0,0.0,0.0,1,-0.0,0.0,0.0,0.0,0.0,-0.0,-0.0,0.0,0.0,0.0,0.0,-0.0,,0,Sharing Zero Relinquish,10.0,user,0
1449618217850324710,0.0,0.0,0.0,0.0,0.0,0.0,1.0,1449618217849349545,1,0.0,0.0,0.0,0.0,0.0,0.0,1,-0.0,0.0,0.0,0.0,0.0,-0.0,-0.0,0.0,0.0,0.0,0.0,-0.0,,0,Sharing Zero Relinquish,10.0,user,0
1449618217901130252,0.0,0.0,0.0,0.0,0.0,0.0,1.0,1449618217898281746,1,0.0,0.0,0.0,0.0,0.0,0.0,1,-0.0,0.0,0.0,0.0,0.0,-0.0,-0.0,0.0,0.0,0.0,0.0,-0.0,,0,Allway Blend,10.0,user,0
1449618217933960722,0.0,0.0,0.0,0.0,0.0,0.0,1.0,1449618217929326893,1,0.0,0.0,0.0,0.0,0.0,0.0,1,-0.0,0.0,0.0,0.0,0.0,-0.0,-0.0,0.0,0.0,0.0,0.0,-0.0,,0,Allway Blend,10.0,user,0
1449618217969927266,0.0,0.0,0.0,0.0,0.0,0.0,1.0,1449618217969340964,1,0.0,0.0,0.0,0.0,0.0,0.0,1,-0.0,0.0,0.0,0.0,0.0,-0.0,-0.0,0.0,0.0,0.0,0.0,-0.0,,0,Allway Blend,10.0,user,0
1449618218010271108,0.0,0.0,0.0,0.0,0.0,0.0,1.0,1449618218009333043,1,0.0,0.0,0.0,0.0,0.0,0.0,1,-0.0,0.0,0.0,0.0,0.0,-0.0,-0.0,0.0,0.0,0.0,0.0,-0.0,,0,Allway Blend,10.0,user,0
1449618218049639889,0.0,0.0,0.0,0.0,0.0,0.0,1.0,1449618218049330428,1,0.0,0.0,0.0,0.0,0.0,0.0,1,-0.0,0.0,0.0,0.0,0.0,-0.0,-0.0,0.0,0.0,0.0,0.0,-0.0,,0,Allway Blend,10.0,user,0
1449618218089831648,0.0,0.0,0.0,0.0,0.0,0.0,1.0,1449618218089322802,1,0.0,0.0,0.0,0.0,0.0,0.0,1,-0.0,0.0,0.0,0.0,0.0,-0.0,-0.0,0.0,0.0,0.0,0.0,-0.0,,0,Allway Blend,10.0,user,0
1449618218129940454,0.0,0.0,0.0,0.0,0.0,0.0,1.0,1449618218129375828,1,0.0,0.0,0.0,0.0,0.0,0.0,1,-0.0,0.0,0.0,0.0,0.0,-0.0,-0.0,0.0,0.0,0.0,0.0,-0.0,,0,Allway Blend,10.0,user,0
1449618218169728634,0.0,0.0,0.0,0.0,0.0,0.0,1.0,1449618218169331774,1,0.0,0.0,0.0,0.0,0.0,0.0,1,-0.0,0.0,0.0,0.0,0.0,-0.0,-0.0,0.0,0.0,0.0,0.0,-0.0,,0,Allway Blend,10.0,user,0
1449618218209788622,0.0,0.0,0.0,0.0,0.0,0.0,1.0,1449618218209337355,1,0.0,0.0,0.0,0.0,0.0,0.0,1,-0.0,0.0,0.0,0.0,0.0,-0.0,-0.0,0.0,0.0,0.0,0.0,-0.0,,0,Allway Blend,10.0,user,0
1449618218250362712,0.0,0.0,0.0,0.0,0.0,0.0,1.0,1449618218249338537,1,0.0,0.0,0.0,0.0,0.0,0.0,1,-0.0,0.0,0.0,0.0,0.0,-0.0,-0.0,0.0,0.0,0.0,0.0,-0.0,,0,Allway Blend,10.0,user,0
1449618218289753018,0.0,0.0,0.0,0.0,0.0,0.0,1.0,1449618218289330523,1,0.0,0.0,0.0,0.0,0.0,0.0,1,-0.0,0.0,0.0,0.0,0.0,-0.0,-0.0,0.0,0.0,0.0,0.0,-0.0,,0,Allway Blend,10.0,user,0
1449618218330098567,0.0,0.0,0.0,0.0,0.0,0.0,1.0,1449618218329341987,1,0.0,0.0,0.0,0.0,0.0,0.0,1,-0.0,0.0,0.0,0.0,0.0,-0.0,-0.0,0.0,0.0,0.0,0.0,-0.0,,0,Allway Blend,10.0,user,0
1449618218370560885,0.0,0.0,0.0,0.0,0.0,0.0,1.0,1449618218369324637,1,0.0,0.0,0.0,0.0,0.0,0.0,1,-0.0,0.0,0.0,0.0,0.0,-0.0,-0.0,0.0,0.0,0.0,0.0,-0.0,,0,Allway Blend,10.0,user,0
1449618218409792756,0.0,0.0,0.0,0.0,0.0,0.0,1.0,1449618218409335739,1,0.0,0.0,0.0,0.0,0.0,0.0,1,-0.0,0.0,0.0,0.0,0.0,-0.0,-0.0,0.0,0.0,0.0,0.0,-0.0,,0,Allway Blend,10.0,user,0
1449618218450726979,0.0,0.0,0.0,0.0,0.0,0.0,1.0,1449618218449349909,1,0.0,0.0,0.0,0.0,0.0,0.0,1,-0.0,0.0,0.0,0.0,0.0,-0.0,-0.0,0.0,0.0,0.0,0.0,-0.0,,0,Allway Blend,10.0,user,0
1449618218490208472,0.0,0.0,0.0,0.0,0.0,0.0,1.0,1449618218489339289,1,0.0,0.0,0.0,0.0,0.0,0.0,1,-0.0,0.0,0.0,0.0,0.0,-0.0,-0.0,0.0,0.0,0.0,0.0,-0.0,,0,Allway Blend,10.0,user,0
1449618218529824055,0.0,0.0,0.0,0.0,0.0,0.0,1.0,1449618218529342817,1,0.0,0.0,0.0,0.0,0.0,0.0,1,-0.0,0.0,0.0,0.0,0.0,-0.0,-0.0,0.0,0.0,0.0,0.0,-0.0,,0,Allway Blend,10.0,user,0
1449618218570131629,0.0,0.0,0.0,0.0,0.0,0.0,1.0,1449618218569317707,1,0.0,0.0,0.0,0.0,0.0,0.0,1,-0.0,0.0,0.0,0.0,0.0,-0.0,-0.0,0.0,0.0,0.0,0.0,-0.0,,0,Allway Blend,10.0,user,0
1449618218610505845,0.0,0.0,0.0,0.0,0.0,0.0,1.0,1449618218609333443,1,0.0,0.0,0.0,0.0,0.0,0.0,1,-0.0,0.0,0.0,0.0,0.0,-0.0,-0.0,0.0,0.0,0.0,0.0,-0.0,,0,Allway Blend,10.0,user,0
1449618218651328047,0.0,0.0,0.0,0.0,0.0,0.0,1.0,1449618218649363110,1,0.0,0.0,0.0,0.0,0.0,0.0,1,-0.0,0.0,0.0,0.0,0.0,-0.0,-0.0,0.0,0.0,0.0,0.0,-0.0,,0,Allway Blend,10.0,user,0
1449618218692824345,0.0,0.0,0.0,0.0,0.0,0.0,1.0,1449618218689374829,1,0.0,0.0,0.0,0.0,0.0,0.0,1,-0.0,0.0,0.0,0.0,0.0,-0.0,-0.0,0.0,0.0,0.0,0.0,-0.0,,0,Allway Blend,10.0,user,0
1449618218731538981,0.0,0.0,0.0,0.0,0.0,0.0,1.0,1449618218729372659,1,0.0,0.0,0.0,0.0,0.0,0.0,1,-0.0,0.0,0.0,0.0,0.0,-0.0,-0.0,0.0,0.0,0.0,0.0,-0.0,,0,Allway Blend,10.0,user,0
1449618218770523868,0.0,0.0,0.0,0.0,0.0,0.0,1.0,1449618218769335607,1,0.0,0.0,0.0,0.0,0.0,0.0,1,-0.0,0.0,0.0,0.0,0.0,-0.0,-0.0,0.0,0.0,0.0,0.0,-0.0,,0,Allway Blend,10.0,user,0
1449618218810067342,0.0,0.0,0.0,0.0,0.0,0.0,1.0,1449618218809329276,1,0.0,0.0,0.0,0.0,0.0,0.0,1,-0.0,0.0,0.0,0.0,0.0,-0.0,-0.0,0.0,0.0,0.0,0.0,-0.0,,0,Allway Blend,10.0,user,0
1449618218851795563,0.0,0.0,0.0,0.0,0.0,0.0,1.0,1449618218849361019,1,0.0,0.0,0.0,0.0,0.0,0.0,1,-0.0,0.0,0.0,0.0,0.0,-0.0,-0.0,0.0,0.0,0.0,0.0,-0.0,,0,Allway Blend,10.0,user,0
1449618218890549624,0.0,0.0,0.0,0.0,0.0,0.0,1.0,1449618218889340951,1,0.0,0.0,0.0,0.0,0.0,0.0,1,-0.0,0.0,0.0,0.0,0.0,-0.0,-0.0,0.0,0.0,0.0,0.0,-0.0,,0,Allway Blend,10.0,user,0
1449618218930482251,0.0,0.0,0.0,0.0,0.0,0.0,1.0,1449618218929334071,1,0.0,0.0,0.0,0.0,0.0,0.0,1,-0.0,0.0,0.0,0.0,0.0,-0.0,-0.0,0.0,0.0,0.0,0.0,-0.0,,0,Allway Blend,10.0,user,0
1449618218970089475,0.0,0.0,0.0,0.0,0.0,0.0,1.0,1449618218969357977,1,0.0,0.0,0.0,0.0,0.0,0.0,1,-0.0,0.0,0.0,0.0,0.0,-0.0,-0.0,0.0,0.0,0.0,0.0,-0.0,,0,Allway Blend,10.0,user,0
1449618219010543658,0.0,0.0,0.0,0.0,0.0,0.0,1.0,1449618219009331846,1,0.0,0.0,0.0,0.0,0.0,0.0,1,-0.0,0.0,0.0,0.0,0.0,-0.0,-0.0,0.0,0.0,0.0,0.0,-0.0,,0,Allway Blend,10.0,user,0
1449618219053539020,0.0,0.0,0.0,0.0,0.0,0.0,1.0,1449618219050523089,1,0.0,0.0,0.0,0.0,0.0,0.0,1,-0.0,0.0,0.0,0.0,0.0,-0.0,-0.0,0.0,0.0,0.0,0.0,-0.0,,0,Allway Blend,10.0,user,0
1449618219095490456,0.0,0.0,0.0,0.0,0.0,0.0,1.0,1449618219090541771,1,0.0,0.0,0.0,0.0,0.0,0.0,1,-0.0,0.0,0.0,0.0,0.0,-0.0,-0.0,0.0,0.0,0.0,0.0,-0.0,,0,Allway Blend,10.0,user,0
1449618219131285054,0.0,0.0,0.0,0.0,0.0,0.0,1.0,1449618219129360166,1,0.0,0.0,0.0,0.0,0.0,0.0,1,-0.0,0.0,0.0,0.0,0.0,-0.0,-0.0,0.0,0.0,0.0,0.0,-0.0,,0,Allway Blend,10.0,user,0
1449618219170210249,0.0,0.0,0.0,0.0,0.0,0.0,1.0,1449618219169341318,1,0.0,0.0,0.0,0.0,0.0,0.0,1,-0.0,0.0,0.0,0.0,0.0,-0.0,-0.0,0.0,0.0,0.0,0.0,-0.0,,0,Allway Blend,10.0,user,0
1449618219213251445,0.0,0.0,0.0,0.0,0.0,0.0,1.0,1449618219209357575,1,0.0,0.0,0.0,0.0,0.0,0.0,1,-0.0,0.0,0.0,0.0,0.0,-0.0,-0.0,0.0,0.0,0.0,0.0,-0.0,,0,Allway Blend,10.0,user,0
1449618219250677902,0.0,0.0,0.0,0.0,0.0,0.0,1.0,1449618219249388414,1,0.0,0.0,0.0,0.0,0.0,0.0,1,-0.0,0.0,0.0,0.0,0.0,-0.0,-0.0,0.0,0.0,0.0,0.0,-0.0,,0,Allway Blend,10.0,user,0
1449618219291126520,0.0,0.0,0.0,0.0,0.0,0.0,1.0,1449618219289345302,1,0.0,0.0,0.0,0.0,0.0,0.0,1,-0.0,0.0,0.0,0.0,0.0,-0.0,-0.0,0.0,0.0,0.0,0.0,-0.0,,0,Allway Blend,10.0,user,0
1449618219330519580,0.0,0.0,0.0,0.0,0.0,0.0,1.0,1449618219329330616,1,0.0,0.0,0.0,0.0,0.0,0.0,1,-0.0,0.0,0.0,0.0,0.0,-0.0,-0.0,0.0,0.0,0.0,0.0,-0.0,,0,Allway Blend,10.0,user,0
1449618219370815578,0.0,0.0,0.0,0.0,0.0,0.0,1.0,1449618219369339233,1,0.0,0.0,0.0,0.0,0.0,0.0,1,-0.0,0.0,0.0,0.0,0.0,-0.0,-0.0,0.0,0.0,0.0,0.0,-0.0,,0,Allway Blend,10.0,user,0
1449618219411593257,0.0,0.0,0.0,0.0,0.0,0.0,1.0,1449618219409465934,1,0.0,0.0,0.0,0.0,0.0,0.0,1,-0.0,0.0,0.0,0.0,0.0,-0.0,-0.0,0.0,0.0,0.0,0.0,-0.0,,0,Allway Blend,10.0,user,0
1449618219449686517,0.0,0.0,0.0,0.0,0.0,0.0,1.0,1449618219449326650,1,0.0,0.0,0.0,0.0,0.0,0.0,1,-0.0,0.0,0.0,0.0,0.0,-0.0,-0.0,0.0,0.0,0.0,0.0,-0.0,,0,Allway Blend,10.0,user,0
1449618219491912282,0.0,0.0,0.0,0.0,0.0,0.0,1.0,1449618219491100718,1,0.0,0.0,0.0,0.0,0.0,0.0,1,-0.0,0.0,0.0,0.0,0.0,-0.0,-0.0,0.0,0.0,0.0,0.0,-0.0,,0,Allway Blend,10.0,user,0
1449618219530161512,0.0,0.0,0.0,0.0,0.0,0.0,1.0,1449618219529371572,1,0.0,0.0,0.0,0.0,0.0,0.0,1,-0.0,0.0,0.0,0.0,0.0,-0.0,-0.0,0.0,0.0,0.0,0.0,-0.0,,0,Allway Blend,10.0,user,0
1449618219570826992,0.0,0.0,0.0,0.0,0.0,0.0,1.0,1449618219569461436,1,0.0,0.0,0.0,0.0,0.0,0.0,1,-0.0,0.0,0.0,0.0,0.0,-0.0,-0.0,0.0,0.0,0.0,0.0,-0.0,,0,Allway Blend,10.0,user,0
1449618219610832892,0.0,0.0,0.0,0.0,0.0,0.0,1.0,1449618219610024889,1,0.0,0.0,0.0,0.0,0.0,0.0,1,-0.0,0.0,0.0,0.0,0.0,-0.0,-0.0,0.0,0.0,0.0,0.0,-0.0,,0,Allway Blend,10.0,user,0
1449618219655526744,0.0,0.0,0.0,0.0,0.0,0.0,1.0,1449618219653606852,1,0.0,0.0,0.0,0.0,0.0,0.0,1,-0.0,0.0,0.0,0.0,0.0,-0.0,-0.0,0.0,0.0,0.0,0.0,-0.0,,0,Allway Blend,10.0,user,0
1449618219691064225,0.0,0.0,0.0,0.0,0.0,0.0,1.0,1449618219689357703,1,0.0,0.0,0.0,0.0,0.0,0.0,1,-0.0,0.0,0.0,0.0,0.0,-0.0,-0.0,0.0,0.0,0.0,0.0,-0.0,,0,Allway Blend,10.0,user,0
1449618219730625258,0.0,0.0,0.0,0.0,0.0,0.0,1.0,1449618219729549791,1,0.0,0.0,0.0,0.0,0.0,0.0,1,-0.0,0.0,0.0,0.0,0.0,-0.0,-0.0,0.0,0.0,0.0,0.0,-0.0,,0,Allway Blend,10.0,user,0
1449618219777083427,0.0,0.0,0.0,0.0,0.0,0.0,1.0,1449618219769321359,1,0.0,0.0,0.0,0.0,0.0,0.0,1,-0.0,0.0,0.0,0.0,0.0,-0.0,-0.0,0.0,0.0,0.0,0.0,-0.0,,0,Allway Blend,10.0,user,0
1449618219810352720,0.0,0.0,0.0,0.0,0.0,0.0,1.0,1449618219809320002,1,0.0,0.0,0.0,0.0,0.0,0.0,1,-0.0,0.0,0.0,0.0,0.0,-0.0,-0.0,0.0,0.0,0.0,0.0,-0.0,,0,Allway Blend,10.0,user,0
1449618219851326177,0.0,0.0,0.0,0.0,0.0,0.0,1.0,1449618219849873542,1,0.0,0.0,0.0,0.0,0.0,0.0,1,-0.0,0.0,0.0,0.0,0.0,-0.0,-0.0,0.0,0.0,0.0,0.0,-0.0,,0,Allway Blend,10.0,user,0
1449618219892317692,0.0,0.0,0.0,0.0,0.0,0.0,1.0,1449618219889340763,1,0.0,0.0,0.0,0.0,0.0,0.0,1,-0.0,0.0,0.0,0.0,0.0,-0.0,-0.0,0.0,0.0,0.0,0.0,-0.0,,0,Allway Blend,10.0,user,0
1449618219930923062,0.0,0.0,0.0,0.0,0.0,0.0,1.0,1449618219929349884,1,0.0,0.0,0.0,0.0,0.0,0.0,1,-0.0,0.0,0.0,0.0,0.0,-0.0,-0.0,0.0,0.0,0.0,0.0,-0.0,,0,Allway Blend,10.0,user,0
1449618219969749324,0.0,0.0,0.0,0.0,0.0,0.0,1.0,1449618219969332325,1,0.0,0.0,0.0,0.0,0.0,0.0,1,-0.0,0.0,0.0,0.0,0.0,-0.0,-0.0,0.0,0.0,0.0,0.0,-0.0,,0,Allway Blend,10.0,user,0
1449618220010644394,0.0,0.0,0.0,0.0,0.0,0.0,1.0,1449618220009340172,1,0.0,0.0,0.0,0.0,0.0,0.0,1,-0.0,0.0,0.0,0.0,0.0,-0.0,-0.0,0.0,0.0,0.0,0.0,-0.0,,0,Allway Blend,10.0,user,0
1449618220050386232,0.0,0.0,0.0,0.0,0.0,0.0,1.0,1449618220049339958,1,0.0,0.0,0.0,0.0,0.0,0.0,1,-0.0,0.0,0.0,0.0,0.0,-0.0,-0.0,0.0,0.0,0.0,0.0,-0.0,,0,Allway Blend,10.0,user,0
1449618220090068244,0.0,0.0,0.0,0.0,0.0,0.0,1.0,1449618220089331962,1,0.0,0.0,0.0,0.0,0.0,0.0,1,-0.0,0.0,0.0,0.0,0.0,-0.0,-0.0,0.0,0.0,0.0,0.0,-0.0,,0,Allway Blend,10.0,user,0
1449618220129695464,0.0,0.0,0.0,0.0,0.0,0.0,1.0,1449618220129345088,1,0.0,0.0,0.0,0.0,0.0,0.0,1,-0.0,0.0,0.0,0.0,0.0,-0.0,-0.0,0.0,0.0,0.0,0.0,-0.0,,0,Allway Blend,10.0,user,0
1449618220173090076,0.0,0.0,0.0,0.0,0.0,0.0,1.0,1449618220169326343,1,0.0,0.0,0.0,0.0,0.0,0.0,1,-0.0,0.0,0.0,0.0,0.0,-0.0,-0.0,0.0,0.0,0.0,0.0,-0.0,,0,Allway Blend,10.0,user,0
1449618220211484436,0.0,0.0,0.0,0.0,0.0,0.0,1.0,1449618220209363085,1,0.0,0.0,0.0,0.0,0.0,0.0,1,-0.0,0.0,0.0,0.0,0.0,-0.0,-0.0,0.0,0.0,0.0,0.0,-0.0,,0,Allway Blend,10.0,user,0
1449618220249937854,0.0,0.0,0.0,0.0,0.0,0.0,1.0,1449618220249339537,1,0.0,0.0,0.0,0.0,0.0,0.0,1,-0.0,0.0,0.0,0.0,0.0,-0.0,-0.0,0.0,0.0,0.0,0.0,-0.0,,0,Allway Blend,10.0,user,0
1449618220290021327,0.0,0.0,0.0,0.0,0.0,0.0,1.0,1449618220289333513,1,0.0,0.0,0.0,0.0,0.0,0.0,1,-0.0,0.0,0.0,0.0,0.0,-0.0,-0.0,0.0,0.0,0.0,0.0,-0.0,,0,Allway Blend,10.0,user,0
1449618220331163754,0.0,0.0,0.0,0.0,0.0,0.0,1.0,1449618220329344211,1,0.0,0.0,0.0,0.0,0.0,0.0,1,-0.0,0.0,0.0,0.0,0.0,-0.0,-0.0,0.0,0.0,0.0,0.0,-0.0,,0,Allway Blend,10.0,user,0
1449618220372527904,0.0,0.0,0.0,0.0,0.0,0.0,1.0,1449618220369335100,1,0.0,0.0,0.0,0.0,0.0,0.0,1,-0.0,0.0,0.0,0.0,0.0,-0.0,-0.0,0.0,0.0,0.0,0.0,-0.0,,0,Allway Blend,10.0,user,0
1449618220413052298,0.0,0.0,0.0,0.0,0.0,0.0,1.0,1449618220409326003,1,0.0,0.0,0.0,0.0,0.0,0.0,1,-0.0,0.0,0.0,0.0,0.0,-0.0,-0.0,0.0,0.0,0.0,0.0,-0.0,,0,Allway Blend,10.0,user,0
1449618220449679500,0.0,0.0,0.0,0.0,0.0,0.0,1.0,1449618220449360264,1,0.0,0.0,0.0,0.0,0.0,0.0,1,-0.0,0.0,0.0,0.0,0.0,-0.0,-0.0,0.0,0.0,0.0,0.0,-0.0,,0,Allway Blend,10.0,user,0
1449618220489762189,0.0,0.0,0.0,0.0,0.0,0.0,1.0,1449618220489331530,1,0.0,0.0,0.0,0.0,0.0,0.0,1,-0.0,0.0,0.0,0.0,0.0,-0.0,-0.0,0.0,0.0,0.0,0.0,-0.0,,0,Allway Blend,10.0,user,0
1449618220530346606,0.0,0.0,0.0,0.0,0.0,0.0,1.0,1449618220529320661,1,0.0,0.0,0.0,0.0,0.0,0.0,1,-0.0,0.0,0.0,0.0,0.0,-0.0,-0.0,0.0,0.0,0.0,0.0,-0.0,,0,Allway Blend,10.0,user,0
1449618220570540034,0.0,0.0,0.0,0.0,0.0,0.0,1.0,1449618220569329663,1,0.0,0.0,0.0,0.0,0.0,0.0,1,-0.0,0.0,0.0,0.0,0.0,-0.0,-0.0,0.0,0.0,0.0,0.0,-0.0,,0,Allway Blend,10.0,user,0
1449618220609666250,0.0,0.0,0.0,0.0,0.0,0.0,1.0,1449618220609318398,1,0.0,0.0,0.0,0.0,0.0,0.0,1,-0.0,0.0,0.0,0.0,0.0,-0.0,-0.0,0.0,0.0,0.0,0.0,-0.0,,0,Allway Blend,10.0,user,0
1449618220650042861,0.0,0.0,0.0,0.0,0.0,0.0,1.0,1449618220649318949,1,0.0,0.0,0.0,0.0,0.0,0.0,1,-0.0,0.0,0.0,0.0,0.0,-0.0,-0.0,0.0,0.0,0.0,0.0,-0.0,,0,Allway Blend,10.0,user,0
1449618220689976912,0.0,0.0,0.0,0.0,0.0,0.0,1.0,1449618220689324230,1,0.0,0.0,0.0,0.0,0.0,0.0,1,-0.0,0.0,0.0,0.0,0.0,-0.0,-0.0,0.0,0.0,0.0,0.0,-0.0,,0,Allway Blend,10.0,user,0
1449618220731746301,0.0,0.0,0.0,0.0,0.0,0.0,1.0,1449618220730747225,1,0.0,0.0,0.0,0.0,0.0,0.0,1,-0.0,0.0,0.0,0.0,0.0,-0.0,-0.0,0.0,0.0,0.0,0.0,-0.0,,0,Allway Blend,10.0,user,0
1449618220770193518,0.0,0.0,0.0,0.0,0.0,0.0,1.0,1449618220769532258,1,0.0,0.0,0.0,0.0,0.0,0.0,1,-0.0,0.0,0.0,0.0,0.0,-0.0,-0.0,0.0,0.0,0.0,0.0,-0.0,,0,Allway Blend,10.0,user,0
1449618220809494138,0.0,0.0,0.0,0.0,0.0,0.0,1.0,1449618220809318949,1,0.0,0.0,0.0,0.0,0.0,0.0,1,-0.0,0.0,0.0,0.0,0.0,-0.0,-0.0,0.0,0.0,0.0,0.0,-0.0,,0,Allway Blend,10.0,user,0
1449618220850085947,0.0,0.0,0.0,0.0,0.0,0.0,1.0,1449618220849354241,1,0.0,0.0,0.0,0.0,0.0,0.0,1,-0.0,0.0,0.0,0.0,0.0,-0.0,-0.0,0.0,0.0,0.0,0.0,-0.0,,0,Allway Blend,10.0,user,0
1449618220890980561,0.0,0.0,0.0,0.0,0.0,0.0,1.0,1449618220889356047,1,0.0,0.0,0.0,0.0,0.0,0.0,1,-0.0,0.0,0.0,0.0,0.0,-0.0,-0.0,0.0,0.0,0.0,0.0,-0.0,,0,Allway Blend,10.0,user,0
1449618220930783459,0.0,0.0,0.0,0.0,0.0,0.0,1.0,1449618220929355583,1,0.0,0.0,0.0,0.0,0.0,0.0,1,-0.0,0.0,0.0,0.0,0.0,-0.0,-0.0,0.0,0.0,0.0,0.0,-0.0,,0,Allway Blend,10.0,user,0
1449618220978475466,0.0,0.0,0.0,0.0,0.0,0.0,1.0,1449618220969335006,1,0.0,0.0,0.0,0.0,0.0,0.0,1,-0.0,0.0,0.0,0.0,0.0,-0.0,-0.0,0.0,0.0,0.0,0.0,-0.0,,0,Allway Blend,10.0,user,0
1449618221010716986,0.0,0.0,0.0,0.0,0.0,0.0,1.0,1449618221009339751,1,0.0,0.0,0.0,0.0,0.0,0.0,1,-0.0,0.0,0.0,0.0,0.0,-0.0,-0.0,0.0,0.0,0.0,0.0,-0.0,,0,Allway Blend,10.0,user,0
1449618221049776280,0.0,0.0,0.0,0.0,0.0,0.0,1.0,1449618221049327689,1,0.0,0.0,0.0,0.0,0.0,0.0,1,-0.0,0.0,0.0,0.0,0.0,-0.0,-0.0,0.0,0.0,0.0,0.0,-0.0,,0,Allway Blend,10.0,user,0
1449618221090771915,0.0,0.0,0.0,0.0,0.0,0.0,1.0,1449618221089347183,1,0.0,0.0,0.0,0.0,0.0,0.0,1,-0.0,0.0,0.0,0.0,0.0,-0.0,-0.0,0.0,0.0,0.0,0.0,-0.0,,0,Allway Blend,10.0,user,0
1449618221130017667,0.0,0.0,0.0,0.0,0.0,0.0,1.0,1449618221129335413,1,0.0,0.0,0.0,0.0,0.0,0.0,1,-0.0,0.0,0.0,0.0,0.0,-0.0,-0.0,0.0,0.0,0.0,0.0,-0.0,,0,Allway Blend,10.0,user,0
1449618221170077939,0.0,0.0,0.0,0.0,0.0,0.0,1.0,1449618221169354645,1,0.0,0.0,0.0,0.0,0.0,0.0,1,-0.0,0.0,0.0,0.0,0.0,-0.0,-0.0,0.0,0.0,0.0,0.0,-0.0,,0,Allway Blend,10.0,user,0
1449618221209705044,0.0,0.0,0.0,0.0,0.0,0.0,1.0,1449618221209333044,1,0.0,0.0,0.0,0.0,0.0,0.0,1,-0.0,0.0,0.0,0.0,0.0,-0.0,-0.0,0.0,0.0,0.0,0.0,-0.0,,0,Allway Blend,10.0,user,0
1449618221250348539,0.0,0.0,0.0,0.0,0.0,0.0,1.0,1449618221249355788,1,0.0,0.0,0.0,0.0,0.0,0.0,1,-0.0,0.0,0.0,0.0,0.0,-0.0,-0.0,0.0,0.0,0.0,0.0,-0.0,,0,Allway Blend,10.0,user,0
1449618221289686022,0.0,0.0,0.0,0.0,0.0,0.0,1.0,1449618221289333429,1,0.0,0.0,0.0,0.0,0.0,0.0,1,-0.0,0.0,0.0,0.0,0.0,-0.0,-0.0,0.0,0.0,0.0,0.0,-0.0,,0,Allway Blend,10.0,user,0
1449618221330091318,0.0,0.0,0.0,0.0,0.0,0.0,1.0,1449618221329319364,1,0.0,0.0,0.0,0.0,0.0,0.0,1,-0.0,0.0,0.0,0.0,0.0,-0.0,-0.0,0.0,0.0,0.0,0.0,-0.0,,0,Allway Blend,10.0,user,0
1449618221370725897,0.0,0.0,0.0,0.0,0.0,0.0,1.0,1449618221369345481,1,0.0,0.0,0.0,0.0,0.0,0.0,1,-0.0,0.0,0.0,0.0,0.0,-0.0,-0.0,0.0,0.0,0.0,0.0,-0.0,,0,Allway Blend,10.0,user,0
1449618221409867946,0.0,0.0,0.0,0.0,0.0,0.0,1.0,1449618221409336140,1,0.0,0.0,0.0,0.0,0.0,0.0,1,-0.0,0.0,0.0,0.0,0.0,-0.0,-0.0,0.0,0.0,0.0,0.0,-0.0,,0,Allway Blend,10.0,user,0
1449618221449566868,0.0,0.0,0.0,0.0,0.0,0.0,1.0,1449618221449319322,1,0.0,0.0,0.0,0.0,0.0,0.0,1,-0.0,0.0,0.0,0.0,0.0,-0.0,-0.0,0.0,0.0,0.0,0.0,-0.0,,0,Allway Blend,10.0,user,0
1449618221490670153,0.0,0.0,0.0,0.0,0.0,0.0,1.0,1449618221489341974,1,0.0,0.0,0.0,0.0,0.0,0.0,1,-0.0,0.0,0.0,0.0,0.0,-0.0,-0.0,0.0,0.0,0.0,0.0,-0.0,,0,Allway Blend,10.0,user,0
1449618221531791769,0.0,0.0,0.0,0.0,0.0,0.0,1.0,1449618221529503928,1,0.0,0.0,0.0,0.0,0.0,0.0,1,-0.0,0.0,0.0,0.0,0.0,-0.0,-0.0,0.0,0.0,0.0,0.0,-0.0,,0,Allway Blend,10.0,user,0
1449618221570108803,0.0,0.0,0.0,0.0,0.0,0.0,1.0,1449618221569286559,1,0.0,0.0,0.0,0.0,0.0,0.0,1,-0.0,0.0,0.0,0.0,0.0,-0.0,-0.0,0.0,0.0,0.0,0.0,-0.0,,0,Allway Blend,10.0,user,0
1449618221609912933,0.0,0.0,0.0,0.0,0.0,0.0,1.0,1449618221609337601,1,0.0,0.0,0.0,0.0,0.0,0.0,1,-0.0,0.0,0.0,0.0,0.0,-0.0,-0.0,0.0,0.0,0.0,0.0,-0.0,,0,Allway Blend,10.0,user,0
1449618221650946050,0.0,0.0,0.0,0.0,0.0,0.0,1.0,1449618221649341211,1,0.0,0.0,0.0,0.0,0.0,0.0,1,-0.0,0.0,0.0,0.0,0.0,-0.0,-0.0,0.0,0.0,0.0,0.0,-0.0,,0,Allway Blend,10.0,user,0
1449618221690492383,0.0,0.0,0.0,0.0,0.0,0.0,1.0,1449618221689446189,1,0.0,0.0,0.0,0.0,0.0,0.0,1,-0.0,0.0,0.0,0.0,0.0,-0.0,-0.0,0.0,0.0,0.0,0.0,-0.0,,0,Allway Blend,10.0,user,0
1449618221730135120,0.0,0.0,0.0,0.0,0.0,0.0,1.0,1449618221729357384,1,0.0,0.0,0.0,0.0,0.0,0.0,1,-0.0,0.0,0.0,0.0,0.0,-0.0,-0.0,0.0,0.0,0.0,0.0,-0.0,,0,Allway Blend,10.0,user,0
1449618221769615557,0.0,0.0,0.0,0.0,0.0,0.0,1.0,1449618221769318370,1,0.0,0.0,0.0,0.0,0.0,0.0,1,-0.0,0.0,0.0,0.0,0.0,-0.0,-0.0,0.0,0.0,0.0,0.0,-0.0,,0,Allway Blend,10.0,user,0
1449618221810260297,0.0,0.0,0.0,0.0,0.0,0.0,1.0,1449618221809317109,1,0.0,0.0,0.0,0.0,0.0,0.0,1,-0.0,0.0,0.0,0.0,0.0,-0.0,-0.0,0.0,0.0,0.0,0.0,-0.0,,0,Allway Blend,10.0,user,0
1449618221849765890,0.0,0.0,0.0,0.0,0.0,0.0,1.0,1449618221849326397,1,0.0,0.0,0.0,0.0,0.0,0.0,1,-0.0,0.0,0.0,0.0,0.0,-0.0,-0.0,0.0,0.0,0.0,0.0,-0.0,,0,Allway Blend,10.0,user,0
1449618221889708621,0.0,0.0,0.0,0.0,0.0,0.0,1.0,1449618221889332700,1,0.0,0.0,0.0,0.0,0.0,0.0,1,-0.0,0.0,0.0,0.0,0.0,-0.0,-0.0,0.0,0.0,0.0,0.0,-0.0,,0,Allway Blend,10.0,user,0
1449618221930258582,0.0,0.0,0.0,0.0,0.0,0.0,1.0,1449618221929339957,1,0.0,0.0,0.0,0.0,0.0,0.0,1,-0.0,0.0,0.0,0.0,0.0,-0.0,-0.0,0.0,0.0,0.0,0.0,-0.0,,0,Allway Blend,10.0,user,0
1449618221970332386,0.0,0.0,0.0,0.0,0.0,0.0,1.0,1449618221969318490,1,0.0,0.0,0.0,0.0,0.0,0.0,1,-0.0,0.0,0.0,0.0,0.0,-0.0,-0.0,0.0,0.0,0.0,0.0,-0.0,,0,Allway Blend,10.0,user,0
1449618222014198407,0.0,0.0,0.0,0.0,0.0,0.0,1.0,1449618222013622059,1,0.0,0.0,0.0,0.0,0.0,0.0,1,-0.0,0.0,0.0,0.0,0.0,-0.0,-0.0,0.0,0.0,0.0,0.0,-0.0,,0,Allway Blend,10.0,user,0
1449618222049629963,0.0,0.0,0.0,0.0,0.0,0.0,1.0,1449618222049322714,1,0.0,0.0,0.0,0.0,0.0,0.0,1,-0.0,0.0,0.0,0.0,0.0,-0.0,-0.0,0.0,0.0,0.0,0.0,-0.0,,0,Allway Blend,10.0,user,0
1449618222090711583,0.0,0.0,0.0,0.0,0.0,0.0,1.0,1449618222089338110,1,0.0,0.0,0.0,0.0,0.0,0.0,1,-0.0,0.0,0.0,0.0,0.0,-0.0,-0.0,0.0,0.0,0.0,0.0,-0.0,,0,Allway Blend,10.0,user,0
1449618222130455483,0.0,0.0,0.0,0.0,0.0,0.0,1.0,1449618222129341106,1,0.0,0.0,0.0,0.0,0.0,0.0,1,-0.0,0.0,0.0,0.0,0.0,-0.0,-0.0,0.0,0.0,0.0,0.0,-0.0,,0,Allway Blend,10.0,user,0
1449618222170342744,0.0,0.0,0.0,0.0,0.0,0.0,1.0,1449618222169318852,1,0.0,0.0,0.0,0.0,0.0,0.0,1,-0.0,0.0,0.0,0.0,0.0,-0.0,-0.0,0.0,0.0,0.0,0.0,-0.0,,0,Allway Blend,10.0,user,0
1449618222209530438,0.0,0.0,0.0,0.0,0.0,0.0,1.0,1449618222209331009,1,0.0,0.0,0.0,0.0,0.0,0.0,1,-0.0,0.0,0.0,0.0,0.0,-0.0,-0.0,0.0,0.0,0.0,0.0,-0.0,,0,Allway Blend,10.0,user,0
1449618222250419830,-0.00287963245437,-3.04332289367e-05,0.0,0.0,0.0,0.0052839997518,0.999986039576,1449618222249360554,1,0.0,0.0,0.0,0.0,0.0,0.0,1,-0.0,0.0,0.0,0.0,0.0,-0.0,-0.0,0.0,0.0,0.0,0.0,-0.0,,0,Allway Blend,10.0,user,0
1449618222290367804,-0.00287963245437,-3.04332289367e-05,0.0,0.0,0.0,0.0052839997518,0.999986039576,1449618222289335001,1,0.0,0.0,0.0,0.0,0.0,0.0,1,-0.0,0.0,0.0,0.0,0.0,-0.0,-0.0,0.0,0.0,0.0,0.0,-0.0,,0,Allway Blend,10.0,user,0
1449618222330777050,-0.00287963245437,-3.04332289367e-05,0.0,0.0,0.0,0.0052839997518,0.999986039576,1449618222329618052,1,0.0,0.0,0.0,0.0,0.0,0.0,1,-0.0,0.0,0.0,0.0,0.0,-0.0,-0.0,0.0,0.0,0.0,0.0,-0.0,,0,Allway Blend,10.0,user,0
1449618222370939926,-0.00287963245437,-3.04332289367e-05,0.0,0.0,0.0,0.0052839997518,0.999986039576,1449618222369345067,1,0.0,0.0,0.0,0.0,0.0,0.0,1,-0.0,0.0,0.0,0.0,0.0,-0.0,-0.0,0.0,0.0,0.0,0.0,-0.0,,0,Allway Blend,10.0,user,0
1449618222409707576,-0.00287963245437,-3.04332289367e-05,0.0,0.0,0.0,0.0052839997518,0.999986039576,1449618222409347562,1,0.0,0.0,0.0,0.0,0.0,0.0,1,-0.0,0.0,0.0,0.0,0.0,-0.0,-0.0,0.0,0.0,0.0,0.0,-0.0,,0,Allway Blend,10.0,user,0
1449618222450066858,-0.00287963245437,-3.04332289367e-05,0.0,0.0,0.0,0.0052839997518,0.999986039576,1449618222449331394,1,0.0,0.0,0.0,0.0,0.0,0.0,1,-0.0,0.0,0.0,0.0,0.0,-0.0,-0.0,0.0,0.0,0.0,0.0,-0.0,,0,Allway Blend,10.0,user,0
1449618222490143259,1.60811419144e-07,-3.04332289367e-05,0.0,0.0,0.0,0.0,1.0,1449618222489352963,1,0.0,0.0,0.0,0.0,0.0,0.0,1,-0.0,0.0,0.0,0.0,0.0,-0.0,-0.0,0.0,0.0,0.0,0.0,-0.0,,0,Allway Blend,10.0,user,0
1449618222531373161,1.60811419144e-07,-3.04332289367e-05,0.0,0.0,0.0,0.0,1.0,1449618222529559561,1,0.0,0.0,0.0,0.0,0.0,0.0,1,-0.0,0.0,0.0,0.0,0.0,-0.0,-0.0,0.0,0.0,0.0,0.0,-0.0,,0,Allway Blend,10.0,user,0
1449618222569824139,1.60811419144e-07,-3.04332289367e-05,0.0,0.0,0.0,0.0,1.0,1449618222569336175,1,0.0,0.0,0.0,0.0,0.0,0.0,1,-0.0,0.0,0.0,0.0,0.0,-0.0,-0.0,0.0,0.0,0.0,0.0,-0.0,,0,Allway Blend,10.0,user,0
1449618222609864521,1.60811419144e-07,-3.04332289367e-05,0.0,0.0,0.0,0.0,1.0,1449618222609339368,1,0.0,0.0,0.0,0.0,0.0,0.0,1,-0.0,0.0,0.0,0.0,0.0,-0.0,-0.0,0.0,0.0,0.0,0.0,-0.0,,0,Allway Blend,10.0,user,0
1449618222649761487,1.60811419144e-07,-3.04332289367e-05,0.0,0.0,0.0,0.0,1.0,1449618222649337358,1,0.0,0.0,0.0,0.0,0.0,0.0,1,-0.0,0.0,0.0,0.0,0.0,-0.0,-0.0,0.0,0.0,0.0,0.0,-0.0,,0,Allway Blend,10.0,user,0
1449618222690036089,1.60811419144e-07,-3.04332289367e-05,0.0,0.0,0.0,0.0,1.0,1449618222689329106,1,0.0,0.0,0.0,0.0,0.0,0.0,1,-0.0,0.0,0.0,0.0,0.0,-0.0,-0.0,0.0,0.0,0.0,0.0,-0.0,,0,Allway Blend,10.0,user,0
1449618222730109579,1.60811419144e-07,-3.04332289367e-05,0.0,0.0,0.0,0.0,1.0,1449618222729340707,1,0.0,0.0,0.0,0.0,0.0,0.0,1,-0.0,0.0,0.0,0.0,0.0,-0.0,-0.0,0.0,0.0,0.0,0.0,-0.0,,0,Allway Blend,10.0,user,0
1449618222770732379,1.60811419144e-07,-3.04332289367e-05,0.0,0.0,0.0,0.0,1.0,1449618222769323138,1,0.0,0.0,0.0,0.0,0.0,0.0,1,-0.0,0.0,0.0,0.0,0.0,-0.0,-0.0,0.0,0.0,0.0,0.0,-0.0,,0,Allway Blend,10.0,user,0
1449618222810684251,1.60811419144e-07,-3.04332289367e-05,0.0,0.0,0.0,0.0,1.0,1449618222809536895,1,0.0,0.0,0.0,0.0,0.0,0.0,1,-0.0,0.0,0.0,0.0,0.0,-0.0,-0.0,0.0,0.0,0.0,0.0,-0.0,,2,Allway Blend,10.0,doorway_assistance,2
1449618222851016742,1.60811419144e-07,-3.04332289367e-05,0.0,0.0,0.0,0.0,1.0,1449618222849344094,1,0.0,0.0,0.0,0.0,0.0,0.0,1,-0.0,0.0,0.0,0.0,0.0,-0.0,-0.0,0.0,0.0,0.0,0.0,-0.0,,2,Allway Blend,10.0,doorway_assistance,2
1449618222890514081,-0.00287947164295,-6.08664578733e-05,0.0,0.0,0.0,0.0052839997518,0.999986039576,1449618222889344625,1,0.0,0.0,0.0,0.0,0.0,0.0,1,-0.0,0.0,0.0,0.0,0.0,-0.0,-0.0,0.0,0.0,0.0,0.0,-0.0,,2,Allway Blend,10.0,doorway_assistance,2
1449618222930693940,-0.00287947164295,-6.08664578733e-05,0.0,0.0,0.0,0.0052839997518,0.999986039576,1449618222929341036,1,0.0,0.0,0.0,0.0,0.0,0.0,1,-0.0,0.0,0.0,0.0,0.0,-0.0,-0.0,0.0,0.0,0.0,0.0,-0.0,,2,Allway Blend,10.0,doorway_assistance,2
1449618222970904317,3.21622838287e-07,-6.08664578733e-05,0.0,0.0,0.0,0.0,1.0,1449618222969330013,1,0.0,0.0,0.0,0.0,0.0,0.0,1,-0.0,0.0,0.0,0.0,0.0,-0.0,-0.0,0.0,0.0,0.0,0.0,-0.0,,2,Allway Blend,10.0,doorway_assistance,2
1449618223009819705,3.21622838287e-07,-6.08664578733e-05,0.0,0.0,0.0,0.0,1.0,1449618223009321362,1,0.352,0.0,0.0,0.0,0.0,0.147368421053,1,-0.0,0.0,0.0,0.0,0.0,-0.0,-0.0,0.0,0.0,0.0,0.0,-0.0,,2,Allway Blend,10.0,doorway_assistance,2
1449618223070260796,3.21622838287e-07,-6.08664578733e-05,0.0,0.0,0.0,0.0,1.0,1449618223056333656,1,0.352,0.0,0.0,0.0,0.0,0.147368421053,1,0.00558730190992,0.0,0.0,0.0,0.0,0.0,0.0119348090781,0.0,0.0,0.0,0.0,0.00270031125922,Hybrid-Dynamic Alpha,2,Allway Blend,0.981676459312,doorway_assistance,2
1449618223100599034,3.21622838287e-07,-6.08664578733e-05,0.0,0.0,0.0,0.0,1.0,1449618223097179347,1,0.352,0.0,0.0,0.0,0.0,0.147368421053,1,0.00558730190992,0.0,0.0,0.0,0.0,0.0,0.0119348090781,0.0,0.0,0.0,0.0,0.00270031125922,Hybrid-Dynamic Alpha,2,Allway Blend,0.981676459312,doorway_assistance,2
1449618223199074355,3.21622838287e-07,-6.08664578733e-05,0.0,0.0,0.0,0.0,1.0,1449618223197801332,1,0.352,0.0,0.0,0.0,0.0,0.105263157895,1,0.0111746038198,0.0,0.0,0.0,0.0,0.0,0.0172220893719,0.0,0.0,0.0,0.0,0.00186775232616,Hybrid-Dynamic Alpha,2,Allway Blend,0.982256352901,doorway_assistance,2
1449618223209652816,3.21622838287e-07,-6.08664578733e-05,0.0,0.0,0.0,0.0,1.0,1449618223208871568,1,0.352,0.0,0.0,0.0,0.0,0.147368421053,1,0.0111746038198,0.0,0.0,0.0,0.0,0.0,0.0172220893719,0.0,0.0,0.0,0.0,0.00261485325663,Hybrid-Dynamic Alpha,2,Allway Blend,0.982256352901,doorway_assistance,2
1449618223229017967,3.21622838287e-07,-6.08664578733e-05,0.0,0.0,0.0,0.0,1.0,1449618223223347271,1,0.352,0.0,0.0,0.0,0.0,0.147368421053,1,0.189968263626,0.0,0.0,0.0,0.0,0.0,0.192843297575,0.0,0.0,0.0,0.0,0.00261485325663,Hybrid-Dynamic Alpha,2,Allway Blend,0.982256352901,doorway_assistance,2
1449618223316245357,3.21622838287e-07,-6.08664578733e-05,0.0,0.0,0.0,0.0,1.0,1449618223313281974,1,0.352,0.0,0.0,0.0,0.0,0.147368421053,1,0.189968263626,0.0,0.0,0.0,0.0,0.0,0.192843297575,0.0,0.0,0.0,0.0,0.00261485325663,Hybrid-Dynamic Alpha,2,Allway Blend,0.982256352901,doorway_assistance,2
1449618223365498713,3.21622838287e-07,-6.08664578733e-05,0.0,0.0,0.0,0.0,1.0,1449618223363110978,1,0.352,0.0,0.0,0.0,0.0,0.147368421053,1,0.189968263626,0.0,0.0,0.0,0.0,0.0,0.193325967649,0.0,0.0,0.0,0.0,0.00305384334765,Hybrid-Dynamic Alpha,2,Allway Blend,0.97927749157,doorway_assistance,2
1449618223394249829,3.21622838287e-07,-6.08664578733e-05,0.0,0.0,0.0,0.0,1.0,1449618223393724037,1,0.352,0.0,0.0,0.0,0.0,0.147368421053,1,0.167619048119,0.0,0.0,0.0,0.0,0.0,0.171439883948,0.0,0.0,0.0,0.0,0.00305384334765,Hybrid-Dynamic Alpha,2,Allway Blend,0.97927749157,doorway_assistance,2
1449618223424271695,3.21622838287e-07,-6.08664578733e-05,0.0,0.0,0.0,0.0,1.0,1449618223423560334,1,0.352,0.0,0.0,0.0,0.0,0.147368421053,1,0.184380962372,0.0,0.0,0.0,0.0,0.0,0.187854449292,0.0,0.0,0.0,0.0,0.00305384334765,Hybrid-Dynamic Alpha,2,Allway Blend,0.97927749157,doorway_assistance,2
1449618223517132741,3.21622838287e-07,-6.08664578733e-05,0.0,0.0,0.0,0.0,1.0,1449618223514904075,1,0.352,0.0,0.0,0.0,0.0,0.147368421053,1,0.184380962372,0.0,0.0,0.0,0.0,0.0,0.187854449292,0.0,0.0,0.0,0.0,0.00305384334765,Hybrid-Dynamic Alpha,2,Allway Blend,0.97927749157,doorway_assistance,2
1449618223539450806,3.21622838287e-07,-6.08664578733e-05,0.0,0.0,0.0,0.0,1.0,1449618223533598535,1,0.352,0.0,0.0,0.0,0.0,0.147368421053,1,0.184380962372,0.0,0.0,0.0,0.0,0.0,0.187777269797,0.0,0.0,0.0,0.0,0.0029859881652,Hybrid-Dynamic Alpha,2,Allway Blend,0.97973793745,doorway_assistance,2
1449618223568188999,3.21622838287e-07,-6.08664578733e-05,0.0,0.0,0.0,0.0,1.0,1449618223567813834,1,0.352,0.0,0.0,0.0,0.0,0.147368421053,1,0.189968263626,0.0,0.0,0.0,0.0,0.0,0.193251360804,0.0,0.0,0.0,0.0,0.0029859881652,Hybrid-Dynamic Alpha,2,Allway Blend,0.97973793745,doorway_assistance,2
1449618223612971572,3.21622838287e-07,-6.08664578733e-05,0.0,0.0,0.0,0.0,1.0,1449618223611917647,1,0.352,0.0,0.0,0.0,0.0,0.147368421053,1,0.173206349373,0.0,0.0,0.0,0.0,0.0,0.176829077505,0.0,0.0,0.0,0.0,0.0029859881652,Hybrid-Dynamic Alpha,2,Allway Blend,0.97973793745,doorway_assistance,2
1449618223681034411,3.21622838287e-07,-6.08664578733e-05,0.0,0.0,0.0,0.0,1.0,1449618223678865057,1,0.352,0.0,0.0,0.0,0.0,0.147368421053,1,0.173206349373,0.0,0.0,0.0,0.0,0.0,0.176829077505,0.0,0.0,0.0,0.0,0.0029859881652,Hybrid-Dynamic Alpha,2,Allway Blend,0.97973793745,doorway_assistance,2
1449618223705038952,3.21622838287e-07,-6.08664578733e-05,0.0,0.0,0.0,0.0,1.0,1449618223703698713,1,0.352,0.0,0.0,0.0,0.0,0.147368421053,1,0.173206349373,0.0,0.0,0.0,0.0,0.0,0.176916304494,0.0,0.0,0.0,0.0,0.00305788391515,Hybrid-Dynamic Alpha,2,Allway Blend,0.979250073433,doorway_assistance,2
1449618223730651906,3.21622838287e-07,-6.08664578733e-05,0.0,0.0,0.0,0.0,1.0,1449618223730023361,1,0.352,0.0,0.0,0.0,0.0,0.147368421053,1,0.189968263626,0.0,0.0,0.0,0.0,0.0,0.193330410257,0.0,0.0,0.0,0.0,0.00305788391515,Hybrid-Dynamic Alpha,2,Allway Blend,0.979250073433,doorway_assistance,2
1449618223779292690,3.21622838287e-07,-6.08664578733e-05,0.0,0.0,0.0,0.0,1.0,1449618223775390150,1,0.352,0.0,0.0,0.0,0.0,0.147368421053,1,0.189968263626,0.0,0.0,0.0,0.0,0.0,0.193330410257,0.0,0.0,0.0,0.0,0.00305788391515,Hybrid-Dynamic Alpha,2,Allway Blend,0.979250073433,doorway_assistance,2
1449618223840941951,3.21622838287e-07,-6.08664578733e-05,0.0,0.0,0.0,0.0,1.0,1449618223839572934,1,0.352,0.0,0.0,0.0,0.0,0.147368421053,1,0.189968263626,0.0,0.0,0.0,0.0,0.0,0.193330410257,0.0,0.0,0.0,0.0,0.00305788391515,Hybrid-Dynamic Alpha,2,Allway Blend,0.979250073433,doorway_assistance,2
1449618223858587957,3.21622838287e-07,-6.08664578733e-05,0.0,0.0,0.0,0.0,1.0,1449618223857726281,1,0.352,0.0,0.0,0.0,0.0,0.147368421053,1,0.189968263626,0.0,0.0,0.0,0.0,0.0,0.193330410257,0.0,0.0,0.0,0.0,0.00305788391515,Hybrid-Dynamic Alpha,2,Allway Blend,0.979250073433,doorway_assistance,2
1449618223886163901,3.21622838287e-07,-6.08664578733e-05,0.0,0.0,0.0,0.0,1.0,1449618223885271742,1,0.352,0.0,0.0,0.0,0.0,0.147368421053,1,0.173206349373,0.0,0.0,0.0,0.0,0.0,0.176916304494,0.0,0.0,0.0,0.0,0.00305788391515,Hybrid-Dynamic Alpha,2,Allway Blend,0.979250073433,doorway_assistance,2
1449618223927670688,3.21622838287e-07,-6.08664578733e-05,0.0,0.0,0.0,0.0,1.0,1449618223926542087,1,0.352,0.0,0.0,0.0,0.0,0.147368421053,1,0.173206349373,0.0,0.0,0.0,0.0,0.0,0.176916304494,0.0,0.0,0.0,0.0,0.00305788391515,Hybrid-Dynamic Alpha,2,Allway Blend,0.979250073433,doorway_assistance,2
1449618223962668431,3.21622838287e-07,-6.08664578733e-05,0.0,0.0,0.0,0.0,1.0,1449618223962005714,1,0.352,0.0,0.0,0.0,0.0,0.147368421053,1,0.173206349373,0.0,0.0,0.0,0.0,0.0,0.176814669333,0.0,0.0,0.0,0.0,0.00297411241029,Hybrid-Dynamic Alpha,2,Allway Blend,0.97981852293,doorway_assistance,2
1449618224027773148,3.21622838287e-07,-6.08664578733e-05,0.0,0.0,0.0,0.0,1.0,1449618224027549114,1,0.352,0.0,0.0,0.0,0.0,0.147368421053,1,0.173206349373,0.0,0.0,0.0,0.0,0.0,0.176814669333,0.0,0.0,0.0,0.0,0.00297411241029,Hybrid-Dynamic Alpha,2,Allway Blend,0.97981852293,doorway_assistance,2
1449618224045561134,3.21622838287e-07,-6.08664578733e-05,0.0,0.0,0.0,0.0,1.0,1449618224044793175,1,0.352,0.0,0.0,0.0,0.0,0.147368421053,1,0.189968263626,0.0,0.0,0.0,0.0,0.0,0.193238303398,0.0,0.0,0.0,0.0,0.00297411241029,Hybrid-Dynamic Alpha,2,Allway Blend,0.97981852293,doorway_assistance,2
1449618224084894645,0.00287995407721,-9.129968681e-05,0.0,0.0,0.0,-0.0052839997518,0.999986039576,1449618224084065316,1,0.352,0.0,0.0,0.0,0.0,0.147368421053,1,0.189968263626,0.0,0.0,0.0,0.0,0.0,0.193265490229,0.0,0.0,0.0,0.0,0.00299883892662,Hybrid-Dynamic Alpha,2,Allway Blend,0.979650735855,doorway_assistance,2
1449618224310131414,0.00287995407721,-9.129968681e-05,0.0,0.0,0.0,-0.0052839997518,0.999986039576,1449618224305916285,1,0.352,0.0,0.0,0.0,0.0,0.147368421053,1,0.189968263626,0.0,0.0,0.0,0.0,0.0,0.193297998533,0.0,0.0,0.0,0.0,0.00302840534009,Hybrid-Dynamic Alpha,2,Allway Blend,0.979450106621,doorway_assistance,2
1449618224318231289,0.00863937979737,-0.000121732915747,0.0,0.0,0.0,-0.0052839997518,0.999986039576,1449618224317838165,1,0.352,0.0,0.0,0.0,0.0,0.147368421053,1,0.189968263626,0.0,0.0,0.0,0.0,0.0,0.193353618057,0.0,0.0,0.0,0.0,0.00307899148841,Hybrid-Dynamic Alpha,2,Allway Blend,0.979106843472,doorway_assistance,2
1449618224378684280,0.00863937979737,-0.000121732915747,0.0,0.0,0.0,-0.0052839997518,0.999986039576,1449618224377963183,1,0.352,0.0,0.0,0.0,0.0,0.147368421053,1,0.189968263626,0.0,0.0,0.0,0.0,0.0,0.193353618057,0.0,0.0,0.0,0.0,0.00307899148841,Hybrid-Dynamic Alpha,2,Allway Blend,0.979106843472,doorway_assistance,2
1449618224447582998,0.0115185298354,-0.000182595974757,0.0,0.0,0.0,-0.0105678519699,0.999944158693,1449618224446738642,1,0.352,0.0,0.0,0.0,0.0,0.147368421053,1,0.189968263626,0.0,0.0,0.0,0.0,0.0,0.193381683752,0.0,0.0,0.0,0.0,0.00310451733439,Hybrid-Dynamic Alpha,2,Allway Blend,0.978933632374,doorway_assistance,2
1449618224512979528,0.0172773123279,-0.000273892262705,0.0,0.0,0.0,-0.0105678519699,0.999944158693,1449618224512116404,1,0.352,0.0,0.0,0.0,0.0,0.147368421053,1,0.189968263626,0.0,0.0,0.0,0.0,0.0,0.19313786182,0.0,0.0,0.0,0.0,0.00288276044946,Hybrid-Dynamic Alpha,2,Allway Blend,0.980438411236,doorway_assistance,2
1449618224555165213,0.023035612404,-0.000395618380726,0.0,0.0,0.0,-0.0105678519699,0.999944158693,1449618224553745479,1,0.352,0.0,0.0,0.0,0.0,0.105263157895,1,0.173206349373,0.0,0.0,0.0,0.0,0.0,0.17676205606,0.0,0.0,0.0,0.0,0.00209339041459,Hybrid-Dynamic Alpha,2,Allway Blend,0.980112791061,doorway_assistance,2
1449618224594662936,0.023035612404,-0.000395618380726,0.0,0.0,0.0,-0.0105678519699,0.999944158693,1449618224594159861,1,0.352,0.0,0.0,0.0,0.0,0.105263157895,1,0.173206349373,0.0,0.0,0.0,0.0,0.0,0.17676205606,0.0,0.0,0.0,0.0,0.00209339041459,Hybrid-Dynamic Alpha,2,Allway Blend,0.980112791061,doorway_assistance,2
1449618224636256731,0.0259139584748,-0.000486904472466,0.0,0.0,0.0,-0.0158514091245,0.999874358521,1449618224635616337,1,0.352,0.0,0.0,0.0,0.0,0.105263157895,1,0.189968263626,0.0,0.0,0.0,0.0,0.0,0.193421850725,0.0,0.0,0.0,0.0,0.00224360666777,Hybrid-Dynamic Alpha,2,Allway Blend,0.978685736656,doorway_assistance,2
1449618224676571507,0.0259139584748,-0.000486904472466,0.0,0.0,0.0,-0.0158514091245,0.999874358521,1449618224661172103,1,0.352,0.0,0.0,0.0,0.0,0.105263157895,1,0.189968263626,0.0,0.0,0.0,0.0,0.0,0.193421850725,0.0,0.0,0.0,0.0,0.00224360666777,Hybrid-Dynamic Alpha,2,Allway Blend,0.978685736656,doorway_assistance,2
1449618224709897196,0.0259139584748,-0.000486904472466,0.0,0.0,0.0,-0.0158514091245,0.999874358521,1449618224709491993,1,0.352,0.0,0.0,0.0,0.0,0.147368421053,1,0.189968263626,0.0,0.0,0.0,0.0,0.0,0.193421850725,0.0,0.0,0.0,0.0,0.00314104933488,Hybrid-Dynamic Alpha,2,Allway Blend,0.978685736656,doorway_assistance,2
1449618224821388201,0.0316706506164,-0.000669476655944,0.0,0.0,0.0,-0.0158514091245,0.999874358521,1449618224820340238,1,0.352,0.0,0.0,0.0,0.0,0.147368421053,1,0.189968263626,0.0,0.0,0.0,0.0,0.0,0.19347468879,0.0,0.0,0.0,0.0,0.00318910573658,Hybrid-Dynamic Alpha,2,Allway Blend,0.978359639645,doorway_assistance,2
1449618224848298097,0.0403045634002,-0.000973747768822,0.0,0.0,0.0,-0.0211345236944,0.999776641009,1449618224847681992,1,0.352,0.0,0.0,0.0,0.0,0.147368421053,1,0.189968263626,0.0,0.0,0.0,0.0,0.0,0.1935621792,0.0,0.0,0.0,0.0,0.00326867856477,Hybrid-Dynamic Alpha,2,Allway Blend,0.977819681168,doorway_assistance,2
1449618224941313351,0.0403045634002,-0.000973747768822,0.0,0.0,0.0,-0.0211345236944,0.999776641009,1449618224939973159,1,0.352,0.0,0.0,0.0,0.0,0.105263157895,1,0.173206349373,0.0,0.0,0.0,0.0,0.0,0.177172049549,0.0,0.0,0.0,0.0,0.00233477040341,Hybrid-Dynamic Alpha,2,Allway Blend,0.977819681168,doorway_assistance,2
1449618224976293309,0.0489347785629,-0.00136924380302,0.0,0.0,0.0,-0.0264170481704,0.999651008886,1449618224974847119,1,0.352,0.0,0.0,0.0,0.0,0.105263157895,1,0.346412698746,0.0,0.0,0.0,0.0,0.00634920671582,0.346530875789,0.0,0.0,0.0,0.0,0.00844133631263,Hybrid-Dynamic Alpha,2,Allway Blend,0.978848993778,doorway_assistance,2
1449618225069168230,0.0518087845032,-0.00155172423771,0.0,0.0,0.0,-0.0316988350601,0.999497465658,1449618225066219181,1,0.352,0.0,0.0,0.0,0.0,0.105263157895,1,0.340825397491,0.0,0.0,0.0,0.0,0.0317460328341,0.341063680483,0.0,0.0,0.0,0.0,0.0333136841659,Hybrid-Dynamic Alpha,2,Allway Blend,0.978676378727,doorway_assistance,2
1449618225121019653,0.0575585643217,-0.0018863028478,0.0,0.0,0.0,-0.0316988350601,0.999497465658,1449618225119593720,1,0.352,0.0,0.0,0.0,0.0,0.105263157895,1,0.340825397491,0.0,0.0,0.0,0.0,0.0317460328341,0.341051509601,0.0,0.0,0.0,0.0,0.033233612572,Hybrid-Dynamic Alpha,2,Allway Blend,0.979765534401,doorway_assistance,2
1449618225169654781,0.066178493228,-0.00246410603125,0.0,0.0,0.0,-0.0369797368913,0.999316015612,1449618225168205887,1,0.352,0.0,0.0,0.0,0.0,0.147368421053,1,0.296126987457,0.0,0.0,0.0,0.0,0.342857146263,0.297285575737,0.0,0.0,0.0,0.0,0.338803472843,Hybrid-Dynamic Alpha,2,Allway Blend,0.979263901711,doorway_assistance,2
1449618225207792054,0.0690524991683,-0.00264658646594,0.0,0.0,0.0,-0.0316988350601,0.999497465658,1449618225207194551,1,0.352,0.0,0.0,0.0,0.0,0.147368421053,1,0.296126987457,0.0,0.0,0.0,0.0,0.342857146263,0.297295077058,0.0,0.0,0.0,0.0,0.338770229584,Hybrid-Dynamic Alpha,2,Allway Blend,0.979093849659,doorway_assistance,2
1449618225231220813,0.0719244161941,-0.00285942878001,0.0,0.0,0.0,-0.0369797368913,0.999316015612,1449618225228978502,1,0.352,0.0,0.0,0.0,0.0,0.147368421053,1,0.301714288712,0.0,0.0,0.0,0.0,0.342857146263,0.302912686958,0.0,0.0,0.0,0.0,0.338198301048,Hybrid-Dynamic Alpha,2,Allway Blend,0.976168215275,doorway_assistance,2
1449618225339631581,0.0719244161941,-0.00285942878001,0.0,0.0,0.0,-0.0369797368913,0.999316015612,1449618225338958074,1,0.352,0.0,0.0,0.0,0.0,0.189473684211,1,0.301714288712,0.0,0.0,0.0,0.0,0.342857146263,0.302912686958,0.0,0.0,0.0,0.0,0.339201744615,Hybrid-Dynamic Alpha,2,Allway Blend,0.976168215275,doorway_assistance,2
1449618225376209963,0.0834141732117,-0.00368043615693,0.0,0.0,0.0,-0.0369797368913,0.999316015612,1449618225375052350,1,0.352,0.0,0.0,0.0,0.0,0.147368421053,1,0.301714288712,0.0,0.0,0.0,0.0,0.342857146263,0.302952115939,0.0,0.0,0.0,0.0,0.338045018514,Hybrid-Dynamic Alpha,2,Allway Blend,0.975384116173,doorway_assistance,2
1449618225425752575,0.0891580072633,-0.00410612078509,0.0,0.0,0.0,-0.0369797368913,0.999316015612,1449618225425362759,1,0.352,0.0,0.0,0.0,0.0,0.189473684211,1,0.296126987457,0.0,0.0,0.0,0.0,0.336507940292,0.297524757241,0.0,0.0,0.0,0.0,0.332829598441,Hybrid-Dynamic Alpha,2,Allway Blend,0.974983096123,doorway_assistance,2
1449618225509682275,0.0920320132035,-0.00428860121978,0.0,0.0,0.0,-0.0316988350601,0.999497465658,1449618225508568854,1,0.352,0.0,0.0,0.0,0.0,0.189473684211,1,0.296126987457,0.0,0.0,0.0,0.0,0.336507940292,0.297578724608,0.0,0.0,0.0,0.0,0.332687579043,Hybrid-Dynamic Alpha,2,Allway Blend,0.974017202854,doorway_assistance,2
1449618225564485846,0.100655477986,-0.00480563988466,0.0,0.0,0.0,-0.0264170481704,0.999651008886,1449618225563911547,1,0.352,0.0,0.0,0.0,0.0,0.189473684211,1,0.296126987457,0.0,0.0,0.0,0.0,0.336507940292,0.297614568531,0.0,0.0,0.0,0.0,0.332593252923,Hybrid-Dynamic Alpha,2,Allway Blend,0.973375678062,doorway_assistance,2
1449618225587950242,0.109284246385,-0.00523153516487,0.0,0.0,0.0,-0.0211345236944,0.999776641009,1449618225587705236,1,0.352,0.0,0.0,0.0,0.0,0.147368421053,1,0.296126987457,0.0,0.0,0.0,0.0,0.342857146263,0.297633814283,0.0,0.0,0.0,0.0,0.337585054392,Hybrid-Dynamic Alpha,2,Allway Blend,0.97303122282,doorway_assistance,2
1449618225647418078,0.109284246385,-0.00523153516487,0.0,0.0,0.0,-0.0211345236944,0.999776641009,1449618225646900243,1,0.352,0.0,0.0,0.0,0.0,0.147368421053,1,0.301714288712,0.0,0.0,0.0,0.0,0.336507940292,0.303070432855,0.0,0.0,0.0,0.0,0.331407078742,Hybrid-Dynamic Alpha,2,Allway Blend,0.97303122282,doorway_assistance,2
1449618225689125027,0.123673725881,-0.00574879129888,0.0,0.0,0.0,-0.0158514091245,0.999874358521,1449618225688301309,1,0.352,0.0,0.0,0.0,0.0,0.147368421053,1,0.301714288712,0.0,0.0,0.0,0.0,0.336507940292,0.303126892278,0.0,0.0,0.0,0.0,0.331194718055,Hybrid-Dynamic Alpha,2,Allway Blend,0.971908450127,doorway_assistance,2
1449618225778857944,0.126552875919,-0.00580965435789,0.0,0.0,0.0,-0.0105678519699,0.999944158693,1449618225776699450,1,0.352,0.0,0.0,0.0,0.0,0.147368421053,1,0.329650794983,0.0,0.0,0.0,0.0,0.126984131336,0.330283774081,0.0,0.0,0.0,0.0,0.127561459671,Hybrid-Dynamic Alpha,2,Allway Blend,0.971677780151,doorway_assistance,2
1449618225815174961,0.140951359814,-0.00571835467108,0.0,0.0,0.0,0.0052839997518,0.999986039576,1449618225813114574,1,0.352,0.0,0.0,0.0,0.0,0.147368421053,1,0.329650794983,0.0,0.0,0.0,0.0,0.126984131336,0.330310316501,0.0,0.0,0.0,0.0,0.127585668513,Hybrid-Dynamic Alpha,2,Allway Blend,0.970490157604,doorway_assistance,2
1449618225830189897,0.146708051956,-0.0055357824876,0.0,0.0,0.0,0.0158514091245,0.999874358521,1449618225828493080,1,0.352,0.0,0.0,0.0,0.0,0.147368421053,1,0.31288889122,0.0,0.0,0.0,0.0,0.00634920671582,0.314062239683,0.0,0.0,0.0,0.0,0.0105798379491,Hybrid-Dynamic Alpha,2,Allway Blend,0.969999611378,doorway_assistance,2
1449618225933846635,0.146708051956,-0.0055357824876,0.0,0.0,0.0,0.0158514091245,0.999874358521,1449618225929407079,1,0.352,0.0,0.0,0.0,0.0,0.147368421053,1,0.31288889122,0.0,0.0,0.0,0.0,0.00634920671582,0.314103534626,0.0,0.0,0.0,0.0,0.0107287312079,Hybrid-Dynamic Alpha,2,Allway Blend,0.9689437747,doorway_assistance,2
1449618225950067980,0.169710869569,-0.00428870654504,0.0,0.0,0.0,0.0369797368913,0.999316015612,1449618225949573151,1,0.352,0.0,0.0,0.0,0.0,0.147368421053,1,0.31288889122,0.0,0.0,0.0,0.0,0.00634920671582,0.314186569772,0.0,0.0,0.0,0.0,0.0110281231568,Hybrid-Dynamic Alpha,2,Allway Blend,0.966820716858,doorway_assistance,2
1449618226040492499,0.169710869569,-0.00428870654504,0.0,0.0,0.0,0.0369797368913,0.999316015612,1449618226038169841,1,0.352,0.0,0.0,0.0,0.0,0.147368421053,1,0.346412698746,0.0,0.0,0.0,0.0,-0.00634920671582,0.346598081396,0.0,0.0,0.0,0.0,-0.00124896602016,Hybrid-Dynamic Alpha,2,Allway Blend,0.966820716858,doorway_assistance,2
1449618226060067541,0.19548249377,-0.0015549708587,0.0,0.0,0.0,0.0633658106137,0.997990367712,1449618226059545197,1,0.352,0.0,0.0,0.0,0.0,0.147368421053,1,0.307301589966,0.0,0.0,0.0,0.0,-0.00634920671582,0.30894476357,0.0,0.0,0.0,0.0,-0.000698340202625,Hybrid-Dynamic Alpha,2,Allway Blend,0.963238656521,doorway_assistance,2
1449618226107996436,0.19548249377,-0.0015549708587,0.0,0.0,0.0,0.0633658106137,0.997990367712,1449618226106692875,1,0.352,0.0,0.0,0.0,0.0,0.0631578947368,1,0.346412698746,0.0,0.0,0.0,0.0,-0.00634920671582,0.346618095446,0.0,0.0,0.0,0.0,-0.00379403228508,Hybrid-Dynamic Alpha,2,Allway Blend,0.963238656521,doorway_assistance,2
1449618226153692028,0.204040469578,-0.000371783069764,0.0,0.0,0.0,0.0686383068554,0.997641610415,1449618226152237508,1,0.352,0.0,0.0,0.0,0.0,0.0631578947368,1,0.346412698746,0.0,0.0,0.0,0.0,-0.00634920671582,0.346623256731,0.0,0.0,0.0,0.0,-0.00372982490655,Hybrid-Dynamic Alpha,2,Allway Blend,0.962314903736,doorway_assistance,2
1449618226238718523,0.215415213841,0.00144660660465,0.0,0.0,0.0,0.0791774028604,0.996860541338,1449618226238096007,1,0.352,0.0,0.0,0.0,0.0,0.0631578947368,1,0.346412698746,0.0,0.0,0.0,0.0,-0.00634920671582,0.346630337263,0.0,0.0,0.0,0.0,-0.0036417417297,Hybrid-Dynamic Alpha,2,Allway Blend,0.961047649384,doorway_assistance,2
1449618226275007766,0.240919899207,0.00604771627477,0.0,0.0,0.0,0.0949690991753,0.995480220899,1449618226274503004,1,0.352,0.0,0.0,0.0,0.0,0.0493927402245,1,0.346412698746,0.0,0.0,0.0,0.0,-0.00634920671582,0.346629343837,0.0,0.0,0.0,0.0,-0.00418783780925,Hybrid-Dynamic Alpha,2,Allway Blend,0.961225450039,doorway_assistance,2
1449618226347749801,0.246551313631,0.00725602442954,0.0,0.0,0.0,0.10548388359,0.994421012601,1449618226343260176,1,0.352,0.0,0.0,0.0,0.0,0.0493927402245,1,0.346412698746,0.0,0.0,0.0,0.0,-0.00634920671582,0.346632951209,0.0,0.0,0.0,0.0,-0.00415184871731,Hybrid-Dynamic Alpha,2,Allway Blend,0.960579812527,doorway_assistance,2
1449618226473198697,0.257814142479,0.00967264073909,0.0,0.0,0.0,0.10548388359,0.994421012601,1449618226470416127,1,0.352,0.0,0.0,0.0,0.0,0.0104363780273,1,0.346412698746,0.0,0.0,0.0,0.0,-0.00634920671582,0.346640338793,0.0,0.0,0.0,0.0,-0.00566532175317,Hybrid-Dynamic Alpha,2,Allway Blend,0.959257602692,doorway_assistance,2
1449618226501520270,0.283033991681,0.0156441683099,0.0,0.0,0.0,0.121233604752,0.99262400388,1449618226500690103,1,0.352,0.0,0.0,0.0,0.0,0.0104363780273,1,0.346412698746,0.0,0.0,0.0,0.0,-0.00634920671582,0.346667084361,0.0,0.0,0.0,0.0,-0.00558497169326,Hybrid-Dynamic Alpha,2,Allway Blend,0.95447075367,doorway_assistance,2
1449618226536369576,0.294153465585,0.018652265411,0.0,0.0,0.0,0.131716738444,0.99128739567,1449618226534975226,1,0.352,0.0,0.0,0.0,0.0,0.0,1,0.346412698746,0.0,0.0,0.0,0.0,-0.0126984134316,0.346675534641,0.0,0.0,0.0,0.0,-0.0121010590532,Hybrid-Dynamic Alpha,2,Allway Blend,0.952958345413,doorway_assistance,2
1449618226574401832,0.299713202536,0.0201563139615,0.0,0.0,0.0,0.131716738444,0.99128739567,1449618226574074368,1,0.352,0.0,0.0,0.0,0.0,0.0,1,0.346412698746,0.0,0.0,0.0,0.0,-0.0126984134316,0.346679858691,0.0,0.0,0.0,0.0,-0.0120912316659,Hybrid-Dynamic Alpha,2,Allway Blend,0.952184438705,doorway_assistance,2
1449618226696034137,0.313572032352,0.0240631115605,0.0,0.0,0.0,0.136952861975,0.990577565664,1449618226692110443,1,0.352,0.0,0.0,0.0,0.0,0.0,1,0.329650794983,0.0,0.0,0.0,0.0,-0.126984131336,0.330763812892,0.0,0.0,0.0,0.0,-0.120660165351,Hybrid-Dynamic Alpha,2,Allway Blend,0.950198769569,doorway_assistance,2
1449618226743989195,0.344002573451,0.03286280214,0.0,0.0,0.0,0.142185161666,0.989840077892,1449618226741587957,1,0.352,0.0,0.0,0.0,0.0,0.0,1,0.329650794983,0.0,0.0,0.0,0.0,-0.126984131336,0.330891791981,0.0,0.0,0.0,0.0,-0.119933011366,Hybrid-Dynamic Alpha,2,Allway Blend,0.944472432137,doorway_assistance,2
1449618226774627472,0.354984992928,0.0363381165875,0.0,0.0,0.0,0.152637705278,0.988282212188,1449618226767944720,1,0.352,0.0,0.0,0.0,0.0,-0.0631578947368,1,0.296126987457,0.0,0.0,0.0,0.0,-0.342857146263,0.29933071081,0.0,0.0,0.0,0.0,-0.326819367321,Hybrid-Dynamic Alpha,2,Allway Blend,0.942660629749,doorway_assistance,2
1449618226798228314,0.363248892537,0.0388574114362,0.0,0.0,0.0,0.147413491427,0.989074952946,1449618226797489428,1,0.352,0.0,0.0,0.0,0.0,-0.105263157895,1,0.301714288712,0.0,0.0,0.0,0.0,-0.336507940292,0.304667874569,0.0,0.0,0.0,0.0,-0.322925526891,Hybrid-Dynamic Alpha,2,Allway Blend,0.941263914108,doorway_assistance,2
1449618226834680175,0.363248892537,0.0388574114362,0.0,0.0,0.0,0.147413491427,0.989074952946,1449618226833063070,1,0.352,0.0,0.0,0.0,0.0,-0.105263157895,1,0.301714288712,0.0,0.0,0.0,0.0,-0.336507940292,0.304127315377,0.0,0.0,0.0,0.0,-0.325411352177,Hybrid-Dynamic Alpha,2,Allway Blend,0.952013671398,doorway_assistance,2
1449618226930330078,0.376976916882,0.0432015544956,0.0,0.0,0.0,0.152637705278,0.988282212188,1449618226929267474,1,0.352,0.0,0.0,0.0,0.0,-0.105263157895,1,0.301714288712,0.0,0.0,0.0,0.0,-0.336507940292,0.304227172157,0.0,0.0,0.0,0.0,-0.324952148983,Hybrid-Dynamic Alpha,2,Allway Blend,0.950027883053,doorway_assistance,2
1449618226962391657,0.407113225649,0.0529614356315,0.0,0.0,0.0,0.157857657354,0.987461877753,1449618226961967515,1,0.352,0.0,0.0,0.0,0.0,-0.105263157895,1,0.296126987457,0.0,0.0,0.0,0.0,-0.342857146263,0.299178266737,0.0,0.0,0.0,0.0,-0.329881908654,Hybrid-Dynamic Alpha,2,Allway Blend,0.945389032364,doorway_assistance,2
1449618226988710127,0.415293113653,0.0557414204386,0.0,0.0,0.0,0.163073201911,0.986613972544,1449618226987855722,1,0.352,0.0,0.0,0.0,0.0,-0.0631578947368,1,0.296126987457,0.0,0.0,0.0,0.0,-0.342857146263,0.299252608824,0.0,0.0,0.0,0.0,-0.327210344397,Hybrid-Dynamic Alpha,2,Allway Blend,0.944058477879,doorway_assistance,2
1449618227043833164,0.415293113653,0.0557414204386,0.0,0.0,0.0,0.163073201911,0.986613972544,1449618227042495330,1,0.352,0.0,0.0,0.0,0.0,-0.0631578947368,1,0.301714288712,0.0,0.0,0.0,0.0,-0.336507940292,0.304527347942,0.0,0.0,0.0,0.0,-0.321216322672,Hybrid-Dynamic Alpha,2,Allway Blend,0.944058477879,doorway_assistance,2
1449618227111438874,0.442559406999,0.0650080364623,0.0,0.0,0.0,0.163073201911,0.986613972544,1449618227110145534,1,0.352,0.0,0.0,0.0,0.0,-0.0631578947368,1,0.301714288712,0.0,0.0,0.0,0.0,-0.336507940292,0.305208490708,0.0,0.0,0.0,0.0,-0.317513672327,Hybrid-Dynamic Alpha,2,Allway Blend,0.93051302433,doorway_assistance,2
1449618227157423179,0.456142828266,0.0697851588201,0.0,0.0,0.0,0.168284193326,0.985738520236,1449618227153721200,1,0.352,0.0,0.0,0.0,0.0,-0.105263157895,1,0.301714288712,0.0,0.0,0.0,0.0,-0.336507940292,0.305348501806,0.0,0.0,0.0,0.0,-0.319795582154,Hybrid-Dynamic Alpha,2,Allway Blend,0.927728712559,doorway_assistance,2
1449618227184827710,0.461576196773,0.0716960077632,0.0,0.0,0.0,0.168284193326,0.985738520236,1449618227181791014,1,0.352,0.0,0.0,0.0,0.0,-0.0631578947368,1,0.301714288712,0.0,0.0,0.0,0.0,-0.336507940292,0.305405917356,0.0,0.0,0.0,0.0,-0.316440473166,Hybrid-Dynamic Alpha,2,Allway Blend,0.926586925983,doorway_assistance,2
1449618227315623726,0.472442933787,0.0755177056495,0.0,0.0,0.0,0.168284193326,0.985738520236,1449618227313724758,1,0.352,0.0,0.0,0.0,0.0,-0.0631578947368,1,0.301714288712,0.0,0.0,0.0,0.0,-0.342857146263,0.305881070297,0.0,0.0,0.0,0.0,-0.319680668075,Hybrid-Dynamic Alpha,2,Allway Blend,0.917137861252,doorway_assistance,2
1449618227357609411,0.50499190239,0.0871260801326,0.0,0.0,0.0,0.168284193326,0.985738520236,1449618227351311593,1,0.352,0.0,0.0,0.0,0.0,-0.0631578947368,1,0.301714288712,0.0,0.0,0.0,0.0,-0.342857146263,0.306284264973,0.0,0.0,0.0,0.0,-0.317438018102,Hybrid-Dynamic Alpha,2,Allway Blend,0.909119784832,doorway_assistance,2
1449618227397316073,0.518524081219,0.0920464833148,0.0,0.0,0.0,0.173490486104,0.984835545272,1449618227396386119,1,0.352,0.0,0.0,0.0,0.0,-0.0631578947368,1,0.301714288712,0.0,0.0,0.0,0.0,-0.336507940292,0.306462005605,0.0,0.0,0.0,0.0,-0.310699642154,Hybrid-Dynamic Alpha,2,Allway Blend,0.905585169792,doorway_assistance,2
1449618227496762944,0.523936952751,0.0940146445877,0.0,0.0,0.0,0.173490486104,0.984835545272,1449618227493855728,1,0.352,0.0,0.0,0.0,0.0,-0.189473684211,1,0.296126987457,0.0,0.0,0.0,0.0,-0.342857146263,0.301483091247,0.0,0.0,0.0,0.0,-0.328153486929,Hybrid-Dynamic Alpha,2,Allway Blend,0.904137909412,doorway_assistance,2
1449618227554528125,0.553820479539,0.104524313775,0.0,0.0,0.0,0.168284193326,0.985738520236,1449618227553065102,1,0.352,0.0,0.0,0.0,0.0,-0.189473684211,1,0.296126987457,0.0,0.0,0.0,0.0,-0.342857146263,0.301948336239,0.0,0.0,0.0,0.0,-0.326876289149,Hybrid-Dynamic Alpha,2,Allway Blend,0.895811080933,doorway_assistance,2
1449618227643051172,0.567453626212,0.109157621787,0.0,0.0,0.0,0.163073201911,0.986613972544,1449618227642403814,1,0.352,0.0,0.0,0.0,0.0,-0.105263157895,1,0.251428577423,0.0,0.0,0.0,0.0,-0.285714292526,0.262308728251,0.0,0.0,0.0,0.0,-0.266192488901,Hybrid-Dynamic Alpha,2,Allway Blend,0.891816675663,doorway_assistance,2
1449618227750090364,0.600173178227,0.120277561015,0.0,0.0,0.0,0.163073201911,0.986613972544,1449618227747712012,1,0.352,0.0,0.0,0.0,0.0,-0.105263157895,1,0.329650794983,0.0,0.0,0.0,0.0,-0.126984131336,0.332294886235,0.0,0.0,0.0,0.0,-0.124414364948,Hybrid-Dynamic Alpha,2,Allway Blend,0.881691932678,doorway_assistance,2
1449618227823880134,0.619364407399,0.126446261186,0.0,0.0,0.0,0.157857657354,0.987461877753,1449618227823187125,1,0.352,0.0,0.0,0.0,0.0,-0.105263157895,1,0.340825397491,0.0,0.0,0.0,0.0,-0.0317460328341,0.342217667633,0.0,0.0,0.0,0.0,-0.0409057052277,Hybrid-Dynamic Alpha,2,Allway Blend,0.875407636166,doorway_assistance,2
1449618227866150997,0.641401473024,0.133164380783,0.0,0.0,0.0,0.147413491427,0.989074952946,1449618227865526085,1,0.352,0.0,0.0,0.0,0.0,-0.105263157895,1,0.346412698746,0.0,0.0,0.0,0.0,-0.0190476194024,0.347150947012,0.0,0.0,0.0,0.0,-0.0304392499824,Hybrid-Dynamic Alpha,2,Allway Blend,0.867870330811,doorway_assistance,2
1449618227896245056,0.655218242485,0.137217418283,0.0,0.0,0.0,0.142185161666,0.989840077892,1449618227894967881,1,0.352,0.0,0.0,0.0,0.0,-0.0631578947368,1,0.346412698746,0.0,0.0,0.0,0.0,-0.0190476194024,0.347178357972,0.0,0.0,0.0,0.0,-0.0250922978148,Hybrid-Dynamic Alpha,2,Allway Blend,0.862964391708,doorway_assistance,2
1449618227927701101,0.663533540375,0.139561496842,0.0,0.0,0.0,0.136952861975,0.990577565664,1449618227926629461,1,0.352,0.0,0.0,0.0,0.0,-0.0631578947368,1,0.340825397491,0.0,0.0,0.0,0.0,-0.0190476194024,0.342390443799,0.0,0.0,0.0,0.0,-0.0252254340945,Hybrid-Dynamic Alpha,2,Allway Blend,0.859946131706,doorway_assistance,2
1449618227985473312,0.674620604228,0.142686934921,0.0,0.0,0.0,0.136952861975,0.990577565664,1449618227983418296,1,0.352,0.0,0.0,0.0,0.0,-0.0631578947368,1,0.340825397491,0.0,0.0,0.0,0.0,-0.0190476194024,0.342819563792,0.0,0.0,0.0,0.0,-0.0269193288902,Hybrid-Dynamic Alpha,2,Allway Blend,0.821544766426,doorway_assistance,2
1449618228060933144,0.68577124633,0.145577355092,0.0,0.0,0.0,0.126476937269,0.991969548091,1449618228059887613,1,0.352,0.0,0.0,0.0,0.0,-0.105263157895,1,0.340825397491,0.0,0.0,0.0,0.0,-0.0190476194024,0.342874844626,0.0,0.0,0.0,0.0,-0.0348597423085,Hybrid-Dynamic Alpha,2,Allway Blend,0.816597759724,doorway_assistance,2
1449618228160594631,0.705322273592,0.150488090716,0.0,0.0,0.0,0.121233604752,0.99262400388,1449618228158203118,1,0.352,0.0,0.0,0.0,0.0,-0.105263157895,1,0.346412698746,0.0,0.0,0.0,0.0,-0.0190476194024,0.347487198841,0.0,0.0,0.0,0.0,-0.0356278251464,Hybrid-Dynamic Alpha,2,Allway Blend,0.807688891888,doorway_assistance,2
1449618228230672923,0.724924105026,0.155191939756,0.0,0.0,0.0,0.115986887289,0.993250744765,1449618228223968928,1,0.352,0.0,0.0,0.0,0.0,-0.105263157895,1,0.346412698746,0.0,0.0,0.0,0.0,-0.0190476194024,0.34753877406,0.0,0.0,0.0,0.0,-0.0364236628944,Hybrid-Dynamic Alpha,2,Allway Blend,0.798458099365,doorway_assistance,2
1449618228288080398,0.744588262605,0.15962907398,0.0,0.0,0.0,0.110736931374,0.993849753247,1449618228274789991,1,0.352,0.0,0.0,0.0,0.0,-0.0631578947368,1,0.340825397491,0.0,0.0,0.0,0.0,-0.0190476194024,0.343184329907,0.0,0.0,0.0,0.0,-0.0283591952051,Hybrid-Dynamic Alpha,2,Allway Blend,0.788902342319,doorway_assistance,2
1449618228371003271,0.753035384242,0.161441536212,0.0,0.0,0.0,0.10548388359,0.994421012601,1449618228369998737,1,0.352,0.0,0.0,0.0,0.0,-0.0631578947368,1,0.340825397491,0.0,0.0,0.0,0.0,-0.0190476194024,0.343231203753,0.0,0.0,0.0,0.0,-0.0285442235571,Hybrid-Dynamic Alpha,2,Allway Blend,0.784707665443,doorway_assistance,2
1449618228428566661,0.781247557283,0.167214777122,0.0,0.0,0.0,0.0949690991753,0.995480220899,1449618228427612795,1,0.352,0.0,0.0,0.0,0.0,-0.0631578947368,1,0.346412698746,0.0,0.0,0.0,0.0,-0.0190476194024,0.347696072033,0.0,0.0,0.0,0.0,-0.0291795142954,Hybrid-Dynamic Alpha,2,Allway Blend,0.770305335522,doorway_assistance,2
1449618228481287328,0.792558944512,0.169392819136,0.0,0.0,0.0,0.0949690991753,0.995480220899,1449618228475082022,1,0.352,0.0,0.0,0.0,0.0,-0.0631578947368,1,0.346412698746,0.0,0.0,0.0,0.0,-0.0253968268633,0.347405402563,0.0,0.0,0.0,0.0,-0.0321058898849,Hybrid-Dynamic Alpha,2,Allway Blend,0.822328567505,doorway_assistance,2
1449618228589267940,0.801059274121,0.170936606628,0.0,0.0,0.0,0.0897076561262,0.99596814027,1449618228583052243,1,0.352,0.0,0.0,0.0,0.0,-0.0631578947368,1,0.346412698746,0.0,0.0,0.0,0.0,-0.0253968268633,0.347426213885,0.0,0.0,0.0,0.0,-0.0322465405681,Hybrid-Dynamic Alpha,2,Allway Blend,0.818603813648,doorway_assistance,2
1449618228619404340,0.832285228797,0.176267467181,0.0,0.0,0.0,0.0844437083633,0.996428251365,1449618228618937091,1,0.352,0.0,0.0,0.0,0.0,-0.0631578947368,1,0.340825397491,0.0,0.0,0.0,0.0,-0.0190476194024,0.343010603941,0.0,0.0,0.0,0.0,-0.0276734347795,Hybrid-Dynamic Alpha,2,Allway Blend,0.804448843002,doorway_assistance,2
1449618228657398026,0.840816286995,0.177631259437,0.0,0.0,0.0,0.0791774028604,0.996860541338,1449618228657029800,1,0.352,0.0,0.0,0.0,0.0,-0.0631578947368,1,0.346412698746,0.0,0.0,0.0,0.0,-0.0190476194024,0.347577030446,0.0,0.0,0.0,0.0,-0.0282397122431,Hybrid-Dynamic Alpha,2,Allway Blend,0.791611075401,doorway_assistance,2
1449618228751259844,0.852191031258,0.179449649112,0.0,0.0,0.0,0.0791774028604,0.996860541338,1449618228749724422,1,0.352,0.0,0.0,0.0,0.0,-0.0631578947368,1,0.346412698746,0.0,0.0,0.0,0.0,-0.0190476194024,0.347608232609,0.0,0.0,0.0,0.0,-0.028486045122,Hybrid-Dynamic Alpha,2,Allway Blend,0.786026597023,doorway_assistance,2
1449618228791375512,0.875012300081,0.182604816549,0.0,0.0,0.0,0.0686383068554,0.997641610415,1449618228790768620,1,0.352,0.0,0.0,0.0,0.0,-0.0210526315789,1,0.346412698746,0.0,0.0,0.0,0.0,-0.0190476194024,0.347672307409,0.0,0.0,0.0,0.0,-0.0194996320275,Hybrid-Dynamic Alpha,2,Allway Blend,0.774558663368,doorway_assistance,2
1449618228869770951,0.886422934492,0.184182400267,0.0,0.0,0.0,0.0686383068554,0.997641610415,1449618228868098865,1,0.352,0.0,0.0,0.0,0.0,-0.0210526315789,1,0.340825397491,0.0,0.0,0.0,0.0,-0.0190476194024,0.343410378741,0.0,0.0,0.0,0.0,-0.0195114317731,Hybrid-Dynamic Alpha,2,Allway Blend,0.768673539162,doorway_assistance,2
1449618228910856680,0.906419605063,0.186731992293,0.0,0.0,0.0,0.0633658106137,0.997990367712,1449618228910308015,1,0.352,0.0,0.0,0.0,0.0,-0.0631578947368,1,0.340825397491,0.0,0.0,0.0,0.0,-0.0190476194024,0.343528077888,0.0,0.0,0.0,0.0,-0.0297160952014,Hybrid-Dynamic Alpha,2,Allway Blend,0.758140802383,doorway_assistance,2
1449618229021867203,0.920721389093,0.188402083578,0.0,0.0,0.0,0.0580915451448,0.99831126027,1449618229020715854,1,0.352,0.0,0.0,0.0,0.0,-0.0631578947368,1,0.340825397491,0.0,0.0,0.0,0.0,-0.0253968268633,0.343614141268,0.0,0.0,0.0,0.0,-0.0348205126667,Hybrid-Dynamic Alpha,2,Allway Blend,0.750439107418,doorway_assistance,2
1449618229063736837,0.955101363823,0.191895942882,0.0,0.0,0.0,0.0475382956186,0.998869416115,1449618229056246329,1,0.352,0.0,0.0,0.0,0.0,-0.0631578947368,1,0.340825397491,0.0,0.0,0.0,0.0,-0.0253968268633,0.343827192642,0.0,0.0,0.0,0.0,-0.0355404530322,Hybrid-Dynamic Alpha,2,Allway Blend,0.731373429298,doorway_assistance,2
1449618229151934227,0.960834918296,0.192442925627,0.0,0.0,0.0,0.0475382956186,0.998869416115,1449618229151157718,1,0.352,0.0,0.0,0.0,0.0,0.0,1,0.346412698746,0.0,0.0,0.0,0.0,-0.0190476194024,0.347931788702,0.0,0.0,0.0,0.0,-0.0138689032368,Hybrid-Dynamic Alpha,2,Allway Blend,0.728117406368,doorway_assistance,2
