%time,field.linear.x,field.linear.y,field.linear.z,field.angular.x,field.angular.y,field.angular.z
1449618214590294496,0.0,0.0,0.0,0.0,0.0,0.0
1449618214630329148,0.0,0.0,0.0,0.0,0.0,0.0
1449618214670363150,0.0,0.0,0.0,0.0,0.0,0.0
1449618214710344636,0.0,0.0,0.0,0.0,0.0,0.0
1449618214750613024,0.0,0.0,0.0,0.0,0.0,0.0
1449618214790425104,0.0,0.0,0.0,0.0,0.0,0.0
1449618214830429984,0.0,0.0,0.0,0.0,0.0,0.0
1449618214870480761,0.0,0.0,0.0,0.0,0.0,0.0
1449618214910416017,0.0,0.0,0.0,0.0,0.0,0.0
1449618214950509481,0.0,0.0,0.0,0.0,0.0,0.0
1449618214990657717,0.0,0.0,0.0,0.0,0.0,0.0
1449618215030624451,0.0,0.0,0.0,0.0,0.0,0.0
1449618215070374922,0.0,0.0,0.0,0.0,0.0,0.0
1449618215110633036,0.0,0.0,0.0,0.0,0.0,0.0
1449618215150364178,0.0,0.0,0.0,0.0,0.0,0.0
1449618215192548691,0.0,0.0,0.0,0.0,0.0,0.0
1449618215230556186,0.0,0.0,0.0,0.0,0.0,0.0
1449618215270707177,0.0,0.0,0.0,0.0,0.0,0.0
1449618215310597635,0.0,0.0,0.0,0.0,0.0,0.0
1449618215350363059,0.0,0.0,0.0,0.0,0.0,0.0
1449618215390632343,0.0,0.0,0.0,0.0,0.0,0.0
1449618215430561234,0.0,0.0,0.0,0.0,0.0,0.0
1449618215470841615,0.0,0.0,0.0,0.0,0.0,0.0
1449618215510605204,0.0,0.0,0.0,0.0,0.0,0.0
1449618215550404251,0.0,0.0,0.0,0.0,0.0,0.0
1449618215591734517,0.0,0.0,0.0,0.0,0.0,0.0
1449618215630617512,0.0,0.0,0.0,0.0,0.0,0.0
1449618215673158915,0.0,0.0,0.0,0.0,0.0,0.0
1449618215710747678,0.0,0.0,0.0,0.0,0.0,0.0
1449618215751785012,0.0,0.0,0.0,0.0,0.0,0.0
1449618215791225930,0.0,0.0,0.0,0.0,0.0,0.0
1449618215831617868,0.0,0.0,0.0,0.0,0.0,0.0
1449618215871363626,0.0,0.0,0.0,0.0,0.0,0.0
1449618215910777004,0.0,0.0,0.0,0.0,0.0,0.0
1449618215950629498,0.0,0.0,0.0,0.0,0.0,0.0
1449618215991833320,0.0,0.0,0.0,0.0,0.0,0.0
1449618216034161628,0.0,0.0,0.0,0.0,0.0,0.0
1449618216072106371,0.0,0.0,0.0,0.0,0.0,0.0
1449618216110786576,0.0,0.0,0.0,0.0,0.0,0.0
1449618216151089808,0.0,0.0,0.0,0.0,0.0,0.0
1449618216190724587,0.0,0.0,0.0,0.0,0.0,0.0
1449618216230741812,0.0,0.0,0.0,0.0,0.0,0.0
1449618216271461918,0.0,0.0,0.0,0.0,0.0,0.0
1449618216311234809,0.0,0.0,0.0,0.0,0.0,0.0
1449618216351077677,0.0,0.0,0.0,0.0,0.0,0.0
1449618216390857840,0.0,0.0,0.0,0.0,0.0,0.0
1449618216431205891,0.0,0.0,0.0,0.0,0.0,0.0
1449618216470604051,0.0,0.0,0.0,0.0,0.0,0.0
1449618216512144411,0.0,0.0,0.0,0.0,0.0,0.0
1449618216551008454,0.0,0.0,0.0,0.0,0.0,0.0
1449618216591084773,0.0,0.0,0.0,0.0,0.0,0.0
1449618216631074486,0.0,0.0,0.0,0.0,0.0,0.0
1449618216671329183,0.0,0.0,0.0,0.0,0.0,0.0
1449618216710690842,0.0,0.0,0.0,0.0,0.0,0.0
1449618216750615450,0.0,0.0,0.0,0.0,0.0,0.0
1449618216790846579,0.0,0.0,0.0,0.0,0.0,0.0
1449618216830719642,0.0,0.0,0.0,0.0,0.0,0.0
1449618216874654455,0.0,0.0,0.0,0.0,0.0,0.0
1449618216914168382,0.0,0.0,0.0,0.0,0.0,0.0
1449618216950492414,0.0,0.0,0.0,0.0,0.0,0.0
1449618216990795466,0.0,0.0,0.0,0.0,0.0,0.0
1449618217031249954,0.0,0.0,0.0,0.0,0.0,0.0
1449618217070982773,0.0,0.0,0.0,0.0,0.0,0.0
1449618217111026599,0.0,0.0,0.0,0.0,0.0,0.0
1449618217151956183,0.0,0.0,0.0,0.0,0.0,0.0
1449618217191161809,0.0,0.0,0.0,0.0,0.0,0.0
1449618217232594702,0.0,0.0,0.0,0.0,0.0,0.0
1449618217270902896,0.0,0.0,0.0,0.0,0.0,0.0
1449618217311615892,0.0,0.0,0.0,0.0,0.0,0.0
1449618217353266595,0.0,0.0,0.0,0.0,0.0,0.0
1449618217390668781,0.0,0.0,0.0,0.0,0.0,0.0
1449618217433233012,0.0,0.0,0.0,0.0,0.0,0.0
1449618217472804850,0.0,0.0,0.0,0.0,0.0,0.0
1449618217510852149,0.0,0.0,0.0,0.0,0.0,0.0
1449618217550891343,0.0,0.0,0.0,0.0,0.0,0.0
1449618217590920919,0.0,0.0,0.0,0.0,0.0,0.0
1449618217631864393,0.0,0.0,0.0,0.0,0.0,0.0
1449618217672572296,0.0,0.0,0.0,0.0,0.0,0.0
1449618217712728660,-0.0,0.0,0.0,0.0,0.0,-0.0
1449618217752364455,-0.0,0.0,0.0,0.0,0.0,-0.0
1449618217790849953,-0.0,0.0,0.0,0.0,0.0,-0.0
1449618217831029769,-0.0,0.0,0.0,0.0,0.0,-0.0
1449618217870828354,-0.0,0.0,0.0,0.0,0.0,-0.0
1449618217911473006,-0.0,0.0,0.0,0.0,0.0,-0.0
1449618217950677643,-0.0,0.0,0.0,0.0,0.0,-0.0
1449618217991249317,-0.0,0.0,0.0,0.0,0.0,-0.0
1449618218031406467,-0.0,0.0,0.0,0.0,0.0,-0.0
1449618218070747856,-0.0,0.0,0.0,0.0,0.0,-0.0
1449618218111963023,-0.0,0.0,0.0,0.0,0.0,-0.0
1449618218151904059,-0.0,0.0,0.0,0.0,0.0,-0.0
1449618218191134789,-0.0,0.0,0.0,0.0,0.0,-0.0
1449618218231124840,-0.0,0.0,0.0,0.0,0.0,-0.0
1449618218271105446,-0.0,0.0,0.0,0.0,0.0,-0.0
1449618218311302888,-0.0,0.0,0.0,0.0,0.0,-0.0
1449618218350657850,-0.0,0.0,0.0,0.0,0.0,-0.0
1449618218390978907,-0.0,0.0,0.0,0.0,0.0,-0.0
1449618218432067050,-0.0,0.0,0.0,0.0,0.0,-0.0
1449618218471259142,-0.0,0.0,0.0,0.0,0.0,-0.0
1449618218511931284,-0.0,0.0,0.0,0.0,0.0,-0.0
1449618218554815467,-0.0,0.0,0.0,0.0,0.0,-0.0
1449618218590837363,-0.0,0.0,0.0,0.0,0.0,-0.0
1449618218631085421,-0.0,0.0,0.0,0.0,0.0,-0.0
1449618218670788406,-0.0,0.0,0.0,0.0,0.0,-0.0
1449618218711112306,-0.0,0.0,0.0,0.0,0.0,-0.0
1449618218752649031,-0.0,0.0,0.0,0.0,0.0,-0.0
1449618218790857088,-0.0,0.0,0.0,0.0,0.0,-0.0
1449618218831093670,-0.0,0.0,0.0,0.0,0.0,-0.0
1449618218871445009,-0.0,0.0,0.0,0.0,0.0,-0.0
1449618218913205931,-0.0,0.0,0.0,0.0,0.0,-0.0
1449618218950888562,-0.0,0.0,0.0,0.0,0.0,-0.0
1449618218990949244,-0.0,0.0,0.0,0.0,0.0,-0.0
1449618219030772834,-0.0,0.0,0.0,0.0,0.0,-0.0
1449618219073691741,-0.0,0.0,0.0,0.0,0.0,-0.0
1449618219110641614,-0.0,0.0,0.0,0.0,0.0,-0.0
1449618219155381948,-0.0,0.0,0.0,0.0,0.0,-0.0
1449618219191620884,-0.0,0.0,0.0,0.0,0.0,-0.0
1449618219231612779,-0.0,0.0,0.0,0.0,0.0,-0.0
1449618219270830398,-0.0,0.0,0.0,0.0,0.0,-0.0
1449618219311274186,-0.0,0.0,0.0,0.0,0.0,-0.0
1449618219351059866,-0.0,0.0,0.0,0.0,0.0,-0.0
1449618219391744412,-0.0,0.0,0.0,0.0,0.0,-0.0
1449618219437686088,-0.0,0.0,0.0,0.0,0.0,-0.0
1449618219471188586,-0.0,0.0,0.0,0.0,0.0,-0.0
1449618219511244717,-0.0,0.0,0.0,0.0,0.0,-0.0
1449618219551222530,-0.0,0.0,0.0,0.0,0.0,-0.0
1449618219592693500,-0.0,0.0,0.0,0.0,0.0,-0.0
1449618219630700942,-0.0,0.0,0.0,0.0,0.0,-0.0
1449618219673247441,-0.0,0.0,0.0,0.0,0.0,-0.0
1449618219712399543,-0.0,0.0,0.0,0.0,0.0,-0.0
1449618219776544067,-0.0,0.0,0.0,0.0,0.0,-0.0
1449618219791494785,-0.0,0.0,0.0,0.0,0.0,-0.0
1449618219831729816,-0.0,0.0,0.0,0.0,0.0,-0.0
1449618219873195108,-0.0,0.0,0.0,0.0,0.0,-0.0
1449618219913610068,-0.0,0.0,0.0,0.0,0.0,-0.0
1449618219951927085,-0.0,0.0,0.0,0.0,0.0,-0.0
1449618219991495362,-0.0,0.0,0.0,0.0,0.0,-0.0
1449618220035477559,-0.0,0.0,0.0,0.0,0.0,-0.0
1449618220071141693,-0.0,0.0,0.0,0.0,0.0,-0.0
1449618220112655109,-0.0,0.0,0.0,0.0,0.0,-0.0
1449618220150643119,-0.0,0.0,0.0,0.0,0.0,-0.0
1449618220191681336,-0.0,0.0,0.0,0.0,0.0,-0.0
1449618220231699650,-0.0,0.0,0.0,0.0,0.0,-0.0
1449618220273926203,-0.0,0.0,0.0,0.0,0.0,-0.0
1449618220312144932,-0.0,0.0,0.0,0.0,0.0,-0.0
1449618220352483664,-0.0,0.0,0.0,0.0,0.0,-0.0
1449618220393020710,-0.0,0.0,0.0,0.0,0.0,-0.0
1449618220431963134,-0.0,0.0,0.0,0.0,0.0,-0.0
1449618220471102530,-0.0,0.0,0.0,0.0,0.0,-0.0
1449618220511784844,-0.0,0.0,0.0,0.0,0.0,-0.0
1449618220551198958,-0.0,0.0,0.0,0.0,0.0,-0.0
1449618220591325413,-0.0,0.0,0.0,0.0,0.0,-0.0
1449618220630698428,-0.0,0.0,0.0,0.0,0.0,-0.0
1449618220671085599,-0.0,0.0,0.0,0.0,0.0,-0.0
1449618220710938866,-0.0,0.0,0.0,0.0,0.0,-0.0
1449618220752054875,-0.0,0.0,0.0,0.0,0.0,-0.0
1449618220790784557,-0.0,0.0,0.0,0.0,0.0,-0.0
1449618220830911089,-0.0,0.0,0.0,0.0,0.0,-0.0
1449618220870983509,-0.0,0.0,0.0,0.0,0.0,-0.0
1449618220911382073,-0.0,0.0,0.0,0.0,0.0,-0.0
1449618220954330407,-0.0,0.0,0.0,0.0,0.0,-0.0
1449618220990868263,-0.0,0.0,0.0,0.0,0.0,-0.0
1449618221030815595,-0.0,0.0,0.0,0.0,0.0,-0.0
1449618221070873254,-0.0,0.0,0.0,0.0,0.0,-0.0
1449618221110838550,-0.0,0.0,0.0,0.0,0.0,-0.0
1449618221150741790,-0.0,0.0,0.0,0.0,0.0,-0.0
1449618221191081353,-0.0,0.0,0.0,0.0,0.0,-0.0
1449618221232156629,-0.0,0.0,0.0,0.0,0.0,-0.0
1449618221271297743,-0.0,0.0,0.0,0.0,0.0,-0.0
1449618221311222222,-0.0,0.0,0.0,0.0,0.0,-0.0
1449618221350830926,-0.0,0.0,0.0,0.0,0.0,-0.0
1449618221396674313,-0.0,0.0,0.0,0.0,0.0,-0.0
1449618221430986730,-0.0,0.0,0.0,0.0,0.0,-0.0
1449618221471784610,-0.0,0.0,0.0,0.0,0.0,-0.0
1449618221512263887,-0.0,0.0,0.0,0.0,0.0,-0.0
1449618221550771885,-0.0,0.0,0.0,0.0,0.0,-0.0
1449618221590841355,-0.0,0.0,0.0,0.0,0.0,-0.0
1449618221631418722,-0.0,0.0,0.0,0.0,0.0,-0.0
1449618221671347889,-0.0,0.0,0.0,0.0,0.0,-0.0
1449618221717789812,-0.0,0.0,0.0,0.0,0.0,-0.0
1449618221751697621,-0.0,0.0,0.0,0.0,0.0,-0.0
1449618221790632257,-0.0,0.0,0.0,0.0,0.0,-0.0
1449618221831217702,-0.0,0.0,0.0,0.0,0.0,-0.0
1449618221872554665,-0.0,0.0,0.0,0.0,0.0,-0.0
1449618221911630247,-0.0,0.0,0.0,0.0,0.0,-0.0
1449618221950702333,-0.0,0.0,0.0,0.0,0.0,-0.0
1449618221991166535,-0.0,0.0,0.0,0.0,0.0,-0.0
1449618222030874232,-0.0,0.0,0.0,0.0,0.0,-0.0
1449618222071184147,-0.0,0.0,0.0,0.0,0.0,-0.0
1449618222110715283,-0.0,0.0,0.0,0.0,0.0,-0.0
1449618222150712308,-0.0,0.0,0.0,0.0,0.0,-0.0
1449618222192988703,-0.0,0.0,0.0,0.0,0.0,-0.0
1449618222230765468,0.0,0.0,0.0,0.0,0.0,-0.0
1449618222275502747,0.0,0.0,0.0,0.0,0.0,-0.0
1449618222311470645,0.0,0.0,0.0,0.0,0.0,-0.0
1449618222351425104,0.0,0.0,0.0,0.0,0.0,-0.0
1449618222390679122,0.0,0.0,0.0,0.0,0.0,-0.0
1449618222430637912,0.0,0.0,0.0,0.0,0.0,-0.0
1449618222471017466,-0.0,0.0,0.0,0.0,0.0,0.0
1449618222511003565,-0.0,0.0,0.0,0.0,0.0,0.0
1449618222551052474,-0.0,0.0,0.0,0.0,0.0,0.0
1449618222591232909,-0.0,0.0,0.0,0.0,0.0,0.0
1449618222631059271,-0.0,0.0,0.0,0.0,0.0,0.0
1449618222673812504,-0.0,0.0,0.0,0.0,0.0,0.0
1449618222710983907,-0.0,0.0,0.0,0.0,0.0,0.0
1449618222750632453,-0.0,0.0,0.0,0.0,0.0,0.0
1449618222791162980,-0.0,0.0,0.0,0.0,0.0,0.0
1449618222840696347,-0.0,0.0,0.0,0.0,0.0,0.0
1449618222870775616,0.0,0.0,0.0,0.0,0.0,-0.0
1449618222911831726,0.0,0.0,0.0,0.0,0.0,-0.0
1449618222951106147,-0.0,0.0,0.0,0.0,0.0,0.0
1449618222990943463,-0.0,0.0,0.0,0.0,0.0,0.0
1449618223038709457,-0.0,0.0,0.0,0.0,0.0,0.0
1449618223070596710,-0.0,0.0,0.0,0.0,0.0,0.0
1449618223111162037,0.0119348090781,0.0,0.0,0.0,0.0,0.00270031125922
1449618223151100289,0.0119348090781,0.0,0.0,0.0,0.0,0.00270031125922
1449618223190651774,0.0119348090781,0.0,0.0,0.0,0.0,0.00270031125922
1449618223238061002,0.0119348090781,0.0,0.0,0.0,0.0,0.00270031125922
1449618223271124229,0.192843297575,0.0,0.0,0.0,0.0,0.00261485325663
1449618223311221009,0.192843297575,0.0,0.0,0.0,0.0,0.00261485325663
1449618223351469378,0.192843297575,0.0,0.0,0.0,0.0,0.00261485325663
1449618223391540698,0.192843297575,0.0,0.0,0.0,0.0,0.00261485325663
1449618223431401402,0.193325967649,0.0,0.0,0.0,0.0,0.00305384334765
1449618223470825046,0.187854449292,0.0,0.0,0.0,0.0,0.00305384334765
1449618223515945951,0.187854449292,0.0,0.0,0.0,0.0,0.00305384334765
1449618223551249333,0.187854449292,0.0,0.0,0.0,0.0,0.00305384334765
1449618223590672360,0.187777269797,0.0,0.0,0.0,0.0,0.0029859881652
1449618223636388394,0.193251360804,0.0,0.0,0.0,0.0,0.0029859881652
1449618223673386930,0.176829077505,0.0,0.0,0.0,0.0,0.0029859881652
1449618223712330546,0.176829077505,0.0,0.0,0.0,0.0,0.0029859881652
1449618223751988219,0.176916304494,0.0,0.0,0.0,0.0,0.00305788391515
1449618223799073656,0.193330410257,0.0,0.0,0.0,0.0,0.00305788391515
1449618223834812752,0.193330410257,0.0,0.0,0.0,0.0,0.00305788391515
1449618223870811239,0.193330410257,0.0,0.0,0.0,0.0,0.00305788391515
1449618223911343314,0.193330410257,0.0,0.0,0.0,0.0,0.00305788391515
1449618223951600758,0.176916304494,0.0,0.0,0.0,0.0,0.00305788391515
1449618223991765782,0.176916304494,0.0,0.0,0.0,0.0,0.00305788391515
1449618224031247297,0.176814669333,0.0,0.0,0.0,0.0,0.00297411241029
1449618224070680644,0.176814669333,0.0,0.0,0.0,0.0,0.00297411241029
1449618224113169262,0.193238303398,0.0,0.0,0.0,0.0,0.00297411241029
1449618224158408735,0.193265490229,0.0,0.0,0.0,0.0,0.00299883892662
1449618224191186703,0.193265490229,0.0,0.0,0.0,0.0,0.00299883892662
1449618224230949161,0.193265490229,0.0,0.0,0.0,0.0,0.00299883892662
1449618224271344635,0.193265490229,0.0,0.0,0.0,0.0,0.00299883892662
1449618224310868500,0.193265490229,0.0,0.0,0.0,0.0,0.00299883892662
1449618224351267426,0.193297998533,0.0,0.0,0.0,0.0,0.00302840534009
1449618224392031515,0.193353618057,0.0,0.0,0.0,0.0,0.00307899148841
1449618224431992946,0.193353618057,0.0,0.0,0.0,0.0,0.00307899148841
1449618224472272167,0.193353618057,0.0,0.0,0.0,0.0,0.00307899148841
1449618224511290424,0.193381683752,0.0,0.0,0.0,0.0,0.00310451733439
1449618224550781063,0.193381683752,0.0,0.0,0.0,0.0,0.00310451733439
1449618224591724388,0.19313786182,0.0,0.0,0.0,0.0,0.00288276044946
1449618224630692935,0.17676205606,0.0,0.0,0.0,0.0,0.00209339041459
1449618224676053748,0.17676205606,0.0,0.0,0.0,0.0,0.00209339041459
1449618224711272959,0.193421850725,0.0,0.0,0.0,0.0,0.00224360666777
1449618224752348020,0.193421850725,0.0,0.0,0.0,0.0,0.00224360666777
1449618224793796613,0.193421850725,0.0,0.0,0.0,0.0,0.00314104933488
1449618224830811774,0.193421850725,0.0,0.0,0.0,0.0,0.00314104933488
1449618224871632960,0.19347468879,0.0,0.0,0.0,0.0,0.00318910573658
1449618224911050190,0.1935621792,0.0,0.0,0.0,0.0,0.00326867856477
1449618224951174317,0.1935621792,0.0,0.0,0.0,0.0,0.00326867856477
1449618224992742975,0.177172049549,0.0,0.0,0.0,0.0,0.00233477040341
1449618225031553261,0.346530875789,0.0,0.0,0.0,0.0,0.00844133631263
1449618225071243930,0.346530875789,0.0,0.0,0.0,0.0,0.00844133631263
1449618225112411219,0.341063680483,0.0,0.0,0.0,0.0,0.0333136841659
1449618225150979321,0.341063680483,0.0,0.0,0.0,0.0,0.0333136841659
1449618225190770379,0.341051509601,0.0,0.0,0.0,0.0,0.033233612572
1449618225230826980,0.297285575737,0.0,0.0,0.0,0.0,0.338803472843
1449618225271563470,0.302912686958,0.0,0.0,0.0,0.0,0.338198301048
1449618225314729890,0.302912686958,0.0,0.0,0.0,0.0,0.338198301048
1449618225351015133,0.302912686958,0.0,0.0,0.0,0.0,0.338198301048
1449618225390774370,0.302912686958,0.0,0.0,0.0,0.0,0.339201744615
1449618225430673994,0.302952115939,0.0,0.0,0.0,0.0,0.338045018514
1449618225472039578,0.297524757241,0.0,0.0,0.0,0.0,0.332829598441
1449618225512181413,0.297524757241,0.0,0.0,0.0,0.0,0.332829598441
1449618225554159438,0.297524757241,0.0,0.0,0.0,0.0,0.332829598441
1449618225590923883,0.297578724608,0.0,0.0,0.0,0.0,0.332687579043
1449618225632576598,0.297633814283,0.0,0.0,0.0,0.0,0.337585054392
1449618225671462832,0.297633814283,0.0,0.0,0.0,0.0,0.337585054392
1449618225711116489,0.303070432855,0.0,0.0,0.0,0.0,0.331407078742
1449618225751842504,0.303126892278,0.0,0.0,0.0,0.0,0.331194718055
1449618225791107443,0.303126892278,0.0,0.0,0.0,0.0,0.331194718055
1449618225831803640,0.330283774081,0.0,0.0,0.0,0.0,0.127561459671
1449618225870685708,0.314062239683,0.0,0.0,0.0,0.0,0.0105798379491
1449618225911485648,0.314062239683,0.0,0.0,0.0,0.0,0.0105798379491
1449618225951103497,0.314062239683,0.0,0.0,0.0,0.0,0.0105798379491
1449618225991385507,0.314186569772,0.0,0.0,0.0,0.0,0.0110281231568
1449618226033805600,0.314186569772,0.0,0.0,0.0,0.0,0.0110281231568
1449618226076026260,0.314186569772,0.0,0.0,0.0,0.0,0.0110281231568
1449618226111035513,0.30894476357,0.0,0.0,0.0,0.0,-0.000698340202625
1449618226153256582,0.346618095446,0.0,0.0,0.0,0.0,-0.00379403228508
1449618226191822104,0.346618095446,0.0,0.0,0.0,0.0,-0.00379403228508
1449618226231019343,0.346623256731,0.0,0.0,0.0,0.0,-0.00372982490655
1449618226271709420,0.346623256731,0.0,0.0,0.0,0.0,-0.00372982490655
1449618226311480088,0.346630337263,0.0,0.0,0.0,0.0,-0.0036417417297
1449618226350941780,0.346629343837,0.0,0.0,0.0,0.0,-0.00418783780925
1449618226390584064,0.346632951209,0.0,0.0,0.0,0.0,-0.00415184871731
1449618226432385145,0.346632951209,0.0,0.0,0.0,0.0,-0.00415184871731
1449618226473185875,0.346632951209,0.0,0.0,0.0,0.0,-0.00415184871731
1449618226511112319,0.346632951209,0.0,0.0,0.0,0.0,-0.00415184871731
1449618226550525177,0.346667084361,0.0,0.0,0.0,0.0,-0.00558497169326
1449618226590978984,0.346675534641,0.0,0.0,0.0,0.0,-0.0121010590532
1449618226633887814,0.346679858691,0.0,0.0,0.0,0.0,-0.0120912316659
1449618226671234869,0.346679858691,0.0,0.0,0.0,0.0,-0.0120912316659
1449618226710606574,0.346679858691,0.0,0.0,0.0,0.0,-0.0120912316659
1449618226752335246,0.330763812892,0.0,0.0,0.0,0.0,-0.120660165351
1449618226790861508,0.330891791981,0.0,0.0,0.0,0.0,-0.119933011366
1449618226832157564,0.29933071081,0.0,0.0,0.0,0.0,-0.326819367321
1449618226871305253,0.304667874569,0.0,0.0,0.0,0.0,-0.322925526891
1449618226913516447,0.304127315377,0.0,0.0,0.0,0.0,-0.325411352177
1449618226951243750,0.304127315377,0.0,0.0,0.0,0.0,-0.325411352177
1449618226991589785,0.304227172157,0.0,0.0,0.0,0.0,-0.324952148983
1449618227033548245,0.299252608824,0.0,0.0,0.0,0.0,-0.327210344397
1449618227070655436,0.299252608824,0.0,0.0,0.0,0.0,-0.327210344397
1449618227115930877,0.304527347942,0.0,0.0,0.0,0.0,-0.321216322672
1449618227152157308,0.305208490708,0.0,0.0,0.0,0.0,-0.317513672327
1449618227193575041,0.305208490708,0.0,0.0,0.0,0.0,-0.317513672327
1449618227235758844,0.305405917356,0.0,0.0,0.0,0.0,-0.316440473166
1449618227270491420,0.305405917356,0.0,0.0,0.0,0.0,-0.316440473166
1449618227312011941,0.305405917356,0.0,0.0,0.0,0.0,-0.316440473166
1449618227354037709,0.305405917356,0.0,0.0,0.0,0.0,-0.316440473166
1449618227391190091,0.305881070297,0.0,0.0,0.0,0.0,-0.319680668075
1449618227431079771,0.306284264973,0.0,0.0,0.0,0.0,-0.317438018102
1449618227471428964,0.306462005605,0.0,0.0,0.0,0.0,-0.310699642154
1449618227511855310,0.306462005605,0.0,0.0,0.0,0.0,-0.310699642154
1449618227551096865,0.301483091247,0.0,0.0,0.0,0.0,-0.328153486929
1449618227590779050,0.301483091247,0.0,0.0,0.0,0.0,-0.328153486929
1449618227633508658,0.301948336239,0.0,0.0,0.0,0.0,-0.326876289149
1449618227690126579,0.301948336239,0.0,0.0,0.0,0.0,-0.326876289149
1449618227711886674,0.262308728251,0.0,0.0,0.0,0.0,-0.266192488901
1449618227750736169,0.262308728251,0.0,0.0,0.0,0.0,-0.266192488901
1449618227792199480,0.332294886235,0.0,0.0,0.0,0.0,-0.124414364948
1449618227830803393,0.332294886235,0.0,0.0,0.0,0.0,-0.124414364948
1449618227870814599,0.342217667633,0.0,0.0,0.0,0.0,-0.0409057052277
1449618227911129228,0.347150947012,0.0,0.0,0.0,0.0,-0.0304392499824
1449618227950803648,0.347178357972,0.0,0.0,0.0,0.0,-0.0250922978148
1449618227991453105,0.342390443799,0.0,0.0,0.0,0.0,-0.0252254340945
1449618228031080733,0.342819563792,0.0,0.0,0.0,0.0,-0.0269193288902
1449618228072117619,0.342819563792,0.0,0.0,0.0,0.0,-0.0269193288902
1449618228111209736,0.342874844626,0.0,0.0,0.0,0.0,-0.0348597423085
1449618228151298434,0.342874844626,0.0,0.0,0.0,0.0,-0.0348597423085
1449618228191455957,0.342874844626,0.0,0.0,0.0,0.0,-0.0348597423085
1449618228230668209,0.347487198841,0.0,0.0,0.0,0.0,-0.0356278251464
1449618228270738969,0.347487198841,0.0,0.0,0.0,0.0,-0.0356278251464
1449618228313259861,0.34753877406,0.0,0.0,0.0,0.0,-0.0364236628944
1449618228358303312,0.343184329907,0.0,0.0,0.0,0.0,-0.0283591952051
1449618228390926327,0.343184329907,0.0,0.0,0.0,0.0,-0.0283591952051
1449618228431182442,0.343231203753,0.0,0.0,0.0,0.0,-0.0285442235571
1449618228470818533,0.347696072033,0.0,0.0,0.0,0.0,-0.0291795142954
1449618228514091696,0.347696072033,0.0,0.0,0.0,0.0,-0.0291795142954
1449618228552866483,0.347405402563,0.0,0.0,0.0,0.0,-0.0321058898849
1449618228594803703,0.347405402563,0.0,0.0,0.0,0.0,-0.0321058898849
1449618228630715115,0.347426213885,0.0,0.0,0.0,0.0,-0.0322465405681
1449618228670446560,0.343010603941,0.0,0.0,0.0,0.0,-0.0276734347795
1449618228714200876,0.347577030446,0.0,0.0,0.0,0.0,-0.0282397122431
1449618228751232466,0.347577030446,0.0,0.0,0.0,0.0,-0.0282397122431
1449618228791355555,0.347577030446,0.0,0.0,0.0,0.0,-0.0282397122431
1449618228834657132,0.347608232609,0.0,0.0,0.0,0.0,-0.028486045122
1449618228871808428,0.347672307409,0.0,0.0,0.0,0.0,-0.0194996320275
1449618228910768662,0.347672307409,0.0,0.0,0.0,0.0,-0.0194996320275
1449618228952947669,0.343410378741,0.0,0.0,0.0,0.0,-0.0195114317731
1449618228992411850,0.343528077888,0.0,0.0,0.0,0.0,-0.0297160952014
1449618229033920199,0.343528077888,0.0,0.0,0.0,0.0,-0.0297160952014
1449618229072134479,0.343614141268,0.0,0.0,0.0,0.0,-0.0348205126667
1449618229111781495,0.343827192642,0.0,0.0,0.0,0.0,-0.0355404530322
1449618229151302568,0.343827192642,0.0,0.0,0.0,0.0,-0.0355404530322
1449618229190542351,0.343827192642,0.0,0.0,0.0,0.0,-0.0355404530322
1449618229230857182,0.324171066459,0.0,0.0,0.0,0.0,-0.00748011152994
1449618229271761583,0.348062296814,0.0,0.0,0.0,0.0,-0.007208398003
1449618229312915803,0.348062296814,0.0,0.0,0.0,0.0,-0.007208398003
1449618229351381424,0.348090949973,0.0,0.0,0.0,0.0,-0.00700275331237
1449618229392106822,0.348090949973,0.0,0.0,0.0,0.0,-0.00700275331237
1449618229431034694,0.348178226911,0.0,0.0,0.0,0.0,0.00692845454125
1449618229479910819,0.31417669879,0.0,0.0,0.0,0.0,0.00750877576248
1449618229510783451,0.31417669879,0.0,0.0,0.0,0.0,0.00750877576248
1449618229551655476,0.348267428091,0.0,0.0,0.0,0.0,0.00824086433267
1449618229590592019,0.348337955996,0.0,0.0,0.0,0.0,0.00927853572987
1449618229631479863,0.348337955996,0.0,0.0,0.0,0.0,0.00927853572987
1449618229671272010,0.319499168971,0.0,0.0,0.0,0.0,0.0182338297935
1449618229713303597,0.320145954123,0.0,0.0,0.0,0.0,0.00369463083121
1449618229752219908,0.320145954123,0.0,0.0,0.0,0.0,0.00369463083121
1449618229790730241,0.348502032443,0.0,0.0,0.0,0.0,0.0353874857957
1449618229831112683,0.317748116249,0.0,0.0,0.0,0.0,0.0485181083171
1449618229870514936,0.317748116249,0.0,0.0,0.0,0.0,0.0485181083171
1449618229911074886,0.317748116249,0.0,0.0,0.0,0.0,0.0485181083171
1449618229950966457,0.345484942264,0.0,0.0,0.0,0.0,0.0411422984627
1449618229992208397,0.345484942264,0.0,0.0,0.0,0.0,0.0411422984627
1449618230030754555,0.345484942264,0.0,0.0,0.0,0.0,0.0411422984627
1449618230070718451,0.30683591137,0.0,0.0,0.0,0.0,0.125136286279
1449618230111291675,0.308014843066,0.0,0.0,0.0,0.0,0.124617532072
1449618230150975211,0.308014843066,0.0,0.0,0.0,0.0,0.124617532072
1449618230191381004,0.32089723282,0.0,0.0,0.0,0.0,0.237524336725
1449618230231342040,0.321737372007,0.0,0.0,0.0,0.0,0.230512800012
1449618230270476845,0.32236247097,0.0,0.0,0.0,0.0,0.227925667743
1449618230312355979,0.32236247097,0.0,0.0,0.0,0.0,0.227925667743
1449618230353530459,0.325326223873,0.0,0.0,0.0,0.0,0.231293568769
1449618230391355246,0.323501530423,0.0,0.0,0.0,0.0,0.243840520721
1449618230430846645,0.323501530423,0.0,0.0,0.0,0.0,0.243840520721
1449618230472606591,0.323501530423,0.0,0.0,0.0,0.0,0.243840520721
1449618230511801884,0.327362521686,0.0,0.0,0.0,0.0,0.243148144082
1449618230552074274,0.327725789836,0.0,0.0,0.0,0.0,0.241735826968
1449618230591039876,0.327725789836,0.0,0.0,0.0,0.0,0.241735826968
1449618230633538155,0.327725789836,0.0,0.0,0.0,0.0,0.241735826968
1449618230671089146,0.298920638084,0.0,0.0,0.0,0.0,0.237593988368
1449618230711583708,0.298920638084,0.0,0.0,0.0,0.0,0.237593988368
1449618230750548624,0.326857144356,0.0,0.0,0.0,0.0,0.266165415237
1449618230791329034,0.326857144356,0.0,0.0,0.0,0.0,0.266165415237
1449618230834484960,0.324063493729,0.0,0.0,0.0,0.0,0.266165415237
1449618230871719831,0.324063493729,0.0,0.0,0.0,0.0,0.266165415237
1449618230912010266,0.352,0.0,0.0,0.0,0.0,0.189473684211
1449618230951399841,0.352,0.0,0.0,0.0,0.0,0.189473684211
1449618230991269906,0.352,0.0,0.0,0.0,0.0,0.189473684211
1449618231031408019,0.352,0.0,0.0,0.0,0.0,0.189473684211
1449618231072605763,0.352,0.0,0.0,0.0,0.0,0.189473684211
1449618231115251411,0.352,0.0,0.0,0.0,0.0,0.189473684211
1449618231154747654,0.352,0.0,0.0,0.0,0.0,0.189473684211
1449618231191761702,0.352,0.0,0.0,0.0,0.0,0.189473684211
1449618231234089452,0.352,0.0,0.0,0.0,0.0,0.189473684211
1449618231270526109,0.352,0.0,0.0,0.0,0.0,0.189473684211
1449618231311365668,0.352,0.0,0.0,0.0,0.0,0.231578947368
1449618231350785499,0.352,0.0,0.0,0.0,0.0,0.231578947368
1449618231394135722,0.352,0.0,0.0,0.0,0.0,0.231578947368
1449618231431579217,0.352,0.0,0.0,0.0,0.0,0.231578947368
1449618231471755256,0.352,0.0,0.0,0.0,0.0,0.231578947368
1449618231511153271,0.352,0.0,0.0,0.0,0.0,0.231578947368
1449618231550631744,0.352,0.0,0.0,0.0,0.0,0.189473684211
1449618231597039770,0.352,0.0,0.0,0.0,0.0,0.189473684211
1449618231631033865,0.352,0.0,0.0,0.0,0.0,0.189473684211
1449618231670564522,0.352,0.0,0.0,0.0,0.0,0.189473684211
1449618231711068480,0.352,0.0,0.0,0.0,0.0,0.189473684211
1449618231752865912,0.352,0.0,0.0,0.0,0.0,0.189473684211
1449618231791261176,0.352,0.0,0.0,0.0,0.0,0.189473684211
1449618231831372336,0.352,0.0,0.0,0.0,0.0,0.147368421053
1449618231872630128,0.352,0.0,0.0,0.0,0.0,0.147368421053
1449618231910511867,0.352,0.0,0.0,0.0,0.0,0.147368421053
1449618231950920272,0.352,0.0,0.0,0.0,0.0,0.147368421053
1449618231993762737,0.352,0.0,0.0,0.0,0.0,0.147368421053
1449618232030784785,0.352,0.0,0.0,0.0,0.0,0.147368421053
1449618232070968436,0.352,0.0,0.0,0.0,0.0,0.147368421053
1449618232110981717,0.352,0.0,0.0,0.0,0.0,0.147368421053
1449618232151852240,0.352,0.0,0.0,0.0,0.0,0.147368421053
1449618232190642580,0.352,0.0,0.0,0.0,0.0,0.147368421053
1449618232231572351,0.352,0.0,0.0,0.0,0.0,0.147368421053
1449618232280729635,0.352,0.0,0.0,0.0,0.0,0.105263157895
1449618232311592947,0.352,0.0,0.0,0.0,0.0,0.105263157895
1449618232353587077,0.352,0.0,0.0,0.0,0.0,0.105263157895
1449618232391311453,0.352,0.0,0.0,0.0,0.0,0.105263157895
1449618232439634323,0.352,0.0,0.0,0.0,0.0,0.105263157895
1449618232479008901,0.352,0.0,0.0,0.0,0.0,0.105263157895
1449618232511563568,0.352,0.0,0.0,0.0,0.0,0.147368421053
1449618232553965961,0.352,0.0,0.0,0.0,0.0,0.147368421053
1449618232590828248,0.352,0.0,0.0,0.0,0.0,0.105263157895
1449618232630969954,0.352,0.0,0.0,0.0,0.0,0.105263157895
1449618232670899795,0.352,0.0,0.0,0.0,0.0,0.105263157895
1449618232710777142,0.352,0.0,0.0,0.0,0.0,0.105263157895
1449618232751028162,0.352,0.0,0.0,0.0,0.0,0.105263157895
1449618232791700320,0.352,0.0,0.0,0.0,0.0,0.105263157895
1449618232830866841,0.352,0.0,0.0,0.0,0.0,0.105263157895
1449618232873139768,0.352,0.0,0.0,0.0,0.0,0.105263157895
1449618232911352935,0.352,0.0,0.0,0.0,0.0,0.105263157895
1449618232951535481,0.352,0.0,0.0,0.0,0.0,0.105263157895
1449618232990823669,0.352,0.0,0.0,0.0,0.0,0.105263157895
1449618233031206670,0.352,0.0,0.0,0.0,0.0,0.0631578947368
1449618233071632922,0.352,0.0,0.0,0.0,0.0,0.0631578947368
1449618233111514017,0.352,0.0,0.0,0.0,0.0,0.0631578947368
1449618233151598382,0.352,0.0,0.0,0.0,0.0,0.0631578947368
1449618233190521379,0.352,0.0,0.0,0.0,0.0,0.105263157895
1449618233231696265,0.352,0.0,0.0,0.0,0.0,0.105263157895
1449618233271688799,0.352,0.0,0.0,0.0,0.0,0.105263157895
1449618233318068591,0.3056,0.0,0.0,0.0,0.0,0.105263157895
1449618233350928994,0.3056,0.0,0.0,0.0,0.0,0.105263157895
1449618233390836416,0.352,0.0,0.0,0.0,0.0,0.0210526315789
1449618233430454957,0.352,0.0,0.0,0.0,0.0,0.0210526315789
1449618233473796728,0.351118020201,0.0,0.0,0.0,0.0,0.0177294015884
1449618233510919977,0.351118020201,0.0,0.0,0.0,0.0,0.0177294015884
1449618233550918203,0.351118020201,0.0,0.0,0.0,0.0,0.0177294015884
1449618233592730789,0.351134939745,0.0,0.0,0.0,0.0,0.0
1449618233630973152,0.351134939745,0.0,0.0,0.0,0.0,0.0
1449618233671840353,0.351155399055,0.0,0.0,0.0,0.0,0.0
1449618233710784552,0.351161917267,0.0,0.0,0.0,0.0,0.196842621502
1449618233750931154,0.351161917267,0.0,0.0,0.0,0.0,0.196842621502
1449618233791444400,0.351172454641,0.0,0.0,0.0,0.0,0.197279367949
1449618233843443501,0.351186480495,0.0,0.0,0.0,0.0,0.162810483586
1449618233872537973,0.351186480495,0.0,0.0,0.0,0.0,0.162810483586
1449618233911260635,0.351186480495,0.0,0.0,0.0,0.0,0.162810483586
1449618233951295454,0.351215568256,0.0,0.0,0.0,0.0,0.128461114589
1449618233993542789,0.351215568256,0.0,0.0,0.0,0.0,0.128461114589
1449618234031564152,0.348882279665,0.0,0.0,0.0,0.0,0.179870644814
1449618234071876634,0.348932902754,0.0,0.0,0.0,0.0,0.180026571192
1449618234111081258,0.3451395701,0.0,0.0,0.0,0.0,0.283121383207
1449618234150974639,0.3451395701,0.0,0.0,0.0,0.0,0.283121383207
1449618234193513388,0.3451395701,0.0,0.0,0.0,0.0,0.283121383207
1449618234232187845,0.338383261334,0.0,0.0,0.0,0.0,0.275313003331
1449618234277410476,0.345334769782,0.0,0.0,0.0,0.0,0.246328591139
1449618234313441024,0.345377774497,0.0,0.0,0.0,0.0,0.246233425195
1449618234351344240,0.34542822441,0.0,0.0,0.0,0.0,0.24612178363
1449618234396287662,0.344698025957,0.0,0.0,0.0,0.0,0.282724356021
1449618234431947325,0.344768574926,0.0,0.0,0.0,0.0,0.282636981971
1449618234472060014,0.344768574926,0.0,0.0,0.0,0.0,0.282636981971
1449618234513788053,0.344768574926,0.0,0.0,0.0,0.0,0.282636981971
1449618234551183863,0.339141462956,0.0,0.0,0.0,0.0,0.201778490267
1449618234591064387,0.345592200116,0.0,0.0,0.0,0.0,0.209018989599
1449618234630703339,0.345592200116,0.0,0.0,0.0,0.0,0.209018989599
1449618234673877785,0.30510765784,0.0,0.0,0.0,0.0,0.208908441176
1449618234711319195,0.30510765784,0.0,0.0,0.0,0.0,0.208908441176
1449618234750908058,0.30510765784,0.0,0.0,0.0,0.0,0.208908441176
1449618234791057977,0.305107716572,0.0,0.0,0.0,0.0,0.208905940201
1449618234847448370,0.34155712637,0.0,0.0,0.0,0.0,0.208921459906
1449618234875882770,0.34155712637,0.0,0.0,0.0,0.0,0.208921459906
1449618234911098131,0.341535875471,0.0,0.0,0.0,0.0,0.2089840749
1449618234950514611,0.341535875471,0.0,0.0,0.0,0.0,0.2089840749
1449618234990987865,0.33925014841,0.0,0.0,0.0,0.0,0.245013348059
1449618235033139491,0.333131381064,0.0,0.0,0.0,0.0,0.169892366431
1449618235070595286,0.333861477852,0.0,0.0,0.0,0.0,0.166517123747
1449618235111621794,0.333861477852,0.0,0.0,0.0,0.0,0.166517123747
1449618235151992830,0.294643686126,0.0,0.0,0.0,0.0,0.166387491433
1449618235194320055,0.294689914569,0.0,0.0,0.0,0.0,0.166250219876
1449618235230878537,0.346412698746,0.0,0.0,0.0,0.0,0.00634920671582
1449618235272439131,0.346412698746,0.0,0.0,0.0,0.0,0.0
1449618235311061305,0.346412698746,0.0,0.0,0.0,0.0,0.0
1449618235350846658,0.346412698746,0.0,0.0,0.0,0.0,0.0
1449618235395774587,0.346412698746,0.0,0.0,0.0,0.0,-0.00634920671582
1449618235431396593,0.346412698746,0.0,0.0,0.0,0.0,-0.00634920671582
1449618235472769448,0.346412698746,0.0,0.0,0.0,0.0,-0.00634920671582
1449618235511267944,0.346412698746,0.0,0.0,0.0,0.0,-0.00634920671582
1449618235551467158,0.346412698746,0.0,0.0,0.0,0.0,-0.00634920671582
1449618235595702817,0.346412698746,0.0,0.0,0.0,0.0,-0.0126984134316
1449618235630510920,0.346412698746,0.0,0.0,0.0,0.0,-0.0126984134316
1449618235678473035,0.346412698746,0.0,0.0,0.0,0.0,-0.0317460328341
1449618235710814808,0.346412698746,0.0,0.0,0.0,0.0,-0.0317460328341
1449618235751297008,0.346412698746,0.0,0.0,0.0,0.0,-0.0317460328341
1449618235791721701,0.294767611421,0.0,0.0,0.0,0.0,-0.00125313503178
1449618235831475281,0.335238096237,0.0,0.0,0.0,0.0,-0.0507936537266
1449618235871504209,0.300689732834,0.0,0.0,0.0,0.0,-0.00125313503178
1449618235917660915,0.340825397491,0.0,0.0,0.0,0.0,-0.0507936537266
1449618235952083049,0.340825397491,0.0,0.0,0.0,0.0,-0.0507936537266
1449618235990553578,0.340825397491,0.0,0.0,0.0,0.0,-0.0507936537266
1449618236032207566,0.340825397491,0.0,0.0,0.0,0.0,-0.0507936537266
1449618236071347368,0.340825397491,0.0,0.0,0.0,0.0,-0.0507936537266
1449618236110800100,0.340825397491,0.0,0.0,0.0,0.0,-0.0507936537266
1449618236151177906,0.340825397491,0.0,0.0,0.0,0.0,-0.0507936537266
1449618236191710216,0.340825397491,0.0,0.0,0.0,0.0,-0.0571428596973
1449618236231333517,0.340825397491,0.0,0.0,0.0,0.0,-0.0571428596973
1449618236271686929,0.340825397491,0.0,0.0,0.0,0.0,-0.0507936537266
1449618236311183144,0.340825397491,0.0,0.0,0.0,0.0,-0.0507936537266
1449618236350854959,0.340825397491,0.0,0.0,0.0,0.0,-0.0507936537266
1449618236390773664,0.340825397491,0.0,0.0,0.0,0.0,-0.0507936537266
1449618236432006627,0.340825397491,0.0,0.0,0.0,0.0,-0.0571428596973
1449618236471800797,0.340825397491,0.0,0.0,0.0,0.0,-0.0571428596973
1449618236511037349,0.340825397491,0.0,0.0,0.0,0.0,-0.0571428596973
1449618236550533671,0.340825397491,0.0,0.0,0.0,0.0,-0.0571428596973
1449618236590599233,0.340825397491,0.0,0.0,0.0,0.0,-0.0571428596973
1449618236630993528,0.340825397491,0.0,0.0,0.0,0.0,-0.0571428596973
1449618236674434056,0.340825397491,0.0,0.0,0.0,0.0,-0.0571428596973
1449618236712966939,0.340825397491,0.0,0.0,0.0,0.0,-0.0571428596973
1449618236751156613,0.340825397491,0.0,0.0,0.0,0.0,-0.0571428596973
1449618236791095144,0.340825397491,0.0,0.0,0.0,0.0,-0.0571428596973
1449618236830466120,0.340825397491,0.0,0.0,0.0,0.0,-0.0571428596973
1449618236872204502,0.346412698746,0.0,0.0,0.0,0.0,-0.0317460328341
1449618236911865485,0.346412698746,0.0,0.0,0.0,0.0,-0.0317460328341
1449618236951134876,0.346412698746,0.0,0.0,0.0,0.0,-0.0317460328341
1449618236991582598,0.340825397491,0.0,0.0,0.0,0.0,-0.0380952388048
1449618237030936963,0.340825397491,0.0,0.0,0.0,0.0,-0.0380952388048
1449618237075406028,0.340825397491,0.0,0.0,0.0,0.0,-0.0380952388048
1449618237110989473,0.340825397491,0.0,0.0,0.0,0.0,-0.0317460328341
1449618237151123018,0.340825397491,0.0,0.0,0.0,0.0,-0.0317460328341
1449618237191380470,0.340825397491,0.0,0.0,0.0,0.0,-0.0317460328341
1449618237230729898,0.340825397491,0.0,0.0,0.0,0.0,-0.0317460328341
1449618237271238064,0.340825397491,0.0,0.0,0.0,0.0,-0.0317460328341
1449618237310739623,0.340825397491,0.0,0.0,0.0,0.0,-0.0317460328341
1449618237350854852,0.340825397491,0.0,0.0,0.0,0.0,-0.0317460328341
1449618237391004516,0.340825397491,0.0,0.0,0.0,0.0,-0.0317460328341
1449618237432774885,0.340825397491,0.0,0.0,0.0,0.0,-0.0317460328341
1449618237470718234,0.340825397491,0.0,0.0,0.0,0.0,-0.0317460328341
1449618237511099479,0.346412698746,0.0,0.0,0.0,0.0,-0.0190476194024
1449618237552661137,0.346412698746,0.0,0.0,0.0,0.0,-0.0190476194024
1449618237591102896,0.340825397491,0.0,0.0,0.0,0.0,-0.0253968268633
1449618237630664034,0.340825397491,0.0,0.0,0.0,0.0,-0.0253968268633
1449618237674001920,0.346412698746,0.0,0.0,0.0,0.0,-0.0253968268633
1449618237712498762,0.346412698746,0.0,0.0,0.0,0.0,-0.0253968268633
1449618237750725057,0.346412698746,0.0,0.0,0.0,0.0,-0.0253968268633
1449618237794402172,0.346412698746,0.0,0.0,0.0,0.0,-0.0190476194024
1449618237831201847,0.346412698746,0.0,0.0,0.0,0.0,-0.0190476194024
1449618237872785379,0.346412698746,0.0,0.0,0.0,0.0,-0.0253968268633
1449618237911020906,0.346412698746,0.0,0.0,0.0,0.0,-0.0253968268633
1449618237951013423,0.346412698746,0.0,0.0,0.0,0.0,-0.0253968268633
1449618237991788940,0.346412698746,0.0,0.0,0.0,0.0,-0.0253968268633
1449618238032266130,0.346412698746,0.0,0.0,0.0,0.0,-0.0253968268633
1449618238071161162,0.346412698746,0.0,0.0,0.0,0.0,-0.0253968268633
1449618238110906281,0.340825397491,0.0,0.0,0.0,0.0,-0.0190476194024
1449618238150992832,0.340825397491,0.0,0.0,0.0,0.0,-0.0190476194024
1449618238191522294,0.259809524059,0.0,0.0,0.0,0.0,0.0857142854482
1449618238230736588,0.259809524059,0.0,0.0,0.0,0.0,0.0857142854482
1449618238272798557,0.259809524059,0.0,0.0,0.0,0.0,0.0857142854482
1449618238311425625,0.259809524059,0.0,0.0,0.0,0.0,0.0857142854482
1449618238350814951,0.259809524059,0.0,0.0,0.0,0.0,0.0857142854482
1449618238390840168,0.255619048119,0.0,0.0,0.0,0.0,0.0857142854482
1449618238440184792,0.255619048119,0.0,0.0,0.0,0.0,0.0857142854482
1449618238472064616,0.255619048119,0.0,0.0,0.0,0.0,0.0857142854482
1449618238514094684,0.255619048119,0.0,0.0,0.0,0.0,0.0857142854482
1449618238551159386,0.259809524059,0.0,0.0,0.0,0.0,0.0952380949631
1449618238591487813,0.259809524059,0.0,0.0,0.0,0.0,0.0952380949631
1449618238630889047,0.259809524059,0.0,0.0,0.0,0.0,0.104761905037
1449618238671877521,0.301714288712,0.0,0.0,0.0,0.0,0.342857146263
1449618238711169608,0.301714288712,0.0,0.0,0.0,0.0,0.342857146263
1449618238755812684,0.301714288712,0.0,0.0,0.0,0.0,0.342857146263
1449618238791109836,0.301714288712,0.0,0.0,0.0,0.0,0.336507940292
1449618238831376859,0.301714288712,0.0,0.0,0.0,0.0,0.336507940292
1449618238871325484,0.296126987457,0.0,0.0,0.0,0.0,0.336507940292
1449618238914088338,0.296126987457,0.0,0.0,0.0,0.0,0.336507940292
1449618238963803439,0.296126987457,0.0,0.0,0.0,0.0,0.336507940292
1449618238991113949,0.324063493729,0.0,0.0,0.0,0.0,0.184126985073
1449618239031802476,0.324063493729,0.0,0.0,0.0,0.0,0.184126985073
1449618239071029373,0.335238096237,0.0,0.0,0.0,0.0,0.0761904776096
1449618239112449817,0.335238096237,0.0,0.0,0.0,0.0,0.0761904776096
1449618239150995189,0.335238096237,0.0,0.0,0.0,0.0,0.0761904776096
1449618239190875244,0.255619048119,0.0,0.0,0.0,0.0,0.123809524626
1449618239235388608,0.255619048119,0.0,0.0,0.0,0.0,0.123809524626
1449618239273644705,0.255619048119,0.0,0.0,0.0,0.0,0.123809524626
1449618239311269677,0.255619048119,0.0,0.0,0.0,0.0,0.123809524626
1449618239358548618,0.255619048119,0.0,0.0,0.0,0.0,0.123809524626
1449618239397816050,0.255619048119,0.0,0.0,0.0,0.0,0.123809524626
1449618239430695235,0.255619048119,0.0,0.0,0.0,0.0,0.123809524626
1449618239471405245,0.255619048119,0.0,0.0,0.0,0.0,0.123809524626
1449618239510811674,0.255619048119,0.0,0.0,0.0,0.0,0.123809524626
1449618239551461988,0.255619048119,0.0,0.0,0.0,0.0,0.123809524626
1449618239590808187,0.255619048119,0.0,0.0,0.0,0.0,0.123809524626
1449618239632587211,0.255619048119,0.0,0.0,0.0,0.0,0.123809524626
1449618239671005388,0.255619048119,0.0,0.0,0.0,0.0,0.123809524626
1449618239721674916,0.255619048119,0.0,0.0,0.0,0.0,0.123809524626
1449618239750950090,0.255619048119,0.0,0.0,0.0,0.0,0.123809524626
1449618239794568917,0.259809524059,0.0,0.0,0.0,0.0,0.123809524626
1449618239832543290,0.259809524059,0.0,0.0,0.0,0.0,0.123809524626
1449618239873681824,0.259809524059,0.0,0.0,0.0,0.0,0.123809524626
1449618239911051236,0.259809524059,0.0,0.0,0.0,0.0,0.123809524626
1449618239951251858,0.259809524059,0.0,0.0,0.0,0.0,0.123809524626
1449618239993433309,0.259809524059,0.0,0.0,0.0,0.0,0.123809524626
1449618240031025195,0.259809524059,0.0,0.0,0.0,0.0,0.123809524626
1449618240071712605,0.259809524059,0.0,0.0,0.0,0.0,0.123809524626
1449618240113162251,0.259809524059,0.0,0.0,0.0,0.0,0.123809524626
1449618240150440071,0.259809524059,0.0,0.0,0.0,0.0,0.123809524626
1449618240191122232,0.346412698746,0.0,0.0,0.0,0.0,0.0317460328341
1449618240231480838,0.259809524059,0.0,0.0,0.0,0.0,0.123809524626
1449618240271314337,0.259809524059,0.0,0.0,0.0,0.0,0.123809524626
1449618240311496028,0.259809524059,0.0,0.0,0.0,0.0,0.123809524626
1449618240350543433,0.259809524059,0.0,0.0,0.0,0.0,0.123809524626
1449618240390943851,0.259809524059,0.0,0.0,0.0,0.0,0.123809524626
1449618240431421449,0.255619048119,0.0,0.0,0.0,0.0,0.123809524626
1449618240470750675,0.346412698746,0.0,0.0,0.0,0.0,0.0317460328341
1449618240511868520,0.346412698746,0.0,0.0,0.0,0.0,0.0317460328341
1449618240551340476,0.346412698746,0.0,0.0,0.0,0.0,0.0317460328341
1449618240592917436,0.340825397491,0.0,0.0,0.0,0.0,0.0317460328341
1449618240632064408,0.340825397491,0.0,0.0,0.0,0.0,0.0317460328341
1449618240672874117,0.340825397491,0.0,0.0,0.0,0.0,0.0317460328341
1449618240710977363,0.340825397491,0.0,0.0,0.0,0.0,0.0317460328341
1449618240751909753,0.340825397491,0.0,0.0,0.0,0.0,0.0317460328341
1449618240791010507,0.340825397491,0.0,0.0,0.0,0.0,0.0253968268633
1449618240837914851,0.340825397491,0.0,0.0,0.0,0.0,0.0253968268633
1449618240871149609,0.346412698746,0.0,0.0,0.0,0.0,0.0317460328341
1449618240912492626,0.346412698746,0.0,0.0,0.0,0.0,0.0317460328341
1449618240952231467,0.346412698746,0.0,0.0,0.0,0.0,0.0317460328341
1449618240991198818,0.340825397491,0.0,0.0,0.0,0.0,0.0317460328341
1449618241031666381,0.340825397491,0.0,0.0,0.0,0.0,0.0317460328341
1449618241071020582,0.346412698746,0.0,0.0,0.0,0.0,0.0317460328341
1449618241114778769,0.346412698746,0.0,0.0,0.0,0.0,0.0317460328341
1449618241151387493,0.346412698746,0.0,0.0,0.0,0.0,0.0317460328341
1449618241191013872,0.346412698746,0.0,0.0,0.0,0.0,0.0317460328341
1449618241231082187,0.335238096237,0.0,0.0,0.0,0.0,0.0761904776096
1449618241272617093,0.329650794983,0.0,0.0,0.0,0.0,0.120634925365
1449618241313566380,0.329650794983,0.0,0.0,0.0,0.0,0.120634925365
1449618241350754646,0.329650794983,0.0,0.0,0.0,0.0,0.120634925365
1449618241394038646,0.318476192474,0.0,0.0,0.0,0.0,0.177777779102
1449618241430902919,0.318476192474,0.0,0.0,0.0,0.0,0.177777779102
1449618241471100473,0.318476192474,0.0,0.0,0.0,0.0,0.177777779102
1449618241511152603,0.318476192474,0.0,0.0,0.0,0.0,0.184126985073
1449618241551807810,0.324063493729,0.0,0.0,0.0,0.0,0.184126985073
1449618241595742892,0.324063493729,0.0,0.0,0.0,0.0,0.184126985073
1449618241630553372,0.324063493729,0.0,0.0,0.0,0.0,0.184126985073
1449618241670862637,0.324063493729,0.0,0.0,0.0,0.0,0.184126985073
1449618241711591441,0.324063493729,0.0,0.0,0.0,0.0,0.184126985073
1449618241750519045,0.324063493729,0.0,0.0,0.0,0.0,0.184126985073
1449618241791201409,0.318476192474,0.0,0.0,0.0,0.0,0.177777779102
1449618241831586728,0.318476192474,0.0,0.0,0.0,0.0,0.177777779102
1449618241870742397,0.324063493729,0.0,0.0,0.0,0.0,0.177777779102
1449618241911280822,0.324063493729,0.0,0.0,0.0,0.0,0.177777779102
1449618241951233812,0.324063493729,0.0,0.0,0.0,0.0,0.177777779102
1449618241991269414,0.324063493729,0.0,0.0,0.0,0.0,0.184126985073
1449618242033478544,0.324063493729,0.0,0.0,0.0,0.0,0.184126985073
1449618242071822245,0.27377778244,0.0,0.0,0.0,0.0,0.152380955219
1449618242114185218,0.27377778244,0.0,0.0,0.0,0.0,0.152380955219
1449618242151001897,0.27377778244,0.0,0.0,0.0,0.0,0.152380955219
1449618242193182877,0.318476192474,0.0,0.0,0.0,0.0,0.184126985073
1449618242236074306,0.318476192474,0.0,0.0,0.0,0.0,0.184126985073
1449618242277551284,0.318476192474,0.0,0.0,0.0,0.0,0.184126985073
1449618242310992366,0.318476192474,0.0,0.0,0.0,0.0,0.184126985073
1449618242350532326,0.318476192474,0.0,0.0,0.0,0.0,0.184126985073
1449618242393814110,0.324063493729,0.0,0.0,0.0,0.0,0.184126985073
1449618242454683249,0.324063493729,0.0,0.0,0.0,0.0,0.184126985073
1449618242471622694,0.324063493729,0.0,0.0,0.0,0.0,0.184126985073
1449618242513910779,0.324063493729,0.0,0.0,0.0,0.0,0.177777779102
1449618242551173922,0.324063493729,0.0,0.0,0.0,0.0,0.177777779102
1449618242592495380,0.27377778244,0.0,0.0,0.0,0.0,0.15873016119
1449618242633631698,0.27377778244,0.0,0.0,0.0,0.0,0.15873016119
1449618242673375938,0.27377778244,0.0,0.0,0.0,0.0,0.15873016119
1449618242713494737,0.324063493729,0.0,0.0,0.0,0.0,0.184126985073
1449618242751342101,0.329650794983,0.0,0.0,0.0,0.0,0.126984131336
1449618242790795329,0.329650794983,0.0,0.0,0.0,0.0,0.126984131336
1449618242831058595,0.329650794983,0.0,0.0,0.0,0.0,0.126984131336
1449618242872486966,0.329650794983,0.0,0.0,0.0,0.0,0.120634925365
1449618242911798586,0.329650794983,0.0,0.0,0.0,0.0,0.120634925365
1449618242950926967,0.329650794983,0.0,0.0,0.0,0.0,0.120634925365
1449618242990837941,0.329650794983,0.0,0.0,0.0,0.0,0.120634925365
1449618243032771008,0.329650794983,0.0,0.0,0.0,0.0,0.120634925365
1449618243071387285,0.340825397491,0.0,0.0,0.0,0.0,0.0380952388048
1449618243111235004,0.340825397491,0.0,0.0,0.0,0.0,0.0380952388048
1449618243159985901,0.340825397491,0.0,0.0,0.0,0.0,0.0380952388048
1449618243194852649,0.340825397491,0.0,0.0,0.0,0.0,0.0380952388048
1449618243232920025,0.259809524059,0.0,0.0,0.0,0.0,0.104761905037
1449618243271492011,0.259809524059,0.0,0.0,0.0,0.0,0.104761905037
1449618243310928965,0.259809524059,0.0,0.0,0.0,0.0,0.1
1449618243351278620,0.259809524059,0.0,0.0,0.0,0.0,0.1
1449618243390740508,0.259809524059,0.0,0.0,0.0,0.0,0.1
1449618243431122250,0.259809524059,0.0,0.0,0.0,0.0,0.1
1449618243473029053,0.259809524059,0.0,0.0,0.0,0.0,0.1
1449618243510699077,0.346412698746,0.0,0.0,0.0,0.0,0.00634920671582
1449618243551168559,0.346412698746,0.0,0.0,0.0,0.0,0.00634920671582
1449618243591805945,0.346412698746,0.0,0.0,0.0,0.0,0.00634920671582
1449618243631621543,0.346412698746,0.0,0.0,0.0,0.0,0.00634920671582
1449618243671887409,0.346412698746,0.0,0.0,0.0,0.0,0.00634920671582
1449618243711414483,0.346412698746,0.0,0.0,0.0,0.0,0.00634920671582
1449618243750556492,0.346412698746,0.0,0.0,0.0,0.0,0.00634920671582
1449618243790614478,0.346412698746,0.0,0.0,0.0,0.0,0.00634920671582
1449618243831597658,0.346412698746,0.0,0.0,0.0,0.0,0.00634920671582
1449618243871602420,0.340825397491,0.0,0.0,0.0,0.0,0.00634920671582
1449618243913292985,0.340825397491,0.0,0.0,0.0,0.0,0.00634920671582
1449618243951237018,0.340825397491,0.0,0.0,0.0,0.0,0.00634920671582
1449618243991017218,0.346412698746,0.0,0.0,0.0,0.0,0.00634920671582
1449618244037807204,0.346412698746,0.0,0.0,0.0,0.0,0.00634920671582
1449618244071089558,0.296126987457,0.0,0.0,0.0,0.0,0.336507940292
1449618244110665381,0.296126987457,0.0,0.0,0.0,0.0,0.336507940292
1449618244151120780,0.296126987457,0.0,0.0,0.0,0.0,0.336507940292
1449618244190724089,0.296126987457,0.0,0.0,0.0,0.0,0.336507940292
1449618244230953805,0.301714288712,0.0,0.0,0.0,0.0,0.342857146263
1449618244277843492,0.251428577423,0.0,0.0,0.0,0.0,0.285714292526
1449618244311256828,0.251428577423,0.0,0.0,0.0,0.0,0.285714292526
1449618244353674619,0.251428577423,0.0,0.0,0.0,0.0,0.285714292526
1449618244390549853,0.296126987457,0.0,0.0,0.0,0.0,0.336507940292
1449618244431251335,0.296126987457,0.0,0.0,0.0,0.0,0.336507940292
1449618244471010314,0.296126987457,0.0,0.0,0.0,0.0,0.336507940292
1449618244510512166,0.296126987457,0.0,0.0,0.0,0.0,0.342857146263
1449618244551960217,0.296126987457,0.0,0.0,0.0,0.0,0.342857146263
1449618244590998328,0.301714288712,0.0,0.0,0.0,0.0,0.336507940292
1449618244630790496,0.301714288712,0.0,0.0,0.0,0.0,0.336507940292
1449618244676568425,0.301714288712,0.0,0.0,0.0,0.0,0.336507940292
1449618244710617295,0.301714288712,0.0,0.0,0.0,0.0,0.336507940292
1449618244750478253,0.296126987457,0.0,0.0,0.0,0.0,0.342857146263
1449618244790960224,0.296126987457,0.0,0.0,0.0,0.0,0.336507940292
1449618244831001608,0.296126987457,0.0,0.0,0.0,0.0,0.336507940292
1449618244871552452,0.296126987457,0.0,0.0,0.0,0.0,0.336507940292
1449618244910912297,0.296126987457,0.0,0.0,0.0,0.0,0.336507940292
1449618244950836128,0.296126987457,0.0,0.0,0.0,0.0,0.336507940292
1449618244990626776,0.296126987457,0.0,0.0,0.0,0.0,0.336507940292
1449618245034050804,0.296126987457,0.0,0.0,0.0,0.0,0.336507940292
1449618245070754995,0.296126987457,0.0,0.0,0.0,0.0,0.336507940292
1449618245112691439,0.296126987457,0.0,0.0,0.0,0.0,0.342857146263
1449618245151286853,0.296126987457,0.0,0.0,0.0,0.0,0.342857146263
1449618245191422775,0.296126987457,0.0,0.0,0.0,0.0,0.336507940292
1449618245231174010,0.296126987457,0.0,0.0,0.0,0.0,0.336507940292
1449618245270925933,0.301714288712,0.0,0.0,0.0,0.0,0.342857146263
1449618245311907912,0.301714288712,0.0,0.0,0.0,0.0,0.342857146263
1449618245356697471,0.301714288712,0.0,0.0,0.0,0.0,0.342857146263
1449618245392080386,0.296126987457,0.0,0.0,0.0,0.0,0.336507940292
1449618245432267457,0.296126987457,0.0,0.0,0.0,0.0,0.336507940292
1449618245470788177,0.301714288712,0.0,0.0,0.0,0.0,0.342857146263
1449618245510992775,0.301714288712,0.0,0.0,0.0,0.0,0.342857146263
1449618245551711577,0.301714288712,0.0,0.0,0.0,0.0,0.342857146263
1449618245592105324,0.296126987457,0.0,0.0,0.0,0.0,0.336507940292
1449618245631216594,0.296126987457,0.0,0.0,0.0,0.0,0.336507940292
1449618245671791512,0.318476192474,0.0,0.0,0.0,0.0,0.177777779102
1449618245711980569,0.318476192474,0.0,0.0,0.0,0.0,0.177777779102
1449618245751506141,0.318476192474,0.0,0.0,0.0,0.0,0.177777779102
1449618245791575392,0.340825397491,0.0,0.0,0.0,0.0,0.0317460328341
1449618245834480315,0.340825397491,0.0,0.0,0.0,0.0,0.0317460328341
1449618245870432904,0.346412698746,0.0,0.0,0.0,0.0,0.00634920671582
1449618245912029822,0.346412698746,0.0,0.0,0.0,0.0,0.00634920671582
1449618245950890739,0.346412698746,0.0,0.0,0.0,0.0,0.00634920671582
1449618245992175512,0.346412698746,0.0,0.0,0.0,0.0,0.00634920671582
1449618246031327148,0.346412698746,0.0,0.0,0.0,0.0,0.00634920671582
1449618246071998020,0.346412698746,0.0,0.0,0.0,0.0,0.00634920671582
1449618246114622240,0.346412698746,0.0,0.0,0.0,0.0,0.00634920671582
1449618246150684860,0.346412698746,0.0,0.0,0.0,0.0,0.00634920671582
1449618246190823809,0.301714288712,0.0,0.0,0.0,0.0,0.00634920671582
1449618246231445455,0.301714288712,0.0,0.0,0.0,0.0,0.00634920671582
1449618246270902295,0.301714288712,0.0,0.0,0.0,0.0,0.00634920671582
1449618246310869828,0.346412698746,0.0,0.0,0.0,0.0,0.00634920671582
1449618246351950951,0.346412698746,0.0,0.0,0.0,0.0,0.00634920671582
1449618246391918274,0.31288889122,0.0,0.0,0.0,0.0,0.0
1449618246432216397,0.31288889122,0.0,0.0,0.0,0.0,0.0
1449618246476745351,0.184380962372,0.0,0.0,0.0,0.0,0.0
1449618246511574976,0.184380962372,0.0,0.0,0.0,0.0,0.0
1449618246551038802,0.184380962372,0.0,0.0,0.0,0.0,0.0
1449618246591831712,0.189968263626,0.0,0.0,0.0,0.0,0.0
1449618246631098969,0.189968263626,0.0,0.0,0.0,0.0,0.0
1449618246671842063,0.229079372406,0.0,0.0,0.0,0.0,0.0
1449618246710847469,0.229079372406,0.0,0.0,0.0,0.0,0.0
1449618246751067186,0.229079372406,0.0,0.0,0.0,0.0,0.0
1449618246791659254,0.346412698746,0.0,0.0,0.0,0.0,0.0
1449618246835039398,0.346412698746,0.0,0.0,0.0,0.0,0.0
1449618246871004287,0.346412698746,0.0,0.0,0.0,0.0,0.0
1449618246910881159,0.340825397491,0.0,0.0,0.0,0.0,0.0
1449618246950999077,0.189968263626,0.0,0.0,0.0,0.0,0.0
1449618246992204201,0.189968263626,0.0,0.0,0.0,0.0,0.0
1449618247036366997,0.189968263626,0.0,0.0,0.0,0.0,0.0
1449618247071431307,0.189968263626,0.0,0.0,0.0,0.0,0.0
1449618247140561920,0.184380962372,0.0,0.0,0.0,0.0,0.0
1449618247150871063,0.184380962372,0.0,0.0,0.0,0.0,0.0
1449618247191233856,0.217904769897,0.0,0.0,0.0,0.0,0.0
1449618247231858794,0.217904769897,0.0,0.0,0.0,0.0,0.0
1449618247271183546,0.217904769897,0.0,0.0,0.0,0.0,0.0
1449618247312167527,0.346412698746,0.0,0.0,0.0,0.0,-0.00634920671582
1449618247351078381,0.346412698746,0.0,0.0,0.0,0.0,-0.00634920671582
1449618247392517847,0.301714288712,0.0,0.0,0.0,0.0,-0.00634920671582
1449618247434664116,0.301714288712,0.0,0.0,0.0,0.0,-0.00634920671582
1449618247482109598,0.301714288712,0.0,0.0,0.0,0.0,-0.00634920671582
1449618247511113924,0.301714288712,0.0,0.0,0.0,0.0,-0.00634920671582
1449618247553914182,0.346412698746,0.0,0.0,0.0,0.0,-0.0126984134316
1449618247591998988,0.324063493729,0.0,0.0,0.0,0.0,-0.120634925365
1449618247646514259,0.324063493729,0.0,0.0,0.0,0.0,-0.120634925365
1449618247670738985,0.301714288712,0.0,0.0,0.0,0.0,-0.342857146263
1449618247711268168,0.301714288712,0.0,0.0,0.0,0.0,-0.342857146263
1449618247753055681,0.301714288712,0.0,0.0,0.0,0.0,-0.342857146263
1449618247792799323,0.296126987457,0.0,0.0,0.0,0.0,-0.336507940292
1449618247833211577,0.296126987457,0.0,0.0,0.0,0.0,-0.336507940292
1449618247870577503,0.301714288712,0.0,0.0,0.0,0.0,-0.336507940292
1449618247911777273,0.301714288712,0.0,0.0,0.0,0.0,-0.336507940292
1449618247951389644,0.301714288712,0.0,0.0,0.0,0.0,-0.336507940292
1449618247992534758,0.296126987457,0.0,0.0,0.0,0.0,-0.336507940292
1449618248030702691,0.296126987457,0.0,0.0,0.0,0.0,-0.336507940292
1449618248070956511,0.296126987457,0.0,0.0,0.0,0.0,-0.342857146263
1449618248111284548,0.296126987457,0.0,0.0,0.0,0.0,-0.342857146263
1449618248150750744,0.296126987457,0.0,0.0,0.0,0.0,-0.342857146263
1449618248196381450,0.251428577423,0.0,0.0,0.0,0.0,-0.285714292526
1449618248244491925,0.251428577423,0.0,0.0,0.0,0.0,-0.285714292526
1449618248273052465,0.296126987457,0.0,0.0,0.0,0.0,-0.336507940292
1449618248311406877,0.296126987457,0.0,0.0,0.0,0.0,-0.336507940292
1449618248351110220,0.296126987457,0.0,0.0,0.0,0.0,-0.336507940292
1449618248394792733,0.335238096237,0.0,0.0,0.0,0.0,-0.0761904776096
1449618248431116271,0.335238096237,0.0,0.0,0.0,0.0,-0.0761904776096
1449618248481279297,0.346412698746,0.0,0.0,0.0,0.0,0.00634920671582
1449618248513767213,0.346412698746,0.0,0.0,0.0,0.0,0.00634920671582
1449618248551347026,0.346412698746,0.0,0.0,0.0,0.0,0.00634920671582
1449618248592720026,0.329650794983,0.0,0.0,0.0,0.0,0.120634925365
1449618248631394664,0.329650794983,0.0,0.0,0.0,0.0,0.120634925365
1449618248670505645,0.329650794983,0.0,0.0,0.0,0.0,0.120634925365
1449618248711461339,0.301714288712,0.0,0.0,0.0,0.0,0.342857146263
1449618248753685137,0.301714288712,0.0,0.0,0.0,0.0,0.336507940292
1449618248790594340,0.301714288712,0.0,0.0,0.0,0.0,0.336507940292
1449618248831686046,0.301714288712,0.0,0.0,0.0,0.0,0.336507940292
1449618248878325408,0.301714288712,0.0,0.0,0.0,0.0,0.336507940292
1449618248926353880,0.296126987457,0.0,0.0,0.0,0.0,0.342857146263
1449618248950973372,0.251428577423,0.0,0.0,0.0,0.0,0.279365086555
1449618248991105757,0.251428577423,0.0,0.0,0.0,0.0,0.279365086555
1449618249031550157,0.251428577423,0.0,0.0,0.0,0.0,0.279365086555
1449618249087023558,0.251428577423,0.0,0.0,0.0,0.0,0.279365086555
1449618249111265918,0.301714288712,0.0,0.0,0.0,0.0,0.342857146263
1449618249159276229,0.301714288712,0.0,0.0,0.0,0.0,0.342857146263
1449618249190813188,0.301714288712,0.0,0.0,0.0,0.0,0.336507940292
1449618249235193025,0.301714288712,0.0,0.0,0.0,0.0,0.336507940292
1449618249272505633,0.301714288712,0.0,0.0,0.0,0.0,0.336507940292
1449618249312021918,0.301714288712,0.0,0.0,0.0,0.0,0.342857146263
1449618249350811866,0.301714288712,0.0,0.0,0.0,0.0,0.342857146263
1449618249392286720,0.296126987457,0.0,0.0,0.0,0.0,0.336507940292
1449618249431445900,0.296126987457,0.0,0.0,0.0,0.0,0.336507940292
1449618249471246370,0.301714288712,0.0,0.0,0.0,0.0,0.342857146263
1449618249511388936,0.301714288712,0.0,0.0,0.0,0.0,0.342857146263
1449618249550666981,0.301714288712,0.0,0.0,0.0,0.0,0.342857146263
1449618249591559329,0.301714288712,0.0,0.0,0.0,0.0,0.336507940292
1449618249630858094,0.301714288712,0.0,0.0,0.0,0.0,0.336507940292
1449618249672136331,0.301714288712,0.0,0.0,0.0,0.0,0.342857146263
1449618249711089926,0.301714288712,0.0,0.0,0.0,0.0,0.342857146263
1449618249785799789,0.301714288712,0.0,0.0,0.0,0.0,0.342857146263
1449618249790787748,0.296126987457,0.0,0.0,0.0,0.0,0.336507940292
1449618249831161894,0.296126987457,0.0,0.0,0.0,0.0,0.336507940292
1449618249870705529,0.301714288712,0.0,0.0,0.0,0.0,0.342857146263
1449618249911490672,0.301714288712,0.0,0.0,0.0,0.0,0.342857146263
1449618249951544479,0.301714288712,0.0,0.0,0.0,0.0,0.342857146263
1449618249993876478,0.301714288712,0.0,0.0,0.0,0.0,0.342857146263
1449618250031214967,0.301714288712,0.0,0.0,0.0,0.0,0.342857146263
1449618250072746025,0.301714288712,0.0,0.0,0.0,0.0,0.342857146263
1449618250111235482,0.301714288712,0.0,0.0,0.0,0.0,0.342857146263
1449618250150744217,0.301714288712,0.0,0.0,0.0,0.0,0.342857146263
1449618250193448531,0.296126987457,0.0,0.0,0.0,0.0,0.342857146263
1449618250231560352,0.296126987457,0.0,0.0,0.0,0.0,0.342857146263
1449618250272375427,0.301714288712,0.0,0.0,0.0,0.0,0.342857146263
1449618250311220732,0.301714288712,0.0,0.0,0.0,0.0,0.342857146263
1449618250351129967,0.301714288712,0.0,0.0,0.0,0.0,0.342857146263
1449618250408609470,0.335238096237,0.0,0.0,0.0,0.0,0.120634925365
1449618250436027076,0.335238096237,0.0,0.0,0.0,0.0,0.120634925365
1449618250472315655,0.290539686203,0.0,0.0,0.0,0.0,0.0380952388048
1449618250511334721,0.290539686203,0.0,0.0,0.0,0.0,0.0380952388048
1449618250550824212,0.290539686203,0.0,0.0,0.0,0.0,0.0380952388048
1449618250591113077,0.346412698746,0.0,0.0,0.0,0.0,0.00634920671582
1449618250630697648,0.346412698746,0.0,0.0,0.0,0.0,0.00634920671582
1449618250670900730,0.307301589966,0.0,0.0,0.0,0.0,0.0
1449618250711650084,0.307301589966,0.0,0.0,0.0,0.0,0.0
1449618250750770371,0.307301589966,0.0,0.0,0.0,0.0,0.0
1449618250790717494,0.352,0.0,0.0,0.0,0.0,0.00634920671582
1449618250830971782,0.352,0.0,0.0,0.0,0.0,0.00634920671582
1449618250877076402,0.346412698746,0.0,0.0,0.0,0.0,0.0
1449618250912456772,0.346412698746,0.0,0.0,0.0,0.0,0.0
1449618250951011521,0.346412698746,0.0,0.0,0.0,0.0,0.0
1449618250991487076,0.346412698746,0.0,0.0,0.0,0.0,0.0
1449618251031788294,0.346412698746,0.0,0.0,0.0,0.0,0.0
1449618251071624189,0.346412698746,0.0,0.0,0.0,0.0,0.0
1449618251111347689,0.346412698746,0.0,0.0,0.0,0.0,0.0
1449618251152199764,0.346412698746,0.0,0.0,0.0,0.0,0.0
1449618251190748849,0.346412698746,0.0,0.0,0.0,0.0,0.0
1449618251231610001,0.346412698746,0.0,0.0,0.0,0.0,0.0
1449618251274701548,0.352,0.0,0.0,0.0,0.0,0.0
1449618251316329695,0.352,0.0,0.0,0.0,0.0,0.0
1449618251353913598,0.352,0.0,0.0,0.0,0.0,0.0
1449618251391151860,0.346412698746,0.0,0.0,0.0,0.0,0.0
1449618251430971825,0.346412698746,0.0,0.0,0.0,0.0,0.0
1449618251471175325,0.346412698746,0.0,0.0,0.0,0.0,0.0
1449618251511982235,0.346412698746,0.0,0.0,0.0,0.0,0.0
1449618251550987913,0.346412698746,0.0,0.0,0.0,0.0,0.0
1449618251591790744,0.346412698746,0.0,0.0,0.0,0.0,0.0
1449618251631549148,0.352,0.0,0.0,0.0,0.0,0.0
1449618251670988937,0.346412698746,0.0,0.0,0.0,0.0,0.0
1449618251713218301,0.346412698746,0.0,0.0,0.0,0.0,0.0
1449618251751495588,0.346412698746,0.0,0.0,0.0,0.0,0.0
1449618251792298001,0.346412698746,0.0,0.0,0.0,0.0,0.0
1449618251831220026,0.346412698746,0.0,0.0,0.0,0.0,0.0
1449618251871201776,0.346412698746,0.0,0.0,0.0,0.0,0.0
1449618251911434470,0.346412698746,0.0,0.0,0.0,0.0,0.0
1449618251954188203,0.346412698746,0.0,0.0,0.0,0.0,0.0
1449618251997406868,0.346412698746,0.0,0.0,0.0,0.0,0.0
1449618252032422411,0.346412698746,0.0,0.0,0.0,0.0,0.0
1449618252071441628,0.346412698746,0.0,0.0,0.0,0.0,0.0
1449618252110666035,0.346412698746,0.0,0.0,0.0,0.0,0.0
1449618252152807504,0.346412698746,0.0,0.0,0.0,0.0,0.0
1449618252191331955,0.346412698746,0.0,0.0,0.0,0.0,0.0
1449618252230885268,0.346412698746,0.0,0.0,0.0,0.0,0.0
1449618252270972935,0.346412698746,0.0,0.0,0.0,0.0,0.0
1449618252312009315,0.352,0.0,0.0,0.0,0.0,0.0
1449618252363080977,0.352,0.0,0.0,0.0,0.0,0.0
1449618252390771285,0.31288889122,0.0,0.0,0.0,0.0,0.0
1449618252430671554,0.31288889122,0.0,0.0,0.0,0.0,0.0
1449618252472210154,0.31288889122,0.0,0.0,0.0,0.0,0.0
1449618252513057934,0.346412698746,0.0,0.0,0.0,0.0,0.0
1449618252551415777,0.31288889122,0.0,0.0,0.0,0.0,0.0
1449618252593017153,0.31288889122,0.0,0.0,0.0,0.0,0.0
1449618252631413443,0.31288889122,0.0,0.0,0.0,0.0,0.0
1449618252671685023,0.189968263626,0.0,0.0,0.0,0.0,0.0
1449618252712292494,0.189968263626,0.0,0.0,0.0,0.0,0.0
1449618252751402600,0.189968263626,0.0,0.0,0.0,0.0,0.0
1449618252793989202,0.184380962372,0.0,0.0,0.0,0.0,0.0
1449618252832374068,0.184380962372,0.0,0.0,0.0,0.0,0.0
1449618252870962624,0.184380962372,0.0,0.0,0.0,0.0,0.0
1449618252913627028,0.173206349373,0.0,0.0,0.0,0.0,0.0
1449618252950622663,0.173206349373,0.0,0.0,0.0,0.0,0.0
1449618252990840498,0.184380962372,0.0,0.0,0.0,0.0,0.0
1449618253030829874,0.184380962372,0.0,0.0,0.0,0.0,0.0
1449618253071930413,0.184380962372,0.0,0.0,0.0,0.0,0.0
1449618253110448063,0.184380962372,0.0,0.0,0.0,0.0,0.0
1449618253150665449,0.184380962372,0.0,0.0,0.0,0.0,0.0
1449618253190691757,0.189968263626,0.0,0.0,0.0,0.0,0.0
1449618253230683170,0.189968263626,0.0,0.0,0.0,0.0,0.0
1449618253270750239,0.189968263626,0.0,0.0,0.0,0.0,0.0
1449618253310845375,0.189968263626,0.0,0.0,0.0,0.0,0.0
1449618253351141569,0.189968263626,0.0,0.0,0.0,0.0,0.0
1449618253392397091,0.189968263626,0.0,0.0,0.0,0.0,0.0
1449618253431206459,0.189968263626,0.0,0.0,0.0,0.0,0.0
1449618253507645365,0.189968263626,0.0,0.0,0.0,0.0,0.0
1449618253513483320,0.167619048119,0.0,0.0,0.0,0.0,0.0
1449618253550763882,0.167619048119,0.0,0.0,0.0,0.0,0.0
1449618253594420787,0.189968263626,0.0,0.0,0.0,0.0,0.0
1449618253631644398,0.189968263626,0.0,0.0,0.0,0.0,0.0
1449618253672004832,0.189968263626,0.0,0.0,0.0,0.0,0.0
1449618253711589200,0.189968263626,0.0,0.0,0.0,0.0,0.0
1449618253751576462,0.189968263626,0.0,0.0,0.0,0.0,0.0
1449618253791836337,0.189968263626,0.0,0.0,0.0,0.0,0.0
1449618253831470483,0.189968263626,0.0,0.0,0.0,0.0,0.0
1449618253871206886,0.189968263626,0.0,0.0,0.0,0.0,0.0
1449618253910744143,0.189968263626,0.0,0.0,0.0,0.0,0.0
1449618253954359099,0.189968263626,0.0,0.0,0.0,0.0,0.0
1449618253991268241,0.078222222805,0.0,0.0,0.0,0.0,0.0
1449618254036641297,0.078222222805,0.0,0.0,0.0,0.0,0.0
1449618254070915469,0.0335238101482,0.0,0.0,0.0,0.0,0.0
1449618254118751898,0.0335238101482,0.0,0.0,0.0,0.0,0.0
1449618254152969668,0.0335238101482,0.0,0.0,0.0,0.0,0.0
1449618254191477187,0.0335238101482,0.0,0.0,0.0,0.0,0.0
1449618254233737884,0.00558730190992,0.0,0.0,0.0,0.0,0.0
1449618254271933635,0.00558730190992,0.0,0.0,0.0,0.0,0.0
1449618254311495377,0.00558730190992,0.0,0.0,0.0,0.0,0.0
1449618254359004495,0.00558730190992,0.0,0.0,0.0,0.0,0.0
1449618254390625465,0.00558730190992,0.0,0.0,0.0,0.0,0.0
1449618254431507218,0.00558730190992,0.0,0.0,0.0,0.0,0.0
