%time,field.linear.x,field.linear.y,field.linear.z,field.angular.x,field.angular.y,field.angular.z
1449618217651950189,-0.0,0.0,0.0,0.0,0.0,-0.0
1449618217691695010,-0.0,0.0,0.0,0.0,0.0,-0.0
1449618217735988504,-0.0,0.0,0.0,0.0,0.0,-0.0
1449618217770819238,-0.0,0.0,0.0,0.0,0.0,-0.0
1449618217810123974,-0.0,0.0,0.0,0.0,0.0,-0.0
1449618217850311322,-0.0,0.0,0.0,0.0,0.0,-0.0
1449618217901528729,-0.0,0.0,0.0,0.0,0.0,-0.0
1449618217933487138,-0.0,0.0,0.0,0.0,0.0,-0.0
1449618217970467707,-0.0,0.0,0.0,0.0,0.0,-0.0
1449618218010754492,-0.0,0.0,0.0,0.0,0.0,-0.0
1449618218050070835,-0.0,0.0,0.0,0.0,0.0,-0.0
1449618218093074179,-0.0,0.0,0.0,0.0,0.0,-0.0
1449618218130476356,-0.0,0.0,0.0,0.0,0.0,-0.0
1449618218169826162,-0.0,0.0,0.0,0.0,0.0,-0.0
1449618218210368209,-0.0,0.0,0.0,0.0,0.0,-0.0
1449618218252853367,-0.0,0.0,0.0,0.0,0.0,-0.0
1449618218290528034,-0.0,0.0,0.0,0.0,0.0,-0.0
1449618218330574790,-0.0,0.0,0.0,0.0,0.0,-0.0
1449618218370654444,-0.0,0.0,0.0,0.0,0.0,-0.0
1449618218410523741,-0.0,0.0,0.0,0.0,0.0,-0.0
1449618218451197966,-0.0,0.0,0.0,0.0,0.0,-0.0
1449618218490337789,-0.0,0.0,0.0,0.0,0.0,-0.0
1449618218530312009,-0.0,0.0,0.0,0.0,0.0,-0.0
1449618218570109436,-0.0,0.0,0.0,0.0,0.0,-0.0
1449618218610974104,-0.0,0.0,0.0,0.0,0.0,-0.0
1449618218651554012,-0.0,0.0,0.0,0.0,0.0,-0.0
1449618218693329106,-0.0,0.0,0.0,0.0,0.0,-0.0
1449618218732543747,-0.0,0.0,0.0,0.0,0.0,-0.0
1449618218771394486,-0.0,0.0,0.0,0.0,0.0,-0.0
1449618218810778661,-0.0,0.0,0.0,0.0,0.0,-0.0
1449618218853426781,-0.0,0.0,0.0,0.0,0.0,-0.0
1449618218891109884,-0.0,0.0,0.0,0.0,0.0,-0.0
1449618218931304203,-0.0,0.0,0.0,0.0,0.0,-0.0
1449618218970491756,-0.0,0.0,0.0,0.0,0.0,-0.0
1449618219010523077,-0.0,0.0,0.0,0.0,0.0,-0.0
1449618219054573539,-0.0,0.0,0.0,0.0,0.0,-0.0
1449618219092784315,-0.0,0.0,0.0,0.0,0.0,-0.0
1449618219131392074,-0.0,0.0,0.0,0.0,0.0,-0.0
1449618219171623043,-0.0,0.0,0.0,0.0,0.0,-0.0
1449618219213160485,-0.0,0.0,0.0,0.0,0.0,-0.0
1449618219251409006,-0.0,0.0,0.0,0.0,0.0,-0.0
1449618219293312069,-0.0,0.0,0.0,0.0,0.0,-0.0
1449618219332353278,-0.0,0.0,0.0,0.0,0.0,-0.0
1449618219372119658,-0.0,0.0,0.0,0.0,0.0,-0.0
1449618219411548503,-0.0,0.0,0.0,0.0,0.0,-0.0
1449618219450311776,-0.0,0.0,0.0,0.0,0.0,-0.0
1449618219493518584,-0.0,0.0,0.0,0.0,0.0,-0.0
1449618219530707089,-0.0,0.0,0.0,0.0,0.0,-0.0
1449618219570685458,-0.0,0.0,0.0,0.0,0.0,-0.0
1449618219610938652,-0.0,0.0,0.0,0.0,0.0,-0.0
1449618219655466565,-0.0,0.0,0.0,0.0,0.0,-0.0
1449618219691908989,-0.0,0.0,0.0,0.0,0.0,-0.0
1449618219731039775,-0.0,0.0,0.0,0.0,0.0,-0.0
1449618219776185620,-0.0,0.0,0.0,0.0,0.0,-0.0
1449618219810103137,-0.0,0.0,0.0,0.0,0.0,-0.0
1449618219852362271,-0.0,0.0,0.0,0.0,0.0,-0.0
1449618219892070387,-0.0,0.0,0.0,0.0,0.0,-0.0
1449618219930893433,-0.0,0.0,0.0,0.0,0.0,-0.0
1449618219970006209,-0.0,0.0,0.0,0.0,0.0,-0.0
1449618220011242056,-0.0,0.0,0.0,0.0,0.0,-0.0
1449618220051165042,-0.0,0.0,0.0,0.0,0.0,-0.0
1449618220090350722,-0.0,0.0,0.0,0.0,0.0,-0.0
1449618220130195800,-0.0,0.0,0.0,0.0,0.0,-0.0
1449618220173179153,-0.0,0.0,0.0,0.0,0.0,-0.0
1449618220212555931,-0.0,0.0,0.0,0.0,0.0,-0.0
1449618220250912500,-0.0,0.0,0.0,0.0,0.0,-0.0
1449618220290824000,-0.0,0.0,0.0,0.0,0.0,-0.0
1449618220331150248,-0.0,0.0,0.0,0.0,0.0,-0.0
1449618220372726421,-0.0,0.0,0.0,0.0,0.0,-0.0
1449618220411027336,-0.0,0.0,0.0,0.0,0.0,-0.0
1449618220453706831,-0.0,0.0,0.0,0.0,0.0,-0.0
1449618220490677775,-0.0,0.0,0.0,0.0,0.0,-0.0
1449618220530403080,-0.0,0.0,0.0,0.0,0.0,-0.0
1449618220570505846,-0.0,0.0,0.0,0.0,0.0,-0.0
1449618220609774947,-0.0,0.0,0.0,0.0,0.0,-0.0
1449618220649888162,-0.0,0.0,0.0,0.0,0.0,-0.0
1449618220690711375,-0.0,0.0,0.0,0.0,0.0,-0.0
1449618220731666186,-0.0,0.0,0.0,0.0,0.0,-0.0
1449618220771202730,-0.0,0.0,0.0,0.0,0.0,-0.0
1449618220810106629,-0.0,0.0,0.0,0.0,0.0,-0.0
1449618220850578358,-0.0,0.0,0.0,0.0,0.0,-0.0
1449618220893656568,-0.0,0.0,0.0,0.0,0.0,-0.0
1449618220931245303,-0.0,0.0,0.0,0.0,0.0,-0.0
1449618220976675566,-0.0,0.0,0.0,0.0,0.0,-0.0
1449618221011226573,-0.0,0.0,0.0,0.0,0.0,-0.0
1449618221050694016,-0.0,0.0,0.0,0.0,0.0,-0.0
1449618221091789160,-0.0,0.0,0.0,0.0,0.0,-0.0
1449618221130170372,-0.0,0.0,0.0,0.0,0.0,-0.0
1449618221170256670,-0.0,0.0,0.0,0.0,0.0,-0.0
1449618221209795244,-0.0,0.0,0.0,0.0,0.0,-0.0
1449618221250641070,-0.0,0.0,0.0,0.0,0.0,-0.0
1449618221290393929,-0.0,0.0,0.0,0.0,0.0,-0.0
1449618221330669539,-0.0,0.0,0.0,0.0,0.0,-0.0
1449618221370887542,-0.0,0.0,0.0,0.0,0.0,-0.0
1449618221410101987,-0.0,0.0,0.0,0.0,0.0,-0.0
1449618221449865652,-0.0,0.0,0.0,0.0,0.0,-0.0
1449618221491249257,-0.0,0.0,0.0,0.0,0.0,-0.0
1449618221531679795,-0.0,0.0,0.0,0.0,0.0,-0.0
1449618221570497253,-0.0,0.0,0.0,0.0,0.0,-0.0
1449618221610206865,-0.0,0.0,0.0,0.0,0.0,-0.0
1449618221650916439,-0.0,0.0,0.0,0.0,0.0,-0.0
1449618221690566297,-0.0,0.0,0.0,0.0,0.0,-0.0
1449618221731207346,-0.0,0.0,0.0,0.0,0.0,-0.0
1449618221769866323,-0.0,0.0,0.0,0.0,0.0,-0.0
1449618221810234201,-0.0,0.0,0.0,0.0,0.0,-0.0
1449618221850354512,-0.0,0.0,0.0,0.0,0.0,-0.0
1449618221889930184,-0.0,0.0,0.0,0.0,0.0,-0.0
1449618221930943383,-0.0,0.0,0.0,0.0,0.0,-0.0
1449618221971468434,-0.0,0.0,0.0,0.0,0.0,-0.0
1449618222014614623,-0.0,0.0,0.0,0.0,0.0,-0.0
1449618222050544226,-0.0,0.0,0.0,0.0,0.0,-0.0
1449618222091773529,-0.0,0.0,0.0,0.0,0.0,-0.0
1449618222130893844,-0.0,0.0,0.0,0.0,0.0,-0.0
1449618222170884795,-0.0,0.0,0.0,0.0,0.0,-0.0
1449618222211040240,-0.0,0.0,0.0,0.0,0.0,-0.0
1449618222253644739,-0.0,0.0,0.0,0.0,0.0,-0.0
1449618222290336857,-0.0,0.0,0.0,0.0,0.0,-0.0
1449618222330756700,-0.0,0.0,0.0,0.0,0.0,-0.0
1449618222373642535,-0.0,0.0,0.0,0.0,0.0,-0.0
1449618222409698637,-0.0,0.0,0.0,0.0,0.0,-0.0
1449618222450085231,-0.0,0.0,0.0,0.0,0.0,-0.0
1449618222490537951,-0.0,0.0,0.0,0.0,0.0,-0.0
1449618222531537373,-0.0,0.0,0.0,0.0,0.0,-0.0
1449618222570439407,-0.0,0.0,0.0,0.0,0.0,-0.0
1449618222609927450,-0.0,0.0,0.0,0.0,0.0,-0.0
1449618222650681806,-0.0,0.0,0.0,0.0,0.0,-0.0
1449618222690556905,-0.0,0.0,0.0,0.0,0.0,-0.0
1449618222730389287,-0.0,0.0,0.0,0.0,0.0,-0.0
1449618222770698154,-0.0,0.0,0.0,0.0,0.0,-0.0
1449618222812120850,-0.0,0.0,0.0,0.0,0.0,-0.0
1449618222851106680,-0.0,0.0,0.0,0.0,0.0,-0.0
1449618222891153806,-0.0,0.0,0.0,0.0,0.0,-0.0
1449618222930770372,-0.0,0.0,0.0,0.0,0.0,-0.0
1449618222972613054,-0.0,0.0,0.0,0.0,0.0,-0.0
1449618223010304908,-0.0,0.0,0.0,0.0,0.0,-0.0
1449618223070053587,0.0119348090781,0.0,0.0,0.0,0.0,0.00270031125922
1449618223101991718,0.0119348090781,0.0,0.0,0.0,0.0,0.00270031125922
1449618223205836576,0.0172220893719,0.0,0.0,0.0,0.0,0.00186775232616
1449618223214453915,0.0172220893719,0.0,0.0,0.0,0.0,0.00261485325663
1449618223228921193,0.192843297575,0.0,0.0,0.0,0.0,0.00261485325663
1449618223317471708,0.192843297575,0.0,0.0,0.0,0.0,0.00261485325663
1449618223365643385,0.193325967649,0.0,0.0,0.0,0.0,0.00305384334765
1449618223394240074,0.171439883948,0.0,0.0,0.0,0.0,0.00305384334765
1449618223425513958,0.187854449292,0.0,0.0,0.0,0.0,0.00305384334765
1449618223517239278,0.187854449292,0.0,0.0,0.0,0.0,0.00305384334765
1449618223539400996,0.187777269797,0.0,0.0,0.0,0.0,0.0029859881652
1449618223570916617,0.193251360804,0.0,0.0,0.0,0.0,0.0029859881652
1449618223614933342,0.176829077505,0.0,0.0,0.0,0.0,0.0029859881652
1449618223680919674,0.176829077505,0.0,0.0,0.0,0.0,0.0029859881652
1449618223706255158,0.176916304494,0.0,0.0,0.0,0.0,0.00305788391515
1449618223730695557,0.193330410257,0.0,0.0,0.0,0.0,0.00305788391515
1449618223780749533,0.193330410257,0.0,0.0,0.0,0.0,0.00305788391515
1449618223850081423,0.193330410257,0.0,0.0,0.0,0.0,0.00305788391515
1449618223859299664,0.193330410257,0.0,0.0,0.0,0.0,0.00305788391515
1449618223886097649,0.176916304494,0.0,0.0,0.0,0.0,0.00305788391515
1449618223927938509,0.176916304494,0.0,0.0,0.0,0.0,0.00305788391515
1449618223963290022,0.176814669333,0.0,0.0,0.0,0.0,0.00297411241029
1449618224028220895,0.176814669333,0.0,0.0,0.0,0.0,0.00297411241029
1449618224045990978,0.193238303398,0.0,0.0,0.0,0.0,0.00297411241029
1449618224085319733,0.193265490229,0.0,0.0,0.0,0.0,0.00299883892662
1449618224310080174,0.193297998533,0.0,0.0,0.0,0.0,0.00302840534009
1449618224318458915,0.193353618057,0.0,0.0,0.0,0.0,0.00307899148841
1449618224378919255,0.193353618057,0.0,0.0,0.0,0.0,0.00307899148841
1449618224447903937,0.193381683752,0.0,0.0,0.0,0.0,0.00310451733439
1449618224513898957,0.19313786182,0.0,0.0,0.0,0.0,0.00288276044946
1449618224558172869,0.17676205606,0.0,0.0,0.0,0.0,0.00209339041459
1449618224597834286,0.17676205606,0.0,0.0,0.0,0.0,0.00209339041459
1449618224637922145,0.193421850725,0.0,0.0,0.0,0.0,0.00224360666777
1449618224675813834,0.193421850725,0.0,0.0,0.0,0.0,0.00224360666777
1449618224711238616,0.193421850725,0.0,0.0,0.0,0.0,0.00314104933488
1449618224822205068,0.19347468879,0.0,0.0,0.0,0.0,0.00318910573658
1449618224848592375,0.1935621792,0.0,0.0,0.0,0.0,0.00326867856477
1449618224944742777,0.177172049549,0.0,0.0,0.0,0.0,0.00233477040341
1449618224979506661,0.346530875789,0.0,0.0,0.0,0.0,0.00844133631263
1449618225069854357,0.341063680483,0.0,0.0,0.0,0.0,0.0333136841659
1449618225122765953,0.341051509601,0.0,0.0,0.0,0.0,0.033233612572
1449618225169700021,0.297285575737,0.0,0.0,0.0,0.0,0.338803472843
1449618225207782818,0.297295077058,0.0,0.0,0.0,0.0,0.338770229584
1449618225230701585,0.302912686958,0.0,0.0,0.0,0.0,0.338198301048
1449618225340619650,0.302912686958,0.0,0.0,0.0,0.0,0.339201744615
1449618225376188894,0.302952115939,0.0,0.0,0.0,0.0,0.338045018514
1449618225426212912,0.297524757241,0.0,0.0,0.0,0.0,0.332829598441
1449618225511787543,0.297578724608,0.0,0.0,0.0,0.0,0.332687579043
1449618225565514149,0.297614568531,0.0,0.0,0.0,0.0,0.332593252923
1449618225590885219,0.297633814283,0.0,0.0,0.0,0.0,0.337585054392
1449618225648788265,0.303070432855,0.0,0.0,0.0,0.0,0.331407078742
1449618225690355257,0.303126892278,0.0,0.0,0.0,0.0,0.331194718055
1449618225779924156,0.330283774081,0.0,0.0,0.0,0.0,0.127561459671
1449618225815237653,0.330310316501,0.0,0.0,0.0,0.0,0.127585668513
1449618225830019970,0.314062239683,0.0,0.0,0.0,0.0,0.0105798379491
1449618225933622006,0.314103534626,0.0,0.0,0.0,0.0,0.0107287312079
1449618225950058179,0.314186569772,0.0,0.0,0.0,0.0,0.0110281231568
1449618226040193965,0.346598081396,0.0,0.0,0.0,0.0,-0.00124896602016
1449618226061083135,0.30894476357,0.0,0.0,0.0,0.0,-0.000698340202625
1449618226108479234,0.346618095446,0.0,0.0,0.0,0.0,-0.00379403228508
1449618226153199452,0.346623256731,0.0,0.0,0.0,0.0,-0.00372982490655
1449618226238964508,0.346630337263,0.0,0.0,0.0,0.0,-0.0036417417297
1449618226275312541,0.346629343837,0.0,0.0,0.0,0.0,-0.00418783780925
1449618226348225365,0.346632951209,0.0,0.0,0.0,0.0,-0.00415184871731
1449618226473149021,0.346640338793,0.0,0.0,0.0,0.0,-0.00566532175317
1449618226502090404,0.346667084361,0.0,0.0,0.0,0.0,-0.00558497169326
1449618226537671501,0.346675534641,0.0,0.0,0.0,0.0,-0.0121010590532
1449618226576862988,0.346679858691,0.0,0.0,0.0,0.0,-0.0120912316659
1449618226696704153,0.330763812892,0.0,0.0,0.0,0.0,-0.120660165351
1449618226746442347,0.330891791981,0.0,0.0,0.0,0.0,-0.119933011366
1449618226774483794,0.29933071081,0.0,0.0,0.0,0.0,-0.326819367321
1449618226798857651,0.304667874569,0.0,0.0,0.0,0.0,-0.322925526891
1449618226834651752,0.304127315377,0.0,0.0,0.0,0.0,-0.325411352177
1449618226930526904,0.304227172157,0.0,0.0,0.0,0.0,-0.324952148983
1449618226963309191,0.299178266737,0.0,0.0,0.0,0.0,-0.329881908654
1449618226988688888,0.299252608824,0.0,0.0,0.0,0.0,-0.327210344397
1449618227043784814,0.304527347942,0.0,0.0,0.0,0.0,-0.321216322672
1449618227111393899,0.305208490708,0.0,0.0,0.0,0.0,-0.317513672327
1449618227157300357,0.305348501806,0.0,0.0,0.0,0.0,-0.319795582154
1449618227184756453,0.305405917356,0.0,0.0,0.0,0.0,-0.316440473166
1449618227315229362,0.305881070297,0.0,0.0,0.0,0.0,-0.319680668075
1449618227354012517,0.306284264973,0.0,0.0,0.0,0.0,-0.317438018102
1449618227397358259,0.306462005605,0.0,0.0,0.0,0.0,-0.310699642154
1449618227499970396,0.301483091247,0.0,0.0,0.0,0.0,-0.328153486929
1449618227554491022,0.301948336239,0.0,0.0,0.0,0.0,-0.326876289149
1449618227644159812,0.262308728251,0.0,0.0,0.0,0.0,-0.266192488901
1449618227750266984,0.332294886235,0.0,0.0,0.0,0.0,-0.124414364948
1449618227824896502,0.342217667633,0.0,0.0,0.0,0.0,-0.0409057052277
1449618227866593433,0.347150947012,0.0,0.0,0.0,0.0,-0.0304392499824
1449618227902244265,0.347178357972,0.0,0.0,0.0,0.0,-0.0250922978148
1449618227927665409,0.342390443799,0.0,0.0,0.0,0.0,-0.0252254340945
1449618227985654308,0.342819563792,0.0,0.0,0.0,0.0,-0.0269193288902
1449618228061827214,0.342874844626,0.0,0.0,0.0,0.0,-0.0348597423085
1449618228164967485,0.347487198841,0.0,0.0,0.0,0.0,-0.0356278251464
1449618228231768747,0.34753877406,0.0,0.0,0.0,0.0,-0.0364236628944
1449618228287971283,0.343184329907,0.0,0.0,0.0,0.0,-0.0283591952051
1449618228371395704,0.343231203753,0.0,0.0,0.0,0.0,-0.0285442235571
1449618228429181354,0.347696072033,0.0,0.0,0.0,0.0,-0.0291795142954
1449618228481097658,0.347405402563,0.0,0.0,0.0,0.0,-0.0321058898849
1449618228589993082,0.347426213885,0.0,0.0,0.0,0.0,-0.0322465405681
1449618228620198766,0.343010603941,0.0,0.0,0.0,0.0,-0.0276734347795
1449618228657642623,0.347577030446,0.0,0.0,0.0,0.0,-0.0282397122431
1449618228751179945,0.347608232609,0.0,0.0,0.0,0.0,-0.028486045122
1449618228792814831,0.347672307409,0.0,0.0,0.0,0.0,-0.0194996320275
1449618228869652748,0.343410378741,0.0,0.0,0.0,0.0,-0.0195114317731
1449618228913984974,0.343528077888,0.0,0.0,0.0,0.0,-0.0297160952014
1449618229023607035,0.343614141268,0.0,0.0,0.0,0.0,-0.0348205126667
1449618229059776644,0.343827192642,0.0,0.0,0.0,0.0,-0.0355404530322
1449618229153519874,0.347931788702,0.0,0.0,0.0,0.0,-0.0138689032368
1449618229181063279,0.324171066459,0.0,0.0,0.0,0.0,-0.00748011152994
1449618229224576025,0.348062296814,0.0,0.0,0.0,0.0,-0.007208398003
1449618229304589513,0.348090949973,0.0,0.0,0.0,0.0,-0.00700275331237
1449618229351507172,0.348178226911,0.0,0.0,0.0,0.0,0.00692845454125
1449618229399086395,0.31417669879,0.0,0.0,0.0,0.0,0.00750877576248
1449618229480101339,0.348267428091,0.0,0.0,0.0,0.0,0.00824086433267
1449618229525507957,0.348337955996,0.0,0.0,0.0,0.0,0.00927853572987
1449618229598276804,0.319499168971,0.0,0.0,0.0,0.0,0.0182338297935
1449618229645614500,0.320145954123,0.0,0.0,0.0,0.0,0.00369463083121
1449618229721812622,0.348502032443,0.0,0.0,0.0,0.0,0.0353874857957
1449618229759843384,0.317748116249,0.0,0.0,0.0,0.0,0.0485181083171
1449618229874360089,0.318270339191,0.0,0.0,0.0,0.0,0.0326962977767
1449618229906683391,0.345484942264,0.0,0.0,0.0,0.0,0.0411422984627
1449618230003783693,0.30683591137,0.0,0.0,0.0,0.0,0.125136286279
1449618230047311082,0.308014843066,0.0,0.0,0.0,0.0,0.124617532072
1449618230112136159,0.32089723282,0.0,0.0,0.0,0.0,0.237524336725
1449618230180704075,0.321737372007,0.0,0.0,0.0,0.0,0.230512800012
1449618230194309871,0.32236247097,0.0,0.0,0.0,0.0,0.227925667743
1449618230287172722,0.325326223873,0.0,0.0,0.0,0.0,0.231293568769
1449618230317169365,0.326073318392,0.0,0.0,0.0,0.0,0.227763636273
1449618230353189208,0.323501530423,0.0,0.0,0.0,0.0,0.243840520721
1449618230431026347,0.323912072054,0.0,0.0,0.0,0.0,0.242450768438
1449618230452508223,0.327362521686,0.0,0.0,0.0,0.0,0.243148144082
1449618230510391964,0.327725789836,0.0,0.0,0.0,0.0,0.241735826968
1449618230615998986,0.298920638084,0.0,0.0,0.0,0.0,0.237593988368
1449618230650740130,0.298920638084,0.0,0.0,0.0,0.0,0.237593988368
1449618230681056391,0.326857144356,0.0,0.0,0.0,0.0,0.266165415237
1449618230760107404,0.324063493729,0.0,0.0,0.0,0.0,0.266165415237
1449618230849136217,0.352,0.0,0.0,0.0,0.0,0.189473684211
1449618230875915281,0.352,0.0,0.0,0.0,0.0,0.189473684211
1449618230969632319,0.352,0.0,0.0,0.0,0.0,0.189473684211
1449618231081607325,0.352,0.0,0.0,0.0,0.0,0.189473684211
1449618231212021697,0.352,0.0,0.0,0.0,0.0,0.189473684211
1449618231260260277,0.352,0.0,0.0,0.0,0.0,0.231578947368
1449618231349074192,0.352,0.0,0.0,0.0,0.0,0.231578947368
1449618231394055939,0.352,0.0,0.0,0.0,0.0,0.231578947368
1449618231484064601,0.352,0.0,0.0,0.0,0.0,0.189473684211
1449618231552701711,0.352,0.0,0.0,0.0,0.0,0.189473684211
1449618231663761051,0.352,0.0,0.0,0.0,0.0,0.189473684211
1449618231765727192,0.352,0.0,0.0,0.0,0.0,0.147368421053
1449618231869310519,0.352,0.0,0.0,0.0,0.0,0.147368421053
1449618231907375373,0.352,0.0,0.0,0.0,0.0,0.147368421053
1449618231991088150,0.352,0.0,0.0,0.0,0.0,0.147368421053
1449618232023864739,0.352,0.0,0.0,0.0,0.0,0.147368421053
1449618232110745161,0.352,0.0,0.0,0.0,0.0,0.147368421053
1449618232189005672,0.352,0.0,0.0,0.0,0.0,0.147368421053
1449618232225215289,0.352,0.0,0.0,0.0,0.0,0.105263157895
1449618232280337539,0.352,0.0,0.0,0.0,0.0,0.105263157895
1449618232303283379,0.352,0.0,0.0,0.0,0.0,0.105263157895
1449618232410568380,0.352,0.0,0.0,0.0,0.0,0.105263157895
1449618232476153783,0.352,0.0,0.0,0.0,0.0,0.147368421053
1449618232514388958,0.352,0.0,0.0,0.0,0.0,0.105263157895
1449618232640014905,0.352,0.0,0.0,0.0,0.0,0.105263157895
1449618232696666275,0.352,0.0,0.0,0.0,0.0,0.105263157895
1449618232725764907,0.352,0.0,0.0,0.0,0.0,0.105263157895
1449618232810827143,0.352,0.0,0.0,0.0,0.0,0.105263157895
1449618232853442426,0.352,0.0,0.0,0.0,0.0,0.105263157895
1449618232949011841,0.352,0.0,0.0,0.0,0.0,0.105263157895
1449618232982550744,0.352,0.0,0.0,0.0,0.0,0.0631578947368
1449618233119387495,0.352,0.0,0.0,0.0,0.0,0.105263157895
1449618233186759843,0.352,0.0,0.0,0.0,0.0,0.105263157895
1449618233260846760,0.3056,0.0,0.0,0.0,0.0,0.105263157895
1449618233320534203,0.352,0.0,0.0,0.0,0.0,0.0210526315789
1449618233379828777,0.352,0.0,0.0,0.0,0.0,0.0210526315789
1449618233404009138,0.351118020201,0.0,0.0,0.0,0.0,0.0177294015884
1449618233448019531,0.351118020201,0.0,0.0,0.0,0.0,0.0177294015884
1449618233530298344,0.351134939745,0.0,0.0,0.0,0.0,0.0
1449618233601025926,0.351155399055,0.0,0.0,0.0,0.0,0.0
1449618233641777234,0.351161917267,0.0,0.0,0.0,0.0,0.196842621502
1449618233717545022,0.351172454641,0.0,0.0,0.0,0.0,0.197279367949
1449618233784946572,0.351186480495,0.0,0.0,0.0,0.0,0.162810483586
1449618233882285219,0.351201542236,0.0,0.0,0.0,0.0,0.19939251874
1449618233898276640,0.351215568256,0.0,0.0,0.0,0.0,0.128461114589
1449618233971557043,0.348882279665,0.0,0.0,0.0,0.0,0.179870644814
1449618234022084883,0.348932902754,0.0,0.0,0.0,0.0,0.180026571192
1449618234043992834,0.3451395701,0.0,0.0,0.0,0.0,0.283121383207
1449618234071752342,0.3451395701,0.0,0.0,0.0,0.0,0.283121383207
1449618234156389808,0.338383261334,0.0,0.0,0.0,0.0,0.275313003331
1449618234196560251,0.338601681554,0.0,0.0,0.0,0.0,0.2752868812
1449618234225748993,0.345334769782,0.0,0.0,0.0,0.0,0.246328591139
1449618234247534669,0.345377774497,0.0,0.0,0.0,0.0,0.246233425195
1449618234277135163,0.34542822441,0.0,0.0,0.0,0.0,0.24612178363
1449618234343725683,0.344698025957,0.0,0.0,0.0,0.0,0.282724356021
1449618234382221386,0.344768574926,0.0,0.0,0.0,0.0,0.282636981971
1449618234473671453,0.339031490418,0.0,0.0,0.0,0.0,0.201883758531
1449618234494439058,0.339141462956,0.0,0.0,0.0,0.0,0.201778490267
1449618234538798336,0.345592200116,0.0,0.0,0.0,0.0,0.209018989599
1449618234607206505,0.345605507959,0.0,0.0,0.0,0.0,0.208978397491
1449618234623827145,0.30510765784,0.0,0.0,0.0,0.0,0.208908441176
1449618234659461752,0.30510765784,0.0,0.0,0.0,0.0,0.208908441176
1449618234726494789,0.305107716572,0.0,0.0,0.0,0.0,0.208905940201
1449618234788696422,0.34155712637,0.0,0.0,0.0,0.0,0.208921459906
1449618234847296064,0.341535875471,0.0,0.0,0.0,0.0,0.2089840749
1449618234922330833,0.33925014841,0.0,0.0,0.0,0.0,0.245013348059
1449618234952397897,0.300346999893,0.0,0.0,0.0,0.0,0.17000970025
1449618234987541569,0.333131381064,0.0,0.0,0.0,0.0,0.169892366431
1449618234998887337,0.333861477852,0.0,0.0,0.0,0.0,0.166517123747
1449618235030233338,0.333861477852,0.0,0.0,0.0,0.0,0.166517123747
1449618235076493385,0.294643686126,0.0,0.0,0.0,0.0,0.166387491433
1449618235137632973,0.294689914569,0.0,0.0,0.0,0.0,0.166250219876
1449618235160041806,0.346412698746,0.0,0.0,0.0,0.0,0.00634920671582
1449618235201734874,0.346412698746,0.0,0.0,0.0,0.0,0.0
1449618235224500397,0.346412698746,0.0,0.0,0.0,0.0,0.0
1449618235255032551,0.346412698746,0.0,0.0,0.0,0.0,0.0
1449618235300526238,0.346412698746,0.0,0.0,0.0,0.0,0.0
1449618235341088037,0.346412698746,0.0,0.0,0.0,0.0,-0.00634920671582
1449618235376454796,0.346412698746,0.0,0.0,0.0,0.0,-0.00634920671582
1449618235422201390,0.346412698746,0.0,0.0,0.0,0.0,-0.00634920671582
1449618235507894145,0.346412698746,0.0,0.0,0.0,0.0,-0.00634920671582
1449618235518405086,0.346412698746,0.0,0.0,0.0,0.0,-0.00634920671582
1449618235548086608,0.346412698746,0.0,0.0,0.0,0.0,-0.0126984134316
1449618235575192939,0.346412698746,0.0,0.0,0.0,0.0,-0.0126984134316
1449618235619594421,0.346412698746,0.0,0.0,0.0,0.0,-0.0317460328341
1449618235678177251,0.346412698746,0.0,0.0,0.0,0.0,-0.0317460328341
1449618235700338095,0.346412698746,0.0,0.0,0.0,0.0,-0.0317460328341
1449618235740451703,0.294767611421,0.0,0.0,0.0,0.0,-0.00125313503178
1449618235784686250,0.335238096237,0.0,0.0,0.0,0.0,-0.0507936537266
1449618235828588107,0.300689732834,0.0,0.0,0.0,0.0,-0.00125313503178
1449618235862704233,0.340825397491,0.0,0.0,0.0,0.0,-0.0507936537266
1449618235901937172,0.340825397491,0.0,0.0,0.0,0.0,-0.0507936537266
1449618235951900804,0.340825397491,0.0,0.0,0.0,0.0,-0.0507936537266
1449618235987001319,0.340825397491,0.0,0.0,0.0,0.0,-0.0507936537266
1449618236032542852,0.340825397491,0.0,0.0,0.0,0.0,-0.0507936537266
1449618236058377795,0.340825397491,0.0,0.0,0.0,0.0,-0.0507936537266
1449618236096296136,0.340825397491,0.0,0.0,0.0,0.0,-0.0507936537266
1449618236142406948,0.340825397491,0.0,0.0,0.0,0.0,-0.0571428596973
1449618236176910533,0.340825397491,0.0,0.0,0.0,0.0,-0.0571428596973
1449618236227604567,0.340825397491,0.0,0.0,0.0,0.0,-0.0507936537266
1449618236262219252,0.340825397491,0.0,0.0,0.0,0.0,-0.0507936537266
1449618236301913465,0.340825397491,0.0,0.0,0.0,0.0,-0.0507936537266
1449618236352558811,0.340825397491,0.0,0.0,0.0,0.0,-0.0571428596973
1449618236377970354,0.340825397491,0.0,0.0,0.0,0.0,-0.0571428596973
1449618236423838745,0.340825397491,0.0,0.0,0.0,0.0,-0.0571428596973
1449618236457682781,0.340825397491,0.0,0.0,0.0,0.0,-0.0571428596973
1449618236505696868,0.340825397491,0.0,0.0,0.0,0.0,-0.0571428596973
1449618236537057286,0.340825397491,0.0,0.0,0.0,0.0,-0.0571428596973
1449618236583267602,0.340825397491,0.0,0.0,0.0,0.0,-0.0571428596973
1449618236615805392,0.340825397491,0.0,0.0,0.0,0.0,-0.0571428596973
1449618236657786805,0.340825397491,0.0,0.0,0.0,0.0,-0.0571428596973
1449618236700621288,0.340825397491,0.0,0.0,0.0,0.0,-0.0571428596973
1449618236748889422,0.340825397491,0.0,0.0,0.0,0.0,-0.0571428596973
1449618236773503529,0.340825397491,0.0,0.0,0.0,0.0,-0.0571428596973
1449618236821571381,0.346412698746,0.0,0.0,0.0,0.0,-0.0317460328341
1449618236857738343,0.346412698746,0.0,0.0,0.0,0.0,-0.0317460328341
1449618236897912102,0.346412698746,0.0,0.0,0.0,0.0,-0.0317460328341
1449618236948756291,0.340825397491,0.0,0.0,0.0,0.0,-0.0380952388048
1449618236981797749,0.340825397491,0.0,0.0,0.0,0.0,-0.0380952388048
1449618237050209935,0.340825397491,0.0,0.0,0.0,0.0,-0.0317460328341
1449618237054923025,0.340825397491,0.0,0.0,0.0,0.0,-0.0317460328341
1449618237092927268,0.340825397491,0.0,0.0,0.0,0.0,-0.0317460328341
1449618237145224122,0.340825397491,0.0,0.0,0.0,0.0,-0.0317460328341
1449618237176987496,0.340825397491,0.0,0.0,0.0,0.0,-0.0317460328341
1449618237236825149,0.340825397491,0.0,0.0,0.0,0.0,-0.0317460328341
1449618237265570048,0.340825397491,0.0,0.0,0.0,0.0,-0.0317460328341
1449618237307798099,0.340825397491,0.0,0.0,0.0,0.0,-0.0317460328341
1449618237345803534,0.340825397491,0.0,0.0,0.0,0.0,-0.0317460328341
1449618237381199556,0.340825397491,0.0,0.0,0.0,0.0,-0.0317460328341
1449618237445328916,0.346412698746,0.0,0.0,0.0,0.0,-0.0190476194024
1449618237468318482,0.346412698746,0.0,0.0,0.0,0.0,-0.0190476194024
1449618237511068129,0.340825397491,0.0,0.0,0.0,0.0,-0.0253968268633
1449618237537890471,0.340825397491,0.0,0.0,0.0,0.0,-0.0253968268633
1449618237593538874,0.340825397491,0.0,0.0,0.0,0.0,-0.0253968268633
1449618237624443376,0.346412698746,0.0,0.0,0.0,0.0,-0.0253968268633
1449618237669211604,0.346412698746,0.0,0.0,0.0,0.0,-0.0253968268633
1449618237696397728,0.346412698746,0.0,0.0,0.0,0.0,-0.0253968268633
1449618237740763640,0.346412698746,0.0,0.0,0.0,0.0,-0.0190476194024
1449618237785439417,0.346412698746,0.0,0.0,0.0,0.0,-0.0190476194024
1449618237814635600,0.346412698746,0.0,0.0,0.0,0.0,-0.0253968268633
1449618237865335351,0.346412698746,0.0,0.0,0.0,0.0,-0.0253968268633
1449618237898590791,0.346412698746,0.0,0.0,0.0,0.0,-0.0253968268633
1449618237953517947,0.346412698746,0.0,0.0,0.0,0.0,-0.0253968268633
1449618237976633176,0.346412698746,0.0,0.0,0.0,0.0,-0.0253968268633
1449618238037338005,0.340825397491,0.0,0.0,0.0,0.0,-0.0190476194024
1449618238054345632,0.340825397491,0.0,0.0,0.0,0.0,-0.0190476194024
1449618238131990537,0.259809524059,0.0,0.0,0.0,0.0,0.0857142854482
1449618238144881893,0.259809524059,0.0,0.0,0.0,0.0,0.0857142854482
1449618238229146242,0.259809524059,0.0,0.0,0.0,0.0,0.0857142854482
1449618238261162410,0.259809524059,0.0,0.0,0.0,0.0,0.0857142854482
1449618238298082737,0.259809524059,0.0,0.0,0.0,0.0,0.0857142854482
1449618238337188276,0.255619048119,0.0,0.0,0.0,0.0,0.0857142854482
1449618238356852527,0.255619048119,0.0,0.0,0.0,0.0,0.0857142854482
1449618238440058195,0.255619048119,0.0,0.0,0.0,0.0,0.0857142854482
1449618238473430966,0.259809524059,0.0,0.0,0.0,0.0,0.0952380949631
1449618238496647332,0.259809524059,0.0,0.0,0.0,0.0,0.0952380949631
1449618238565837314,0.259809524059,0.0,0.0,0.0,0.0,0.104761905037
1449618238593433319,0.259809524059,0.0,0.0,0.0,0.0,0.104761905037
1449618238602271906,0.301714288712,0.0,0.0,0.0,0.0,0.342857146263
1449618238615411220,0.301714288712,0.0,0.0,0.0,0.0,0.342857146263
1449618238654442027,0.301714288712,0.0,0.0,0.0,0.0,0.342857146263
1449618238708301216,0.301714288712,0.0,0.0,0.0,0.0,0.342857146263
1449618238749490388,0.301714288712,0.0,0.0,0.0,0.0,0.336507940292
1449618238788496714,0.301714288712,0.0,0.0,0.0,0.0,0.336507940292
1449618238825113574,0.296126987457,0.0,0.0,0.0,0.0,0.336507940292
1449618238853688805,0.296126987457,0.0,0.0,0.0,0.0,0.336507940292
1449618238914311766,0.296126987457,0.0,0.0,0.0,0.0,0.336507940292
1449618238936537255,0.324063493729,0.0,0.0,0.0,0.0,0.184126985073
1449618238998799991,0.324063493729,0.0,0.0,0.0,0.0,0.184126985073
1449618239013769810,0.335238096237,0.0,0.0,0.0,0.0,0.0761904776096
1449618239070061781,0.335238096237,0.0,0.0,0.0,0.0,0.0761904776096
1449618239094161312,0.335238096237,0.0,0.0,0.0,0.0,0.0761904776096
1449618239141211545,0.255619048119,0.0,0.0,0.0,0.0,0.123809524626
1449618239198857160,0.255619048119,0.0,0.0,0.0,0.0,0.123809524626
1449618239221514350,0.255619048119,0.0,0.0,0.0,0.0,0.123809524626
1449618239302350249,0.255619048119,0.0,0.0,0.0,0.0,0.123809524626
1449618239312779183,0.255619048119,0.0,0.0,0.0,0.0,0.123809524626
1449618239345605039,0.255619048119,0.0,0.0,0.0,0.0,0.123809524626
1449618239415539857,0.255619048119,0.0,0.0,0.0,0.0,0.123809524626
1449618239458844357,0.255619048119,0.0,0.0,0.0,0.0,0.123809524626
1449618239469314651,0.255619048119,0.0,0.0,0.0,0.0,0.123809524626
1449618239519888774,0.255619048119,0.0,0.0,0.0,0.0,0.123809524626
1449618239539346272,0.255619048119,0.0,0.0,0.0,0.0,0.123809524626
1449618239595079351,0.255619048119,0.0,0.0,0.0,0.0,0.123809524626
1449618239622893594,0.255619048119,0.0,0.0,0.0,0.0,0.123809524626
1449618239670925463,0.255619048119,0.0,0.0,0.0,0.0,0.123809524626
1449618239702970595,0.255619048119,0.0,0.0,0.0,0.0,0.123809524626
1449618239745649876,0.259809524059,0.0,0.0,0.0,0.0,0.123809524626
1449618239787541987,0.259809524059,0.0,0.0,0.0,0.0,0.123809524626
1449618239865501168,0.259809524059,0.0,0.0,0.0,0.0,0.123809524626
1449618239916103774,0.259809524059,0.0,0.0,0.0,0.0,0.123809524626
1449618239948608887,0.259809524059,0.0,0.0,0.0,0.0,0.123809524626
1449618239965520663,0.259809524059,0.0,0.0,0.0,0.0,0.123809524626
1449618239993226643,0.259809524059,0.0,0.0,0.0,0.0,0.123809524626
1449618240027364828,0.259809524059,0.0,0.0,0.0,0.0,0.123809524626
1449618240065414403,0.259809524059,0.0,0.0,0.0,0.0,0.123809524626
1449618240100863423,0.259809524059,0.0,0.0,0.0,0.0,0.123809524626
1449618240139696872,0.346412698746,0.0,0.0,0.0,0.0,0.0317460328341
1449618240180699859,0.259809524059,0.0,0.0,0.0,0.0,0.123809524626
1449618240228965319,0.259809524059,0.0,0.0,0.0,0.0,0.123809524626
1449618240263140913,0.259809524059,0.0,0.0,0.0,0.0,0.123809524626
1449618240302289733,0.259809524059,0.0,0.0,0.0,0.0,0.123809524626
1449618240350232399,0.255619048119,0.0,0.0,0.0,0.0,0.123809524626
1449618240388057714,0.255619048119,0.0,0.0,0.0,0.0,0.123809524626
1449618240416292167,0.346412698746,0.0,0.0,0.0,0.0,0.0317460328341
1449618240479821517,0.259809524059,0.0,0.0,0.0,0.0,0.123809524626
1449618240497374010,0.346412698746,0.0,0.0,0.0,0.0,0.0317460328341
1449618240548712676,0.340825397491,0.0,0.0,0.0,0.0,0.0317460328341
1449618240585489339,0.340825397491,0.0,0.0,0.0,0.0,0.0317460328341
1449618240613614298,0.340825397491,0.0,0.0,0.0,0.0,0.0317460328341
1449618240666437587,0.340825397491,0.0,0.0,0.0,0.0,0.0317460328341
1449618240733211695,0.340825397491,0.0,0.0,0.0,0.0,0.0317460328341
1449618240749629072,0.340825397491,0.0,0.0,0.0,0.0,0.0253968268633
1449618240788136886,0.340825397491,0.0,0.0,0.0,0.0,0.0253968268633
1449618240818147625,0.346412698746,0.0,0.0,0.0,0.0,0.0317460328341
1449618240858511182,0.346412698746,0.0,0.0,0.0,0.0,0.0317460328341
1449618240896580563,0.346412698746,0.0,0.0,0.0,0.0,0.0317460328341
1449618240938057113,0.340825397491,0.0,0.0,0.0,0.0,0.0317460328341
1449618240982682310,0.340825397491,0.0,0.0,0.0,0.0,0.0317460328341
1449618241022608848,0.346412698746,0.0,0.0,0.0,0.0,0.0317460328341
1449618241073867471,0.346412698746,0.0,0.0,0.0,0.0,0.0317460328341
1449618241096048306,0.346412698746,0.0,0.0,0.0,0.0,0.0317460328341
1449618241160464312,0.335238096237,0.0,0.0,0.0,0.0,0.0761904776096
1449618241191480333,0.335238096237,0.0,0.0,0.0,0.0,0.0761904776096
1449618241216743212,0.329650794983,0.0,0.0,0.0,0.0,0.120634925365
1449618241255401389,0.329650794983,0.0,0.0,0.0,0.0,0.120634925365
1449618241325791322,0.329650794983,0.0,0.0,0.0,0.0,0.120634925365
1449618241341376932,0.318476192474,0.0,0.0,0.0,0.0,0.177777779102
1449618241380194012,0.318476192474,0.0,0.0,0.0,0.0,0.177777779102
1449618241438219212,0.318476192474,0.0,0.0,0.0,0.0,0.184126985073
1449618241456439850,0.318476192474,0.0,0.0,0.0,0.0,0.184126985073
1449618241497960398,0.324063493729,0.0,0.0,0.0,0.0,0.184126985073
1449618241545997454,0.324063493729,0.0,0.0,0.0,0.0,0.184126985073
1449618241598183987,0.324063493729,0.0,0.0,0.0,0.0,0.184126985073
1449618241615172165,0.324063493729,0.0,0.0,0.0,0.0,0.184126985073
1449618241661365213,0.324063493729,0.0,0.0,0.0,0.0,0.184126985073
1449618241703022831,0.324063493729,0.0,0.0,0.0,0.0,0.184126985073
1449618241736094577,0.318476192474,0.0,0.0,0.0,0.0,0.177777779102
1449618241796966553,0.318476192474,0.0,0.0,0.0,0.0,0.177777779102
1449618241815859312,0.324063493729,0.0,0.0,0.0,0.0,0.177777779102
1449618241858155083,0.324063493729,0.0,0.0,0.0,0.0,0.177777779102
1449618241894259322,0.324063493729,0.0,0.0,0.0,0.0,0.177777779102
1449618241940452873,0.324063493729,0.0,0.0,0.0,0.0,0.184126985073
1449618241977967760,0.324063493729,0.0,0.0,0.0,0.0,0.184126985073
1449618242013525054,0.27377778244,0.0,0.0,0.0,0.0,0.152380955219
1449618242054779028,0.27377778244,0.0,0.0,0.0,0.0,0.152380955219
1449618242126908820,0.27377778244,0.0,0.0,0.0,0.0,0.152380955219
1449618242144931540,0.318476192474,0.0,0.0,0.0,0.0,0.184126985073
1449618242176724579,0.318476192474,0.0,0.0,0.0,0.0,0.184126985073
1449618242220318318,0.318476192474,0.0,0.0,0.0,0.0,0.184126985073
1449618242273570474,0.318476192474,0.0,0.0,0.0,0.0,0.184126985073
1449618242298623753,0.318476192474,0.0,0.0,0.0,0.0,0.184126985073
1449618242333551961,0.324063493729,0.0,0.0,0.0,0.0,0.184126985073
1449618242375414220,0.324063493729,0.0,0.0,0.0,0.0,0.184126985073
1449618242414722737,0.324063493729,0.0,0.0,0.0,0.0,0.184126985073
1449618242470349453,0.324063493729,0.0,0.0,0.0,0.0,0.177777779102
1449618242508144571,0.324063493729,0.0,0.0,0.0,0.0,0.177777779102
1449618242550757325,0.27377778244,0.0,0.0,0.0,0.0,0.15873016119
1449618242577022776,0.27377778244,0.0,0.0,0.0,0.0,0.15873016119
1449618242645675618,0.324063493729,0.0,0.0,0.0,0.0,0.184126985073
1449618242660696789,0.324063493729,0.0,0.0,0.0,0.0,0.184126985073
1449618242706808552,0.329650794983,0.0,0.0,0.0,0.0,0.126984131336
1449618242745953743,0.329650794983,0.0,0.0,0.0,0.0,0.126984131336
1449618242776989766,0.329650794983,0.0,0.0,0.0,0.0,0.126984131336
1449618242818612584,0.329650794983,0.0,0.0,0.0,0.0,0.120634925365
1449618242862518921,0.329650794983,0.0,0.0,0.0,0.0,0.120634925365
1449618242928688674,0.329650794983,0.0,0.0,0.0,0.0,0.120634925365
1449618242946884524,0.329650794983,0.0,0.0,0.0,0.0,0.120634925365
1449618242981069841,0.329650794983,0.0,0.0,0.0,0.0,0.120634925365
1449618243025730118,0.340825397491,0.0,0.0,0.0,0.0,0.0380952388048
1449618243060326002,0.340825397491,0.0,0.0,0.0,0.0,0.0380952388048
1449618243123025238,0.340825397491,0.0,0.0,0.0,0.0,0.0380952388048
1449618243167988978,0.259809524059,0.0,0.0,0.0,0.0,0.104761905037
1449618243180892297,0.259809524059,0.0,0.0,0.0,0.0,0.104761905037
1449618243239613820,0.259809524059,0.0,0.0,0.0,0.0,0.1
1449618243256387004,0.259809524059,0.0,0.0,0.0,0.0,0.1
1449618243307169128,0.259809524059,0.0,0.0,0.0,0.0,0.1
1449618243370438696,0.259809524059,0.0,0.0,0.0,0.0,0.1
1449618243392994624,0.259809524059,0.0,0.0,0.0,0.0,0.1
1449618243431237460,0.346412698746,0.0,0.0,0.0,0.0,0.00634920671582
1449618243453722218,0.346412698746,0.0,0.0,0.0,0.0,0.00634920671582
1449618243510341781,0.346412698746,0.0,0.0,0.0,0.0,0.00634920671582
1449618243534548852,0.346412698746,0.0,0.0,0.0,0.0,0.00634920671582
1449618243592123612,0.346412698746,0.0,0.0,0.0,0.0,0.00634920671582
1449618243612260905,0.346412698746,0.0,0.0,0.0,0.0,0.00634920671582
1449618243657280538,0.346412698746,0.0,0.0,0.0,0.0,0.00634920671582
1449618243692296868,0.346412698746,0.0,0.0,0.0,0.0,0.00634920671582
1449618243739240772,0.346412698746,0.0,0.0,0.0,0.0,0.00634920671582
1449618243775197818,0.346412698746,0.0,0.0,0.0,0.0,0.00634920671582
1449618243817626524,0.340825397491,0.0,0.0,0.0,0.0,0.00634920671582
1449618243853426336,0.340825397491,0.0,0.0,0.0,0.0,0.00634920671582
1449618243896918698,0.340825397491,0.0,0.0,0.0,0.0,0.00634920671582
1449618243940152311,0.346412698746,0.0,0.0,0.0,0.0,0.00634920671582
1449618243985437773,0.346412698746,0.0,0.0,0.0,0.0,0.00634920671582
1449618244011278857,0.296126987457,0.0,0.0,0.0,0.0,0.336507940292
1449618244055832909,0.296126987457,0.0,0.0,0.0,0.0,0.336507940292
1449618244095527252,0.296126987457,0.0,0.0,0.0,0.0,0.336507940292
1449618244162689181,0.301714288712,0.0,0.0,0.0,0.0,0.342857146263
1449618244185226278,0.301714288712,0.0,0.0,0.0,0.0,0.342857146263
1449618244219833776,0.251428577423,0.0,0.0,0.0,0.0,0.285714292526
1449618244255062495,0.251428577423,0.0,0.0,0.0,0.0,0.285714292526
1449618244301789318,0.251428577423,0.0,0.0,0.0,0.0,0.285714292526
1449618244332052057,0.296126987457,0.0,0.0,0.0,0.0,0.336507940292
1449618244376325166,0.296126987457,0.0,0.0,0.0,0.0,0.336507940292
1449618244437222847,0.296126987457,0.0,0.0,0.0,0.0,0.336507940292
1449618244453632560,0.296126987457,0.0,0.0,0.0,0.0,0.342857146263
1449618244527960796,0.301714288712,0.0,0.0,0.0,0.0,0.336507940292
1449618244533130111,0.301714288712,0.0,0.0,0.0,0.0,0.336507940292
1449618244588135244,0.301714288712,0.0,0.0,0.0,0.0,0.336507940292
1449618244614702816,0.301714288712,0.0,0.0,0.0,0.0,0.336507940292
1449618244679508167,0.296126987457,0.0,0.0,0.0,0.0,0.342857146263
1449618244694466354,0.296126987457,0.0,0.0,0.0,0.0,0.342857146263
1449618244739407783,0.296126987457,0.0,0.0,0.0,0.0,0.336507940292
1449618244786654392,0.296126987457,0.0,0.0,0.0,0.0,0.336507940292
1449618244834584420,0.296126987457,0.0,0.0,0.0,0.0,0.336507940292
1449618244865772899,0.296126987457,0.0,0.0,0.0,0.0,0.336507940292
1449618244905191577,0.296126987457,0.0,0.0,0.0,0.0,0.336507940292
1449618244953489063,0.296126987457,0.0,0.0,0.0,0.0,0.336507940292
1449618244973308239,0.296126987457,0.0,0.0,0.0,0.0,0.336507940292
1449618245048109883,0.296126987457,0.0,0.0,0.0,0.0,0.342857146263
1449618245055753785,0.296126987457,0.0,0.0,0.0,0.0,0.342857146263
1449618245112681932,0.296126987457,0.0,0.0,0.0,0.0,0.336507940292
1449618245141160080,0.296126987457,0.0,0.0,0.0,0.0,0.336507940292
1449618245175910794,0.296126987457,0.0,0.0,0.0,0.0,0.336507940292
1449618245220159757,0.301714288712,0.0,0.0,0.0,0.0,0.342857146263
1449618245263038865,0.301714288712,0.0,0.0,0.0,0.0,0.342857146263
1449618245297778158,0.301714288712,0.0,0.0,0.0,0.0,0.342857146263
1449618245341683112,0.296126987457,0.0,0.0,0.0,0.0,0.336507940292
1449618245375499892,0.296126987457,0.0,0.0,0.0,0.0,0.336507940292
1449618245418719139,0.301714288712,0.0,0.0,0.0,0.0,0.342857146263
1449618245471069839,0.301714288712,0.0,0.0,0.0,0.0,0.342857146263
1449618245500611542,0.301714288712,0.0,0.0,0.0,0.0,0.342857146263
1449618245537316729,0.296126987457,0.0,0.0,0.0,0.0,0.336507940292
1449618245577231049,0.296126987457,0.0,0.0,0.0,0.0,0.336507940292
1449618245630236199,0.318476192474,0.0,0.0,0.0,0.0,0.177777779102
1449618245660104691,0.318476192474,0.0,0.0,0.0,0.0,0.177777779102
1449618245693580346,0.318476192474,0.0,0.0,0.0,0.0,0.177777779102
1449618245750585438,0.340825397491,0.0,0.0,0.0,0.0,0.0317460328341
1449618245787162871,0.340825397491,0.0,0.0,0.0,0.0,0.0317460328341
1449618245816256387,0.346412698746,0.0,0.0,0.0,0.0,0.00634920671582
1449618245854918072,0.346412698746,0.0,0.0,0.0,0.0,0.00634920671582
1449618245902629214,0.346412698746,0.0,0.0,0.0,0.0,0.00634920671582
1449618245935092184,0.346412698746,0.0,0.0,0.0,0.0,0.00634920671582
1449618245978991896,0.346412698746,0.0,0.0,0.0,0.0,0.00634920671582
1449618246019460451,0.346412698746,0.0,0.0,0.0,0.0,0.00634920671582
1449618246067399732,0.346412698746,0.0,0.0,0.0,0.0,0.00634920671582
1449618246098047088,0.346412698746,0.0,0.0,0.0,0.0,0.00634920671582
1449618246141832996,0.301714288712,0.0,0.0,0.0,0.0,0.00634920671582
1449618246176681373,0.301714288712,0.0,0.0,0.0,0.0,0.00634920671582
1449618246228503865,0.301714288712,0.0,0.0,0.0,0.0,0.00634920671582
1449618246267246951,0.346412698746,0.0,0.0,0.0,0.0,0.00634920671582
1449618246305380475,0.346412698746,0.0,0.0,0.0,0.0,0.00634920671582
1449618246339716201,0.31288889122,0.0,0.0,0.0,0.0,0.0
1449618246386005044,0.31288889122,0.0,0.0,0.0,0.0,0.0
1449618246416528949,0.184380962372,0.0,0.0,0.0,0.0,0.0
1449618246477031496,0.184380962372,0.0,0.0,0.0,0.0,0.0
1449618246493862801,0.184380962372,0.0,0.0,0.0,0.0,0.0
1449618246538435548,0.189968263626,0.0,0.0,0.0,0.0,0.0
1449618246581462078,0.189968263626,0.0,0.0,0.0,0.0,0.0
1449618246621679436,0.229079372406,0.0,0.0,0.0,0.0,0.0
1449618246654355267,0.229079372406,0.0,0.0,0.0,0.0,0.0
1449618246699144956,0.229079372406,0.0,0.0,0.0,0.0,0.0
1449618246741552792,0.346412698746,0.0,0.0,0.0,0.0,0.0
1449618246778115927,0.346412698746,0.0,0.0,0.0,0.0,0.0
1449618246845113604,0.340825397491,0.0,0.0,0.0,0.0,0.0
1449618246853394351,0.340825397491,0.0,0.0,0.0,0.0,0.0
1449618246891284332,0.189968263626,0.0,0.0,0.0,0.0,0.0
1449618246934956224,0.189968263626,0.0,0.0,0.0,0.0,0.0
1449618246970787400,0.189968263626,0.0,0.0,0.0,0.0,0.0
1449618247017640522,0.189968263626,0.0,0.0,0.0,0.0,0.0
1449618247057825118,0.184380962372,0.0,0.0,0.0,0.0,0.0
1449618247139619358,0.184380962372,0.0,0.0,0.0,0.0,0.0
1449618247139625881,0.217904769897,0.0,0.0,0.0,0.0,0.0
1449618247183556941,0.217904769897,0.0,0.0,0.0,0.0,0.0
1449618247241012146,0.346412698746,0.0,0.0,0.0,0.0,-0.00634920671582
1449618247251956988,0.346412698746,0.0,0.0,0.0,0.0,-0.00634920671582
1449618247311876545,0.301714288712,0.0,0.0,0.0,0.0,-0.00634920671582
1449618247331959634,0.301714288712,0.0,0.0,0.0,0.0,-0.00634920671582
1449618247379650757,0.301714288712,0.0,0.0,0.0,0.0,-0.00634920671582
1449618247416625490,0.301714288712,0.0,0.0,0.0,0.0,-0.00634920671582
1449618247481306342,0.346412698746,0.0,0.0,0.0,0.0,-0.0126984134316
1449618247495469691,0.346412698746,0.0,0.0,0.0,0.0,-0.0126984134316
1449618247535998137,0.324063493729,0.0,0.0,0.0,0.0,-0.120634925365
1449618247582014945,0.324063493729,0.0,0.0,0.0,0.0,-0.120634925365
1449618247624135276,0.301714288712,0.0,0.0,0.0,0.0,-0.342857146263
1449618247664772849,0.301714288712,0.0,0.0,0.0,0.0,-0.342857146263
1449618247703954386,0.301714288712,0.0,0.0,0.0,0.0,-0.342857146263
1449618247735170309,0.296126987457,0.0,0.0,0.0,0.0,-0.336507940292
1449618247787377195,0.296126987457,0.0,0.0,0.0,0.0,-0.336507940292
1449618247823978220,0.301714288712,0.0,0.0,0.0,0.0,-0.336507940292
1449618247853503692,0.301714288712,0.0,0.0,0.0,0.0,-0.336507940292
1449618247893649145,0.301714288712,0.0,0.0,0.0,0.0,-0.336507940292
1449618247938310765,0.296126987457,0.0,0.0,0.0,0.0,-0.336507940292
1449618247984040373,0.296126987457,0.0,0.0,0.0,0.0,-0.336507940292
1449618248015146007,0.296126987457,0.0,0.0,0.0,0.0,-0.342857146263
1449618248052033746,0.296126987457,0.0,0.0,0.0,0.0,-0.342857146263
1449618248093518063,0.296126987457,0.0,0.0,0.0,0.0,-0.342857146263
1449618248135926965,0.251428577423,0.0,0.0,0.0,0.0,-0.285714292526
1449618248174626712,0.251428577423,0.0,0.0,0.0,0.0,-0.285714292526
1449618248215945703,0.296126987457,0.0,0.0,0.0,0.0,-0.336507940292
1449618248263064150,0.296126987457,0.0,0.0,0.0,0.0,-0.336507940292
1449618248290988127,0.296126987457,0.0,0.0,0.0,0.0,-0.336507940292
1449618248339747193,0.335238096237,0.0,0.0,0.0,0.0,-0.0761904776096
1449618248384327522,0.335238096237,0.0,0.0,0.0,0.0,-0.0761904776096
1449618248421826839,0.346412698746,0.0,0.0,0.0,0.0,0.00634920671582
1449618248462380896,0.346412698746,0.0,0.0,0.0,0.0,0.00634920671582
1449618248493507608,0.346412698746,0.0,0.0,0.0,0.0,0.00634920671582
1449618248533273893,0.329650794983,0.0,0.0,0.0,0.0,0.120634925365
1449618248573900143,0.329650794983,0.0,0.0,0.0,0.0,0.120634925365
1449618248636617605,0.329650794983,0.0,0.0,0.0,0.0,0.120634925365
1449618248653155670,0.301714288712,0.0,0.0,0.0,0.0,0.342857146263
1449618248711096150,0.301714288712,0.0,0.0,0.0,0.0,0.336507940292
1449618248734534011,0.301714288712,0.0,0.0,0.0,0.0,0.336507940292
1449618248772882155,0.301714288712,0.0,0.0,0.0,0.0,0.336507940292
1449618248838467436,0.296126987457,0.0,0.0,0.0,0.0,0.342857146263
1449618248856217930,0.296126987457,0.0,0.0,0.0,0.0,0.342857146263
1449618248897044215,0.251428577423,0.0,0.0,0.0,0.0,0.279365086555
1449618248933036059,0.251428577423,0.0,0.0,0.0,0.0,0.279365086555
1449618248974462712,0.251428577423,0.0,0.0,0.0,0.0,0.279365086555
1449618249016149569,0.251428577423,0.0,0.0,0.0,0.0,0.279365086555
1449618249056994176,0.301714288712,0.0,0.0,0.0,0.0,0.342857146263
1449618249117714056,0.301714288712,0.0,0.0,0.0,0.0,0.342857146263
1449618249159185131,0.301714288712,0.0,0.0,0.0,0.0,0.336507940292
1449618249196576110,0.301714288712,0.0,0.0,0.0,0.0,0.336507940292
1449618249213766320,0.301714288712,0.0,0.0,0.0,0.0,0.336507940292
1449618249253619458,0.301714288712,0.0,0.0,0.0,0.0,0.342857146263
1449618249293931575,0.301714288712,0.0,0.0,0.0,0.0,0.342857146263
1449618249334749117,0.296126987457,0.0,0.0,0.0,0.0,0.336507940292
1449618249391884218,0.296126987457,0.0,0.0,0.0,0.0,0.336507940292
1449618249425473366,0.301714288712,0.0,0.0,0.0,0.0,0.342857146263
1449618249478375801,0.301714288712,0.0,0.0,0.0,0.0,0.342857146263
1449618249499287238,0.301714288712,0.0,0.0,0.0,0.0,0.342857146263
1449618249540953465,0.301714288712,0.0,0.0,0.0,0.0,0.336507940292
1449618249588910379,0.301714288712,0.0,0.0,0.0,0.0,0.336507940292
1449618249616211199,0.301714288712,0.0,0.0,0.0,0.0,0.342857146263
1449618249673703604,0.301714288712,0.0,0.0,0.0,0.0,0.342857146263
1449618249702961596,0.301714288712,0.0,0.0,0.0,0.0,0.342857146263
1449618249734613024,0.296126987457,0.0,0.0,0.0,0.0,0.336507940292
1449618249785558889,0.296126987457,0.0,0.0,0.0,0.0,0.336507940292
1449618249822202424,0.301714288712,0.0,0.0,0.0,0.0,0.342857146263
1449618249857634205,0.301714288712,0.0,0.0,0.0,0.0,0.342857146263
1449618249905051518,0.301714288712,0.0,0.0,0.0,0.0,0.342857146263
1449618249976900965,0.301714288712,0.0,0.0,0.0,0.0,0.342857146263
1449618249990727177,0.301714288712,0.0,0.0,0.0,0.0,0.342857146263
1449618250010329645,0.301714288712,0.0,0.0,0.0,0.0,0.342857146263
1449618250065802103,0.301714288712,0.0,0.0,0.0,0.0,0.342857146263
1449618250093011784,0.301714288712,0.0,0.0,0.0,0.0,0.342857146263
1449618250138912849,0.296126987457,0.0,0.0,0.0,0.0,0.342857146263
1449618250174175623,0.296126987457,0.0,0.0,0.0,0.0,0.342857146263
1449618250212618032,0.301714288712,0.0,0.0,0.0,0.0,0.342857146263
1449618250283523511,0.301714288712,0.0,0.0,0.0,0.0,0.342857146263
1449618250295065253,0.301714288712,0.0,0.0,0.0,0.0,0.342857146263
1449618250336005428,0.335238096237,0.0,0.0,0.0,0.0,0.120634925365
1449618250389398240,0.335238096237,0.0,0.0,0.0,0.0,0.120634925365
1449618250414164977,0.290539686203,0.0,0.0,0.0,0.0,0.0380952388048
1449618250455083299,0.290539686203,0.0,0.0,0.0,0.0,0.0380952388048
1449618250501847446,0.290539686203,0.0,0.0,0.0,0.0,0.0380952388048
1449618250534426886,0.346412698746,0.0,0.0,0.0,0.0,0.00634920671582
1449618250571788885,0.346412698746,0.0,0.0,0.0,0.0,0.00634920671582
1449618250620073565,0.307301589966,0.0,0.0,0.0,0.0,0.0
1449618250657974008,0.307301589966,0.0,0.0,0.0,0.0,0.0
1449618250713795090,0.307301589966,0.0,0.0,0.0,0.0,0.0
1449618250736871419,0.352,0.0,0.0,0.0,0.0,0.00634920671582
1449618250795918410,0.352,0.0,0.0,0.0,0.0,0.00634920671582
1449618250810786799,0.346412698746,0.0,0.0,0.0,0.0,0.0
1449618250851180120,0.346412698746,0.0,0.0,0.0,0.0,0.0
1449618250896714532,0.346412698746,0.0,0.0,0.0,0.0,0.0
1449618250932290589,0.346412698746,0.0,0.0,0.0,0.0,0.0
1449618250977401485,0.346412698746,0.0,0.0,0.0,0.0,0.0
1449618251030618884,0.346412698746,0.0,0.0,0.0,0.0,0.0
1449618251054485466,0.346412698746,0.0,0.0,0.0,0.0,0.0
1449618251093368923,0.346412698746,0.0,0.0,0.0,0.0,0.0
1449618251141673666,0.346412698746,0.0,0.0,0.0,0.0,0.0
1449618251192144375,0.346412698746,0.0,0.0,0.0,0.0,0.0
1449618251212832847,0.352,0.0,0.0,0.0,0.0,0.0
1449618251274204361,0.352,0.0,0.0,0.0,0.0,0.0
1449618251316289647,0.352,0.0,0.0,0.0,0.0,0.0
1449618251335558311,0.346412698746,0.0,0.0,0.0,0.0,0.0
1449618251408782363,0.346412698746,0.0,0.0,0.0,0.0,0.0
1449618251427216326,0.346412698746,0.0,0.0,0.0,0.0,0.0
1449618251452837479,0.346412698746,0.0,0.0,0.0,0.0,0.0
1449618251508868782,0.346412698746,0.0,0.0,0.0,0.0,0.0
1449618251569286763,0.352,0.0,0.0,0.0,0.0,0.0
1449618251580402247,0.352,0.0,0.0,0.0,0.0,0.0
1449618251629353985,0.346412698746,0.0,0.0,0.0,0.0,0.0
1449618251681952508,0.346412698746,0.0,0.0,0.0,0.0,0.0
1449618251712252307,0.346412698746,0.0,0.0,0.0,0.0,0.0
1449618251740876386,0.346412698746,0.0,0.0,0.0,0.0,0.0
1449618251777613227,0.346412698746,0.0,0.0,0.0,0.0,0.0
1449618251833560329,0.346412698746,0.0,0.0,0.0,0.0,0.0
1449618251855942224,0.346412698746,0.0,0.0,0.0,0.0,0.0
1449618251893357504,0.346412698746,0.0,0.0,0.0,0.0,0.0
1449618251985180310,0.346412698746,0.0,0.0,0.0,0.0,0.0
1449618251997266552,0.346412698746,0.0,0.0,0.0,0.0,0.0
1449618252017689111,0.346412698746,0.0,0.0,0.0,0.0,0.0
1449618252109753237,0.346412698746,0.0,0.0,0.0,0.0,0.0
1449618252119359376,0.346412698746,0.0,0.0,0.0,0.0,0.0
1449618252138152873,0.346412698746,0.0,0.0,0.0,0.0,0.0
1449618252192661308,0.346412698746,0.0,0.0,0.0,0.0,0.0
1449618252216689382,0.346412698746,0.0,0.0,0.0,0.0,0.0
1449618252252366701,0.352,0.0,0.0,0.0,0.0,0.0
1449618252312014138,0.352,0.0,0.0,0.0,0.0,0.0
1449618252336171788,0.31288889122,0.0,0.0,0.0,0.0,0.0
1449618252379032189,0.31288889122,0.0,0.0,0.0,0.0,0.0
1449618252445887775,0.346412698746,0.0,0.0,0.0,0.0,0.0
1449618252457940725,0.346412698746,0.0,0.0,0.0,0.0,0.0
1449618252500037117,0.31288889122,0.0,0.0,0.0,0.0,0.0
1449618252551379410,0.31288889122,0.0,0.0,0.0,0.0,0.0
1449618252575934881,0.31288889122,0.0,0.0,0.0,0.0,0.0
1449618252612400250,0.189968263626,0.0,0.0,0.0,0.0,0.0
1449618252691002225,0.189968263626,0.0,0.0,0.0,0.0,0.0
1449618252704616903,0.189968263626,0.0,0.0,0.0,0.0,0.0
1449618252734403796,0.184380962372,0.0,0.0,0.0,0.0,0.0
1449618252794918109,0.184380962372,0.0,0.0,0.0,0.0,0.0
1449618252827454462,0.184380962372,0.0,0.0,0.0,0.0,0.0
1449618252859662023,0.173206349373,0.0,0.0,0.0,0.0,0.0
1449618252902979798,0.173206349373,0.0,0.0,0.0,0.0,0.0
1449618252935292387,0.184380962372,0.0,0.0,0.0,0.0,0.0
1449618252971835760,0.184380962372,0.0,0.0,0.0,0.0,0.0
1449618253019384988,0.184380962372,0.0,0.0,0.0,0.0,0.0
1449618253101763097,0.184380962372,0.0,0.0,0.0,0.0,0.0
1449618253112163910,0.184380962372,0.0,0.0,0.0,0.0,0.0
1449618253133872155,0.189968263626,0.0,0.0,0.0,0.0,0.0
1449618253177884948,0.189968263626,0.0,0.0,0.0,0.0,0.0
1449618253242240736,0.189968263626,0.0,0.0,0.0,0.0,0.0
1449618253260218239,0.189968263626,0.0,0.0,0.0,0.0,0.0
1449618253297383269,0.189968263626,0.0,0.0,0.0,0.0,0.0
1449618253331672773,0.189968263626,0.0,0.0,0.0,0.0,0.0
1449618253394996211,0.189968263626,0.0,0.0,0.0,0.0,0.0
1449618253423979946,0.189968263626,0.0,0.0,0.0,0.0,0.0
1449618253456581952,0.167619048119,0.0,0.0,0.0,0.0,0.0
1449618253506574873,0.167619048119,0.0,0.0,0.0,0.0,0.0
1449618253543658050,0.189968263626,0.0,0.0,0.0,0.0,0.0
1449618253578629639,0.189968263626,0.0,0.0,0.0,0.0,0.0
1449618253620776466,0.189968263626,0.0,0.0,0.0,0.0,0.0
1449618253668638655,0.189968263626,0.0,0.0,0.0,0.0,0.0
1449618253697124525,0.189968263626,0.0,0.0,0.0,0.0,0.0
1449618253756596327,0.189968263626,0.0,0.0,0.0,0.0,0.0
1449618253775941265,0.189968263626,0.0,0.0,0.0,0.0,0.0
1449618253818622147,0.189968263626,0.0,0.0,0.0,0.0,0.0
1449618253865853837,0.189968263626,0.0,0.0,0.0,0.0,0.0
1449618253909837134,0.189968263626,0.0,0.0,0.0,0.0,0.0
1449618253940875698,0.078222222805,0.0,0.0,0.0,0.0,0.0
1449618253983112956,0.078222222805,0.0,0.0,0.0,0.0,0.0
1449618254018055836,0.0335238101482,0.0,0.0,0.0,0.0,0.0
1449618254062063578,0.0335238101482,0.0,0.0,0.0,0.0,0.0
1449618254145075400,0.0335238101482,0.0,0.0,0.0,0.0,0.0
1449618254155957384,0.0167619050741,0.0,0.0,0.0,0.0,0.0
1449618254173630289,0.00558730190992,0.0,0.0,0.0,0.0,0.0
1449618254210501856,0.00558730190992,0.0,0.0,0.0,0.0,0.0
1449618254285995703,0.00558730190992,0.0,0.0,0.0,0.0,0.0
1449618254302810596,0.00558730190992,0.0,0.0,0.0,0.0,0.0
1449618254334466700,0.00558730190992,0.0,0.0,0.0,0.0,0.0
1449618254387052669,0.00558730190992,0.0,0.0,0.0,0.0,0.0
1449618254416086324,0.00558730190992,0.0,0.0,0.0,0.0,0.0
1449618254472557579,0.00558730190992,0.0,0.0,0.0,0.0,0.0
1449618254496198976,0.00558730190992,0.0,0.0,0.0,0.0,0.0
1449618254530790310,-0.0,0.0,0.0,0.0,0.0,-0.0
1449618254566993098,-0.0,0.0,0.0,0.0,0.0,-0.0
1449618254608437121,-0.0,0.0,0.0,0.0,0.0,-0.0
1449618254647942747,-0.0,0.0,0.0,0.0,0.0,-0.0
1449618254687450318,-0.0,0.0,0.0,0.0,0.0,-0.0
1449618254728262536,-0.0,0.0,0.0,0.0,0.0,-0.0
1449618254767666273,-0.0,0.0,0.0,0.0,0.0,-0.0
1449618254807951785,-0.0,0.0,0.0,0.0,0.0,-0.0
1449618254848623877,-0.0,0.0,0.0,0.0,0.0,-0.0
1449618254890340529,-0.0,0.0,0.0,0.0,0.0,-0.0
1449618254929619041,-0.0,0.0,0.0,0.0,0.0,-0.0
1449618254967437377,-0.0,0.0,0.0,0.0,0.0,-0.0
1449618255007771343,-0.0,0.0,0.0,0.0,0.0,-0.0
1449618255048145421,-0.0,0.0,0.0,0.0,0.0,-0.0
1449618255089291511,-0.0,0.0,0.0,0.0,0.0,-0.0
1449618255130680611,-0.0,0.0,0.0,0.0,0.0,-0.0
1449618255167163677,-0.0,0.0,0.0,0.0,0.0,-0.0
1449618255212282972,-0.0,0.0,0.0,0.0,0.0,-0.0
1449618255250291503,-0.0,0.0,0.0,0.0,0.0,-0.0
1449618255289738426,-0.0,0.0,0.0,0.0,0.0,-0.0
1449618255327737246,-0.0,0.0,0.0,0.0,0.0,-0.0
1449618255368020436,-0.0,0.0,0.0,0.0,0.0,-0.0
1449618255408303468,-0.0,0.0,0.0,0.0,0.0,-0.0
1449618255447251865,-0.0,0.0,0.0,0.0,0.0,-0.0
1449618255491037493,-0.0,0.0,0.0,0.0,0.0,-0.0
1449618255527399729,-0.0,0.0,0.0,0.0,0.0,-0.0
1449618255567961903,-0.0,0.0,0.0,0.0,0.0,-0.0
1449618255608356417,-0.0,0.0,0.0,0.0,0.0,-0.0
1449618255647980147,-0.0,0.0,0.0,0.0,0.0,-0.0
1449618255687274926,-0.0,0.0,0.0,0.0,0.0,-0.0
1449618255728318575,-0.0,0.0,0.0,0.0,0.0,-0.0
1449618255769167729,-0.0,0.0,0.0,0.0,0.0,-0.0
1449618255808095416,-0.0,0.0,0.0,0.0,0.0,-0.0
1449618255850073354,-0.0,0.0,0.0,0.0,0.0,-0.0
1449618255889739689,-0.0,0.0,0.0,0.0,0.0,-0.0
1449618255928402369,-0.0,0.0,0.0,0.0,0.0,-0.0
1449618255967953255,-0.0,0.0,0.0,0.0,0.0,-0.0
1449618256008744725,-0.0,0.0,0.0,0.0,0.0,-0.0
1449618256094427757,0.00558730190992,0.0,0.0,0.0,0.0,0.0
1449618256118774895,0.00558730190992,0.0,0.0,0.0,0.0,0.0
1449618256147724141,0.189968263626,0.0,0.0,0.0,0.0,0.0
1449618256173985600,0.189968263626,0.0,0.0,0.0,0.0,0.0
1449618256216779689,0.296546965371,0.0,0.0,0.0,0.0,0.0
1449618256286532514,0.296546965371,0.0,0.0,0.0,0.0,0.0
1449618256310570429,0.300514338719,0.0,0.0,0.0,0.0,0.0
1449618256389269790,0.332712301423,0.0,0.0,0.0,0.0,0.0
1449618256432393915,0.332712301423,0.0,0.0,0.0,0.0,0.0
1449618256444151935,0.196376513599,0.0,0.0,0.0,0.0,0.00416308955142
1449618256461939080,0.198209041225,0.0,0.0,0.0,0.0,0.00535358253278
1449618256495727789,0.198209041225,0.0,0.0,0.0,0.0,0.00535358253278
1449618256574765724,0.198209041225,0.0,0.0,0.0,0.0,0.00535358253278
1449618256586883448,0.198209041225,0.0,0.0,0.0,0.0,0.00535358253278
1449618256617192142,0.198209041225,0.0,0.0,0.0,0.0,0.00535358253278
1449618256654881115,0.198209041225,0.0,0.0,0.0,0.0,0.00535358253278
1449618256694605298,0.198209041225,0.0,0.0,0.0,0.0,0.00535358253278
1449618256755808763,0.192905904716,0.0,0.0,0.0,0.0,0.00535358253278
1449618256786558042,0.189840035431,0.0,0.0,0.0,0.0,0.00342824584559
1449618256827560133,0.195245367583,0.0,0.0,0.0,0.0,0.00342824584559
1449618256889267091,0.195245367583,0.0,0.0,0.0,0.0,0.00342824584559
1449618256902477745,0.198368009339,0.0,0.0,0.0,0.0,0.00545685542257
1449618256931855324,0.198368009339,0.0,0.0,0.0,0.0,0.00545685542257
1449618256977247397,0.198368009339,0.0,0.0,0.0,0.0,0.00545685542257
1449618257050925164,0.198368009339,0.0,0.0,0.0,0.0,0.00545685542257
1449618257063668468,0.198427916946,0.0,0.0,0.0,0.0,0.00549577411852
1449618257098954191,0.198427916946,0.0,0.0,0.0,0.0,0.00549577411852
1449618257176082514,0.198427916946,0.0,0.0,0.0,0.0,0.00769408376593
1449618257189242976,0.198495927484,0.0,0.0,0.0,0.0,0.00775593958403
1449618257254405813,0.198495927484,0.0,0.0,0.0,0.0,0.00775593958403
1449618257287741875,0.198564314678,0.0,0.0,0.0,0.0,0.00781813797198
1449618257312163670,0.198439255255,0.0,0.0,0.0,0.0,0.0077043959969
1449618257338960322,0.198507516897,0.0,0.0,0.0,0.0,0.0055474858535
1449618257399328742,0.198507516897,0.0,0.0,0.0,0.0,0.0055474858535
1449618257414484854,0.198645459884,0.0,0.0,0.0,0.0,0.00563709986837
1449618257467247242,0.198645459884,0.0,0.0,0.0,0.0,0.00789193981572
1449618257515053439,0.198785595202,0.0,0.0,0.0,0.0,0.00801939336877
1449618257532283504,0.19704877681,0.0,0.0,0.0,0.0,0.00643975107293
1449618257584021288,0.19704877681,0.0,0.0,0.0,0.0,0.00459982219495
1449618257659291064,0.197106279614,0.0,0.0,0.0,0.0,0.00463717862179
1449618257693942281,0.199301623469,0.0,0.0,0.0,0.0,0.00606337346529
1449618257717792944,0.199376153052,0.0,0.0,0.0,0.0,0.00611179125936
1449618257772819202,0.199451368342,0.0,0.0,0.0,0.0,0.00616065451973
1449618257778986493,0.199603479386,0.0,0.0,0.0,0.0,0.0062594727466
1449618257815622859,0.199603479386,0.0,0.0,0.0,0.0,0.00876326184524
1449618257907489929,0.199680230273,0.0,0.0,0.0,0.0,0.00883306704069
1449618257917383719,0.200071575774,0.0,0.0,0.0,0.0,0.0091889971181
1449618257936984030,0.179115921216,0.0,0.0,0.0,0.0,0.0091889971181
1449618257972582817,0.179115921216,0.0,0.0,0.0,0.0,0.0091889971181
1449618258024064416,0.175068966936,0.0,0.0,0.0,0.0,0.00595442621331
1449618258066117949,0.196677027075,0.0,0.0,0.0,0.0,0.00435831672267
1449618258147478752,0.196677027075,0.0,0.0,0.0,0.0,0.00435831672267
1449618258157479542,0.196898655282,0.0,0.0,0.0,0.0,0.00450229644775
1449618258174039329,0.19155033305,0.0,0.0,0.0,0.0,0.00450229644775
1449618258217865332,0.19155033305,0.0,0.0,0.0,0.0,0.00450229644775
1449618258298413170,0.193044018547,0.0,0.0,0.0,0.0,0.00544031670219
1449618258328953749,0.193255095725,0.0,0.0,0.0,0.0,0.0078020196212
1449618258340234081,0.198615588172,0.0,0.0,0.0,0.0,0.00786477139122
1449618258415028277,0.198615588172,0.0,0.0,0.0,0.0,0.00786477139122
1449618258437859068,0.20208203952,0.0,0.0,0.0,0.0,0.0110175208042
1449618258463444852,0.202176898864,0.0,0.0,0.0,0.0,0.0111037957041
1449618258567316808,0.315858903072,0.0,0.0,0.0,0.0,0.0111908347983
1449618258612454628,0.315929144572,0.0,0.0,0.0,0.0,0.0114555007533
1449618258663712310,0.346756684843,0.0,0.0,0.0,0.0,0.00907283958636
1449618258703774007,0.34676219048,0.0,0.0,0.0,0.0,0.00921805406872
1449618258728469847,0.352,0.0,0.0,0.0,0.0,0.00921805406872
1449618258825088986,0.352,0.0,0.0,0.0,0.0,0.00936541180862
1449618258869397049,0.352,0.0,0.0,0.0,0.0,0.00950207961233
1449618258896952385,0.346775819696,0.0,0.0,0.0,0.0,0.00684109487032
1449618259001998852,0.200498771191,0.0,0.0,0.0,0.0,0.00684109487032
1449618259002011339,0.200666498969,0.0,0.0,0.0,0.0,0.00695005843514
1449618259002032824,0.200736808074,0.0,0.0,0.0,0.0,0.00699573441556
1449618259078083335,0.346789938798,0.0,0.0,0.0,0.0,0.00994993260032
1449618259112079231,0.346802019429,0.0,0.0,0.0,0.0,0.0102685664829
1449618259124761081,0.201258563444,0.0,0.0,0.0,0.0,0.00733469034496
1449618259155302343,0.20143754261,0.0,0.0,0.0,0.0,0.00745096332149
1449618259196820418,0.201619100421,0.0,0.0,0.0,0.0,0.00756891150224
1449618259243848466,0.20180326585,0.0,0.0,0.0,0.0,0.00768855370973
1449618259289224515,0.201990058213,0.0,0.0,0.0,0.0,0.00780990249232
1449618259326433487,0.202179525798,0.0,0.0,0.0,0.0,0.00793298922087
1449618259371638943,0.205202141262,0.0,0.0,0.0,0.0,0.0138552640614
1449618259434690108,0.205436160483,0.0,0.0,0.0,0.0,0.0140681053463
1449618259441782091,0.205913847109,0.0,0.0,0.0,0.0,0.0145025629746
1449618259529967443,0.205913847109,0.0,0.0,0.0,0.0,0.0145025629746
1449618259544475794,0.191536389697,0.0,0.0,0.0,0.0,0.0151083055295
1449618259552059426,0.191815004528,0.0,0.0,0.0,0.0,0.0109556787892
1449618259595305984,0.191815004528,0.0,0.0,0.0,0.0,0.0109556787892
1449618259631205863,0.206631125532,0.0,0.0,0.0,0.0,0.0108249501178
1449618259694829265,0.206884634281,0.0,0.0,0.0,0.0,0.0109896408884
1449618259734434143,0.207141465329,0.0,0.0,0.0,0.0,0.0111564899746
1449618259758394290,0.207141465329,0.0,0.0,0.0,0.0,0.0111564899746
1449618259807901490,0.347017252144,0.0,0.0,0.0,0.0,0.0113896131516
1449618259845515979,0.347026410445,0.0,0.0,0.0,0.0,0.0115621529127
1449618259917175665,0.347044542214,0.0,0.0,0.0,0.0,0.011903750269
1449618259957098038,0.347063664746,0.0,0.0,0.0,0.0,0.0122640132904
1449618259996626195,0.347068528969,0.0,0.0,0.0,0.0,0.0123556538632
1449618260077725876,0.347062223063,0.0,0.0,0.0,0.0,0.0178479632094
1449618260109781283,0.347071938188,0.0,0.0,0.0,0.0,0.0180199534719
1449618260144491771,0.347081775868,0.0,0.0,0.0,0.0,0.0232362020225
1449618260178943837,0.347086897522,0.0,0.0,0.0,0.0,0.0233654686719
1449618260266873939,0.342173795044,0.0,0.0,0.0,0.0,0.0238678554618
1449618260313540993,0.342234417665,0.0,0.0,0.0,0.0,0.0243700225286
1449618260347822916,0.347127619322,0.0,0.0,0.0,0.0,0.0299300526637
1449618260425764941,0.347132790265,0.0,0.0,0.0,0.0,0.03005468724
1449618260459007303,0.347159554149,0.0,0.0,0.0,0.0,0.0251992664231
1449618260545784840,0.347159554149,0.0,0.0,0.0,0.0,0.0251992664231
1449618260561315901,0.347202035009,0.0,0.0,0.0,0.0,0.0262714508643
1449618260591970953,0.347213467232,0.0,0.0,0.0,0.0,0.0265599914415
1449618260670555975,0.347230835366,0.0,0.0,0.0,0.0,0.0269983498716
1449618260722978072,0.347256825291,0.0,0.0,0.0,0.0,0.0276543157068
1449618260750616230,0.347268895265,0.0,0.0,0.0,0.0,0.021506753593
1449618260803567961,0.347281101114,0.0,0.0,0.0,0.0,0.0282670189473
