%time,field.header.seq,field.header.stamp,field.header.frame_id,field.pose.position.x,field.pose.position.y,field.pose.position.z,field.pose.orientation.x,field.pose.orientation.y,field.pose.orientation.z,field.pose.orientation.w
1449618217940244285,0,1449618217888902188,/odom,2.49454879761,0.455956399441,0.739244997501,0.0,0.0,0.396748617156,0.917927303649
1449618218084035502,1,1449618218032414226,/odom,2.52485704422,0.500064253807,0.757705032825,0.0,0.0,0.438654716051,0.898655684946
1449618218250387082,2,1449618218199913686,/odom,2.47844791412,0.454200923443,0.719124853611,0.0,0.0,0.392178173635,0.919889276013
1449618218385781973,3,1449618218335427097,/odom,2.52902507782,0.49641045928,0.74807280302,0.0,0.0,0.435768051658,0.90005900093
1449618218562133349,4,1449618218335427097,/odom,2.52902507782,0.49641045928,0.74807280302,0.0,0.0,0.435768051658,0.90005900093
1449618218633041024,5,1449618218335427097,/odom,2.52902507782,0.49641045928,0.74807280302,0.0,0.0,0.435768051658,0.90005900093
1449618218805838851,6,1449618218335427097,/odom,2.52902507782,0.49641045928,0.74807280302,0.0,0.0,0.435768051658,0.90005900093
1449618219102186229,7,1449618219050613687,/odom,2.48396611214,0.451970756054,0.729234218597,0.0,0.0,0.389346860394,0.921091212802
1449618219568779890,8,1449618219517822127,/odom,2.46901321411,0.465770155191,0.718981087208,0.0,0.0,0.403460569293,0.91499703225
1449618219777225188,9,1449618219718422020,/odom,2.51939129829,0.499664127827,0.768067657948,0.0,0.0,0.444050506994,0.89600175627
1449618219892528479,10,1449618219718422020,/odom,2.51939129829,0.499664127827,0.768067657948,0.0,0.0,0.444050506994,0.89600175627
1449618220076951541,11,1449618220026234524,/odom,2.46872234344,0.440183579922,0.749215185642,0.0,0.0,0.386058384823,0.922474348428
1449618220267213851,12,1449618220216214344,/odom,2.48971700668,0.472771406174,0.758023917675,0.0,0.0,0.422623455253,0.906305365244
1449618220384619713,13,1449618220333100510,/odom,2.53237366676,0.500520467758,0.758146524429,0.0,0.0,0.444557132776,0.895750498575
1449618220580302109,14,1449618220529713701,/odom,2.51075649261,0.496521413326,0.768209218979,0.0,0.0,0.437296216939,0.89931752938
1449618220765833199,15,1449618220529713701,/odom,2.51075649261,0.496521413326,0.768209218979,0.0,0.0,0.437296216939,0.89931752938
1449618220979151230,16,1449618220927292133,/odom,2.48685669899,0.470259636641,0.757877469063,0.0,0.0,0.419401425477,0.907800883624
1449618221160558905,17,1449618220927292133,/odom,2.48685669899,0.470259636641,0.757877469063,0.0,0.0,0.419401425477,0.907800883624
1449618221274157866,18,1449618220927292133,/odom,2.48685669899,0.470259636641,0.757877469063,0.0,0.0,0.419401425477,0.907800883624
1449618221512319123,19,1449618221459360646,/odom,2.51949214935,0.498387813568,0.778814435005,0.0,0.0,0.44516425562,0.895448929598
1449618221660027823,20,1449618221608727147,/odom,2.50947260857,0.490123927593,0.777519404888,0.0,0.0,0.435769630642,0.900058236455
1449618221859730757,21,1449618221808856474,/odom,2.49080085754,0.470821648836,0.757816791534,0.0,0.0,0.431966995073,0.901889414045
1449618222086579965,22,1449618222034556541,/odom,2.4911737442,0.465543091297,0.748564243317,0.0,0.0,0.421647148884,0.906759991309
1449618222278186305,23,1449618222226461831,/odom,2.50823044777,0.48419469595,0.718238532543,0.0,0.0,0.439301883126,0.89833949901
1449618222440086447,24,1449618222389701081,/odom,2.50030326843,0.502387404442,0.758508145809,0.0,0.0,0.44145658738,0.897282609582
1449618222677083137,25,1449618222625708248,/odom,2.46480894089,0.459374666214,0.728970050812,0.0,0.0,0.40126043987,0.915964005513
1449618222873737806,26,1449618222822397061,/odom,2.49175834656,0.498845279217,0.73823428154,0.0,0.0,0.435195550959,0.900335955311
1449618223078649686,27,1449618223027232408,/odom,2.5036687851,0.495040595531,0.748087644577,0.0,0.0,0.441957739356,0.89703587254
1449618223284883369,28,1449618223232860142,/odom,2.45556855202,0.465396881104,0.75888478756,0.0,0.0,0.399211845461,0.916858714549
1449618223473788178,29,1449618223422341171,/odom,2.46415615082,0.461211383343,0.739003956318,0.0,0.0,0.401922038616,0.915673891118
1449618223661117791,30,1449618223610299989,/odom,2.4540605545,0.470898389816,0.749102175236,0.0,0.0,0.401073577699,0.916045842342
1449618223911111744,31,1449618223857022639,/odom,2.46420812607,0.468270868063,0.728970825672,0.0,0.0,0.407082147655,0.913391550793
1449618224081164404,32,1449618224026262764,/odom,2.46125173569,0.465902000666,0.739027500153,0.0,0.0,0.403199479029,0.915112113411
1449618224387761575,33,1449618224334627861,/odom,2.48884510994,0.486004859209,0.747720181942,0.0,0.0,0.430326237745,0.902673434365
1449618224557423858,34,1449618224506609130,/odom,2.46935033798,0.477155804634,0.758703052998,0.0,0.0,0.41368732429,0.910419023155
1449618224676627692,35,1449618224624342723,/odom,2.47137713432,0.468975007534,0.748950183392,0.0,0.0,0.409316235241,0.912392579742
1449618224856280652,36,1449618224805250239,/odom,2.4881131649,0.510502636433,0.768262505531,0.0,0.0,0.444148714135,0.895953078979
1449618224992881382,37,1449618224941081342,/odom,2.51957559586,0.473131626844,0.768297672272,0.0,0.0,0.440250275748,0.897875099724
1449618225184796531,38,1449618225132900122,/odom,2.47355437279,0.489164710045,0.738593101501,0.0,0.0,0.430461536605,0.902608921684
1449618225392785707,39,1449618225342260858,/odom,2.47147250175,0.447161734104,0.759232878685,0.0,0.0,0.421848274962,0.906666439718
1449618225563739557,40,1449618225509617094,/odom,2.4743103981,0.453462302685,0.7491492033,0.0,0.0,0.426050329297,0.9046994622
1449618225818317786,41,1449618225767601327,/odom,2.46980571747,0.412968665361,0.749452650547,0.0,0.0,0.410759015759,0.911743950335
1449618225959842559,42,1449618225908625348,/odom,2.45825099945,0.422068834305,0.759434103966,0.0,0.0,0.409684294236,0.912227372455
1449618226170803396,43,1449618226119526745,/odom,2.49158716202,0.392063856125,0.709027707577,0.0,0.0,0.400852939425,0.916142413031
1449618226383662075,44,1449618226331423315,/odom,2.47208929062,0.427032858133,0.738767504692,0.0,0.0,0.407963405022,0.912998280482
1449618226584252338,45,1449618226533723207,/odom,2.46843552589,0.407871603966,0.69815325737,0.0,0.0,0.399661605182,0.916662752239
1449618226774984189,46,1449618226723967130,/odom,2.53407073021,0.447208940983,0.757932424545,0.0,0.0,0.438569272067,0.89869738711
1449618227011449448,47,1449618226929036457,/odom,2.48644018173,0.434260249138,0.707369685173,0.0,0.0,0.412069030543,0.911152629403
1449618227179150958,48,1449618227109206134,/odom,2.45394992828,0.429497241974,0.707999885082,0.0,0.0,0.388718079702,0.921356746604
1449618227692584510,49,1449618227109206134,/odom,2.45394992828,0.429497241974,0.707999885082,0.0,0.0,0.388718079702,0.921356746604
1449618227904878496,50,1449618227833982624,/odom,2.37897467613,0.339547008276,0.66853260994,0.0,0.0,0.354180225848,0.935177185146
1449618228111658827,51,1449618227833982624,/odom,2.37897467613,0.339547008276,0.66853260994,0.0,0.0,0.354180225848,0.935177185146
1449618228275203524,52,1449618227833982624,/odom,2.37897467613,0.339547008276,0.66853260994,0.0,0.0,0.354180225848,0.935177185146
1449618228400240210,53,1449618228334864648,/odom,2.4847548008,0.463212162256,0.727487385273,0.0,0.0,0.437641725844,0.899149442418
1449618228594814399,54,1449618228535631724,/odom,2.46558618546,0.464340567589,0.69746285677,0.0,0.0,0.409853309986,0.912151448112
1449618228658753439,55,1449618228535631724,/odom,2.46558618546,0.464340567589,0.69746285677,0.0,0.0,0.409853309986,0.912151448112
1449618228791829376,56,1449618228535631724,/odom,2.46558618546,0.464340567589,0.69746285677,0.0,0.0,0.409853309986,0.912151448112
1449618229021221856,57,1449618228535631724,/odom,2.46558618546,0.464340567589,0.69746285677,0.0,0.0,0.409853309986,0.912151448112
1449618229217056502,58,1449618228535631724,/odom,2.46558618546,0.464340567589,0.69746285677,0.0,0.0,0.409853309986,0.912151448112
1449618229378830014,59,1449618228535631724,/odom,2.46558618546,0.464340567589,0.69746285677,0.0,0.0,0.409853309986,0.912151448112
1449618229500420039,60,1449618228535631724,/odom,2.46558618546,0.464340567589,0.69746285677,0.0,0.0,0.409853309986,0.912151448112
1449618229725722810,61,1449618228535631724,/odom,2.46558618546,0.464340567589,0.69746285677,0.0,0.0,0.409853309986,0.912151448112
1449618230102413580,62,1449618228535631724,/odom,2.46558618546,0.464340567589,0.69746285677,0.0,0.0,0.409853309986,0.912151448112
1449618230426736947,63,1449618228535631724,/odom,2.46558618546,0.464340567589,0.69746285677,0.0,0.0,0.409853309986,0.912151448112
1449618230810459152,64,1449618228535631724,/odom,2.46558618546,0.464340567589,0.69746285677,0.0,0.0,0.409853309986,0.912151448112
1449618231192741871,65,1449618228535631724,/odom,2.46558618546,0.464340567589,0.69746285677,0.0,0.0,0.409853309986,0.912151448112
1449618231568772970,66,1449618228535631724,/odom,2.46558618546,0.464340567589,0.69746285677,0.0,0.0,0.409853309986,0.912151448112
1449618231999763647,67,1449618228535631724,/odom,2.46558618546,0.464340567589,0.69746285677,0.0,0.0,0.409853309986,0.912151448112
1449618232257312744,68,1449618228535631724,/odom,2.46558618546,0.464340567589,0.69746285677,0.0,0.0,0.409853309986,0.912151448112
1449618232511591023,69,1449618228535631724,/odom,2.46558618546,0.464340567589,0.69746285677,0.0,0.0,0.409853309986,0.912151448112
1449618232744469218,70,1449618228535631724,/odom,2.46558618546,0.464340567589,0.69746285677,0.0,0.0,0.409853309986,0.912151448112
1449618233001617024,71,1449618228535631724,/odom,2.46558618546,0.464340567589,0.69746285677,0.0,0.0,0.409853309986,0.912151448112
1449618233338835027,72,1449618228535631724,/odom,2.46558618546,0.464340567589,0.69746285677,0.0,0.0,0.409853309986,0.912151448112
1449618233450094500,73,1449618228535631724,/odom,2.46558618546,0.464340567589,0.69746285677,0.0,0.0,0.409853309986,0.912151448112
1449618233586154962,74,1449618228535631724,/odom,2.46558618546,0.464340567589,0.69746285677,0.0,0.0,0.409853309986,0.912151448112
1449618233691074527,75,1449618228535631724,/odom,2.46558618546,0.464340567589,0.69746285677,0.0,0.0,0.409853309986,0.912151448112
1449618233908787803,76,1449618228535631724,/odom,2.46558618546,0.464340567589,0.69746285677,0.0,0.0,0.409853309986,0.912151448112
1449618234038292932,77,1449618228535631724,/odom,2.46558618546,0.464340567589,0.69746285677,0.0,0.0,0.409853309986,0.912151448112
1449618234202647578,78,1449618228535631724,/odom,2.46558618546,0.464340567589,0.69746285677,0.0,0.0,0.409853309986,0.912151448112
1449618234296368011,79,1449618228535631724,/odom,2.46558618546,0.464340567589,0.69746285677,0.0,0.0,0.409853309986,0.912151448112
1449618234500149566,80,1449618228535631724,/odom,2.46558618546,0.464340567589,0.69746285677,0.0,0.0,0.409853309986,0.912151448112
1449618234847823013,81,1449618228535631724,/odom,2.46558618546,0.464340567589,0.69746285677,0.0,0.0,0.409853309986,0.912151448112
1449618235015032223,82,1449618228535631724,/odom,2.46558618546,0.464340567589,0.69746285677,0.0,0.0,0.409853309986,0.912151448112
1449618235245716518,83,1449618228535631724,/odom,2.46558618546,0.464340567589,0.69746285677,0.0,0.0,0.409853309986,0.912151448112
1449618235367264195,84,1449618228535631724,/odom,2.46558618546,0.464340567589,0.69746285677,0.0,0.0,0.409853309986,0.912151448112
1449618235496971375,85,1449618228535631724,/odom,2.46558618546,0.464340567589,0.69746285677,0.0,0.0,0.409853309986,0.912151448112
1449618235677976569,86,1449618228535631724,/odom,2.46558618546,0.464340567589,0.69746285677,0.0,0.0,0.409853309986,0.912151448112
1449618235792675353,87,1449618228535631724,/odom,2.46558618546,0.464340567589,0.69746285677,0.0,0.0,0.409853309986,0.912151448112
1449618235969627628,88,1449618228535631724,/odom,2.46558618546,0.464340567589,0.69746285677,0.0,0.0,0.409853309986,0.912151448112
1449618236060288374,89,1449618228535631724,/odom,2.46558618546,0.464340567589,0.69746285677,0.0,0.0,0.409853309986,0.912151448112
1449618236265542641,90,1449618228535631724,/odom,2.46558618546,0.464340567589,0.69746285677,0.0,0.0,0.409853309986,0.912151448112
1449618236347522059,91,1449618228535631724,/odom,2.46558618546,0.464340567589,0.69746285677,0.0,0.0,0.409853309986,0.912151448112
1449618236447301244,92,1449618228535631724,/odom,2.46558618546,0.464340567589,0.69746285677,0.0,0.0,0.409853309986,0.912151448112
1449618236547936317,93,1449618228535631724,/odom,2.46558618546,0.464340567589,0.69746285677,0.0,0.0,0.409853309986,0.912151448112
1449618236676500326,94,1449618228535631724,/odom,2.46558618546,0.464340567589,0.69746285677,0.0,0.0,0.409853309986,0.912151448112
1449618236752790453,95,1449618228535631724,/odom,2.46558618546,0.464340567589,0.69746285677,0.0,0.0,0.409853309986,0.912151448112
1449618236845051134,96,1449618228535631724,/odom,2.46558618546,0.464340567589,0.69746285677,0.0,0.0,0.409853309986,0.912151448112
1449618236967607986,97,1449618228535631724,/odom,2.46558618546,0.464340567589,0.69746285677,0.0,0.0,0.409853309986,0.912151448112
1449618237171756188,98,1449618228535631724,/odom,2.46558618546,0.464340567589,0.69746285677,0.0,0.0,0.409853309986,0.912151448112
1449618237348381702,99,1449618228535631724,/odom,2.46558618546,0.464340567589,0.69746285677,0.0,0.0,0.409853309986,0.912151448112
1449618237472149242,100,1449618228535631724,/odom,2.46558618546,0.464340567589,0.69746285677,0.0,0.0,0.409853309986,0.912151448112
1449618237567970411,101,1449618228535631724,/odom,2.46558618546,0.464340567589,0.69746285677,0.0,0.0,0.409853309986,0.912151448112
1449618237726522361,102,1449618228535631724,/odom,2.46558618546,0.464340567589,0.69746285677,0.0,0.0,0.409853309986,0.912151448112
1449618237867191517,103,1449618228535631724,/odom,2.46558618546,0.464340567589,0.69746285677,0.0,0.0,0.409853309986,0.912151448112
1449618237969995127,104,1449618228535631724,/odom,2.46558618546,0.464340567589,0.69746285677,0.0,0.0,0.409853309986,0.912151448112
1449618238156904376,105,1449618228535631724,/odom,2.46558618546,0.464340567589,0.69746285677,0.0,0.0,0.409853309986,0.912151448112
1449618238346384462,106,1449618228535631724,/odom,2.46558618546,0.464340567589,0.69746285677,0.0,0.0,0.409853309986,0.912151448112
1449618238474836936,107,1449618228535631724,/odom,2.46558618546,0.464340567589,0.69746285677,0.0,0.0,0.409853309986,0.912151448112
1449618238664976469,108,1449618228535631724,/odom,2.46558618546,0.464340567589,0.69746285677,0.0,0.0,0.409853309986,0.912151448112
1449618238781974603,109,1449618228535631724,/odom,2.46558618546,0.464340567589,0.69746285677,0.0,0.0,0.409853309986,0.912151448112
1449618238856868346,110,1449618228535631724,/odom,2.46558618546,0.464340567589,0.69746285677,0.0,0.0,0.409853309986,0.912151448112
1449618238963829869,111,1449618228535631724,/odom,2.46558618546,0.464340567589,0.69746285677,0.0,0.0,0.409853309986,0.912151448112
1449618239074701512,112,1449618228535631724,/odom,2.46558618546,0.464340567589,0.69746285677,0.0,0.0,0.409853309986,0.912151448112
1449618239186757600,113,1449618228535631724,/odom,2.46558618546,0.464340567589,0.69746285677,0.0,0.0,0.409853309986,0.912151448112
1449618239284791869,114,1449618228535631724,/odom,2.46558618546,0.464340567589,0.69746285677,0.0,0.0,0.409853309986,0.912151448112
1449618239474940334,115,1449618228535631724,/odom,2.46558618546,0.464340567589,0.69746285677,0.0,0.0,0.409853309986,0.912151448112
1449618239578386881,116,1449618228535631724,/odom,2.46558618546,0.464340567589,0.69746285677,0.0,0.0,0.409853309986,0.912151448112
1449618239681195662,117,1449618228535631724,/odom,2.46558618546,0.464340567589,0.69746285677,0.0,0.0,0.409853309986,0.912151448112
1449618239794585740,118,1449618228535631724,/odom,2.46558618546,0.464340567589,0.69746285677,0.0,0.0,0.409853309986,0.912151448112
1449618239989188700,119,1449618228535631724,/odom,2.46558618546,0.464340567589,0.69746285677,0.0,0.0,0.409853309986,0.912151448112
1449618240151987688,120,1449618228535631724,/odom,2.46558618546,0.464340567589,0.69746285677,0.0,0.0,0.409853309986,0.912151448112
1449618240246405966,121,1449618228535631724,/odom,2.46558618546,0.464340567589,0.69746285677,0.0,0.0,0.409853309986,0.912151448112
1449618240368290244,122,1449618228535631724,/odom,2.46558618546,0.464340567589,0.69746285677,0.0,0.0,0.409853309986,0.912151448112
1449618240475435911,123,1449618228535631724,/odom,2.46558618546,0.464340567589,0.69746285677,0.0,0.0,0.409853309986,0.912151448112
1449618240573459351,124,1449618228535631724,/odom,2.46558618546,0.464340567589,0.69746285677,0.0,0.0,0.409853309986,0.912151448112
1449618240730028463,125,1449618228535631724,/odom,2.46558618546,0.464340567589,0.69746285677,0.0,0.0,0.409853309986,0.912151448112
1449618240882186211,126,1449618228535631724,/odom,2.46558618546,0.464340567589,0.69746285677,0.0,0.0,0.409853309986,0.912151448112
1449618240966553662,127,1449618228535631724,/odom,2.46558618546,0.464340567589,0.69746285677,0.0,0.0,0.409853309986,0.912151448112
1449618241049693860,128,1449618228535631724,/odom,2.46558618546,0.464340567589,0.69746285677,0.0,0.0,0.409853309986,0.912151448112
1449618241155456454,129,1449618228535631724,/odom,2.46558618546,0.464340567589,0.69746285677,0.0,0.0,0.409853309986,0.912151448112
1449618241260478243,130,1449618228535631724,/odom,2.46558618546,0.464340567589,0.69746285677,0.0,0.0,0.409853309986,0.912151448112
1449618241469222983,131,1449618228535631724,/odom,2.46558618546,0.464340567589,0.69746285677,0.0,0.0,0.409853309986,0.912151448112
1449618241573875998,132,1449618228535631724,/odom,2.46558618546,0.464340567589,0.69746285677,0.0,0.0,0.409853309986,0.912151448112
1449618241666567800,133,1449618228535631724,/odom,2.46558618546,0.464340567589,0.69746285677,0.0,0.0,0.409853309986,0.912151448112
1449618241788571977,134,1449618228535631724,/odom,2.46558618546,0.464340567589,0.69746285677,0.0,0.0,0.409853309986,0.912151448112
1449618241865324058,135,1449618228535631724,/odom,2.46558618546,0.464340567589,0.69746285677,0.0,0.0,0.409853309986,0.912151448112
1449618241960599269,136,1449618228535631724,/odom,2.46558618546,0.464340567589,0.69746285677,0.0,0.0,0.409853309986,0.912151448112
1449618242126823619,137,1449618228535631724,/odom,2.46558618546,0.464340567589,0.69746285677,0.0,0.0,0.409853309986,0.912151448112
1449618242259143697,138,1449618228535631724,/odom,2.46558618546,0.464340567589,0.69746285677,0.0,0.0,0.409853309986,0.912151448112
1449618242354139750,139,1449618228535631724,/odom,2.46558618546,0.464340567589,0.69746285677,0.0,0.0,0.409853309986,0.912151448112
1449618242477549922,140,1449618228535631724,/odom,2.46558618546,0.464340567589,0.69746285677,0.0,0.0,0.409853309986,0.912151448112
1449618242678559115,141,1449618228535631724,/odom,2.46558618546,0.464340567589,0.69746285677,0.0,0.0,0.409853309986,0.912151448112
1449618242825076477,142,1449618228535631724,/odom,2.46558618546,0.464340567589,0.69746285677,0.0,0.0,0.409853309986,0.912151448112
1449618242984483273,143,1449618228535631724,/odom,2.46558618546,0.464340567589,0.69746285677,0.0,0.0,0.409853309986,0.912151448112
1449618243071192660,144,1449618228535631724,/odom,2.46558618546,0.464340567589,0.69746285677,0.0,0.0,0.409853309986,0.912151448112
1449618243197113859,145,1449618228535631724,/odom,2.46558618546,0.464340567589,0.69746285677,0.0,0.0,0.409853309986,0.912151448112
1449618243374166176,146,1449618228535631724,/odom,2.46558618546,0.464340567589,0.69746285677,0.0,0.0,0.409853309986,0.912151448112
1449618243573441060,147,1449618228535631724,/odom,2.46558618546,0.464340567589,0.69746285677,0.0,0.0,0.409853309986,0.912151448112
1449618243702806242,148,1449618228535631724,/odom,2.46558618546,0.464340567589,0.69746285677,0.0,0.0,0.409853309986,0.912151448112
1449618243881900290,149,1449618228535631724,/odom,2.46558618546,0.464340567589,0.69746285677,0.0,0.0,0.409853309986,0.912151448112
1449618243985432839,150,1449618228535631724,/odom,2.46558618546,0.464340567589,0.69746285677,0.0,0.0,0.409853309986,0.912151448112
1449618244080834893,151,1449618228535631724,/odom,2.46558618546,0.464340567589,0.69746285677,0.0,0.0,0.409853309986,0.912151448112
1449618244198743964,152,1449618228535631724,/odom,2.46558618546,0.464340567589,0.69746285677,0.0,0.0,0.409853309986,0.912151448112
1449618244279878385,153,1449618228535631724,/odom,2.46558618546,0.464340567589,0.69746285677,0.0,0.0,0.409853309986,0.912151448112
1449618244379444810,154,1449618228535631724,/odom,2.46558618546,0.464340567589,0.69746285677,0.0,0.0,0.409853309986,0.912151448112
1449618245421412592,155,1449618228535631724,/odom,2.46558618546,0.464340567589,0.69746285677,0.0,0.0,0.409853309986,0.912151448112
1449618245531837956,156,1449618228535631724,/odom,2.46558618546,0.464340567589,0.69746285677,0.0,0.0,0.409853309986,0.912151448112
1449618245604434667,157,1449618228535631724,/odom,2.46558618546,0.464340567589,0.69746285677,0.0,0.0,0.409853309986,0.912151448112
1449618245722817592,158,1449618228535631724,/odom,2.46558618546,0.464340567589,0.69746285677,0.0,0.0,0.409853309986,0.912151448112
1449618253513098012,159,1449618253415789517,/odom,2.81640481949,5.80848550797,0.688959300518,0.0,0.0,0.904938036783,0.425543358053
1449618253955772677,160,1449618253875068603,/odom,2.83240175247,5.79339981079,0.688346147537,0.0,0.0,0.909559636296,0.415573420735
1449618254181749490,161,1449618254118557106,/odom,2.91186833382,5.71690940857,0.718604981899,0.0,0.0,0.921505817003,0.388364557124
1449618254368961692,162,1449618254304421250,/odom,2.85973572731,5.79406356812,0.67774784565,0.0,0.0,0.90125791824,0.433283007755
1449618254547145034,163,1449618254471673916,/odom,2.86713266373,5.72017192841,0.718123078346,0.0,0.0,0.927321483491,0.374265769549
1449618254639821596,164,1449618254584561283,/odom,2.88929915428,5.71496391296,0.728906095028,0.0,0.0,0.922497304475,0.386003527493
1449618254912183128,165,1449618254844718437,/odom,2.80586338043,5.84157133102,0.667502164841,0.0,0.0,0.895229490728,0.445605384765
1449618255639241556,166,1449618255571754577,/odom,2.82855606079,5.77930164337,0.668100118637,0.0,0.0,0.905146147761,0.425100518929
1449618255884715693,167,1449618255811417758,/odom,2.81547856331,5.8057551384,0.678234815598,0.0,0.0,0.897705084564,0.440596846502
1449618256059634151,168,1449618256003621582,/odom,2.86724424362,5.72050380707,0.738628745079,0.0,0.0,0.925627883481,0.378434963134
1449618256246636768,169,1449618256179639775,/odom,2.81241130829,5.80137968063,0.668513000011,0.0,0.0,0.897321313277,0.441377911475
1449618256442411689,170,1449618256379322869,/odom,2.85447645187,5.72276687622,0.727416932583,0.0,0.0,0.930374788156,0.366609811058
1449618256729936912,171,1449618256669054047,/odom,2.76645326614,5.85128927231,0.688193321228,0.0,0.0,0.892715559321,0.45062060555
1449618256846634227,172,1449618256770946070,/odom,2.85931634903,5.71794605255,0.728270828724,0.0,0.0,0.928884563422,0.370369366762
1449618257061862287,173,1449618256972188486,/odom,2.8601603508,5.71896076202,0.728127717972,0.0,0.0,0.928305166068,0.371819201562
1449618257273813191,174,1449618257170719813,/odom,2.88277673721,5.74186611176,0.697999179363,0.0,0.0,0.928761649695,0.370677485229
1449618257501111766,175,1449618257427739832,/odom,2.81360220909,5.79062843323,0.677947759628,0.0,0.0,0.901883234513,0.431979896876
1449618257660458101,176,1449618257591867238,/odom,2.88237285614,5.73063898087,0.768431484699,0.0,0.0,0.928845368109,0.3704676533
1449618257820367417,177,1449618257764141342,/odom,2.86776828766,5.71290779114,0.708755016327,0.0,0.0,0.925918248524,0.377723969388
1449618257972118271,178,1449618257913739610,/odom,2.79463338852,5.85639381409,0.687748074532,0.0,0.0,0.889346978177,0.457232930143
1449618258205427471,179,1449618258139777830,/odom,2.83602142334,5.80769586563,0.658989548683,0.0,0.0,0.898188245731,0.439611049941
1449618258385007431,180,1449618258302482223,/odom,2.89917516708,5.71467590332,0.748395204544,0.0,0.0,0.920804982252,0.390023312971
1449618258579931465,181,1449618258517019145,/odom,2.85312795639,5.78885698318,0.697964191437,0.0,0.0,0.908665644357,0.417524546302
1449618258768870153,182,1449618258698370257,/odom,2.84419083595,5.79349470139,0.67880576849,0.0,0.0,0.898585667125,0.438798129938
1449618259005664381,183,1449618258876493752,/odom,2.83928728104,5.79048061371,0.678798854351,0.0,0.0,0.899835774989,0.43622881387
1449618259124549498,184,1449618258876493752,/odom,2.83928728104,5.79048061371,0.678798854351,0.0,0.0,0.899835774989,0.43622881387
1449618259312841377,185,1449618259243599818,/odom,2.87695813179,5.72415018082,0.758890926838,0.0,0.0,0.926763566816,0.375645166644
1449618259450764254,186,1449618259399137587,/odom,2.86988925934,5.71015787125,0.718857049942,0.0,0.0,0.925873256006,0.377834241186
1449618259580978213,187,1449618259522298767,/odom,2.87759304047,5.72887611389,0.747991502285,0.0,0.0,0.926239065343,0.376936591262
1449618259743086572,188,1449618259680920551,/odom,2.90741658211,5.74840641022,0.698924362659,0.0,0.0,0.925128111526,0.3796550767
1449618259808195932,189,1449618259755773422,/odom,2.89964342117,5.73600435257,0.739096581936,0.0,0.0,0.923840771096,0.382776997297
1449618259960389354,190,1449618259905296379,/odom,2.86887097359,5.72448730469,0.728087604046,0.0,0.0,0.927530185003,0.373748252047
1449618260145275482,191,1449618260079809828,/odom,2.89559936523,5.74820756912,0.668374538422,0.0,0.0,0.927273413544,0.374384850835
1449618260217610686,192,1449618260159293024,/odom,2.87785315514,5.73497200012,0.737641811371,0.0,0.0,0.92845249053,0.371451171526
1449618260326795984,193,1449618260273201468,/odom,2.87470555305,5.73620176315,0.717807650566,0.0,0.0,0.928630815348,0.3710051331
1449618260521511358,194,1449618260457711616,/odom,2.87188768387,5.72089481354,0.708762466908,0.0,0.0,0.926998952583,0.375063917099
1449618260627805433,195,1449618260571092943,/odom,2.87490558624,5.73268222809,0.718284487724,0.0,0.0,0.928140868303,0.37222913452
1449618260831481859,196,1449618260771549179,/odom,2.8796749115,5.73373031616,0.727925956249,0.0,0.0,0.927508864382,0.373801159032
1449618260984881187,197,1449618260927123204,/odom,2.88516974449,5.74172306061,0.658160030842,0.0,0.0,0.929018109988,0.370034256947
1449618261180494028,198,1449618261121404026,/odom,2.88240909576,5.74311447144,0.72762209177,0.0,0.0,0.929367571775,0.369155680619
1449618261460659061,199,1449618261402703259,/odom,2.87476301193,5.73436927795,0.717596232891,0.0,0.0,0.927747621634,0.373208186609
1449618261659699816,200,1449618261599878050,/odom,2.87721776962,5.73592567444,0.728280544281,0.0,0.0,0.928225668311,0.372017618788
1449618261819007131,201,1449618261762775928,/odom,2.89057970047,5.74512434006,0.738043248653,0.0,0.0,0.925651650913,0.378376824292
1449618261911766812,202,1449618261857759473,/odom,2.89612579346,5.76183509827,0.67751377821,0.0,0.0,0.928067473489,0.37241208983
1449618262104467887,203,1449618262046028894,/odom,2.89207816124,5.74969148636,0.727239370346,0.0,0.0,0.926117215734,0.377235871467
1449618262217203291,204,1449618262163274540,/odom,2.87930297852,5.74797916412,0.727432847023,0.0,0.0,0.927498645322,0.373826514476
1449618262330447625,205,1449618262257740543,/odom,2.87643814087,5.7505812645,0.737397909164,0.0,0.0,0.929109453899,0.369804844039
1449618262432244979,206,1449618262370485422,/odom,2.92306256294,5.72870826721,0.747558236122,0.0,0.0,0.93150100629,0.363738745917
1449618262495432764,207,1449618262444237423,/odom,2.87232327461,5.78762149811,0.677436351776,0.0,0.0,0.92201000904,0.387166040906
1449618262631106992,208,1449618262573088233,/odom,2.87928032875,5.75816726685,0.717460989952,0.0,0.0,0.926635964475,0.375959824107
1449618262929705863,209,1449618262867108949,/odom,2.88581752777,5.76512384415,0.717460691929,0.0,0.0,0.927397437087,0.374077523629
1449618263279916887,210,1449618263224095430,/odom,2.90253257751,5.77029800415,0.717625319958,0.0,0.0,0.928100639532,0.372329427926
1449618263578748437,211,1449618263519631109,/odom,2.89089894295,5.76522636414,0.708256483078,0.0,0.0,0.927485361885,0.373859470242
1449618263772011667,212,1449618263708390066,/odom,2.87600851059,5.81163597107,0.689238071442,0.0,0.0,0.925767037619,0.378094422146
1449618264049894109,213,1449618263987515934,/odom,2.87530088425,5.78295707703,0.728028416634,0.0,0.0,0.93654890805,0.350536935043
1449618264172496418,214,1449618264113685978,/odom,2.8910908699,5.77454090118,0.728533267975,0.0,0.0,0.930433197652,0.366461546015
1449618264281244928,215,1449618264226261903,/odom,2.87312030792,5.80044269562,0.728089869022,0.0,0.0,0.922218203001,0.38666986701
1449618264411925133,216,1449618264349041843,/odom,2.84492230415,5.80265235901,0.719599604607,0.0,0.0,0.927592084636,0.373594599159
1449618264528100288,217,1449618264447530175,/odom,2.87244939804,5.78305053711,0.737939596176,0.0,0.0,0.932074884255,0.362265662383
1449618264682062008,218,1449618264609757138,/odom,2.8688955307,5.77727890015,0.728555202484,0.0,0.0,0.932786438363,0.360429549851
1449618264773747339,219,1449618264694529450,/odom,2.88339662552,5.78283548355,0.728079617023,0.0,0.0,0.931428642706,0.363924007928
1449618264915950548,220,1449618264837408645,/odom,2.83488798141,5.85151958466,0.697444796562,0.0,0.0,0.908706933459,0.417434676427
1449618265154320941,221,1449618264837408645,/odom,2.83488798141,5.85151958466,0.697444796562,0.0,0.0,0.908706933459,0.417434676427
1449618265290454709,222,1449618265206187729,/odom,2.88415622711,5.77741861343,0.727331280708,0.0,0.0,0.93797998243,0.346689418012
1449618265394562743,223,1449618265341445343,/odom,2.88936805725,5.78952884674,0.737357676029,0.0,0.0,0.933141701129,0.359508783778
1449618265481851582,224,1449618265341445343,/odom,2.88936805725,5.78952884674,0.737357676029,0.0,0.0,0.933141701129,0.359508783778
1449618265573107904,225,1449618265341445343,/odom,2.88936805725,5.78952884674,0.737357676029,0.0,0.0,0.933141701129,0.359508783778
1449618265679434590,226,1449618265341445343,/odom,2.88936805725,5.78952884674,0.737357676029,0.0,0.0,0.933141701129,0.359508783778
1449618265752587900,227,1449618265341445343,/odom,2.88936805725,5.78952884674,0.737357676029,0.0,0.0,0.933141701129,0.359508783778
1449618265862538327,228,1449618265341445343,/odom,2.88936805725,5.78952884674,0.737357676029,0.0,0.0,0.933141701129,0.359508783778
1449618265983430798,229,1449618265341445343,/odom,2.88936805725,5.78952884674,0.737357676029,0.0,0.0,0.933141701129,0.359508783778
1449618266099368510,230,1449618265341445343,/odom,2.88936805725,5.78952884674,0.737357676029,0.0,0.0,0.933141701129,0.359508783778
1449618266204475139,231,1449618265341445343,/odom,2.88936805725,5.78952884674,0.737357676029,0.0,0.0,0.933141701129,0.359508783778
1449618266285203715,232,1449618265341445343,/odom,2.88936805725,5.78952884674,0.737357676029,0.0,0.0,0.933141701129,0.359508783778
1449618266389836013,233,1449618265341445343,/odom,2.88936805725,5.78952884674,0.737357676029,0.0,0.0,0.933141701129,0.359508783778
1449618266575057406,234,1449618265341445343,/odom,2.88936805725,5.78952884674,0.737357676029,0.0,0.0,0.933141701129,0.359508783778
1449618266698799472,235,1449618265341445343,/odom,2.88936805725,5.78952884674,0.737357676029,0.0,0.0,0.933141701129,0.359508783778
1449618266840488590,236,1449618265341445343,/odom,2.88936805725,5.78952884674,0.737357676029,0.0,0.0,0.933141701129,0.359508783778
1449618267052675893,237,1449618265341445343,/odom,2.88936805725,5.78952884674,0.737357676029,0.0,0.0,0.933141701129,0.359508783778
1449618267184917701,238,1449618265341445343,/odom,2.88936805725,5.78952884674,0.737357676029,0.0,0.0,0.933141701129,0.359508783778
1449618267304703183,239,1449618265341445343,/odom,2.88936805725,5.78952884674,0.737357676029,0.0,0.0,0.933141701129,0.359508783778
1449618267497324910,240,1449618265341445343,/odom,2.88936805725,5.78952884674,0.737357676029,0.0,0.0,0.933141701129,0.359508783778
1449618267587527261,241,1449618265341445343,/odom,2.88936805725,5.78952884674,0.737357676029,0.0,0.0,0.933141701129,0.359508783778
1449618267732403098,242,1449618265341445343,/odom,2.88936805725,5.78952884674,0.737357676029,0.0,0.0,0.933141701129,0.359508783778
1449618267836398920,243,1449618265341445343,/odom,2.88936805725,5.78952884674,0.737357676029,0.0,0.0,0.933141701129,0.359508783778
1449618267884995761,244,1449618265341445343,/odom,2.88936805725,5.78952884674,0.737357676029,0.0,0.0,0.933141701129,0.359508783778
1449618267963639248,245,1449618265341445343,/odom,2.88936805725,5.78952884674,0.737357676029,0.0,0.0,0.933141701129,0.359508783778
1449618268105499750,246,1449618265341445343,/odom,2.88936805725,5.78952884674,0.737357676029,0.0,0.0,0.933141701129,0.359508783778
1449618268324699744,247,1449618265341445343,/odom,2.88936805725,5.78952884674,0.737357676029,0.0,0.0,0.933141701129,0.359508783778
1449618268495545448,248,1449618265341445343,/odom,2.88936805725,5.78952884674,0.737357676029,0.0,0.0,0.933141701129,0.359508783778
1449618268594568864,249,1449618265341445343,/odom,2.88936805725,5.78952884674,0.737357676029,0.0,0.0,0.933141701129,0.359508783778
1449618268778987939,250,1449618265341445343,/odom,2.88936805725,5.78952884674,0.737357676029,0.0,0.0,0.933141701129,0.359508783778
1449618268877968811,251,1449618265341445343,/odom,2.88936805725,5.78952884674,0.737357676029,0.0,0.0,0.933141701129,0.359508783778
1449618269083062847,252,1449618265341445343,/odom,2.88936805725,5.78952884674,0.737357676029,0.0,0.0,0.933141701129,0.359508783778
1449618269196107011,253,1449618265341445343,/odom,2.88936805725,5.78952884674,0.737357676029,0.0,0.0,0.933141701129,0.359508783778
1449618269291321716,254,1449618265341445343,/odom,2.88936805725,5.78952884674,0.737357676029,0.0,0.0,0.933141701129,0.359508783778
1449618269523022028,255,1449618265341445343,/odom,2.88936805725,5.78952884674,0.737357676029,0.0,0.0,0.933141701129,0.359508783778
1449618269594967454,256,1449618265341445343,/odom,2.88936805725,5.78952884674,0.737357676029,0.0,0.0,0.933141701129,0.359508783778
1449618269693369562,257,1449618265341445343,/odom,2.88936805725,5.78952884674,0.737357676029,0.0,0.0,0.933141701129,0.359508783778
1449618270617436877,258,1449618265341445343,/odom,2.88936805725,5.78952884674,0.737357676029,0.0,0.0,0.933141701129,0.359508783778
1449618270717228777,259,1449618265341445343,/odom,2.88936805725,5.78952884674,0.737357676029,0.0,0.0,0.933141701129,0.359508783778
1449618270826144038,260,1449618265341445343,/odom,2.88936805725,5.78952884674,0.737357676029,0.0,0.0,0.933141701129,0.359508783778
1449618270957888261,261,1449618265341445343,/odom,2.88936805725,5.78952884674,0.737357676029,0.0,0.0,0.933141701129,0.359508783778
1449618271130366232,262,1449618265341445343,/odom,2.88936805725,5.78952884674,0.737357676029,0.0,0.0,0.933141701129,0.359508783778
1449618271335382679,263,1449618265341445343,/odom,2.88936805725,5.78952884674,0.737357676029,0.0,0.0,0.933141701129,0.359508783778
1449618271438378756,264,1449618265341445343,/odom,2.88936805725,5.78952884674,0.737357676029,0.0,0.0,0.933141701129,0.359508783778
1449618271527949184,265,1449618265341445343,/odom,2.88936805725,5.78952884674,0.737357676029,0.0,0.0,0.933141701129,0.359508783778
1449618271632991014,266,1449618265341445343,/odom,2.88936805725,5.78952884674,0.737357676029,0.0,0.0,0.933141701129,0.359508783778
1449618271776403766,267,1449618265341445343,/odom,2.88936805725,5.78952884674,0.737357676029,0.0,0.0,0.933141701129,0.359508783778
1449618271972597046,268,1449618265341445343,/odom,2.88936805725,5.78952884674,0.737357676029,0.0,0.0,0.933141701129,0.359508783778
1449618272158913998,269,1449618265341445343,/odom,2.88936805725,5.78952884674,0.737357676029,0.0,0.0,0.933141701129,0.359508783778
1449618272322289462,270,1449618265341445343,/odom,2.88936805725,5.78952884674,0.737357676029,0.0,0.0,0.933141701129,0.359508783778
1449618272437886248,271,1449618265341445343,/odom,2.88936805725,5.78952884674,0.737357676029,0.0,0.0,0.933141701129,0.359508783778
1449618272523787736,272,1449618265341445343,/odom,2.88936805725,5.78952884674,0.737357676029,0.0,0.0,0.933141701129,0.359508783778
1449618272628817693,273,1449618265341445343,/odom,2.88936805725,5.78952884674,0.737357676029,0.0,0.0,0.933141701129,0.359508783778
1449618272788279950,274,1449618265341445343,/odom,2.88936805725,5.78952884674,0.737357676029,0.0,0.0,0.933141701129,0.359508783778
1449618272953775839,275,1449618265341445343,/odom,2.88936805725,5.78952884674,0.737357676029,0.0,0.0,0.933141701129,0.359508783778
1449618273068238474,276,1449618265341445343,/odom,2.88936805725,5.78952884674,0.737357676029,0.0,0.0,0.933141701129,0.359508783778
1449618273269777697,277,1449618265341445343,/odom,2.88936805725,5.78952884674,0.737357676029,0.0,0.0,0.933141701129,0.359508783778
1449618273407722275,278,1449618265341445343,/odom,2.88936805725,5.78952884674,0.737357676029,0.0,0.0,0.933141701129,0.359508783778
1449618273550658801,279,1449618265341445343,/odom,2.88936805725,5.78952884674,0.737357676029,0.0,0.0,0.933141701129,0.359508783778
1449618273614333045,280,1449618265341445343,/odom,2.88936805725,5.78952884674,0.737357676029,0.0,0.0,0.933141701129,0.359508783778
1449618273814236120,281,1449618265341445343,/odom,2.88936805725,5.78952884674,0.737357676029,0.0,0.0,0.933141701129,0.359508783778
1449618273935320576,282,1449618265341445343,/odom,2.88936805725,5.78952884674,0.737357676029,0.0,0.0,0.933141701129,0.359508783778
1449618274038266858,283,1449618265341445343,/odom,2.88936805725,5.78952884674,0.737357676029,0.0,0.0,0.933141701129,0.359508783778
1449618274120615669,284,1449618265341445343,/odom,2.88936805725,5.78952884674,0.737357676029,0.0,0.0,0.933141701129,0.359508783778
1449618274237178141,285,1449618265341445343,/odom,2.88936805725,5.78952884674,0.737357676029,0.0,0.0,0.933141701129,0.359508783778
1449618274353618765,286,1449618265341445343,/odom,2.88936805725,5.78952884674,0.737357676029,0.0,0.0,0.933141701129,0.359508783778
1449618274545150934,287,1449618265341445343,/odom,2.88936805725,5.78952884674,0.737357676029,0.0,0.0,0.933141701129,0.359508783778
1449618274630091077,288,1449618265341445343,/odom,2.88936805725,5.78952884674,0.737357676029,0.0,0.0,0.933141701129,0.359508783778
1449618274760441264,289,1449618265341445343,/odom,2.88936805725,5.78952884674,0.737357676029,0.0,0.0,0.933141701129,0.359508783778
1449618274953946067,290,1449618265341445343,/odom,2.88936805725,5.78952884674,0.737357676029,0.0,0.0,0.933141701129,0.359508783778
1449618275046220512,291,1449618265341445343,/odom,2.88936805725,5.78952884674,0.737357676029,0.0,0.0,0.933141701129,0.359508783778
1449618275158490994,292,1449618265341445343,/odom,2.88936805725,5.78952884674,0.737357676029,0.0,0.0,0.933141701129,0.359508783778
1449618275241949606,293,1449618265341445343,/odom,2.88936805725,5.78952884674,0.737357676029,0.0,0.0,0.933141701129,0.359508783778
1449618275321969744,294,1449618265341445343,/odom,2.88936805725,5.78952884674,0.737357676029,0.0,0.0,0.933141701129,0.359508783778
1449618275438571420,295,1449618265341445343,/odom,2.88936805725,5.78952884674,0.737357676029,0.0,0.0,0.933141701129,0.359508783778
1449618275544752778,296,1449618265341445343,/odom,2.88936805725,5.78952884674,0.737357676029,0.0,0.0,0.933141701129,0.359508783778
1449618275732246033,297,1449618265341445343,/odom,2.88936805725,5.78952884674,0.737357676029,0.0,0.0,0.933141701129,0.359508783778
1449618275853733598,298,1449618265341445343,/odom,2.88936805725,5.78952884674,0.737357676029,0.0,0.0,0.933141701129,0.359508783778
1449618275989612129,299,1449618265341445343,/odom,2.88936805725,5.78952884674,0.737357676029,0.0,0.0,0.933141701129,0.359508783778
1449618276136642976,300,1449618265341445343,/odom,2.88936805725,5.78952884674,0.737357676029,0.0,0.0,0.933141701129,0.359508783778
1449618276298031926,301,1449618265341445343,/odom,2.88936805725,5.78952884674,0.737357676029,0.0,0.0,0.933141701129,0.359508783778
1449618276414524562,302,1449618265341445343,/odom,2.88936805725,5.78952884674,0.737357676029,0.0,0.0,0.933141701129,0.359508783778
1449618276534146032,303,1449618265341445343,/odom,2.88936805725,5.78952884674,0.737357676029,0.0,0.0,0.933141701129,0.359508783778
1449618276613081111,304,1449618265341445343,/odom,2.88936805725,5.78952884674,0.737357676029,0.0,0.0,0.933141701129,0.359508783778
1449618276701459796,305,1449618265341445343,/odom,2.88936805725,5.78952884674,0.737357676029,0.0,0.0,0.933141701129,0.359508783778
1449618276797907185,306,1449618265341445343,/odom,2.88936805725,5.78952884674,0.737357676029,0.0,0.0,0.933141701129,0.359508783778
1449618276916741100,307,1449618265341445343,/odom,2.88936805725,5.78952884674,0.737357676029,0.0,0.0,0.933141701129,0.359508783778
1449618277057417405,308,1449618265341445343,/odom,2.88936805725,5.78952884674,0.737357676029,0.0,0.0,0.933141701129,0.359508783778
1449618277223381254,309,1449618277159981509,/odom,2.85714578629,5.82151985168,0.737624466419,0.0,0.0,0.933403042742,0.358829708636
1449618277340386302,310,1449618277267886561,/odom,2.85475754738,5.81871271133,0.737572073936,0.0,0.0,0.931903956221,0.362705136963
1449618277524663127,311,1449618277440549696,/odom,2.87380599976,5.83051919937,0.73766720295,0.0,0.0,0.932494240586,0.361184843638
1449618277667208523,312,1449618277594570656,/odom,2.86173439026,5.81832313538,0.737592816353,0.0,0.0,0.932090899481,0.362224454041
1449618277806022445,313,1449618277749585366,/odom,2.86018705368,5.81041431427,0.727481365204,0.0,0.0,0.931757811551,0.363080405163
1449618277903717377,314,1449618277839088497,/odom,2.87320423126,5.81926822662,0.727486670017,0.0,0.0,0.932346746598,0.361565407787
1449618278019462552,315,1449618277960194732,/odom,2.85871505737,5.81173706055,0.727590680122,0.0,0.0,0.932241456437,0.361836795945
1449618278125456533,316,1449618278042724752,/odom,2.8704419136,5.8214302063,0.727696835995,0.0,0.0,0.932007309324,0.362439478211
1449618278203455156,317,1449618278140815778,/odom,2.85246086121,5.81334590912,0.727918803692,0.0,0.0,0.929377862234,0.369129772829
1449618278301848067,318,1449618278237296994,/odom,2.86803388596,5.82405948639,0.727927803993,0.0,0.0,0.932059990599,0.362303980002
1449618278428787008,319,1449618278360731305,/odom,2.86423206329,5.82824611664,0.727976083755,0.0,0.0,0.930840485239,0.365425766799
1449618278496858302,320,1449618278440956623,/odom,2.86527109146,5.83184671402,0.718192517757,0.0,0.0,0.930801610429,0.36552477621
1449618278587687348,321,1449618278534433813,/odom,2.86396312714,5.83345890045,0.728244125843,0.0,0.0,0.929316149795,0.36928511171
1449618278744479679,322,1449618278685535060,/odom,2.84578824043,5.81468200684,0.728462219238,0.0,0.0,0.930182718579,0.367096867403
1449618278860106372,323,1449618278806825955,/odom,2.8533782959,5.8367061615,0.718529284,0.0,0.0,0.929579222174,0.368622394466
1449618279001329279,324,1449618278941988882,/odom,2.83270931244,5.8159570694,0.728713095188,0.0,0.0,0.929935360231,0.36772302864
1449618279157702633,325,1449618279089074638,/odom,2.8373169899,5.82273817062,0.718869924545,0.0,0.0,0.929268004431,0.369406247836
1449618279311869690,326,1449618279250574902,/odom,2.82224178314,5.81389951706,0.719052314758,0.0,0.0,0.930527757159,0.366221371792
1449618279419846404,327,1449618279357963786,/odom,2.82885122299,5.82453918457,0.728980839252,0.0,0.0,0.929298277159,0.36933008552
1449618279533118823,328,1449618279469385001,/odom,2.80991125107,5.83639240265,0.728812038898,0.0,0.0,0.93434093442,0.356380440355
1449618279650516090,329,1449618279571646125,/odom,2.82591176033,5.8124370575,0.7189270854,0.0,0.0,0.930587655806,0.366069139456
1449618279853917188,330,1449618279571646125,/odom,2.82591176033,5.8124370575,0.7189270854,0.0,0.0,0.930587655806,0.366069139456
1449618280068679454,331,1449618279571646125,/odom,2.82591176033,5.8124370575,0.7189270854,0.0,0.0,0.930587655806,0.366069139456
1449618280271754697,332,1449618279571646125,/odom,2.82591176033,5.8124370575,0.7189270854,0.0,0.0,0.930587655806,0.366069139456
1449618280801837161,333,1449618279571646125,/odom,2.82591176033,5.8124370575,0.7189270854,0.0,0.0,0.930587655806,0.366069139456
1449618281113563473,334,1449618279571646125,/odom,2.82591176033,5.8124370575,0.7189270854,0.0,0.0,0.930587655806,0.366069139456
1449618281444027499,335,1449618279571646125,/odom,2.82591176033,5.8124370575,0.7189270854,0.0,0.0,0.930587655806,0.366069139456
1449618281774194010,336,1449618279571646125,/odom,2.82591176033,5.8124370575,0.7189270854,0.0,0.0,0.930587655806,0.366069139456
1449618282013441054,337,1449618279571646125,/odom,2.82591176033,5.8124370575,0.7189270854,0.0,0.0,0.930587655806,0.366069139456
1449618282509636936,338,1449618279571646125,/odom,2.82591176033,5.8124370575,0.7189270854,0.0,0.0,0.930587655806,0.366069139456
1449618282814840852,339,1449618279571646125,/odom,2.82591176033,5.8124370575,0.7189270854,0.0,0.0,0.930587655806,0.366069139456
1449618283074077202,340,1449618279571646125,/odom,2.82591176033,5.8124370575,0.7189270854,0.0,0.0,0.930587655806,0.366069139456
1449618283379843795,341,1449618279571646125,/odom,2.82591176033,5.8124370575,0.7189270854,0.0,0.0,0.930587655806,0.366069139456
1449618283658641107,342,1449618279571646125,/odom,2.82591176033,5.8124370575,0.7189270854,0.0,0.0,0.930587655806,0.366069139456
1449618284040664359,343,1449618279571646125,/odom,2.82591176033,5.8124370575,0.7189270854,0.0,0.0,0.930587655806,0.366069139456
1449618284399343841,344,1449618279571646125,/odom,2.82591176033,5.8124370575,0.7189270854,0.0,0.0,0.930587655806,0.366069139456
1449618284645191780,345,1449618279571646125,/odom,2.82591176033,5.8124370575,0.7189270854,0.0,0.0,0.930587655806,0.366069139456
1449618284998122532,346,1449618279571646125,/odom,2.82591176033,5.8124370575,0.7189270854,0.0,0.0,0.930587655806,0.366069139456
1449618285389629223,347,1449618279571646125,/odom,2.82591176033,5.8124370575,0.7189270854,0.0,0.0,0.930587655806,0.366069139456
1449618285627057923,348,1449618279571646125,/odom,2.82591176033,5.8124370575,0.7189270854,0.0,0.0,0.930587655806,0.366069139456
1449618285814062311,349,1449618279571646125,/odom,2.82591176033,5.8124370575,0.7189270854,0.0,0.0,0.930587655806,0.366069139456
1449618286157738536,350,1449618279571646125,/odom,2.82591176033,5.8124370575,0.7189270854,0.0,0.0,0.930587655806,0.366069139456
1449618286314427685,351,1449618279571646125,/odom,2.82591176033,5.8124370575,0.7189270854,0.0,0.0,0.930587655806,0.366069139456
1449618286823853839,352,1449618279571646125,/odom,2.82591176033,5.8124370575,0.7189270854,0.0,0.0,0.930587655806,0.366069139456
1449618287069967224,353,1449618279571646125,/odom,2.82591176033,5.8124370575,0.7189270854,0.0,0.0,0.930587655806,0.366069139456
1449618287401281680,354,1449618279571646125,/odom,2.82591176033,5.8124370575,0.7189270854,0.0,0.0,0.930587655806,0.366069139456
1449618287752994759,355,1449618279571646125,/odom,2.82591176033,5.8124370575,0.7189270854,0.0,0.0,0.930587655806,0.366069139456
1449618287993962109,356,1449618279571646125,/odom,2.82591176033,5.8124370575,0.7189270854,0.0,0.0,0.930587655806,0.366069139456
1449618288188231010,357,1449618279571646125,/odom,2.82591176033,5.8124370575,0.7189270854,0.0,0.0,0.930587655806,0.366069139456
1449618288405746281,358,1449618279571646125,/odom,2.82591176033,5.8124370575,0.7189270854,0.0,0.0,0.930587655806,0.366069139456
1449618288611541976,359,1449618279571646125,/odom,2.82591176033,5.8124370575,0.7189270854,0.0,0.0,0.930587655806,0.366069139456
1449618288866252196,360,1449618279571646125,/odom,2.82591176033,5.8124370575,0.7189270854,0.0,0.0,0.930587655806,0.366069139456
1449618289110262608,361,1449618279571646125,/odom,2.82591176033,5.8124370575,0.7189270854,0.0,0.0,0.930587655806,0.366069139456
1449618289381643160,362,1449618279571646125,/odom,2.82591176033,5.8124370575,0.7189270854,0.0,0.0,0.930587655806,0.366069139456
1449618289582742016,363,1449618279571646125,/odom,2.82591176033,5.8124370575,0.7189270854,0.0,0.0,0.930587655806,0.366069139456
1449618289775882463,364,1449618279571646125,/odom,2.82591176033,5.8124370575,0.7189270854,0.0,0.0,0.930587655806,0.366069139456
1449618289848381663,365,1449618279571646125,/odom,2.82591176033,5.8124370575,0.7189270854,0.0,0.0,0.930587655806,0.366069139456
1449618290000487924,366,1449618279571646125,/odom,2.82591176033,5.8124370575,0.7189270854,0.0,0.0,0.930587655806,0.366069139456
1449618290173664494,367,1449618279571646125,/odom,2.82591176033,5.8124370575,0.7189270854,0.0,0.0,0.930587655806,0.366069139456
1449618290414031879,368,1449618279571646125,/odom,2.82591176033,5.8124370575,0.7189270854,0.0,0.0,0.930587655806,0.366069139456
1449618290549608306,369,1449618279571646125,/odom,2.82591176033,5.8124370575,0.7189270854,0.0,0.0,0.930587655806,0.366069139456
1449618290686866474,370,1449618279571646125,/odom,2.82591176033,5.8124370575,0.7189270854,0.0,0.0,0.930587655806,0.366069139456
1449618290880183972,371,1449618279571646125,/odom,2.82591176033,5.8124370575,0.7189270854,0.0,0.0,0.930587655806,0.366069139456
1449618291051574846,372,1449618279571646125,/odom,2.82591176033,5.8124370575,0.7189270854,0.0,0.0,0.930587655806,0.366069139456
1449618291282085007,373,1449618279571646125,/odom,2.82591176033,5.8124370575,0.7189270854,0.0,0.0,0.930587655806,0.366069139456
1449618291479645753,374,1449618279571646125,/odom,2.82591176033,5.8124370575,0.7189270854,0.0,0.0,0.930587655806,0.366069139456
1449618291679228469,375,1449618279571646125,/odom,2.82591176033,5.8124370575,0.7189270854,0.0,0.0,0.930587655806,0.366069139456
1449618291843669708,376,1449618280015636621,/odom,2.39589238167,4.74013757706,0.658594191074,0.0,0.0,-0.932726769252,0.360583934641
1449618292073496173,377,1449618280015636621,/odom,2.39589238167,4.74013757706,0.658594191074,0.0,0.0,-0.932726769252,0.360583934641
1449618292277627724,378,1449618280015636621,/odom,2.39589238167,4.74013757706,0.658594191074,0.0,0.0,-0.932726769252,0.360583934641
1449618292474849965,379,1449618280015636621,/odom,2.39589238167,4.74013757706,0.658594191074,0.0,0.0,-0.932726769252,0.360583934641
1449618292702689640,380,1449618280015636621,/odom,2.39589238167,4.74013757706,0.658594191074,0.0,0.0,-0.932726769252,0.360583934641
1449618292854591292,381,1449618280015636621,/odom,2.39589238167,4.74013757706,0.658594191074,0.0,0.0,-0.932726769252,0.360583934641
1449618292988235774,382,1449618285573358173,/odom,2.60023021698,3.77637910843,0.909954667091,0.0,0.0,0.999998780512,0.00156172134883
1449618293173318781,383,1449618285573358173,/odom,2.60023021698,3.77637910843,0.909954667091,0.0,0.0,0.999998780512,0.00156172134883
1449618293388630066,384,1449618285573358173,/odom,2.60023021698,3.77637910843,0.909954667091,0.0,0.0,0.999998780512,0.00156172134883
1449618293605022573,385,1449618285573358173,/odom,2.60023021698,3.77637910843,0.909954667091,0.0,0.0,0.999998780512,0.00156172134883
1449618293774335050,386,1449618285573358173,/odom,2.60023021698,3.77637910843,0.909954667091,0.0,0.0,0.999998780512,0.00156172134883
1449618294017479516,387,1449618285573358173,/odom,2.60023021698,3.77637910843,0.909954667091,0.0,0.0,0.999998780512,0.00156172134883
1449618294184552436,388,1449618285573358173,/odom,2.60023021698,3.77637910843,0.909954667091,0.0,0.0,0.999998780512,0.00156172134883
1449618294377726231,389,1449618285573358173,/odom,2.60023021698,3.77637910843,0.909954667091,0.0,0.0,0.999998780512,0.00156172134883
1449618294576833103,390,1449618285573358173,/odom,2.60023021698,3.77637910843,0.909954667091,0.0,0.0,0.999998780512,0.00156172134883
1449618294794342854,391,1449618285573358173,/odom,2.60023021698,3.77637910843,0.909954667091,0.0,0.0,0.999998780512,0.00156172134883
1449618294997156706,392,1449618285573358173,/odom,2.60023021698,3.77637910843,0.909954667091,0.0,0.0,0.999998780512,0.00156172134883
1449618295843732227,393,1449618295771806207,/odom,3.43332242966,-0.482920348644,0.729438364506,0.0,0.0,-0.917717499322,0.397233673594
1449618295969204601,394,1449618295879546960,/odom,3.44230651855,-0.515771627426,0.709785759449,0.0,0.0,-0.913366592784,0.407138142633
1449618296203571195,395,1449618296120582567,/odom,3.41364574432,-0.495414167643,0.739408195019,0.0,0.0,-0.916610182319,0.399782157768
1449618296365302219,396,1449618296291030374,/odom,3.45105648041,-0.496813118458,0.719118058681,0.0,0.0,-0.915558561178,0.402184685255
1449618296480816035,397,1449618296403802927,/odom,3.46034812927,-0.484280645847,0.729013442993,0.0,0.0,-0.91680666562,0.3993313635
1449618296684276260,398,1449618296578810398,/odom,3.46114397049,-0.488147288561,0.68928194046,0.0,0.0,-0.917271067348,0.398263466825
1449618296898098805,399,1449618296805290367,/odom,3.43157672882,-0.478420913219,0.699027597904,0.0,0.0,-0.917932347102,0.396736948297
1449618297082757632,400,1449618296991170483,/odom,3.44959616661,-0.476734936237,0.718770802021,0.0,0.0,-0.917795917575,0.397052457091
1449618297260599648,401,1449618297179057265,/odom,3.4210190773,-0.482335180044,0.669205129147,0.0,0.0,-0.919610858379,0.392830585814
1449618297488366489,402,1449618297406480532,/odom,3.48437786102,-0.509363651276,0.649295389652,0.0,0.0,-0.915475886494,0.402372838606
1449618297800935944,403,1449618297701915227,/odom,3.43535161018,-0.49152225256,0.698705077171,0.0,0.0,-0.920963714086,0.389648350871
1449618298059871271,404,1449618297961982571,/odom,3.42885708809,-0.488997668028,0.66852581501,0.0,0.0,-0.920025846431,0.391857680669
1449618298489495046,405,1449618298360900516,/odom,3.42861151695,-0.487134069204,0.688460111618,0.0,0.0,-0.92008697513,0.391714128155
1449618298888848438,406,1449618298360900516,/odom,3.42861151695,-0.487134069204,0.688460111618,0.0,0.0,-0.92008697513,0.391714128155
1449618299412946302,407,1449618298360900516,/odom,3.42861151695,-0.487134069204,0.688460111618,0.0,0.0,-0.92008697513,0.391714128155
1449618299757900400,408,1449618298360900516,/odom,3.42861151695,-0.487134069204,0.688460111618,0.0,0.0,-0.92008697513,0.391714128155
1449618299944147298,409,1449618298360900516,/odom,3.42861151695,-0.487134069204,0.688460111618,0.0,0.0,-0.92008697513,0.391714128155
1449618300325452299,410,1449618298360900516,/odom,3.42861151695,-0.487134069204,0.688460111618,0.0,0.0,-0.92008697513,0.391714128155
1449618300536923571,411,1449618298360900516,/odom,3.42861151695,-0.487134069204,0.688460111618,0.0,0.0,-0.92008697513,0.391714128155
1449618300785275034,412,1449618298360900516,/odom,3.42861151695,-0.487134069204,0.688460111618,0.0,0.0,-0.92008697513,0.391714128155
1449618301059647128,413,1449618298360900516,/odom,3.42861151695,-0.487134069204,0.688460111618,0.0,0.0,-0.92008697513,0.391714128155
1449618301310991921,414,1449618298360900516,/odom,3.42861151695,-0.487134069204,0.688460111618,0.0,0.0,-0.92008697513,0.391714128155
1449618301634231507,415,1449618298360900516,/odom,3.42861151695,-0.487134069204,0.688460111618,0.0,0.0,-0.92008697513,0.391714128155
1449618301921698799,416,1449618298360900516,/odom,3.42861151695,-0.487134069204,0.688460111618,0.0,0.0,-0.92008697513,0.391714128155
1449618302198930416,417,1449618298360900516,/odom,3.42861151695,-0.487134069204,0.688460111618,0.0,0.0,-0.92008697513,0.391714128155
1449618302509460415,418,1449618298360900516,/odom,3.42861151695,-0.487134069204,0.688460111618,0.0,0.0,-0.92008697513,0.391714128155
1449618302728691144,419,1449618298360900516,/odom,3.42861151695,-0.487134069204,0.688460111618,0.0,0.0,-0.92008697513,0.391714128155
1449618302977821667,420,1449618298360900516,/odom,3.42861151695,-0.487134069204,0.688460111618,0.0,0.0,-0.92008697513,0.391714128155
1449618303363193119,421,1449618298360900516,/odom,3.42861151695,-0.487134069204,0.688460111618,0.0,0.0,-0.92008697513,0.391714128155
1449618303796995819,422,1449618298360900516,/odom,3.42861151695,-0.487134069204,0.688460111618,0.0,0.0,-0.92008697513,0.391714128155
1449618304150179950,423,1449618298360900516,/odom,3.42861151695,-0.487134069204,0.688460111618,0.0,0.0,-0.92008697513,0.391714128155
1449618304465002214,424,1449618298360900516,/odom,3.42861151695,-0.487134069204,0.688460111618,0.0,0.0,-0.92008697513,0.391714128155
1449618304664083452,425,1449618298360900516,/odom,3.42861151695,-0.487134069204,0.688460111618,0.0,0.0,-0.92008697513,0.391714128155
1449618304909320712,426,1449618298360900516,/odom,3.42861151695,-0.487134069204,0.688460111618,0.0,0.0,-0.92008697513,0.391714128155
1449618305065289291,427,1449618298360900516,/odom,3.42861151695,-0.487134069204,0.688460111618,0.0,0.0,-0.92008697513,0.391714128155
1449618305229436242,428,1449618298360900516,/odom,3.42861151695,-0.487134069204,0.688460111618,0.0,0.0,-0.92008697513,0.391714128155
1449618305473994194,429,1449618298360900516,/odom,3.42861151695,-0.487134069204,0.688460111618,0.0,0.0,-0.92008697513,0.391714128155
1449618305663161515,430,1449618298360900516,/odom,3.42861151695,-0.487134069204,0.688460111618,0.0,0.0,-0.92008697513,0.391714128155
1449618305876186869,431,1449618298360900516,/odom,3.42861151695,-0.487134069204,0.688460111618,0.0,0.0,-0.92008697513,0.391714128155
1449618306194877937,432,1449618298360900516,/odom,3.42861151695,-0.487134069204,0.688460111618,0.0,0.0,-0.92008697513,0.391714128155
1449618306509748719,433,1449618298360900516,/odom,3.42861151695,-0.487134069204,0.688460111618,0.0,0.0,-0.92008697513,0.391714128155
1449618306855714129,434,1449618298360900516,/odom,3.42861151695,-0.487134069204,0.688460111618,0.0,0.0,-0.92008697513,0.391714128155
1449618307161432684,435,1449618298360900516,/odom,3.42861151695,-0.487134069204,0.688460111618,0.0,0.0,-0.92008697513,0.391714128155
1449618307455816597,436,1449618298360900516,/odom,3.42861151695,-0.487134069204,0.688460111618,0.0,0.0,-0.92008697513,0.391714128155
1449618307716598385,437,1449618298360900516,/odom,3.42861151695,-0.487134069204,0.688460111618,0.0,0.0,-0.92008697513,0.391714128155
1449618308053062064,438,1449618298360900516,/odom,3.42861151695,-0.487134069204,0.688460111618,0.0,0.0,-0.92008697513,0.391714128155
1449618308312967781,439,1449618298360900516,/odom,3.42861151695,-0.487134069204,0.688460111618,0.0,0.0,-0.92008697513,0.391714128155
1449618308504091312,440,1449618298360900516,/odom,3.42861151695,-0.487134069204,0.688460111618,0.0,0.0,-0.92008697513,0.391714128155
1449618308759627724,441,1449618298360900516,/odom,3.42861151695,-0.487134069204,0.688460111618,0.0,0.0,-0.92008697513,0.391714128155
1449618309035293198,442,1449618298360900516,/odom,3.42861151695,-0.487134069204,0.688460111618,0.0,0.0,-0.92008697513,0.391714128155
1449618309278800256,443,1449618298360900516,/odom,3.42861151695,-0.487134069204,0.688460111618,0.0,0.0,-0.92008697513,0.391714128155
1449618309641820089,444,1449618298360900516,/odom,3.42861151695,-0.487134069204,0.688460111618,0.0,0.0,-0.92008697513,0.391714128155
1449618310064111575,445,1449618298360900516,/odom,3.42861151695,-0.487134069204,0.688460111618,0.0,0.0,-0.92008697513,0.391714128155
1449618310823850061,446,1449618300458137195,/odom,2.44261145592,-0.287253081799,0.639082431793,0.0,0.0,-0.364226093997,0.931310556394
1449618311003904096,447,1449618300458137195,/odom,2.44261145592,-0.287253081799,0.639082431793,0.0,0.0,-0.364226093997,0.931310556394
1449618311237868599,448,1449618300458137195,/odom,2.44261145592,-0.287253081799,0.639082431793,0.0,0.0,-0.364226093997,0.931310556394
1449618311380158126,449,1449618300458137195,/odom,2.44261145592,-0.287253081799,0.639082431793,0.0,0.0,-0.364226093997,0.931310556394
1449618333164399563,450,1449618333111097350,/odom,2.46467995644,0.490472018719,0.697774887085,0.0,0.0,0.420312126909,0.907379587589
1449618333333143588,451,1449618333280218217,/odom,2.48620653152,0.498665332794,0.727986872196,0.0,0.0,0.427589219239,0.90397315203
1449618333461047438,452,1449618333409840534,/odom,2.47589349747,0.487168222666,0.688579618931,0.0,0.0,0.413441399016,0.910530729618
1449618333596161311,453,1449618333541155751,/odom,2.48324942589,0.475437402725,0.738742649555,0.0,0.0,0.416036150332,0.909348075061
1449618333820532497,454,1449618333541155751,/odom,2.48324942589,0.475437402725,0.738742649555,0.0,0.0,0.416036150332,0.909348075061
1449618334036663837,455,1449618333984718406,/odom,2.5028295517,0.497338950634,0.747886300087,0.0,0.0,0.436952501953,0.899484580767
1449618334370770021,456,1449618334320402698,/odom,2.47288227081,0.490180373192,0.728574633598,0.0,0.0,0.415904023742,0.909408512735
