%time,field.header.seq,field.header.stamp,field.header.frame_id,field.polygon.points0.x,field.polygon.points0.y,field.polygon.points0.z,field.polygon.points1.x,field.polygon.points1.y,field.polygon.points1.z,field.polygon.points2.x,field.polygon.points2.y,field.polygon.points2.z,field.polygon.points3.x,field.polygon.points3.y,field.polygon.points3.z,field.polygon.points4.x,field.polygon.points4.y,field.polygon.points4.z
1449618215104014926,1,1449618215103836134,odom,0.569999992847,0.0,0.0,0.469999998808,-0.305000007153,0.0,-0.730000019073,-0.305000007153,0.0,-0.730000019073,0.305000007153,0.0,0.469999998808,0.305000007153,0.0
1449618215304078136,2,1449618215303895151,odom,0.569999992847,0.0,0.0,0.469999998808,-0.305000007153,0.0,-0.730000019073,-0.305000007153,0.0,-0.730000019073,0.305000007153,0.0,0.469999998808,0.305000007153,0.0
1449618215504042135,3,1449618215503850672,odom,0.569999992847,0.0,0.0,0.469999998808,-0.305000007153,0.0,-0.730000019073,-0.305000007153,0.0,-0.730000019073,0.305000007153,0.0,0.469999998808,0.305000007153,0.0
1449618215704882161,4,1449618215703981629,odom,0.569999992847,0.0,0.0,0.469999998808,-0.305000007153,0.0,-0.730000019073,-0.305000007153,0.0,-0.730000019073,0.305000007153,0.0,0.469999998808,0.305000007153,0.0
1449618215906713913,5,1449618215904502902,odom,0.569999992847,0.0,0.0,0.469999998808,-0.305000007153,0.0,-0.730000019073,-0.305000007153,0.0,-0.730000019073,0.305000007153,0.0,0.469999998808,0.305000007153,0.0
1449618216105544462,6,1449618216104001951,odom,0.569999992847,0.0,0.0,0.469999998808,-0.305000007153,0.0,-0.730000019073,-0.305000007153,0.0,-0.730000019073,0.305000007153,0.0,0.469999998808,0.305000007153,0.0
1449618216304478670,7,1449618216303998833,odom,0.569999992847,0.0,0.0,0.469999998808,-0.305000007153,0.0,-0.730000019073,-0.305000007153,0.0,-0.730000019073,0.305000007153,0.0,0.469999998808,0.305000007153,0.0
1449618216504717989,8,1449618216504159105,odom,0.569999992847,0.0,0.0,0.469999998808,-0.305000007153,0.0,-0.730000019073,-0.305000007153,0.0,-0.730000019073,0.305000007153,0.0,0.469999998808,0.305000007153,0.0
1449618216704745889,9,1449618216704432527,odom,0.569999992847,0.0,0.0,0.469999998808,-0.305000007153,0.0,-0.730000019073,-0.305000007153,0.0,-0.730000019073,0.305000007153,0.0,0.469999998808,0.305000007153,0.0
1449618216904436915,10,1449618216904040932,odom,0.569999992847,0.0,0.0,0.469999998808,-0.305000007153,0.0,-0.730000019073,-0.305000007153,0.0,-0.730000019073,0.305000007153,0.0,0.469999998808,0.305000007153,0.0
1449618217253837101,11,1449618217251541424,odom,0.569999992847,0.0,0.0,0.469999998808,-0.305000007153,0.0,-0.730000019073,-0.305000007153,0.0,-0.730000019073,0.305000007153,0.0,0.469999998808,0.305000007153,0.0
1449618217463982901,12,1449618217463176800,odom,0.569999992847,0.0,0.0,0.469999998808,-0.305000007153,0.0,-0.730000019073,-0.305000007153,0.0,-0.730000019073,0.305000007153,0.0,0.469999998808,0.305000007153,0.0
1449618217677538606,13,1449618217677165246,odom,0.569999992847,0.0,0.0,0.469999998808,-0.305000007153,0.0,-0.730000019073,-0.305000007153,0.0,-0.730000019073,0.305000007153,0.0,0.469999998808,0.305000007153,0.0
1449618217891387555,14,1449618217875504301,odom,0.569999992847,0.0,0.0,0.469999998808,-0.305000007153,0.0,-0.730000019073,-0.305000007153,0.0,-0.730000019073,0.305000007153,0.0,0.469999998808,0.305000007153,0.0
1449618218021846552,15,1449618218021310954,odom,0.569999992847,0.0,0.0,0.469999998808,-0.305000007153,0.0,-0.730000019073,-0.305000007153,0.0,-0.730000019073,0.305000007153,0.0,0.469999998808,0.305000007153,0.0
1449618218211956199,16,1449618218211760915,odom,0.569999992847,0.0,0.0,0.469999998808,-0.305000007153,0.0,-0.730000019073,-0.305000007153,0.0,-0.730000019073,0.305000007153,0.0,0.469999998808,0.305000007153,0.0
1449618218387571609,17,1449618218386416094,odom,0.569999992847,0.0,0.0,0.469999998808,-0.305000007153,0.0,-0.730000019073,-0.305000007153,0.0,-0.730000019073,0.305000007153,0.0,0.469999998808,0.305000007153,0.0
1449618218619078989,18,1449618218614119522,odom,0.569999992847,0.0,0.0,0.469999998808,-0.305000007153,0.0,-0.730000019073,-0.305000007153,0.0,-0.730000019073,0.305000007153,0.0,0.469999998808,0.305000007153,0.0
1449618218813791213,19,1449618218813609072,odom,0.569999992847,0.0,0.0,0.469999998808,-0.305000007153,0.0,-0.730000019073,-0.305000007153,0.0,-0.730000019073,0.305000007153,0.0,0.469999998808,0.305000007153,0.0
1449618219000904760,20,1449618219000680489,odom,0.569999992847,0.0,0.0,0.469999998808,-0.305000007153,0.0,-0.730000019073,-0.305000007153,0.0,-0.730000019073,0.305000007153,0.0,0.469999998808,0.305000007153,0.0
1449618219221881902,21,1449618219220387423,odom,0.569999992847,0.0,0.0,0.469999998808,-0.305000007153,0.0,-0.730000019073,-0.305000007153,0.0,-0.730000019073,0.305000007153,0.0,0.469999998808,0.305000007153,0.0
1449618219440173092,22,1449618219437856628,odom,0.569999992847,0.0,0.0,0.469999998808,-0.305000007153,0.0,-0.730000019073,-0.305000007153,0.0,-0.730000019073,0.305000007153,0.0,0.469999998808,0.305000007153,0.0
1449618219617659159,23,1449618219616982244,odom,0.569999992847,0.0,0.0,0.469999998808,-0.305000007153,0.0,-0.730000019073,-0.305000007153,0.0,-0.730000019073,0.305000007153,0.0,0.469999998808,0.305000007153,0.0
1449618219828446211,24,1449618219824636961,odom,0.569999992847,0.0,0.0,0.469999998808,-0.305000007153,0.0,-0.730000019073,-0.305000007153,0.0,-0.730000019073,0.305000007153,0.0,0.469999998808,0.305000007153,0.0
1449618220005633446,25,1449618220001963599,odom,0.569999992847,0.0,0.0,0.469999998808,-0.305000007153,0.0,-0.730000019073,-0.305000007153,0.0,-0.730000019073,0.305000007153,0.0,0.469999998808,0.305000007153,0.0
1449618220218617310,26,1449618220218371482,odom,0.569999992847,0.0,0.0,0.469999998808,-0.305000007153,0.0,-0.730000019073,-0.305000007153,0.0,-0.730000019073,0.305000007153,0.0,0.469999998808,0.305000007153,0.0
1449618220447278654,27,1449618220447016766,odom,0.569999992847,0.0,0.0,0.469999998808,-0.305000007153,0.0,-0.730000019073,-0.305000007153,0.0,-0.730000019073,0.305000007153,0.0,0.469999998808,0.305000007153,0.0
1449618220628301439,28,1449618220625597937,odom,0.569999992847,0.0,0.0,0.469999998808,-0.305000007153,0.0,-0.730000019073,-0.305000007153,0.0,-0.730000019073,0.305000007153,0.0,0.469999998808,0.305000007153,0.0
1449618220796500436,29,1449618220796374290,odom,0.569999992847,0.0,0.0,0.469999998808,-0.305000007153,0.0,-0.730000019073,-0.305000007153,0.0,-0.730000019073,0.305000007153,0.0,0.469999998808,0.305000007153,0.0
1449618221073091313,30,1449618221072688334,odom,0.569999992847,0.0,0.0,0.469999998808,-0.305000007153,0.0,-0.730000019073,-0.305000007153,0.0,-0.730000019073,0.305000007153,0.0,0.469999998808,0.305000007153,0.0
1449618221184623305,31,1449618221184319198,odom,0.569999992847,0.0,0.0,0.469999998808,-0.305000007153,0.0,-0.730000019073,-0.305000007153,0.0,-0.730000019073,0.305000007153,0.0,0.469999998808,0.305000007153,0.0
1449618221410910972,32,1449618221410277887,odom,0.569999992847,0.0,0.0,0.469999998808,-0.305000007153,0.0,-0.730000019073,-0.305000007153,0.0,-0.730000019073,0.305000007153,0.0,0.469999998808,0.305000007153,0.0
1449618221589040186,33,1449618221588303929,odom,0.569999992847,0.0,0.0,0.469999998808,-0.305000007153,0.0,-0.730000019073,-0.305000007153,0.0,-0.730000019073,0.305000007153,0.0,0.469999998808,0.305000007153,0.0
1449618221847053977,34,1449618221846905075,odom,0.569999992847,0.0,0.0,0.469999998808,-0.305000007153,0.0,-0.730000019073,-0.305000007153,0.0,-0.730000019073,0.305000007153,0.0,0.469999998808,0.305000007153,0.0
1449618222012649155,35,1449618222011703314,odom,0.569999992847,0.0,0.0,0.469999998808,-0.305000007153,0.0,-0.730000019073,-0.305000007153,0.0,-0.730000019073,0.305000007153,0.0,0.469999998808,0.305000007153,0.0
1449618222239655673,36,1449618222239068317,odom,0.569999992847,0.0,0.0,0.469999998808,-0.305000007153,0.0,-0.730000019073,-0.305000007153,0.0,-0.730000019073,0.305000007153,0.0,0.469999998808,0.305000007153,0.0
1449618222417228859,37,1449618222416740959,odom,0.567088544369,0.00599324237555,0.0,0.470317304134,-0.300046503544,0.0,-0.729615688324,-0.312727928162,0.0,-0.73606210947,0.297238022089,0.0,0.46387091279,0.309919446707,0.0
1449618222607664349,38,1449618222598581585,odom,0.570000171661,-3.04332297674e-05,0.0,0.47000014782,-0.305030435324,0.0,-0.72999984026,-0.305030435324,0.0,-0.72999984026,0.304969578981,0.0,0.47000014782,0.304969578981,0.0
1449618222846109735,39,1449618222844546179,odom,0.570000171661,-3.04332297674e-05,0.0,0.47000014782,-0.305030435324,0.0,-0.72999984026,-0.305030435324,0.0,-0.72999984026,0.304969578981,0.0,0.47000014782,0.304969578981,0.0
1449618223026421134,40,1449618223025125272,odom,0.567088663578,0.00596280908212,0.0,0.470317482948,-0.300076961517,0.0,-0.72961550951,-0.312758386135,0.0,-0.736061930656,0.297207564116,0.0,0.463871091604,0.309888988733,0.0
1449618223311828223,41,1449618223309317505,odom,0.570000290871,-6.08664595347e-05,0.0,0.470000326633,-0.305060863495,0.0,-0.72999972105,-0.305060863495,0.0,-0.72999972105,0.30493915081,0.0,0.470000326633,0.30493915081,0.0
1449618223434009331,42,1449618223433583314,odom,0.570000290871,-6.08664595347e-05,0.0,0.470000326633,-0.305060863495,0.0,-0.72999972105,-0.305060863495,0.0,-0.72999972105,0.30493915081,0.0,0.470000326633,0.30493915081,0.0
1449618223649733550,43,1449618223644126998,odom,0.570000290871,-6.08664595347e-05,0.0,0.470000326633,-0.305060863495,0.0,-0.72999972105,-0.305060863495,0.0,-0.72999972105,0.30493915081,0.0,0.470000326633,0.30493915081,0.0
1449618223886155793,44,1449618223879473868,odom,0.570000290871,-6.08664595347e-05,0.0,0.470000326633,-0.305060863495,0.0,-0.72999972105,-0.305060863495,0.0,-0.72999972105,0.30493915081,0.0,0.470000326633,0.30493915081,0.0
1449618224044453859,45,1449618224041942735,odom,0.570000290871,-6.08664595347e-05,0.0,0.470000326633,-0.305060863495,0.0,-0.72999972105,-0.305060863495,0.0,-0.72999972105,0.30493915081,0.0,0.470000326633,0.30493915081,0.0
1449618224330236021,46,1449618224321253427,odom,0.572848141193,-0.00611497508362,0.0,0.469630509615,-0.310041159391,0.0,-0.730302512646,-0.297359734774,0.0,-0.723856091499,0.312606215477,0.0,0.476076900959,0.299924790859,0.0
1449618224564543948,47,1449618224563847659,odom,0.578607559204,-0.00614540837705,0.0,0.475389927626,-0.310071587563,0.0,-0.724543094635,-0.297390162945,0.0,-0.718096673489,0.312575787306,0.0,0.48183631897,0.299894362688,0.0
1449618224676466728,48,1449618224662455596,odom,0.592908263206,-0.0124422963709,0.0,0.486484616995,-0.315260738134,0.0,-0.713247358799,-0.289899289608,0.0,-0.700355350971,0.319964468479,0.0,0.499376654625,0.294603049755,0.0
1449618224847512221,49,1449618224843508397,odom,0.601384222507,-0.0187378115952,0.0,0.491766303778,-0.320414662361,0.0,-0.707630634308,-0.282376050949,0.0,-0.688294351101,0.327317416668,0.0,0.511102616787,0.289278805256,0.0
1449618225053914392,50,1449618225053198094,odom,0.61554980278,-0.0253051202744,0.0,0.502749979496,-0.325806707144,0.0,-0.696178078651,-0.275095164776,0.0,-0.670399725437,0.334359914064,0.0,0.52852833271,0.283648371696,0.0
1449618225251917842,51,1449618225247854875,odom,0.632161080837,-0.0383697748184,0.0,0.513035476208,-0.33642026782,0.0,-0.684552967548,-0.260381281376,0.0,-0.645899832249,0.3483928442,0.0,0.551688611507,0.272353887558,0.0
1449618225464093087,52,1449618225461298515,odom,0.649396777153,-0.0395861044526,0.0,0.530271172523,-0.337636590004,0.0,-0.667317330837,-0.261597633362,0.0,-0.628664135933,0.347176522017,0.0,0.568924307823,0.271137535572,0.0
1449618225661078913,53,1449618225660542917,odom,0.669859886169,-0.0349105633795,0.0,0.553890705109,-0.33420330286,0.0,-0.644434452057,-0.27082452178,0.0,-0.612216889858,0.338324099779,0.0,0.586108267307,0.274945318699,0.0
1449618225932183455,54,1449618225927551935,odom,0.696425557137,-0.0178563334048,0.0,0.590001881123,-0.320674777031,0.0,-0.609730124474,-0.295313328505,0.0,-0.596838057041,0.314550429583,0.0,0.602893948555,0.289189010859,0.0
1449618226040814050,55,1449618226039949108,odom,0.738151907921,0.0378393568099,0.0,0.660967648029,-0.27371737361,0.0,-0.535750389099,-0.362408012152,0.0,-0.580834805965,0.245923638344,0.0,0.615883231163,0.334614306688,0.0
1449618226231020286,56,1449618226230394184,odom,0.76866966486,0.0776913464069,0.0,0.711382567883,-0.238130107522,0.0,-0.477310538292,-0.402473539114,0.0,-0.560851812363,0.201778784394,0.0,0.627841293812,0.366122215986,0.0
1449618226521785523,57,1449618226519100062,odom,0.803866684437,0.126836761832,0.0,0.770078241825,-0.192354932427,0.0,-0.403217315674,-0.444103866816,0.0,-0.531189680099,0.152321383357,0.0,0.642105877399,0.404070317745,0.0
1449618226676353345,58,1449618226675620119,odom,0.849934995174,0.169005140662,0.0,0.833052039146,-0.151525631547,0.0,-0.325309664011,-0.464891582727,0.0,-0.484604030848,0.123942293227,0.0,0.67375767231,0.437308251858,0.0
1449618226875489155,59,1449618226871595728,odom,0.890955626965,0.193307057023,0.0,0.880850672722,-0.127508923411,0.0,-0.270629435778,-0.465286314487,0.0,-0.442332923412,0.12004943192,0.0,0.70914721489,0.457826793194,0.0
1449618227067577808,60,1449618227065551306,odom,0.937760412693,0.227071642876,0.0,0.937830090523,-0.0939034223557,0.0,-0.202364236116,-0.468011647463,0.0,-0.392535924911,0.111587151885,0.0,0.74765843153,0.485695362091,0.0
1449618227251331403,61,1449618227247298084,odom,0.993858516216,0.258893162012,0.0,1.00071179867,-0.0620087534189,0.0,-0.131321251392,-0.460130870342,0.0,-0.33370000124,0.115319274366,0.0,0.79833304882,0.513441383839,0.0
1449618227478624190,62,1449618227478430465,odom,1.04270756245,0.276234090328,0.0,1.0495609045,-0.0446678288281,0.0,-0.0824721753597,-0.442789942026,0.0,-0.284850925207,0.132660195231,0.0,0.847182154655,0.530782282352,0.0
1449618227642133726,63,1449618227641149734,odom,1.09153616428,0.293632298708,0.0,1.09838950634,-0.027269596234,0.0,-0.0336435958743,-0.425391703844,0.0,-0.236022338271,0.150058433414,0.0,0.896010696888,0.548180520535,0.0
1449618227865210476,64,1449618227863914973,odom,1.15459561348,0.295720875263,0.0,1.15127325058,-0.0252370070666,0.0,0.00718902330846,-0.38727492094,0.0,-0.176846921444,0.194301202893,0.0,0.967237234116,0.556339144707,0.0
1449618228025682769,65,1449618228024949795,odom,1.21215164661,0.294216662645,0.0,1.19865691662,-0.0264746118337,0.0,0.0436714924872,-0.352064460516,0.0,-0.121836677194,0.235053136945,0.0,1.03314876556,0.560642957687,0.0
1449618228275189592,66,1449618228272116875,odom,1.26415729523,0.289061188698,0.0,1.2405039072,-0.0310411546379,0.0,0.0757780447602,-0.319855690002,0.0,-0.0710360109806,0.272213280201,0.0,1.09368979931,0.561027824879,0.0
1449618228456130516,67,1449618228453196015,odom,1.32161355019,0.283438891172,0.0,1.28782510757,-0.0357528105378,0.0,0.114529587328,-0.287501752377,0.0,-0.0134427947924,0.308923512697,0.0,1.15985274315,0.560672461987,0.0
1449618228670408799,68,1449618228668255534,odom,1.37144637108,0.268312454224,0.0,1.32419919968,-0.0491662062705,0.0,0.141312986612,-0.251107245684,0.0,0.0386596247554,0.3501932621,0.0,1.22154581547,0.552134275436,0.0
1449618228918953574,69,1449618228917439915,odom,1.42823088169,0.259090363979,0.0,1.37094378471,-0.0567310862243,0.0,0.182250648737,-0.221074521542,0.0,0.098709397018,0.383177816868,0.0,1.28740251064,0.547521233559,0.0
1449618229080371517,70,1449618229079225950,odom,1.49613249302,0.2494392097,0.0,1.42886304855,-0.064407594502,0.0,0.235557794571,-0.190988257527,0.0,0.171212628484,0.415608584881,0.0,1.36451780796,0.542189240456,0.0
1449618229266999923,71,1449618229262713947,odom,1.54314661026,0.24179174006,0.0,1.46925902367,-0.0705632567406,0.0,0.273545145988,-0.171895697713,0.0,0.222034484148,0.435925543308,0.0,1.41774845123,0.537257969379,0.0
1449618229450882161,72,1449618229445622325,odom,1.60473811626,0.22759565711,0.0,1.5209864378,-0.0822602212429,0.0,0.322661310434,-0.145639017224,0.0,0.290443778038,0.463509619236,0.0,1.4887689352,0.526888430119,0.0
1449618229626453495,73,1449618229626114423,odom,1.66583526134,0.211819261312,0.0,1.57230365276,-0.0952260643244,0.0,0.372571617365,-0.12058749795,0.0,0.359679549932,0.489276260138,0.0,1.55941152573,0.514637708664,0.0
1449618229841012447,74,1449618229832511189,odom,1.71779513359,0.200229078531,0.0,1.61779510975,-0.104770928621,0.0,0.41779512167,-0.104770928621,0.0,0.41779512167,0.505229055882,0.0,1.61779510975,0.505229055882,0.0
1449618230067467654,75,1449618230066277982,odom,1.77221345901,0.181126087904,0.0,1.66259562969,-0.120550766587,0.0,0.463198632002,-0.0825121700764,0.0,0.482534945011,0.527181327343,0.0,1.68193185329,0.489142686129,0.0
1449618230344083048,76,1449618230338131721,odom,1.82666695118,0.173037469387,0.0,1.71386706829,-0.12746411562,0.0,0.514939069748,-0.0767525881529,0.0,0.540717422962,0.532702505589,0.0,1.73964548111,0.481990963221,0.0
1449618230523853659,77,1449618230516351023,odom,1.88595664501,0.150952756405,0.0,1.76368796825,-0.145822197199,0.0,0.56696999073,-0.0571315251291,0.0,0.612054407597,0.551200151443,0.0,1.80877244473,0.462509483099,0.0
1449618230641447829,78,1449618230638627541,odom,1.93427097797,0.140935182571,0.0,1.80887281895,-0.154531061649,0.0,0.613158941269,-0.0531986132264,0.0,0.664669632912,0.554622650146,0.0,1.86038351059,0.453290194273,0.0
1449618230887174633,79,1449618230885438405,odom,1.97780740261,0.143504694104,0.0,1.85553872585,-0.153270244598,0.0,0.658820688725,-0.0645795762539,0.0,0.703905165195,0.543752074242,0.0,1.90062320232,0.455061405897,0.0
1449618231119901337,80,1449618231117671300,odom,2.02949476242,0.139582514763,0.0,1.90722596645,-0.15719242394,0.0,0.71050798893,-0.0685017555952,0.0,0.755592405796,0.539829909801,0.0,1.95231044292,0.451139241457,0.0
1449618231267200336,81,1449618231264517376,odom,2.09668159485,0.15406370163,0.0,1.98388159275,-0.146437868476,0.0,0.784953653812,-0.0957263410091,0.0,0.810732007027,0.513728737831,0.0,2.00966000557,0.463017195463,0.0
1449618231459767972,82,1449618231444903895,odom,2.14312243462,0.164857387543,0.0,2.03669881821,-0.137961044908,0.0,0.836966872215,-0.112599611282,0.0,0.849858939648,0.497264146805,0.0,2.04959082603,0.471902728081,0.0
1449618231676919405,83,1449618231663280085,odom,2.20084214211,0.176417142153,0.0,2.10084223747,-0.128582865,0.0,0.900842189789,-0.128582865,0.0,0.900842189789,0.481417149305,0.0,2.10084223747,0.481417149305,0.0
1449618231852963771,84,1449618231835347263,odom,2.26366305351,0.202148258686,0.0,2.17664146423,-0.106805250049,0.0,0.977713525295,-0.157516777515,0.0,0.951935172081,0.451938301325,0.0,2.15086317062,0.502649843693,0.0
1449618232013530877,85,1449618232010121622,odom,2.32299160957,0.223534077406,0.0,2.24580717087,-0.0880226418376,0.0,1.04908919334,-0.176713302732,0.0,1.00400483608,0.431618362665,0.0,2.2007226944,0.52030903101,0.0
1449618232248898487,86,1449618232243157585,odom,2.37933850288,0.240674704313,0.0,2.30875611305,-0.0724436864257,0.0,1.11417973042,-0.186406612396,0.0,1.05624854565,0.42083632946,0.0,2.25082492828,0.534799277782,0.0
1449618232450053712,87,1449618232447055068,odom,2.43943166733,0.272255539894,0.0,2.38214468956,-0.043565902859,0.0,1.19345152378,-0.207909345627,0.0,1.10991024971,0.396342992783,0.0,2.29860329628,0.560686409473,0.0
1449618232590189083,88,1449618232589491635,odom,2.49072980881,0.298571050167,0.0,2.44348263741,-0.0189076289535,0.0,1.26059639454,-0.220848664641,0.0,1.15794301033,0.380451858044,0.0,2.34082937241,0.58239287138,0.0
1449618232834233462,89,1449618232830307259,odom,2.54522919655,0.320806145668,0.0,2.50470232964,0.00239984760992,0.0,1.32634818554,-0.224495813251,0.0,1.21100950241,0.374500870705,0.0,2.3893635273,0.601396501064,0.0
1449618233039338699,90,1449618233028137571,odom,2.60065841675,0.351181030273,0.0,2.57024502754,0.0316500850022,0.0,1.39967548847,-0.232484012842,0.0,1.26540732384,0.362555533648,0.0,2.43597698212,0.62668967247,0.0
1449618233247952705,91,1449618233228083640,odom,2.64953732491,0.381793648005,0.0,2.6292681694,0.0614592023194,0.0,1.46765947342,-0.239647850394,0.0,1.31459677219,0.350836545229,0.0,2.47620534897,0.651943564415,0.0
1449618233430299383,92,1449618233428764984,odom,2.69748497009,0.413705259562,0.0,2.68738007545,0.0928892791271,0.0,1.53589999676,-0.244888097048,0.0,1.36419641972,0.340447634459,0.0,2.51567649841,0.678225040436,0.0
1449618233590941063,93,1449618233590634424,odom,2.74908924103,0.441936373711,0.0,2.74576687813,0.120978489518,0.0,1.60168266296,-0.241059422493,0.0,1.41764676571,0.34051668644,0.0,2.56173086166,0.702554583549,0.0
1449618233831037121,94,1449618233823467935,odom,2.79526495934,0.476393461227,0.0,2.80211806297,0.155491545796,0.0,1.67008507252,-0.242630556226,0.0,1.46770632267,0.332819581032,0.0,2.59973931313,0.730941712856,0.0
1449618233998884253,95,1449618233998233283,odom,2.84482264519,0.500304460526,0.0,2.85506677628,0.179492861032,0.0,1.7273042202,-0.230570167303,0.0,1.51885557175,0.342709124088,0.0,2.64661812782,0.752772152424,0.0
1449618234203181412,96,1449618234201278987,odom,2.89453434944,0.531748771667,0.0,2.9115562439,0.211225345731,0.0,1.7927120924,-0.222580820322,0.0,1.57219398022,0.34616497159,0.0,2.69103813171,0.779971122742,0.0
1449618234396713698,97,1449618234395548935,odom,2.94908308983,0.573452711105,0.0,2.97625684738,0.253629982471,0.0,1.87172603607,-0.215424254537,0.0,1.63329017162,0.346045553684,0.0,2.73782086372,0.815099775791,0.0
1449618234552103343,98,1449618234551938189,odom,2.98641037941,0.595980882645,0.0,3.01696252823,0.27646318078,0.0,1.9174503088,-0.204237386584,0.0,1.67309427261,0.354681313038,0.0,2.77260637283,0.835381865501,0.0
1449618234824781061,99,1449618234822013346,odom,3.03377938271,0.631066858768,0.0,3.07107758522,0.312266200781,0.0,1.98197031021,-0.191564634442,0.0,1.72585630417,0.362064868212,0.0,2.81496357918,0.865895688534,0.0
1449618235014634370,100,1449618235006307029,odom,3.07489395142,0.671771764755,0.0,3.12227869034,0.354313641787,0.0,2.04968976974,-0.183787450194,0.0,1.77615499496,0.361445307732,0.0,2.84874415398,0.899546384811,0.0
1449618235194281708,101,1449618235190238685,odom,3.11439871788,0.720276296139,0.0,3.17515707016,0.405104219913,0.0,2.12626624107,-0.177843362093,0.0,1.82993447781,0.35534286499,0.0,2.8788254261,0.938290417194,0.0
1449618235359341745,102,1449618235357356593,odom,3.15843105316,0.759331226349,0.0,3.22583675385,0.445513665676,0.0,2.1895005703,-0.159471511841,0.0,1.88196635246,0.367332786322,0.0,2.91830277443,0.972317993641,0.0
1449618235582804759,103,1449618235580744144,odom,3.19566941261,0.803471744061,0.0,3.27298903465,0.491948515177,0.0,2.25635075569,-0.14558327198,0.0,1.93227207661,0.371207803488,0.0,2.94891023636,1.00873959064,0.0
1449618235784722446,104,1449618235781404622,odom,3.23260140419,0.841892719269,0.0,3.31648755074,0.532073199749,0.0,2.31355023384,-0.12680234015,0.0,1.97862184048,0.383024066687,0.0,2.98155903816,1.04189968109,0.0
1449618236002031184,105,1449618235997320003,odom,3.26759433746,0.887737751007,0.0,3.36125922203,0.580733060837,0.0,2.37971162796,-0.109603360295,0.0,2.02879071236,0.389349997044,0.0,3.01033830643,1.07968640327,0.0
1449618236190765629,106,1449618236190151055,odom,3.3026945591,0.9277099967,0.0,3.40282678604,0.622753441334,0.0,2.43608832359,-0.0881733223796,0.0,2.07470059395,0.403252065182,0.0,3.0414390564,1.11417877674,0.0
1449618236383182956,107,1449618236379065211,odom,3.34909462929,0.961832046509,0.0,3.44922709465,0.656875491142,0.0,2.4824886322,-0.0540512911975,0.0,2.12110066414,0.437374085188,0.0,3.08783912659,1.14830088615,0.0
1449618236610821670,108,1449618236610338166,odom,3.38463163376,0.996084868908,0.0,3.48798131943,0.692203462124,0.0,2.52880978584,-0.0288999117911,0.0,2.16224884987,0.458678930998,0.0,3.12142038345,1.17978227139,0.0
1449618236785992510,109,1449618236784147975,odom,3.42457437515,1.03395426273,0.0,3.5311293602,0.731182098389,0.0,2.57963204384,-1.74346023414e-05,0.0,2.20793890953,0.483660429716,0.0,3.15943622589,1.21485996246,0.0
1449618236981781269,110,1449618236969795708,odom,3.47029805183,1.0689766407,0.0,3.5768532753,0.766204476357,0.0,2.62535572052,0.0350049361587,0.0,2.25366282463,0.518682777882,0.0,3.20516014099,1.24988234043,0.0
1449618237183948793,111,1449618237183005726,odom,3.51156568527,1.10034418106,0.0,3.61812067032,0.797571957111,0.0,2.66662335396,0.0663724243641,0.0,2.29493021965,0.550050258636,0.0,3.24642753601,1.28124976158,0.0
1449618237391025874,112,1449618237390334403,odom,3.55881690979,1.12859809399,0.0,3.66216635704,0.824716687202,0.0,2.70299506187,0.103613294661,0.0,2.3364341259,0.591192126274,0.0,3.29560565948,1.31229555607,0.0
1449618237610872764,113,1449618237604503614,odom,3.60476183891,1.1633297205,0.0,3.70811128616,0.859448313713,0.0,2.74893975258,0.138344913721,0.0,2.3823788166,0.625923752785,0.0,3.34155035019,1.34702718258,0.0
1449618237777641292,114,1449618237777292466,odom,3.65079879761,1.19794011116,0.0,3.75414824486,0.894058823586,0.0,2.79497671127,0.172955393791,0.0,2.4284157753,0.660534203053,0.0,3.38758730888,1.38163769245,0.0
1449618237992092078,115,1449618237991589630,odom,3.6969628334,1.23237967491,0.0,3.80031228065,0.928498327732,0.0,2.84114074707,0.207394912839,0.0,2.4745798111,0.694973766804,0.0,3.43375134468,1.41607713699,0.0
1449618238195354087,116,1449618238191646940,odom,3.73848676682,1.26340699196,0.0,3.84183621407,0.959525644779,0.0,2.8826649189,0.238422229886,0.0,2.51610398293,0.726001083851,0.0,3.47527527809,1.44710445404,0.0
1449618238440205500,117,1449618238430516279,odom,3.78603410721,1.29115998745,0.0,3.88616633415,0.986203372478,0.0,2.91942811012,0.275276660919,0.0,2.55804014206,0.766701996326,0.0,3.52477860451,1.4776288271,0.0
1449618238611692308,118,1449618238611286365,odom,3.82779407501,1.32186985016,0.0,3.92792654037,1.01691317558,0.0,2.96118807793,0.305986493826,0.0,2.59980034828,0.797411859035,0.0,3.56653881073,1.50833857059,0.0
1449618238783492555,119,1449618238783121963,odom,3.86467814445,1.3494849205,0.0,3.96481060982,1.04452836514,0.0,2.99807214737,0.333601593971,0.0,2.63668441772,0.825026988983,0.0,3.60342288017,1.53595376015,0.0
1449618238972500635,120,1449618238972034043,odom,3.89706754684,1.37349247932,0.0,3.99719977379,1.06853592396,0.0,3.03046131134,0.357609122992,0.0,2.6690735817,0.849034488201,0.0,3.63581204414,1.55996119976,0.0
1449618239186748757,121,1449618239176866382,odom,3.92334198952,1.40089583397,0.0,4.02669143677,1.09701454639,0.0,3.06751990318,0.375911086798,0.0,2.70095896721,0.863489925861,0.0,3.66013050079,1.58459329605,0.0
1449618239381357156,122,1449618239377691967,odom,3.95242404938,1.43866860867,0.0,4.06217288971,1.13703942299,0.0,3.11845564842,0.39582541585,0.0,2.74167180061,0.875548243523,0.0,3.6853890419,1.61676228046,0.0
1449618239602603248,123,1449618239602228251,odom,3.9870467186,1.47379231453,0.0,4.09997701645,1.17333972454,0.0,3.16414546967,0.422194123268,0.0,2.78231310844,0.897908389568,0.0,3.71814441681,1.64905405045,0.0
1449618239779388632,124,1449618239779137895,odom,4.01665115356,1.50586390495,0.0,4.13275003433,1.20662152767,0.0,3.20490908623,0.445628046989,0.0,2.81807088852,0.917280614376,0.0,3.74591183662,1.67827403545,0.0
1449618240001851488,125,1449618240000013501,odom,4.04597330093,1.53817617893,0.0,4.16522836685,1.24017739296,0.0,3.24548101425,0.4694211483,0.0,2.85368013382,0.936959326267,0.0,3.773427248,1.70771551132,0.0
1449618240180909148,126,1449618240180423350,odom,4.06448698044,1.56968593597,0.0,4.19001340866,1.27427411079,0.0,3.28676104546,0.484251648188,0.0,2.88516616821,0.943404853344,0.0,3.78841853142,1.73342728615,0.0
1449618240360396144,127,1449618240356744478,odom,4.0905585289,1.5923678875,0.0,4.21608495712,1.29695606232,0.0,3.31283259392,0.506933629513,0.0,2.91123771667,0.966086804867,0.0,3.81449007988,1.75610935688,0.0
1449618240604716439,128,1449618240602164151,odom,4.11458683014,1.62171041965,0.0,4.24322795868,1.32764160633,0.0,3.34837532043,0.528117835522,0.0,2.94195055962,0.983001410961,0.0,3.8368036747,1.78252518177,0.0
1449618240808155211,129,1449618240805968051,odom,4.13402938843,1.64744508266,0.0,4.26577138901,1.35475218296,0.0,3.37941741943,0.545816421509,0.0,2.96820831299,0.996379554272,0.0,3.85456204414,1.80531537533,0.0
1449618240970280639,130,1449618240967348608,odom,4.15747356415,1.67724406719,0.0,4.29230117798,1.38595986366,0.0,3.41454577446,0.567702293396,0.0,2.99859809875,1.01389467716,0.0,3.87635374069,1.83215224743,0.0
1449618241201257735,131,1449618241197505102,odom,4.18062257767,1.70726704597,0.0,4.3185210228,1.41742384434,0.0,3.44946169853,0.589936077595,0.0,3.02882194519,1.03170788288,0.0,3.89788126945,1.85919570923,0.0
1449618241395321605,132,1449618241393409274,odom,4.21399211884,1.73904037476,0.0,4.35189056396,1.44919717312,0.0,3.4828312397,0.621709287167,0.0,3.06219148636,1.06348109245,0.0,3.93125081062,1.8909689188,0.0
1449618241601596651,133,1449618241601098535,odom,4.2427740097,1.78379392624,0.0,4.38676738739,1.49692988396,0.0,3.53539061546,0.65125977993,0.0,3.10550832748,1.08404290676,0.0,3.95688486099,1.92971301079,0.0
1449618241772618361,134,1449618241771461257,odom,4.27721881866,1.82671236992,0.0,4.42423534393,1.54138600826,0.0,3.58184313774,0.686765909195,0.0,3.14741134644,1.11498188972,0.0,3.98980331421,1.969602108,0.0
1449618241984723511,135,1449618241982219415,odom,4.30712080002,1.86593306065,0.0,4.45714473724,1.58217632771,0.0,3.62383103371,0.718701601028,0.0,3.18489813805,1.14230263233,0.0,4.01821184158,2.00577735901,0.0
1449618242181937917,136,1449618242176219111,odom,4.33407402039,1.91177892685,0.0,4.49006128311,1.63125622272,0.0,3.67518305779,0.750362753868,0.0,3.2273952961,1.16459262371,0.0,4.04227352142,2.04548597336,0.0
1449618242369728853,137,1449618242369370183,odom,4.35996246338,1.95826637745,0.0,4.52184343338,1.68110311031,0.0,3.7257642746,0.783184289932,0.0,3.26932239532,1.18785786629,0.0,4.06540155411,2.08577656746,0.0
1449618242602616146,138,1449618242602459589,odom,4.38759040833,1.99915146828,0.0,4.55239152908,1.72371435165,0.0,3.76584625244,0.817432820797,0.0,3.30515313148,1.2172601223,0.0,4.09169864655,2.12354159355,0.0
1449618242794117837,139,1449618242793154512,odom,4.40514993668,2.04834246635,0.0,4.57859897614,1.77826786041,0.0,3.82117700577,0.847509205341,0.0,3.34804129601,1.23253214359,0.0,4.10546350479,2.16329073906,0.0
1449618243005194162,140,1449618243004082858,odom,4.4279923439,2.09641480446,0.0,4.60711097717,1.83006608486,0.0,3.86952900887,0.883507609367,0.0,3.38836193085,1.25844502449,0.0,4.12594366074,2.20500349998,0.0
1449618243175611002,141,1449618243175005835,odom,4.44617700577,2.14048957825,0.0,4.63088464737,1.87798607349,0.0,3.91347265244,0.916050493717,0.0,3.42448878288,1.28073501587,0.0,4.14190101624,2.24267053604,0.0
1449618243411732606,142,1449618243403798973,odom,4.46005249023,2.19084382057,0.0,4.65298843384,1.93432736397,0.0,3.96642923355,0.95013409853,0.0,3.46613097191,1.29913508892,0.0,4.15269041061,2.28332829475,0.0
1449618243586413127,143,1449618243585189973,odom,4.48282814026,2.23460650444,0.0,4.67846393585,1.98014307022,0.0,4.00234365463,0.988749325275,0.0,3.49838542938,1.33244371414,0.0,4.1745057106,2.32383751869,0.0
1449618243796804673,144,1449618243795738570,odom,4.49438524246,2.2856194973,0.0,4.69798898697,2.0374853611,0.0,4.05363464355,1.02515757084,0.0,3.53903484344,1.35270440578,0.0,4.18338918686,2.36503219604,0.0
1449618243973463109,145,1449618243973252866,odom,4.51523971558,2.33033776283,0.0,4.72145414352,2.08436918259,0.0,4.08783388138,1.0652885437,0.0,3.56980133057,1.38737881184,0.0,4.20342159271,2.40645956993,0.0
1449618244166044138,146,1449618244164268198,odom,4.52851676941,2.37617874146,0.0,4.73988389969,2.13462352753,0.0,4.12794303894,1.10237920284,0.0,3.60321879387,1.41344916821,0.0,4.21515989304,2.44569349289,0.0
1449618244353931845,147,1449618244352872533,odom,4.54383945465,2.42720007896,0.0,4.76026439667,2.19016575813,0.0,4.17027616501,1.14521884918,0.0,3.63909482956,1.44512963295,0.0,4.22908306122,2.49007630348,0.0
1449618244565666755,148,1449618244565402539,odom,4.55816030502,2.47848987579,0.0,4.77954626083,2.24608254433,0.0,4.21177434921,1.18890011311,0.0,3.67437314987,1.47751748562,0.0,4.24214506149,2.53470015526,0.0
1449618244763998126,149,1449618244762469590,odom,4.57287359238,2.51958155632,0.0,4.79670333862,2.28952693939,0.0,4.24013519287,1.22640323639,0.0,3.69971394539,1.50932538509,0.0,4.25628185272,2.57244896889,0.0
1449618244984491266,150,1449618244984260139,odom,4.57603597641,2.56635069847,0.0,4.80704593658,2.34350681305,0.0,4.28445720673,1.26327478886,0.0,3.73533916473,1.52892410755,0.0,4.25792789459,2.60915613174,0.0
1449618245158677152,151,1449618245156388651,odom,4.58002901077,2.61847043037,0.0,4.81798696518,2.4030611515,0.0,4.32990312576,1.30680668354,0.0,3.77264022827,1.55491602421,0.0,4.26072406769,2.65117073059,0.0
1449618245381923452,152,1449618245380349627,odom,4.57538175583,2.67039728165,0.0,4.82223033905,2.4652364254,0.0,4.3809094429,1.34933495522,0.0,3.81365966797,1.57367300987,0.0,4.25498008728,2.68957448006,0.0
1449618245577246819,153,1449618245574215442,odom,4.56370210648,2.7267768383,0.0,4.82104158401,2.53494000435,0.0,4.43927383423,1.39728736877,0.0,3.86096715927,1.59135258198,0.0,4.24273490906,2.72900509834,0.0
1449618245773497801,154,1449618245771376374,odom,4.54891586304,2.78250670433,0.0,4.81602811813,2.60452890396,0.0,4.49487924576,1.44830083847,0.0,3.90713000298,1.61155152321,0.0,4.22827863693,2.7677795887,0.0
1449618245994543379,155,1449618245991489833,odom,4.5243396759,2.83591961861,0.0,4.80219316483,2.67522549629,0.0,4.55495500565,1.50097107887,0.0,3.95804214478,1.62665057182,0.0,4.20528030396,2.80090498924,0.0
1449618246168361001,156,1449618246165976664,odom,4.50351810455,2.88949418068,0.0,4.78947067261,2.74369931221,0.0,4.60459661484,1.55802571774,0.0,4.00187921524,1.65200340748,0.0,4.18675327301,2.83767676353,0.0
1449618246379026401,157,1449618246378381314,odom,4.49225950241,2.94049501419,0.0,4.78269004822,2.80383777618,0.0,4.6354932785,1.61289978027,0.0,4.03009986877,1.68772482872,0.0,4.17729663849,2.87866282463,0.0
1449618246566450466,158,1449618246563069899,odom,4.47926950455,2.99112892151,0.0,4.77388572693,2.86374664307,0.0,4.66451454163,1.6687412262,0.0,4.05705308914,1.72433829308,0.0,4.16642475128,2.91934370995,0.0
1449618246759065099,159,1449618246758873977,odom,4.46502351761,3.04707503319,0.0,4.76352977753,2.92909574509,0.0,4.69209384918,1.73122382164,0.0,4.08317565918,1.76753723621,0.0,4.15461158752,2.96540904045,0.0
1449618246970305001,160,1449618246969644442,odom,4.45481348038,3.08794045448,0.0,4.75574636459,2.97629618645,0.0,4.70964241028,1.77718222141,0.0,4.10009288788,1.8006182909,0.0,4.14619684219,2.99973225594,0.0
1449618247212615093,161,1449618247212324949,odom,4.43763828278,3.12577438354,0.0,4.74195861816,3.02372550964,0.0,4.7338886261,1.82375252247,0.0,4.12390232086,1.82785487175,0.0,4.13197278976,3.02782773972,0.0
1449618247389757857,162,1449618247386176272,odom,4.43182754517,3.15745902061,0.0,4.73720979691,3.05863189697,0.0,4.74182128906,1.85864067078,0.0,4.13182544708,1.85629653931,0.0,4.12721395493,3.0562877655,0.0
1449618247556566488,163,1449618247555176964,odom,4.42549133301,3.18332004547,0.0,4.73190069199,3.08772563934,0.0,4.74919319153,1.88785028458,0.0,4.13925647736,1.87905979156,0.0,4.12196397781,3.07893514633,0.0
1449618247772924133,164,1449618247771298193,odom,4.41899585724,3.20335435867,0.0,4.72639799118,3.1110033989,0.0,4.7563700676,1.91137766838,0.0,4.14656019211,1.89614200592,0.0,4.11658859253,3.09576773643,0.0
1449618247965978522,165,1449618247965721371,odom,4.41824626923,3.23214221001,0.0,4.72564840317,3.13979125023,0.0,4.75562047958,1.94016563892,0.0,4.1458106041,1.92493009567,0.0,4.11583900452,3.12455582619,0.0
1449618248168731439,166,1449618248165490479,odom,4.41717004776,3.26668262482,0.0,4.72457265854,3.17433166504,0.0,4.75454425812,1.97470593452,0.0,4.14473438263,1.95947039127,0.0,4.11476278305,3.15909600258,0.0
1449618248394363429,167,1449618248381722453,odom,4.41574525833,3.31273674965,0.0,4.72314786911,3.22038555145,0.0,4.75311946869,2.02076005936,0.0,4.14331007004,2.0055243969,0.0,4.11333799362,3.20515012741,0.0
1449618248572198074,168,1449618248570115827,odom,4.42746210098,3.35898518562,0.0,4.73284435272,3.26015806198,0.0,4.73745584488,2.06016683578,0.0,4.12746047974,2.05782270432,0.0,4.12284898758,3.25781393051,0.0
1449618248774041199,169,1449618248773756944,odom,4.44613456726,3.40771794319,0.0,4.74823045731,3.29926037788,0.0,4.71480131149,2.09972596169,0.0,4.10503816605,2.11671924591,0.0,4.13846731186,3.31625342369,0.0
1449618248976154954,170,1449618248972599371,odom,4.45985221863,3.45329999924,0.0,4.75958824158,3.33848166466,0.0,4.70081520081,2.13992190361,0.0,4.09154701233,2.16979837418,0.0,4.15032052994,3.36835813522,0.0
1449618249214820994,171,1449618249214329586,odom,4.46816492081,3.49610829353,0.0,4.76667118073,3.37812900543,0.0,4.69523477554,2.18025708199,0.0,4.08631658554,2.21657037735,0.0,4.15775299072,3.4144423008,0.0
1449618249405304214,172,1449618249404915795,odom,4.47664785385,3.53307294846,0.0,4.7738904953,3.41194581985,0.0,4.68979930878,2.21489572525,0.0,4.08129882812,2.25764203072,0.0,4.16539001465,3.45469212532,0.0
1449618249578593490,173,1449618249578154318,odom,4.47947311401,3.57329106331,0.0,4.77671575546,3.45216369629,0.0,4.69262456894,2.25511360168,0.0,4.08412408829,2.29785990715,0.0,4.16821527481,3.49491000175,0.0
1449618249790577716,174,1449618249787336631,odom,4.46981668472,3.61425471306,0.0,4.76955270767,3.4994366169,0.0,4.7107796669,2.30087685585,0.0,4.10151147842,2.330753088,0.0,4.16028499603,3.52931308746,0.0
1449618249985228330,175,1449618249983814726,odom,4.45336294174,3.66378092766,0.0,4.75658798218,3.55852174759,0.0,4.73583745956,2.35870099068,0.0,4.12592840195,2.36924934387,0.0,4.1466794014,3.56906986237,0.0
1449618250190812665,176,1449618250186533656,odom,4.4223690033,3.71821093559,0.0,4.7307305336,3.62911367416,0.0,4.77337789536,2.42987179756,0.0,4.16376304626,2.40819263458,0.0,4.12111568451,3.6074347496,0.0
1449618250407753116,177,1449618250381289728,odom,4.38857412338,3.77092790604,0.0,4.70121097565,3.69824123383,0.0,4.80713748932,2.50292563438,0.0,4.19951868057,2.44907951355,0.0,4.0935921669,3.64439535141,0.0
1449618250568364985,178,1449618250567088043,odom,4.34693717957,3.8123049736,0.0,4.66355133057,3.75957512856,0.0,4.84500741959,2.57337355614,0.0,4.24202156067,2.481133461,0.0,4.06056547165,3.667334795,0.0
1449618250804180905,179,1449618250802397289,odom,4.3081870079,3.8550620079,0.0,4.6271443367,3.81912779808,0.0,4.87099695206,2.6441655159,0.0,4.27372455597,2.52020716667,0.0,4.02987194061,3.69516921043,0.0
1449618250986324549,180,1449618250984849041,odom,4.26878833771,3.89016366005,0.0,4.58919811249,3.87112545967,0.0,4.89476728439,2.71068263054,0.0,4.30487537384,2.55535173416,0.0,3.99930644035,3.71579480171,0.0
1449618251316334812,181,1449618251301570801,odom,4.23939180374,3.92678189278,0.0,4.5602440834,3.91790986061,0.0,4.90244436264,2.76773643494,0.0,4.3177728653,2.59378480911,0.0,3.97557282448,3.74395823479,0.0
1449618251396026439,182,1449618251394593965,odom,4.20890760422,3.96246814728,0.0,4.52988004684,3.96377134323,0.0,4.90836715698,2.82502293587,0.0,4.32950353622,2.63262534142,0.0,3.95101618767,3.77137351036,0.0
1449618251620284920,183,1449618251619782129,odom,4.18232107162,4.00204563141,0.0,4.50319385529,4.01013183594,0.0,4.9056634903,2.87963724136,0.0,4.33099555969,2.67504858971,0.0,3.92852592468,3.80554318428,0.0
1449618251824141512,184,1449618251822450304,odom,4.15291452408,4.04645776749,0.0,4.47354507446,4.06132411957,0.0,4.89981746674,2.9395878315,0.0,4.32960128784,2.72289967537,0.0,3.90332937241,3.84463572502,0.0
1449618252091516044,185,1449618252086208099,odom,4.12047338486,4.09560108185,0.0,4.44071817398,4.11724042892,0.0,4.89060258865,3.00476360321,0.0,4.32509374619,2.77607250214,0.0,3.87520933151,3.88854908943,0.0
1449618252443742940,186,1449618252431887855,odom,4.06717443466,4.19193887711,0.0,4.38689041138,4.22034168243,0.0,4.86018562317,3.11762142181,0.0,4.29963636398,2.87702965736,0.0,3.82634091377,3.97974967957,0.0
1449618252645615066,187,1449618252632705599,odom,4.03987550735,4.23972940445,0.0,4.35927343369,4.27150917053,0.0,4.84419584274,3.17385220528,0.0,4.2862200737,2.92735004425,0.0,3.80129790306,4.02500677109,0.0
1449618252843475533,188,1449618252843151165,odom,4.01892805099,4.28714466095,0.0,4.33832597733,4.31892442703,0.0,4.82324838638,3.22126746178,0.0,4.26527309418,2.97476530075,0.0,3.78035068512,4.07242202759,0.0
1449618253008805247,189,1449618253008501807,odom,3.99339771271,4.3293504715,0.0,4.3124423027,4.36450386047,0.0,4.80893707275,3.27203297615,0.0,4.25359773636,3.01964783669,0.0,3.75710272789,4.11211872101,0.0
1449618253265025182,190,1449618253260793034,odom,3.9699716568,4.36611700058,0.0,4.28862667084,4.40464019775,0.0,4.79663896561,3.31747698784,0.0,4.24399805069,3.05923748016,0.0,3.73598527908,4.14640045166,0.0
1449618253394818695,191,1449618253394078023,odom,3.95117259026,4.3922624588,0.0,4.26940250397,4.4341506958,0.0,4.78887557983,3.35241699219,0.0,4.23899459839,3.08835148811,0.0,3.71952152252,4.17008543015,0.0
1449618253665530660,192,1449618253664037994,odom,3.94133710861,4.41309547424,0.0,4.25956726074,4.45498371124,0.0,4.77904033661,3.37325000763,0.0,4.22915887833,3.10918450356,0.0,3.70968580246,4.19091796875,0.0
1449618253824521333,193,1449618253819541878,odom,3.93393969536,4.42871046066,0.0,4.25216960907,4.47059869766,0.0,4.77164268494,3.38886499405,0.0,4.22176170349,3.12479948997,0.0,3.70228838921,4.20653295517,0.0
1449618254037294539,194,1449618254019136957,odom,3.92645978928,4.44428634644,0.0,4.24468994141,4.48617458344,0.0,4.76416301727,3.40444087982,0.0,4.21428155899,3.14037537575,0.0,3.69480848312,4.22210884094,0.0
1449618254271940752,195,1449618254263402159,odom,3.91897988319,4.45986223221,0.0,4.23720979691,4.50175046921,0.0,4.75668287277,3.42001652718,0.0,4.20680189133,3.15595126152,0.0,3.68732857704,4.23768472672,0.0
1449618254462553997,196,1449618254461385919,odom,3.91396594048,4.47023248672,0.0,4.23219585419,4.51212072372,0.0,4.75166893005,3.43038725853,0.0,4.20178794861,3.16632175446,0.0,3.68231463432,4.24805545807,0.0
1449618254670284577,197,1449618254666400746,odom,3.90475511551,4.4753575325,0.0,4.22252464294,4.52060651779,0.0,4.75340032578,3.44442296028,0.0,4.20634031296,3.17456126213,0.0,3.67546463013,4.25074481964,0.0
1449618254813513417,198,1449618254810606197,odom,3.90892457962,4.48058986664,0.0,4.22715473175,4.52247810364,0.0,4.74662780762,3.44074440002,0.0,4.19674634933,3.17667889595,0.0,3.67727351189,4.25841283798,0.0
1449618255038803290,199,1449618255038624368,odom,3.90478253365,4.47537088394,0.0,4.22255182266,4.52061986923,0.0,4.75342750549,3.44443631172,0.0,4.20636796951,3.17457461357,0.0,3.67549204826,4.25075817108,0.0
1449618255212507452,200,1449618255212269884,odom,3.90478253365,4.47537088394,0.0,4.22255182266,4.52061986923,0.0,4.75342750549,3.44443631172,0.0,4.20636796951,3.17457461357,0.0,3.67549204826,4.25075817108,0.0
1449618255397109561,201,1449618255396814081,odom,3.90478253365,4.47537088394,0.0,4.22255182266,4.52061986923,0.0,4.75342750549,3.44443631172,0.0,4.20636796951,3.17457461357,0.0,3.67549204826,4.25075817108,0.0
1449618255621402688,202,1449618255618259591,odom,3.90478253365,4.47537088394,0.0,4.22255182266,4.52061986923,0.0,4.75342750549,3.44443631172,0.0,4.20636796951,3.17457461357,0.0,3.67549204826,4.25075817108,0.0
1449618255804987481,203,1449618255801965084,odom,3.90478253365,4.47537088394,0.0,4.22255182266,4.52061986923,0.0,4.75342750549,3.44443631172,0.0,4.20636796951,3.17457461357,0.0,3.67549204826,4.25075817108,0.0
1449618256034552021,204,1449618256034215547,odom,3.90478253365,4.47537088394,0.0,4.22255182266,4.52061986923,0.0,4.75342750549,3.44443631172,0.0,4.20636796951,3.17457461357,0.0,3.67549204826,4.25075817108,0.0
1449618256245768861,205,1449618256244923961,odom,3.90478253365,4.47537088394,0.0,4.22255182266,4.52061986923,0.0,4.75342750549,3.44443631172,0.0,4.20636796951,3.17457461357,0.0,3.67549204826,4.25075817108,0.0
1449618256432532363,206,1449618256429804572,odom,3.90478253365,4.47537088394,0.0,4.22255182266,4.52061986923,0.0,4.75342750549,3.44443631172,0.0,4.20636796951,3.17457461357,0.0,3.67549204826,4.25075817108,0.0
1449618256605002454,207,1449618256601677558,odom,3.90478253365,4.47537088394,0.0,4.22255182266,4.52061986923,0.0,4.75342750549,3.44443631172,0.0,4.20636796951,3.17457461357,0.0,3.67549204826,4.25075817108,0.0
1449618256844378895,208,1449618256843844147,odom,3.90478253365,4.47537088394,0.0,4.22255182266,4.52061986923,0.0,4.75342750549,3.44443631172,0.0,4.20636796951,3.17457461357,0.0,3.67549204826,4.25075817108,0.0
1449618257011645646,209,1449618257006361131,odom,3.90478253365,4.47537088394,0.0,4.22255182266,4.52061986923,0.0,4.75342750549,3.44443631172,0.0,4.20636796951,3.17457461357,0.0,3.67549204826,4.25075817108,0.0
1449618257266988805,210,1449618257240159740,odom,3.90895199776,4.48060321808,0.0,4.22718191147,4.52249145508,0.0,4.74665498734,3.44075775146,0.0,4.19677400589,3.17669224739,0.0,3.6773006916,4.25842618942,0.0
1449618257455786525,211,1449618257450350668,odom,3.89974117279,4.48572826385,0.0,4.21751070023,4.53097724915,0.0,4.74838638306,3.45479345322,0.0,4.20132637024,3.18493175507,0.0,3.67045068741,4.26111555099,0.0
1449618257666764415,212,1449618257663851976,odom,3.89884209633,4.50130462646,0.0,4.21707201004,4.54319286346,0.0,4.73654508591,3.46145892143,0.0,4.18666410446,3.19739341736,0.0,3.66719079018,4.27912712097,0.0
1449618257866214166,213,1449618257857377067,odom,3.88708305359,4.51159477234,0.0,4.20485258102,4.55684375763,0.0,4.73572826385,3.4806599617,0.0,4.18866825104,3.21079826355,0.0,3.65779280663,4.28698205948,0.0
1449618258019857217,214,1449618258015557580,odom,3.87946629524,4.52710390091,0.0,4.1972360611,4.5723528862,0.0,4.72811174393,3.49616932869,0.0,4.18105173111,3.22630763054,0.0,3.65017604828,4.30249118805,0.0
1449618258293556079,215,1449618258286325680,odom,3.86505126953,4.54243469238,0.0,4.18232488632,4.59103918076,0.0,4.72454404831,3.52052593231,0.0,4.18036651611,3.24489808083,0.0,3.63814759254,4.31541109085,0.0
1449618258459582134,216,1449618258452800261,odom,3.8614397049,4.56316566467,0.0,4.17920923233,4.60841464996,0.0,4.71008491516,3.53223133087,0.0,4.16302490234,3.2623693943,0.0,3.63214945793,4.33855295181,0.0
1449618258694012620,217,1449618258688575072,odom,3.84697031975,4.57846927643,0.0,4.16424369812,4.6270737648,0.0,4.70646286011,3.55656075478,0.0,4.16228532791,3.28093266487,0.0,3.62006640434,4.35144615173,0.0
1449618258835561929,218,1449618258831500234,odom,3.83919000626,4.59389734268,0.0,4.15646362305,4.64250183105,0.0,4.69868278503,3.57198858261,0.0,4.15450525284,3.29636073112,0.0,3.61228609085,4.36687374115,0.0
1449618259041911007,219,1449618259026246721,odom,3.82869887352,4.6144080162,0.0,4.14597272873,4.66301250458,0.0,4.68819189072,3.59249925613,0.0,4.14401388168,3.31687140465,0.0,3.60179519653,4.38738441467,0.0
1449618259203770597,220,1449618259200026981,odom,3.81138491631,4.6346540451,0.0,4.12812709808,4.68660879135,0.0,4.68162918091,3.6218855381,0.0,4.14039468765,3.34052205086,0.0,3.58689284325,4.40524530411,0.0
1449618259426722523,221,1449618259416413945,odom,3.79810190201,4.66020584106,0.0,4.1148443222,4.71216058731,0.0,4.66834592819,3.64743709564,0.0,4.12711143494,3.3660736084,0.0,3.57360982895,4.43079710007,0.0
1449618259694440790,222,1449618259690156033,odom,3.78076314926,4.68036699295,0.0,4.09693861008,4.73566627502,0.0,4.66166162491,3.676851511,0.0,4.12343072891,3.38978409767,0.0,3.5587079525,4.44859886169,0.0
1449618260064330051,223,1449618260062882442,odom,3.7563688755,4.72610473633,0.0,4.07254457474,4.78140354156,0.0,4.63726711273,3.72258901596,0.0,4.09903669357,3.43552160263,0.0,3.53431367874,4.49433612823,0.0
1449618260221788656,224,1449618260220220290,odom,3.74139475822,4.74092721939,0.0,4.05696821213,4.79956483841,0.0,4.63284873962,3.74677705765,0.0,4.09768199921,3.45403766632,0.0,3.52180147171,4.50682544708,0.0
1449618260429792100,225,1449618260428528797,odom,3.72757482529,4.76619243622,0.0,4.04314851761,4.8248295784,0.0,4.6190290451,3.77204203606,0.0,4.08386182785,3.47930288315,0.0,3.50798130035,4.53209066391,0.0
1449618260618655547,226,1449618260616125733,odom,3.70694351196,4.79097700119,0.0,4.021879673,4.8529458046,0.0,4.60885381699,3.80630278587,0.0,4.07681035995,3.50792431831,0.0,3.48983621597,4.55456733704,0.0
1449618260847458307,227,1449618260845517854,odom,3.687302351,4.82618570328,0.0,4.00223875046,4.88815450668,0.0,4.58921289444,3.84151172638,0.0,4.05716896057,3.54313325882,0.0,3.47019505501,4.58977603912,0.0
1449618261098019765,228,1449618261076641029,odom,3.66069626808,4.86075258255,0.0,3.97496008873,4.92604637146,0.0,4.57296228409,3.88566493988,0.0,4.04410171509,3.58168053627,0.0,3.44609951973,4.62206220627,0.0
1449618261287876467,229,1449618261286243726,odom,3.63486456871,4.90569400787,0.0,3.94912838936,4.97098779678,0.0,4.54713058472,3.93060612679,0.0,4.01826953888,3.62662172318,0.0,3.42026782036,4.66700315475,0.0
1449618261447997532,230,1449618261441672380,odom,3.60202264786,4.94988822937,0.0,3.91557884216,5.01849937439,0.0,4.5245423317,3.9844956398,0.0,3.99892354012,3.674939394,0.0,3.389960289,4.70894289017,0.0
1449618261623397469,231,1449618261616117003,odom,3.56892490387,4.99385786057,0.0,3.8817384243,5.0657787323,0.0,4.50159502029,4.03826808929,0.0,3.97927713394,3.72317433357,0.0,3.35942053795,4.75068473816,0.0
1449618261870966331,232,1449618261868551712,odom,3.53904390335,5.04309558868,0.0,3.8518576622,5.11501646042,0.0,4.47171401978,4.08750581741,0.0,3.94939613342,3.77241206169,0.0,3.32953977585,4.79992246628,0.0
1449618262021487736,233,1449618262020900688,odom,3.50514578819,5.08650636673,0.0,3.81718182564,5.16172933578,0.0,4.44786214828,4.14082670212,0.0,3.92890334129,3.82023048401,0.0,3.29822301865,4.84113311768,0.0
1449618262229725017,234,1449618262228816685,odom,3.47089362144,5.12962150574,0.0,3.78211736679,5.20813751221,0.0,4.42355155945,4.19395685196,0.0,3.90800952911,3.86789441109,0.0,3.26657557487,4.88207530975,0.0
1449618262437636978,235,1449618262437442976,odom,3.4429037571,5.17325019836,0.0,3.75412750244,5.25176620483,0.0,4.3955616951,4.23758554459,0.0,3.88001966476,3.91152334213,0.0,3.23858571053,4.92570400238,0.0
1449618262619811740,236,1449618262618684434,odom,3.4079682827,5.21585178375,0.0,3.71834492683,5.29765272141,0.0,4.37046051025,4.29030704498,0.0,3.85839343071,3.95881485939,0.0,3.20627760887,4.96616029739,0.0
1449618262814645946,237,1449618262811335301,odom,3.36609172821,5.25719594955,0.0,3.67467021942,5.34553813934,0.0,4.34792995453,4.35220003128,0.0,3.84298300743,4.00995922089,0.0,3.16972327232,5.00329780579,0.0
1449618263013423767,238,1449618263010883772,odom,3.34070086479,5.30604553223,0.0,3.6501955986,5.39112186432,0.0,4.31292057037,4.39072418213,0.0,3.80438494682,4.05383872986,0.0,3.14165997505,5.05423641205,0.0
1449618263315481744,239,1449618263307660656,odom,3.30487275124,5.34789943695,0.0,3.61345124245,5.43624162674,0.0,4.28671121597,4.44290304184,0.0,3.78176403046,4.10066270828,0.0,3.10850405693,5.09400081635,0.0
1449618263453638677,240,1449618263438654828,odom,3.25551795959,5.39778184891,0.0,3.56216025352,5.49262619019,0.0,4.25626373291,4.5137386322,0.0,3.75866246223,4.16090250015,0.0,3.06455922127,5.13979005814,0.0
1449618263677250972,241,1449618263673106333,odom,3.22899079323,5.4354557991,0.0,3.53563332558,5.53029966354,0.0,4.22973680496,4.5514125824,0.0,3.73213553429,4.19857645035,0.0,3.03803229332,5.17746400833,0.0
1449618263817868423,242,1449618263814658521,odom,3.19210028648,5.47633171082,0.0,3.49772334099,5.57441091537,0.0,4.20213270187,4.60291337967,0.0,3.70828819275,4.24483823776,0.0,3.00387883186,5.21633625031,0.0
1449618264082982174,243,1449618264079049822,odom,3.15829110146,5.522960186,0.0,3.46391415596,5.62103939056,0.0,4.16832351685,4.64954185486,0.0,3.67447900772,4.29146718979,0.0,2.97006964684,5.26296472549,0.0
1449618264210820596,244,1449618264210524723,odom,3.11757254601,5.55729961395,0.0,3.42105460167,5.66181612015,0.0,4.14583873749,4.70542287827,0.0,3.65967202187,4.33699083328,0.0,2.93488788605,5.29338407516,0.0
1449618264408244635,245,1449618264404683236,odom,3.08266472816,5.60311031342,0.0,3.38614654541,5.70762681961,0.0,4.11093091965,4.75123357773,0.0,3.62476420403,4.38280200958,0.0,2.89998006821,5.33919525146,0.0
1449618264600698881,246,1449618264591864988,odom,3.04094576836,5.64733123779,0.0,3.34330630302,5.75504875183,0.0,4.07815694809,4.80636835098,0.0,3.595911026,4.43281936646,0.0,2.86106038094,5.3814997673,0.0
1449618264823403828,247,1449618264802643595,odom,3.00245690346,5.68668603897,0.0,3.30366206169,5.79759311676,0.0,4.04849720001,4.85673189163,0.0,3.57022595406,4.47810697556,0.0,2.82539081573,5.41896867752,0.0
1449618265030705616,248,1449618265027671101,odom,2.96279978752,5.73609399796,0.0,3.26400494576,5.84700107574,0.0,4.00884008408,4.90613937378,0.0,3.53056883812,4.52751493454,0.0,2.7857336998,5.46837663651,0.0
1449618265231770479,249,1449618265229563781,odom,2.91704392433,5.77315950394,0.0,3.21583795547,5.89040803909,0.0,3.98039126396,4.96549797058,0.0,3.5102288723,4.57684993744,0.0,2.74567532539,5.50176000595,0.0
1449618265375606386,250,1449618265372247988,odom,2.87365698814,5.81571435928,0.0,3.17119526863,5.93611335754,0.0,3.94548034668,5.01933526993,0.0,3.47945141792,4.62574005127,0.0,2.70516633987,5.54251861572,0.0
1449618265627181954,251,1449618265622834693,odom,2.83637833595,5.85961771011,0.0,3.13391661644,5.98001718521,0.0,3.90820169449,5.06323862076,0.0,3.44217252731,4.6696434021,0.0,2.66788744926,5.58642196655,0.0
1449618265776754708,252,1449618265775455731,odom,2.78841233253,5.90575456619,0.0,3.08466172218,6.02929162979,0.0,3.86859178543,5.12074708939,0.0,3.40674829483,4.72224903107,0.0,2.62281799316,5.63079357147,0.0
1449618266009363191,253,1449618266007511333,odom,2.74117636681,5.94089412689,0.0,3.03474855423,6.07066488266,0.0,3.83770537376,5.17889070511,0.0,3.3843870163,4.77072095871,0.0,2.58143019676,5.66249513626,0.0
1449618266194313174,254,1449618266192082350,odom,2.70295548439,5.983979702,0.0,2.99652767181,6.11374998093,0.0,3.79948449135,5.22197628021,0.0,3.34616613388,4.81380653381,0.0,2.54320931435,5.70558023453,0.0
1449618266431640790,255,1449618266431217787,odom,2.66056227684,6.03106212616,0.0,2.95413446426,6.16083240509,0.0,3.7570912838,5.26905870438,0.0,3.30377292633,4.86088895798,0.0,2.5008161068,5.75266265869,0.0
1449618266628039169,256,1449618266620516911,odom,2.61917996407,6.0673828125,0.0,2.91136431694,6.20024871826,0.0,3.72370028496,5.31700992584,0.0,3.27472066879,4.90407276154,0.0,2.46238470078,5.78731107712,0.0
1449618266805953864,257,1449618266804699265,odom,2.58019042015,6.10977554321,0.0,2.87237501144,6.24264097214,0.0,3.68471097946,5.35940265656,0.0,3.2357313633,4.94646501541,0.0,2.42339539528,5.82970333099,0.0
1449618267005665568,258,1449618267003168611,odom,2.54113435745,6.15210580826,0.0,2.83331871033,6.28497123718,0.0,3.64565491676,5.40173244476,0.0,3.1966753006,4.98879528046,0.0,2.38433909416,5.87203359604,0.0
1449618267232302634,259,1449618267222293984,odom,2.49925875664,6.18788337708,0.0,2.79002285004,6.32382965088,0.0,3.6116476059,5.44922494888,0.0,3.16705679893,5.0315656662,0.0,2.34543228149,5.90617036819,0.0
1449618267431327215,260,1449618267431204444,odom,2.4598236084,6.2298617363,0.0,2.7505877018,6.36580753326,0.0,3.57221245766,5.49120283127,0.0,3.1276216507,5.07354354858,0.0,2.30599713326,5.94814825058,0.0
1449618267604631359,261,1449618267602500312,odom,2.42178082466,6.26124858856,0.0,2.71109199524,6.40025949478,0.0,3.54191350937,5.53438663483,0.0,3.10176134109,5.11205244064,0.0,2.27093982697,5.9779253006,0.0
1449618267808729036,262,1449618267802092291,odom,2.38212490082,6.30301713943,0.0,2.6714360714,6.44202804565,0.0,3.50225758553,5.5761551857,0.0,3.06210541725,5.15382099152,0.0,2.23128414154,6.01969385147,0.0
1449618267984926352,263,1449618267982278588,odom,2.34502029419,6.35117864609,0.0,2.63578438759,6.48712444305,0.0,3.45740890503,5.6125202179,0.0,3.01281833649,5.19486093521,0.0,2.19119381905,6.06946563721,0.0
1449618268194721562,264,1449618268193921180,odom,2.30959558487,6.3890209198,0.0,2.60035967827,6.52496671677,0.0,3.42198419571,5.65036249161,0.0,2.97739362717,5.23270320892,0.0,2.15576910973,6.10730791092,0.0
1449618268411376864,265,1449618268407661533,odom,2.28086662292,6.42915582657,0.0,2.57305121422,6.56202125549,0.0,3.38538718224,5.67878293991,0.0,2.93640756607,5.26584529877,0.0,2.12407159805,6.14908361435,0.0
1449618268608111270,266,1449618268605970305,odom,2.24577641487,6.46730899811,0.0,2.53796076775,6.60017442703,0.0,3.35029673576,5.71693611145,0.0,2.90131735802,5.30399847031,0.0,2.08898115158,6.18723678589,0.0
1449618268804751068,267,1449618268781690339,odom,2.22112464905,6.50328016281,0.0,2.51469683647,6.63305091858,0.0,3.31765341759,5.74127674103,0.0,2.86433506012,5.33310747147,0.0,2.061378479,6.22488117218,0.0
1449618269025212105,268,1449618269019207308,odom,2.18619179726,6.54157686234,0.0,2.47976398468,6.67134714127,0.0,3.28272080421,5.77957344055,0.0,2.82940244675,5.37140369415,0.0,2.02644562721,6.26317739487,0.0
1449618269221827658,269,1449618269221375349,odom,2.14379858971,6.5886592865,0.0,2.43737077713,6.71842956543,0.0,3.24032759666,5.82665586472,0.0,2.7870092392,5.41848611832,0.0,1.98405253887,6.31025981903,0.0
1449618269427752206,270,1449618269426783385,odom,2.12354135513,6.62075090408,0.0,2.41846871376,6.74741125107,0.0,3.21195626259,5.84720182419,0.0,2.75434994698,5.4438457489,0.0,1.96086204052,6.34405517578,0.0
1449618269626568475,271,1449618269625702946,odom,2.0929145813,6.65517473221,0.0,2.38784170151,6.78183507919,0.0,3.18132948875,5.88162565231,0.0,2.72372293472,5.47826957703,0.0,1.93023526669,6.37847900391,0.0
1449618269801036814,272,1449618269798467557,odom,2.05489873886,6.69844150543,0.0,2.34982585907,6.82510232925,0.0,3.14331364632,5.92489290237,0.0,2.68570709229,5.52153635025,0.0,1.89221942425,6.42174577713,0.0
1449618269981514422,273,1449618269981406282,odom,2.02731895447,6.73934650421,0.0,2.3235681057,6.86288356781,0.0,3.10749840736,5.9543390274,0.0,2.64565467834,5.55584096909,0.0,1.8617246151,6.46438550949,0.0
1449618270219593644,274,1449618270219265289,odom,1.99352490902,6.77865219116,0.0,2.28977417946,6.90218925476,0.0,3.07370448112,5.99364423752,0.0,2.61186075211,5.59514665604,0.0,1.82793068886,6.50369119644,0.0
1449618270405835626,275,1449618270403287397,odom,1.96732568741,6.8092956543,0.0,2.26357507706,6.9328327179,0.0,3.0475051403,6.02428770065,0.0,2.5856616497,5.62579011917,0.0,1.80173134804,6.53433465958,0.0
1449618270602661683,276,1449618270602458214,odom,1.95142114162,6.83736848831,0.0,2.24895954132,6.95776748657,0.0,3.02324438095,6.04098939896,0.0,2.55721545219,5.6473941803,0.0,1.78293037415,6.56417274475,0.0
1449618270784489791,277,1449618270783334733,odom,1.94027221203,6.8505692482,0.0,2.23781061172,6.97096824646,0.0,3.01209568977,6.05418968201,0.0,2.5460665226,5.66059494019,0.0,1.77178144455,6.57737350464,0.0
1449618271050032602,278,1449618271045259462,odom,1.93286299706,6.85938930511,0.0,2.23040127754,6.97978830338,0.0,3.00468635559,6.06300973892,0.0,2.53865718842,5.6694149971,0.0,1.76437222958,6.58619356155,0.0
1449618271233634330,279,1449618271232023872,odom,1.93286299706,6.85938930511,0.0,2.23040127754,6.97978830338,0.0,3.00468635559,6.06300973892,0.0,2.53865718842,5.6694149971,0.0,1.76437222958,6.58619356155,0.0
1449618271435828215,280,1449618271433765089,odom,1.93286299706,6.85938930511,0.0,2.23040127754,6.97978830338,0.0,3.00468635559,6.06300973892,0.0,2.53865718842,5.6694149971,0.0,1.76437222958,6.58619356155,0.0
1449618271580832173,281,1449618271580645317,odom,1.93286299706,6.85938930511,0.0,2.23040127754,6.97978830338,0.0,3.00468635559,6.06300973892,0.0,2.53865718842,5.6694149971,0.0,1.76437222958,6.58619356155,0.0
1449618271797468477,282,1449618271795272422,odom,1.93932032585,6.86103200912,0.0,2.23811435699,6.97828006744,0.0,3.00266766548,6.05336999893,0.0,2.53250527382,5.66472244263,0.0,1.76795184612,6.5896320343,0.0
