%time,field.header.seq,field.header.stamp,field.header.frame_id,field.ns,field.id,field.type,field.action,field.pose.position.x,field.pose.position.y,field.pose.position.z,field.pose.orientation.x,field.pose.orientation.y,field.pose.orientation.z,field.pose.orientation.w,field.scale.x,field.scale.y,field.scale.z,field.color.r,field.color.g,field.color.b,field.color.a,field.lifetime,field.frame_locked,field.text,field.mesh_resource,field.mesh_use_embedded_materials
1449618217940254289,0,1449618217888902188,/odom,doorways,0,0,0,2.49454879761,0.455956399441,0.739244997501,0.0,0.0,0.396748617156,0.917927303649,0.75,0.08,0.08,0.0,1.0,0.0,1.0,300000000,0,,,0
1449618218083897927,1,1449618218032414226,/odom,doorways,0,0,0,2.52485704422,0.500064253807,0.757705032825,0.0,0.0,0.438654716051,0.898655684946,0.75,0.08,0.08,0.0,1.0,0.0,1.0,300000000,0,,,0
1449618218250376283,2,1449618218199913686,/odom,doorways,0,0,0,2.47844791412,0.454200923443,0.719124853611,0.0,0.0,0.392178173635,0.919889276013,0.75,0.08,0.08,0.0,1.0,0.0,1.0,300000000,0,,,0
1449618218385777064,3,1449618218335427097,/odom,doorways,0,0,0,2.52902507782,0.49641045928,0.74807280302,0.0,0.0,0.435768051658,0.90005900093,0.75,0.08,0.08,0.0,1.0,0.0,1.0,300000000,0,,,0
1449618218562097213,4,1449618218335427097,/odom,doorways,0,0,0,2.52902507782,0.49641045928,0.74807280302,0.0,0.0,0.435768051658,0.90005900093,0.75,0.08,0.08,0.0,1.0,0.0,1.0,300000000,0,,,0
1449618218632955759,5,1449618218335427097,/odom,doorways,0,0,0,2.52902507782,0.49641045928,0.74807280302,0.0,0.0,0.435768051658,0.90005900093,0.75,0.08,0.08,0.0,1.0,0.0,1.0,300000000,0,,,0
1449618218805955072,6,1449618218335427097,/odom,doorways,0,0,0,2.52902507782,0.49641045928,0.74807280302,0.0,0.0,0.435768051658,0.90005900093,0.75,0.08,0.08,0.0,1.0,0.0,1.0,300000000,0,,,0
1449618219102177737,7,1449618219050613687,/odom,doorways,0,0,0,2.48396611214,0.451970756054,0.729234218597,0.0,0.0,0.389346860394,0.921091212802,0.75,0.08,0.08,0.0,1.0,0.0,1.0,300000000,0,,,0
1449618219568869993,8,1449618219517822127,/odom,doorways,0,0,0,2.46901321411,0.465770155191,0.718981087208,0.0,0.0,0.403460569293,0.91499703225,0.75,0.08,0.08,0.0,1.0,0.0,1.0,300000000,0,,,0
1449618219776583308,9,1449618219718422020,/odom,doorways,0,0,0,2.51939129829,0.499664127827,0.768067657948,0.0,0.0,0.444050506994,0.89600175627,0.75,0.08,0.08,0.0,1.0,0.0,1.0,300000000,0,,,0
1449618219892247901,10,1449618219718422020,/odom,doorways,0,0,0,2.51939129829,0.499664127827,0.768067657948,0.0,0.0,0.444050506994,0.89600175627,0.75,0.08,0.08,0.0,1.0,0.0,1.0,300000000,0,,,0
1449618220076947446,11,1449618220026234524,/odom,doorways,0,0,0,2.46872234344,0.440183579922,0.749215185642,0.0,0.0,0.386058384823,0.922474348428,0.75,0.08,0.08,0.0,1.0,0.0,1.0,300000000,0,,,0
1449618220267050588,12,1449618220216214344,/odom,doorways,0,0,0,2.48971700668,0.472771406174,0.758023917675,0.0,0.0,0.422623455253,0.906305365244,0.75,0.08,0.08,0.0,1.0,0.0,1.0,300000000,0,,,0
1449618220384608825,13,1449618220333100510,/odom,doorways,0,0,0,2.53237366676,0.500520467758,0.758146524429,0.0,0.0,0.444557132776,0.895750498575,0.75,0.08,0.08,0.0,1.0,0.0,1.0,300000000,0,,,0
1449618220580202075,14,1449618220529713701,/odom,doorways,0,0,0,2.51075649261,0.496521413326,0.768209218979,0.0,0.0,0.437296216939,0.89931752938,0.75,0.08,0.08,0.0,1.0,0.0,1.0,300000000,0,,,0
1449618220765799838,15,1449618220529713701,/odom,doorways,0,0,0,2.51075649261,0.496521413326,0.768209218979,0.0,0.0,0.437296216939,0.89931752938,0.75,0.08,0.08,0.0,1.0,0.0,1.0,300000000,0,,,0
1449618220978878112,16,1449618220927292133,/odom,doorways,0,0,0,2.48685669899,0.470259636641,0.757877469063,0.0,0.0,0.419401425477,0.907800883624,0.75,0.08,0.08,0.0,1.0,0.0,1.0,300000000,0,,,0
1449618221160441244,17,1449618220927292133,/odom,doorways,0,0,0,2.48685669899,0.470259636641,0.757877469063,0.0,0.0,0.419401425477,0.907800883624,0.75,0.08,0.08,0.0,1.0,0.0,1.0,300000000,0,,,0
1449618221273823199,18,1449618220927292133,/odom,doorways,0,0,0,2.48685669899,0.470259636641,0.757877469063,0.0,0.0,0.419401425477,0.907800883624,0.75,0.08,0.08,0.0,1.0,0.0,1.0,300000000,0,,,0
1449618221512271257,19,1449618221459360646,/odom,doorways,0,0,0,2.51949214935,0.498387813568,0.778814435005,0.0,0.0,0.44516425562,0.895448929598,0.75,0.08,0.08,0.0,1.0,0.0,1.0,300000000,0,,,0
1449618221660187146,20,1449618221608727147,/odom,doorways,0,0,0,2.50947260857,0.490123927593,0.777519404888,0.0,0.0,0.435769630642,0.900058236455,0.75,0.08,0.08,0.0,1.0,0.0,1.0,300000000,0,,,0
1449618221859956234,21,1449618221808856474,/odom,doorways,0,0,0,2.49080085754,0.470821648836,0.757816791534,0.0,0.0,0.431966995073,0.901889414045,0.75,0.08,0.08,0.0,1.0,0.0,1.0,300000000,0,,,0
1449618222086553520,22,1449618222034556541,/odom,doorways,0,0,0,2.4911737442,0.465543091297,0.748564243317,0.0,0.0,0.421647148884,0.906759991309,0.75,0.08,0.08,0.0,1.0,0.0,1.0,300000000,0,,,0
1449618222278018716,23,1449618222226461831,/odom,doorways,0,0,0,2.50823044777,0.48419469595,0.718238532543,0.0,0.0,0.439301883126,0.89833949901,0.75,0.08,0.08,0.0,1.0,0.0,1.0,300000000,0,,,0
1449618222440135839,24,1449618222389701081,/odom,doorways,0,0,0,2.50030326843,0.502387404442,0.758508145809,0.0,0.0,0.44145658738,0.897282609582,0.75,0.08,0.08,0.0,1.0,0.0,1.0,300000000,0,,,0
1449618222677214963,25,1449618222625708248,/odom,doorways,0,0,0,2.46480894089,0.459374666214,0.728970050812,0.0,0.0,0.40126043987,0.915964005513,0.75,0.08,0.08,0.0,1.0,0.0,1.0,300000000,0,,,0
1449618222873833636,26,1449618222822397061,/odom,doorways,0,0,0,2.49175834656,0.498845279217,0.73823428154,0.0,0.0,0.435195550959,0.900335955311,0.75,0.08,0.08,0.0,1.0,0.0,1.0,300000000,0,,,0
1449618223078639154,27,1449618223027232408,/odom,doorways,0,0,0,2.5036687851,0.495040595531,0.748087644577,0.0,0.0,0.441957739356,0.89703587254,0.75,0.08,0.08,0.0,1.0,0.0,1.0,300000000,0,,,0
1449618223284705069,28,1449618223232860142,/odom,doorways,0,0,0,2.45556855202,0.465396881104,0.75888478756,0.0,0.0,0.399211845461,0.916858714549,0.75,0.08,0.08,0.0,1.0,0.0,1.0,300000000,0,,,0
1449618223473777023,29,1449618223422341171,/odom,doorways,0,0,0,2.46415615082,0.461211383343,0.739003956318,0.0,0.0,0.401922038616,0.915673891118,0.75,0.08,0.08,0.0,1.0,0.0,1.0,300000000,0,,,0
1449618223661108936,30,1449618223610299989,/odom,doorways,0,0,0,2.4540605545,0.470898389816,0.749102175236,0.0,0.0,0.401073577699,0.916045842342,0.75,0.08,0.08,0.0,1.0,0.0,1.0,300000000,0,,,0
1449618223910714524,31,1449618223857022639,/odom,doorways,0,0,0,2.46420812607,0.468270868063,0.728970825672,0.0,0.0,0.407082147655,0.913391550793,0.75,0.08,0.08,0.0,1.0,0.0,1.0,300000000,0,,,0
1449618224076871612,32,1449618224026262764,/odom,doorways,0,0,0,2.46125173569,0.465902000666,0.739027500153,0.0,0.0,0.403199479029,0.915112113411,0.75,0.08,0.08,0.0,1.0,0.0,1.0,300000000,0,,,0
1449618224387671182,33,1449618224334627861,/odom,doorways,0,0,0,2.48884510994,0.486004859209,0.747720181942,0.0,0.0,0.430326237745,0.902673434365,0.75,0.08,0.08,0.0,1.0,0.0,1.0,300000000,0,,,0
1449618224557419236,34,1449618224506609130,/odom,doorways,0,0,0,2.46935033798,0.477155804634,0.758703052998,0.0,0.0,0.41368732429,0.910419023155,0.75,0.08,0.08,0.0,1.0,0.0,1.0,300000000,0,,,0
1449618224676064695,35,1449618224624342723,/odom,doorways,0,0,0,2.47137713432,0.468975007534,0.748950183392,0.0,0.0,0.409316235241,0.912392579742,0.75,0.08,0.08,0.0,1.0,0.0,1.0,300000000,0,,,0
1449618224856235935,36,1449618224805250239,/odom,doorways,0,0,0,2.4881131649,0.510502636433,0.768262505531,0.0,0.0,0.444148714135,0.895953078979,0.75,0.08,0.08,0.0,1.0,0.0,1.0,300000000,0,,,0
1449618224992823066,37,1449618224941081342,/odom,doorways,0,0,0,2.51957559586,0.473131626844,0.768297672272,0.0,0.0,0.440250275748,0.897875099724,0.75,0.08,0.08,0.0,1.0,0.0,1.0,300000000,0,,,0
1449618225184778637,38,1449618225132900122,/odom,doorways,0,0,0,2.47355437279,0.489164710045,0.738593101501,0.0,0.0,0.430461536605,0.902608921684,0.75,0.08,0.08,0.0,1.0,0.0,1.0,300000000,0,,,0
1449618225392779672,39,1449618225342260858,/odom,doorways,0,0,0,2.47147250175,0.447161734104,0.759232878685,0.0,0.0,0.421848274962,0.906666439718,0.75,0.08,0.08,0.0,1.0,0.0,1.0,300000000,0,,,0
1449618225563368551,40,1449618225509617094,/odom,doorways,0,0,0,2.4743103981,0.453462302685,0.7491492033,0.0,0.0,0.426050329297,0.9046994622,0.75,0.08,0.08,0.0,1.0,0.0,1.0,300000000,0,,,0
1449618225818326471,41,1449618225767601327,/odom,doorways,0,0,0,2.46980571747,0.412968665361,0.749452650547,0.0,0.0,0.410759015759,0.911743950335,0.75,0.08,0.08,0.0,1.0,0.0,1.0,300000000,0,,,0
1449618225959826559,42,1449618225908625348,/odom,doorways,0,0,0,2.45825099945,0.422068834305,0.759434103966,0.0,0.0,0.409684294236,0.912227372455,0.75,0.08,0.08,0.0,1.0,0.0,1.0,300000000,0,,,0
1449618226170628207,43,1449618226119526745,/odom,doorways,0,0,0,2.49158716202,0.392063856125,0.709027707577,0.0,0.0,0.400852939425,0.916142413031,0.75,0.08,0.08,0.0,1.0,0.0,1.0,300000000,0,,,0
1449618226383861130,44,1449618226331423315,/odom,doorways,0,0,0,2.47208929062,0.427032858133,0.738767504692,0.0,0.0,0.407963405022,0.912998280482,0.75,0.08,0.08,0.0,1.0,0.0,1.0,300000000,0,,,0
1449618226584239742,45,1449618226533723207,/odom,doorways,0,0,0,2.46843552589,0.407871603966,0.69815325737,0.0,0.0,0.399661605182,0.916662752239,0.75,0.08,0.08,0.0,1.0,0.0,1.0,300000000,0,,,0
1449618226774950199,46,1449618226723967130,/odom,doorways,0,0,0,2.53407073021,0.447208940983,0.757932424545,0.0,0.0,0.438569272067,0.89869738711,0.75,0.08,0.08,0.0,1.0,0.0,1.0,300000000,0,,,0
1449618227011442965,47,1449618226929036457,/odom,doorways,0,0,0,2.48644018173,0.434260249138,0.707369685173,0.0,0.0,0.412069030543,0.911152629403,0.75,0.08,0.08,0.0,1.0,0.0,1.0,300000000,0,,,0
1449618227179143117,48,1449618227109206134,/odom,doorways,0,0,0,2.45394992828,0.429497241974,0.707999885082,0.0,0.0,0.388718079702,0.921356746604,0.75,0.08,0.08,0.0,1.0,0.0,1.0,300000000,0,,,0
1449618227690903388,49,1449618227109206134,/odom,doorways,0,0,0,2.45394992828,0.429497241974,0.707999885082,0.0,0.0,0.388718079702,0.921356746604,0.75,0.08,0.08,0.0,1.0,0.0,1.0,300000000,0,,,0
1449618227904883540,50,1449618227833982624,/odom,doorways,0,0,0,2.37897467613,0.339547008276,0.66853260994,0.0,0.0,0.354180225848,0.935177185146,0.75,0.08,0.08,0.0,1.0,0.0,1.0,300000000,0,,,0
1449618228111231401,51,1449618227833982624,/odom,doorways,0,0,0,2.37897467613,0.339547008276,0.66853260994,0.0,0.0,0.354180225848,0.935177185146,0.75,0.08,0.08,0.0,1.0,0.0,1.0,300000000,0,,,0
1449618228275035201,52,1449618227833982624,/odom,doorways,0,0,0,2.37897467613,0.339547008276,0.66853260994,0.0,0.0,0.354180225848,0.935177185146,0.75,0.08,0.08,0.0,1.0,0.0,1.0,300000000,0,,,0
1449618228400220653,53,1449618228334864648,/odom,doorways,0,0,0,2.4847548008,0.463212162256,0.727487385273,0.0,0.0,0.437641725844,0.899149442418,0.75,0.08,0.08,0.0,1.0,0.0,1.0,300000000,0,,,0
1449618228594809465,54,1449618228535631724,/odom,doorways,0,0,0,2.46558618546,0.464340567589,0.69746285677,0.0,0.0,0.409853309986,0.912151448112,0.75,0.08,0.08,0.0,1.0,0.0,1.0,300000000,0,,,0
1449618228658797946,55,1449618228535631724,/odom,doorways,0,0,0,2.46558618546,0.464340567589,0.69746285677,0.0,0.0,0.409853309986,0.912151448112,0.75,0.08,0.08,0.0,1.0,0.0,1.0,300000000,0,,,0
1449618228791835984,56,1449618228535631724,/odom,doorways,0,0,0,2.46558618546,0.464340567589,0.69746285677,0.0,0.0,0.409853309986,0.912151448112,0.75,0.08,0.08,0.0,1.0,0.0,1.0,300000000,0,,,0
1449618229018086607,57,1449618228535631724,/odom,doorways,0,0,0,2.46558618546,0.464340567589,0.69746285677,0.0,0.0,0.409853309986,0.912151448112,0.75,0.08,0.08,0.0,1.0,0.0,1.0,300000000,0,,,0
1449618229217051117,58,1449618228535631724,/odom,doorways,0,0,0,2.46558618546,0.464340567589,0.69746285677,0.0,0.0,0.409853309986,0.912151448112,0.75,0.08,0.08,0.0,1.0,0.0,1.0,300000000,0,,,0
1449618229378808292,59,1449618228535631724,/odom,doorways,0,0,0,2.46558618546,0.464340567589,0.69746285677,0.0,0.0,0.409853309986,0.912151448112,0.75,0.08,0.08,0.0,1.0,0.0,1.0,300000000,0,,,0
1449618229500414810,60,1449618228535631724,/odom,doorways,0,0,0,2.46558618546,0.464340567589,0.69746285677,0.0,0.0,0.409853309986,0.912151448112,0.75,0.08,0.08,0.0,1.0,0.0,1.0,300000000,0,,,0
1449618229732857948,61,1449618228535631724,/odom,doorways,0,0,0,2.46558618546,0.464340567589,0.69746285677,0.0,0.0,0.409853309986,0.912151448112,0.75,0.08,0.08,0.0,1.0,0.0,1.0,300000000,0,,,0
1449618230103015144,62,1449618228535631724,/odom,doorways,0,0,0,2.46558618546,0.464340567589,0.69746285677,0.0,0.0,0.409853309986,0.912151448112,0.75,0.08,0.08,0.0,1.0,0.0,1.0,300000000,0,,,0
1449618230426711292,63,1449618228535631724,/odom,doorways,0,0,0,2.46558618546,0.464340567589,0.69746285677,0.0,0.0,0.409853309986,0.912151448112,0.75,0.08,0.08,0.0,1.0,0.0,1.0,300000000,0,,,0
1449618230811612739,64,1449618228535631724,/odom,doorways,0,0,0,2.46558618546,0.464340567589,0.69746285677,0.0,0.0,0.409853309986,0.912151448112,0.75,0.08,0.08,0.0,1.0,0.0,1.0,300000000,0,,,0
1449618231194204493,65,1449618228535631724,/odom,doorways,0,0,0,2.46558618546,0.464340567589,0.69746285677,0.0,0.0,0.409853309986,0.912151448112,0.75,0.08,0.08,0.0,1.0,0.0,1.0,300000000,0,,,0
1449618231570107870,66,1449618228535631724,/odom,doorways,0,0,0,2.46558618546,0.464340567589,0.69746285677,0.0,0.0,0.409853309986,0.912151448112,0.75,0.08,0.08,0.0,1.0,0.0,1.0,300000000,0,,,0
1449618231999819769,67,1449618228535631724,/odom,doorways,0,0,0,2.46558618546,0.464340567589,0.69746285677,0.0,0.0,0.409853309986,0.912151448112,0.75,0.08,0.08,0.0,1.0,0.0,1.0,300000000,0,,,0
1449618232257199872,68,1449618228535631724,/odom,doorways,0,0,0,2.46558618546,0.464340567589,0.69746285677,0.0,0.0,0.409853309986,0.912151448112,0.75,0.08,0.08,0.0,1.0,0.0,1.0,300000000,0,,,0
1449618232511569365,69,1449618228535631724,/odom,doorways,0,0,0,2.46558618546,0.464340567589,0.69746285677,0.0,0.0,0.409853309986,0.912151448112,0.75,0.08,0.08,0.0,1.0,0.0,1.0,300000000,0,,,0
1449618232744453427,70,1449618228535631724,/odom,doorways,0,0,0,2.46558618546,0.464340567589,0.69746285677,0.0,0.0,0.409853309986,0.912151448112,0.75,0.08,0.08,0.0,1.0,0.0,1.0,300000000,0,,,0
1449618233001538145,71,1449618228535631724,/odom,doorways,0,0,0,2.46558618546,0.464340567589,0.69746285677,0.0,0.0,0.409853309986,0.912151448112,0.75,0.08,0.08,0.0,1.0,0.0,1.0,300000000,0,,,0
1449618233338760180,72,1449618228535631724,/odom,doorways,0,0,0,2.46558618546,0.464340567589,0.69746285677,0.0,0.0,0.409853309986,0.912151448112,0.75,0.08,0.08,0.0,1.0,0.0,1.0,300000000,0,,,0
1449618233450086451,73,1449618228535631724,/odom,doorways,0,0,0,2.46558618546,0.464340567589,0.69746285677,0.0,0.0,0.409853309986,0.912151448112,0.75,0.08,0.08,0.0,1.0,0.0,1.0,300000000,0,,,0
1449618233586090314,74,1449618228535631724,/odom,doorways,0,0,0,2.46558618546,0.464340567589,0.69746285677,0.0,0.0,0.409853309986,0.912151448112,0.75,0.08,0.08,0.0,1.0,0.0,1.0,300000000,0,,,0
1449618233692177773,75,1449618228535631724,/odom,doorways,0,0,0,2.46558618546,0.464340567589,0.69746285677,0.0,0.0,0.409853309986,0.912151448112,0.75,0.08,0.08,0.0,1.0,0.0,1.0,300000000,0,,,0
1449618233908692924,76,1449618228535631724,/odom,doorways,0,0,0,2.46558618546,0.464340567589,0.69746285677,0.0,0.0,0.409853309986,0.912151448112,0.75,0.08,0.08,0.0,1.0,0.0,1.0,300000000,0,,,0
1449618234038285196,77,1449618228535631724,/odom,doorways,0,0,0,2.46558618546,0.464340567589,0.69746285677,0.0,0.0,0.409853309986,0.912151448112,0.75,0.08,0.08,0.0,1.0,0.0,1.0,300000000,0,,,0
1449618234202572531,78,1449618228535631724,/odom,doorways,0,0,0,2.46558618546,0.464340567589,0.69746285677,0.0,0.0,0.409853309986,0.912151448112,0.75,0.08,0.08,0.0,1.0,0.0,1.0,300000000,0,,,0
1449618234296334812,79,1449618228535631724,/odom,doorways,0,0,0,2.46558618546,0.464340567589,0.69746285677,0.0,0.0,0.409853309986,0.912151448112,0.75,0.08,0.08,0.0,1.0,0.0,1.0,300000000,0,,,0
1449618234500122754,80,1449618228535631724,/odom,doorways,0,0,0,2.46558618546,0.464340567589,0.69746285677,0.0,0.0,0.409853309986,0.912151448112,0.75,0.08,0.08,0.0,1.0,0.0,1.0,300000000,0,,,0
1449618234847457805,81,1449618228535631724,/odom,doorways,0,0,0,2.46558618546,0.464340567589,0.69746285677,0.0,0.0,0.409853309986,0.912151448112,0.75,0.08,0.08,0.0,1.0,0.0,1.0,300000000,0,,,0
1449618235014547814,82,1449618228535631724,/odom,doorways,0,0,0,2.46558618546,0.464340567589,0.69746285677,0.0,0.0,0.409853309986,0.912151448112,0.75,0.08,0.08,0.0,1.0,0.0,1.0,300000000,0,,,0
1449618235245708732,83,1449618228535631724,/odom,doorways,0,0,0,2.46558618546,0.464340567589,0.69746285677,0.0,0.0,0.409853309986,0.912151448112,0.75,0.08,0.08,0.0,1.0,0.0,1.0,300000000,0,,,0
1449618235367232953,84,1449618228535631724,/odom,doorways,0,0,0,2.46558618546,0.464340567589,0.69746285677,0.0,0.0,0.409853309986,0.912151448112,0.75,0.08,0.08,0.0,1.0,0.0,1.0,300000000,0,,,0
1449618235496947634,85,1449618228535631724,/odom,doorways,0,0,0,2.46558618546,0.464340567589,0.69746285677,0.0,0.0,0.409853309986,0.912151448112,0.75,0.08,0.08,0.0,1.0,0.0,1.0,300000000,0,,,0
1449618235661908295,86,1449618228535631724,/odom,doorways,0,0,0,2.46558618546,0.464340567589,0.69746285677,0.0,0.0,0.409853309986,0.912151448112,0.75,0.08,0.08,0.0,1.0,0.0,1.0,300000000,0,,,0
1449618235792684120,87,1449618228535631724,/odom,doorways,0,0,0,2.46558618546,0.464340567589,0.69746285677,0.0,0.0,0.409853309986,0.912151448112,0.75,0.08,0.08,0.0,1.0,0.0,1.0,300000000,0,,,0
1449618235969460728,88,1449618228535631724,/odom,doorways,0,0,0,2.46558618546,0.464340567589,0.69746285677,0.0,0.0,0.409853309986,0.912151448112,0.75,0.08,0.08,0.0,1.0,0.0,1.0,300000000,0,,,0
1449618236060262998,89,1449618228535631724,/odom,doorways,0,0,0,2.46558618546,0.464340567589,0.69746285677,0.0,0.0,0.409853309986,0.912151448112,0.75,0.08,0.08,0.0,1.0,0.0,1.0,300000000,0,,,0
1449618236265478980,90,1449618228535631724,/odom,doorways,0,0,0,2.46558618546,0.464340567589,0.69746285677,0.0,0.0,0.409853309986,0.912151448112,0.75,0.08,0.08,0.0,1.0,0.0,1.0,300000000,0,,,0
1449618236347485791,91,1449618228535631724,/odom,doorways,0,0,0,2.46558618546,0.464340567589,0.69746285677,0.0,0.0,0.409853309986,0.912151448112,0.75,0.08,0.08,0.0,1.0,0.0,1.0,300000000,0,,,0
1449618236447246986,92,1449618228535631724,/odom,doorways,0,0,0,2.46558618546,0.464340567589,0.69746285677,0.0,0.0,0.409853309986,0.912151448112,0.75,0.08,0.08,0.0,1.0,0.0,1.0,300000000,0,,,0
1449618236547789956,93,1449618228535631724,/odom,doorways,0,0,0,2.46558618546,0.464340567589,0.69746285677,0.0,0.0,0.409853309986,0.912151448112,0.75,0.08,0.08,0.0,1.0,0.0,1.0,300000000,0,,,0
1449618236676467932,94,1449618228535631724,/odom,doorways,0,0,0,2.46558618546,0.464340567589,0.69746285677,0.0,0.0,0.409853309986,0.912151448112,0.75,0.08,0.08,0.0,1.0,0.0,1.0,300000000,0,,,0
1449618236752782479,95,1449618228535631724,/odom,doorways,0,0,0,2.46558618546,0.464340567589,0.69746285677,0.0,0.0,0.409853309986,0.912151448112,0.75,0.08,0.08,0.0,1.0,0.0,1.0,300000000,0,,,0
1449618236845048319,96,1449618228535631724,/odom,doorways,0,0,0,2.46558618546,0.464340567589,0.69746285677,0.0,0.0,0.409853309986,0.912151448112,0.75,0.08,0.08,0.0,1.0,0.0,1.0,300000000,0,,,0
1449618236967590260,97,1449618228535631724,/odom,doorways,0,0,0,2.46558618546,0.464340567589,0.69746285677,0.0,0.0,0.409853309986,0.912151448112,0.75,0.08,0.08,0.0,1.0,0.0,1.0,300000000,0,,,0
1449618237171652668,98,1449618228535631724,/odom,doorways,0,0,0,2.46558618546,0.464340567589,0.69746285677,0.0,0.0,0.409853309986,0.912151448112,0.75,0.08,0.08,0.0,1.0,0.0,1.0,300000000,0,,,0
1449618237348307358,99,1449618228535631724,/odom,doorways,0,0,0,2.46558618546,0.464340567589,0.69746285677,0.0,0.0,0.409853309986,0.912151448112,0.75,0.08,0.08,0.0,1.0,0.0,1.0,300000000,0,,,0
1449618237472512577,100,1449618228535631724,/odom,doorways,0,0,0,2.46558618546,0.464340567589,0.69746285677,0.0,0.0,0.409853309986,0.912151448112,0.75,0.08,0.08,0.0,1.0,0.0,1.0,300000000,0,,,0
1449618237565905019,101,1449618228535631724,/odom,doorways,0,0,0,2.46558618546,0.464340567589,0.69746285677,0.0,0.0,0.409853309986,0.912151448112,0.75,0.08,0.08,0.0,1.0,0.0,1.0,300000000,0,,,0
1449618237726138459,102,1449618228535631724,/odom,doorways,0,0,0,2.46558618546,0.464340567589,0.69746285677,0.0,0.0,0.409853309986,0.912151448112,0.75,0.08,0.08,0.0,1.0,0.0,1.0,300000000,0,,,0
1449618237867524456,103,1449618228535631724,/odom,doorways,0,0,0,2.46558618546,0.464340567589,0.69746285677,0.0,0.0,0.409853309986,0.912151448112,0.75,0.08,0.08,0.0,1.0,0.0,1.0,300000000,0,,,0
1449618237970334547,104,1449618228535631724,/odom,doorways,0,0,0,2.46558618546,0.464340567589,0.69746285677,0.0,0.0,0.409853309986,0.912151448112,0.75,0.08,0.08,0.0,1.0,0.0,1.0,300000000,0,,,0
1449618238156976937,105,1449618228535631724,/odom,doorways,0,0,0,2.46558618546,0.464340567589,0.69746285677,0.0,0.0,0.409853309986,0.912151448112,0.75,0.08,0.08,0.0,1.0,0.0,1.0,300000000,0,,,0
1449618238346204310,106,1449618228535631724,/odom,doorways,0,0,0,2.46558618546,0.464340567589,0.69746285677,0.0,0.0,0.409853309986,0.912151448112,0.75,0.08,0.08,0.0,1.0,0.0,1.0,300000000,0,,,0
1449618238474831596,107,1449618228535631724,/odom,doorways,0,0,0,2.46558618546,0.464340567589,0.69746285677,0.0,0.0,0.409853309986,0.912151448112,0.75,0.08,0.08,0.0,1.0,0.0,1.0,300000000,0,,,0
1449618238664858509,108,1449618228535631724,/odom,doorways,0,0,0,2.46558618546,0.464340567589,0.69746285677,0.0,0.0,0.409853309986,0.912151448112,0.75,0.08,0.08,0.0,1.0,0.0,1.0,300000000,0,,,0
1449618238779802016,109,1449618228535631724,/odom,doorways,0,0,0,2.46558618546,0.464340567589,0.69746285677,0.0,0.0,0.409853309986,0.912151448112,0.75,0.08,0.08,0.0,1.0,0.0,1.0,300000000,0,,,0
1449618238856734202,110,1449618228535631724,/odom,doorways,0,0,0,2.46558618546,0.464340567589,0.69746285677,0.0,0.0,0.409853309986,0.912151448112,0.75,0.08,0.08,0.0,1.0,0.0,1.0,300000000,0,,,0
1449618238963807049,111,1449618228535631724,/odom,doorways,0,0,0,2.46558618546,0.464340567589,0.69746285677,0.0,0.0,0.409853309986,0.912151448112,0.75,0.08,0.08,0.0,1.0,0.0,1.0,300000000,0,,,0
1449618239074903655,112,1449618228535631724,/odom,doorways,0,0,0,2.46558618546,0.464340567589,0.69746285677,0.0,0.0,0.409853309986,0.912151448112,0.75,0.08,0.08,0.0,1.0,0.0,1.0,300000000,0,,,0
1449618239186705653,113,1449618228535631724,/odom,doorways,0,0,0,2.46558618546,0.464340567589,0.69746285677,0.0,0.0,0.409853309986,0.912151448112,0.75,0.08,0.08,0.0,1.0,0.0,1.0,300000000,0,,,0
1449618239284784235,114,1449618228535631724,/odom,doorways,0,0,0,2.46558618546,0.464340567589,0.69746285677,0.0,0.0,0.409853309986,0.912151448112,0.75,0.08,0.08,0.0,1.0,0.0,1.0,300000000,0,,,0
1449618239474884237,115,1449618228535631724,/odom,doorways,0,0,0,2.46558618546,0.464340567589,0.69746285677,0.0,0.0,0.409853309986,0.912151448112,0.75,0.08,0.08,0.0,1.0,0.0,1.0,300000000,0,,,0
1449618239578376206,116,1449618228535631724,/odom,doorways,0,0,0,2.46558618546,0.464340567589,0.69746285677,0.0,0.0,0.409853309986,0.912151448112,0.75,0.08,0.08,0.0,1.0,0.0,1.0,300000000,0,,,0
1449618239681174145,117,1449618228535631724,/odom,doorways,0,0,0,2.46558618546,0.464340567589,0.69746285677,0.0,0.0,0.409853309986,0.912151448112,0.75,0.08,0.08,0.0,1.0,0.0,1.0,300000000,0,,,0
1449618239794599212,118,1449618228535631724,/odom,doorways,0,0,0,2.46558618546,0.464340567589,0.69746285677,0.0,0.0,0.409853309986,0.912151448112,0.75,0.08,0.08,0.0,1.0,0.0,1.0,300000000,0,,,0
1449618239989179238,119,1449618228535631724,/odom,doorways,0,0,0,2.46558618546,0.464340567589,0.69746285677,0.0,0.0,0.409853309986,0.912151448112,0.75,0.08,0.08,0.0,1.0,0.0,1.0,300000000,0,,,0
1449618240152187844,120,1449618228535631724,/odom,doorways,0,0,0,2.46558618546,0.464340567589,0.69746285677,0.0,0.0,0.409853309986,0.912151448112,0.75,0.08,0.08,0.0,1.0,0.0,1.0,300000000,0,,,0
1449618240246130414,121,1449618228535631724,/odom,doorways,0,0,0,2.46558618546,0.464340567589,0.69746285677,0.0,0.0,0.409853309986,0.912151448112,0.75,0.08,0.08,0.0,1.0,0.0,1.0,300000000,0,,,0
1449618240367835224,122,1449618228535631724,/odom,doorways,0,0,0,2.46558618546,0.464340567589,0.69746285677,0.0,0.0,0.409853309986,0.912151448112,0.75,0.08,0.08,0.0,1.0,0.0,1.0,300000000,0,,,0
1449618240475369789,123,1449618228535631724,/odom,doorways,0,0,0,2.46558618546,0.464340567589,0.69746285677,0.0,0.0,0.409853309986,0.912151448112,0.75,0.08,0.08,0.0,1.0,0.0,1.0,300000000,0,,,0
1449618240573437147,124,1449618228535631724,/odom,doorways,0,0,0,2.46558618546,0.464340567589,0.69746285677,0.0,0.0,0.409853309986,0.912151448112,0.75,0.08,0.08,0.0,1.0,0.0,1.0,300000000,0,,,0
1449618240729983068,125,1449618228535631724,/odom,doorways,0,0,0,2.46558618546,0.464340567589,0.69746285677,0.0,0.0,0.409853309986,0.912151448112,0.75,0.08,0.08,0.0,1.0,0.0,1.0,300000000,0,,,0
1449618240882680613,126,1449618228535631724,/odom,doorways,0,0,0,2.46558618546,0.464340567589,0.69746285677,0.0,0.0,0.409853309986,0.912151448112,0.75,0.08,0.08,0.0,1.0,0.0,1.0,300000000,0,,,0
1449618240966482499,127,1449618228535631724,/odom,doorways,0,0,0,2.46558618546,0.464340567589,0.69746285677,0.0,0.0,0.409853309986,0.912151448112,0.75,0.08,0.08,0.0,1.0,0.0,1.0,300000000,0,,,0
1449618241049678325,128,1449618228535631724,/odom,doorways,0,0,0,2.46558618546,0.464340567589,0.69746285677,0.0,0.0,0.409853309986,0.912151448112,0.75,0.08,0.08,0.0,1.0,0.0,1.0,300000000,0,,,0
1449618241155419285,129,1449618228535631724,/odom,doorways,0,0,0,2.46558618546,0.464340567589,0.69746285677,0.0,0.0,0.409853309986,0.912151448112,0.75,0.08,0.08,0.0,1.0,0.0,1.0,300000000,0,,,0
1449618241260538654,130,1449618228535631724,/odom,doorways,0,0,0,2.46558618546,0.464340567589,0.69746285677,0.0,0.0,0.409853309986,0.912151448112,0.75,0.08,0.08,0.0,1.0,0.0,1.0,300000000,0,,,0
1449618241469158149,131,1449618228535631724,/odom,doorways,0,0,0,2.46558618546,0.464340567589,0.69746285677,0.0,0.0,0.409853309986,0.912151448112,0.75,0.08,0.08,0.0,1.0,0.0,1.0,300000000,0,,,0
1449618241573859477,132,1449618228535631724,/odom,doorways,0,0,0,2.46558618546,0.464340567589,0.69746285677,0.0,0.0,0.409853309986,0.912151448112,0.75,0.08,0.08,0.0,1.0,0.0,1.0,300000000,0,,,0
1449618241666725160,133,1449618228535631724,/odom,doorways,0,0,0,2.46558618546,0.464340567589,0.69746285677,0.0,0.0,0.409853309986,0.912151448112,0.75,0.08,0.08,0.0,1.0,0.0,1.0,300000000,0,,,0
1449618241788486899,134,1449618228535631724,/odom,doorways,0,0,0,2.46558618546,0.464340567589,0.69746285677,0.0,0.0,0.409853309986,0.912151448112,0.75,0.08,0.08,0.0,1.0,0.0,1.0,300000000,0,,,0
1449618241864634640,135,1449618228535631724,/odom,doorways,0,0,0,2.46558618546,0.464340567589,0.69746285677,0.0,0.0,0.409853309986,0.912151448112,0.75,0.08,0.08,0.0,1.0,0.0,1.0,300000000,0,,,0
1449618241960536313,136,1449618228535631724,/odom,doorways,0,0,0,2.46558618546,0.464340567589,0.69746285677,0.0,0.0,0.409853309986,0.912151448112,0.75,0.08,0.08,0.0,1.0,0.0,1.0,300000000,0,,,0
1449618242127931116,137,1449618228535631724,/odom,doorways,0,0,0,2.46558618546,0.464340567589,0.69746285677,0.0,0.0,0.409853309986,0.912151448112,0.75,0.08,0.08,0.0,1.0,0.0,1.0,300000000,0,,,0
1449618242259095983,138,1449618228535631724,/odom,doorways,0,0,0,2.46558618546,0.464340567589,0.69746285677,0.0,0.0,0.409853309986,0.912151448112,0.75,0.08,0.08,0.0,1.0,0.0,1.0,300000000,0,,,0
1449618242354093238,139,1449618228535631724,/odom,doorways,0,0,0,2.46558618546,0.464340567589,0.69746285677,0.0,0.0,0.409853309986,0.912151448112,0.75,0.08,0.08,0.0,1.0,0.0,1.0,300000000,0,,,0
1449618242477296562,140,1449618228535631724,/odom,doorways,0,0,0,2.46558618546,0.464340567589,0.69746285677,0.0,0.0,0.409853309986,0.912151448112,0.75,0.08,0.08,0.0,1.0,0.0,1.0,300000000,0,,,0
1449618242678285516,141,1449618228535631724,/odom,doorways,0,0,0,2.46558618546,0.464340567589,0.69746285677,0.0,0.0,0.409853309986,0.912151448112,0.75,0.08,0.08,0.0,1.0,0.0,1.0,300000000,0,,,0
1449618242825082776,142,1449618228535631724,/odom,doorways,0,0,0,2.46558618546,0.464340567589,0.69746285677,0.0,0.0,0.409853309986,0.912151448112,0.75,0.08,0.08,0.0,1.0,0.0,1.0,300000000,0,,,0
1449618242984455752,143,1449618228535631724,/odom,doorways,0,0,0,2.46558618546,0.464340567589,0.69746285677,0.0,0.0,0.409853309986,0.912151448112,0.75,0.08,0.08,0.0,1.0,0.0,1.0,300000000,0,,,0
1449618243071097567,144,1449618228535631724,/odom,doorways,0,0,0,2.46558618546,0.464340567589,0.69746285677,0.0,0.0,0.409853309986,0.912151448112,0.75,0.08,0.08,0.0,1.0,0.0,1.0,300000000,0,,,0
1449618243197111598,145,1449618228535631724,/odom,doorways,0,0,0,2.46558618546,0.464340567589,0.69746285677,0.0,0.0,0.409853309986,0.912151448112,0.75,0.08,0.08,0.0,1.0,0.0,1.0,300000000,0,,,0
1449618243374230522,146,1449618228535631724,/odom,doorways,0,0,0,2.46558618546,0.464340567589,0.69746285677,0.0,0.0,0.409853309986,0.912151448112,0.75,0.08,0.08,0.0,1.0,0.0,1.0,300000000,0,,,0
1449618243571331460,147,1449618228535631724,/odom,doorways,0,0,0,2.46558618546,0.464340567589,0.69746285677,0.0,0.0,0.409853309986,0.912151448112,0.75,0.08,0.08,0.0,1.0,0.0,1.0,300000000,0,,,0
1449618243702878600,148,1449618228535631724,/odom,doorways,0,0,0,2.46558618546,0.464340567589,0.69746285677,0.0,0.0,0.409853309986,0.912151448112,0.75,0.08,0.08,0.0,1.0,0.0,1.0,300000000,0,,,0
1449618243881909230,149,1449618228535631724,/odom,doorways,0,0,0,2.46558618546,0.464340567589,0.69746285677,0.0,0.0,0.409853309986,0.912151448112,0.75,0.08,0.08,0.0,1.0,0.0,1.0,300000000,0,,,0
1449618243976913286,150,1449618228535631724,/odom,doorways,0,0,0,2.46558618546,0.464340567589,0.69746285677,0.0,0.0,0.409853309986,0.912151448112,0.75,0.08,0.08,0.0,1.0,0.0,1.0,300000000,0,,,0
1449618244082157675,151,1449618228535631724,/odom,doorways,0,0,0,2.46558618546,0.464340567589,0.69746285677,0.0,0.0,0.409853309986,0.912151448112,0.75,0.08,0.08,0.0,1.0,0.0,1.0,300000000,0,,,0
1449618244198704921,152,1449618228535631724,/odom,doorways,0,0,0,2.46558618546,0.464340567589,0.69746285677,0.0,0.0,0.409853309986,0.912151448112,0.75,0.08,0.08,0.0,1.0,0.0,1.0,300000000,0,,,0
1449618244277878392,153,1449618228535631724,/odom,doorways,0,0,0,2.46558618546,0.464340567589,0.69746285677,0.0,0.0,0.409853309986,0.912151448112,0.75,0.08,0.08,0.0,1.0,0.0,1.0,300000000,0,,,0
1449618244379177288,154,1449618228535631724,/odom,doorways,0,0,0,2.46558618546,0.464340567589,0.69746285677,0.0,0.0,0.409853309986,0.912151448112,0.75,0.08,0.08,0.0,1.0,0.0,1.0,300000000,0,,,0
1449618245421301183,155,1449618228535631724,/odom,doorways,0,0,0,2.46558618546,0.464340567589,0.69746285677,0.0,0.0,0.409853309986,0.912151448112,0.75,0.08,0.08,0.0,1.0,0.0,1.0,300000000,0,,,0
1449618245531821606,156,1449618228535631724,/odom,doorways,0,0,0,2.46558618546,0.464340567589,0.69746285677,0.0,0.0,0.409853309986,0.912151448112,0.75,0.08,0.08,0.0,1.0,0.0,1.0,300000000,0,,,0
1449618245604406797,157,1449618228535631724,/odom,doorways,0,0,0,2.46558618546,0.464340567589,0.69746285677,0.0,0.0,0.409853309986,0.912151448112,0.75,0.08,0.08,0.0,1.0,0.0,1.0,300000000,0,,,0
1449618245722802844,158,1449618228535631724,/odom,doorways,0,0,0,2.46558618546,0.464340567589,0.69746285677,0.0,0.0,0.409853309986,0.912151448112,0.75,0.08,0.08,0.0,1.0,0.0,1.0,300000000,0,,,0
1449618253507719111,159,1449618253415789517,/odom,doorways,0,0,0,2.81640481949,5.80848550797,0.688959300518,0.0,0.0,0.904938036783,0.425543358053,0.75,0.08,0.08,0.0,1.0,0.0,1.0,300000000,0,,,0
1449618253955803567,160,1449618253875068603,/odom,doorways,0,0,0,2.83240175247,5.79339981079,0.688346147537,0.0,0.0,0.909559636296,0.415573420735,0.75,0.08,0.08,0.0,1.0,0.0,1.0,300000000,0,,,0
1449618254181799239,161,1449618254118557106,/odom,doorways,0,0,0,2.91186833382,5.71690940857,0.718604981899,0.0,0.0,0.921505817003,0.388364557124,0.75,0.08,0.08,0.0,1.0,0.0,1.0,300000000,0,,,0
1449618254367252824,162,1449618254304421250,/odom,doorways,0,0,0,2.85973572731,5.79406356812,0.67774784565,0.0,0.0,0.90125791824,0.433283007755,0.75,0.08,0.08,0.0,1.0,0.0,1.0,300000000,0,,,0
1449618254547083766,163,1449618254471673916,/odom,doorways,0,0,0,2.86713266373,5.72017192841,0.718123078346,0.0,0.0,0.927321483491,0.374265769549,0.75,0.08,0.08,0.0,1.0,0.0,1.0,300000000,0,,,0
1449618254639734097,164,1449618254584561283,/odom,doorways,0,0,0,2.88929915428,5.71496391296,0.728906095028,0.0,0.0,0.922497304475,0.386003527493,0.75,0.08,0.08,0.0,1.0,0.0,1.0,300000000,0,,,0
1449618254912156746,165,1449618254844718437,/odom,doorways,0,0,0,2.80586338043,5.84157133102,0.667502164841,0.0,0.0,0.895229490728,0.445605384765,0.75,0.08,0.08,0.0,1.0,0.0,1.0,300000000,0,,,0
1449618255639230691,166,1449618255571754577,/odom,doorways,0,0,0,2.82855606079,5.77930164337,0.668100118637,0.0,0.0,0.905146147761,0.425100518929,0.75,0.08,0.08,0.0,1.0,0.0,1.0,300000000,0,,,0
1449618255884709660,167,1449618255811417758,/odom,doorways,0,0,0,2.81547856331,5.8057551384,0.678234815598,0.0,0.0,0.897705084564,0.440596846502,0.75,0.08,0.08,0.0,1.0,0.0,1.0,300000000,0,,,0
1449618256060398784,168,1449618256003621582,/odom,doorways,0,0,0,2.86724424362,5.72050380707,0.738628745079,0.0,0.0,0.925627883481,0.378434963134,0.75,0.08,0.08,0.0,1.0,0.0,1.0,300000000,0,,,0
1449618256246714646,169,1449618256179639775,/odom,doorways,0,0,0,2.81241130829,5.80137968063,0.668513000011,0.0,0.0,0.897321313277,0.441377911475,0.75,0.08,0.08,0.0,1.0,0.0,1.0,300000000,0,,,0
1449618256442405294,170,1449618256379322869,/odom,doorways,0,0,0,2.85447645187,5.72276687622,0.727416932583,0.0,0.0,0.930374788156,0.366609811058,0.75,0.08,0.08,0.0,1.0,0.0,1.0,300000000,0,,,0
1449618256725794358,171,1449618256669054047,/odom,doorways,0,0,0,2.76645326614,5.85128927231,0.688193321228,0.0,0.0,0.892715559321,0.45062060555,0.75,0.08,0.08,0.0,1.0,0.0,1.0,300000000,0,,,0
1449618256846634122,172,1449618256770946070,/odom,doorways,0,0,0,2.85931634903,5.71794605255,0.728270828724,0.0,0.0,0.928884563422,0.370369366762,0.75,0.08,0.08,0.0,1.0,0.0,1.0,300000000,0,,,0
1449618257051695339,173,1449618256972188486,/odom,doorways,0,0,0,2.8601603508,5.71896076202,0.728127717972,0.0,0.0,0.928305166068,0.371819201562,0.75,0.08,0.08,0.0,1.0,0.0,1.0,300000000,0,,,0
1449618257258088448,174,1449618257170719813,/odom,doorways,0,0,0,2.88277673721,5.74186611176,0.697999179363,0.0,0.0,0.928761649695,0.370677485229,0.75,0.08,0.08,0.0,1.0,0.0,1.0,300000000,0,,,0
1449618257501098128,175,1449618257427739832,/odom,doorways,0,0,0,2.81360220909,5.79062843323,0.677947759628,0.0,0.0,0.901883234513,0.431979896876,0.75,0.08,0.08,0.0,1.0,0.0,1.0,300000000,0,,,0
1449618257659676623,176,1449618257591867238,/odom,doorways,0,0,0,2.88237285614,5.73063898087,0.768431484699,0.0,0.0,0.928845368109,0.3704676533,0.75,0.08,0.08,0.0,1.0,0.0,1.0,300000000,0,,,0
1449618257820346955,177,1449618257764141342,/odom,doorways,0,0,0,2.86776828766,5.71290779114,0.708755016327,0.0,0.0,0.925918248524,0.377723969388,0.75,0.08,0.08,0.0,1.0,0.0,1.0,300000000,0,,,0
1449618257972109597,178,1449618257913739610,/odom,doorways,0,0,0,2.79463338852,5.85639381409,0.687748074532,0.0,0.0,0.889346978177,0.457232930143,0.75,0.08,0.08,0.0,1.0,0.0,1.0,300000000,0,,,0
1449618258205418904,179,1449618258139777830,/odom,doorways,0,0,0,2.83602142334,5.80769586563,0.658989548683,0.0,0.0,0.898188245731,0.439611049941,0.75,0.08,0.08,0.0,1.0,0.0,1.0,300000000,0,,,0
1449618258370582574,180,1449618258302482223,/odom,doorways,0,0,0,2.89917516708,5.71467590332,0.748395204544,0.0,0.0,0.920804982252,0.390023312971,0.75,0.08,0.08,0.0,1.0,0.0,1.0,300000000,0,,,0
1449618258579737879,181,1449618258517019145,/odom,doorways,0,0,0,2.85312795639,5.78885698318,0.697964191437,0.0,0.0,0.908665644357,0.417524546302,0.75,0.08,0.08,0.0,1.0,0.0,1.0,300000000,0,,,0
1449618258768814715,182,1449618258698370257,/odom,doorways,0,0,0,2.84419083595,5.79349470139,0.67880576849,0.0,0.0,0.898585667125,0.438798129938,0.75,0.08,0.08,0.0,1.0,0.0,1.0,300000000,0,,,0
1449618259002479197,183,1449618258876493752,/odom,doorways,0,0,0,2.83928728104,5.79048061371,0.678798854351,0.0,0.0,0.899835774989,0.43622881387,0.75,0.08,0.08,0.0,1.0,0.0,1.0,300000000,0,,,0
1449618259112719283,184,1449618258876493752,/odom,doorways,0,0,0,2.83928728104,5.79048061371,0.678798854351,0.0,0.0,0.899835774989,0.43622881387,0.75,0.08,0.08,0.0,1.0,0.0,1.0,300000000,0,,,0
1449618259312833490,185,1449618259243599818,/odom,doorways,0,0,0,2.87695813179,5.72415018082,0.758890926838,0.0,0.0,0.926763566816,0.375645166644,0.75,0.08,0.08,0.0,1.0,0.0,1.0,300000000,0,,,0
1449618259450748134,186,1449618259399137587,/odom,doorways,0,0,0,2.86988925934,5.71015787125,0.718857049942,0.0,0.0,0.925873256006,0.377834241186,0.75,0.08,0.08,0.0,1.0,0.0,1.0,300000000,0,,,0
1449618259581027495,187,1449618259522298767,/odom,doorways,0,0,0,2.87759304047,5.72887611389,0.747991502285,0.0,0.0,0.926239065343,0.376936591262,0.75,0.08,0.08,0.0,1.0,0.0,1.0,300000000,0,,,0
1449618259743079370,188,1449618259680920551,/odom,doorways,0,0,0,2.90741658211,5.74840641022,0.698924362659,0.0,0.0,0.925128111526,0.3796550767,0.75,0.08,0.08,0.0,1.0,0.0,1.0,300000000,0,,,0
1449618259808060158,189,1449618259755773422,/odom,doorways,0,0,0,2.89964342117,5.73600435257,0.739096581936,0.0,0.0,0.923840771096,0.382776997297,0.75,0.08,0.08,0.0,1.0,0.0,1.0,300000000,0,,,0
1449618259960260699,190,1449618259905296379,/odom,doorways,0,0,0,2.86887097359,5.72448730469,0.728087604046,0.0,0.0,0.927530185003,0.373748252047,0.75,0.08,0.08,0.0,1.0,0.0,1.0,300000000,0,,,0
1449618260144869015,191,1449618260079809828,/odom,doorways,0,0,0,2.89559936523,5.74820756912,0.668374538422,0.0,0.0,0.927273413544,0.374384850835,0.75,0.08,0.08,0.0,1.0,0.0,1.0,300000000,0,,,0
1449618260217260260,192,1449618260159293024,/odom,doorways,0,0,0,2.87785315514,5.73497200012,0.737641811371,0.0,0.0,0.92845249053,0.371451171526,0.75,0.08,0.08,0.0,1.0,0.0,1.0,300000000,0,,,0
1449618260326771192,193,1449618260273201468,/odom,doorways,0,0,0,2.87470555305,5.73620176315,0.717807650566,0.0,0.0,0.928630815348,0.3710051331,0.75,0.08,0.08,0.0,1.0,0.0,1.0,300000000,0,,,0
1449618260521533963,194,1449618260457711616,/odom,doorways,0,0,0,2.87188768387,5.72089481354,0.708762466908,0.0,0.0,0.926998952583,0.375063917099,0.75,0.08,0.08,0.0,1.0,0.0,1.0,300000000,0,,,0
1449618260624698890,195,1449618260571092943,/odom,doorways,0,0,0,2.87490558624,5.73268222809,0.718284487724,0.0,0.0,0.928140868303,0.37222913452,0.75,0.08,0.08,0.0,1.0,0.0,1.0,300000000,0,,,0
1449618260833665306,196,1449618260771549179,/odom,doorways,0,0,0,2.8796749115,5.73373031616,0.727925956249,0.0,0.0,0.927508864382,0.373801159032,0.75,0.08,0.08,0.0,1.0,0.0,1.0,300000000,0,,,0
1449618260984869104,197,1449618260927123204,/odom,doorways,0,0,0,2.88516974449,5.74172306061,0.658160030842,0.0,0.0,0.929018109988,0.370034256947,0.75,0.08,0.08,0.0,1.0,0.0,1.0,300000000,0,,,0
1449618261180305960,198,1449618261121404026,/odom,doorways,0,0,0,2.88240909576,5.74311447144,0.72762209177,0.0,0.0,0.929367571775,0.369155680619,0.75,0.08,0.08,0.0,1.0,0.0,1.0,300000000,0,,,0
1449618261460627445,199,1449618261402703259,/odom,doorways,0,0,0,2.87476301193,5.73436927795,0.717596232891,0.0,0.0,0.927747621634,0.373208186609,0.75,0.08,0.08,0.0,1.0,0.0,1.0,300000000,0,,,0
1449618261659681494,200,1449618261599878050,/odom,doorways,0,0,0,2.87721776962,5.73592567444,0.728280544281,0.0,0.0,0.928225668311,0.372017618788,0.75,0.08,0.08,0.0,1.0,0.0,1.0,300000000,0,,,0
1449618261818990629,201,1449618261762775928,/odom,doorways,0,0,0,2.89057970047,5.74512434006,0.738043248653,0.0,0.0,0.925651650913,0.378376824292,0.75,0.08,0.08,0.0,1.0,0.0,1.0,300000000,0,,,0
1449618261910924980,202,1449618261857759473,/odom,doorways,0,0,0,2.89612579346,5.76183509827,0.67751377821,0.0,0.0,0.928067473489,0.37241208983,0.75,0.08,0.08,0.0,1.0,0.0,1.0,300000000,0,,,0
1449618262104407122,203,1449618262046028894,/odom,doorways,0,0,0,2.89207816124,5.74969148636,0.727239370346,0.0,0.0,0.926117215734,0.377235871467,0.75,0.08,0.08,0.0,1.0,0.0,1.0,300000000,0,,,0
1449618262217161814,204,1449618262163274540,/odom,doorways,0,0,0,2.87930297852,5.74797916412,0.727432847023,0.0,0.0,0.927498645322,0.373826514476,0.75,0.08,0.08,0.0,1.0,0.0,1.0,300000000,0,,,0
1449618262321331403,205,1449618262257740543,/odom,doorways,0,0,0,2.87643814087,5.7505812645,0.737397909164,0.0,0.0,0.929109453899,0.369804844039,0.75,0.08,0.08,0.0,1.0,0.0,1.0,300000000,0,,,0
1449618262432116877,206,1449618262370485422,/odom,doorways,0,0,0,2.92306256294,5.72870826721,0.747558236122,0.0,0.0,0.93150100629,0.363738745917,0.75,0.08,0.08,0.0,1.0,0.0,1.0,300000000,0,,,0
1449618262495419946,207,1449618262444237423,/odom,doorways,0,0,0,2.87232327461,5.78762149811,0.677436351776,0.0,0.0,0.92201000904,0.387166040906,0.75,0.08,0.08,0.0,1.0,0.0,1.0,300000000,0,,,0
1449618262631075658,208,1449618262573088233,/odom,doorways,0,0,0,2.87928032875,5.75816726685,0.717460989952,0.0,0.0,0.926635964475,0.375959824107,0.75,0.08,0.08,0.0,1.0,0.0,1.0,300000000,0,,,0
1449618262929695597,209,1449618262867108949,/odom,doorways,0,0,0,2.88581752777,5.76512384415,0.717460691929,0.0,0.0,0.927397437087,0.374077523629,0.75,0.08,0.08,0.0,1.0,0.0,1.0,300000000,0,,,0
1449618263279903338,210,1449618263224095430,/odom,doorways,0,0,0,2.90253257751,5.77029800415,0.717625319958,0.0,0.0,0.928100639532,0.372329427926,0.75,0.08,0.08,0.0,1.0,0.0,1.0,300000000,0,,,0
1449618263578640999,211,1449618263519631109,/odom,doorways,0,0,0,2.89089894295,5.76522636414,0.708256483078,0.0,0.0,0.927485361885,0.373859470242,0.75,0.08,0.08,0.0,1.0,0.0,1.0,300000000,0,,,0
1449618263766548351,212,1449618263708390066,/odom,doorways,0,0,0,2.87600851059,5.81163597107,0.689238071442,0.0,0.0,0.925767037619,0.378094422146,0.75,0.08,0.08,0.0,1.0,0.0,1.0,300000000,0,,,0
1449618264049884482,213,1449618263987515934,/odom,doorways,0,0,0,2.87530088425,5.78295707703,0.728028416634,0.0,0.0,0.93654890805,0.350536935043,0.75,0.08,0.08,0.0,1.0,0.0,1.0,300000000,0,,,0
1449618264172484210,214,1449618264113685978,/odom,doorways,0,0,0,2.8910908699,5.77454090118,0.728533267975,0.0,0.0,0.930433197652,0.366461546015,0.75,0.08,0.08,0.0,1.0,0.0,1.0,300000000,0,,,0
1449618264278224941,215,1449618264226261903,/odom,doorways,0,0,0,2.87312030792,5.80044269562,0.728089869022,0.0,0.0,0.922218203001,0.38666986701,0.75,0.08,0.08,0.0,1.0,0.0,1.0,300000000,0,,,0
1449618264411903574,216,1449618264349041843,/odom,doorways,0,0,0,2.84492230415,5.80265235901,0.719599604607,0.0,0.0,0.927592084636,0.373594599159,0.75,0.08,0.08,0.0,1.0,0.0,1.0,300000000,0,,,0
1449618264525759122,217,1449618264447530175,/odom,doorways,0,0,0,2.87244939804,5.78305053711,0.737939596176,0.0,0.0,0.932074884255,0.362265662383,0.75,0.08,0.08,0.0,1.0,0.0,1.0,300000000,0,,,0
1449618264682051356,218,1449618264609757138,/odom,doorways,0,0,0,2.8688955307,5.77727890015,0.728555202484,0.0,0.0,0.932786438363,0.360429549851,0.75,0.08,0.08,0.0,1.0,0.0,1.0,300000000,0,,,0
1449618264773711669,219,1449618264694529450,/odom,doorways,0,0,0,2.88339662552,5.78283548355,0.728079617023,0.0,0.0,0.931428642706,0.363924007928,0.75,0.08,0.08,0.0,1.0,0.0,1.0,300000000,0,,,0
1449618264915817113,220,1449618264837408645,/odom,doorways,0,0,0,2.83488798141,5.85151958466,0.697444796562,0.0,0.0,0.908706933459,0.417434676427,0.75,0.08,0.08,0.0,1.0,0.0,1.0,300000000,0,,,0
1449618265154259128,221,1449618264837408645,/odom,doorways,0,0,0,2.83488798141,5.85151958466,0.697444796562,0.0,0.0,0.908706933459,0.417434676427,0.75,0.08,0.08,0.0,1.0,0.0,1.0,300000000,0,,,0
1449618265290673150,222,1449618265206187729,/odom,doorways,0,0,0,2.88415622711,5.77741861343,0.727331280708,0.0,0.0,0.93797998243,0.346689418012,0.75,0.08,0.08,0.0,1.0,0.0,1.0,300000000,0,,,0
1449618265393768755,223,1449618265341445343,/odom,doorways,0,0,0,2.88936805725,5.78952884674,0.737357676029,0.0,0.0,0.933141701129,0.359508783778,0.75,0.08,0.08,0.0,1.0,0.0,1.0,300000000,0,,,0
1449618265481730522,224,1449618265341445343,/odom,doorways,0,0,0,2.88936805725,5.78952884674,0.737357676029,0.0,0.0,0.933141701129,0.359508783778,0.75,0.08,0.08,0.0,1.0,0.0,1.0,300000000,0,,,0
1449618265573612271,225,1449618265341445343,/odom,doorways,0,0,0,2.88936805725,5.78952884674,0.737357676029,0.0,0.0,0.933141701129,0.359508783778,0.75,0.08,0.08,0.0,1.0,0.0,1.0,300000000,0,,,0
1449618265679182921,226,1449618265341445343,/odom,doorways,0,0,0,2.88936805725,5.78952884674,0.737357676029,0.0,0.0,0.933141701129,0.359508783778,0.75,0.08,0.08,0.0,1.0,0.0,1.0,300000000,0,,,0
1449618265752575683,227,1449618265341445343,/odom,doorways,0,0,0,2.88936805725,5.78952884674,0.737357676029,0.0,0.0,0.933141701129,0.359508783778,0.75,0.08,0.08,0.0,1.0,0.0,1.0,300000000,0,,,0
1449618265862400281,228,1449618265341445343,/odom,doorways,0,0,0,2.88936805725,5.78952884674,0.737357676029,0.0,0.0,0.933141701129,0.359508783778,0.75,0.08,0.08,0.0,1.0,0.0,1.0,300000000,0,,,0
1449618265984085188,229,1449618265341445343,/odom,doorways,0,0,0,2.88936805725,5.78952884674,0.737357676029,0.0,0.0,0.933141701129,0.359508783778,0.75,0.08,0.08,0.0,1.0,0.0,1.0,300000000,0,,,0
1449618266099337338,230,1449618265341445343,/odom,doorways,0,0,0,2.88936805725,5.78952884674,0.737357676029,0.0,0.0,0.933141701129,0.359508783778,0.75,0.08,0.08,0.0,1.0,0.0,1.0,300000000,0,,,0
1449618266204472106,231,1449618265341445343,/odom,doorways,0,0,0,2.88936805725,5.78952884674,0.737357676029,0.0,0.0,0.933141701129,0.359508783778,0.75,0.08,0.08,0.0,1.0,0.0,1.0,300000000,0,,,0
1449618266285272625,232,1449618265341445343,/odom,doorways,0,0,0,2.88936805725,5.78952884674,0.737357676029,0.0,0.0,0.933141701129,0.359508783778,0.75,0.08,0.08,0.0,1.0,0.0,1.0,300000000,0,,,0
1449618266389807606,233,1449618265341445343,/odom,doorways,0,0,0,2.88936805725,5.78952884674,0.737357676029,0.0,0.0,0.933141701129,0.359508783778,0.75,0.08,0.08,0.0,1.0,0.0,1.0,300000000,0,,,0
1449618266575053470,234,1449618265341445343,/odom,doorways,0,0,0,2.88936805725,5.78952884674,0.737357676029,0.0,0.0,0.933141701129,0.359508783778,0.75,0.08,0.08,0.0,1.0,0.0,1.0,300000000,0,,,0
1449618266698790269,235,1449618265341445343,/odom,doorways,0,0,0,2.88936805725,5.78952884674,0.737357676029,0.0,0.0,0.933141701129,0.359508783778,0.75,0.08,0.08,0.0,1.0,0.0,1.0,300000000,0,,,0
1449618266840474127,236,1449618265341445343,/odom,doorways,0,0,0,2.88936805725,5.78952884674,0.737357676029,0.0,0.0,0.933141701129,0.359508783778,0.75,0.08,0.08,0.0,1.0,0.0,1.0,300000000,0,,,0
1449618267052634794,237,1449618265341445343,/odom,doorways,0,0,0,2.88936805725,5.78952884674,0.737357676029,0.0,0.0,0.933141701129,0.359508783778,0.75,0.08,0.08,0.0,1.0,0.0,1.0,300000000,0,,,0
1449618267184904510,238,1449618265341445343,/odom,doorways,0,0,0,2.88936805725,5.78952884674,0.737357676029,0.0,0.0,0.933141701129,0.359508783778,0.75,0.08,0.08,0.0,1.0,0.0,1.0,300000000,0,,,0
1449618267304682627,239,1449618265341445343,/odom,doorways,0,0,0,2.88936805725,5.78952884674,0.737357676029,0.0,0.0,0.933141701129,0.359508783778,0.75,0.08,0.08,0.0,1.0,0.0,1.0,300000000,0,,,0
1449618267496375521,240,1449618265341445343,/odom,doorways,0,0,0,2.88936805725,5.78952884674,0.737357676029,0.0,0.0,0.933141701129,0.359508783778,0.75,0.08,0.08,0.0,1.0,0.0,1.0,300000000,0,,,0
1449618267587518538,241,1449618265341445343,/odom,doorways,0,0,0,2.88936805725,5.78952884674,0.737357676029,0.0,0.0,0.933141701129,0.359508783778,0.75,0.08,0.08,0.0,1.0,0.0,1.0,300000000,0,,,0
1449618267726115353,242,1449618265341445343,/odom,doorways,0,0,0,2.88936805725,5.78952884674,0.737357676029,0.0,0.0,0.933141701129,0.359508783778,0.75,0.08,0.08,0.0,1.0,0.0,1.0,300000000,0,,,0
1449618267835712959,243,1449618265341445343,/odom,doorways,0,0,0,2.88936805725,5.78952884674,0.737357676029,0.0,0.0,0.933141701129,0.359508783778,0.75,0.08,0.08,0.0,1.0,0.0,1.0,300000000,0,,,0
1449618267881631857,244,1449618265341445343,/odom,doorways,0,0,0,2.88936805725,5.78952884674,0.737357676029,0.0,0.0,0.933141701129,0.359508783778,0.75,0.08,0.08,0.0,1.0,0.0,1.0,300000000,0,,,0
1449618267963631442,245,1449618265341445343,/odom,doorways,0,0,0,2.88936805725,5.78952884674,0.737357676029,0.0,0.0,0.933141701129,0.359508783778,0.75,0.08,0.08,0.0,1.0,0.0,1.0,300000000,0,,,0
1449618268105416969,246,1449618265341445343,/odom,doorways,0,0,0,2.88936805725,5.78952884674,0.737357676029,0.0,0.0,0.933141701129,0.359508783778,0.75,0.08,0.08,0.0,1.0,0.0,1.0,300000000,0,,,0
1449618268324662136,247,1449618265341445343,/odom,doorways,0,0,0,2.88936805725,5.78952884674,0.737357676029,0.0,0.0,0.933141701129,0.359508783778,0.75,0.08,0.08,0.0,1.0,0.0,1.0,300000000,0,,,0
1449618268495538414,248,1449618265341445343,/odom,doorways,0,0,0,2.88936805725,5.78952884674,0.737357676029,0.0,0.0,0.933141701129,0.359508783778,0.75,0.08,0.08,0.0,1.0,0.0,1.0,300000000,0,,,0
1449618268593491479,249,1449618265341445343,/odom,doorways,0,0,0,2.88936805725,5.78952884674,0.737357676029,0.0,0.0,0.933141701129,0.359508783778,0.75,0.08,0.08,0.0,1.0,0.0,1.0,300000000,0,,,0
1449618268780737376,250,1449618265341445343,/odom,doorways,0,0,0,2.88936805725,5.78952884674,0.737357676029,0.0,0.0,0.933141701129,0.359508783778,0.75,0.08,0.08,0.0,1.0,0.0,1.0,300000000,0,,,0
1449618268877953326,251,1449618265341445343,/odom,doorways,0,0,0,2.88936805725,5.78952884674,0.737357676029,0.0,0.0,0.933141701129,0.359508783778,0.75,0.08,0.08,0.0,1.0,0.0,1.0,300000000,0,,,0
1449618269082886683,252,1449618265341445343,/odom,doorways,0,0,0,2.88936805725,5.78952884674,0.737357676029,0.0,0.0,0.933141701129,0.359508783778,0.75,0.08,0.08,0.0,1.0,0.0,1.0,300000000,0,,,0
1449618269195421331,253,1449618265341445343,/odom,doorways,0,0,0,2.88936805725,5.78952884674,0.737357676029,0.0,0.0,0.933141701129,0.359508783778,0.75,0.08,0.08,0.0,1.0,0.0,1.0,300000000,0,,,0
1449618269291289091,254,1449618265341445343,/odom,doorways,0,0,0,2.88936805725,5.78952884674,0.737357676029,0.0,0.0,0.933141701129,0.359508783778,0.75,0.08,0.08,0.0,1.0,0.0,1.0,300000000,0,,,0
1449618269523004658,255,1449618265341445343,/odom,doorways,0,0,0,2.88936805725,5.78952884674,0.737357676029,0.0,0.0,0.933141701129,0.359508783778,0.75,0.08,0.08,0.0,1.0,0.0,1.0,300000000,0,,,0
1449618269595011953,256,1449618265341445343,/odom,doorways,0,0,0,2.88936805725,5.78952884674,0.737357676029,0.0,0.0,0.933141701129,0.359508783778,0.75,0.08,0.08,0.0,1.0,0.0,1.0,300000000,0,,,0
1449618269693359226,257,1449618265341445343,/odom,doorways,0,0,0,2.88936805725,5.78952884674,0.737357676029,0.0,0.0,0.933141701129,0.359508783778,0.75,0.08,0.08,0.0,1.0,0.0,1.0,300000000,0,,,0
1449618270617353038,258,1449618265341445343,/odom,doorways,0,0,0,2.88936805725,5.78952884674,0.737357676029,0.0,0.0,0.933141701129,0.359508783778,0.75,0.08,0.08,0.0,1.0,0.0,1.0,300000000,0,,,0
1449618270717212091,259,1449618265341445343,/odom,doorways,0,0,0,2.88936805725,5.78952884674,0.737357676029,0.0,0.0,0.933141701129,0.359508783778,0.75,0.08,0.08,0.0,1.0,0.0,1.0,300000000,0,,,0
1449618270826137549,260,1449618265341445343,/odom,doorways,0,0,0,2.88936805725,5.78952884674,0.737357676029,0.0,0.0,0.933141701129,0.359508783778,0.75,0.08,0.08,0.0,1.0,0.0,1.0,300000000,0,,,0
1449618270957877026,261,1449618265341445343,/odom,doorways,0,0,0,2.88936805725,5.78952884674,0.737357676029,0.0,0.0,0.933141701129,0.359508783778,0.75,0.08,0.08,0.0,1.0,0.0,1.0,300000000,0,,,0
1449618271130351882,262,1449618265341445343,/odom,doorways,0,0,0,2.88936805725,5.78952884674,0.737357676029,0.0,0.0,0.933141701129,0.359508783778,0.75,0.08,0.08,0.0,1.0,0.0,1.0,300000000,0,,,0
1449618271171045087,263,1449618271078170620,/odom,doorways,0,0,0,-1.0358941555,8.55318450928,0.749986350536,0.0,0.0,-0.931885774059,0.36275184921,0.75,0.08,0.08,0.0,1.0,0.0,1.0,300000000,0,,,0
1449618271335321125,264,1449618265341445343,/odom,doorways,0,0,0,2.88936805725,5.78952884674,0.737357676029,0.0,0.0,0.933141701129,0.359508783778,0.75,0.08,0.08,0.0,1.0,0.0,1.0,300000000,0,,,0
1449618271438347281,265,1449618265341445343,/odom,doorways,0,0,0,2.88936805725,5.78952884674,0.737357676029,0.0,0.0,0.933141701129,0.359508783778,0.75,0.08,0.08,0.0,1.0,0.0,1.0,300000000,0,,,0
1449618271527922530,266,1449618265341445343,/odom,doorways,0,0,0,2.88936805725,5.78952884674,0.737357676029,0.0,0.0,0.933141701129,0.359508783778,0.75,0.08,0.08,0.0,1.0,0.0,1.0,300000000,0,,,0
1449618271535278436,267,1449618271475781367,/odom,doorways,0,0,0,-1.03965365887,8.50434684753,0.679976403713,0.0,0.0,-0.929480909655,0.368870219166,0.75,0.08,0.08,0.0,1.0,0.0,1.0,300000000,0,,,0
1449618271633036665,268,1449618265341445343,/odom,doorways,0,0,0,2.88936805725,5.78952884674,0.737357676029,0.0,0.0,0.933141701129,0.359508783778,0.75,0.08,0.08,0.0,1.0,0.0,1.0,300000000,0,,,0
1449618271776280674,269,1449618265341445343,/odom,doorways,0,0,0,2.88936805725,5.78952884674,0.737357676029,0.0,0.0,0.933141701129,0.359508783778,0.75,0.08,0.08,0.0,1.0,0.0,1.0,300000000,0,,,0
1449618271972568748,270,1449618265341445343,/odom,doorways,0,0,0,2.88936805725,5.78952884674,0.737357676029,0.0,0.0,0.933141701129,0.359508783778,0.75,0.08,0.08,0.0,1.0,0.0,1.0,300000000,0,,,0
1449618271980014378,271,1449618271914176825,/odom,doorways,0,0,0,-1.03844881058,8.52273845673,0.639953732491,0.0,0.0,-0.930052438102,0.367426812279,0.75,0.08,0.08,0.0,1.0,0.0,1.0,300000000,0,,,0
1449618272150000237,272,1449618265341445343,/odom,doorways,0,0,0,2.88936805725,5.78952884674,0.737357676029,0.0,0.0,0.933141701129,0.359508783778,0.75,0.08,0.08,0.0,1.0,0.0,1.0,300000000,0,,,0
1449618272322633160,273,1449618265341445343,/odom,doorways,0,0,0,2.88936805725,5.78952884674,0.737357676029,0.0,0.0,0.933141701129,0.359508783778,0.75,0.08,0.08,0.0,1.0,0.0,1.0,300000000,0,,,0
1449618272437858810,274,1449618265341445343,/odom,doorways,0,0,0,2.88936805725,5.78952884674,0.737357676029,0.0,0.0,0.933141701129,0.359508783778,0.75,0.08,0.08,0.0,1.0,0.0,1.0,300000000,0,,,0
1449618272523457094,275,1449618265341445343,/odom,doorways,0,0,0,2.88936805725,5.78952884674,0.737357676029,0.0,0.0,0.933141701129,0.359508783778,0.75,0.08,0.08,0.0,1.0,0.0,1.0,300000000,0,,,0
1449618272628767786,276,1449618265341445343,/odom,doorways,0,0,0,2.88936805725,5.78952884674,0.737357676029,0.0,0.0,0.933141701129,0.359508783778,0.75,0.08,0.08,0.0,1.0,0.0,1.0,300000000,0,,,0
1449618272788259522,277,1449618265341445343,/odom,doorways,0,0,0,2.88936805725,5.78952884674,0.737357676029,0.0,0.0,0.933141701129,0.359508783778,0.75,0.08,0.08,0.0,1.0,0.0,1.0,300000000,0,,,0
1449618272953754764,278,1449618265341445343,/odom,doorways,0,0,0,2.88936805725,5.78952884674,0.737357676029,0.0,0.0,0.933141701129,0.359508783778,0.75,0.08,0.08,0.0,1.0,0.0,1.0,300000000,0,,,0
1449618273068205508,279,1449618265341445343,/odom,doorways,0,0,0,2.88936805725,5.78952884674,0.737357676029,0.0,0.0,0.933141701129,0.359508783778,0.75,0.08,0.08,0.0,1.0,0.0,1.0,300000000,0,,,0
1449618273271847647,280,1449618265341445343,/odom,doorways,0,0,0,2.88936805725,5.78952884674,0.737357676029,0.0,0.0,0.933141701129,0.359508783778,0.75,0.08,0.08,0.0,1.0,0.0,1.0,300000000,0,,,0
1449618273407705455,281,1449618265341445343,/odom,doorways,0,0,0,2.88936805725,5.78952884674,0.737357676029,0.0,0.0,0.933141701129,0.359508783778,0.75,0.08,0.08,0.0,1.0,0.0,1.0,300000000,0,,,0
1449618273550326758,282,1449618265341445343,/odom,doorways,0,0,0,2.88936805725,5.78952884674,0.737357676029,0.0,0.0,0.933141701129,0.359508783778,0.75,0.08,0.08,0.0,1.0,0.0,1.0,300000000,0,,,0
1449618273614308603,283,1449618265341445343,/odom,doorways,0,0,0,2.88936805725,5.78952884674,0.737357676029,0.0,0.0,0.933141701129,0.359508783778,0.75,0.08,0.08,0.0,1.0,0.0,1.0,300000000,0,,,0
1449618273813856881,284,1449618265341445343,/odom,doorways,0,0,0,2.88936805725,5.78952884674,0.737357676029,0.0,0.0,0.933141701129,0.359508783778,0.75,0.08,0.08,0.0,1.0,0.0,1.0,300000000,0,,,0
1449618273931397408,285,1449618265341445343,/odom,doorways,0,0,0,2.88936805725,5.78952884674,0.737357676029,0.0,0.0,0.933141701129,0.359508783778,0.75,0.08,0.08,0.0,1.0,0.0,1.0,300000000,0,,,0
1449618274041966674,286,1449618265341445343,/odom,doorways,0,0,0,2.88936805725,5.78952884674,0.737357676029,0.0,0.0,0.933141701129,0.359508783778,0.75,0.08,0.08,0.0,1.0,0.0,1.0,300000000,0,,,0
1449618274120576138,287,1449618265341445343,/odom,doorways,0,0,0,2.88936805725,5.78952884674,0.737357676029,0.0,0.0,0.933141701129,0.359508783778,0.75,0.08,0.08,0.0,1.0,0.0,1.0,300000000,0,,,0
1449618274237164104,288,1449618265341445343,/odom,doorways,0,0,0,2.88936805725,5.78952884674,0.737357676029,0.0,0.0,0.933141701129,0.359508783778,0.75,0.08,0.08,0.0,1.0,0.0,1.0,300000000,0,,,0
1449618274353606649,289,1449618265341445343,/odom,doorways,0,0,0,2.88936805725,5.78952884674,0.737357676029,0.0,0.0,0.933141701129,0.359508783778,0.75,0.08,0.08,0.0,1.0,0.0,1.0,300000000,0,,,0
1449618274545145149,290,1449618265341445343,/odom,doorways,0,0,0,2.88936805725,5.78952884674,0.737357676029,0.0,0.0,0.933141701129,0.359508783778,0.75,0.08,0.08,0.0,1.0,0.0,1.0,300000000,0,,,0
1449618274630068798,291,1449618265341445343,/odom,doorways,0,0,0,2.88936805725,5.78952884674,0.737357676029,0.0,0.0,0.933141701129,0.359508783778,0.75,0.08,0.08,0.0,1.0,0.0,1.0,300000000,0,,,0
1449618274760417009,292,1449618265341445343,/odom,doorways,0,0,0,2.88936805725,5.78952884674,0.737357676029,0.0,0.0,0.933141701129,0.359508783778,0.75,0.08,0.08,0.0,1.0,0.0,1.0,300000000,0,,,0
1449618274954065239,293,1449618265341445343,/odom,doorways,0,0,0,2.88936805725,5.78952884674,0.737357676029,0.0,0.0,0.933141701129,0.359508783778,0.75,0.08,0.08,0.0,1.0,0.0,1.0,300000000,0,,,0
1449618275044701685,294,1449618265341445343,/odom,doorways,0,0,0,2.88936805725,5.78952884674,0.737357676029,0.0,0.0,0.933141701129,0.359508783778,0.75,0.08,0.08,0.0,1.0,0.0,1.0,300000000,0,,,0
1449618275158480620,295,1449618265341445343,/odom,doorways,0,0,0,2.88936805725,5.78952884674,0.737357676029,0.0,0.0,0.933141701129,0.359508783778,0.75,0.08,0.08,0.0,1.0,0.0,1.0,300000000,0,,,0
1449618275241938758,296,1449618265341445343,/odom,doorways,0,0,0,2.88936805725,5.78952884674,0.737357676029,0.0,0.0,0.933141701129,0.359508783778,0.75,0.08,0.08,0.0,1.0,0.0,1.0,300000000,0,,,0
1449618275321949826,297,1449618265341445343,/odom,doorways,0,0,0,2.88936805725,5.78952884674,0.737357676029,0.0,0.0,0.933141701129,0.359508783778,0.75,0.08,0.08,0.0,1.0,0.0,1.0,300000000,0,,,0
1449618275438544732,298,1449618265341445343,/odom,doorways,0,0,0,2.88936805725,5.78952884674,0.737357676029,0.0,0.0,0.933141701129,0.359508783778,0.75,0.08,0.08,0.0,1.0,0.0,1.0,300000000,0,,,0
1449618275544395625,299,1449618265341445343,/odom,doorways,0,0,0,2.88936805725,5.78952884674,0.737357676029,0.0,0.0,0.933141701129,0.359508783778,0.75,0.08,0.08,0.0,1.0,0.0,1.0,300000000,0,,,0
1449618275732365468,300,1449618265341445343,/odom,doorways,0,0,0,2.88936805725,5.78952884674,0.737357676029,0.0,0.0,0.933141701129,0.359508783778,0.75,0.08,0.08,0.0,1.0,0.0,1.0,300000000,0,,,0
1449618275853711125,301,1449618265341445343,/odom,doorways,0,0,0,2.88936805725,5.78952884674,0.737357676029,0.0,0.0,0.933141701129,0.359508783778,0.75,0.08,0.08,0.0,1.0,0.0,1.0,300000000,0,,,0
1449618275989588442,302,1449618265341445343,/odom,doorways,0,0,0,2.88936805725,5.78952884674,0.737357676029,0.0,0.0,0.933141701129,0.359508783778,0.75,0.08,0.08,0.0,1.0,0.0,1.0,300000000,0,,,0
1449618276134788958,303,1449618265341445343,/odom,doorways,0,0,0,2.88936805725,5.78952884674,0.737357676029,0.0,0.0,0.933141701129,0.359508783778,0.75,0.08,0.08,0.0,1.0,0.0,1.0,300000000,0,,,0
1449618276279412781,304,1449618265341445343,/odom,doorways,0,0,0,2.88936805725,5.78952884674,0.737357676029,0.0,0.0,0.933141701129,0.359508783778,0.75,0.08,0.08,0.0,1.0,0.0,1.0,300000000,0,,,0
1449618276414489982,305,1449618265341445343,/odom,doorways,0,0,0,2.88936805725,5.78952884674,0.737357676029,0.0,0.0,0.933141701129,0.359508783778,0.75,0.08,0.08,0.0,1.0,0.0,1.0,300000000,0,,,0
1449618276529880911,306,1449618265341445343,/odom,doorways,0,0,0,2.88936805725,5.78952884674,0.737357676029,0.0,0.0,0.933141701129,0.359508783778,0.75,0.08,0.08,0.0,1.0,0.0,1.0,300000000,0,,,0
1449618276613072832,307,1449618265341445343,/odom,doorways,0,0,0,2.88936805725,5.78952884674,0.737357676029,0.0,0.0,0.933141701129,0.359508783778,0.75,0.08,0.08,0.0,1.0,0.0,1.0,300000000,0,,,0
1449618276700626140,308,1449618265341445343,/odom,doorways,0,0,0,2.88936805725,5.78952884674,0.737357676029,0.0,0.0,0.933141701129,0.359508783778,0.75,0.08,0.08,0.0,1.0,0.0,1.0,300000000,0,,,0
