%time,field.x,field.y,field.z
1449618213870028807,0.0,0.0,258.0
1449618213872357546,0.0,0.0,257.0
1449618213874760060,0.0,0.0,253.0
1449618213881643702,0.0,0.0,257.0
1449618213901346065,0.0,0.0,250.0
1449618213914411557,0.0,0.0,256.0
1449618213926687644,0.0,0.0,255.0
1449618213943040027,0.0,0.0,255.0
1449618213959438834,0.0,0.0,255.0
1449618213971705187,0.0,0.0,257.0
1449618213988063071,0.0,0.0,260.0
1449618214004493331,0.0,0.0,255.0
1449618214016794449,0.0,0.0,257.0
1449618214033131194,0.0,0.0,251.0
1449618214049619936,0.0,0.0,258.0
1449618214061848577,0.0,0.0,251.0
1449618214078205984,0.0,0.0,255.0
1449618214094635373,0.0,0.0,257.0
1449618214107061134,0.0,0.0,255.0
1449618214123863515,0.0,0.0,250.0
1449618214139677682,0.0,0.0,256.0
1449618214152117422,0.0,0.0,251.0
1449618214169523233,0.0,0.0,255.0
1449618214180660921,0.0,0.0,259.0
1449618214197053262,0.0,0.0,261.0
1449618214213424203,0.0,0.0,256.0
1449618214225852418,0.0,0.0,257.0
1449618214242170266,0.0,0.0,255.0
1449618214258584857,0.0,0.0,253.0
1449618214270800855,0.0,0.0,254.0
1449618214287164183,0.0,0.0,261.0
1449618214303578373,0.0,0.0,254.0
1449618214315959801,0.0,0.0,259.0
1449618214332236469,0.0,0.0,256.0
1449618214348685533,0.0,0.0,258.0
1449618214360924417,0.0,0.0,260.0
1449618214378190453,0.0,0.0,260.0
1449618214393645495,0.0,0.0,246.0
1449618214410099900,0.0,0.0,255.0
1449618214426455046,0.0,0.0,263.0
1449618214438773637,0.0,0.0,254.0
1449618214455187212,0.0,0.0,256.0
1449618214471486874,0.0,0.0,256.0
1449618214483984471,0.0,0.0,262.0
1449618214500211931,0.0,0.0,258.0
1449618214516822672,0.0,0.0,262.0
1449618214528898264,0.0,0.0,256.0
1449618214545255345,0.0,0.0,258.0
1449618214561717285,0.0,0.0,260.0
1449618214573882462,0.0,0.0,255.0
1449618214590352849,0.0,0.0,262.0
1449618214606733445,0.0,0.0,260.0
1449618214619169877,0.0,0.0,264.0
1449618214635439795,0.0,0.0,265.0
1449618214651866095,0.0,0.0,255.0
1449618214663978552,0.0,0.0,251.0
1449618214680445566,0.0,0.0,257.0
1449618214696839578,0.0,0.0,258.0
1449618214709115310,0.0,0.0,254.0
1449618214725564107,0.0,0.0,258.0
1449618214737795278,0.0,0.0,251.0
1449618214754235274,0.0,0.0,254.0
1449618214770530993,0.0,0.0,257.0
1449618214783047930,0.0,0.0,251.0
1449618214799222815,0.0,0.0,248.0
1449618214816981431,0.0,0.0,253.0
1449618214827867661,0.0,0.0,253.0
1449618214844323141,0.0,0.0,252.0
1449618214860674678,0.0,0.0,254.0
1449618214872898290,0.0,0.0,250.0
1449618214889320813,0.0,0.0,257.0
1449618214905776113,0.0,0.0,248.0
1449618214918136745,0.0,0.0,252.0
1449618214934507723,0.0,0.0,250.0
1449618214950951040,0.0,0.0,259.0
1449618214963198936,0.0,0.0,253.0
1449618214979483303,0.0,0.0,249.0
1449618214995966800,0.0,0.0,252.0
1449618215008075510,0.0,0.0,251.0
1449618215024586834,0.0,0.0,261.0
1449618215041023316,0.0,0.0,251.0
1449618215053324599,0.0,0.0,252.0
1449618215069746280,0.0,0.0,250.0
1449618215086127876,0.0,0.0,240.0
1449618215098340976,0.0,0.0,248.0
1449618215114748612,0.0,0.0,248.0
1449618215127103306,0.0,0.0,261.0
1449618215143552228,0.0,0.0,247.0
1449618215159805075,0.0,0.0,255.0
1449618215172052982,0.0,0.0,249.0
1449618215188956842,0.0,0.0,249.0
1449618215204922090,0.0,0.0,247.0
1449618215217067377,0.0,0.0,255.0
1449618215233554038,0.0,0.0,239.0
1449618215249963493,0.0,0.0,246.0
1449618215262579275,0.0,0.0,253.0
1449618215278661626,0.0,0.0,249.0
1449618215295216422,0.0,0.0,253.0
1449618215307187866,0.0,0.0,250.0
1449618215324708007,0.0,0.0,256.0
1449618215340080275,0.0,0.0,250.0
1449618215352319948,0.0,0.0,251.0
1449618215368808105,0.0,0.0,252.0
1449618215385079713,0.0,0.0,251.0
1449618215397503383,0.0,0.0,252.0
1449618215413653081,0.0,0.0,254.0
1449618215430150169,0.0,0.0,250.0
1449618215442385560,0.0,0.0,252.0
1449618215459150161,0.0,0.0,254.0
1449618215471154447,0.0,0.0,252.0
1449618215487532328,0.0,0.0,253.0
1449618215503877655,0.0,0.0,252.0
1449618215517678369,0.0,0.0,249.0
1449618215532824182,0.0,0.0,247.0
1449618215548866317,0.0,0.0,251.0
1449618215561192864,0.0,0.0,252.0
1449618215580522940,0.0,0.0,248.0
1449618215594428704,0.0,0.0,249.0
1449618215606230959,0.0,0.0,248.0
1449618215623076784,0.0,0.0,247.0
1449618215639013205,0.0,0.0,248.0
1449618215651387178,0.0,0.0,247.0
1449618215668057706,0.0,0.0,251.0
1449618215685806222,0.0,0.0,249.0
1449618215696486950,0.0,0.0,249.0
1449618215713060830,0.0,0.0,248.0
1449618215729268297,0.0,0.0,246.0
1449618215741565268,0.0,0.0,247.0
1449618215758058379,0.0,0.0,245.0
1449618215774429095,0.0,0.0,246.0
1449618215787185209,0.0,0.0,248.0
1449618215808848011,0.0,0.0,249.0
1449618215819683898,0.0,0.0,245.0
1449618215832486017,0.0,0.0,248.0
1449618215848409060,0.0,0.0,249.0
1449618215860763767,0.0,0.0,247.0
1449618215876886480,0.0,0.0,244.0
1449618215893525161,0.0,0.0,246.0
1449618215906705572,0.0,0.0,250.0
1449618215922973741,0.0,0.0,247.0
1449618215941933321,0.0,0.0,259.0
1449618215950841313,0.0,0.0,237.0
1449618215967129727,0.0,0.0,248.0
1449618215983499928,0.0,0.0,248.0
1449618215995986584,0.0,0.0,247.0
1449618216012075369,0.0,0.0,245.0
1449618216028652256,0.0,0.0,238.0
1449618216045279129,0.0,0.0,245.0
1449618216061229664,0.0,0.0,246.0
1449618216073567362,0.0,0.0,246.0
1449618216090270046,0.0,0.0,247.0
1449618216108069248,0.0,0.0,247.0
1449618216118817239,0.0,0.0,249.0
1449618216134956036,0.0,0.0,246.0
1449618216151446015,0.0,0.0,243.0
1449618216164459952,0.0,0.0,248.0
1449618216180381785,0.0,0.0,247.0
1449618216196373088,0.0,0.0,249.0
1449618216208734228,0.0,0.0,247.0
1449618216227997675,0.0,0.0,248.0
1449618216241377890,0.0,0.0,252.0
1449618216258086153,0.0,0.0,249.0
1449618216273067032,0.0,0.0,247.0
1449618216282815996,0.0,0.0,248.0
1449618216298891716,0.0,0.0,248.0
1449618216315328509,0.0,0.0,246.0
1449618216327581268,0.0,0.0,250.0
1449618216344963807,0.0,0.0,246.0
1449618216360024196,0.0,0.0,246.0
1449618216372462229,0.0,0.0,246.0
1449618216388984485,0.0,0.0,244.0
1449618216405392240,0.0,0.0,242.0
1449618216417485257,0.0,0.0,243.0
1449618216434189057,0.0,0.0,239.0
1449618216450294260,0.0,0.0,246.0
1449618216463324673,0.0,0.0,245.0
1449618216479188072,0.0,0.0,245.0
1449618216495550917,0.0,0.0,247.0
1449618216508543231,0.0,0.0,247.0
1449618216524241367,0.0,0.0,245.0
1449618216540524643,0.0,0.0,243.0
1449618216553078869,0.0,0.0,246.0
1449618216568945734,0.0,0.0,247.0
1449618216585847268,0.0,0.0,247.0
1449618216598106308,0.0,0.0,249.0
1449618216614793133,0.0,0.0,249.0
1449618216631392492,0.0,0.0,251.0
1449618216643084054,0.0,0.0,248.0
1449618216659915748,0.0,0.0,244.0
1449618216671552766,0.0,0.0,248.0
1449618216687909734,0.0,0.0,248.0
1449618216704970977,0.0,0.0,248.0
1449618216717239845,0.0,0.0,253.0
1449618216732981870,0.0,0.0,254.0
1449618216749197172,0.0,0.0,253.0
1449618216761620485,0.0,0.0,250.0
1449618216778198404,0.0,0.0,253.0
1449618216794476499,0.0,0.0,249.0
1449618216806982224,0.0,0.0,251.0
1449618216823192800,0.0,0.0,252.0
1449618216840398265,0.0,0.0,251.0
1449618216851883033,0.0,0.0,253.0
1449618216868462187,0.0,0.0,255.0
1449618216884659875,0.0,0.0,253.0
1449618216896857412,0.0,0.0,252.0
1449618216914176156,0.0,0.0,249.0
1449618216929904714,0.0,0.0,250.0
1449618216950061768,0.0,0.0,248.0
1449618216958154258,0.0,0.0,245.0
1449618216974777451,0.0,0.0,250.0
1449618216986909881,0.0,0.0,244.0
1449618217003605661,0.0,0.0,248.0
1449618217020382540,0.0,0.0,246.0
1449618217032413578,0.0,0.0,242.0
1449618217049710285,0.0,0.0,244.0
1449618217060815688,0.0,0.0,245.0
1449618217077321251,0.0,0.0,245.0
1449618217094146009,0.0,0.0,243.0
1449618217105714004,0.0,0.0,250.0
1449618217122565024,0.0,0.0,245.0
1449618217138378544,0.0,0.0,246.0
1449618217151950392,0.0,0.0,246.0
1449618217167579838,0.0,0.0,245.0
1449618217185585696,0.0,0.0,243.0
1449618217198184359,0.0,0.0,241.0
1449618217214996285,0.0,0.0,244.0
1449618217229026096,0.0,0.0,247.0
1449618217241165219,0.0,0.0,241.0
1449618217257364903,0.0,0.0,241.0
1449618217274737474,0.0,0.0,245.0
1449618217286892442,0.0,0.0,245.0
1449618217303546720,0.0,0.0,241.0
1449618217319879954,0.0,0.0,244.0
1449618217334371329,0.0,0.0,242.0
1449618217347440468,0.0,0.0,246.0
1449618217363948112,0.0,0.0,244.0
1449618217376100532,0.0,0.0,245.0
1449618217392636591,0.0,0.0,242.0
1449618217406228775,0.0,0.0,241.0
1449618217421334618,0.0,0.0,243.0
1449618217438267995,0.0,0.0,242.0
1449618217450285312,0.0,0.0,245.0
1449618217466814151,0.0,0.0,242.0
1449618217483016851,0.0,0.0,243.0
1449618217496283754,0.0,0.0,245.0
1449618217511158578,0.0,0.0,241.0
1449618217529527430,0.0,0.0,242.0
1449618217540303623,0.0,0.0,244.0
1449618217556482353,0.0,0.0,246.0
1449618217573289150,0.0,0.0,246.0
1449618217585637316,0.0,0.0,244.0
1449618217602973279,0.0,0.0,245.0
1449618217617821187,0.0,0.0,244.0
1449618217630112227,0.0,0.0,251.0
1449618217650271076,0.0,0.0,248.0
1449618217664207407,0.0,0.0,248.0
1449618217675679413,0.0,0.0,252.0
1449618217694098855,0.0,0.0,254.0
1449618217710432681,0.0,0.0,256.0
1449618217721947263,0.0,0.0,251.0
1449618217737836550,0.0,0.0,252.0
1449618217753940374,0.0,0.0,253.0
1449618217766670528,0.0,0.0,252.0
1449618217781959048,0.0,0.0,254.0
1449618217793879110,0.0,0.0,250.0
1449618217810552585,0.0,0.0,246.0
1449618217826680936,0.0,0.0,249.0
1449618217838898179,0.0,0.0,244.0
1449618217856992446,0.0,0.0,246.0
1449618217873271994,0.0,0.0,242.0
1449618217885029471,0.0,0.0,246.0
1449618217901116521,0.0,0.0,244.0
1449618217918462671,0.0,0.0,243.0
1449618217933955934,0.0,0.0,244.0
1449618217946050625,0.0,0.0,239.0
1449618217962844367,0.0,0.0,244.0
1449618217974100333,0.0,0.0,244.0
1449618217991208993,0.0,0.0,240.0
1449618218007485178,0.0,0.0,241.0
1449618218019723040,0.0,0.0,248.0
1449618218036381179,0.0,0.0,242.0
1449618218053491595,0.0,0.0,240.0
1449618218064585779,0.0,0.0,242.0
1449618218082870126,0.0,0.0,242.0
1449618218097062691,0.0,0.0,244.0
1449618218109287254,0.0,0.0,242.0
1449618218127238402,0.0,0.0,242.0
1449618218142244263,0.0,0.0,239.0
1449618218154416259,0.0,0.0,243.0
1449618218172655997,0.0,0.0,241.0
1449618218185334575,0.0,0.0,243.0
1449618218200220301,0.0,0.0,242.0
1449618218217653938,0.0,0.0,242.0
1449618218231810908,0.0,0.0,243.0
1449618218246014231,0.0,0.0,249.0
1449618218261320492,0.0,0.0,244.0
1449618218273192173,0.0,0.0,244.0
1449618218289724363,0.0,0.0,243.0
1449618218305927042,0.0,0.0,243.0
1449618218319594464,0.0,0.0,243.0
1449618218335461003,0.0,0.0,245.0
1449618218350990397,0.0,0.0,243.0
1449618218363189134,0.0,0.0,243.0
1449618218379947786,0.0,0.0,241.0
1449618218396041327,0.0,0.0,238.0
1449618218409650657,0.0,0.0,247.0
1449618218426411394,0.0,0.0,242.0
1449618218442145129,0.0,0.0,240.0
1449618218453460046,0.0,0.0,242.0
1449618218470360161,0.0,0.0,242.0
1449618218486201308,0.0,0.0,243.0
1449618218498566945,0.0,0.0,243.0
1449618218515099233,0.0,0.0,239.0
1449618218531275198,0.0,0.0,245.0
1449618218547948964,0.0,0.0,243.0
1449618218563905312,0.0,0.0,239.0
1449618218576183178,0.0,0.0,244.0
1449618218592691530,0.0,0.0,241.0
1449618218605071173,0.0,0.0,243.0
1449618218621714652,0.0,0.0,245.0
1449618218637684028,0.0,0.0,247.0
1449618218651325023,0.0,0.0,246.0
1449618218666543761,0.0,0.0,250.0
1449618218682963118,0.0,0.0,246.0
1449618218695246669,0.0,0.0,251.0
1449618218712118373,0.0,0.0,250.0
1449618218728367736,0.0,0.0,251.0
1449618218740372570,0.0,0.0,250.0
1449618218756709908,0.0,0.0,252.0
1449618218773535741,0.0,0.0,249.0
1449618218785202673,0.0,0.0,248.0
1449618218801823147,0.0,0.0,245.0
1449618218819236380,0.0,0.0,247.0
1449618218831048584,0.0,0.0,244.0
1449618218846799020,0.0,0.0,245.0
1449618218863526744,0.0,0.0,243.0
1449618218876126968,0.0,0.0,238.0
1449618218892611922,0.0,0.0,241.0
1449618218908214311,0.0,0.0,240.0
1449618218920400409,0.0,0.0,242.0
1449618218936845905,0.0,0.0,241.0
1449618218952321698,0.0,0.0,241.0
1449618218965987251,0.0,0.0,239.0
1449618218981894897,0.0,0.0,230.0
1449618218994821145,0.0,0.0,239.0
1449618219012172316,0.0,0.0,240.0
1449618219027308361,0.0,0.0,240.0
1449618219041497991,0.0,0.0,239.0
1449618219055972790,0.0,0.0,243.0
1449618219073685548,0.0,0.0,233.0
1449618219085343640,0.0,0.0,238.0
1449618219100882279,0.0,0.0,243.0
1449618219117103751,0.0,0.0,238.0
1449618219131423156,0.0,0.0,241.0
1449618219153653638,0.0,0.0,235.0
1449618219162172845,0.0,0.0,238.0
1449618219174690135,0.0,0.0,243.0
1449618219192254086,0.0,0.0,247.0
1449618219207581675,0.0,0.0,238.0
1449618219220555925,0.0,0.0,241.0
1449618219236700479,0.0,0.0,240.0
1449618219252369937,0.0,0.0,242.0
1449618219264780351,0.0,0.0,239.0
1449618219281551412,0.0,0.0,238.0
1449618219298369573,0.0,0.0,242.0
1449618219310022522,0.0,0.0,241.0
1449618219326271764,0.0,0.0,239.0
1449618219338505598,0.0,0.0,241.0
1449618219355550971,0.0,0.0,241.0
1449618219372125072,0.0,0.0,238.0
1449618219383788736,0.0,0.0,241.0
1449618219399920862,0.0,0.0,243.0
1449618219417183774,0.0,0.0,249.0
1449618219428267264,0.0,0.0,240.0
1449618219444834408,0.0,0.0,245.0
1449618219462121631,0.0,0.0,240.0
1449618219474005054,0.0,0.0,241.0
1449618219493530809,0.0,0.0,243.0
1449618219509619832,0.0,0.0,241.0
1449618219524485718,0.0,0.0,239.0
1449618219535089180,0.0,0.0,244.0
1449618219551302376,0.0,0.0,241.0
1449618219564033296,0.0,0.0,240.0
1449618219581389305,0.0,0.0,245.0
1449618219596287730,0.0,0.0,241.0
1449618219609354559,0.0,0.0,242.0
1449618219626573686,0.0,0.0,242.0
1449618219641734396,0.0,0.0,244.0
1449618219653609162,0.0,0.0,246.0
1449618219670674062,0.0,0.0,246.0
1449618219687149757,0.0,0.0,246.0
1449618219700762580,0.0,0.0,247.0
1449618219717631111,0.0,0.0,249.0
1449618219727669748,0.0,0.0,245.0
1449618219776451844,0.0,0.0,245.0
1449618219776455477,0.0,0.0,248.0
1449618219776473426,0.0,0.0,248.0
1449618219790699216,0.0,0.0,247.0
1449618219806222638,0.0,0.0,237.0
1449618219818358877,0.0,0.0,246.0
1449618219835057843,0.0,0.0,248.0
1449618219851288249,0.0,0.0,244.0
1449618219863449446,0.0,0.0,242.0
1449618219880009878,0.0,0.0,238.0
1449618219895623918,0.0,0.0,238.0
1449618219908112883,0.0,0.0,239.0
1449618219924724680,0.0,0.0,240.0
1449618219941230161,0.0,0.0,243.0
1449618219954579724,0.0,0.0,247.0
1449618219969288503,0.0,0.0,247.0
1449618219989227314,0.0,0.0,241.0
1449618219997875538,0.0,0.0,240.0
1449618220014311242,0.0,0.0,239.0
1449618220035261108,0.0,0.0,241.0
1449618220042918802,0.0,0.0,240.0
1449618220059491281,0.0,0.0,241.0
1449618220076000784,0.0,0.0,241.0
1449618220087907175,0.0,0.0,243.0
1449618220107849430,0.0,0.0,238.0
1449618220118313765,0.0,0.0,238.0
1449618220133012812,0.0,0.0,242.0
1449618220150601425,0.0,0.0,242.0
1449618220165150191,0.0,0.0,240.0
1449618220178330874,0.0,0.0,230.0
1449618220196777692,0.0,0.0,238.0
1449618220206981156,0.0,0.0,243.0
1449618220223787837,0.0,0.0,243.0
1449618220239710401,0.0,0.0,240.0
1449618220252171565,0.0,0.0,240.0
1449618220268359559,0.0,0.0,241.0
1449618220284883560,0.0,0.0,238.0
1449618220297756814,0.0,0.0,239.0
1449618220313617064,0.0,0.0,241.0
1449618220331158999,0.0,0.0,240.0
1449618220344038777,0.0,0.0,241.0
1449618220359890372,0.0,0.0,246.0
1449618220375961168,0.0,0.0,238.0
1449618220387154127,0.0,0.0,241.0
1449618220408568212,0.0,0.0,242.0
1449618220419812528,0.0,0.0,240.0
1449618220432019924,0.0,0.0,234.0
1449618220448427220,0.0,0.0,241.0
1449618220464906450,0.0,0.0,233.0
1449618220477318387,0.0,0.0,229.0
1449618220493783255,0.0,0.0,241.0
1449618220506075194,0.0,0.0,237.0
1449618220524346148,0.0,0.0,239.0
1449618220538827746,0.0,0.0,240.0
1449618220554725491,0.0,0.0,242.0
1449618220567209275,0.0,0.0,239.0
1449618220584097255,0.0,0.0,240.0
1449618220597286106,0.0,0.0,237.0
1449618220612462443,0.0,0.0,245.0
1449618220628814313,0.0,0.0,242.0
1449618220641055169,0.0,0.0,241.0
1449618220657417388,0.0,0.0,240.0
1449618220674080064,0.0,0.0,237.0
1449618220686393784,0.0,0.0,242.0
1449618220702405004,0.0,0.0,232.0
1449618220719118615,0.0,0.0,242.0
1449618220731726153,0.0,0.0,243.0
1449618220747475755,0.0,0.0,245.0
1449618220764693964,0.0,0.0,241.0
1449618220776336959,0.0,0.0,240.0
1449618220792584766,0.0,0.0,240.0
1449618220811099219,0.0,0.0,243.0
1449618220822841908,0.0,0.0,248.0
1449618220837579521,0.0,0.0,239.0
1449618220854224029,0.0,0.0,240.0
1449618220866791565,0.0,0.0,241.0
1449618220884263595,0.0,0.0,240.0
1449618220895376206,0.0,0.0,243.0
1449618220912425376,0.0,0.0,239.0
1449618220928403059,0.0,0.0,236.0
1449618220940111336,0.0,0.0,240.0
1449618220956815191,0.0,0.0,242.0
1449618220978261991,0.0,0.0,242.0
1449618220987613693,0.0,0.0,238.0
1449618221002024806,0.0,0.0,243.0
1449618221017753439,0.0,0.0,242.0
1449618221034402420,0.0,0.0,238.0
1449618221050709723,0.0,0.0,239.0
1449618221066390529,0.0,0.0,240.0
1449618221079497710,0.0,0.0,241.0
1449618221095978841,0.0,0.0,244.0
1449618221107878026,0.0,0.0,240.0
1449618221124453358,0.0,0.0,241.0
1449618221140680524,0.0,0.0,244.0
1449618221152969240,0.0,0.0,239.0
1449618221169585877,0.0,0.0,243.0
1449618221187736749,0.0,0.0,239.0
1449618221198366211,0.0,0.0,248.0
1449618221215290561,0.0,0.0,241.0
1449618221232424851,0.0,0.0,243.0
1449618221243857056,0.0,0.0,235.0
1449618221259946917,0.0,0.0,242.0
1449618221272147615,0.0,0.0,242.0
1449618221288477835,0.0,0.0,243.0
1449618221305254506,0.0,0.0,241.0
1449618221317347901,0.0,0.0,242.0
1449618221333163221,0.0,0.0,241.0
1449618221349985088,0.0,0.0,240.0
1449618221363258870,0.0,0.0,239.0
1449618221378388626,0.0,0.0,239.0
1449618221396774468,0.0,0.0,252.0
1449618221407379553,0.0,0.0,242.0
1449618221426505919,0.0,0.0,246.0
1449618221440162525,0.0,0.0,245.0
1449618221452044780,0.0,0.0,245.0
1449618221469746289,0.0,0.0,239.0
1449618221490371215,0.0,0.0,243.0
1449618221500349066,0.0,0.0,243.0
1449618221513650510,0.0,0.0,244.0
1449618221531765903,0.0,0.0,251.0
1449618221542273385,0.0,0.0,255.0
1449618221558517888,0.0,0.0,248.0
1449618221575037972,0.0,0.0,240.0
1449618221587662850,0.0,0.0,248.0
1449618221603527036,0.0,0.0,248.0
1449618221621869985,0.0,0.0,252.0
1449618221632778762,0.0,0.0,249.0
1449618221648664870,0.0,0.0,250.0
1449618221661848262,0.0,0.0,253.0
1449618221677473228,0.0,0.0,253.0
1449618221694458821,0.0,0.0,250.0
1449618221706543087,0.0,0.0,244.0
1449618221722707852,0.0,0.0,246.0
1449618221739463133,0.0,0.0,254.0
1449618221751654489,0.0,0.0,244.0
1449618221767547216,0.0,0.0,244.0
1449618221783970536,0.0,0.0,251.0
1449618221796819854,0.0,0.0,245.0
1449618221813107485,0.0,0.0,248.0
1449618221829659279,0.0,0.0,244.0
1449618221841206232,0.0,0.0,248.0
1449618221857764944,0.0,0.0,246.0
1449618221874066599,0.0,0.0,256.0
1449618221886503387,0.0,0.0,245.0
1449618221902769265,0.0,0.0,243.0
1449618221924731460,0.0,0.0,250.0
1449618221931598660,0.0,0.0,249.0
1449618221947743698,0.0,0.0,247.0
1449618221964244149,0.0,0.0,245.0
1449618221977016358,0.0,0.0,249.0
1449618221992796131,0.0,0.0,247.0
1449618222014777850,0.0,0.0,249.0
1449618222021706978,0.0,0.0,253.0
1449618222042316567,0.0,0.0,258.0
1449618222050551479,0.0,0.0,262.0
1449618222066649568,0.0,0.0,268.0
1449618222083083247,0.0,0.0,267.0
1449618222095098021,0.0,0.0,268.0
1449618222111512925,0.0,0.0,270.0
1449618222127926859,0.0,0.0,270.0
1449618222140399414,0.0,2.0,271.0
1449618222158094092,0.0,2.0,272.0
1449618222173212301,0.0,2.0,275.0
1449618222185595281,0.0,2.0,272.0
1449618222201984332,0.0,2.0,270.0
1449618222218697183,0.0,2.0,271.0
1449618222230721850,0.0,2.0,271.0
1449618222247526767,0.0,2.0,270.0
1449618222263307755,0.0,2.0,267.0
1449618222275608751,0.0,2.0,262.0
1449618222296034060,0.0,2.0,270.0
1449618222312088631,0.0,2.0,276.0
1449618222320846664,0.0,2.0,272.0
1449618222337154210,0.0,2.0,271.0
1449618222353421513,0.0,0.0,276.0
1449618222365432831,0.0,0.0,269.0
1449618222382196425,0.0,0.0,274.0
1449618222399413245,0.0,0.0,270.0
1449618222410964204,0.0,0.0,264.0
1449618222427509168,0.0,0.0,274.0
1449618222440478314,0.0,0.0,270.0
1449618222456181642,0.0,0.0,266.0
1449618222472198529,0.0,0.0,272.0
1449618222484245986,0.0,0.0,267.0
1449618222506417065,0.0,0.0,263.0
1449618222517151834,0.0,0.0,266.0
1449618222531358210,0.0,0.0,271.0
1449618222547396738,0.0,0.0,273.0
1449618222562694047,0.0,0.0,278.0
1449618222574976301,0.0,0.0,276.0
1449618222591357155,0.0,0.0,276.0
1449618222607845981,0.0,0.0,278.0
1449618222619513299,0.0,0.0,279.0
1449618222636424380,0.0,0.0,277.0
1449618222657950440,0.0,0.0,278.0
1449618222664883214,0.0,0.0,274.0
1449618222680952213,0.0,0.0,274.0
1449618222697622503,0.0,0.0,281.0
1449618222709773185,0.0,0.0,276.0
1449618222726372774,0.0,0.0,277.0
1449618222742412470,0.0,0.0,276.0
1449618222755948930,0.0,0.0,276.0
1449618222773931967,0.0,2.0,276.0
1449618222790108231,0.0,2.0,272.0
1449618222799921463,0.0,2.0,274.0
1449618222817247691,0.0,2.0,273.0
1449618222840675445,0.0,2.0,273.0
1449618222846076683,0.0,2.0,275.0
1449618222861289192,0.0,0.0,274.0
1449618222873619084,0.0,0.0,283.0
1449618222891165727,0.0,0.0,275.0
1449618222908112261,0.0,0.0,271.0
1449618222919543366,0.0,0.0,272.0
1449618222935945947,0.0,0.0,272.0
1449618222957615819,0.0,0.0,276.0
1449618222964078945,0.0,0.0,273.0
1449618222980251451,0.0,0.0,273.0
1449618222996665561,0.0,0.0,272.0
1449618223009611751,0.0,0.0,271.0
1449618223025840327,0.0,0.0,270.0
1449618223041608782,0.0,0.0,271.0
1449618223070122800,0.0,0.0,271.0
1449618223070127726,0.0,0.0,269.0
1449618223100410482,0.0,0.0,274.0
1449618223100419801,0.0,0.0,271.0
1449618223116622326,0.0,0.0,269.0
1449618223133370939,0.0,0.0,274.0
1449618223144129667,0.0,0.0,271.0
1449618223161283780,0.0,0.0,273.0
1449618223176986210,0.0,0.0,270.0
1449618223189263953,0.0,0.0,270.0
1449618223209611185,0.0,0.0,271.0
1449618223229007634,0.0,0.0,271.0
1449618223238052511,0.0,0.0,271.0
1449618223251584719,0.0,0.0,269.0
1449618223262850207,0.0,0.0,273.0
1449618223280346302,0.0,0.0,272.0
1449618223299067182,0.0,0.0,271.0
1449618223310110447,0.0,0.0,272.0
1449618223326771852,0.0,0.0,270.0
1449618223342592736,0.0,0.0,262.0
1449618223356196488,0.0,0.0,269.0
1449618223369618028,0.0,0.0,270.0
1449618223389647602,0.0,0.0,267.0
1449618223400454021,0.0,0.0,266.0
1449618223414555481,0.0,0.0,268.0
1449618223431388869,0.0,0.0,266.0
1449618223447528154,0.0,0.0,273.0
1449618223460480849,0.0,0.0,266.0
1449618223477162193,0.0,0.0,269.0
1449618223498980770,0.0,0.0,265.0
1449618223508021401,0.0,0.0,266.0
1449618223524353191,0.0,0.0,270.0
1449618223539435914,0.0,0.0,266.0
1449618223553626892,0.0,0.0,272.0
1449618223566155896,0.0,0.0,265.0
1449618223584393003,0.0,0.0,272.0
1449618223594565735,0.0,0.0,272.0
1449618223611430812,0.0,0.0,267.0
1449618223627725659,0.0,0.0,265.0
1449618223639881168,0.0,0.0,267.0
1449618223657632475,0.0,0.0,261.0
1449618223673337006,0.0,0.0,266.0
1449618223687000735,0.0,0.0,264.0
1449618223701098593,0.0,0.0,264.0
1449618223717620712,0.0,0.0,263.0
1449618223730641014,0.0,0.0,262.0
1449618223747539638,0.0,0.0,263.0
1449618223763447774,0.0,0.0,260.0
1449618223779258537,0.0,0.0,258.0
1449618223794516930,0.0,0.0,266.0
1449618223808760131,0.0,0.0,261.0
1449618223827806005,0.0,0.0,261.0
1449618223836370909,0.0,0.0,255.0
1449618223853836218,0.0,0.0,255.0
1449618223865630868,0.0,0.0,256.0
1449618223886144515,0.0,0.0,254.0
1449618223903984255,0.0,0.0,256.0
1449618223910532690,0.0,0.0,257.0
1449618223927634693,0.0,0.0,254.0
1449618223945021779,0.0,0.0,255.0
1449618223958788050,0.0,0.0,249.0
1449618223971376892,0.0,0.0,251.0
1449618223988510276,0.0,-2.0,249.0
1449618224002404658,0.0,-2.0,255.0
1449618224020626069,0.0,-2.0,252.0
1449618224028654191,0.0,-2.0,248.0
1449618224045364778,-2.0,-2.0,259.0
1449618224061773858,-2.0,-2.0,265.0
1449618224074008280,-2.0,-2.0,264.0
1449618224093895799,-2.0,-2.0,264.0
1449618224106977894,-2.0,-2.0,266.0
1449618224119149823,-2.0,-2.0,265.0
1449618224136088134,-2.0,-4.0,272.0
1449618224158371404,-2.0,-4.0,272.0
1449618224169643844,-2.0,-4.0,277.0
1449618224182793434,-2.0,-4.0,273.0
1449618224198068466,-2.0,-4.0,277.0
1449618224211952643,-2.0,-4.0,277.0
1449618224225549848,-2.0,-4.0,274.0
1449618224245462261,-2.0,-4.0,277.0
1449618224259901503,-2.0,-4.0,279.0
1449618224271068970,-2.0,-6.0,279.0
1449618224287543039,-2.0,-6.0,278.0
1449618224299557711,-2.0,-6.0,274.0
1449618224315473155,-4.0,-6.0,265.0
1449618224332086620,-4.0,-6.0,267.0
1449618224344697207,-4.0,-6.0,264.0
1449618224361669423,-4.0,-8.0,265.0
1449618224375256889,-4.0,-8.0,259.0
1449618224393921991,-4.0,-8.0,255.0
1449618224406181552,-4.0,-8.0,257.0
1449618224420275125,-4.0,-8.0,255.0
1449618224434600892,-4.0,-8.0,255.0
1449618224450748054,-4.0,-10.0,255.0
1449618224463279657,-6.0,-10.0,261.0
1449618224480897187,-6.0,-10.0,267.0
1449618224495711671,-6.0,-10.0,267.0
1449618224508364687,-6.0,-10.0,267.0
1449618224525193385,-6.0,-10.0,272.0
1449618224541704381,-6.0,-12.0,273.0
1449618224553442194,-6.0,-12.0,268.0
1449618224573880995,-6.0,-12.0,272.0
1449618224587208517,-6.0,-12.0,267.0
1449618224599740407,-8.0,-14.0,262.0
1449618224617635844,-8.0,-14.0,257.0
1449618224632719029,-8.0,-14.0,259.0
1449618224645713532,-8.0,-14.0,255.0
1449618224676012615,-8.0,-14.0,252.0
1449618224677773629,-8.0,-16.0,253.0
1449618224691688125,-8.0,-16.0,261.0
1449618224705815806,-10.0,-16.0,262.0
1449618224721624234,-10.0,-16.0,269.0
1449618224735349029,-10.0,-18.0,271.0
1449618224751944693,-10.0,-18.0,276.0
1449618224764143617,-10.0,-18.0,274.0
1449618224778680854,-10.0,-18.0,270.0
1449618224798421568,-10.0,-20.0,272.0
1449618224807943699,-10.0,-20.0,272.0
1449618224825012856,-12.0,-20.0,262.0
1449618224840492409,-12.0,-22.0,263.0
1449618224852656906,-12.0,-22.0,257.0
1449618224868606837,-12.0,-22.0,254.0
1449618224885607642,-12.0,-22.0,255.0
1449618224897357747,-12.0,-24.0,255.0
1449618224913768545,-14.0,-24.0,265.0
1449618224930369431,-14.0,-24.0,266.0
1449618224944808434,-14.0,-24.0,272.0
1449618224960080284,-14.0,-26.0,268.0
1449618224976132323,-14.0,-26.0,271.0
1449618224992618074,-14.0,-26.0,272.0
1449618225007462650,-16.0,-26.0,256.0
1449618225020925124,-16.0,-28.0,259.0
1449618225032539591,-16.0,-28.0,253.0
1449618225050870358,-16.0,-28.0,251.0
1449618225065989306,-16.0,-30.0,247.0
1449618225077464485,-18.0,-30.0,262.0
1449618225094504801,-18.0,-30.0,261.0
1449618225112093127,-18.0,-30.0,266.0
1449618225127005835,-18.0,-32.0,268.0
1449618225139486143,-18.0,-32.0,268.0
1449618225151854019,-18.0,-32.0,264.0
1449618225169631117,-20.0,-32.0,253.0
1449618225187057130,-20.0,-34.0,247.0
1449618225196855601,-20.0,-34.0,246.0
1449618225212547204,-20.0,-34.0,246.0
1449618225230788254,-22.0,-34.0,259.0
1449618225241835103,-22.0,-34.0,260.0
1449618225259015033,-22.0,-36.0,266.0
1449618225277402836,-22.0,-36.0,266.0
1449618225286497244,-24.0,-36.0,254.0
1449618225303007090,-24.0,-38.0,243.0
1449618225319900243,-24.0,-38.0,246.0
1449618225338426401,-24.0,-38.0,246.0
1449618225348169356,-26.0,-38.0,259.0
1449618225364470859,-26.0,-38.0,258.0
1449618225376828831,-26.0,-40.0,260.0
1449618225392772756,-28.0,-40.0,248.0
1449618225409324755,-28.0,-40.0,241.0
1449618225421705788,-30.0,-40.0,248.0
1449618225438310400,-30.0,-42.0,253.0
1449618225455117921,-30.0,-42.0,259.0
1449618225468901544,-32.0,-42.0,245.0
1449618225485489577,-32.0,-42.0,238.0
1449618225501128932,-34.0,-42.0,253.0
1449618225512571983,-34.0,-42.0,256.0
1449618225529624834,-36.0,-44.0,244.0
1449618225541434179,-36.0,-44.0,236.0
1449618225559605111,-38.0,-44.0,249.0
1449618225574951206,-38.0,-44.0,254.0
1449618225585727342,-40.0,-46.0,234.0
1449618225603223791,-42.0,-46.0,248.0
1449618225618161012,-42.0,-46.0,254.0
1449618225632559880,-44.0,-46.0,231.0
1449618225647093486,-46.0,-46.0,247.0
1449618225664508859,-46.0,-46.0,253.0
1449618225675738883,-48.0,-48.0,235.0
1449618225693396430,-50.0,-48.0,247.0
1449618225708551740,-50.0,-48.0,254.0
1449618225727050440,-52.0,-48.0,234.0
1449618225740376196,-54.0,-48.0,248.0
1449618225753496784,-56.0,-50.0,240.0
1449618225769579865,-56.0,-50.0,234.0
1449618225782650896,-58.0,-50.0,257.0
1449618225806343489,-60.0,-50.0,238.0
1449618225812803464,-62.0,-50.0,251.0
1449618225829848753,-62.0,-52.0,248.0
1449618225843718058,-64.0,-52.0,235.0
1449618225856124695,-66.0,-52.0,256.0
1449618225875364882,-68.0,-52.0,238.0
1449618225889149453,-70.0,-54.0,249.0
1449618225901507396,-72.0,-54.0,247.0
1449618225918346376,-72.0,-54.0,235.0
1449618225932144587,-74.0,-54.0,261.0
1449618225946107895,-76.0,-56.0,240.0
1449618225963517771,-78.0,-56.0,251.0
1449618225975460365,-80.0,-56.0,244.0
1449618225991858925,-80.0,-56.0,246.0
1449618226008123431,-82.0,-58.0,259.0
1449618226021392597,-84.0,-58.0,243.0
1449618226040801062,-86.0,-58.0,263.0
1449618226056195197,-88.0,-60.0,298.0
1449618226069407208,-90.0,-60.0,259.0
1449618226086157896,-90.0,-60.0,264.0
1449618226098031067,-92.0,-62.0,247.0
1449618226114262838,-94.0,-62.0,268.0
1449618226133279436,-96.0,-62.0,254.0
1449618226146085429,-98.0,-64.0,263.0
1449618226159240642,-98.0,-64.0,312.0
1449618226175306215,-100.0,-64.0,253.0
1449618226188231985,-102.0,-66.0,274.0
1449618226211660672,-104.0,-66.0,257.0
1449618226220294072,-106.0,-66.0,267.0
1449618226233232837,-106.0,-68.0,273.0
1449618226250228241,-108.0,-68.0,258.0
1449618226265561815,-110.0,-70.0,276.0
1449618226277653320,-112.0,-70.0,258.0
1449618226296177195,-114.0,-70.0,271.0
1449618226307968371,-114.0,-72.0,283.0
1449618226323059681,-116.0,-72.0,263.0
1449618226340721084,-118.0,-74.0,276.0
1449618226351521497,-120.0,-74.0,268.0
1449618226367945990,-122.0,-76.0,270.0
1449618226384349981,-122.0,-76.0,283.0
1449618226397851391,-124.0,-76.0,261.0
1449618226413237164,-126.0,-78.0,280.0
1449618226432378147,-128.0,-78.0,315.0
1449618226444345800,-128.0,-80.0,269.0
1449618226458590594,-130.0,-80.0,331.0
1449618226479340617,-132.0,-82.0,269.0
1449618226488174213,-134.0,-82.0,322.0
1449618226503434698,-136.0,-84.0,277.0
1449618226520412657,-136.0,-86.0,311.0
1449618226531648491,-138.0,-86.0,282.0
1449618226548178014,-140.0,-88.0,271.0
1449618226564593949,-142.0,-88.0,282.0
1449618226576868839,-144.0,-90.0,320.0
1449618226594902388,-144.0,-90.0,273.0
1449618226609627260,-146.0,-92.0,336.0
1449618226622168208,-148.0,-94.0,272.0
1449618226641047109,-150.0,-94.0,331.0
1449618226657913562,-152.0,-96.0,274.0
1449618226669618021,-154.0,-96.0,330.0
1449618226684665785,-154.0,-98.0,291.0
1449618226696717650,-156.0,-100.0,319.0
1449618226712564781,-158.0,-100.0,295.0
1449618226736004030,-160.0,-102.0,327.0
1449618226742344270,-162.0,-104.0,287.0
1449618226759463790,-164.0,-104.0,326.0
1449618226774583394,-164.0,-106.0,282.0
1449618226788006924,-166.0,-108.0,344.0
1449618226802104251,-168.0,-108.0,278.0
1449618226821658283,-170.0,-110.0,292.0
1449618226832129154,-172.0,-112.0,291.0
1449618226847537491,-174.0,-112.0,333.0
1449618226864919994,-174.0,-114.0,296.0
1449618226876060691,-176.0,-116.0,325.0
1449618226895750642,-178.0,-116.0,299.0
1449618226910533252,-180.0,-118.0,331.0
1449618226921207834,-182.0,-120.0,290.0
1449618226937294001,-184.0,-122.0,328.0
1449618226953902240,-184.0,-122.0,277.0
1449618226966904342,-186.0,-124.0,296.0
1449618226988209576,-188.0,-126.0,273.0
1449618227002263393,-190.0,-126.0,292.0
1449618227011453198,-192.0,-128.0,280.0
1449618227033504191,-194.0,-130.0,328.0
1449618227043820465,-194.0,-130.0,289.0
1449618227061440916,-196.0,-132.0,311.0
1449618227072616323,-198.0,-134.0,283.0
1449618227084704731,-200.0,-134.0,276.0
1449618227101623975,-200.0,-136.0,271.0
1449618227121806702,-202.0,-138.0,331.0
1449618227130497799,-204.0,-138.0,269.0
1449618227146935770,-206.0,-140.0,320.0
1449618227162530488,-206.0,-142.0,278.0
1449618227175139177,-208.0,-144.0,308.0
1449618227193552291,-210.0,-146.0,275.0
1449618227214243338,-212.0,-146.0,307.0
1449618227222331669,-212.0,-148.0,257.0
1449618227236999555,-214.0,-150.0,273.0
1449618227256326355,-216.0,-150.0,258.0
1449618227267813039,-218.0,-152.0,304.0
1449618227281610500,-218.0,-154.0,268.0
1449618227299982122,-220.0,-154.0,292.0
1449618227311929929,-222.0,-156.0,254.0
1449618227326953730,-222.0,-158.0,304.0
1449618227345685963,-224.0,-160.0,246.0
1449618227357655005,-226.0,-162.0,299.0
1449618227371789581,-226.0,-162.0,265.0
1449618227388478272,-228.0,-164.0,291.0
1449618227401784223,-230.0,-166.0,257.0
1449618227416605628,-230.0,-166.0,285.0
1449618227441997754,-232.0,-168.0,255.0
1449618227445658145,-234.0,-170.0,288.0
1449618227461696010,-234.0,-172.0,280.0
1449618227474547173,-236.0,-174.0,281.0
1449618227490421408,-238.0,-174.0,279.0
1449618227507608458,-238.0,-176.0,290.0
1449618227521932441,-240.0,-178.0,274.0
1449618227535671355,-242.0,-180.0,315.0
1449618227554468080,-242.0,-182.0,296.0
1449618227564116463,-244.0,-182.0,305.0
1449618227584228048,-246.0,-184.0,291.0
1449618227597634443,-246.0,-186.0,316.0
1449618227612519762,-248.0,-188.0,285.0
1449618227626160540,-248.0,-190.0,297.0
1449618227642434873,-250.0,-192.0,299.0
1449618227655532755,-252.0,-192.0,307.0
1449618227689861430,-252.0,-194.0,277.0
1449618227689883233,-254.0,-196.0,312.0
1449618227699866995,-254.0,-198.0,296.0
1449618227715881455,-256.0,-200.0,279.0
1449618227733120412,-258.0,-202.0,288.0
1449618227745412993,-258.0,-202.0,295.0
1449618227761682891,-260.0,-204.0,278.0
1449618227779737365,-260.0,-206.0,263.0
1449618227789467599,-262.0,-208.0,286.0
1449618227807333149,-262.0,-210.0,286.0
1449618227824328847,-264.0,-212.0,272.0
1449618227834586888,-266.0,-214.0,280.0
1449618227850693984,-266.0,-214.0,282.0
1449618227865203959,-268.0,-216.0,273.0
1449618227879547788,-268.0,-218.0,259.0
1449618227895884633,-270.0,-220.0,276.0
1449618227908132289,-270.0,-222.0,279.0
1449618227924604783,-272.0,-222.0,268.0
1449618227941451788,-272.0,-224.0,261.0
1449618227953454284,-274.0,-226.0,268.0
1449618227970298848,-276.0,-228.0,262.0
1449618227988116843,-276.0,-230.0,249.0
1449618228001656350,-278.0,-232.0,265.0
1449618228017659406,-278.0,-232.0,267.0
1449618228031164647,-280.0,-234.0,254.0
1449618228043773008,-280.0,-236.0,247.0
1449618228060088230,-282.0,-238.0,258.0
1449618228078042575,-282.0,-238.0,259.0
1449618228096665837,-284.0,-240.0,248.0
1449618228111193731,-284.0,-242.0,238.0
1449618228121707014,-286.0,-244.0,250.0
1449618228134678275,-286.0,-246.0,257.0
1449618228150231192,-288.0,-246.0,240.0
1449618228166447312,-288.0,-248.0,236.0
1449618228179970017,-290.0,-250.0,243.0
1449618228195053366,-290.0,-252.0,242.0
1449618228214096060,-292.0,-252.0,220.0
1449618228223956903,-294.0,-254.0,232.0
1449618228244890540,-294.0,-256.0,241.0
1449618228252405862,-296.0,-258.0,235.0
1449618228269016260,-296.0,-258.0,224.0
1449618228288001120,-298.0,-260.0,235.0
1449618228302238902,-298.0,-262.0,240.0
1449618228315386668,-300.0,-264.0,230.0
1449618228344670440,-300.0,-264.0,221.0
1449618228344710679,-302.0,-266.0,233.0
1449618228360856680,-302.0,-268.0,245.0
1449618228378254837,-304.0,-270.0,227.0
1449618228387551399,-304.0,-270.0,221.0
1449618228405767017,-306.0,-272.0,232.0
1449618228421832413,-306.0,-274.0,242.0
1449618228433824238,-308.0,-276.0,221.0
1449618228450580915,-310.0,-276.0,229.0
1449618228470023513,-310.0,-278.0,242.0
1449618228481212553,-312.0,-280.0,220.0
1449618228501652391,-312.0,-282.0,221.0
1449618228514077077,-314.0,-282.0,234.0
1449618228523090711,-314.0,-284.0,240.0
1449618228543202276,-316.0,-286.0,263.0
1449618228557236621,-318.0,-288.0,232.0
1449618228572540727,-318.0,-290.0,243.0
1449618228590260878,-320.0,-290.0,230.0
1449618228600428686,-320.0,-292.0,223.0
1449618228619395071,-322.0,-294.0,233.0
1449618228630393387,-322.0,-296.0,229.0
1449618228645758223,-324.0,-298.0,219.0
1449618228662602165,-326.0,-300.0,221.0
1449618228674867813,-326.0,-300.0,233.0
1449618228694022418,-328.0,-302.0,220.0
1449618228707834368,-330.0,-304.0,230.0
1449618228719481010,-330.0,-306.0,239.0
1449618228735953070,-332.0,-308.0,226.0
1449618228751927105,-332.0,-310.0,216.0
1449618228764999917,-334.0,-310.0,232.0
1449618228780745793,-336.0,-312.0,220.0
1449618228797788709,-336.0,-314.0,217.0
1449618228817702769,-338.0,-316.0,237.0
1449618228829223639,-340.0,-318.0,225.0
1449618228843670197,-340.0,-320.0,217.0
1449618228855945456,-342.0,-322.0,235.0
1449618228871227845,-344.0,-322.0,232.0
1449618228887721900,-344.0,-324.0,221.0
1449618228900799293,-346.0,-326.0,231.0
1449618228918927302,-346.0,-328.0,232.0
1449618228936217760,-348.0,-330.0,226.0
1449618228944949778,-350.0,-332.0,238.0
1449618228966648384,-350.0,-334.0,245.0
1449618228977421797,-352.0,-334.0,224.0
1449618228990156764,-354.0,-336.0,241.0
1449618229005898912,-354.0,-338.0,242.0
1449618229021250291,-356.0,-340.0,233.0
1449618229035602324,-358.0,-342.0,243.0
1449618229051492779,-358.0,-344.0,246.0
1449618229063968800,-360.0,-346.0,232.0
1449618229080403963,-362.0,-348.0,244.0
1449618229096569069,-362.0,-350.0,256.0
1449618229108973494,-364.0,-350.0,236.0
1449618229124964054,-366.0,-352.0,254.0
1449618229149442107,-366.0,-354.0,256.0
1449618229153523380,-368.0,-356.0,240.0
1449618229170155598,-370.0,-358.0,251.0
1449618229186385018,-370.0,-360.0,260.0
1449618229198662322,-372.0,-362.0,240.0
1449618229216679925,-374.0,-364.0,251.0
1449618229231273424,-374.0,-366.0,261.0
1449618229244142362,-376.0,-366.0,237.0
1449618229260314713,-378.0,-368.0,247.0
1449618229276966299,-378.0,-370.0,255.0
1449618229291153242,-380.0,-372.0,240.0
1449618229305231829,-382.0,-374.0,249.0
1449618229321957873,-382.0,-376.0,252.0
1449618229333559461,-384.0,-378.0,235.0
1449618229350669554,-386.0,-378.0,245.0
1449618229366624627,-386.0,-380.0,251.0
1449618229378794243,-388.0,-382.0,235.0
1449618229398164814,-390.0,-384.0,234.0
1449618229407506833,-390.0,-386.0,248.0
1449618229427935021,-392.0,-388.0,233.0
1449618229441935584,-392.0,-390.0,227.0
1449618229452646995,-394.0,-390.0,241.0
1449618229468861461,-396.0,-392.0,233.0
1449618229485355075,-396.0,-394.0,230.0
1449618229498471683,-398.0,-396.0,240.0
1449618229514372336,-400.0,-398.0,229.0
1449618229530450470,-400.0,-400.0,224.0
1449618229543183356,-402.0,-400.0,236.0
1449618229559056599,-402.0,-402.0,240.0
1449618229576290761,-404.0,-404.0,220.0
1449618229590393200,-406.0,-406.0,230.0
1449618229605455658,-406.0,-408.0,241.0
1449618229620531907,-408.0,-408.0,219.0
1449618229633009559,-410.0,-410.0,228.0
1449618229649362534,-410.0,-412.0,238.0
1449618229665852722,-412.0,-414.0,218.0
1449618229678963995,-412.0,-416.0,217.0
1449618229697732710,-414.0,-416.0,237.0
1449618229713314350,-416.0,-418.0,222.0
1449618229724901150,-416.0,-420.0,212.0
1449618229739224135,-418.0,-422.0,227.0
1449618229755935477,-420.0,-424.0,218.0
1449618229770375544,-420.0,-424.0,209.0
1449618229784495576,-422.0,-426.0,224.0
1449618229796694931,-422.0,-428.0,231.0
1449618229813104900,-424.0,-430.0,214.0
1449618229831098809,-426.0,-432.0,222.0
1449618229842015523,-426.0,-432.0,229.0
1449618229859007658,-428.0,-434.0,214.0
1449618229874369235,-428.0,-436.0,210.0
1449618229889668893,-430.0,-438.0,223.0
1449618229903717937,-432.0,-438.0,214.0
1449618229919497036,-432.0,-440.0,207.0
1449618229932212612,-434.0,-442.0,222.0
1449618229957126033,-434.0,-444.0,221.0
1449618229966187700,-436.0,-444.0,209.0
1449618229978043398,-438.0,-446.0,222.0
1449618229995869012,-438.0,-448.0,229.0
1449618230016244376,-440.0,-450.0,212.0
1449618230022279118,-442.0,-450.0,218.0
1449618230039240693,-442.0,-452.0,230.0
1449618230054886555,-444.0,-454.0,213.0
1449618230067452531,-444.0,-456.0,213.0
1449618230089137912,-446.0,-456.0,229.0
1449618230101887556,-446.0,-458.0,228.0
1449618230112115954,-448.0,-460.0,213.0
1449618230137861225,-450.0,-462.0,228.0
1449618230146369117,-450.0,-462.0,235.0
1449618230159293256,-452.0,-464.0,223.0
1449618230174352581,-454.0,-466.0,236.0
1449618230187548373,-454.0,-466.0,239.0
1449618230202446072,-456.0,-468.0,232.0
1449618230220027832,-456.0,-470.0,228.0
1449618230231857208,-458.0,-472.0,238.0
1449618230248004582,-458.0,-472.0,237.0
1449618230266182541,-460.0,-474.0,226.0
1449618230278645978,-462.0,-476.0,242.0
1449618230294684496,-462.0,-476.0,249.0
1449618230309451513,-464.0,-478.0,234.0
1449618230323310250,-466.0,-480.0,246.0
1449618230337452603,-466.0,-482.0,251.0
1449618230354813612,-468.0,-482.0,237.0
1449618230369454083,-468.0,-484.0,237.0
1449618230382816898,-470.0,-486.0,254.0
1449618230399639679,-472.0,-486.0,243.0
1449618230411156539,-472.0,-488.0,238.0
1449618230430815696,-474.0,-490.0,250.0
1449618230443726251,-476.0,-490.0,241.0
1449618230457629008,-476.0,-492.0,236.0
1449618230472683947,-478.0,-494.0,252.0
1449618230489783990,-480.0,-494.0,248.0
1449618230501317313,-480.0,-496.0,238.0
1449618230521619575,-482.0,-498.0,252.0
1449618230535175437,-484.0,-498.0,247.0
1449618230549157094,-484.0,-500.0,236.0
1449618230568200502,-486.0,-502.0,253.0
1449618230577613100,-488.0,-502.0,250.0
1449618230591733621,-488.0,-504.0,242.0
1449618230609641227,-490.0,-506.0,256.0
1449618230620491910,-492.0,-506.0,249.0
1449618230636848571,-494.0,-508.0,254.0
1449618230656912712,-494.0,-510.0,258.0
1449618230666935028,-496.0,-510.0,250.0
1449618230681489799,-498.0,-512.0,259.0
1449618230697908430,-498.0,-514.0,262.0
1449618230711576304,-500.0,-514.0,249.0
1449618230726984947,-502.0,-516.0,252.0
1449618230742876258,-504.0,-518.0,258.0
1449618230755354777,-504.0,-518.0,247.0
1449618230773275486,-506.0,-520.0,261.0
1449618230791281942,-508.0,-522.0,248.0
1449618230806554039,-510.0,-522.0,253.0
1449618230819581468,-510.0,-524.0,259.0
1449618230834478524,-512.0,-526.0,260.0
1449618230845409966,-514.0,-526.0,259.0
1449618230862105384,-516.0,-528.0,248.0
1449618230879422566,-518.0,-530.0,255.0
1449618230891473135,-518.0,-530.0,260.0
1449618230907052477,-520.0,-532.0,239.0
1449618230923931415,-522.0,-534.0,247.0
1449618230936893889,-524.0,-534.0,244.0
1449618230951993258,-526.0,-536.0,250.0
1449618230966918497,-526.0,-536.0,257.0
1449618230982939499,-528.0,-538.0,284.0
1449618230997507360,-530.0,-540.0,247.0
1449618231009656153,-532.0,-540.0,240.0
1449618231028179682,-534.0,-542.0,246.0
1449618231043042564,-534.0,-544.0,296.0
1449618231058909385,-536.0,-544.0,254.0
1449618231076009022,-538.0,-546.0,298.0
1449618231087218371,-540.0,-548.0,282.0
1449618231105908567,-542.0,-548.0,247.0
1449618231119918317,-542.0,-550.0,243.0
1449618231134921596,-544.0,-550.0,232.0
1449618231148532515,-546.0,-552.0,249.0
1449618231165367769,-548.0,-554.0,237.0
1449618231188196468,-550.0,-554.0,242.0
1449618231194190365,-552.0,-556.0,231.0
1449618231210107828,-552.0,-558.0,230.0
1449618231225889664,-554.0,-558.0,246.0
1449618231238658058,-556.0,-560.0,268.0
1449618231258833358,-558.0,-562.0,238.0
1449618231267209720,-560.0,-562.0,230.0
1449618231287953874,-562.0,-564.0,234.0
1449618231303883406,-562.0,-566.0,232.0
1449618231312765336,-564.0,-566.0,221.0
1449618231328986743,-566.0,-568.0,241.0
1449618231345596141,-568.0,-570.0,219.0
1449618231358497242,-570.0,-570.0,282.0
1449618231376527222,-572.0,-572.0,227.0
1449618231387677980,-574.0,-574.0,234.0
1449618231403202068,-576.0,-574.0,229.0
1449618231418745262,-576.0,-576.0,222.0
1449618231431589251,-578.0,-578.0,240.0
1449618231450060045,-580.0,-578.0,224.0
1449618231465918191,-582.0,-580.0,240.0
1449618231481733699,-584.0,-582.0,223.0
1449618231495245921,-586.0,-582.0,232.0
1449618231509479170,-588.0,-584.0,268.0
1449618231521642349,-590.0,-586.0,235.0
1449618231538129076,-590.0,-586.0,236.0
1449618231559365951,-592.0,-588.0,221.0
1449618231569991284,-594.0,-590.0,239.0
1449618231596954226,-596.0,-590.0,226.0
1449618231608682882,-598.0,-592.0,248.0
1449618231613686027,-600.0,-594.0,237.0
1449618231630488239,-602.0,-594.0,244.0
1449618231645201918,-604.0,-596.0,244.0
1449618231656228421,-606.0,-598.0,250.0
1449618231673625120,-608.0,-598.0,247.0
1449618231689624053,-608.0,-600.0,245.0
1449618231701849755,-610.0,-602.0,261.0
1449618231718762376,-612.0,-602.0,248.0
1449618231732244628,-614.0,-604.0,270.0
1449618231746899608,-616.0,-606.0,252.0
1449618231765742896,-618.0,-606.0,263.0
1449618231778321144,-620.0,-608.0,299.0
1449618231791867869,-622.0,-610.0,263.0
1449618231808574518,-624.0,-610.0,257.0
1449618231820617199,-626.0,-612.0,262.0
1449618231837310948,-628.0,-614.0,257.0
1449618231853300097,-628.0,-614.0,240.0
1449618231866487843,-630.0,-616.0,262.0
1449618231885475942,-632.0,-618.0,236.0
1449618231898588692,-634.0,-618.0,254.0
1449618231910491146,-636.0,-620.0,232.0
1449618231935226396,-638.0,-622.0,241.0
1449618231944579562,-640.0,-622.0,234.0
1449618231955701444,-642.0,-624.0,237.0
1449618231971953217,-644.0,-626.0,226.0
1449618231988608459,-644.0,-626.0,225.0
1449618232000383363,-646.0,-628.0,239.0
1449618232017374084,-648.0,-630.0,219.0
1449618232033272283,-650.0,-630.0,241.0
1449618232047510384,-652.0,-632.0,269.0
1449618232062244358,-654.0,-634.0,236.0
1449618232078553927,-656.0,-634.0,229.0
1449618232091179146,-658.0,-636.0,234.0
1449618232108539602,-660.0,-638.0,228.0
1449618232119940545,-660.0,-638.0,228.0
1449618232135912535,-662.0,-640.0,244.0
1449618232154974167,-664.0,-642.0,226.0
1449618232167398332,-666.0,-642.0,243.0
1449618232180782404,-668.0,-644.0,231.0
1449618232197395958,-670.0,-646.0,279.0
1449618232209468687,-672.0,-646.0,232.0
1449618232225712912,-674.0,-648.0,241.0
1449618232242376377,-674.0,-650.0,244.0
1449618232254605827,-676.0,-650.0,229.0
1449618232280633632,-678.0,-652.0,249.0
1449618232291620399,-680.0,-654.0,232.0
1449618232299869076,-682.0,-654.0,251.0
1449618232317013383,-684.0,-656.0,288.0
1449618232334054324,-686.0,-658.0,248.0
1449618232346324946,-688.0,-658.0,242.0
1449618232361418063,-688.0,-660.0,236.0
1449618232378483296,-690.0,-662.0,251.0
1449618232389936296,-692.0,-662.0,232.0
1449618232410709247,-694.0,-664.0,254.0
1449618232424484500,-696.0,-664.0,236.0
1449618232439613520,-698.0,-666.0,245.0
1449618232451605322,-700.0,-668.0,240.0
1449618232476978872,-702.0,-668.0,288.0
1449618232480536765,-702.0,-670.0,254.0
1449618232511510168,-704.0,-672.0,234.0
1449618232511513602,-706.0,-672.0,250.0
1449618232528759359,-708.0,-674.0,229.0
1449618232542200057,-710.0,-676.0,246.0
1449618232553977575,-712.0,-676.0,240.0
1449618232573677322,-714.0,-678.0,244.0
1449618232590173105,-714.0,-680.0,249.0
1449618232599498289,-716.0,-680.0,231.0
1449618232617172012,-718.0,-682.0,249.0
1449618232632995670,-720.0,-682.0,235.0
1449618232644557994,-722.0,-684.0,246.0
1449618232659959967,-724.0,-686.0,238.0
1449618232677957745,-726.0,-686.0,237.0
1449618232689048971,-726.0,-688.0,252.0
1449618232707512796,-728.0,-690.0,228.0
1449618232722044807,-730.0,-690.0,249.0
1449618232741150261,-732.0,-692.0,276.0
1449618232750859620,-734.0,-694.0,246.0
1449618232766911181,-736.0,-694.0,238.0
1449618232779878057,-738.0,-696.0,241.0
1449618232795513281,-738.0,-698.0,249.0
1449618232812542570,-740.0,-698.0,229.0
1449618232824688692,-742.0,-700.0,250.0
1449618232841609555,-744.0,-700.0,232.0
1449618232857613083,-746.0,-702.0,242.0
1449618232869199718,-748.0,-704.0,240.0
1449618232890650626,-748.0,-704.0,233.0
1449618232900242491,-750.0,-706.0,250.0
1449618232917282126,-752.0,-708.0,229.0
1449618232935077008,-754.0,-708.0,242.0
1449618232945264658,-756.0,-710.0,236.0
1449618232959896117,-758.0,-712.0,240.0
1449618232977635265,-758.0,-712.0,253.0
1449618232988588388,-760.0,-714.0,226.0
1449618233009636139,-762.0,-714.0,289.0
1449618233022267983,-764.0,-716.0,234.0
1449618233035760802,-766.0,-718.0,238.0
1449618233050766184,-766.0,-718.0,241.0
1449618233067799877,-768.0,-720.0,227.0
1449618233080884790,-770.0,-722.0,249.0
1449618233099315086,-772.0,-722.0,226.0
1449618233111495883,-774.0,-724.0,244.0
1449618233125898005,-776.0,-724.0,239.0
1449618233140418886,-776.0,-726.0,239.0
1449618233161632593,-778.0,-728.0,293.0
1449618233168325625,-780.0,-728.0,233.0
1449618233186476072,-782.0,-730.0,243.0
1449618233201102013,-784.0,-732.0,244.0
1449618233216668372,-786.0,-732.0,244.0
1449618233231670893,-786.0,-734.0,254.0
1449618233247767419,-788.0,-734.0,234.0
1449618233260862429,-790.0,-736.0,250.0
1449618233275403838,-792.0,-738.0,285.0
1449618233295049726,-794.0,-738.0,248.0
1449618233306989460,-794.0,-740.0,257.0
1449618233319666476,-796.0,-742.0,242.0
1449618233338746621,-798.0,-742.0,262.0
1449618233349799963,-800.0,-744.0,253.0
1449618233365787369,-802.0,-746.0,258.0
1449618233377356670,-802.0,-746.0,264.0
1449618233393248450,-804.0,-748.0,253.0
1449618233409895784,-806.0,-748.0,277.0
1449618233422362731,-808.0,-750.0,309.0
1449618233440244119,-810.0,-752.0,274.0
1449618233456688297,-812.0,-752.0,275.0
1449618233469602599,-812.0,-754.0,266.0
1449618233486791221,-814.0,-756.0,289.0
1449618233500419584,-816.0,-756.0,280.0
1449618233512238275,-818.0,-758.0,291.0
1449618233530321231,-820.0,-758.0,287.0
1449618233545529681,-822.0,-760.0,331.0
1449618233561811088,-822.0,-762.0,298.0
1449618233579464496,-824.0,-764.0,279.0
1449618233595281395,-826.0,-764.0,293.0
1449618233606607916,-828.0,-766.0,292.0
1449618233626075571,-830.0,-766.0,290.0
1449618233635027092,-830.0,-768.0,304.0
1449618233652265340,-832.0,-770.0,284.0
1449618233666237857,-834.0,-770.0,294.0
1449618233680445881,-836.0,-772.0,335.0
1449618233696674576,-836.0,-774.0,283.0
1449618233710621814,-838.0,-774.0,299.0
1449618233726393357,-840.0,-776.0,287.0
1449618233741748606,-842.0,-778.0,295.0
1449618233755163595,-842.0,-778.0,297.0
1449618233771200324,-844.0,-780.0,285.0
1449618233787568593,-846.0,-782.0,300.0
1449618233798899988,-848.0,-782.0,290.0
1449618233815262963,-850.0,-784.0,297.0
1449618233843436787,-850.0,-786.0,302.0
1449618233844099978,-852.0,-786.0,279.0
1449618233860378403,-854.0,-788.0,299.0
1449618233876770640,-856.0,-790.0,290.0
1449618233889362064,-858.0,-790.0,299.0
1449618233907227063,-858.0,-792.0,307.0
1449618233926052119,-860.0,-794.0,288.0
1449618233936879932,-862.0,-794.0,297.0
1449618233951011008,-864.0,-796.0,338.0
1449618233966881387,-866.0,-798.0,297.0
1449618233981728919,-866.0,-798.0,307.0
1449618233995843204,-868.0,-800.0,288.0
1449618234012935926,-870.0,-800.0,300.0
1449618234024344065,-872.0,-802.0,297.0
1449618234040654665,-872.0,-804.0,300.0
1449618234053479709,-874.0,-804.0,309.0
1449618234069685888,-876.0,-806.0,293.0
1449618234086521228,-878.0,-808.0,305.0
1449618234098695971,-880.0,-808.0,295.0
1449618234118476074,-882.0,-810.0,298.0
1449618234133839044,-882.0,-812.0,305.0
1449618234143409125,-884.0,-812.0,294.0
1449618234159476842,-886.0,-814.0,305.0
1449618234177116686,-888.0,-816.0,286.0
1449618234190795796,-890.0,-816.0,294.0
1449618234204421699,-890.0,-818.0,305.0
1449618234221034554,-892.0,-818.0,330.0
1449618234233678784,-894.0,-820.0,294.0
1449618234249400042,-896.0,-822.0,281.0
1449618234266481435,-898.0,-822.0,291.0
1449618234294515395,-898.0,-824.0,298.0
1449618234294532859,-900.0,-826.0,275.0
1449618234311722658,-902.0,-826.0,290.0
1449618234326586203,-904.0,-828.0,280.0
1449618234342448313,-906.0,-830.0,290.0
1449618234361618591,-906.0,-830.0,291.0
1449618234369618393,-908.0,-832.0,319.0
1449618234386541716,-910.0,-832.0,292.0
1449618234403942302,-912.0,-834.0,277.0
1449618234422811404,-914.0,-836.0,284.0
1449618234432175527,-914.0,-836.0,285.0
1449618234444346708,-916.0,-838.0,270.0
1449618234460389517,-918.0,-838.0,285.0
1449618234474838990,-920.0,-840.0,270.0
1449618234487377117,-922.0,-842.0,327.0
1449618234506183534,-924.0,-842.0,269.0
1449618234520090111,-926.0,-844.0,267.0
1449618234534856281,-926.0,-846.0,282.0
1449618234550077655,-928.0,-846.0,258.0
1449618234567165499,-930.0,-848.0,283.0
1449618234577293711,-932.0,-850.0,264.0
1449618234593719227,-934.0,-850.0,271.0
1449618234610018270,-936.0,-852.0,264.0
1449618234622277633,-936.0,-854.0,257.0
1449618234639080468,-938.0,-854.0,316.0
1449618234658028574,-940.0,-856.0,254.0
1449618234667491672,-942.0,-856.0,267.0
1449618234685069939,-944.0,-858.0,253.0
1449618234701326560,-946.0,-858.0,254.0
1449618234713164570,-948.0,-860.0,247.0
1449618234731220562,-948.0,-862.0,238.0
1449618234745815456,-950.0,-862.0,252.0
1449618234757936488,-952.0,-864.0,233.0
1449618234774325548,-954.0,-866.0,243.0
1449618234791046910,-956.0,-866.0,236.0
1449618234804470011,-958.0,-868.0,237.0
1449618234819289415,-958.0,-870.0,239.0
1449618234847421837,-960.0,-870.0,223.0
1449618234848374348,-962.0,-872.0,241.0
1449618234865128610,-964.0,-874.0,221.0
1449618234876440689,-966.0,-874.0,232.0
1449618234904785303,-968.0,-876.0,229.0
1449618234911035488,-970.0,-878.0,271.0
1449618234921706218,-970.0,-878.0,236.0
1449618234939139608,-972.0,-880.0,214.0
1449618234955021669,-974.0,-880.0,237.0
1449618234966813818,-976.0,-882.0,218.0
1449618234983164502,-978.0,-882.0,228.0
1449618235014468535,-980.0,-884.0,223.0
1449618235014472811,-980.0,-886.0,211.0
1449618235028452811,-982.0,-886.0,230.0
1449618235049447867,-984.0,-888.0,211.0
1449618235058341007,-986.0,-890.0,227.0
1449618235073115096,-988.0,-890.0,213.0
1449618235089408700,-990.0,-892.0,220.0
1449618235102002184,-990.0,-894.0,213.0
1449618235118224683,-992.0,-894.0,197.0
1449618235135498755,-994.0,-896.0,217.0
1449618235146554495,-996.0,-898.0,197.0
1449618235163071607,-998.0,-898.0,204.0
1449618235180424685,-1000.0,-900.0,212.0
1449618235193647902,-1002.0,-900.0,195.0
1449618235208159734,-1002.0,-902.0,208.0
1449618235220562917,-1004.0,-904.0,184.0
1449618235245704758,-1006.0,-904.0,205.0
1449618235255079593,-1008.0,-906.0,189.0
1449618235265466982,-1010.0,-906.0,200.0
1449618235282069183,-1010.0,-908.0,203.0
1449618235299465127,-1012.0,-910.0,185.0
1449618235311048591,-1014.0,-910.0,205.0
1449618235327733149,-1016.0,-912.0,217.0
1449618235343486293,-1018.0,-914.0,200.0
1449618235356692608,-1018.0,-914.0,207.0
1449618235376491575,-1020.0,-916.0,187.0
1449618235388173120,-1022.0,-916.0,208.0
1449618235402298655,-1024.0,-918.0,196.0
1449618235417631415,-1026.0,-920.0,203.0
1449618235433658605,-1026.0,-920.0,208.0
1449618235445675125,-1028.0,-922.0,192.0
1449618235462397827,-1030.0,-922.0,209.0
1449618235481977739,-1032.0,-924.0,200.0
1449618235490935818,-1034.0,-926.0,209.0
1449618235507530880,-1034.0,-926.0,215.0
1449618235524151047,-1036.0,-928.0,194.0
1449618235548436579,-1038.0,-928.0,209.0
1449618235552845501,-1040.0,-930.0,204.0
1449618235564629084,-1040.0,-932.0,196.0
1449618235582127741,-1042.0,-932.0,217.0
1449618235598110430,-1044.0,-934.0,201.0
1449618235609639746,-1046.0,-934.0,214.0
1449618235626765122,-1046.0,-936.0,208.0
1449618235646255916,-1048.0,-938.0,192.0
1449618235655610318,-1050.0,-938.0,218.0
1449618235678405610,-1052.0,-940.0,200.0
1449618235687567807,-1054.0,-940.0,205.0
1449618235700358603,-1054.0,-942.0,213.0
1449618235716311103,-1056.0,-944.0,191.0
1449618235733396015,-1058.0,-944.0,207.0
1449618235744988828,-1060.0,-946.0,196.0
1449618235761154855,-1060.0,-948.0,195.0
1449618235777621271,-1062.0,-948.0,211.0
1449618235790066972,-1064.0,-950.0,190.0
1449618235807670460,-1066.0,-950.0,205.0
1449618235823349368,-1068.0,-952.0,202.0
1449618235837210960,-1068.0,-954.0,194.0
1449618235855918681,-1070.0,-954.0,216.0
1449618235867747247,-1072.0,-956.0,193.0
1449618235880362535,-1074.0,-958.0,208.0
1449618235897226455,-1074.0,-958.0,214.0
1449618235917515316,-1076.0,-960.0,200.0
1449618235925964842,-1078.0,-962.0,220.0
1449618235941365654,-1080.0,-962.0,207.0
1449618235958662347,-1082.0,-964.0,215.0
1449618235972047625,-1082.0,-964.0,220.0
1449618235987072217,-1084.0,-966.0,202.0
1449618235999547261,-1086.0,-968.0,224.0
1449618236016552261,-1088.0,-968.0,208.0
1449618236032172288,-1088.0,-970.0,208.0
1449618236048110946,-1090.0,-972.0,226.0
1449618236064792398,-1092.0,-972.0,206.0
1449618236082378747,-1094.0,-974.0,223.0
1449618236092945958,-1096.0,-976.0,212.0
1449618236109175141,-1096.0,-976.0,206.0
1449618236122759335,-1098.0,-978.0,227.0
1449618236140543787,-1100.0,-980.0,213.0
1449618236155062089,-1102.0,-980.0,217.0
1449618236169895476,-1102.0,-982.0,226.0
1449618236183462077,-1104.0,-984.0,208.0
1449618236205998392,-1106.0,-984.0,222.0
1449618236214668420,-1106.0,-986.0,221.0
1449618236228284743,-1108.0,-988.0,205.0
1449618236245826729,-1110.0,-988.0,230.0
1449618236259654862,-1112.0,-990.0,214.0
1449618236276131326,-1112.0,-992.0,206.0
1449618236295010800,-1114.0,-992.0,225.0
1449618236301939002,-1116.0,-994.0,213.0
1449618236318270235,-1118.0,-996.0,218.0
1449618236334586955,-1118.0,-996.0,226.0
1449618236347479583,-1120.0,-998.0,206.0
1449618236364462933,-1122.0,-1000.0,220.0
1449618236376099901,-1122.0,-1000.0,223.0
1449618236392146213,-1124.0,-1002.0,249.0
1449618236408513876,-1126.0,-1004.0,222.0
1449618236422099821,-1126.0,-1004.0,217.0
1449618236438351361,-1128.0,-1006.0,209.0
1449618236453409913,-1130.0,-1008.0,223.0
1449618236466964165,-1132.0,-1008.0,216.0
1449618236482403766,-1132.0,-1010.0,210.0
1449618236499525840,-1134.0,-1012.0,230.0
1449618236511033651,-1136.0,-1012.0,222.0
1449618236533675128,-1138.0,-1014.0,217.0
1449618236545739102,-1138.0,-1016.0,230.0
1449618236556332887,-1140.0,-1016.0,214.0
1449618236574436634,-1142.0,-1018.0,224.0
1449618236588904523,-1142.0,-1020.0,230.0
1449618236601924886,-1144.0,-1020.0,209.0
1449618236617815674,-1146.0,-1022.0,224.0
1449618236635411921,-1146.0,-1024.0,232.0
1449618236646430794,-1148.0,-1024.0,208.0
1449618236666067805,-1150.0,-1026.0,228.0
1449618236679957272,-1152.0,-1028.0,219.0
1449618236691875516,-1152.0,-1030.0,212.0
1449618236707566067,-1154.0,-1030.0,229.0
1449618236725630055,-1156.0,-1032.0,217.0
1449618236737608603,-1156.0,-1034.0,216.0
1449618236752512714,-1158.0,-1034.0,236.0
1449618236767697425,-1160.0,-1036.0,224.0
1449618236781814734,-1162.0,-1038.0,230.0
1449618236799892534,-1162.0,-1038.0,238.0
1449618236820608833,-1164.0,-1040.0,228.0
1449618236827538388,-1166.0,-1042.0,234.0
1449618236843487705,-1166.0,-1044.0,238.0
1449618236855597572,-1168.0,-1044.0,227.0
1449618236876980750,-1170.0,-1046.0,243.0
1449618236888002389,-1172.0,-1048.0,237.0
1449618236902535639,-1172.0,-1050.0,232.0
1449618236920296368,-1174.0,-1050.0,249.0
1449618236932891696,-1176.0,-1052.0,236.0
1449618236945839384,-1176.0,-1054.0,233.0
1449618236961318454,-1178.0,-1054.0,251.0
1449618236982177152,-1180.0,-1056.0,235.0
1449618236990027528,-1182.0,-1058.0,242.0
1449618237009293352,-1182.0,-1060.0,246.0
1449618237023878795,-1184.0,-1060.0,226.0
1449618237035043694,-1186.0,-1062.0,236.0
1449618237057662552,-1186.0,-1064.0,239.0
1449618237067918835,-1188.0,-1066.0,219.0
1449618237082486671,-1190.0,-1066.0,235.0
1449618237097734558,-1192.0,-1068.0,226.0
1449618237113535647,-1192.0,-1070.0,217.0
1449618237125687320,-1194.0,-1072.0,235.0
1449618237142209019,-1196.0,-1072.0,224.0
1449618237155267435,-1198.0,-1074.0,225.0
1449618237172798764,-1198.0,-1076.0,230.0
1449618237186660304,-1200.0,-1078.0,217.0
1449618237199089868,-1202.0,-1078.0,219.0
1449618237220032069,-1202.0,-1080.0,227.0
1449618237233150496,-1204.0,-1082.0,209.0
1449618237246357566,-1206.0,-1084.0,219.0
1449618237260561739,-1208.0,-1084.0,221.0
1449618237276993314,-1208.0,-1086.0,207.0
1449618237290570962,-1210.0,-1088.0,228.0
1449618237305881032,-1212.0,-1090.0,214.0
1449618237326262487,-1212.0,-1090.0,215.0
1449618237334371917,-1214.0,-1092.0,227.0
1449618237351091437,-1216.0,-1094.0,226.0
1449618237367133488,-1218.0,-1094.0,226.0
1449618237380976399,-1218.0,-1096.0,232.0
1449618237396260356,-1220.0,-1098.0,213.0
1449618237412245657,-1222.0,-1100.0,230.0
1449618237426550729,-1222.0,-1100.0,233.0
1449618237443583670,-1224.0,-1102.0,222.0
1449618237457409595,-1226.0,-1104.0,234.0
1449618237470121845,-1228.0,-1106.0,232.0
1449618237487957031,-1228.0,-1106.0,225.0
1449618237499955939,-1230.0,-1108.0,250.0
1449618237515963250,-1232.0,-1110.0,239.0
1449618237532237876,-1232.0,-1112.0,238.0
1449618237543465170,-1234.0,-1112.0,254.0
1449618237565838031,-1236.0,-1114.0,245.0
1449618237576316273,-1238.0,-1116.0,254.0
1449618237588220486,-1238.0,-1116.0,262.0
1449618237605965181,-1240.0,-1118.0,248.0
1449618237620889057,-1242.0,-1120.0,256.0
1449618237633109401,-1242.0,-1122.0,261.0
1449618237649953348,-1244.0,-1122.0,245.0
1449618237667418178,-1246.0,-1124.0,254.0
1449618237679356856,-1246.0,-1126.0,261.0
1449618237695128983,-1248.0,-1128.0,251.0
1449618237711164793,-1250.0,-1128.0,266.0
1449618237724837886,-1252.0,-1130.0,256.0
1449618237740773888,-1252.0,-1132.0,254.0
1449618237756833496,-1254.0,-1132.0,269.0
1449618237769378352,-1256.0,-1134.0,261.0
1449618237785576008,-1258.0,-1136.0,259.0
1449618237801473809,-1258.0,-1138.0,273.0
1449618237813557729,-1260.0,-1138.0,260.0
1449618237830127405,-1262.0,-1140.0,262.0
1449618237847628029,-1262.0,-1142.0,263.0
1449618237860991795,-1264.0,-1142.0,246.0
