%time,field.header.seq,field.header.stamp,field.header.frame_id,field.ns,field.id,field.type,field.action,field.pose.position.x,field.pose.position.y,field.pose.position.z,field.pose.orientation.x,field.pose.orientation.y,field.pose.orientation.z,field.pose.orientation.w,field.scale.x,field.scale.y,field.scale.z,field.color.r,field.color.g,field.color.b,field.color.a,field.lifetime,field.frame_locked,field.text,field.mesh_resource,field.mesh_use_embedded_materials
1449618218562130583,0,1449618218561723023,/odom,doorways,20,0,0,0.0,0.0,0.0,0.0,0.0,0.0,1.0,0.25,0.15,0.0,0.0,0.0,1.0,1.0,2000000000,0,,,0
1449618218632987916,1,1449618218632764563,/odom,doorways,20,0,0,0.0,0.0,0.0,0.0,0.0,0.0,1.0,0.25,0.15,0.0,0.0,0.0,1.0,1.0,2000000000,0,,,0
1449618218805625081,2,1449618218805341497,/odom,doorways,20,0,0,0.0,0.0,0.0,0.0,0.0,0.0,1.0,0.25,0.15,0.0,0.0,0.0,1.0,1.0,2000000000,0,,,0
1449618218945120574,3,1449618218944806193,/odom,doorways,20,0,0,0.0,0.0,0.0,0.0,0.0,0.0,1.0,0.25,0.15,0.0,0.0,0.0,1.0,1.0,2000000000,0,,,0
1449618219244124257,4,1449618219242301736,/odom,doorways,20,0,0,0.0,0.0,0.0,0.0,0.0,0.0,1.0,0.25,0.15,0.0,0.0,0.0,1.0,1.0,2000000000,0,,,0
1449618219892499725,5,1449618219891148377,/odom,doorways,20,0,0,0.0,0.0,0.0,0.0,0.0,0.0,1.0,0.25,0.15,0.0,0.0,0.0,1.0,1.0,2000000000,0,,,0
1449618220764970552,6,1449618220764358969,/odom,doorways,20,0,0,0.0,0.0,0.0,0.0,0.0,0.0,1.0,0.25,0.15,0.0,0.0,0.0,1.0,1.0,2000000000,0,,,0
1449618221160448328,7,1449618221160307682,/odom,doorways,20,0,0,0.0,0.0,0.0,0.0,0.0,0.0,1.0,0.25,0.15,0.0,0.0,0.0,1.0,1.0,2000000000,0,,,0
1449618221273935859,8,1449618221273238066,/odom,doorways,20,0,0,0.0,0.0,0.0,0.0,0.0,0.0,1.0,0.25,0.15,0.0,0.0,0.0,1.0,1.0,2000000000,0,,,0
1449618227690982504,9,1449618227687608557,/odom,doorways,20,0,0,0.589266660889,0.116570914606,0.0,0.0,0.0,0.163073201911,0.986613972544,0.25,0.15,0.0,0.0,0.0,1.0,1.0,2000000000,0,,,0
1449618227691001528,10,1449618227687636096,/odom,doorways,20,0,0,0.589266660889,0.116570914606,0.0,0.0,0.0,0.163073201911,0.986613972544,0.25,0.15,0.0,0.0,0.0,1.0,1.0,2000000000,0,,,0
1449618228111264158,11,1449618228109059315,/odom,doorways,20,0,0,0.655218242485,0.137217418283,0.0,0.0,0.0,0.142185161666,0.989840077892,0.25,0.15,0.0,0.0,0.0,1.0,1.0,2000000000,0,,,0
1449618228111274485,12,1449618228109205369,/odom,doorways,20,0,0,0.655218242485,0.137217418283,0.0,0.0,0.0,0.142185161666,0.989840077892,0.25,0.15,0.0,0.0,0.0,1.0,1.0,2000000000,0,,,0
1449618228275052781,13,1449618228274508633,/odom,doorways,20,0,0,0.744588262605,0.15962907398,0.0,0.0,0.0,0.110736931374,0.993849753247,0.25,0.15,0.0,0.0,0.0,1.0,1.0,2000000000,0,,,0
1449618228658636225,14,1449618228658498351,/odom,doorways,20,0,0,0.820930336188,0.174328972435,0.0,0.0,0.0,0.0844437083633,0.996428251365,0.25,0.15,0.0,0.0,0.0,1.0,1.0,2000000000,0,,,0
1449618228791388402,15,1449618228791056545,/odom,doorways,20,0,0,0.875012300081,0.182604816549,0.0,0.0,0.0,0.0686383068554,0.997641610415,0.25,0.15,0.0,0.0,0.0,1.0,1.0,2000000000,0,,,0
1449618228791391664,16,1449618228791186266,/odom,doorways,20,0,0,0.875012300081,0.182604816549,0.0,0.0,0.0,0.0686383068554,0.997641610415,0.25,0.15,0.0,0.0,0.0,1.0,1.0,2000000000,0,,,0
1449618229018094479,17,1449618229014011682,/odom,doorways,20,0,0,0.940767477641,0.190528486021,0.0,0.0,0.0,0.0528156577107,0.998604279132,0.25,0.15,0.0,0.0,0.0,1.0,1.0,2000000000,0,,,0
1449618229216950871,18,1449618229216405362,/odom,doorways,20,0,0,0.989542040266,0.194723039311,0.0,0.0,0.0,0.0369797368913,0.999316015612,0.25,0.15,0.0,0.0,0.0,1.0,1.0,2000000000,0,,,0
1449618229216954770,19,1449618229216491772,/odom,doorways,20,0,0,0.989542040266,0.194723039311,0.0,0.0,0.0,0.0369797368913,0.999316015612,0.25,0.15,0.0,0.0,0.0,1.0,1.0,2000000000,0,,,0
1449618229378825238,20,1449618229378459011,/odom,doorways,20,0,0,0.989542040266,0.194723039311,0.0,0.0,0.0,0.0369797368913,0.999316015612,0.25,0.15,0.0,0.0,0.0,1.0,1.0,2000000000,0,,,0
1449618240880225757,21,1449618240879152716,/odom,doorways,20,0,0,3.72783922284,1.27685686727,0.0,0.0,0.0,0.366426735412,0.930446907446,0.25,0.15,0.0,0.0,0.0,1.0,1.0,2000000000,0,,,0
1449618240880229510,22,1449618240879357612,/odom,doorways,20,0,0,3.72783922284,1.27685686727,0.0,0.0,0.0,0.366426735412,0.930446907446,0.25,0.15,0.0,0.0,0.0,1.0,1.0,2000000000,0,,,0
1449618240966546809,23,1449618240965941465,/odom,doorways,20,0,0,3.74475282086,1.29249917212,0.0,0.0,0.0,0.366426735412,0.930446907446,0.25,0.15,0.0,0.0,0.0,1.0,1.0,2000000000,0,,,0
1449618241049686671,24,1449618241048343413,/odom,doorways,20,0,0,3.75739159237,1.30428123424,0.0,0.0,0.0,0.366426735412,0.930446907446,0.25,0.15,0.0,0.0,0.0,1.0,1.0,2000000000,0,,,0
1449618241155447675,25,1449618241154671764,/odom,doorways,20,0,0,3.75739159237,1.30428123424,0.0,0.0,0.0,0.366426735412,0.930446907446,0.25,0.15,0.0,0.0,0.0,1.0,1.0,2000000000,0,,,0
1449618241260078491,26,1449618241259945535,/odom,doorways,20,0,0,3.78867547903,1.33406865637,0.0,0.0,0.0,0.371338101168,0.928497719233,0.25,0.15,0.0,0.0,0.0,1.0,1.0,2000000000,0,,,0
1449618241260364973,27,1449618241260030882,/odom,doorways,20,0,0,3.78867547903,1.33406865637,0.0,0.0,0.0,0.371338101168,0.928497719233,0.25,0.15,0.0,0.0,0.0,1.0,1.0,2000000000,0,,,0
1449618241468839845,28,1449618241467334552,/odom,doorways,20,0,0,3.82398283378,1.36798124018,0.0,0.0,0.0,0.376239098848,0.926522606577,0.25,0.15,0.0,0.0,0.0,1.0,1.0,2000000000,0,,,0
1449618241573207022,29,1449618241572817043,/odom,doorways,20,0,0,3.84654289349,1.39021850826,0.0,0.0,0.0,0.381129591614,0.924521624623,0.25,0.15,0.0,0.0,0.0,1.0,1.0,2000000000,0,,,0
1449618241573211592,30,1449618241572827042,/odom,doorways,20,0,0,3.84654289349,1.39021850826,0.0,0.0,0.0,0.381129591614,0.924521624623,0.25,0.15,0.0,0.0,0.0,1.0,1.0,2000000000,0,,,0
1449618241666494423,31,1449618241666062988,/odom,doorways,20,0,0,3.8628881501,1.40645420901,0.0,0.0,0.0,0.381129591614,0.924521624623,0.25,0.15,0.0,0.0,0.0,1.0,1.0,2000000000,0,,,0
1449618241788540979,32,1449618241787733207,/odom,doorways,20,0,0,3.87708244387,1.42076783943,0.0,0.0,0.0,0.386009442918,0.922494829242,0.25,0.15,0.0,0.0,0.0,1.0,1.0,2000000000,0,,,0
1449618241865319330,33,1449618241863202692,/odom,doorways,20,0,0,3.89729840311,1.44127724989,0.0,0.0,0.0,0.386009442918,0.922494829242,0.25,0.15,0.0,0.0,0.0,1.0,1.0,2000000000,0,,,0
1449618241960549896,34,1449618241960109384,/odom,doorways,20,0,0,3.91129706606,1.45578258301,0.0,0.0,0.0,0.390878516512,0.920442277022,0.25,0.15,0.0,0.0,0.0,1.0,1.0,2000000000,0,,,0
1449618241960568571,35,1449618241960126352,/odom,doorways,20,0,0,3.91129706606,1.45578258301,0.0,0.0,0.0,0.390878516512,0.920442277022,0.25,0.15,0.0,0.0,0.0,1.0,1.0,2000000000,0,,,0
1449618242124714121,36,1449618242121499085,/odom,doorways,20,0,0,3.94114012905,1.4870125655,0.0,0.0,0.0,0.395736676445,0.918364025273,0.25,0.15,0.0,0.0,0.0,1.0,1.0,2000000000,0,,,0
1449618242259137201,37,1449618242256763139,/odom,doorways,20,0,0,3.96836092795,1.51675229879,0.0,0.0,0.0,0.405419713065,0.91413065601,0.25,0.15,0.0,0.0,0.0,1.0,1.0,2000000000,0,,,0
1449618242357614787,38,1449618242353245904,/odom,doorways,20,0,0,3.98946656772,1.54037441462,0.0,0.0,0.0,0.410244319394,0.911975656696,0.25,0.15,0.0,0.0,0.0,1.0,1.0,2000000000,0,,,0
1449618242364170426,39,1449618242353258128,/odom,doorways,20,0,0,3.98946656772,1.54037441462,0.0,0.0,0.0,0.410244319394,0.911975656696,0.25,0.15,0.0,0.0,0.0,1.0,1.0,2000000000,0,,,0
1449618242477545030,40,1449618242477053255,/odom,doorways,20,0,0,4.00272534138,1.55555871283,0.0,0.0,0.0,0.415057471353,0.909795194247,0.25,0.15,0.0,0.0,0.0,1.0,1.0,2000000000,0,,,0
1449618242678361667,41,1449618242674878431,/odom,doorways,20,0,0,4.03255646206,1.59067390745,0.0,0.0,0.0,0.424648874937,0.905358124178,0.25,0.15,0.0,0.0,0.0,1.0,1.0,2000000000,0,,,0
1449618242678393776,42,1449618242674940359,/odom,doorways,20,0,0,4.03255646206,1.59067390745,0.0,0.0,0.0,0.424648874937,0.905358124178,0.25,0.15,0.0,0.0,0.0,1.0,1.0,2000000000,0,,,0
1449618242824713053,43,1449618242824542331,/odom,doorways,20,0,0,4.05802691479,1.62192507079,0.0,0.0,0.0,0.434192852625,0.900819941348,0.25,0.15,0.0,0.0,0.0,1.0,1.0,2000000000,0,,,0
1449618242984035902,44,1449618242982923550,/odom,doorways,20,0,0,4.08287901373,1.65366989443,0.0,0.0,0.0,0.44368833852,0.896181152592,0.25,0.15,0.0,0.0,0.0,1.0,1.0,2000000000,0,,,0
1449618242984082335,45,1449618242983129338,/odom,doorways,20,0,0,4.08287901373,1.65366989443,0.0,0.0,0.0,0.44368833852,0.896181152592,0.25,0.15,0.0,0.0,0.0,1.0,1.0,2000000000,0,,,0
1449618243071181392,46,1449618243070095532,/odom,doorways,20,0,0,4.08287901373,1.65366989443,0.0,0.0,0.0,0.44368833852,0.896181152592,0.25,0.15,0.0,0.0,0.0,1.0,1.0,2000000000,0,,,0
1449618243197108140,47,1449618243196241320,/odom,doorways,20,0,0,4.11049798064,1.69054982393,0.0,0.0,0.0,0.453134272142,0.891442275983,0.25,0.15,0.0,0.0,0.0,1.0,1.0,2000000000,0,,,0
1449618243374084675,48,1449618243373207953,/odom,doorways,20,0,0,4.13393699183,1.72335213981,0.0,0.0,0.0,0.462529598545,0.886603840771,0.25,0.15,0.0,0.0,0.0,1.0,1.0,2000000000,0,,,0
1449618243374093268,49,1449618243373298181,/odom,doorways,20,0,0,4.13393699183,1.72335213981,0.0,0.0,0.0,0.462529598545,0.886603840771,0.25,0.15,0.0,0.0,0.0,1.0,1.0,2000000000,0,,,0
1449618243572849075,50,1449618243570515308,/odom,doorways,20,0,0,4.16167102638,1.76369442125,0.0,0.0,0.0,0.46720795591,0.884147457122,0.25,0.15,0.0,0.0,0.0,1.0,1.0,2000000000,0,,,0
1449618243701698245,51,1449618243701327361,/odom,doorways,20,0,0,4.1773902937,1.78782377186,0.0,0.0,0.0,0.476525405853,0.879160700655,0.25,0.15,0.0,0.0,0.0,1.0,1.0,2000000000,0,,,0
1449618243701702374,52,1449618243701337939,/odom,doorways,20,0,0,4.1773902937,1.78782377186,0.0,0.0,0.0,0.476525405853,0.879160700655,0.25,0.15,0.0,0.0,0.0,1.0,1.0,2000000000,0,,,0
1449618243881891910,53,1449618243878601909,/odom,doorways,20,0,0,4.1773902937,1.78782377186,0.0,0.0,0.0,0.476525405853,0.879160700655,0.25,0.15,0.0,0.0,0.0,1.0,1.0,2000000000,0,,,0
1449618243985427129,54,1449618243976140071,/odom,doorways,20,0,0,4.21426990863,1.84627443197,0.0,0.0,0.0,0.485789636194,0.874075757224,0.25,0.15,0.0,0.0,0.0,1.0,1.0,2000000000,0,,,0
1449618244080497082,55,1449618244080290090,/odom,doorways,20,0,0,4.2290337268,1.87099954366,0.0,0.0,0.0,0.494999612279,0.868893194727,0.25,0.15,0.0,0.0,0.0,1.0,1.0,2000000000,0,,,0
1449618244080512347,56,1449618244080398468,/odom,doorways,20,0,0,4.2290337268,1.87099954366,0.0,0.0,0.0,0.494999612279,0.868893194727,0.25,0.15,0.0,0.0,0.0,1.0,1.0,2000000000,0,,,0
1449618244198738098,57,1449618244198326455,/odom,doorways,20,0,0,4.24217191954,1.89334056354,0.0,0.0,0.0,0.4995839333,0.866265486782,0.25,0.15,0.0,0.0,0.0,1.0,1.0,2000000000,0,,,0
1449618244198741826,58,1449618244198339187,/odom,doorways,20,0,0,4.24217191954,1.89334056354,0.0,0.0,0.0,0.4995839333,0.866265486782,0.25,0.15,0.0,0.0,0.0,1.0,1.0,2000000000,0,,,0
1449618244272652866,59,1449618244269508096,/odom,doorways,20,0,0,4.25357814632,1.9133567942,0.0,0.0,0.0,0.4995839333,0.866265486782,0.25,0.15,0.0,0.0,0.0,1.0,1.0,2000000000,0,,,0
1449618244272662933,60,1449618244269637167,/odom,doorways,20,0,0,4.25357814632,1.9133567942,0.0,0.0,0.0,0.4995839333,0.866265486782,0.25,0.15,0.0,0.0,0.0,1.0,1.0,2000000000,0,,,0
1449618244379419701,61,1449618244379004893,/odom,doorways,20,0,0,4.2635949248,1.93085022977,0.0,0.0,0.0,0.504154305513,0.863613591968,0.25,0.15,0.0,0.0,0.0,1.0,1.0,2000000000,0,,,0
1449618244379424099,62,1449618244379012162,/odom,doorways,20,0,0,4.2635949248,1.93085022977,0.0,0.0,0.0,0.504154305513,0.863613591968,0.25,0.15,0.0,0.0,0.0,1.0,1.0,2000000000,0,,,0
1449618245421365807,63,1449618245418973117,/odom,doorways,20,0,0,4.36884685841,2.14841106329,0.0,0.0,0.0,0.566604161624,0.823990123746,0.25,0.15,0.0,0.0,0.0,1.0,1.0,2000000000,0,,,0
1449618245421385615,64,1449618245418980839,/odom,doorways,20,0,0,4.36884685841,2.14841106329,0.0,0.0,0.0,0.566604161624,0.823990123746,0.25,0.15,0.0,0.0,0.0,1.0,1.0,2000000000,0,,,0
1449618245531836913,65,1449618245530985912,/odom,doorways,20,0,0,4.37961410575,2.17820144604,0.0,0.0,0.0,0.579594377205,0.814905122031,0.25,0.15,0.0,0.0,0.0,1.0,1.0,2000000000,0,,,0
1449618245531840346,66,1449618245531076494,/odom,doorways,20,0,0,4.37961410575,2.17820144604,0.0,0.0,0.0,0.579594377205,0.814905122031,0.25,0.15,0.0,0.0,0.0,1.0,1.0,2000000000,0,,,0
1449618245604422051,67,1449618245603962870,/odom,doorways,20,0,0,4.38751226178,2.20288549749,0.0,0.0,0.0,0.592438950598,0.805615348547,0.25,0.15,0.0,0.0,0.0,1.0,1.0,2000000000,0,,,0
1449618245604424704,68,1449618245603967196,/odom,doorways,20,0,0,4.38751226178,2.20288549749,0.0,0.0,0.0,0.592438950598,0.805615348547,0.25,0.15,0.0,0.0,0.0,1.0,1.0,2000000000,0,,,0
1449618245722370216,69,1449618245722207601,/odom,doorways,20,0,0,4.3940580729,2.22497404329,0.0,0.0,0.0,0.600919491781,0.799309554802,0.25,0.15,0.0,0.0,0.0,1.0,1.0,2000000000,0,,,0
1449618245722728560,70,1449618245722215700,/odom,doorways,20,0,0,4.3940580729,2.22497404329,0.0,0.0,0.0,0.600919491781,0.799309554802,0.25,0.15,0.0,0.0,0.0,1.0,1.0,2000000000,0,,,0
1449618245809096603,71,1449618245808476132,/odom,doorways,20,0,0,4.3940580729,2.22497404329,0.0,0.0,0.0,0.600919491781,0.799309554802,0.25,0.15,0.0,0.0,0.0,1.0,1.0,2000000000,0,,,0
1449618245809105763,72,1449618245808491397,/odom,doorways,20,0,0,4.3940580729,2.22497404329,0.0,0.0,0.0,0.600919491781,0.799309554802,0.25,0.15,0.0,0.0,0.0,1.0,1.0,2000000000,0,,,0
1449618259124506183,73,1449618259105864296,/odom,doorways,20,0,0,4.07961143934,4.11868996321,0.0,0.0,0.0,0.854766469886,0.519012795563,0.25,0.15,0.0,0.0,0.0,1.0,1.0,2000000000,0,,,0
1449618259124523617,74,1449618259105975373,/odom,doorways,20,0,0,4.07961143934,4.11868996321,0.0,0.0,0.0,0.854766469886,0.519012795563,0.25,0.15,0.0,0.0,0.0,1.0,1.0,2000000000,0,,,0
1449618271335365244,75,1449618271329949604,/odom,doorways,20,0,0,2.30064840008,6.42391932236,0.0,0.0,0.0,0.906983329505,0.421166522886,0.25,0.15,0.0,0.0,0.0,1.0,1.0,2000000000,0,,,0
1449618271632973079,76,1449618271632164018,/odom,doorways,20,0,0,2.30064840008,6.42391932236,0.0,0.0,0.0,0.906983329505,0.421166522886,0.25,0.15,0.0,0.0,0.0,1.0,1.0,2000000000,0,,,0
1449618272150013031,77,1449618272148707571,/odom,doorways,20,0,0,2.30803429433,6.41507985352,0.0,0.0,0.0,0.906983329505,0.421166522886,0.25,0.15,0.0,0.0,0.0,1.0,1.0,2000000000,0,,,0
1449618280271746739,78,1449618280267487861,/odom,doorways,20,0,0,4.00585683554,4.84585914537,0.0,0.0,0.0,0.995837828637,0.0911428497231,0.25,0.15,0.0,0.0,0.0,1.0,1.0,2000000000,0,,,0
1449618280271750401,80,1449618280267551250,/odom,doorways,20,0,0,4.00585683554,4.84585914537,0.0,0.0,0.0,0.995837828637,0.0911428497231,0.25,0.15,0.0,0.0,0.0,1.0,1.0,2000000000,0,,,0
1449618280801821307,81,1449618280795802378,/odom,doorways,20,0,0,4.0372223483,4.84152265191,0.0,0.0,0.0,0.999044726169,0.043699372,0.25,0.15,0.0,0.0,0.0,1.0,1.0,2000000000,0,,,0
1449618280801826107,82,1449618280795811489,/odom,doorways,20,0,0,4.0372223483,4.84152265191,0.0,0.0,0.0,0.999044726169,0.043699372,0.25,0.15,0.0,0.0,0.0,1.0,1.0,2000000000,0,,,0
1449618280801830519,83,1449618280795852148,/odom,doorways,20,0,0,4.0372223483,4.84152265191,0.0,0.0,0.0,0.999044726169,0.043699372,0.25,0.15,0.0,0.0,0.0,1.0,1.0,2000000000,0,,,0
1449618281113041155,84,1449618281111140917,/odom,doorways,20,0,0,4.04009549544,4.8413319101,0.0,0.0,0.0,0.999850476852,0.0172923086519,0.25,0.15,0.0,0.0,0.0,1.0,1.0,2000000000,0,,,0
1449618281113046147,86,1449618281111193793,/odom,doorways,20,0,0,4.04009549544,4.8413319101,0.0,0.0,0.0,0.999850476852,0.0172923086519,0.25,0.15,0.0,0.0,0.0,1.0,1.0,2000000000,0,,,0
1449618281443998534,87,1449618281439044322,/odom,doorways,20,0,0,4.03721653278,4.84140107117,0.0,0.0,0.0,0.99992789107,0.0120088575724,0.25,0.15,0.0,0.0,0.0,1.0,1.0,2000000000,0,,,0
1449618281444007259,88,1449618281439164016,/odom,doorways,20,0,0,4.03721653278,4.84140107117,0.0,0.0,0.0,0.99992789107,0.0120088575724,0.25,0.15,0.0,0.0,0.0,1.0,1.0,2000000000,0,,,0
1449618281444014554,89,1449618281439298015,/odom,doorways,20,0,0,4.03721653278,4.84140107117,0.0,0.0,0.0,0.99992789107,0.0120088575724,0.25,0.15,0.0,0.0,0.0,1.0,1.0,2000000000,0,,,0
1449618281768276470,90,1449618281767847124,/odom,doorways,20,0,0,4.02282147089,4.84171644046,0.0,0.0,0.0,0.999977386453,0.00672507119539,0.25,0.15,0.0,0.0,0.0,1.0,1.0,2000000000,0,,,0
1449618281773813214,91,1449618281767855887,/odom,doorways,20,0,0,4.02282147089,4.84171644046,0.0,0.0,0.0,0.999977386453,0.00672507119539,0.25,0.15,0.0,0.0,0.0,1.0,1.0,2000000000,0,,,0
1449618281774181814,92,1449618281773830726,/odom,doorways,20,0,0,4.02282147089,4.84171644046,0.0,0.0,0.0,0.999977386453,0.00672507119539,0.25,0.15,0.0,0.0,0.0,1.0,1.0,2000000000,0,,,0
1449618282013415580,93,1449618282012957317,/odom,doorways,20,0,0,4.02282147089,4.84171644046,0.0,0.0,0.0,0.999977386453,0.00672507119539,0.25,0.15,0.0,0.0,0.0,1.0,1.0,2000000000,0,,,0
1449618282013424076,94,1449618282012964783,/odom,doorways,20,0,0,4.02282147089,4.84171644046,0.0,0.0,0.0,0.999977386453,0.00672507119539,0.25,0.15,0.0,0.0,0.0,1.0,1.0,2000000000,0,,,0
1449618282505456644,95,1449618282504355904,/odom,doorways,20,0,0,3.93123897091,4.83290941839,0.0,0.0,0.0,-0.996096383514,0.088272276228,0.25,0.15,0.0,0.0,0.0,1.0,1.0,2000000000,0,,,0
1449618282505470143,96,1449618282504455993,/odom,doorways,20,0,0,3.93123897091,4.83290941839,0.0,0.0,0.0,-0.996096383514,0.088272276228,0.25,0.15,0.0,0.0,0.0,1.0,1.0,2000000000,0,,,0
1449618287401257675,97,1449618287399488443,/odom,doorways,20,0,0,3.51253244283,4.45954410589,0.0,0.0,0.0,-0.812671771464,0.58272171048,0.25,0.15,0.0,0.0,0.0,1.0,1.0,2000000000,0,,,0
1449618287401267889,98,1449618287399572727,/odom,doorways,20,0,0,3.51253244283,4.45954410589,0.0,0.0,0.0,-0.812671771464,0.58272171048,0.25,0.15,0.0,0.0,0.0,1.0,1.0,2000000000,0,,,0
1449618287752985343,99,1449618287730100681,/odom,doorways,20,0,0,3.48185473832,4.35751918267,0.0,0.0,0.0,-0.796994368742,0.603986735114,0.25,0.15,0.0,0.0,0.0,1.0,1.0,2000000000,0,,,0
1449618287752988683,100,1449618287730118136,/odom,doorways,20,0,0,3.48185473832,4.35751918267,0.0,0.0,0.0,-0.796994368742,0.603986735114,0.25,0.15,0.0,0.0,0.0,1.0,1.0,2000000000,0,,,0
1449618287993930469,101,1449618287993538604,/odom,doorways,20,0,0,3.46078885835,4.2737375542,0.0,0.0,0.0,-0.78405138092,0.620695925617,0.25,0.15,0.0,0.0,0.0,1.0,1.0,2000000000,0,,,0
1449618288188144499,102,1449618288187320462,/odom,doorways,20,0,0,3.44855178558,4.21745742034,0.0,0.0,0.0,-0.777448175806,0.628947004076,0.25,0.15,0.0,0.0,0.0,1.0,1.0,2000000000,0,,,0
1449618288188147938,103,1449618288187328738,/odom,doorways,20,0,0,3.44855178558,4.21745742034,0.0,0.0,0.0,-0.777448175806,0.628947004076,0.25,0.15,0.0,0.0,0.0,1.0,1.0,2000000000,0,,,0
1449618288405737526,104,1449618288404411170,/odom,doorways,20,0,0,3.43533972608,4.14961775794,0.0,0.0,0.0,-0.770758143248,0.63712784009,0.25,0.15,0.0,0.0,0.0,1.0,1.0,2000000000,0,,,0
1449618288611513683,105,1449618288610714348,/odom,doorways,20,0,0,3.42636582224,4.09856489561,0.0,0.0,0.0,-0.763982030406,0.645237520001,0.25,0.15,0.0,0.0,0.0,1.0,1.0,2000000000,0,,,0
1449618288611517716,106,1449618288610722937,/odom,doorways,20,0,0,3.42636582224,4.09856489561,0.0,0.0,0.0,-0.763982030406,0.645237520001,0.25,0.15,0.0,0.0,0.0,1.0,1.0,2000000000,0,,,0
1449618288866206432,107,1449618288859947992,/odom,doorways,20,0,0,3.413020467,4.01030001988,0.0,0.0,0.0,-0.753658118662,0.657266643133,0.25,0.15,0.0,0.0,0.0,1.0,1.0,2000000000,0,,,0
1449618289110215860,108,1449618289108946855,/odom,doorways,20,0,0,3.40419515907,3.93885123499,0.0,0.0,0.0,-0.743144825477,0.669130606359,0.25,0.15,0.0,0.0,0.0,1.0,1.0,2000000000,0,,,0
1449618289110233450,109,1449618289108954497,/odom,doorways,20,0,0,3.40419515907,3.93885123499,0.0,0.0,0.0,-0.743144825477,0.669130606359,0.25,0.15,0.0,0.0,0.0,1.0,1.0,2000000000,0,,,0
1449618289381628295,110,1449618289379715727,/odom,doorways,20,0,0,3.39710198641,3.85564375375,0.0,0.0,0.0,-0.732444792664,0.680826428468,0.25,0.15,0.0,0.0,0.0,1.0,1.0,2000000000,0,,,0
1449618289582727890,111,1449618289575745235,/odom,doorways,20,0,0,3.3945633704,3.8067547422,0.0,0.0,0.0,-0.721560708957,0.692351170498,0.25,0.15,0.0,0.0,0.0,1.0,1.0,2000000000,0,,,0
1449618289582732919,112,1449618289575760509,/odom,doorways,20,0,0,3.3945633704,3.8067547422,0.0,0.0,0.0,-0.721560708957,0.692351170498,0.25,0.15,0.0,0.0,0.0,1.0,1.0,2000000000,0,,,0
1449618289775865081,113,1449618289753868999,/odom,doorways,20,0,0,3.39276261107,3.74918943983,0.0,0.0,0.0,-0.714203751383,0.699937855464,0.25,0.15,0.0,0.0,0.0,1.0,1.0,2000000000,0,,,0
1449618289848375051,114,1449618289846376079,/odom,doorways,20,0,0,3.39249424458,3.71175346038,0.0,0.0,0.0,-0.710495309341,0.703701936479,0.25,0.15,0.0,0.0,0.0,1.0,1.0,2000000000,0,,,0
1449618290000335758,115,1449618290000158168,/odom,doorways,20,0,0,3.3927404765,3.67719728749,0.0,0.0,0.0,-0.703019016459,0.711171050098,0.25,0.15,0.0,0.0,0.0,1.0,1.0,2000000000,0,,,0
1449618290000350096,116,1449618290000240244,/odom,doorways,20,0,0,3.3927404765,3.67719728749,0.0,0.0,0.0,-0.703019016459,0.711171050098,0.25,0.15,0.0,0.0,0.0,1.0,1.0,2000000000,0,,,0
1449618290172946032,117,1449618290172768235,/odom,doorways,20,0,0,3.39459383472,3.6167515212,0.0,0.0,0.0,-0.691657624837,0.722225539568,0.25,0.15,0.0,0.0,0.0,1.0,1.0,2000000000,0,,,0
1449618290173006715,118,1449618290172897086,/odom,doorways,20,0,0,3.39459383472,3.6167515212,0.0,0.0,0.0,-0.691657624837,0.722225539568,0.25,0.15,0.0,0.0,0.0,1.0,1.0,2000000000,0,,,0
1449618290173650193,119,1449618290173183985,/odom,doorways,20,0,0,3.39459383472,3.6167515212,0.0,0.0,0.0,-0.691657624837,0.722225539568,0.25,0.15,0.0,0.0,0.0,1.0,1.0,2000000000,0,,,0
1449618290410884982,120,1449618290410655360,/odom,doorways,20,0,0,3.3979398935,3.55348639369,0.0,0.0,0.0,-0.683986629181,0.729494544943,0.25,0.15,0.0,0.0,0.0,1.0,1.0,2000000000,0,,,0
1449618290410888427,121,1449618290410749961,/odom,doorways,20,0,0,3.3979398935,3.55348639369,0.0,0.0,0.0,-0.683986629181,0.729494544943,0.25,0.15,0.0,0.0,0.0,1.0,1.0,2000000000,0,,,0
1449618290411039364,122,1449618290410830689,/odom,doorways,20,0,0,3.3979398935,3.55348639369,0.0,0.0,0.0,-0.683986629181,0.729494544943,0.25,0.15,0.0,0.0,0.0,1.0,1.0,2000000000,0,,,0
1449618290411047115,123,1449618290410907820,/odom,doorways,20,0,0,3.3979398935,3.55348639369,0.0,0.0,0.0,-0.683986629181,0.729494544943,0.25,0.15,0.0,0.0,0.0,1.0,1.0,2000000000,0,,,0
1449618290548827648,124,1449618290548591278,/odom,doorways,20,0,0,3.40087031528,3.51038954461,0.0,0.0,0.0,-0.680122431443,0.733098546069,0.25,0.15,0.0,0.0,0.0,1.0,1.0,2000000000,0,,,0
1449618290549092248,125,1449618290548802800,/odom,doorways,20,0,0,3.40087031528,3.51038954461,0.0,0.0,0.0,-0.680122431443,0.733098546069,0.25,0.15,0.0,0.0,0.0,1.0,1.0,2000000000,0,,,0
1449618290549560778,126,1449618290549237462,/odom,doorways,20,0,0,3.40087031528,3.51038954461,0.0,0.0,0.0,-0.680122431443,0.733098546069,0.25,0.15,0.0,0.0,0.0,1.0,1.0,2000000000,0,,,0
1449618290686827787,127,1449618290686274231,/odom,doorways,20,0,0,3.40345753156,3.47592901002,0.0,0.0,0.0,-0.680122431443,0.733098546069,0.25,0.15,0.0,0.0,0.0,1.0,1.0,2000000000,0,,,0
1449618290686834233,129,1449618290686284158,/odom,doorways,20,0,0,3.40345753156,3.47592901002,0.0,0.0,0.0,-0.680122431443,0.733098546069,0.25,0.15,0.0,0.0,0.0,1.0,1.0,2000000000,0,,,0
1449618290879475876,130,1449618290879324693,/odom,doorways,20,0,0,3.40914092338,3.4128298502,0.0,0.0,0.0,-0.672337175604,0.740245042065,0.25,0.15,0.0,0.0,0.0,1.0,1.0,2000000000,0,,,0
1449618290879599644,131,1449618290879443121,/odom,doorways,20,0,0,3.40914092338,3.4128298502,0.0,0.0,0.0,-0.672337175604,0.740245042065,0.25,0.15,0.0,0.0,0.0,1.0,1.0,2000000000,0,,,0
1449618290879810954,132,1449618290879620652,/odom,doorways,20,0,0,3.40914092338,3.4128298502,0.0,0.0,0.0,-0.672337175604,0.740245042065,0.25,0.15,0.0,0.0,0.0,1.0,1.0,2000000000,0,,,0
1449618290879814280,133,1449618290879706422,/odom,doorways,20,0,0,3.40914092338,3.4128298502,0.0,0.0,0.0,-0.672337175604,0.740245042065,0.25,0.15,0.0,0.0,0.0,1.0,1.0,2000000000,0,,,0
1449618291051559295,134,1449618291051012271,/odom,doorways,20,0,0,3.40914092338,3.4128298502,0.0,0.0,0.0,-0.672337175604,0.740245042065,0.25,0.15,0.0,0.0,0.0,1.0,1.0,2000000000,0,,,0
1449618291051562428,136,1449618291051019599,/odom,doorways,20,0,0,3.40914092338,3.4128298502,0.0,0.0,0.0,-0.672337175604,0.740245042065,0.25,0.15,0.0,0.0,0.0,1.0,1.0,2000000000,0,,,0
1449618291282073561,137,1449618291281562757,/odom,doorways,20,0,0,3.4220749955,3.29257594796,0.0,0.0,0.0,-0.664476831391,0.74730886556,0.25,0.15,0.0,0.0,0.0,1.0,1.0,2000000000,0,,,0
1449618291282077597,140,1449618291281625440,/odom,doorways,20,0,0,3.4220749955,3.29257594796,0.0,0.0,0.0,-0.664476831391,0.74730886556,0.25,0.15,0.0,0.0,0.0,1.0,1.0,2000000000,0,,,0
1449618291479200288,141,1449618291478289855,/odom,doorways,20,0,0,3.42956996303,3.23256728213,0.0,0.0,0.0,-0.660518775153,0.750809528223,0.25,0.15,0.0,0.0,0.0,1.0,1.0,2000000000,0,,,0
1449618291479603399,143,1449618291478298652,/odom,doorways,20,0,0,3.42956996303,3.23256728213,0.0,0.0,0.0,-0.660518775153,0.750809528223,0.25,0.15,0.0,0.0,0.0,1.0,1.0,2000000000,0,,,0
1449618291679220149,144,1449618291678738290,/odom,doorways,20,0,0,3.4375780162,3.17262502256,0.0,0.0,0.0,-0.65654227667,0.754289227648,0.25,0.15,0.0,0.0,0.0,1.0,1.0,2000000000,0,,,0
1449618291679223554,147,1449618291678815116,/odom,doorways,20,0,0,3.4375780162,3.17262502256,0.0,0.0,0.0,-0.65654227667,0.754289227648,0.25,0.15,0.0,0.0,0.0,1.0,1.0,2000000000,0,,,0
1449618291843656843,148,1449618291843312707,/odom,doorways,20,0,0,3.44600801939,3.11274183784,0.0,0.0,0.0,-0.652547446969,0.757747866677,0.25,0.15,0.0,0.0,0.0,1.0,1.0,2000000000,0,,,0
1449618291843660263,150,1449618291843319883,/odom,doorways,20,0,0,3.44600801939,3.11274183784,0.0,0.0,0.0,-0.652547446969,0.757747866677,0.25,0.15,0.0,0.0,0.0,1.0,1.0,2000000000,0,,,0
1449618292073473147,151,1449618292072940603,/odom,doorways,20,0,0,3.45534128011,3.05299156173,0.0,0.0,0.0,-0.648534397591,0.761185348744,0.25,0.15,0.0,0.0,0.0,1.0,1.0,2000000000,0,,,0
1449618292073481726,152,1449618292072968707,/odom,doorways,20,0,0,3.45534128011,3.05299156173,0.0,0.0,0.0,-0.648534397591,0.761185348744,0.25,0.15,0.0,0.0,0.0,1.0,1.0,2000000000,0,,,0
1449618292277470135,153,1449618292277090019,/odom,doorways,20,0,0,3.46524540876,2.99333327116,0.0,0.0,0.0,-0.644503240582,0.764601577869,0.25,0.15,0.0,0.0,0.0,1.0,1.0,2000000000,0,,,0
1449618292474832613,154,1449618292474502028,/odom,doorways,20,0,0,3.46524540876,2.99333327116,0.0,0.0,0.0,-0.644503240582,0.764601577869,0.25,0.15,0.0,0.0,0.0,1.0,1.0,2000000000,0,,,0
1449618292474845514,155,1449618292474508938,/odom,doorways,20,0,0,3.46524540876,2.99333327116,0.0,0.0,0.0,-0.644503240582,0.764601577869,0.25,0.15,0.0,0.0,0.0,1.0,1.0,2000000000,0,,,0
1449618292702683287,156,1449618292702104964,/odom,doorways,20,0,0,3.48698063295,2.87142627975,0.0,0.0,0.0,-0.640454088495,0.76799645867,0.25,0.15,0.0,0.0,0.0,1.0,1.0,2000000000,0,,,0
1449618292854578641,157,1449618292853829227,/odom,doorways,20,0,0,3.49832285467,2.81202438423,0.0,0.0,0.0,-0.636387054388,0.771369896358,0.25,0.15,0.0,0.0,0.0,1.0,1.0,2000000000,0,,,0
1449618292854582705,158,1449618292853835888,/odom,doorways,20,0,0,3.49832285467,2.81202438423,0.0,0.0,0.0,-0.636387054388,0.771369896358,0.25,0.15,0.0,0.0,0.0,1.0,1.0,2000000000,0,,,0
1449618292988220336,159,1449618292987050708,/odom,doorways,20,0,0,3.50598403342,2.772441871,0.0,0.0,0.0,-0.636387054388,0.771369896358,0.25,0.15,0.0,0.0,0.0,1.0,1.0,2000000000,0,,,0
1449618292988226224,160,1449618292987144298,/odom,doorways,20,0,0,3.50598403342,2.772441871,0.0,0.0,0.0,-0.636387054388,0.771369896358,0.25,0.15,0.0,0.0,0.0,1.0,1.0,2000000000,0,,,0
1449618293605014111,161,1449618293604595741,/odom,doorways,20,0,0,3.53971160575,2.59417993312,0.0,0.0,0.0,-0.640454088495,0.76799645867,0.25,0.15,0.0,0.0,0.0,1.0,1.0,2000000000,0,,,0
1449618293605018391,162,1449618293604603272,/odom,doorways,20,0,0,3.53971160575,2.59417993312,0.0,0.0,0.0,-0.640454088495,0.76799645867,0.25,0.15,0.0,0.0,0.0,1.0,1.0,2000000000,0,,,0
1449618293774317204,163,1449618293774014183,/odom,doorways,20,0,0,3.53971160575,2.59417993312,0.0,0.0,0.0,-0.640454088495,0.76799645867,0.25,0.15,0.0,0.0,0.0,1.0,1.0,2000000000,0,,,0
1449618294017448662,164,1449618294015067821,/odom,doorways,20,0,0,3.56068065232,2.45174246833,0.0,0.0,0.0,-0.664476831391,0.74730886556,0.25,0.15,0.0,0.0,0.0,1.0,1.0,2000000000,0,,,0
1449618294017461626,165,1449618294015074573,/odom,doorways,20,0,0,3.56068065232,2.45174246833,0.0,0.0,0.0,-0.664476831391,0.74730886556,0.25,0.15,0.0,0.0,0.0,1.0,1.0,2000000000,0,,,0
1449618294184283588,166,1449618294183654379,/odom,doorways,20,0,0,3.56617124435,2.39730623327,0.0,0.0,0.0,-0.67623924411,0.736682078461,0.25,0.15,0.0,0.0,0.0,1.0,1.0,2000000000,0,,,0
1449618294377684855,167,1449618294377162148,/odom,doorways,20,0,0,3.57100536116,2.33413750653,0.0,0.0,0.0,-0.683986629181,0.729494544943,0.25,0.15,0.0,0.0,0.0,1.0,1.0,2000000000,0,,,0
1449618294377689457,168,1449618294377172906,/odom,doorways,20,0,0,3.57100536116,2.33413750653,0.0,0.0,0.0,-0.683986629181,0.729494544943,0.25,0.15,0.0,0.0,0.0,1.0,1.0,2000000000,0,,,0
1449618294576813824,169,1449618294576254995,/odom,doorways,20,0,0,3.57392302318,2.2737340799,0.0,0.0,0.0,-0.695464208575,0.718560738275,0.25,0.15,0.0,0.0,0.0,1.0,1.0,2000000000,0,,,0
1449618294794235376,170,1449618294792406420,/odom,doorways,20,0,0,3.57524537411,2.19599488613,0.0,0.0,0.0,-0.706767029667,0.70744636954,0.25,0.15,0.0,0.0,0.0,1.0,1.0,2000000000,0,,,0
1449618294794255683,171,1449618294792414721,/odom,doorways,20,0,0,3.57524537411,2.19599488613,0.0,0.0,0.0,-0.706767029667,0.70744636954,0.25,0.15,0.0,0.0,0.0,1.0,1.0,2000000000,0,,,0
1449618294997089620,172,1449618294996917313,/odom,doorways,20,0,0,3.57436283505,2.13264643676,0.0,0.0,0.0,-0.714203751383,0.699937855464,0.25,0.15,0.0,0.0,0.0,1.0,1.0,2000000000,0,,,0
1449618295843692583,173,1449618295842568520,/odom,doorways,20,0,0,3.55512571249,1.87715750587,0.0,0.0,0.0,-0.746670136818,0.665194487938,0.25,0.15,0.0,0.0,0.0,1.0,1.0,2000000000,0,,,0
1449618295843707324,174,1449618295842581443,/odom,doorways,20,0,0,3.55512571249,1.87715750587,0.0,0.0,0.0,-0.746670136818,0.665194487938,0.25,0.15,0.0,0.0,0.0,1.0,1.0,2000000000,0,,,0
1449618295969195451,175,1449618295968999057,/odom,doorways,20,0,0,3.55063705753,1.84289321408,0.0,0.0,0.0,-0.753658118662,0.657266643133,0.25,0.15,0.0,0.0,0.0,1.0,1.0,2000000000,0,,,0
1449618296203550154,176,1449618296201350400,/odom,doorways,20,0,0,3.53976130258,1.76881472401,0.0,0.0,0.0,-0.760561929997,0.649265393071,0.25,0.15,0.0,0.0,0.0,1.0,1.0,2000000000,0,,,0
1449618296203553691,177,1449618296201362005,/odom,doorways,20,0,0,3.53976130258,1.76881472401,0.0,0.0,0.0,-0.760561929997,0.649265393071,0.25,0.15,0.0,0.0,0.0,1.0,1.0,2000000000,0,,,0
1449618296365278148,178,1449618296360249143,/odom,doorways,20,0,0,3.53211118669,1.72337880817,0.0,0.0,0.0,-0.767380799788,0.641191631353,0.25,0.15,0.0,0.0,0.0,1.0,1.0,2000000000,0,,,0
1449618296365294990,179,1449618296360253907,/odom,doorways,20,0,0,3.53211118669,1.72337880817,0.0,0.0,0.0,-0.767380799788,0.641191631353,0.25,0.15,0.0,0.0,0.0,1.0,1.0,2000000000,0,,,0
1449618298489362313,180,1449618298489126109,/odom,doorways,20,0,0,3.34077560156,1.15242467891,0.0,0.0,0.0,-0.858976294351,0.512015356941,0.25,0.15,0.0,0.0,0.0,1.0,1.0,2000000000,0,,,0
1449618298888817664,181,1449618298888484113,/odom,doorways,20,0,0,3.28267375646,1.05636306279,0.0,0.0,0.0,-0.882345486994,0.47060221162,0.25,0.15,0.0,0.0,0.0,1.0,1.0,2000000000,0,,,0
1449618298888829589,182,1449618298888490462,/odom,doorways,20,0,0,3.28267375646,1.05636306279,0.0,0.0,0.0,-0.882345486994,0.47060221162,0.25,0.15,0.0,0.0,0.0,1.0,1.0,2000000000,0,,,0
1449618301634180220,183,1449618301633611447,/odom,doorways,20,0,0,2.66693186493,0.522608236578,0.0,0.0,0.0,-0.965676724889,0.259746921074,0.25,0.15,0.0,0.0,0.0,1.0,1.0,2000000000,0,,,0
1449618303363183708,184,1449618303362156859,/odom,doorways,20,0,0,2.17748459041,0.359985137613,0.0,0.0,0.0,-0.9956160469,0.0935344169528,0.25,0.15,0.0,0.0,0.0,1.0,1.0,2000000000,0,,,0
1449618303363191845,185,1449618303362163633,/odom,doorways,20,0,0,2.17748459041,0.359985137613,0.0,0.0,0.0,-0.9956160469,0.0935344169528,0.25,0.15,0.0,0.0,0.0,1.0,1.0,2000000000,0,,,0
1449618303796968255,186,1449618303796319770,/odom,doorways,20,0,0,2.10110814883,0.34541386342,0.0,0.0,0.0,-0.995107911842,0.0987939461174,0.25,0.15,0.0,0.0,0.0,1.0,1.0,2000000000,0,,,0
1449618303796973450,187,1449618303796328550,/odom,doorways,20,0,0,2.10110814883,0.34541386342,0.0,0.0,0.0,-0.995107911842,0.0987939461174,0.25,0.15,0.0,0.0,0.0,1.0,1.0,2000000000,0,,,0
1449618304150167702,188,1449618304146967080,/odom,doorways,20,0,0,2.03929804616,0.33152907716,0.0,0.0,0.0,-0.992797682548,0.119803011343,0.25,0.15,0.0,0.0,0.0,1.0,1.0,2000000000,0,,,0
1449618304150171774,189,1449618304146972950,/odom,doorways,20,0,0,2.03929804616,0.33152907716,0.0,0.0,0.0,-0.992797682548,0.119803011343,0.25,0.15,0.0,0.0,0.0,1.0,1.0,2000000000,0,,,0
1449618304462465132,190,1449618304462094283,/odom,doorways,20,0,0,1.96699505792,0.312098262349,0.0,0.0,0.0,-0.990043952678,0.140758558408,0.25,0.15,0.0,0.0,0.0,1.0,1.0,2000000000,0,,,0
1449618304463306304,191,1449618304462718599,/odom,doorways,20,0,0,1.96699505792,0.312098262349,0.0,0.0,0.0,-0.990043952678,0.140758558408,0.25,0.15,0.0,0.0,0.0,1.0,1.0,2000000000,0,,,0
1449618304664077983,192,1449618304657434123,/odom,doorways,20,0,0,1.92551080345,0.300058936984,0.0,0.0,0.0,-0.989286363057,0.14598798536,0.25,0.15,0.0,0.0,0.0,1.0,1.0,2000000000,0,,,0
1449618304909306839,193,1449618304907206101,/odom,doorways,20,0,0,1.88688630386,0.288500975222,0.0,0.0,0.0,-0.989286363057,0.14598798536,0.25,0.15,0.0,0.0,0.0,1.0,1.0,2000000000,0,,,0
1449618304909312743,194,1449618304907286399,/odom,doorways,20,0,0,1.88688630386,0.288500975222,0.0,0.0,0.0,-0.989286363057,0.14598798536,0.25,0.15,0.0,0.0,0.0,1.0,1.0,2000000000,0,,,0
1449618305065284753,195,1449618305063216658,/odom,doorways,20,0,0,1.8483145477,0.276768197382,0.0,0.0,0.0,-0.989286363057,0.14598798536,0.25,0.15,0.0,0.0,0.0,1.0,1.0,2000000000,0,,,0
1449618305229349413,196,1449618305229247644,/odom,doorways,20,0,0,1.8483145477,0.276768197382,0.0,0.0,0.0,-0.989286363057,0.14598798536,0.25,0.15,0.0,0.0,0.0,1.0,1.0,2000000000,0,,,0
1449618305229352784,197,1449618305229253698,/odom,doorways,20,0,0,1.8483145477,0.276768197382,0.0,0.0,0.0,-0.989286363057,0.14598798536,0.25,0.15,0.0,0.0,0.0,1.0,1.0,2000000000,0,,,0
1449618305473988795,198,1449618305471202424,/odom,doorways,20,0,0,1.78449516408,0.259070706964,0.0,0.0,0.0,-0.992797682548,0.119803011343,0.25,0.15,0.0,0.0,0.0,1.0,1.0,2000000000,0,,,0
1449618305663087809,199,1449618305662037213,/odom,doorways,20,0,0,1.74510458381,0.250488682293,0.0,0.0,0.0,-0.995107911842,0.0987939461174,0.25,0.15,0.0,0.0,0.0,1.0,1.0,2000000000,0,,,0
1449618305663120776,200,1449618305662045579,/odom,doorways,20,0,0,1.74510458381,0.250488682293,0.0,0.0,0.0,-0.995107911842,0.0987939461174,0.25,0.15,0.0,0.0,0.0,1.0,1.0,2000000000,0,,,0
1449618305876179172,201,1449618305874444904,/odom,doorways,20,0,0,1.70250771947,0.243342881458,0.0,0.0,0.0,-0.997370472456,0.0724716542662,0.25,0.15,0.0,0.0,0.0,1.0,1.0,2000000000,0,,,0
1449618306194820923,202,1449618306192885794,/odom,doorways,20,0,0,1.6423786056,0.236986906152,0.0,0.0,0.0,-0.999368269331,0.0355395871315,0.25,0.15,0.0,0.0,0.0,1.0,1.0,2000000000,0,,,0
1449618306194824119,203,1449618306192897295,/odom,doorways,20,0,0,1.6423786056,0.236986906152,0.0,0.0,0.0,-0.999368269331,0.0355395871315,0.25,0.15,0.0,0.0,0.0,1.0,1.0,2000000000,0,,,0
1449618306509689554,204,1449618306509021639,/odom,doorways,20,0,0,1.58774105386,0.234133176221,0.0,0.0,0.0,-0.99980605976,0.019693726582,0.25,0.15,0.0,0.0,0.0,1.0,1.0,2000000000,0,,,0
1449618306509705537,205,1449618306509033629,/odom,doorways,20,0,0,1.58774105386,0.234133176221,0.0,0.0,0.0,-0.99980605976,0.019693726582,0.25,0.15,0.0,0.0,0.0,1.0,1.0,2000000000,0,,,0
1449618306855704662,206,1449618306853735433,/odom,doorways,20,0,0,1.58774105386,0.234133176221,0.0,0.0,0.0,-0.99980605976,0.019693726582,0.25,0.15,0.0,0.0,0.0,1.0,1.0,2000000000,0,,,0
1449618306855708371,207,1449618306853764412,/odom,doorways,20,0,0,1.58774105386,0.234133176221,0.0,0.0,0.0,-0.99980605976,0.019693726582,0.25,0.15,0.0,0.0,0.0,1.0,1.0,2000000000,0,,,0
1449618307161339956,208,1449618307160691816,/odom,doorways,20,0,0,1.41209317923,0.232844020844,0.0,0.0,0.0,0.999977386453,0.00672507119539,0.25,0.15,0.0,0.0,0.0,1.0,1.0,2000000000,0,,,0
1449618307161345799,209,1449618307160774053,/odom,doorways,20,0,0,1.41209317923,0.232844020844,0.0,0.0,0.0,0.999977386453,0.00672507119539,0.25,0.15,0.0,0.0,0.0,1.0,1.0,2000000000,0,,,0
1449618307455690996,210,1449618307454831245,/odom,doorways,20,0,0,1.32572134611,0.234675387723,0.0,0.0,0.0,0.999850476852,0.0172923086519,0.25,0.15,0.0,0.0,0.0,1.0,1.0,2000000000,0,,,0
1449618307716006003,211,1449618307710953412,/odom,doorways,20,0,0,1.23075445858,0.23817441528,0.0,0.0,0.0,0.999745145961,0.0225752769154,0.25,0.15,0.0,0.0,0.0,1.0,1.0,2000000000,0,,,0
1449618307716023063,212,1449618307710965469,/odom,doorways,20,0,0,1.23075445858,0.23817441528,0.0,0.0,0.0,0.999745145961,0.0225752769154,0.25,0.15,0.0,0.0,0.0,1.0,1.0,2000000000,0,,,0
1449618308053046522,213,1449618308052758979,/odom,doorways,20,0,0,1.14161489641,0.243024714199,0.0,0.0,0.0,0.999611901337,0.0278576148581,0.25,0.15,0.0,0.0,0.0,1.0,1.0,2000000000,0,,,0
1449618308053050827,214,1449618308052767130,/odom,doorways,20,0,0,1.14161489641,0.243024714199,0.0,0.0,0.0,0.999611901337,0.0278576148581,0.25,0.15,0.0,0.0,0.0,1.0,1.0,2000000000,0,,,0
1449618308312902097,215,1449618308311937064,/odom,doorways,20,0,0,1.06117302565,0.248578571439,0.0,0.0,0.0,0.999261686552,0.0384198098531,0.25,0.15,0.0,0.0,0.0,1.0,1.0,2000000000,0,,,0
1449618308312928182,216,1449618308311954041,/odom,doorways,20,0,0,1.06117302565,0.248578571439,0.0,0.0,0.0,0.999261686552,0.0384198098531,0.25,0.15,0.0,0.0,0.0,1.0,1.0,2000000000,0,,,0
1449618308501064158,217,1449618308500840266,/odom,doorways,20,0,0,1.00091086033,0.253646701682,0.0,0.0,0.0,0.999044726169,0.043699372,0.25,0.15,0.0,0.0,0.0,1.0,1.0,2000000000,0,,,0
1449618308501069862,218,1449618308500957587,/odom,doorways,20,0,0,1.00091086033,0.253646701682,0.0,0.0,0.0,0.999044726169,0.043699372,0.25,0.15,0.0,0.0,0.0,1.0,1.0,2000000000,0,,,0
1449618308501235343,219,1449618308501065909,/odom,doorways,20,0,0,1.00091086033,0.253646701682,0.0,0.0,0.0,0.999044726169,0.043699372,0.25,0.15,0.0,0.0,0.0,1.0,1.0,2000000000,0,,,0
1449618308504086646,220,1449618308501158195,/odom,doorways,20,0,0,1.00091086033,0.253646701682,0.0,0.0,0.0,0.999044726169,0.043699372,0.25,0.15,0.0,0.0,0.0,1.0,1.0,2000000000,0,,,0
1449618308759391394,221,1449618308759115053,/odom,doorways,20,0,0,1.00091086033,0.253646701682,0.0,0.0,0.0,0.999044726169,0.043699372,0.25,0.15,0.0,0.0,0.0,1.0,1.0,2000000000,0,,,0
1449618308759438378,222,1449618308759194164,/odom,doorways,20,0,0,1.00091086033,0.253646701682,0.0,0.0,0.0,0.999044726169,0.043699372,0.25,0.15,0.0,0.0,0.0,1.0,1.0,2000000000,0,,,0
1449618308759458241,223,1449618308759255376,/odom,doorways,20,0,0,1.00091086033,0.253646701682,0.0,0.0,0.0,0.999044726169,0.043699372,0.25,0.15,0.0,0.0,0.0,1.0,1.0,2000000000,0,,,0
1449618309035240058,224,1449618309032385630,/odom,doorways,20,0,0,0.863225626487,0.265898113711,0.0,0.0,0.0,0.999044726169,0.043699372,0.25,0.15,0.0,0.0,0.0,1.0,1.0,2000000000,0,,,0
1449618309035246386,227,1449618309032507386,/odom,doorways,20,0,0,0.863225626487,0.265898113711,0.0,0.0,0.0,0.999044726169,0.043699372,0.25,0.15,0.0,0.0,0.0,1.0,1.0,2000000000,0,,,0
1449618309278639713,228,1449618309278518178,/odom,doorways,20,0,0,0.765535414521,0.272383551573,0.0,0.0,0.0,0.999745145961,0.0225752769154,0.25,0.15,0.0,0.0,0.0,1.0,1.0,2000000000,0,,,0
1449618309278692497,229,1449618309278594707,/odom,doorways,20,0,0,0.765535414521,0.272383551573,0.0,0.0,0.0,0.999745145961,0.0225752769154,0.25,0.15,0.0,0.0,0.0,1.0,1.0,2000000000,0,,,0
1449618309278743438,230,1449618309278666528,/odom,doorways,20,0,0,0.765535414521,0.272383551573,0.0,0.0,0.0,0.999745145961,0.0225752769154,0.25,0.15,0.0,0.0,0.0,1.0,1.0,2000000000,0,,,0
1449618309637289526,231,1449618309637150756,/odom,doorways,20,0,0,0.765535414521,0.272383551573,0.0,0.0,0.0,0.999745145961,0.0225752769154,0.25,0.15,0.0,0.0,0.0,1.0,1.0,2000000000,0,,,0
1449618309641294301,232,1449618309637225239,/odom,doorways,20,0,0,0.765535414521,0.272383551573,0.0,0.0,0.0,0.999745145961,0.0225752769154,0.25,0.15,0.0,0.0,0.0,1.0,1.0,2000000000,0,,,0
1449618309641300642,233,1449618309637413548,/odom,doorways,20,0,0,0.765535414521,0.272383551573,0.0,0.0,0.0,0.999745145961,0.0225752769154,0.25,0.15,0.0,0.0,0.0,1.0,1.0,2000000000,0,,,0
1449618309641304016,234,1449618309637486056,/odom,doorways,20,0,0,0.765535414521,0.272383551573,0.0,0.0,0.0,0.999745145961,0.0225752769154,0.25,0.15,0.0,0.0,0.0,1.0,1.0,2000000000,0,,,0
1449618310063990692,235,1449618310059718894,/odom,doorways,20,0,0,0.544129906363,0.266001023017,0.0,0.0,0.0,-0.998393939197,0.0566528214127,0.25,0.15,0.0,0.0,0.0,1.0,1.0,2000000000,0,,,0
1449618310063995019,236,1449618310059846626,/odom,doorways,20,0,0,0.544129906363,0.266001023017,0.0,0.0,0.0,-0.998393939197,0.0566528214127,0.25,0.15,0.0,0.0,0.0,1.0,1.0,2000000000,0,,,0
1449618310064002689,237,1449618310060136380,/odom,doorways,20,0,0,0.544129906363,0.266001023017,0.0,0.0,0.0,-0.998393939197,0.0566528214127,0.25,0.15,0.0,0.0,0.0,1.0,1.0,2000000000,0,,,0
1449618310064007549,238,1449618310060240686,/odom,doorways,20,0,0,0.544129906363,0.266001023017,0.0,0.0,0.0,-0.998393939197,0.0566528214127,0.25,0.15,0.0,0.0,0.0,1.0,1.0,2000000000,0,,,0
1449618310823720966,239,1449618310817957864,/odom,doorways,20,0,0,0.544129906363,0.266001023017,0.0,0.0,0.0,-0.998393939197,0.0566528214127,0.25,0.15,0.0,0.0,0.0,1.0,1.0,2000000000,0,,,0
1449618310823733274,240,1449618310817969241,/odom,doorways,20,0,0,0.544129906363,0.266001023017,0.0,0.0,0.0,-0.998393939197,0.0566528214127,0.25,0.15,0.0,0.0,0.0,1.0,1.0,2000000000,0,,,0
1449618310823739254,241,1449618310817995169,/odom,doorways,20,0,0,0.544129906363,0.266001023017,0.0,0.0,0.0,-0.998393939197,0.0566528214127,0.25,0.15,0.0,0.0,0.0,1.0,1.0,2000000000,0,,,0
1449618310823745361,242,1449618310818018940,/odom,doorways,20,0,0,0.544129906363,0.266001023017,0.0,0.0,0.0,-0.998393939197,0.0566528214127,0.25,0.15,0.0,0.0,0.0,1.0,1.0,2000000000,0,,,0
1449618311003899421,243,1449618311002863252,/odom,doorways,20,0,0,0.277710418917,0.196137847062,0.0,0.0,0.0,-0.97913504823,0.203210623069,0.25,0.15,0.0,0.0,0.0,1.0,1.0,2000000000,0,,,0
1449618311237840677,244,1449618311236706369,/odom,doorways,20,0,0,0.254286894263,0.185048918431,0.0,0.0,0.0,-0.97342511398,0.229005562102,0.25,0.15,0.0,0.0,0.0,1.0,1.0,2000000000,0,,,0
1449618311237844043,245,1449618311236792885,/odom,doorways,20,0,0,0.254286894263,0.185048918431,0.0,0.0,0.0,-0.97342511398,0.229005562102,0.25,0.15,0.0,0.0,0.0,1.0,1.0,2000000000,0,,,0
1449618311380152180,246,1449618311378544262,/odom,doorways,20,0,0,0.241509035795,0.178412522925,0.0,0.0,0.0,-0.969672750553,0.244406949238,0.25,0.15,0.0,0.0,0.0,1.0,1.0,2000000000,0,,,0
1449618311538641999,247,1449618311536208844,/odom,doorways,20,0,0,0.22905441281,0.171189899379,0.0,0.0,0.0,-0.962877833227,0.269937545146,0.25,0.15,0.0,0.0,0.0,1.0,1.0,2000000000,0,,,0
1449618311541011691,248,1449618311536392549,/odom,doorways,20,0,0,0.22905441281,0.171189899379,0.0,0.0,0.0,-0.962877833227,0.269937545146,0.25,0.15,0.0,0.0,0.0,1.0,1.0,2000000000,0,,,0
1449618333820526841,249,1449618333819999366,/odom,doorways,20,0,0,0.161486828222,0.150974032651,0.0,0.0,0.0,0.0604891484621,0.998168854913,0.25,0.15,0.0,0.0,0.0,1.0,1.0,2000000000,0,,,0
1449618334863305283,250,1449618334836021149,/odom,doorways,20,0,0,0.144354004521,0.148736592179,0.0,0.0,0.0,0.0710342713686,0.997473875493,0.25,0.15,0.0,0.0,0.0,1.0,1.0,2000000000,0,,,0
1449618335106142452,251,1449618335104702714,/odom,doorways,20,0,0,0.107394446311,0.142800136984,0.0,0.0,0.0,0.0868367130092,0.996222558103,0.25,0.15,0.0,0.0,0.0,1.0,1.0,2000000000,0,,,0
1449618335432325649,252,1449618335431714181,/odom,doorways,20,0,0,0.0454260706483,0.129659475297,0.0,0.0,0.0,0.118372169131,0.992969299412,0.25,0.15,0.0,0.0,0.0,1.0,1.0,2000000000,0,,,0
1449618335820491736,253,1449618335809907441,/odom,doorways,20,0,0,0.0202860578727,0.123359999273,0.0,0.0,0.0,0.123617366137,0.992329958627,0.25,0.15,0.0,0.0,0.0,1.0,1.0,2000000000,0,,,0
1449618336108342688,254,1449618336107281061,/odom,doorways,20,0,0,0.0175019006443,0.12262401165,0.0,0.0,0.0,0.128859111641,0.991662911148,0.25,0.15,0.0,0.0,0.0,1.0,1.0,2000000000,0,,,0
1449618336214295197,255,1449618336213855180,/odom,doorways,20,0,0,0.02029368021,0.123330535613,0.0,0.0,0.0,0.123617366137,0.992329958627,0.25,0.15,0.0,0.0,0.0,1.0,1.0,2000000000,0,,,0
1449618336649565086,256,1449618336648727800,/odom,doorways,20,0,0,0.02029368021,0.123330535613,0.0,0.0,0.0,0.123617366137,0.992329958627,0.25,0.15,0.0,0.0,0.0,1.0,1.0,2000000000,0,,,0
1449618336824089062,257,1449618336823248196,/odom,doorways,20,0,0,0.02029368021,0.123330535613,0.0,0.0,0.0,0.123617366137,0.992329958627,0.25,0.15,0.0,0.0,0.0,1.0,1.0,2000000000,0,,,0
1449618337063438670,258,1449618337062802003,/odom,doorways,20,0,0,0.02029368021,0.123330535613,0.0,0.0,0.0,0.123617366137,0.992329958627,0.25,0.15,0.0,0.0,0.0,1.0,1.0,2000000000,0,,,0
1449618337442933754,259,1449618337436786026,/odom,doorways,20,0,0,0.02029368021,0.123330535613,0.0,0.0,0.0,0.123617366137,0.992329958627,0.25,0.15,0.0,0.0,0.0,1.0,1.0,2000000000,0,,,0
1449618337623235643,260,1449618337619763186,/odom,doorways,20,0,0,0.02029368021,0.123330535613,0.0,0.0,0.0,0.123617366137,0.992329958627,0.25,0.15,0.0,0.0,0.0,1.0,1.0,2000000000,0,,,0
1449618338938384466,261,1449618338936982808,/odom,doorways,20,0,0,0.0175095229816,0.12259454799,0.0,0.0,0.0,0.128859111641,0.991662911148,0.25,0.15,0.0,0.0,0.0,1.0,1.0,2000000000,0,,,0
1449618339611644530,262,1449618339611214872,/odom,doorways,20,0,0,0.0203013025472,0.123301071953,0.0,0.0,0.0,0.123617366137,0.992329958627,0.25,0.15,0.0,0.0,0.0,1.0,1.0,2000000000,0,,,0
1449618341076474792,263,1449618341076031578,/odom,doorways,20,0,0,0.0203089248845,0.123271608293,0.0,0.0,0.0,0.123617366137,0.992329958627,0.25,0.15,0.0,0.0,0.0,1.0,1.0,2000000000,0,,,0
1449618341930181409,264,1449618341929218574,/odom,doorways,20,0,0,0.0203089248845,0.123271608293,0.0,0.0,0.0,0.123617366137,0.992329958627,0.25,0.15,0.0,0.0,0.0,1.0,1.0,2000000000,0,,,0
1449618342219472713,265,1449618342219331785,/odom,doorways,20,0,0,0.0203089248845,0.123271608293,0.0,0.0,0.0,0.123617366137,0.992329958627,0.25,0.15,0.0,0.0,0.0,1.0,1.0,2000000000,0,,,0
1449618342366505319,266,1449618342365497228,/odom,doorways,20,0,0,0.0203089248845,0.123271608293,0.0,0.0,0.0,0.123617366137,0.992329958627,0.25,0.15,0.0,0.0,0.0,1.0,1.0,2000000000,0,,,0
1449618344316808597,267,1449618344312243339,/odom,doorways,20,0,0,0.0203089248845,0.123271608293,0.0,0.0,0.0,0.123617366137,0.992329958627,0.25,0.15,0.0,0.0,0.0,1.0,1.0,2000000000,0,,,0
1449618345445470138,268,1449618345406132540,/odom,doorways,20,0,0,0.0203089248845,0.123271608293,0.0,0.0,0.0,0.123617366137,0.992329958627,0.25,0.15,0.0,0.0,0.0,1.0,1.0,2000000000,0,,,0
1449618346212754765,269,1449618346212627331,/odom,doorways,20,0,0,0.0203089248845,0.123271608293,0.0,0.0,0.0,0.123617366137,0.992329958627,0.25,0.15,0.0,0.0,0.0,1.0,1.0,2000000000,0,,,0
1449618346829593057,270,1449618346823732797,/odom,doorways,20,0,0,0.0203089248845,0.123271608293,0.0,0.0,0.0,0.123617366137,0.992329958627,0.25,0.15,0.0,0.0,0.0,1.0,1.0,2000000000,0,,,0
1449618348247438669,271,1449618348243749689,/odom,doorways,20,0,0,0.0203089248845,0.123271608293,0.0,0.0,0.0,0.123617366137,0.992329958627,0.25,0.15,0.0,0.0,0.0,1.0,1.0,2000000000,0,,,0
1449618349158024941,272,1449618349156854386,/odom,doorways,20,0,0,0.0203089248845,0.123271608293,0.0,0.0,0.0,0.123617366137,0.992329958627,0.25,0.15,0.0,0.0,0.0,1.0,1.0,2000000000,0,,,0
1449618349322410708,273,1449618349321889395,/odom,doorways,20,0,0,0.0203089248845,0.123271608293,0.0,0.0,0.0,0.123617366137,0.992329958627,0.25,0.15,0.0,0.0,0.0,1.0,1.0,2000000000,0,,,0
1449618351567008354,274,1449618351559737412,/odom,doorways,20,0,0,0.0203089248845,0.123271608293,0.0,0.0,0.0,0.123617366137,0.992329958627,0.25,0.15,0.0,0.0,0.0,1.0,1.0,2000000000,0,,,0
1449618352452965467,275,1449618352452865443,/odom,doorways,20,0,0,0.0203089248845,0.123271608293,0.0,0.0,0.0,0.123617366137,0.992329958627,0.25,0.15,0.0,0.0,0.0,1.0,1.0,2000000000,0,,,0
1449618355162340064,276,1449618355152564762,/odom,doorways,20,0,0,0.0203089248845,0.123271608293,0.0,0.0,0.0,0.123617366137,0.992329958627,0.25,0.15,0.0,0.0,0.0,1.0,1.0,2000000000,0,,,0
1449618355417249841,277,1449618355417103355,/odom,doorways,20,0,0,0.0203089248845,0.123271608293,0.0,0.0,0.0,0.123617366137,0.992329958627,0.25,0.15,0.0,0.0,0.0,1.0,1.0,2000000000,0,,,0
1449618355607285675,278,1449618355602703687,/odom,doorways,20,0,0,0.0203089248845,0.123271608293,0.0,0.0,0.0,0.123617366137,0.992329958627,0.25,0.15,0.0,0.0,0.0,1.0,1.0,2000000000,0,,,0
1449618355768713523,279,1449618355768599318,/odom,doorways,20,0,0,0.0203089248845,0.123271608293,0.0,0.0,0.0,0.123617366137,0.992329958627,0.25,0.15,0.0,0.0,0.0,1.0,1.0,2000000000,0,,,0
1449618355971131285,280,1449618355967318949,/odom,doorways,20,0,0,0.0203089248845,0.123271608293,0.0,0.0,0.0,0.123617366137,0.992329958627,0.25,0.15,0.0,0.0,0.0,1.0,1.0,2000000000,0,,,0
1449618356171206083,281,1449618356169658484,/odom,doorways,20,0,0,0.0203089248845,0.123271608293,0.0,0.0,0.0,0.123617366137,0.992329958627,0.25,0.15,0.0,0.0,0.0,1.0,1.0,2000000000,0,,,0
1449618356391385944,282,1449618356389174035,/odom,doorways,20,0,0,0.0203089248845,0.123271608293,0.0,0.0,0.0,0.123617366137,0.992329958627,0.25,0.15,0.0,0.0,0.0,1.0,1.0,2000000000,0,,,0
1449618356563829553,283,1449618356562991284,/odom,doorways,20,0,0,0.0203089248845,0.123271608293,0.0,0.0,0.0,0.123617366137,0.992329958627,0.25,0.15,0.0,0.0,0.0,1.0,1.0,2000000000,0,,,0
1449618356671533339,284,1449618356669140088,/odom,doorways,20,0,0,0.0203089248845,0.123271608293,0.0,0.0,0.0,0.123617366137,0.992329958627,0.25,0.15,0.0,0.0,0.0,1.0,1.0,2000000000,0,,,0
1449618356872101053,285,1449618356871953936,/odom,doorways,20,0,0,0.0203089248845,0.123271608293,0.0,0.0,0.0,0.123617366137,0.992329958627,0.25,0.15,0.0,0.0,0.0,1.0,1.0,2000000000,0,,,0
1449618358567148982,286,1449618358564793672,/odom,doorways,20,0,0,0.0203089248845,0.123271608293,0.0,0.0,0.0,0.123617366137,0.992329958627,0.25,0.15,0.0,0.0,0.0,1.0,1.0,2000000000,0,,,0
1449618359033541157,287,1449618359032757080,/odom,doorways,20,0,0,0.0203089248845,0.123271608293,0.0,0.0,0.0,0.123617366137,0.992329958627,0.25,0.15,0.0,0.0,0.0,1.0,1.0,2000000000,0,,,0
1449618359550922143,288,1449618359546872162,/odom,doorways,20,0,0,0.0203089248845,0.123271608293,0.0,0.0,0.0,0.123617366137,0.992329958627,0.25,0.15,0.0,0.0,0.0,1.0,1.0,2000000000,0,,,0
1449618359628254882,289,1449618359627461906,/odom,doorways,20,0,0,0.0203089248845,0.123271608293,0.0,0.0,0.0,0.123617366137,0.992329958627,0.25,0.15,0.0,0.0,0.0,1.0,1.0,2000000000,0,,,0
1449618359739768138,290,1449618359739467509,/odom,doorways,20,0,0,0.0203089248845,0.123271608293,0.0,0.0,0.0,0.123617366137,0.992329958627,0.25,0.15,0.0,0.0,0.0,1.0,1.0,2000000000,0,,,0
1449618360321095168,291,1449618360319402510,/odom,doorways,20,0,0,0.0203089248845,0.123271608293,0.0,0.0,0.0,0.123617366137,0.992329958627,0.25,0.15,0.0,0.0,0.0,1.0,1.0,2000000000,0,,,0
1449618361002234870,292,1449618361000019685,/odom,doorways,20,0,0,0.0203089248845,0.123271608293,0.0,0.0,0.0,0.123617366137,0.992329958627,0.25,0.15,0.0,0.0,0.0,1.0,1.0,2000000000,0,,,0
