%time,field.header.seq,field.header.stamp,field.header.frame_id,field.ns,field.id,field.type,field.action,field.pose.position.x,field.pose.position.y,field.pose.position.z,field.pose.orientation.x,field.pose.orientation.y,field.pose.orientation.z,field.pose.orientation.w,field.scale.x,field.scale.y,field.scale.z,field.color.r,field.color.g,field.color.b,field.color.a,field.lifetime,field.frame_locked,field.text,field.mesh_resource,field.mesh_use_embedded_materials
1449618218562101864,0,1449618218561723023,/odom,doorways,20,0,0,0.0,0.0,0.0,0.0,0.0,0.0,1.0,0.25,0.15,0.0,1.0,0.0,0.0,1.0,2000000000,0,,,0
1449618218632975326,1,1449618218632764563,/odom,doorways,20,0,0,0.0,0.0,0.0,0.0,0.0,0.0,1.0,0.25,0.15,0.0,1.0,0.0,0.0,1.0,2000000000,0,,,0
1449618218805514977,2,1449618218805341497,/odom,doorways,20,0,0,0.0,0.0,0.0,0.0,0.0,0.0,1.0,0.25,0.15,0.0,1.0,0.0,0.0,1.0,2000000000,0,,,0
1449618218945108580,3,1449618218944806193,/odom,doorways,20,0,0,0.0,0.0,0.0,0.0,0.0,0.0,1.0,0.25,0.15,0.0,1.0,0.0,0.0,1.0,2000000000,0,,,0
1449618219244108719,4,1449618219242301736,/odom,doorways,20,0,0,0.0,0.0,0.0,0.0,0.0,0.0,1.0,0.25,0.15,0.0,1.0,0.0,0.0,1.0,2000000000,0,,,0
1449618219892282864,5,1449618219891148377,/odom,doorways,20,0,0,0.0,0.0,0.0,0.0,0.0,0.0,1.0,0.25,0.15,0.0,1.0,0.0,0.0,1.0,2000000000,0,,,0
1449618220764705581,6,1449618220764358969,/odom,doorways,20,0,0,0.0,0.0,0.0,0.0,0.0,0.0,1.0,0.25,0.15,0.0,1.0,0.0,0.0,1.0,2000000000,0,,,0
1449618221160444732,7,1449618221160307682,/odom,doorways,20,0,0,0.0,0.0,0.0,0.0,0.0,0.0,1.0,0.25,0.15,0.0,1.0,0.0,0.0,1.0,2000000000,0,,,0
1449618221273844432,8,1449618221273238066,/odom,doorways,20,0,0,0.0,0.0,0.0,0.0,0.0,0.0,1.0,0.25,0.15,0.0,1.0,0.0,0.0,1.0,2000000000,0,,,0
1449618227690939252,9,1449618227687608557,/odom,doorways,20,0,0,0.589266660889,0.116570914606,0.0,0.0,0.0,0.163073201911,0.986613972544,0.25,0.15,0.0,1.0,0.0,0.0,1.0,2000000000,0,,,0
1449618227690957916,10,1449618227687636096,/odom,doorways,20,0,0,0.589266660889,0.116570914606,0.0,0.0,0.0,0.163073201911,0.986613972544,0.25,0.15,0.0,1.0,0.0,0.0,1.0,2000000000,0,,,0
1449618228111240155,11,1449618228109059315,/odom,doorways,20,0,0,0.655218242485,0.137217418283,0.0,0.0,0.0,0.142185161666,0.989840077892,0.25,0.15,0.0,1.0,0.0,0.0,1.0,2000000000,0,,,0
1449618228111250881,12,1449618228109205369,/odom,doorways,20,0,0,0.655218242485,0.137217418283,0.0,0.0,0.0,0.142185161666,0.989840077892,0.25,0.15,0.0,1.0,0.0,0.0,1.0,2000000000,0,,,0
1449618228275046308,13,1449618228274508633,/odom,doorways,20,0,0,0.744588262605,0.15962907398,0.0,0.0,0.0,0.110736931374,0.993849753247,0.25,0.15,0.0,1.0,0.0,0.0,1.0,2000000000,0,,,0
1449618228658576607,14,1449618228658498351,/odom,doorways,20,0,0,0.820930336188,0.174328972435,0.0,0.0,0.0,0.0844437083633,0.996428251365,0.25,0.15,0.0,1.0,0.0,0.0,1.0,2000000000,0,,,0
1449618228791363517,15,1449618228791056545,/odom,doorways,20,0,0,0.875012300081,0.182604816549,0.0,0.0,0.0,0.0686383068554,0.997641610415,0.25,0.15,0.0,1.0,0.0,0.0,1.0,2000000000,0,,,0
1449618228791368179,16,1449618228791186266,/odom,doorways,20,0,0,0.875012300081,0.182604816549,0.0,0.0,0.0,0.0686383068554,0.997641610415,0.25,0.15,0.0,1.0,0.0,0.0,1.0,2000000000,0,,,0
1449618229018107136,17,1449618229014011682,/odom,doorways,20,0,0,0.940767477641,0.190528486021,0.0,0.0,0.0,0.0528156577107,0.998604279132,0.25,0.15,0.0,1.0,0.0,0.0,1.0,2000000000,0,,,0
1449618229216945691,18,1449618229216405362,/odom,doorways,20,0,0,0.989542040266,0.194723039311,0.0,0.0,0.0,0.0369797368913,0.999316015612,0.25,0.15,0.0,1.0,0.0,0.0,1.0,2000000000,0,,,0
1449618229216950244,19,1449618229216491772,/odom,doorways,20,0,0,0.989542040266,0.194723039311,0.0,0.0,0.0,0.0369797368913,0.999316015612,0.25,0.15,0.0,1.0,0.0,0.0,1.0,2000000000,0,,,0
1449618229378811833,20,1449618229378459011,/odom,doorways,20,0,0,0.989542040266,0.194723039311,0.0,0.0,0.0,0.0369797368913,0.999316015612,0.25,0.15,0.0,1.0,0.0,0.0,1.0,2000000000,0,,,0
1449618240880186496,21,1449618240879152716,/odom,doorways,20,0,0,3.72783922284,1.27685686727,0.0,0.0,0.0,0.366426735412,0.930446907446,0.25,0.15,0.0,1.0,0.0,0.0,1.0,2000000000,0,,,0
1449618240880190096,22,1449618240879357612,/odom,doorways,20,0,0,3.72783922284,1.27685686727,0.0,0.0,0.0,0.366426735412,0.930446907446,0.25,0.15,0.0,1.0,0.0,0.0,1.0,2000000000,0,,,0
1449618240966537308,23,1449618240965941465,/odom,doorways,20,0,0,3.74475282086,1.29249917212,0.0,0.0,0.0,0.366426735412,0.930446907446,0.25,0.15,0.0,1.0,0.0,0.0,1.0,2000000000,0,,,0
1449618241049667307,24,1449618241048343413,/odom,doorways,20,0,0,3.75739159237,1.30428123424,0.0,0.0,0.0,0.366426735412,0.930446907446,0.25,0.15,0.0,1.0,0.0,0.0,1.0,2000000000,0,,,0
1449618241155449133,25,1449618241154671764,/odom,doorways,20,0,0,3.75739159237,1.30428123424,0.0,0.0,0.0,0.366426735412,0.930446907446,0.25,0.15,0.0,1.0,0.0,0.0,1.0,2000000000,0,,,0
1449618241260056814,26,1449618241259945535,/odom,doorways,20,0,0,3.78867547903,1.33406865637,0.0,0.0,0.0,0.371338101168,0.928497719233,0.25,0.15,0.0,1.0,0.0,0.0,1.0,2000000000,0,,,0
1449618241260336948,27,1449618241260030882,/odom,doorways,20,0,0,3.78867547903,1.33406865637,0.0,0.0,0.0,0.371338101168,0.928497719233,0.25,0.15,0.0,1.0,0.0,0.0,1.0,2000000000,0,,,0
1449618241468833554,28,1449618241467334552,/odom,doorways,20,0,0,3.82398283378,1.36798124018,0.0,0.0,0.0,0.376239098848,0.926522606577,0.25,0.15,0.0,1.0,0.0,0.0,1.0,2000000000,0,,,0
1449618241573191076,29,1449618241572817043,/odom,doorways,20,0,0,3.84654289349,1.39021850826,0.0,0.0,0.0,0.381129591614,0.924521624623,0.25,0.15,0.0,1.0,0.0,0.0,1.0,2000000000,0,,,0
1449618241573199134,30,1449618241572827042,/odom,doorways,20,0,0,3.84654289349,1.39021850826,0.0,0.0,0.0,0.381129591614,0.924521624623,0.25,0.15,0.0,1.0,0.0,0.0,1.0,2000000000,0,,,0
1449618241666477017,31,1449618241666062988,/odom,doorways,20,0,0,3.8628881501,1.40645420901,0.0,0.0,0.0,0.381129591614,0.924521624623,0.25,0.15,0.0,1.0,0.0,0.0,1.0,2000000000,0,,,0
1449618241788500311,32,1449618241787733207,/odom,doorways,20,0,0,3.87708244387,1.42076783943,0.0,0.0,0.0,0.386009442918,0.922494829242,0.25,0.15,0.0,1.0,0.0,0.0,1.0,2000000000,0,,,0
1449618241865290834,33,1449618241863202692,/odom,doorways,20,0,0,3.89729840311,1.44127724989,0.0,0.0,0.0,0.386009442918,0.922494829242,0.25,0.15,0.0,1.0,0.0,0.0,1.0,2000000000,0,,,0
1449618241960397352,34,1449618241960109384,/odom,doorways,20,0,0,3.91129706606,1.45578258301,0.0,0.0,0.0,0.390878516512,0.920442277022,0.25,0.15,0.0,1.0,0.0,0.0,1.0,2000000000,0,,,0
1449618241960400927,35,1449618241960126352,/odom,doorways,20,0,0,3.91129706606,1.45578258301,0.0,0.0,0.0,0.390878516512,0.920442277022,0.25,0.15,0.0,1.0,0.0,0.0,1.0,2000000000,0,,,0
1449618242122370419,36,1449618242121499085,/odom,doorways,20,0,0,3.94114012905,1.4870125655,0.0,0.0,0.0,0.395736676445,0.918364025273,0.25,0.15,0.0,1.0,0.0,0.0,1.0,2000000000,0,,,0
1449618242259130743,37,1449618242256763139,/odom,doorways,20,0,0,3.96836092795,1.51675229879,0.0,0.0,0.0,0.405419713065,0.91413065601,0.25,0.15,0.0,1.0,0.0,0.0,1.0,2000000000,0,,,0
1449618242354102273,38,1449618242353245904,/odom,doorways,20,0,0,3.98946656772,1.54037441462,0.0,0.0,0.0,0.410244319394,0.911975656696,0.25,0.15,0.0,1.0,0.0,0.0,1.0,2000000000,0,,,0
1449618242363990641,39,1449618242353258128,/odom,doorways,20,0,0,3.98946656772,1.54037441462,0.0,0.0,0.0,0.410244319394,0.911975656696,0.25,0.15,0.0,1.0,0.0,0.0,1.0,2000000000,0,,,0
1449618242477338805,40,1449618242477053255,/odom,doorways,20,0,0,4.00272534138,1.55555871283,0.0,0.0,0.0,0.415057471353,0.909795194247,0.25,0.15,0.0,1.0,0.0,0.0,1.0,2000000000,0,,,0
1449618242678359694,41,1449618242674878431,/odom,doorways,20,0,0,4.03255646206,1.59067390745,0.0,0.0,0.0,0.424648874937,0.905358124178,0.25,0.15,0.0,1.0,0.0,0.0,1.0,2000000000,0,,,0
1449618242678369976,42,1449618242674940359,/odom,doorways,20,0,0,4.03255646206,1.59067390745,0.0,0.0,0.0,0.424648874937,0.905358124178,0.25,0.15,0.0,1.0,0.0,0.0,1.0,2000000000,0,,,0
1449618242824670259,43,1449618242824542331,/odom,doorways,20,0,0,4.05802691479,1.62192507079,0.0,0.0,0.0,0.434192852625,0.900819941348,0.25,0.15,0.0,1.0,0.0,0.0,1.0,2000000000,0,,,0
1449618242983948793,44,1449618242982923550,/odom,doorways,20,0,0,4.08287901373,1.65366989443,0.0,0.0,0.0,0.44368833852,0.896181152592,0.25,0.15,0.0,1.0,0.0,0.0,1.0,2000000000,0,,,0
1449618242983993865,45,1449618242983129338,/odom,doorways,20,0,0,4.08287901373,1.65366989443,0.0,0.0,0.0,0.44368833852,0.896181152592,0.25,0.15,0.0,1.0,0.0,0.0,1.0,2000000000,0,,,0
1449618243071105360,46,1449618243070095532,/odom,doorways,20,0,0,4.08287901373,1.65366989443,0.0,0.0,0.0,0.44368833852,0.896181152592,0.25,0.15,0.0,1.0,0.0,0.0,1.0,2000000000,0,,,0
1449618243196986914,47,1449618243196241320,/odom,doorways,20,0,0,4.11049798064,1.69054982393,0.0,0.0,0.0,0.453134272142,0.891442275983,0.25,0.15,0.0,1.0,0.0,0.0,1.0,2000000000,0,,,0
1449618243374060595,48,1449618243373207953,/odom,doorways,20,0,0,4.13393699183,1.72335213981,0.0,0.0,0.0,0.462529598545,0.886603840771,0.25,0.15,0.0,1.0,0.0,0.0,1.0,2000000000,0,,,0
1449618243374063850,49,1449618243373298181,/odom,doorways,20,0,0,4.13393699183,1.72335213981,0.0,0.0,0.0,0.462529598545,0.886603840771,0.25,0.15,0.0,1.0,0.0,0.0,1.0,2000000000,0,,,0
1449618243572836561,50,1449618243570515308,/odom,doorways,20,0,0,4.16167102638,1.76369442125,0.0,0.0,0.0,0.46720795591,0.884147457122,0.25,0.15,0.0,1.0,0.0,0.0,1.0,2000000000,0,,,0
1449618243701675584,51,1449618243701327361,/odom,doorways,20,0,0,4.1773902937,1.78782377186,0.0,0.0,0.0,0.476525405853,0.879160700655,0.25,0.15,0.0,1.0,0.0,0.0,1.0,2000000000,0,,,0
1449618243701679740,52,1449618243701337939,/odom,doorways,20,0,0,4.1773902937,1.78782377186,0.0,0.0,0.0,0.476525405853,0.879160700655,0.25,0.15,0.0,1.0,0.0,0.0,1.0,2000000000,0,,,0
1449618243881886259,53,1449618243878601909,/odom,doorways,20,0,0,4.1773902937,1.78782377186,0.0,0.0,0.0,0.476525405853,0.879160700655,0.25,0.15,0.0,1.0,0.0,0.0,1.0,2000000000,0,,,0
1449618243985411787,54,1449618243976140071,/odom,doorways,20,0,0,4.21426990863,1.84627443197,0.0,0.0,0.0,0.485789636194,0.874075757224,0.25,0.15,0.0,1.0,0.0,0.0,1.0,2000000000,0,,,0
1449618244080470209,55,1449618244080290090,/odom,doorways,20,0,0,4.2290337268,1.87099954366,0.0,0.0,0.0,0.494999612279,0.868893194727,0.25,0.15,0.0,1.0,0.0,0.0,1.0,2000000000,0,,,0
1449618244080475747,56,1449618244080398468,/odom,doorways,20,0,0,4.2290337268,1.87099954366,0.0,0.0,0.0,0.494999612279,0.868893194727,0.25,0.15,0.0,1.0,0.0,0.0,1.0,2000000000,0,,,0
1449618244198732635,57,1449618244198326455,/odom,doorways,20,0,0,4.24217191954,1.89334056354,0.0,0.0,0.0,0.4995839333,0.866265486782,0.25,0.15,0.0,1.0,0.0,0.0,1.0,2000000000,0,,,0
1449618244198738667,58,1449618244198339187,/odom,doorways,20,0,0,4.24217191954,1.89334056354,0.0,0.0,0.0,0.4995839333,0.866265486782,0.25,0.15,0.0,1.0,0.0,0.0,1.0,2000000000,0,,,0
1449618244271995574,59,1449618244269508096,/odom,doorways,20,0,0,4.25357814632,1.9133567942,0.0,0.0,0.0,0.4995839333,0.866265486782,0.25,0.15,0.0,1.0,0.0,0.0,1.0,2000000000,0,,,0
1449618244272022007,60,1449618244269637167,/odom,doorways,20,0,0,4.25357814632,1.9133567942,0.0,0.0,0.0,0.4995839333,0.866265486782,0.25,0.15,0.0,1.0,0.0,0.0,1.0,2000000000,0,,,0
1449618244379246361,61,1449618244379004893,/odom,doorways,20,0,0,4.2635949248,1.93085022977,0.0,0.0,0.0,0.504154305513,0.863613591968,0.25,0.15,0.0,1.0,0.0,0.0,1.0,2000000000,0,,,0
1449618244379389641,62,1449618244379012162,/odom,doorways,20,0,0,4.2635949248,1.93085022977,0.0,0.0,0.0,0.504154305513,0.863613591968,0.25,0.15,0.0,1.0,0.0,0.0,1.0,2000000000,0,,,0
1449618245421328084,63,1449618245418973117,/odom,doorways,20,0,0,4.36884685841,2.14841106329,0.0,0.0,0.0,0.566604161624,0.823990123746,0.25,0.15,0.0,1.0,0.0,0.0,1.0,2000000000,0,,,0
1449618245421345181,64,1449618245418980839,/odom,doorways,20,0,0,4.36884685841,2.14841106329,0.0,0.0,0.0,0.566604161624,0.823990123746,0.25,0.15,0.0,1.0,0.0,0.0,1.0,2000000000,0,,,0
1449618245531827983,65,1449618245530985912,/odom,doorways,20,0,0,4.37961410575,2.17820144604,0.0,0.0,0.0,0.579594377205,0.814905122031,0.25,0.15,0.0,1.0,0.0,0.0,1.0,2000000000,0,,,0
1449618245531832422,66,1449618245531076494,/odom,doorways,20,0,0,4.37961410575,2.17820144604,0.0,0.0,0.0,0.579594377205,0.814905122031,0.25,0.15,0.0,1.0,0.0,0.0,1.0,2000000000,0,,,0
1449618245604410958,67,1449618245603962870,/odom,doorways,20,0,0,4.38751226178,2.20288549749,0.0,0.0,0.0,0.592438950598,0.805615348547,0.25,0.15,0.0,1.0,0.0,0.0,1.0,2000000000,0,,,0
1449618245604414705,68,1449618245603967196,/odom,doorways,20,0,0,4.38751226178,2.20288549749,0.0,0.0,0.0,0.592438950598,0.805615348547,0.25,0.15,0.0,1.0,0.0,0.0,1.0,2000000000,0,,,0
1449618245722362690,69,1449618245722207601,/odom,doorways,20,0,0,4.3940580729,2.22497404329,0.0,0.0,0.0,0.600919491781,0.799309554802,0.25,0.15,0.0,1.0,0.0,0.0,1.0,2000000000,0,,,0
1449618245722365817,70,1449618245722215700,/odom,doorways,20,0,0,4.3940580729,2.22497404329,0.0,0.0,0.0,0.600919491781,0.799309554802,0.25,0.15,0.0,1.0,0.0,0.0,1.0,2000000000,0,,,0
1449618245809063858,71,1449618245808476132,/odom,doorways,20,0,0,4.3940580729,2.22497404329,0.0,0.0,0.0,0.600919491781,0.799309554802,0.25,0.15,0.0,1.0,0.0,0.0,1.0,2000000000,0,,,0
1449618245809079469,72,1449618245808491397,/odom,doorways,20,0,0,4.3940580729,2.22497404329,0.0,0.0,0.0,0.600919491781,0.799309554802,0.25,0.15,0.0,1.0,0.0,0.0,1.0,2000000000,0,,,0
1449618259124025509,73,1449618259105864296,/odom,doorways,20,0,0,4.07961143934,4.11868996321,0.0,0.0,0.0,0.854766469886,0.519012795563,0.25,0.15,0.0,1.0,0.0,0.0,1.0,2000000000,0,,,0
1449618259124060162,74,1449618259105975373,/odom,doorways,20,0,0,4.07961143934,4.11868996321,0.0,0.0,0.0,0.854766469886,0.519012795563,0.25,0.15,0.0,1.0,0.0,0.0,1.0,2000000000,0,,,0
1449618271335359144,75,1449618271329949604,/odom,doorways,20,0,0,2.30064840008,6.42391932236,0.0,0.0,0.0,0.906983329505,0.421166522886,0.25,0.15,0.0,1.0,0.0,0.0,1.0,2000000000,0,,,0
1449618271632966830,76,1449618271632164018,/odom,doorways,20,0,0,2.30064840008,6.42391932236,0.0,0.0,0.0,0.906983329505,0.421166522886,0.25,0.15,0.0,1.0,0.0,0.0,1.0,2000000000,0,,,0
1449618272150006618,77,1449618272148707571,/odom,doorways,20,0,0,2.30803429433,6.41507985352,0.0,0.0,0.0,0.906983329505,0.421166522886,0.25,0.15,0.0,1.0,0.0,0.0,1.0,2000000000,0,,,0
1449618280271593975,78,1449618280267487861,/odom,doorways,20,0,0,4.00585683554,4.84585914537,0.0,0.0,0.0,0.995837828637,0.0911428497231,0.25,0.15,0.0,1.0,0.0,0.0,1.0,2000000000,0,,,0
1449618280271612319,80,1449618280267551250,/odom,doorways,20,0,0,4.00585683554,4.84585914537,0.0,0.0,0.0,0.995837828637,0.0911428497231,0.25,0.15,0.0,1.0,0.0,0.0,1.0,2000000000,0,,,0
1449618280801806116,81,1449618280795802378,/odom,doorways,20,0,0,4.0372223483,4.84152265191,0.0,0.0,0.0,0.999044726169,0.043699372,0.25,0.15,0.0,1.0,0.0,0.0,1.0,2000000000,0,,,0
1449618280801811185,82,1449618280795811489,/odom,doorways,20,0,0,4.0372223483,4.84152265191,0.0,0.0,0.0,0.999044726169,0.043699372,0.25,0.15,0.0,1.0,0.0,0.0,1.0,2000000000,0,,,0
1449618280801815867,83,1449618280795852148,/odom,doorways,20,0,0,4.0372223483,4.84152265191,0.0,0.0,0.0,0.999044726169,0.043699372,0.25,0.15,0.0,1.0,0.0,0.0,1.0,2000000000,0,,,0
1449618281112200073,84,1449618281111140917,/odom,doorways,20,0,0,4.04009549544,4.8413319101,0.0,0.0,0.0,0.999850476852,0.0172923086519,0.25,0.15,0.0,1.0,0.0,0.0,1.0,2000000000,0,,,0
1449618281113022473,86,1449618281111193793,/odom,doorways,20,0,0,4.04009549544,4.8413319101,0.0,0.0,0.0,0.999850476852,0.0172923086519,0.25,0.15,0.0,1.0,0.0,0.0,1.0,2000000000,0,,,0
1449618281443966724,87,1449618281439044322,/odom,doorways,20,0,0,4.03721653278,4.84140107117,0.0,0.0,0.0,0.99992789107,0.0120088575724,0.25,0.15,0.0,1.0,0.0,0.0,1.0,2000000000,0,,,0
1449618281443971252,88,1449618281439164016,/odom,doorways,20,0,0,4.03721653278,4.84140107117,0.0,0.0,0.0,0.99992789107,0.0120088575724,0.25,0.15,0.0,1.0,0.0,0.0,1.0,2000000000,0,,,0
1449618281443973526,89,1449618281439298015,/odom,doorways,20,0,0,4.03721653278,4.84140107117,0.0,0.0,0.0,0.99992789107,0.0120088575724,0.25,0.15,0.0,1.0,0.0,0.0,1.0,2000000000,0,,,0
1449618281768271485,90,1449618281767847124,/odom,doorways,20,0,0,4.02282147089,4.84171644046,0.0,0.0,0.0,0.999977386453,0.00672507119539,0.25,0.15,0.0,1.0,0.0,0.0,1.0,2000000000,0,,,0
1449618281773806709,91,1449618281767855887,/odom,doorways,20,0,0,4.02282147089,4.84171644046,0.0,0.0,0.0,0.999977386453,0.00672507119539,0.25,0.15,0.0,1.0,0.0,0.0,1.0,2000000000,0,,,0
1449618281774176769,92,1449618281773830726,/odom,doorways,20,0,0,4.02282147089,4.84171644046,0.0,0.0,0.0,0.999977386453,0.00672507119539,0.25,0.15,0.0,1.0,0.0,0.0,1.0,2000000000,0,,,0
1449618282013332689,93,1449618282012957317,/odom,doorways,20,0,0,4.02282147089,4.84171644046,0.0,0.0,0.0,0.999977386453,0.00672507119539,0.25,0.15,0.0,1.0,0.0,0.0,1.0,2000000000,0,,,0
1449618282013349907,94,1449618282012964783,/odom,doorways,20,0,0,4.02282147089,4.84171644046,0.0,0.0,0.0,0.999977386453,0.00672507119539,0.25,0.15,0.0,1.0,0.0,0.0,1.0,2000000000,0,,,0
1449618282505422138,95,1449618282504355904,/odom,doorways,20,0,0,3.93123897091,4.83290941839,0.0,0.0,0.0,-0.996096383514,0.088272276228,0.25,0.15,0.0,1.0,0.0,0.0,1.0,2000000000,0,,,0
1449618282505436536,96,1449618282504455993,/odom,doorways,20,0,0,3.93123897091,4.83290941839,0.0,0.0,0.0,-0.996096383514,0.088272276228,0.25,0.15,0.0,1.0,0.0,0.0,1.0,2000000000,0,,,0
1449618287401231270,97,1449618287399488443,/odom,doorways,20,0,0,3.51253244283,4.45954410589,0.0,0.0,0.0,-0.812671771464,0.58272171048,0.25,0.15,0.0,1.0,0.0,0.0,1.0,2000000000,0,,,0
1449618287401243711,98,1449618287399572727,/odom,doorways,20,0,0,3.51253244283,4.45954410589,0.0,0.0,0.0,-0.812671771464,0.58272171048,0.25,0.15,0.0,1.0,0.0,0.0,1.0,2000000000,0,,,0
1449618287750799586,99,1449618287730100681,/odom,doorways,20,0,0,3.48185473832,4.35751918267,0.0,0.0,0.0,-0.796994368742,0.603986735114,0.25,0.15,0.0,1.0,0.0,0.0,1.0,2000000000,0,,,0
1449618287750804378,100,1449618287730118136,/odom,doorways,20,0,0,3.48185473832,4.35751918267,0.0,0.0,0.0,-0.796994368742,0.603986735114,0.25,0.15,0.0,1.0,0.0,0.0,1.0,2000000000,0,,,0
1449618287993914677,101,1449618287993538604,/odom,doorways,20,0,0,3.46078885835,4.2737375542,0.0,0.0,0.0,-0.78405138092,0.620695925617,0.25,0.15,0.0,1.0,0.0,0.0,1.0,2000000000,0,,,0
1449618288188136603,102,1449618288187320462,/odom,doorways,20,0,0,3.44855178558,4.21745742034,0.0,0.0,0.0,-0.777448175806,0.628947004076,0.25,0.15,0.0,1.0,0.0,0.0,1.0,2000000000,0,,,0
1449618288188139595,103,1449618288187328738,/odom,doorways,20,0,0,3.44855178558,4.21745742034,0.0,0.0,0.0,-0.777448175806,0.628947004076,0.25,0.15,0.0,1.0,0.0,0.0,1.0,2000000000,0,,,0
1449618288405727787,104,1449618288404411170,/odom,doorways,20,0,0,3.43533972608,4.14961775794,0.0,0.0,0.0,-0.770758143248,0.63712784009,0.25,0.15,0.0,1.0,0.0,0.0,1.0,2000000000,0,,,0
1449618288611506131,105,1449618288610714348,/odom,doorways,20,0,0,3.42636582224,4.09856489561,0.0,0.0,0.0,-0.763982030406,0.645237520001,0.25,0.15,0.0,1.0,0.0,0.0,1.0,2000000000,0,,,0
1449618288611509759,106,1449618288610722937,/odom,doorways,20,0,0,3.42636582224,4.09856489561,0.0,0.0,0.0,-0.763982030406,0.645237520001,0.25,0.15,0.0,1.0,0.0,0.0,1.0,2000000000,0,,,0
1449618288866078504,107,1449618288859947992,/odom,doorways,20,0,0,3.413020467,4.01030001988,0.0,0.0,0.0,-0.753658118662,0.657266643133,0.25,0.15,0.0,1.0,0.0,0.0,1.0,2000000000,0,,,0
1449618289110173769,108,1449618289108946855,/odom,doorways,20,0,0,3.40419515907,3.93885123499,0.0,0.0,0.0,-0.743144825477,0.669130606359,0.25,0.15,0.0,1.0,0.0,0.0,1.0,2000000000,0,,,0
1449618289110192894,109,1449618289108954497,/odom,doorways,20,0,0,3.40419515907,3.93885123499,0.0,0.0,0.0,-0.743144825477,0.669130606359,0.25,0.15,0.0,1.0,0.0,0.0,1.0,2000000000,0,,,0
1449618289381622415,110,1449618289379715727,/odom,doorways,20,0,0,3.39710198641,3.85564375375,0.0,0.0,0.0,-0.732444792664,0.680826428468,0.25,0.15,0.0,1.0,0.0,0.0,1.0,2000000000,0,,,0
1449618289579173210,111,1449618289575745235,/odom,doorways,20,0,0,3.3945633704,3.8067547422,0.0,0.0,0.0,-0.721560708957,0.692351170498,0.25,0.15,0.0,1.0,0.0,0.0,1.0,2000000000,0,,,0
1449618289579176506,112,1449618289575760509,/odom,doorways,20,0,0,3.3945633704,3.8067547422,0.0,0.0,0.0,-0.721560708957,0.692351170498,0.25,0.15,0.0,1.0,0.0,0.0,1.0,2000000000,0,,,0
1449618289775821548,113,1449618289753868999,/odom,doorways,20,0,0,3.39276261107,3.74918943983,0.0,0.0,0.0,-0.714203751383,0.699937855464,0.25,0.15,0.0,1.0,0.0,0.0,1.0,2000000000,0,,,0
1449618289848355485,114,1449618289846376079,/odom,doorways,20,0,0,3.39249424458,3.71175346038,0.0,0.0,0.0,-0.710495309341,0.703701936479,0.25,0.15,0.0,1.0,0.0,0.0,1.0,2000000000,0,,,0
1449618290000298389,115,1449618290000158168,/odom,doorways,20,0,0,3.3927404765,3.67719728749,0.0,0.0,0.0,-0.703019016459,0.711171050098,0.25,0.15,0.0,1.0,0.0,0.0,1.0,2000000000,0,,,0
1449618290000317052,116,1449618290000240244,/odom,doorways,20,0,0,3.3927404765,3.67719728749,0.0,0.0,0.0,-0.703019016459,0.711171050098,0.25,0.15,0.0,1.0,0.0,0.0,1.0,2000000000,0,,,0
1449618290172864733,117,1449618290172768235,/odom,doorways,20,0,0,3.39459383472,3.6167515212,0.0,0.0,0.0,-0.691657624837,0.722225539568,0.25,0.15,0.0,1.0,0.0,0.0,1.0,2000000000,0,,,0
1449618290173002374,118,1449618290172897086,/odom,doorways,20,0,0,3.39459383472,3.6167515212,0.0,0.0,0.0,-0.691657624837,0.722225539568,0.25,0.15,0.0,1.0,0.0,0.0,1.0,2000000000,0,,,0
1449618290173639836,119,1449618290173183985,/odom,doorways,20,0,0,3.39459383472,3.6167515212,0.0,0.0,0.0,-0.691657624837,0.722225539568,0.25,0.15,0.0,1.0,0.0,0.0,1.0,2000000000,0,,,0
1449618290410872331,120,1449618290410655360,/odom,doorways,20,0,0,3.3979398935,3.55348639369,0.0,0.0,0.0,-0.683986629181,0.729494544943,0.25,0.15,0.0,1.0,0.0,0.0,1.0,2000000000,0,,,0
1449618290410876300,121,1449618290410749961,/odom,doorways,20,0,0,3.3979398935,3.55348639369,0.0,0.0,0.0,-0.683986629181,0.729494544943,0.25,0.15,0.0,1.0,0.0,0.0,1.0,2000000000,0,,,0
1449618290410879849,122,1449618290410830689,/odom,doorways,20,0,0,3.3979398935,3.55348639369,0.0,0.0,0.0,-0.683986629181,0.729494544943,0.25,0.15,0.0,1.0,0.0,0.0,1.0,2000000000,0,,,0
1449618290411043737,123,1449618290410907820,/odom,doorways,20,0,0,3.3979398935,3.55348639369,0.0,0.0,0.0,-0.683986629181,0.729494544943,0.25,0.15,0.0,1.0,0.0,0.0,1.0,2000000000,0,,,0
1449618290548819371,124,1449618290548591278,/odom,doorways,20,0,0,3.40087031528,3.51038954461,0.0,0.0,0.0,-0.680122431443,0.733098546069,0.25,0.15,0.0,1.0,0.0,0.0,1.0,2000000000,0,,,0
1449618290548922186,125,1449618290548802800,/odom,doorways,20,0,0,3.40087031528,3.51038954461,0.0,0.0,0.0,-0.680122431443,0.733098546069,0.25,0.15,0.0,1.0,0.0,0.0,1.0,2000000000,0,,,0
1449618290549500066,126,1449618290549237462,/odom,doorways,20,0,0,3.40087031528,3.51038954461,0.0,0.0,0.0,-0.680122431443,0.733098546069,0.25,0.15,0.0,1.0,0.0,0.0,1.0,2000000000,0,,,0
1449618290686812644,127,1449618290686274231,/odom,doorways,20,0,0,3.40345753156,3.47592901002,0.0,0.0,0.0,-0.680122431443,0.733098546069,0.25,0.15,0.0,1.0,0.0,0.0,1.0,2000000000,0,,,0
1449618290686816962,129,1449618290686284158,/odom,doorways,20,0,0,3.40345753156,3.47592901002,0.0,0.0,0.0,-0.680122431443,0.733098546069,0.25,0.15,0.0,1.0,0.0,0.0,1.0,2000000000,0,,,0
1449618290879464241,130,1449618290879324693,/odom,doorways,20,0,0,3.40914092338,3.4128298502,0.0,0.0,0.0,-0.672337175604,0.740245042065,0.25,0.15,0.0,1.0,0.0,0.0,1.0,2000000000,0,,,0
1449618290879539355,131,1449618290879443121,/odom,doorways,20,0,0,3.40914092338,3.4128298502,0.0,0.0,0.0,-0.672337175604,0.740245042065,0.25,0.15,0.0,1.0,0.0,0.0,1.0,2000000000,0,,,0
1449618290879736246,132,1449618290879620652,/odom,doorways,20,0,0,3.40914092338,3.4128298502,0.0,0.0,0.0,-0.672337175604,0.740245042065,0.25,0.15,0.0,1.0,0.0,0.0,1.0,2000000000,0,,,0
1449618290879739693,133,1449618290879706422,/odom,doorways,20,0,0,3.40914092338,3.4128298502,0.0,0.0,0.0,-0.672337175604,0.740245042065,0.25,0.15,0.0,1.0,0.0,0.0,1.0,2000000000,0,,,0
1449618291051547981,134,1449618291051012271,/odom,doorways,20,0,0,3.40914092338,3.4128298502,0.0,0.0,0.0,-0.672337175604,0.740245042065,0.25,0.15,0.0,1.0,0.0,0.0,1.0,2000000000,0,,,0
1449618291051551357,136,1449618291051019599,/odom,doorways,20,0,0,3.40914092338,3.4128298502,0.0,0.0,0.0,-0.672337175604,0.740245042065,0.25,0.15,0.0,1.0,0.0,0.0,1.0,2000000000,0,,,0
1449618291282061268,137,1449618291281562757,/odom,doorways,20,0,0,3.4220749955,3.29257594796,0.0,0.0,0.0,-0.664476831391,0.74730886556,0.25,0.15,0.0,1.0,0.0,0.0,1.0,2000000000,0,,,0
1449618291282066043,140,1449618291281625440,/odom,doorways,20,0,0,3.4220749955,3.29257594796,0.0,0.0,0.0,-0.664476831391,0.74730886556,0.25,0.15,0.0,1.0,0.0,0.0,1.0,2000000000,0,,,0
1449618291479180066,141,1449618291478289855,/odom,doorways,20,0,0,3.42956996303,3.23256728213,0.0,0.0,0.0,-0.660518775153,0.750809528223,0.25,0.15,0.0,1.0,0.0,0.0,1.0,2000000000,0,,,0
1449618291479185547,143,1449618291478298652,/odom,doorways,20,0,0,3.42956996303,3.23256728213,0.0,0.0,0.0,-0.660518775153,0.750809528223,0.25,0.15,0.0,1.0,0.0,0.0,1.0,2000000000,0,,,0
1449618291679211980,144,1449618291678738290,/odom,doorways,20,0,0,3.4375780162,3.17262502256,0.0,0.0,0.0,-0.65654227667,0.754289227648,0.25,0.15,0.0,1.0,0.0,0.0,1.0,2000000000,0,,,0
1449618291679215049,147,1449618291678815116,/odom,doorways,20,0,0,3.4375780162,3.17262502256,0.0,0.0,0.0,-0.65654227667,0.754289227648,0.25,0.15,0.0,1.0,0.0,0.0,1.0,2000000000,0,,,0
1449618291843634812,148,1449618291843312707,/odom,doorways,20,0,0,3.44600801939,3.11274183784,0.0,0.0,0.0,-0.652547446969,0.757747866677,0.25,0.15,0.0,1.0,0.0,0.0,1.0,2000000000,0,,,0
1449618291843638359,150,1449618291843319883,/odom,doorways,20,0,0,3.44600801939,3.11274183784,0.0,0.0,0.0,-0.652547446969,0.757747866677,0.25,0.15,0.0,1.0,0.0,0.0,1.0,2000000000,0,,,0
1449618292073455112,151,1449618292072940603,/odom,doorways,20,0,0,3.45534128011,3.05299156173,0.0,0.0,0.0,-0.648534397591,0.761185348744,0.25,0.15,0.0,1.0,0.0,0.0,1.0,2000000000,0,,,0
1449618292073462469,152,1449618292072968707,/odom,doorways,20,0,0,3.45534128011,3.05299156173,0.0,0.0,0.0,-0.648534397591,0.761185348744,0.25,0.15,0.0,1.0,0.0,0.0,1.0,2000000000,0,,,0
1449618292277360153,153,1449618292277090019,/odom,doorways,20,0,0,3.46524540876,2.99333327116,0.0,0.0,0.0,-0.644503240582,0.764601577869,0.25,0.15,0.0,1.0,0.0,0.0,1.0,2000000000,0,,,0
1449618292474811711,154,1449618292474502028,/odom,doorways,20,0,0,3.46524540876,2.99333327116,0.0,0.0,0.0,-0.644503240582,0.764601577869,0.25,0.15,0.0,1.0,0.0,0.0,1.0,2000000000,0,,,0
1449618292474827094,155,1449618292474508938,/odom,doorways,20,0,0,3.46524540876,2.99333327116,0.0,0.0,0.0,-0.644503240582,0.764601577869,0.25,0.15,0.0,1.0,0.0,0.0,1.0,2000000000,0,,,0
1449618292702676537,156,1449618292702104964,/odom,doorways,20,0,0,3.48698063295,2.87142627975,0.0,0.0,0.0,-0.640454088495,0.76799645867,0.25,0.15,0.0,1.0,0.0,0.0,1.0,2000000000,0,,,0
1449618292854562839,157,1449618292853829227,/odom,doorways,20,0,0,3.49832285467,2.81202438423,0.0,0.0,0.0,-0.636387054388,0.771369896358,0.25,0.15,0.0,1.0,0.0,0.0,1.0,2000000000,0,,,0
1449618292854566853,158,1449618292853835888,/odom,doorways,20,0,0,3.49832285467,2.81202438423,0.0,0.0,0.0,-0.636387054388,0.771369896358,0.25,0.15,0.0,1.0,0.0,0.0,1.0,2000000000,0,,,0
1449618292988205841,159,1449618292987050708,/odom,doorways,20,0,0,3.50598403342,2.772441871,0.0,0.0,0.0,-0.636387054388,0.771369896358,0.25,0.15,0.0,1.0,0.0,0.0,1.0,2000000000,0,,,0
1449618292988212361,160,1449618292987144298,/odom,doorways,20,0,0,3.50598403342,2.772441871,0.0,0.0,0.0,-0.636387054388,0.771369896358,0.25,0.15,0.0,1.0,0.0,0.0,1.0,2000000000,0,,,0
1449618293604974386,161,1449618293604595741,/odom,doorways,20,0,0,3.53971160575,2.59417993312,0.0,0.0,0.0,-0.640454088495,0.76799645867,0.25,0.15,0.0,1.0,0.0,0.0,1.0,2000000000,0,,,0
1449618293604988136,162,1449618293604603272,/odom,doorways,20,0,0,3.53971160575,2.59417993312,0.0,0.0,0.0,-0.640454088495,0.76799645867,0.25,0.15,0.0,1.0,0.0,0.0,1.0,2000000000,0,,,0
1449618293774296947,163,1449618293774014183,/odom,doorways,20,0,0,3.53971160575,2.59417993312,0.0,0.0,0.0,-0.640454088495,0.76799645867,0.25,0.15,0.0,1.0,0.0,0.0,1.0,2000000000,0,,,0
1449618294017374894,164,1449618294015067821,/odom,doorways,20,0,0,3.56068065232,2.45174246833,0.0,0.0,0.0,-0.664476831391,0.74730886556,0.25,0.15,0.0,1.0,0.0,0.0,1.0,2000000000,0,,,0
1449618294017390901,165,1449618294015074573,/odom,doorways,20,0,0,3.56068065232,2.45174246833,0.0,0.0,0.0,-0.664476831391,0.74730886556,0.25,0.15,0.0,1.0,0.0,0.0,1.0,2000000000,0,,,0
1449618294184276421,166,1449618294183654379,/odom,doorways,20,0,0,3.56617124435,2.39730623327,0.0,0.0,0.0,-0.67623924411,0.736682078461,0.25,0.15,0.0,1.0,0.0,0.0,1.0,2000000000,0,,,0
1449618294377677973,167,1449618294377162148,/odom,doorways,20,0,0,3.57100536116,2.33413750653,0.0,0.0,0.0,-0.683986629181,0.729494544943,0.25,0.15,0.0,1.0,0.0,0.0,1.0,2000000000,0,,,0
1449618294377681287,168,1449618294377172906,/odom,doorways,20,0,0,3.57100536116,2.33413750653,0.0,0.0,0.0,-0.683986629181,0.729494544943,0.25,0.15,0.0,1.0,0.0,0.0,1.0,2000000000,0,,,0
1449618294576794433,169,1449618294576254995,/odom,doorways,20,0,0,3.57392302318,2.2737340799,0.0,0.0,0.0,-0.695464208575,0.718560738275,0.25,0.15,0.0,1.0,0.0,0.0,1.0,2000000000,0,,,0
1449618294794137324,170,1449618294792406420,/odom,doorways,20,0,0,3.57524537411,2.19599488613,0.0,0.0,0.0,-0.706767029667,0.70744636954,0.25,0.15,0.0,1.0,0.0,0.0,1.0,2000000000,0,,,0
1449618294794190917,171,1449618294792414721,/odom,doorways,20,0,0,3.57524537411,2.19599488613,0.0,0.0,0.0,-0.706767029667,0.70744636954,0.25,0.15,0.0,1.0,0.0,0.0,1.0,2000000000,0,,,0
1449618294997084959,172,1449618294996917313,/odom,doorways,20,0,0,3.57436283505,2.13264643676,0.0,0.0,0.0,-0.714203751383,0.699937855464,0.25,0.15,0.0,1.0,0.0,0.0,1.0,2000000000,0,,,0
1449618295843671024,173,1449618295842568520,/odom,doorways,20,0,0,3.55512571249,1.87715750587,0.0,0.0,0.0,-0.746670136818,0.665194487938,0.25,0.15,0.0,1.0,0.0,0.0,1.0,2000000000,0,,,0
1449618295843687880,174,1449618295842581443,/odom,doorways,20,0,0,3.55512571249,1.87715750587,0.0,0.0,0.0,-0.746670136818,0.665194487938,0.25,0.15,0.0,1.0,0.0,0.0,1.0,2000000000,0,,,0
1449618295969189311,175,1449618295968999057,/odom,doorways,20,0,0,3.55063705753,1.84289321408,0.0,0.0,0.0,-0.753658118662,0.657266643133,0.25,0.15,0.0,1.0,0.0,0.0,1.0,2000000000,0,,,0
1449618296203531269,176,1449618296201350400,/odom,doorways,20,0,0,3.53976130258,1.76881472401,0.0,0.0,0.0,-0.760561929997,0.649265393071,0.25,0.15,0.0,1.0,0.0,0.0,1.0,2000000000,0,,,0
1449618296203534456,177,1449618296201362005,/odom,doorways,20,0,0,3.53976130258,1.76881472401,0.0,0.0,0.0,-0.760561929997,0.649265393071,0.25,0.15,0.0,1.0,0.0,0.0,1.0,2000000000,0,,,0
1449618296365255600,178,1449618296360249143,/odom,doorways,20,0,0,3.53211118669,1.72337880817,0.0,0.0,0.0,-0.767380799788,0.641191631353,0.25,0.15,0.0,1.0,0.0,0.0,1.0,2000000000,0,,,0
1449618296365260395,179,1449618296360253907,/odom,doorways,20,0,0,3.53211118669,1.72337880817,0.0,0.0,0.0,-0.767380799788,0.641191631353,0.25,0.15,0.0,1.0,0.0,0.0,1.0,2000000000,0,,,0
1449618298489229672,180,1449618298489126109,/odom,doorways,20,0,0,3.34077560156,1.15242467891,0.0,0.0,0.0,-0.858976294351,0.512015356941,0.25,0.15,0.0,1.0,0.0,0.0,1.0,2000000000,0,,,0
1449618298888761691,181,1449618298888484113,/odom,doorways,20,0,0,3.28267375646,1.05636306279,0.0,0.0,0.0,-0.882345486994,0.47060221162,0.25,0.15,0.0,1.0,0.0,0.0,1.0,2000000000,0,,,0
1449618298888800583,182,1449618298888490462,/odom,doorways,20,0,0,3.28267375646,1.05636306279,0.0,0.0,0.0,-0.882345486994,0.47060221162,0.25,0.15,0.0,1.0,0.0,0.0,1.0,2000000000,0,,,0
1449618301634174136,183,1449618301633611447,/odom,doorways,20,0,0,2.66693186493,0.522608236578,0.0,0.0,0.0,-0.965676724889,0.259746921074,0.25,0.15,0.0,1.0,0.0,0.0,1.0,2000000000,0,,,0
1449618303363176945,184,1449618303362156859,/odom,doorways,20,0,0,2.17748459041,0.359985137613,0.0,0.0,0.0,-0.9956160469,0.0935344169528,0.25,0.15,0.0,1.0,0.0,0.0,1.0,2000000000,0,,,0
1449618303363182365,185,1449618303362163633,/odom,doorways,20,0,0,2.17748459041,0.359985137613,0.0,0.0,0.0,-0.9956160469,0.0935344169528,0.25,0.15,0.0,1.0,0.0,0.0,1.0,2000000000,0,,,0
1449618303796896353,186,1449618303796319770,/odom,doorways,20,0,0,2.10110814883,0.34541386342,0.0,0.0,0.0,-0.995107911842,0.0987939461174,0.25,0.15,0.0,1.0,0.0,0.0,1.0,2000000000,0,,,0
1449618303796908339,187,1449618303796328550,/odom,doorways,20,0,0,2.10110814883,0.34541386342,0.0,0.0,0.0,-0.995107911842,0.0987939461174,0.25,0.15,0.0,1.0,0.0,0.0,1.0,2000000000,0,,,0
1449618304150158678,188,1449618304146967080,/odom,doorways,20,0,0,2.03929804616,0.33152907716,0.0,0.0,0.0,-0.992797682548,0.119803011343,0.25,0.15,0.0,1.0,0.0,0.0,1.0,2000000000,0,,,0
1449618304150163011,189,1449618304146972950,/odom,doorways,20,0,0,2.03929804616,0.33152907716,0.0,0.0,0.0,-0.992797682548,0.119803011343,0.25,0.15,0.0,1.0,0.0,0.0,1.0,2000000000,0,,,0
1449618304462436748,190,1449618304462094283,/odom,doorways,20,0,0,1.96699505792,0.312098262349,0.0,0.0,0.0,-0.990043952678,0.140758558408,0.25,0.15,0.0,1.0,0.0,0.0,1.0,2000000000,0,,,0
1449618304463001271,191,1449618304462718599,/odom,doorways,20,0,0,1.96699505792,0.312098262349,0.0,0.0,0.0,-0.990043952678,0.140758558408,0.25,0.15,0.0,1.0,0.0,0.0,1.0,2000000000,0,,,0
1449618304664033036,192,1449618304657434123,/odom,doorways,20,0,0,1.92551080345,0.300058936984,0.0,0.0,0.0,-0.989286363057,0.14598798536,0.25,0.15,0.0,1.0,0.0,0.0,1.0,2000000000,0,,,0
1449618304909286864,193,1449618304907206101,/odom,doorways,20,0,0,1.88688630386,0.288500975222,0.0,0.0,0.0,-0.989286363057,0.14598798536,0.25,0.15,0.0,1.0,0.0,0.0,1.0,2000000000,0,,,0
1449618304909293955,194,1449618304907286399,/odom,doorways,20,0,0,1.88688630386,0.288500975222,0.0,0.0,0.0,-0.989286363057,0.14598798536,0.25,0.15,0.0,1.0,0.0,0.0,1.0,2000000000,0,,,0
1449618305065280456,195,1449618305063216658,/odom,doorways,20,0,0,1.8483145477,0.276768197382,0.0,0.0,0.0,-0.989286363057,0.14598798536,0.25,0.15,0.0,1.0,0.0,0.0,1.0,2000000000,0,,,0
1449618305229340708,196,1449618305229247644,/odom,doorways,20,0,0,1.8483145477,0.276768197382,0.0,0.0,0.0,-0.989286363057,0.14598798536,0.25,0.15,0.0,1.0,0.0,0.0,1.0,2000000000,0,,,0
1449618305229344237,197,1449618305229253698,/odom,doorways,20,0,0,1.8483145477,0.276768197382,0.0,0.0,0.0,-0.989286363057,0.14598798536,0.25,0.15,0.0,1.0,0.0,0.0,1.0,2000000000,0,,,0
1449618305473981485,198,1449618305471202424,/odom,doorways,20,0,0,1.78449516408,0.259070706964,0.0,0.0,0.0,-0.992797682548,0.119803011343,0.25,0.15,0.0,1.0,0.0,0.0,1.0,2000000000,0,,,0
1449618305663021185,199,1449618305662037213,/odom,doorways,20,0,0,1.74510458381,0.250488682293,0.0,0.0,0.0,-0.995107911842,0.0987939461174,0.25,0.15,0.0,1.0,0.0,0.0,1.0,2000000000,0,,,0
1449618305663051435,200,1449618305662045579,/odom,doorways,20,0,0,1.74510458381,0.250488682293,0.0,0.0,0.0,-0.995107911842,0.0987939461174,0.25,0.15,0.0,1.0,0.0,0.0,1.0,2000000000,0,,,0
1449618305876171342,201,1449618305874444904,/odom,doorways,20,0,0,1.70250771947,0.243342881458,0.0,0.0,0.0,-0.997370472456,0.0724716542662,0.25,0.15,0.0,1.0,0.0,0.0,1.0,2000000000,0,,,0
1449618306194808157,202,1449618306192885794,/odom,doorways,20,0,0,1.6423786056,0.236986906152,0.0,0.0,0.0,-0.999368269331,0.0355395871315,0.25,0.15,0.0,1.0,0.0,0.0,1.0,2000000000,0,,,0
1449618306194811719,203,1449618306192897295,/odom,doorways,20,0,0,1.6423786056,0.236986906152,0.0,0.0,0.0,-0.999368269331,0.0355395871315,0.25,0.15,0.0,1.0,0.0,0.0,1.0,2000000000,0,,,0
1449618306509648593,204,1449618306509021639,/odom,doorways,20,0,0,1.58774105386,0.234133176221,0.0,0.0,0.0,-0.99980605976,0.019693726582,0.25,0.15,0.0,1.0,0.0,0.0,1.0,2000000000,0,,,0
1449618306509677102,205,1449618306509033629,/odom,doorways,20,0,0,1.58774105386,0.234133176221,0.0,0.0,0.0,-0.99980605976,0.019693726582,0.25,0.15,0.0,1.0,0.0,0.0,1.0,2000000000,0,,,0
1449618306855696778,206,1449618306853735433,/odom,doorways,20,0,0,1.58774105386,0.234133176221,0.0,0.0,0.0,-0.99980605976,0.019693726582,0.25,0.15,0.0,1.0,0.0,0.0,1.0,2000000000,0,,,0
1449618306855700387,207,1449618306853764412,/odom,doorways,20,0,0,1.58774105386,0.234133176221,0.0,0.0,0.0,-0.99980605976,0.019693726582,0.25,0.15,0.0,1.0,0.0,0.0,1.0,2000000000,0,,,0
1449618307161322133,208,1449618307160691816,/odom,doorways,20,0,0,1.41209317923,0.232844020844,0.0,0.0,0.0,0.999977386453,0.00672507119539,0.25,0.15,0.0,1.0,0.0,0.0,1.0,2000000000,0,,,0
1449618307161330991,209,1449618307160774053,/odom,doorways,20,0,0,1.41209317923,0.232844020844,0.0,0.0,0.0,0.999977386453,0.00672507119539,0.25,0.15,0.0,1.0,0.0,0.0,1.0,2000000000,0,,,0
1449618307455655228,210,1449618307454831245,/odom,doorways,20,0,0,1.32572134611,0.234675387723,0.0,0.0,0.0,0.999850476852,0.0172923086519,0.25,0.15,0.0,1.0,0.0,0.0,1.0,2000000000,0,,,0
1449618307715968782,211,1449618307710953412,/odom,doorways,20,0,0,1.23075445858,0.23817441528,0.0,0.0,0.0,0.999745145961,0.0225752769154,0.25,0.15,0.0,1.0,0.0,0.0,1.0,2000000000,0,,,0
1449618307715984156,212,1449618307710965469,/odom,doorways,20,0,0,1.23075445858,0.23817441528,0.0,0.0,0.0,0.999745145961,0.0225752769154,0.25,0.15,0.0,1.0,0.0,0.0,1.0,2000000000,0,,,0
1449618308053033778,213,1449618308052758979,/odom,doorways,20,0,0,1.14161489641,0.243024714199,0.0,0.0,0.0,0.999611901337,0.0278576148581,0.25,0.15,0.0,1.0,0.0,0.0,1.0,2000000000,0,,,0
1449618308053040056,214,1449618308052767130,/odom,doorways,20,0,0,1.14161489641,0.243024714199,0.0,0.0,0.0,0.999611901337,0.0278576148581,0.25,0.15,0.0,1.0,0.0,0.0,1.0,2000000000,0,,,0
1449618308312831313,215,1449618308311937064,/odom,doorways,20,0,0,1.06117302565,0.248578571439,0.0,0.0,0.0,0.999261686552,0.0384198098531,0.25,0.15,0.0,1.0,0.0,0.0,1.0,2000000000,0,,,0
1449618308312871341,216,1449618308311954041,/odom,doorways,20,0,0,1.06117302565,0.248578571439,0.0,0.0,0.0,0.999261686552,0.0384198098531,0.25,0.15,0.0,1.0,0.0,0.0,1.0,2000000000,0,,,0
1449618308501045234,217,1449618308500840266,/odom,doorways,20,0,0,1.00091086033,0.253646701682,0.0,0.0,0.0,0.999044726169,0.043699372,0.25,0.15,0.0,1.0,0.0,0.0,1.0,2000000000,0,,,0
1449618308501054532,218,1449618308500957587,/odom,doorways,20,0,0,1.00091086033,0.253646701682,0.0,0.0,0.0,0.999044726169,0.043699372,0.25,0.15,0.0,1.0,0.0,0.0,1.0,2000000000,0,,,0
1449618308501224620,219,1449618308501065909,/odom,doorways,20,0,0,1.00091086033,0.253646701682,0.0,0.0,0.0,0.999044726169,0.043699372,0.25,0.15,0.0,1.0,0.0,0.0,1.0,2000000000,0,,,0
1449618308501230230,220,1449618308501158195,/odom,doorways,20,0,0,1.00091086033,0.253646701682,0.0,0.0,0.0,0.999044726169,0.043699372,0.25,0.15,0.0,1.0,0.0,0.0,1.0,2000000000,0,,,0
1449618308759233764,221,1449618308759115053,/odom,doorways,20,0,0,1.00091086033,0.253646701682,0.0,0.0,0.0,0.999044726169,0.043699372,0.25,0.15,0.0,1.0,0.0,0.0,1.0,2000000000,0,,,0
1449618308759241960,222,1449618308759194164,/odom,doorways,20,0,0,1.00091086033,0.253646701682,0.0,0.0,0.0,0.999044726169,0.043699372,0.25,0.15,0.0,1.0,0.0,0.0,1.0,2000000000,0,,,0
1449618308759342600,223,1449618308759255376,/odom,doorways,20,0,0,1.00091086033,0.253646701682,0.0,0.0,0.0,0.999044726169,0.043699372,0.25,0.15,0.0,1.0,0.0,0.0,1.0,2000000000,0,,,0
1449618309035221190,224,1449618309032385630,/odom,doorways,20,0,0,0.863225626487,0.265898113711,0.0,0.0,0.0,0.999044726169,0.043699372,0.25,0.15,0.0,1.0,0.0,0.0,1.0,2000000000,0,,,0
1449618309035227881,227,1449618309032507386,/odom,doorways,20,0,0,0.863225626487,0.265898113711,0.0,0.0,0.0,0.999044726169,0.043699372,0.25,0.15,0.0,1.0,0.0,0.0,1.0,2000000000,0,,,0
1449618309278585799,228,1449618309278518178,/odom,doorways,20,0,0,0.765535414521,0.272383551573,0.0,0.0,0.0,0.999745145961,0.0225752769154,0.25,0.15,0.0,1.0,0.0,0.0,1.0,2000000000,0,,,0
1449618309278688715,229,1449618309278594707,/odom,doorways,20,0,0,0.765535414521,0.272383551573,0.0,0.0,0.0,0.999745145961,0.0225752769154,0.25,0.15,0.0,1.0,0.0,0.0,1.0,2000000000,0,,,0
1449618309278739884,230,1449618309278666528,/odom,doorways,20,0,0,0.765535414521,0.272383551573,0.0,0.0,0.0,0.999745145961,0.0225752769154,0.25,0.15,0.0,1.0,0.0,0.0,1.0,2000000000,0,,,0
1449618309637280067,231,1449618309637150756,/odom,doorways,20,0,0,0.765535414521,0.272383551573,0.0,0.0,0.0,0.999745145961,0.0225752769154,0.25,0.15,0.0,1.0,0.0,0.0,1.0,2000000000,0,,,0
1449618309637284749,232,1449618309637225239,/odom,doorways,20,0,0,0.765535414521,0.272383551573,0.0,0.0,0.0,0.999745145961,0.0225752769154,0.25,0.15,0.0,1.0,0.0,0.0,1.0,2000000000,0,,,0
1449618309641771486,233,1449618309637413548,/odom,doorways,20,0,0,0.765535414521,0.272383551573,0.0,0.0,0.0,0.999745145961,0.0225752769154,0.25,0.15,0.0,1.0,0.0,0.0,1.0,2000000000,0,,,0
1449618309641789201,234,1449618309637486056,/odom,doorways,20,0,0,0.765535414521,0.272383551573,0.0,0.0,0.0,0.999745145961,0.0225752769154,0.25,0.15,0.0,1.0,0.0,0.0,1.0,2000000000,0,,,0
1449618310063936845,235,1449618310059718894,/odom,doorways,20,0,0,0.544129906363,0.266001023017,0.0,0.0,0.0,-0.998393939197,0.0566528214127,0.25,0.15,0.0,1.0,0.0,0.0,1.0,2000000000,0,,,0
1449618310063943849,236,1449618310059846626,/odom,doorways,20,0,0,0.544129906363,0.266001023017,0.0,0.0,0.0,-0.998393939197,0.0566528214127,0.25,0.15,0.0,1.0,0.0,0.0,1.0,2000000000,0,,,0
1449618310063947822,237,1449618310060136380,/odom,doorways,20,0,0,0.544129906363,0.266001023017,0.0,0.0,0.0,-0.998393939197,0.0566528214127,0.25,0.15,0.0,1.0,0.0,0.0,1.0,2000000000,0,,,0
1449618310063968936,238,1449618310060240686,/odom,doorways,20,0,0,0.544129906363,0.266001023017,0.0,0.0,0.0,-0.998393939197,0.0566528214127,0.25,0.15,0.0,1.0,0.0,0.0,1.0,2000000000,0,,,0
1449618310822284713,239,1449618310817957864,/odom,doorways,20,0,0,0.544129906363,0.266001023017,0.0,0.0,0.0,-0.998393939197,0.0566528214127,0.25,0.15,0.0,1.0,0.0,0.0,1.0,2000000000,0,,,0
1449618310822287751,240,1449618310817969241,/odom,doorways,20,0,0,0.544129906363,0.266001023017,0.0,0.0,0.0,-0.998393939197,0.0566528214127,0.25,0.15,0.0,1.0,0.0,0.0,1.0,2000000000,0,,,0
1449618310822290927,241,1449618310817995169,/odom,doorways,20,0,0,0.544129906363,0.266001023017,0.0,0.0,0.0,-0.998393939197,0.0566528214127,0.25,0.15,0.0,1.0,0.0,0.0,1.0,2000000000,0,,,0
1449618310822294132,242,1449618310818018940,/odom,doorways,20,0,0,0.544129906363,0.266001023017,0.0,0.0,0.0,-0.998393939197,0.0566528214127,0.25,0.15,0.0,1.0,0.0,0.0,1.0,2000000000,0,,,0
1449618311003894799,243,1449618311002863252,/odom,doorways,20,0,0,0.277710418917,0.196137847062,0.0,0.0,0.0,-0.97913504823,0.203210623069,0.25,0.15,0.0,1.0,0.0,0.0,1.0,2000000000,0,,,0
1449618311237833164,244,1449618311236706369,/odom,doorways,20,0,0,0.254286894263,0.185048918431,0.0,0.0,0.0,-0.97342511398,0.229005562102,0.25,0.15,0.0,1.0,0.0,0.0,1.0,2000000000,0,,,0
1449618311237836732,245,1449618311236792885,/odom,doorways,20,0,0,0.254286894263,0.185048918431,0.0,0.0,0.0,-0.97342511398,0.229005562102,0.25,0.15,0.0,1.0,0.0,0.0,1.0,2000000000,0,,,0
1449618311380148033,246,1449618311378544262,/odom,doorways,20,0,0,0.241509035795,0.178412522925,0.0,0.0,0.0,-0.969672750553,0.244406949238,0.25,0.15,0.0,1.0,0.0,0.0,1.0,2000000000,0,,,0
1449618311538591546,247,1449618311536208844,/odom,doorways,20,0,0,0.22905441281,0.171189899379,0.0,0.0,0.0,-0.962877833227,0.269937545146,0.25,0.15,0.0,1.0,0.0,0.0,1.0,2000000000,0,,,0
1449618311538610259,248,1449618311536392549,/odom,doorways,20,0,0,0.22905441281,0.171189899379,0.0,0.0,0.0,-0.962877833227,0.269937545146,0.25,0.15,0.0,1.0,0.0,0.0,1.0,2000000000,0,,,0
1449618333820519469,249,1449618333819999366,/odom,doorways,20,0,0,0.161486828222,0.150974032651,0.0,0.0,0.0,0.0604891484621,0.998168854913,0.25,0.15,0.0,1.0,0.0,0.0,1.0,2000000000,0,,,0
1449618334863255793,250,1449618334836021149,/odom,doorways,20,0,0,0.144354004521,0.148736592179,0.0,0.0,0.0,0.0710342713686,0.997473875493,0.25,0.15,0.0,1.0,0.0,0.0,1.0,2000000000,0,,,0
1449618335106098978,251,1449618335104702714,/odom,doorways,20,0,0,0.107394446311,0.142800136984,0.0,0.0,0.0,0.0868367130092,0.996222558103,0.25,0.15,0.0,1.0,0.0,0.0,1.0,2000000000,0,,,0
1449618335432319305,252,1449618335431714181,/odom,doorways,20,0,0,0.0454260706483,0.129659475297,0.0,0.0,0.0,0.118372169131,0.992969299412,0.25,0.15,0.0,1.0,0.0,0.0,1.0,2000000000,0,,,0
1449618335820397925,253,1449618335809907441,/odom,doorways,20,0,0,0.0202860578727,0.123359999273,0.0,0.0,0.0,0.123617366137,0.992329958627,0.25,0.15,0.0,1.0,0.0,0.0,1.0,2000000000,0,,,0
1449618336108338088,254,1449618336107281061,/odom,doorways,20,0,0,0.0175019006443,0.12262401165,0.0,0.0,0.0,0.128859111641,0.991662911148,0.25,0.15,0.0,1.0,0.0,0.0,1.0,2000000000,0,,,0
1449618336214291173,255,1449618336213855180,/odom,doorways,20,0,0,0.02029368021,0.123330535613,0.0,0.0,0.0,0.123617366137,0.992329958627,0.25,0.15,0.0,1.0,0.0,0.0,1.0,2000000000,0,,,0
1449618336649552743,256,1449618336648727800,/odom,doorways,20,0,0,0.02029368021,0.123330535613,0.0,0.0,0.0,0.123617366137,0.992329958627,0.25,0.15,0.0,1.0,0.0,0.0,1.0,2000000000,0,,,0
1449618336824083708,257,1449618336823248196,/odom,doorways,20,0,0,0.02029368021,0.123330535613,0.0,0.0,0.0,0.123617366137,0.992329958627,0.25,0.15,0.0,1.0,0.0,0.0,1.0,2000000000,0,,,0
1449618337063419579,258,1449618337062802003,/odom,doorways,20,0,0,0.02029368021,0.123330535613,0.0,0.0,0.0,0.123617366137,0.992329958627,0.25,0.15,0.0,1.0,0.0,0.0,1.0,2000000000,0,,,0
1449618337442930567,259,1449618337436786026,/odom,doorways,20,0,0,0.02029368021,0.123330535613,0.0,0.0,0.0,0.123617366137,0.992329958627,0.25,0.15,0.0,1.0,0.0,0.0,1.0,2000000000,0,,,0
1449618337623065752,260,1449618337619763186,/odom,doorways,20,0,0,0.02029368021,0.123330535613,0.0,0.0,0.0,0.123617366137,0.992329958627,0.25,0.15,0.0,1.0,0.0,0.0,1.0,2000000000,0,,,0
1449618338937582774,261,1449618338936982808,/odom,doorways,20,0,0,0.0175095229816,0.12259454799,0.0,0.0,0.0,0.128859111641,0.991662911148,0.25,0.15,0.0,1.0,0.0,0.0,1.0,2000000000,0,,,0
1449618339611586640,262,1449618339611214872,/odom,doorways,20,0,0,0.0203013025472,0.123301071953,0.0,0.0,0.0,0.123617366137,0.992329958627,0.25,0.15,0.0,1.0,0.0,0.0,1.0,2000000000,0,,,0
1449618341076468327,263,1449618341076031578,/odom,doorways,20,0,0,0.0203089248845,0.123271608293,0.0,0.0,0.0,0.123617366137,0.992329958627,0.25,0.15,0.0,1.0,0.0,0.0,1.0,2000000000,0,,,0
1449618341930177122,264,1449618341929218574,/odom,doorways,20,0,0,0.0203089248845,0.123271608293,0.0,0.0,0.0,0.123617366137,0.992329958627,0.25,0.15,0.0,1.0,0.0,0.0,1.0,2000000000,0,,,0
1449618342219408191,265,1449618342219331785,/odom,doorways,20,0,0,0.0203089248845,0.123271608293,0.0,0.0,0.0,0.123617366137,0.992329958627,0.25,0.15,0.0,1.0,0.0,0.0,1.0,2000000000,0,,,0
1449618342366501488,266,1449618342365497228,/odom,doorways,20,0,0,0.0203089248845,0.123271608293,0.0,0.0,0.0,0.123617366137,0.992329958627,0.25,0.15,0.0,1.0,0.0,0.0,1.0,2000000000,0,,,0
1449618344316799684,267,1449618344312243339,/odom,doorways,20,0,0,0.0203089248845,0.123271608293,0.0,0.0,0.0,0.123617366137,0.992329958627,0.25,0.15,0.0,1.0,0.0,0.0,1.0,2000000000,0,,,0
1449618345445429879,268,1449618345406132540,/odom,doorways,20,0,0,0.0203089248845,0.123271608293,0.0,0.0,0.0,0.123617366137,0.992329958627,0.25,0.15,0.0,1.0,0.0,0.0,1.0,2000000000,0,,,0
1449618346212690622,269,1449618346212627331,/odom,doorways,20,0,0,0.0203089248845,0.123271608293,0.0,0.0,0.0,0.123617366137,0.992329958627,0.25,0.15,0.0,1.0,0.0,0.0,1.0,2000000000,0,,,0
1449618346829567874,270,1449618346823732797,/odom,doorways,20,0,0,0.0203089248845,0.123271608293,0.0,0.0,0.0,0.123617366137,0.992329958627,0.25,0.15,0.0,1.0,0.0,0.0,1.0,2000000000,0,,,0
1449618348247326972,271,1449618348243749689,/odom,doorways,20,0,0,0.0203089248845,0.123271608293,0.0,0.0,0.0,0.123617366137,0.992329958627,0.25,0.15,0.0,1.0,0.0,0.0,1.0,2000000000,0,,,0
1449618349157849189,272,1449618349156854386,/odom,doorways,20,0,0,0.0203089248845,0.123271608293,0.0,0.0,0.0,0.123617366137,0.992329958627,0.25,0.15,0.0,1.0,0.0,0.0,1.0,2000000000,0,,,0
1449618349322167592,273,1449618349321889395,/odom,doorways,20,0,0,0.0203089248845,0.123271608293,0.0,0.0,0.0,0.123617366137,0.992329958627,0.25,0.15,0.0,1.0,0.0,0.0,1.0,2000000000,0,,,0
1449618351567001575,274,1449618351559737412,/odom,doorways,20,0,0,0.0203089248845,0.123271608293,0.0,0.0,0.0,0.123617366137,0.992329958627,0.25,0.15,0.0,1.0,0.0,0.0,1.0,2000000000,0,,,0
1449618352452922334,275,1449618352452865443,/odom,doorways,20,0,0,0.0203089248845,0.123271608293,0.0,0.0,0.0,0.123617366137,0.992329958627,0.25,0.15,0.0,1.0,0.0,0.0,1.0,2000000000,0,,,0
1449618355162334370,276,1449618355152564762,/odom,doorways,20,0,0,0.0203089248845,0.123271608293,0.0,0.0,0.0,0.123617366137,0.992329958627,0.25,0.15,0.0,1.0,0.0,0.0,1.0,2000000000,0,,,0
1449618355417179655,277,1449618355417103355,/odom,doorways,20,0,0,0.0203089248845,0.123271608293,0.0,0.0,0.0,0.123617366137,0.992329958627,0.25,0.15,0.0,1.0,0.0,0.0,1.0,2000000000,0,,,0
1449618355607262115,278,1449618355602703687,/odom,doorways,20,0,0,0.0203089248845,0.123271608293,0.0,0.0,0.0,0.123617366137,0.992329958627,0.25,0.15,0.0,1.0,0.0,0.0,1.0,2000000000,0,,,0
1449618355768696123,279,1449618355768599318,/odom,doorways,20,0,0,0.0203089248845,0.123271608293,0.0,0.0,0.0,0.123617366137,0.992329958627,0.25,0.15,0.0,1.0,0.0,0.0,1.0,2000000000,0,,,0
1449618355971112453,280,1449618355967318949,/odom,doorways,20,0,0,0.0203089248845,0.123271608293,0.0,0.0,0.0,0.123617366137,0.992329958627,0.25,0.15,0.0,1.0,0.0,0.0,1.0,2000000000,0,,,0
1449618356171190768,281,1449618356169658484,/odom,doorways,20,0,0,0.0203089248845,0.123271608293,0.0,0.0,0.0,0.123617366137,0.992329958627,0.25,0.15,0.0,1.0,0.0,0.0,1.0,2000000000,0,,,0
1449618356391337528,282,1449618356389174035,/odom,doorways,20,0,0,0.0203089248845,0.123271608293,0.0,0.0,0.0,0.123617366137,0.992329958627,0.25,0.15,0.0,1.0,0.0,0.0,1.0,2000000000,0,,,0
1449618356563824238,283,1449618356562991284,/odom,doorways,20,0,0,0.0203089248845,0.123271608293,0.0,0.0,0.0,0.123617366137,0.992329958627,0.25,0.15,0.0,1.0,0.0,0.0,1.0,2000000000,0,,,0
1449618356671503781,284,1449618356669140088,/odom,doorways,20,0,0,0.0203089248845,0.123271608293,0.0,0.0,0.0,0.123617366137,0.992329958627,0.25,0.15,0.0,1.0,0.0,0.0,1.0,2000000000,0,,,0
1449618356872074199,285,1449618356871953936,/odom,doorways,20,0,0,0.0203089248845,0.123271608293,0.0,0.0,0.0,0.123617366137,0.992329958627,0.25,0.15,0.0,1.0,0.0,0.0,1.0,2000000000,0,,,0
1449618358567108790,286,1449618358564793672,/odom,doorways,20,0,0,0.0203089248845,0.123271608293,0.0,0.0,0.0,0.123617366137,0.992329958627,0.25,0.15,0.0,1.0,0.0,0.0,1.0,2000000000,0,,,0
1449618359033504184,287,1449618359032757080,/odom,doorways,20,0,0,0.0203089248845,0.123271608293,0.0,0.0,0.0,0.123617366137,0.992329958627,0.25,0.15,0.0,1.0,0.0,0.0,1.0,2000000000,0,,,0
1449618359550914847,288,1449618359546872162,/odom,doorways,20,0,0,0.0203089248845,0.123271608293,0.0,0.0,0.0,0.123617366137,0.992329958627,0.25,0.15,0.0,1.0,0.0,0.0,1.0,2000000000,0,,,0
1449618359628441517,289,1449618359627461906,/odom,doorways,20,0,0,0.0203089248845,0.123271608293,0.0,0.0,0.0,0.123617366137,0.992329958627,0.25,0.15,0.0,1.0,0.0,0.0,1.0,2000000000,0,,,0
1449618359739759649,290,1449618359739467509,/odom,doorways,20,0,0,0.0203089248845,0.123271608293,0.0,0.0,0.0,0.123617366137,0.992329958627,0.25,0.15,0.0,1.0,0.0,0.0,1.0,2000000000,0,,,0
1449618360321088262,291,1449618360319402510,/odom,doorways,20,0,0,0.0203089248845,0.123271608293,0.0,0.0,0.0,0.123617366137,0.992329958627,0.25,0.15,0.0,1.0,0.0,0.0,1.0,2000000000,0,,,0
1449618361002218262,292,1449618361000019685,/odom,doorways,20,0,0,0.0203089248845,0.123271608293,0.0,0.0,0.0,0.123617366137,0.992329958627,0.25,0.15,0.0,1.0,0.0,0.0,1.0,2000000000,0,,,0
