%time,field.linear.x,field.linear.y,field.linear.z,field.angular.x,field.angular.y,field.angular.z
1449618217748519936,0.0,0.0,0.0,0.0,0.0,0.0
1449618217795142371,0.0,0.0,0.0,0.0,0.0,0.0
1449618217875966215,0.0,0.0,0.0,0.0,0.0,0.0
1449618217925904781,0.0,0.0,0.0,0.0,0.0,0.0
1449618217996878482,0.0,0.0,0.0,0.0,0.0,0.0
1449618218045924974,0.0,0.0,0.0,0.0,0.0,0.0
1449618218308587511,0.0,0.0,0.0,0.0,0.0,0.0
1449618218360711911,0.0,0.0,0.0,0.0,0.0,0.0
1449618218427479901,0.0,0.0,0.0,0.0,0.0,0.0
1449618218478411635,0.0,0.0,0.0,0.0,0.0,0.0
1449618218537431970,0.0,0.0,0.0,0.0,0.0,0.0
1449618218636868011,0.0,0.0,0.0,0.0,0.0,0.0
1449618218686688269,0.0,0.0,0.0,0.0,0.0,0.0
1449618218868123751,0.0,0.0,0.0,0.0,0.0,0.0
1449618218967682148,0.0,0.0,0.0,0.0,0.0,0.0
1449618219118664452,0.0,0.0,0.0,0.0,0.0,0.0
1449618219170398300,0.0,0.0,0.0,0.0,0.0,0.0
1449618219310447278,0.0,0.0,0.0,0.0,0.0,0.0
1449618219346454615,0.0,0.0,0.0,0.0,0.0,0.0
1449618219489302163,0.0,0.0,0.0,0.0,0.0,0.0
1449618219536024352,0.0,0.0,0.0,0.0,0.0,0.0
1449618219631372208,0.0,0.0,0.0,0.0,0.0,0.0
1449618219680990237,0.0,0.0,0.0,0.0,0.0,0.0
1449618219776287891,0.0,0.0,0.0,0.0,0.0,0.0
1449618219817413981,0.0,0.0,0.0,0.0,0.0,0.0
1449618219967784345,0.0,0.0,0.0,0.0,0.0,0.0
1449618220018666054,0.0,0.0,0.0,0.0,0.0,0.0
1449618220226431306,0.0,0.0,0.0,0.0,0.0,0.0
1449618220326790522,0.0,0.0,0.0,0.0,0.0,0.0
1449618220376533509,0.0,0.0,0.0,0.0,0.0,0.0
1449618220509195418,0.0,0.0,0.0,0.0,0.0,0.0
1449618220560288720,0.0,0.0,0.0,0.0,0.0,0.0
1449618220698085236,0.0,0.0,0.0,0.0,0.0,0.0
1449618220748274563,0.0,0.0,0.0,0.0,0.0,0.0
1449618220893673362,0.0,0.0,0.0,0.0,0.0,0.0
1449618220939046619,0.0,0.0,0.0,0.0,0.0,0.0
1449618221076806059,0.0,0.0,0.0,0.0,0.0,0.0
1449618221128335842,0.0,0.0,0.0,0.0,0.0,0.0
1449618221197014144,0.0,0.0,0.0,0.0,0.0,0.0
1449618221244413631,0.0,0.0,0.0,0.0,0.0,0.0
1449618221295243169,0.0,0.0,0.0,0.0,0.0,0.0
1449618221396743006,0.0,0.0,0.0,0.0,0.0,0.0
1449618221445103233,0.0,0.0,0.0,0.0,0.0,0.0
1449618221631055496,0.0,0.0,0.0,0.0,0.0,0.0
1449618221732470845,0.0,0.0,0.0,0.0,0.0,0.0
1449618221831415695,0.0,0.0,0.0,0.0,0.0,0.0
1449618221929573898,0.0,0.0,0.0,0.0,0.0,0.0
1449618221979328278,0.0,0.0,0.0,0.0,0.0,0.0
1449618222045943276,0.0,0.0,0.0,0.0,0.0,0.0
1449618222145952889,0.0,0.0,0.0,0.0,0.0,0.0
1449618222246405495,0.0,0.0,0.0,0.0,0.0,0.0
1449618222349371947,0.0,0.0,0.0,0.0,0.0,0.0
1449618222496032354,0.0,0.0,0.0,0.0,0.0,0.0
1449618222601533090,0.0,0.0,0.0,0.0,0.0,0.0
1449618222645939506,0.0,0.0,0.0,0.0,0.0,0.0
1449618222710316340,0.0,0.0,0.0,0.0,0.0,0.0
1449618222758510734,0.0,0.0,0.0,0.0,0.0,0.0
1449618222901114820,0.352,0.0,0.0,0.0,0.0,0.147368421053
1449618223025828696,0.352,0.0,0.0,0.0,0.0,0.105263157895
1449618223100351083,0.352,0.0,0.0,0.0,0.0,0.147368421053
1449618223214506087,0.352,0.0,0.0,0.0,0.0,0.147368421053
1449618223299155149,0.352,0.0,0.0,0.0,0.0,0.147368421053
1449618223372907314,0.352,0.0,0.0,0.0,0.0,0.147368421053
1449618223427811401,0.352,0.0,0.0,0.0,0.0,0.147368421053
1449618223538403230,0.352,0.0,0.0,0.0,0.0,0.147368421053
1449618223594552268,0.352,0.0,0.0,0.0,0.0,0.147368421053
1449618223678014216,0.352,0.0,0.0,0.0,0.0,0.147368421053
1449618223753921575,0.352,0.0,0.0,0.0,0.0,0.147368421053
1449618223827796904,0.352,0.0,0.0,0.0,0.0,0.147368421053
1449618223873858179,0.352,0.0,0.0,0.0,0.0,0.147368421053
1449618223934469613,0.352,0.0,0.0,0.0,0.0,0.147368421053
1449618224009941833,0.352,0.0,0.0,0.0,0.0,0.147368421053
1449618224136078663,0.352,0.0,0.0,0.0,0.0,0.147368421053
1449618224245441573,0.352,0.0,0.0,0.0,0.0,0.147368421053
1449618224423542605,0.352,0.0,0.0,0.0,0.0,0.105263157895
1449618224522504669,0.352,0.0,0.0,0.0,0.0,0.105263157895
1449618224602152712,0.352,0.0,0.0,0.0,0.0,0.147368421053
1449618224697959922,0.352,0.0,0.0,0.0,0.0,0.147368421053
1449618224787850106,0.352,0.0,0.0,0.0,0.0,0.105263157895
1449618224875388185,0.352,0.0,0.0,0.0,0.0,0.105263157895
1449618224981718491,0.352,0.0,0.0,0.0,0.0,0.105263157895
1449618225065966252,0.352,0.0,0.0,0.0,0.0,0.147368421053
1449618225179528766,0.352,0.0,0.0,0.0,0.0,0.189473684211
1449618225230731803,0.352,0.0,0.0,0.0,0.0,0.147368421053
1449618225331470677,0.352,0.0,0.0,0.0,0.0,0.189473684211
1449618225390650575,0.352,0.0,0.0,0.0,0.0,0.189473684211
1449618225495619200,0.352,0.0,0.0,0.0,0.0,0.147368421053
1449618225727044531,0.352,0.0,0.0,0.0,0.0,0.147368421053
1449618225911256646,0.352,0.0,0.0,0.0,0.0,0.147368421053
1449618226035277361,0.352,0.0,0.0,0.0,0.0,0.0631578947368
1449618226141732900,0.352,0.0,0.0,0.0,0.0,0.0493927402245
1449618226260433373,0.352,0.0,0.0,0.0,0.0,0.0104363780273
1449618226421446129,0.352,0.0,0.0,0.0,0.0,0.0
1449618226577848777,0.352,0.0,0.0,0.0,0.0,-0.0959319488626
1449618226641556656,0.352,0.0,0.0,0.0,0.0,-0.0631578947368
1449618226726419706,0.352,0.0,0.0,0.0,0.0,-0.105263157895
1449618226867679800,0.352,0.0,0.0,0.0,0.0,-0.0631578947368
1449618227002244385,0.352,0.0,0.0,0.0,0.0,-0.105263157895
1449618227102668803,0.352,0.0,0.0,0.0,0.0,-0.0631578947368
1449618227214106156,0.352,0.0,0.0,0.0,0.0,-0.0631578947368
1449618227347725095,0.352,0.0,0.0,0.0,0.0,-0.189473684211
1449618227432140756,0.352,0.0,0.0,0.0,0.0,-0.105263157895
1449618227523380610,0.352,0.0,0.0,0.0,0.0,-0.105263157895
1449618227653116648,0.352,0.0,0.0,0.0,0.0,-0.105263157895
1449618227823899805,0.352,0.0,0.0,0.0,0.0,-0.0631578947368
1449618227919128743,0.352,0.0,0.0,0.0,0.0,-0.105263157895
1449618228096621671,0.352,0.0,0.0,0.0,0.0,-0.0631578947368
1449618228214061948,0.352,0.0,0.0,0.0,0.0,-0.0631578947368
1449618228329814301,0.352,0.0,0.0,0.0,0.0,-0.0631578947368
1449618228470014049,0.352,0.0,0.0,0.0,0.0,-0.0631578947368
1449618228590091787,0.352,0.0,0.0,0.0,0.0,-0.0631578947368
1449618228632877044,0.352,0.0,0.0,0.0,0.0,-0.0210526315789
1449618228764961271,0.352,0.0,0.0,0.0,0.0,-0.0631578947368
1449618228959409366,0.352,0.0,0.0,0.0,0.0,0.0
1449618229056386784,0.352,0.0,0.0,0.0,0.0,0.0210526315789
1449618229148911277,0.352,0.0,0.0,0.0,0.0,0.0210526315789
1449618229213001627,0.352,0.0,0.0,0.0,0.0,0.0631578947368
1449618229292084722,0.352,0.0,0.0,0.0,0.0,0.0631578947368
1449618229398140115,0.352,0.0,0.0,0.0,0.0,0.0631578947368
1449618229489842493,0.352,0.0,0.0,0.0,0.0,0.0210526315789
1449618229576285606,0.352,0.0,0.0,0.0,0.0,0.105263157895
1449618229674765766,0.352,0.0,0.0,0.0,0.0,0.0631578947368
1449618229812703529,0.352,0.0,0.0,0.0,0.0,0.105263157895
1449618229930640296,0.352,0.0,0.0,0.0,0.0,0.105263157895
1449618230080046752,0.352,0.0,0.0,0.0,0.0,0.105263157895
1449618230246987664,0.352,0.0,0.0,0.0,0.0,0.147368421053
1449618230312334329,0.352,0.0,0.0,0.0,0.0,0.147368421053
1449618230380124294,0.352,0.0,0.0,0.0,0.0,0.189473684211
1449618230469100714,0.352,0.0,0.0,0.0,0.0,0.189473684211
1449618230568184828,0.352,0.0,0.0,0.0,0.0,0.189473684211
1449618230647648865,0.352,0.0,0.0,0.0,0.0,0.189473684211
1449618230805866256,0.352,0.0,0.0,0.0,0.0,0.189473684211
1449618230916681955,0.352,0.0,0.0,0.0,0.0,0.189473684211
1449618231068285777,0.352,0.0,0.0,0.0,0.0,0.231578947368
1449618231165360832,0.352,0.0,0.0,0.0,0.0,0.231578947368
1449618231282734656,0.352,0.0,0.0,0.0,0.0,0.189473684211
1449618231395340857,0.352,0.0,0.0,0.0,0.0,0.189473684211
1449618231487895286,0.352,0.0,0.0,0.0,0.0,0.147368421053
1449618231570646898,0.352,0.0,0.0,0.0,0.0,0.147368421053
1449618231697485158,0.352,0.0,0.0,0.0,0.0,0.147368421053
1449618231753149214,0.352,0.0,0.0,0.0,0.0,0.147368421053
1449618231848299575,0.352,0.0,0.0,0.0,0.0,0.147368421053
1449618231935224277,0.352,0.0,0.0,0.0,0.0,0.147368421053
1449618232041343771,0.352,0.0,0.0,0.0,0.0,0.105263157895
1449618232155144163,0.352,0.0,0.0,0.0,0.0,0.105263157895
1449618232291629816,0.352,0.0,0.0,0.0,0.0,0.147368421053
1449618232404108311,0.352,0.0,0.0,0.0,0.0,0.105263157895
1449618232540252029,0.352,0.0,0.0,0.0,0.0,0.105263157895
1449618232659520997,0.352,0.0,0.0,0.0,0.0,0.105263157895
1449618232732659518,0.352,0.0,0.0,0.0,0.0,0.105263157895
1449618232815364232,0.352,0.0,0.0,0.0,0.0,0.0631578947368
1449618232877014358,0.352,0.0,0.0,0.0,0.0,0.0631578947368
1449618232941870600,0.352,0.0,0.0,0.0,0.0,0.105263157895
1449618233016513385,0.352,0.0,0.0,0.0,0.0,0.105263157895
1449618233102606903,0.3056,0.0,0.0,0.0,0.0,0.105263157895
1449618233183250782,0.352,0.0,0.0,0.0,0.0,0.0210526315789
1449618233286636119,0.352,0.0,0.0,0.0,0.0,0.0210526315789
1449618233385715142,0.352,0.0,0.0,0.0,0.0,0.0
1449618233499715220,0.352,0.0,0.0,0.0,0.0,0.231578947368
1449618233629179702,0.352,0.0,0.0,0.0,0.0,0.189473684211
1449618233685380888,0.352,0.0,0.0,0.0,0.0,0.231578947368
1449618233755067727,0.352,0.0,0.0,0.0,0.0,0.147368421053
1449618233828348855,0.352,0.0,0.0,0.0,0.0,0.189473684211
1449618233903734809,0.352,0.0,0.0,0.0,0.0,0.147368421053
1449618233953938891,0.352,0.0,0.0,0.0,0.0,0.273684210526
1449618234049900906,0.352,0.0,0.0,0.0,0.0,0.273684210526
1449618234118413003,0.352,0.0,0.0,0.0,0.0,0.231578947368
1449618234173919035,0.352,0.0,0.0,0.0,0.0,0.231578947368
1449618234226999089,0.352,0.0,0.0,0.0,0.0,0.273684210526
1449618234294328340,0.352,0.0,0.0,0.0,0.0,0.189473684211
1449618234404691702,0.352,0.0,0.0,0.0,0.0,0.189473684211
1449618234530248959,0.3056,0.0,0.0,0.0,0.0,0.189473684211
1449618234594969130,0.3056,0.0,0.0,0.0,0.0,0.189473684211
1449618234657025223,0.348153682021,0.0,0.0,0.0,0.0,0.189473684211
1449618234733009131,0.344761626104,0.0,0.0,0.0,0.0,0.231578947368
1449618234814354775,0.294374410739,0.0,0.0,0.0,0.0,0.189473684211
1449618234886128558,0.331988274157,0.0,0.0,0.0,0.0,0.189473684211
1449618234987559470,0.286867275331,0.0,0.0,0.0,0.0,0.189473684211
1449618235039157750,0.318378242242,0.0,0.0,0.0,0.0,0.189473684211
1449618235107298513,0.311545711914,0.0,0.0,0.0,0.0,0.189473684211
1449618235257977645,0.270500365121,0.0,0.0,0.0,0.0,0.231578947368
1449618235376477459,0.210514576861,0.0,0.0,0.0,0.0,0.189473684211
1449618235462094974,0.20409818273,0.0,0.0,0.0,0.0,0.189473684211
1449618235548308457,0.181415854289,0.0,0.0,0.0,0.0,0.147368421053
1449618235587727760,0.176285683494,0.0,0.0,0.0,0.0,0.147368421053
1449618235650760327,0.173356156971,0.0,0.0,0.0,0.0,0.147368421053
1449618235733390662,0.18028273886,0.0,0.0,0.0,0.0,0.147368421053
1449618235849874543,0.173884029264,0.0,0.0,0.0,0.0,0.147368421053
1449618235917292445,0.145209048743,0.0,0.0,0.0,0.0,0.105263157895
1449618235979804914,0.14850662949,0.0,0.0,0.0,0.0,0.147368421053
1449618236052695984,0.133526069338,0.0,0.0,0.0,0.0,0.105263157895
1449618236131852083,0.125127084576,0.0,0.0,0.0,0.0,0.105263157895
1449618236214645065,0.139287569374,0.0,0.0,0.0,0.0,0.147368421053
1449618236276114764,0.132077945313,0.0,0.0,0.0,0.0,0.147368421053
1449618236326881401,0.121698708059,0.0,0.0,0.0,0.0,0.105263157895
1449618236379077864,0.120898665988,0.0,0.0,0.0,0.0,0.147368421053
1449618236459069590,0.12,0.0,0.0,0.0,0.0,0.105263157895
1449618236531268178,0.12,0.0,0.0,0.0,0.0,0.147368421053
1449618236574374488,0.12,0.0,0.0,0.0,0.0,0.147368421053
1449618236660687030,0.12,0.0,0.0,0.0,0.0,0.147368421053
1449618236739455492,0.12,0.0,0.0,0.0,0.0,0.189473684211
1449618236806466342,0.12,0.0,0.0,0.0,0.0,0.231578947368
1449618236876973560,0.12,0.0,0.0,0.0,0.0,0.231578947368
1449618236981803868,0.12,0.0,0.0,0.0,0.0,0.273684210526
1449618237050225083,0.12,0.0,0.0,0.0,0.0,0.315789473684
1449618237129736739,0.0,0.0,0.0,0.0,0.0,-0.315789473684
1449618237216024217,0.0,0.0,0.0,0.0,0.0,0.31
1449618237320924728,0.0,0.0,0.0,0.0,0.0,0.31
1449618237380963599,0.0,0.0,0.0,0.0,0.0,0.357894736842
1449618237426484493,0.0,0.0,0.0,0.0,0.0,-0.0
1449618237501695183,0.0,0.0,0.0,0.0,0.0,-0.0
1449618237565811920,0.0,0.0,0.0,0.0,0.0,-0.0
1449618237605946641,0.0,0.0,0.0,0.0,0.0,-0.0
1449618237664495786,0.0,0.0,0.0,0.0,0.0,-0.0
1449618237725419774,0.0,0.0,0.0,0.0,0.0,-0.0
1449618237777627535,0.0,0.0,0.0,0.0,0.0,-0.0
1449618237860907769,0.0,0.0,0.0,0.0,0.0,-0.0
1449618237950025039,0.0,0.0,0.0,0.0,0.0,0.4
1449618238074713077,0.0,0.0,0.0,0.0,0.0,0.4
1449618238184802565,0.0,0.0,0.0,0.0,0.0,0.4
1449618238265288544,0.0,0.0,0.0,0.0,0.0,0.4
1449618238333917694,0.0,0.0,0.0,0.0,0.0,0.4
1449618238423357957,0.0,0.0,0.0,0.0,0.0,0.4
1449618238490132260,0.0,0.0,0.0,0.0,0.0,0.4
1449618238560437419,0.0,0.0,0.0,0.0,0.0,0.4
1449618238636969136,0.0,0.0,0.0,0.0,0.0,0.4
1449618238694911659,0.0,0.0,0.0,0.0,0.0,0.4
1449618238746807587,0.0,0.0,0.0,0.0,0.0,0.4
1449618238811729340,0.0,0.0,0.0,0.0,0.0,0.4
1449618238894134347,0.0,0.0,0.0,0.0,0.0,0.4
1449618238993489023,0.0,0.0,0.0,0.0,0.0,0.4
1449618239075731475,0.0,0.0,0.0,0.0,0.0,0.4
1449618239124728166,0.0,0.0,0.0,0.0,0.0,0.4
1449618239198865023,0.0,0.0,0.0,0.0,0.0,0.4
1449618239273507752,0.0,0.0,0.0,0.0,0.0,0.4
1449618239342104413,0.0,0.0,0.0,0.0,0.0,0.4
1449618239420128152,0.0,0.0,0.0,0.0,0.0,0.4
1449618239499613739,0.0,0.0,0.0,0.0,0.0,0.4
1449618239560179359,0.0,0.0,0.0,0.0,0.0,0.4
1449618239696105645,0.0,0.0,0.0,0.0,0.0,0.4
1449618239773179495,0.0,0.0,0.0,0.0,0.0,0.4
1449618239873620846,0.0,0.0,0.0,0.0,0.0,0.4
1449618239962246627,0.0,0.0,0.0,0.0,0.0,0.4
1449618240054785147,0.0,0.0,0.0,0.0,0.0,0.4
1449618240166504070,0.0,0.0,0.0,0.0,0.0,0.4
1449618240233141896,0.0,0.0,0.0,0.0,0.0,0.4
1449618240298499711,0.0,0.0,0.0,0.0,0.0,0.4
1449618240355936101,0.0,0.0,0.0,0.0,0.0,0.4
1449618240441707672,0.0,0.0,0.0,0.0,0.0,0.4
1449618240511791973,0.0,0.0,0.0,0.0,0.0,0.4
1449618240592509002,0.0,0.0,0.0,0.0,0.0,0.4
1449618240651941520,0.0,0.0,0.0,0.0,0.0,0.4
1449618240742890831,0.0,0.0,0.0,0.0,0.0,0.4
1449618240828402848,0.0,0.0,0.0,0.0,0.0,0.4
1449618240932904760,0.0,0.0,0.0,0.0,0.0,0.4
1449618241011087571,0.0,0.0,0.0,0.0,0.0,0.4
1449618241062357071,0.0,0.0,0.0,0.0,0.0,0.4
1449618241117339705,0.0,0.0,0.0,0.0,0.0,0.4
1449618241190941316,0.0,0.0,0.0,0.0,0.0,0.4
1449618241234903494,0.0,0.0,0.0,0.0,0.0,0.4
1449618241303280911,0.0,0.0,0.0,0.0,0.0,0.4
1449618241374389042,0.0,0.0,0.0,0.0,0.0,0.4
1449618241465484814,0.0,0.0,0.0,0.0,0.0,0.4
1449618241539712431,0.0,0.0,0.0,0.0,0.0,0.4
1449618241620152015,0.0,0.0,0.0,0.0,0.0,0.4
1449618241667066231,0.0,0.0,0.0,0.0,0.0,0.4
1449618241776309441,0.0,0.0,0.0,0.0,0.0,0.357894736842
1449618241858815081,0.0,0.0,0.0,0.0,0.0,0.4
1449618241960871464,0.0,0.0,0.0,0.0,0.0,0.4
1449618242067624007,0.0,0.0,0.0,0.0,0.0,0.4
1449618242073980737,0.0,0.0,0.0,0.0,0.0,0.0
1449618242203278227,0.0,0.0,0.0,0.0,0.0,0.4
1449618242259076504,0.0,0.0,0.0,0.0,0.0,0.4
1449618242398690682,0.0,0.0,0.0,0.0,0.0,0.4
1449618242491710920,0.0,0.0,0.0,0.0,0.0,0.4
1449618242581323955,0.0,0.0,0.0,0.0,0.0,0.4
1449618242683128493,0.0,0.0,0.0,0.0,0.0,0.4
1449618242783279629,0.0,0.0,0.0,0.0,0.0,0.4
1449618242849736052,0.0,0.0,0.0,0.0,0.0,0.4
1449618242923067938,0.0,0.0,0.0,0.0,0.0,0.4
1449618243032232961,0.0,0.0,0.0,0.0,0.0,0.4
1449618243099888752,0.0,0.0,0.0,0.0,0.0,0.4
1449618243153784910,0.0,0.0,0.0,0.0,0.0,0.4
1449618243219504361,0.0,0.0,0.0,0.0,0.0,0.4
1449618243282153767,0.0,0.0,0.0,0.0,0.0,0.4
1449618243351672670,0.0,0.0,0.0,0.0,0.0,0.4
1449618243430973758,0.0,0.0,0.0,0.0,0.0,0.4
1449618243500702138,0.0,0.0,0.0,0.0,0.0,0.4
1449618243568986638,0.0,0.0,0.0,0.0,0.0,0.4
1449618243620607169,0.0,0.0,0.0,0.0,0.0,0.4
1449618243674747731,0.0,0.0,0.0,0.0,0.0,0.4
1449618243764457977,0.0,0.0,0.0,0.0,0.0,0.4
1449618243810068946,0.0,0.0,0.0,0.0,0.0,0.4
1449618243890431079,0.0,0.0,0.0,0.0,0.0,0.4
1449618243985465735,0.0,0.0,0.0,0.0,0.0,0.4
1449618244097845783,0.0,0.0,0.0,0.0,0.0,0.4
1449618244220013776,0.0,0.0,0.0,0.0,0.0,0.4
1449618244263579974,0.0,0.0,0.0,0.0,0.0,0.4
1449618244353506686,0.0,0.0,0.0,0.0,0.0,0.4
1449618244428768778,0.0,0.0,0.0,0.0,0.0,0.4
1449618244492456929,0.0,0.0,0.0,0.0,0.0,0.4
1449618244575126201,0.0,0.0,0.0,0.0,0.0,0.4
1449618244644486588,0.0,0.0,0.0,0.0,0.0,0.4
1449618244720433411,0.0,0.0,0.0,0.0,0.0,0.4
1449618244801291998,0.0,0.0,0.0,0.0,0.0,0.4
1449618244858371157,0.0,0.0,0.0,0.0,0.0,0.4
1449618244951147386,0.0,0.0,0.0,0.0,0.0,0.4
1449618245029087350,0.0,0.0,0.0,0.0,0.0,0.4
1449618245116269661,0.0,0.0,0.0,0.0,0.0,0.4
1449618245175935063,0.0,0.0,0.0,0.0,0.0,0.4
1449618245261795348,0.0,0.0,0.0,0.0,0.0,0.4
1449618245312319152,0.0,0.0,0.0,0.0,0.0,0.4
1449618245378859682,0.0,0.0,0.0,0.0,0.0,0.4
1449618245461301520,0.0,0.0,0.0,0.0,0.0,0.4
1449618245525125422,0.0,0.0,0.0,0.0,0.0,0.4
1449618245663323093,0.0,0.0,0.0,0.0,0.0,0.4
1449618245737361659,0.0,0.0,0.0,0.0,0.0,0.4
1449618245838052703,0.0,0.0,0.0,0.0,0.0,0.4
1449618245897624449,0.0,0.0,0.0,0.0,0.0,0.4
1449618245970873693,0.0,0.0,0.0,0.0,0.0,0.4
1449618246019467402,0.0,0.0,0.0,0.0,0.0,0.4
1449618246132796559,0.0,0.0,0.0,0.0,0.0,0.4
1449618246189255859,0.0,0.0,0.0,0.0,0.0,0.4
1449618246202043498,0.0,0.0,0.0,0.0,0.0,0.0
1449618246292287242,0.0,0.0,0.0,0.0,0.0,0.4
1449618246357261963,0.0,0.0,0.0,0.0,0.0,0.4
1449618246451835188,0.0,0.0,0.0,0.0,0.0,0.4
1449618246547317494,0.0,0.0,0.0,0.0,0.0,0.4
1449618246621738566,0.0,0.0,0.0,0.0,0.0,0.4
1449618246698069252,0.0,0.0,0.0,0.0,0.0,0.4
1449618246748148366,0.0,0.0,0.0,0.0,0.0,0.4
1449618246860770599,0.0,0.0,0.0,0.0,0.0,0.4
1449618246935024690,0.0,0.0,0.0,0.0,0.0,0.4
1449618247036314947,0.0,0.0,0.0,0.0,0.0,0.4
1449618247110908952,0.0,0.0,0.0,0.0,0.0,0.4
1449618247176093833,0.0,0.0,0.0,0.0,0.0,0.4
1449618247254095439,0.0,0.0,0.0,0.0,0.0,0.4
1449618247329012123,0.0,0.0,0.0,0.0,0.0,0.4
1449618247385786636,0.0,0.0,0.0,0.0,0.0,0.4
1449618247489304779,0.0,0.0,0.0,0.0,0.0,0.4
1449618247566758091,0.0,0.0,0.0,0.0,0.0,0.4
1449618247646155969,0.0,0.0,0.0,0.0,0.0,0.4
1449618247710961520,0.0,0.0,0.0,0.0,0.0,0.4
1449618247784294845,0.0,0.0,0.0,0.0,0.0,0.4
1449618247842298746,0.0,0.0,0.0,0.0,0.0,0.4
1449618247934647998,0.0,0.0,0.0,0.0,0.0,0.4
1449618248030498998,0.0,0.0,0.0,0.0,0.0,0.4
1449618248086346865,0.0,0.0,0.0,0.0,0.0,0.4
1449618248144347156,0.0,0.0,0.0,0.0,0.0,0.4
1449618248215848349,0.0,0.0,0.0,0.0,0.0,0.4
1449618248311459263,0.0,0.0,0.0,0.0,0.0,0.4
1449618248394674215,0.0,0.0,0.0,0.0,0.0,0.4
1449618248449516346,0.0,0.0,0.0,0.0,0.0,0.4
1449618248513732638,0.0,0.0,0.0,0.0,0.0,0.4
1449618248567482469,0.0,0.0,0.0,0.0,0.0,0.4
1449618248630587547,0.0,0.0,0.0,0.0,0.0,0.4
1449618248711259971,0.0,0.0,0.0,0.0,0.0,0.4
1449618248749751152,0.0,0.0,0.0,0.0,0.0,0.4
1449618248801508122,0.0,0.0,0.0,0.0,0.0,0.4
1449618248878216767,0.0,0.0,0.0,0.0,0.0,0.4
1449618248926141532,0.0,0.0,0.0,0.0,0.0,0.4
1449618248987382740,0.0,0.0,0.0,0.0,0.0,0.4
1449618249057114251,0.0,0.0,0.0,0.0,0.0,0.4
1449618249159228206,0.0,0.0,0.0,0.0,0.0,0.4
1449618249227322043,0.0,0.0,0.0,0.0,0.0,0.4
1449618249334093596,0.0,0.0,0.0,0.0,0.0,0.4
1449618249381834514,0.0,0.0,0.0,0.0,0.0,0.4
1449618249438122575,0.0,0.0,0.0,0.0,0.0,0.4
1449618249516188738,0.0,0.0,0.0,0.0,0.0,0.4
1449618249623350031,0.0,0.0,0.0,0.0,0.0,0.4
1449618249699001885,0.0,0.0,0.0,0.0,0.0,0.4
1449618249785620080,0.0,0.0,0.0,0.0,0.0,0.4
1449618249827006046,0.0,0.0,0.0,0.0,0.0,0.4
1449618249911809192,0.0,0.0,0.0,0.0,0.0,0.4
1449618250000382376,0.0,0.0,0.0,0.0,0.0,0.4
1449618250126684042,0.0,0.0,0.0,0.0,0.0,0.4
1449618250176812187,0.0,0.0,0.0,0.0,0.0,0.4
1449618250219146576,0.0,0.0,0.0,0.0,0.0,0.4
1449618250272259297,0.0,0.0,0.0,0.0,0.0,0.4
1449618250326221248,0.0,0.0,0.0,0.0,0.0,0.4
1449618250389475034,0.0,0.0,0.0,0.0,0.0,0.4
1449618250469954494,0.0,0.0,0.0,0.0,0.0,0.4
1449618250565795279,0.0,0.0,0.0,0.0,0.0,0.4
1449618250637139739,0.0,0.0,0.0,0.0,0.0,0.4
1449618250732215933,0.0,0.0,0.0,0.0,0.0,0.4
1449618250829796788,0.0,0.0,0.0,0.0,0.0,0.4
1449618250907167964,0.0,0.0,0.0,0.0,0.0,0.4
1449618250968363920,0.0,0.0,0.0,0.0,0.0,0.4
1449618250973870496,0.0,0.0,0.0,0.0,0.0,0.0
1449618251084074254,0.0,0.0,0.0,0.0,0.0,0.4
1449618251152162036,0.0,0.0,0.0,0.0,0.0,0.4
1449618251241509439,0.0,0.0,0.0,0.0,0.0,0.4
1449618251350775161,0.0,0.0,0.0,0.0,0.0,0.4
1449618251415295160,0.0,0.0,0.0,0.0,0.0,0.4
1449618251483919719,0.0,0.0,0.0,0.0,0.0,0.4
1449618251565897672,0.0,0.0,0.0,0.0,0.0,0.4
1449618251673968396,0.0,0.0,0.0,0.0,0.0,0.4
1449618251741587129,0.0,0.0,0.0,0.0,0.0,0.4
1449618251840328584,0.0,0.0,0.0,0.0,0.0,0.4
1449618251930634029,0.0,0.0,0.0,0.0,0.0,0.4
1449618252029349012,0.0,0.0,0.0,0.0,0.0,0.4
1449618252152683773,0.0,0.0,0.0,0.0,0.0,0.4
1449618252256162389,0.0,0.0,0.0,0.0,0.0,0.4
1449618252301653650,0.0,0.0,0.0,0.0,0.0,0.4
1449618252343967822,0.0,0.0,0.0,0.0,0.0,0.4
1449618252412303454,0.0,0.0,0.0,0.0,0.0,0.4
1449618252500059482,0.0,0.0,0.0,0.0,0.0,0.4
1449618252592862460,0.0,0.0,0.0,0.0,0.0,0.4
1449618252618979646,0.0,0.0,0.0,0.0,0.0,0.4
1449618252724923321,0.0,0.0,0.0,0.0,0.0,0.4
1449618252781347730,0.0,0.0,0.0,0.0,0.0,0.4
1449618252859913563,0.0,0.0,0.0,0.0,0.0,0.4
1449618252986097320,0.0,0.0,0.0,0.0,0.0,0.4
1449618253044699014,0.0,0.0,0.0,0.0,0.0,0.4
1449618253117631834,0.0,0.0,0.0,0.0,0.0,0.4
1449618253184569686,0.0,0.0,0.0,0.0,0.0,0.4
1449618253264972396,0.0,0.0,0.0,0.0,0.0,0.4
1449618253324951460,0.0,0.0,0.0,0.0,0.0,0.4
1449618253374207462,0.0,0.0,0.0,0.0,0.0,0.4
1449618253425056477,0.0,0.0,0.0,0.0,0.0,0.4
1449618253463108742,0.0,0.0,0.0,0.0,0.0,0.4
1449618253513375937,0.0,0.0,0.0,0.0,0.0,0.4
1449618253653729524,0.0,0.0,0.0,0.0,0.0,0.4
1449618253733942313,0.0,0.0,0.0,0.0,0.0,0.4
1449618253817777195,0.0,0.0,0.0,0.0,0.0,0.4
1449618253889885924,0.0,0.0,0.0,0.0,0.0,0.4
1449618253972142229,0.0,0.0,0.0,0.0,0.0,0.4
1449618254018068350,0.0,0.0,0.0,0.0,0.0,0.4
1449618254118312477,0.0,0.0,0.0,0.0,0.0,0.4
1449618254212923363,0.0,0.0,0.0,0.0,0.0,0.4
1449618254273357957,0.0,0.0,0.0,0.0,0.0,0.4
1449618254387115321,0.0,0.0,0.0,0.0,0.0,0.4
1449618254388798353,0.0,0.0,0.0,0.0,0.0,0.0
1449618254437831614,0.0,0.0,0.0,0.0,0.0,0.0
1449618254539661590,0.0,0.0,0.0,0.0,0.0,0.0
1449618254592197395,0.0,0.0,0.0,0.0,0.0,0.0
1449618254639612957,0.0,0.0,0.0,0.0,0.0,0.0
1449618254687704198,0.0,0.0,0.0,0.0,0.0,0.0
1449618255694723347,0.0,0.0,0.0,0.0,0.0,0.0
1449618255746283920,0.0,0.0,0.0,0.0,0.0,0.0
1449618255801735117,0.0,0.0,0.0,0.0,0.0,0.0
1449618255881250877,0.0,0.0,0.0,0.0,0.0,0.0
1449618255929586890,0.0,0.0,0.0,0.0,0.0,0.0
1449618256351244578,0.352,0.0,0.0,0.0,0.0,0.105263157895
1449618256452161977,0.352,0.0,0.0,0.0,0.0,0.105263157895
1449618256514065372,0.352,0.0,0.0,0.0,0.0,0.105263157895
1449618256566889700,0.352,0.0,0.0,0.0,0.0,0.105263157895
1449618256631439034,0.352,0.0,0.0,0.0,0.0,0.105263157895
1449618256737765992,0.352,0.0,0.0,0.0,0.0,0.105263157895
1449618256791193938,0.352,0.0,0.0,0.0,0.0,0.105263157895
1449618256897443877,0.352,0.0,0.0,0.0,0.0,0.105263157895
1449618256970814623,0.352,0.0,0.0,0.0,0.0,0.105263157895
1449618257051114250,0.352,0.0,0.0,0.0,0.0,0.147368421053
1449618257111172420,0.352,0.0,0.0,0.0,0.0,0.147368421053
1449618257167500006,0.352,0.0,0.0,0.0,0.0,0.147368421053
1449618257254903657,0.352,0.0,0.0,0.0,0.0,0.105263157895
1449618257362646855,0.352,0.0,0.0,0.0,0.0,0.147368421053
1449618257470190191,0.352,0.0,0.0,0.0,0.0,0.105263157895
1449618257557871966,0.352,0.0,0.0,0.0,0.0,0.105263157895
1449618257641195738,0.352,0.0,0.0,0.0,0.0,0.105263157895
1449618257763340437,0.352,0.0,0.0,0.0,0.0,0.147368421053
1449618257839680501,0.352,0.0,0.0,0.0,0.0,0.147368421053
1449618257950495572,0.352,0.0,0.0,0.0,0.0,0.105263157895
1449618258024394861,0.352,0.0,0.0,0.0,0.0,0.105263157895
1449618258066749158,0.352,0.0,0.0,0.0,0.0,0.105263157895
1449618258193772030,0.352,0.0,0.0,0.0,0.0,0.147368421053
1449618258234288094,0.352,0.0,0.0,0.0,0.0,0.147368421053
1449618258307169933,0.352,0.0,0.0,0.0,0.0,0.147368421053
1449618258385090791,0.352,0.0,0.0,0.0,0.0,0.147368421053
1449618258423153961,0.352,0.0,0.0,0.0,0.0,0.147368421053
1449618258514726328,0.352,0.0,0.0,0.0,0.0,0.147368421053
1449618258591338659,0.352,0.0,0.0,0.0,0.0,0.147368421053
1449618258693932511,0.352,0.0,0.0,0.0,0.0,0.147368421053
1449618258748096305,0.352,0.0,0.0,0.0,0.0,0.147368421053
1449618258806888238,0.352,0.0,0.0,0.0,0.0,0.105263157895
1449618258876105545,0.352,0.0,0.0,0.0,0.0,0.105263157895
1449618259002183784,0.352,0.0,0.0,0.0,0.0,0.147368421053
1449618259034122471,0.352,0.0,0.0,0.0,0.0,0.105263157895
1449618259124863644,0.352,0.0,0.0,0.0,0.0,0.105263157895
1449618259181314685,0.352,0.0,0.0,0.0,0.0,0.105263157895
1449618259264583288,0.352,0.0,0.0,0.0,0.0,0.147368421053
1449618259424478433,0.352,0.0,0.0,0.0,0.0,0.147368421053
1449618259473963117,0.352,0.0,0.0,0.0,0.0,0.105263157895
1449618259601621463,0.352,0.0,0.0,0.0,0.0,0.105263157895
1449618259666413787,0.352,0.0,0.0,0.0,0.0,0.105263157895
1449618259749647488,0.352,0.0,0.0,0.0,0.0,0.105263157895
1449618259823419532,0.352,0.0,0.0,0.0,0.0,0.105263157895
1449618259916105606,0.352,0.0,0.0,0.0,0.0,0.105263157895
1449618260041795378,0.352,0.0,0.0,0.0,0.0,0.147368421053
1449618260144648829,0.352,0.0,0.0,0.0,0.0,0.105263157895
1449618260201604556,0.352,0.0,0.0,0.0,0.0,0.105263157895
1449618260266923069,0.352,0.0,0.0,0.0,0.0,0.147368421053
1449618260413329307,0.352,0.0,0.0,0.0,0.0,0.147368421053
1449618260545884554,0.352,0.0,0.0,0.0,0.0,0.147368421053
1449618260597961040,0.352,0.0,0.0,0.0,0.0,0.105263157895
1449618260670568515,0.352,0.0,0.0,0.0,0.0,0.147368421053
1449618260747737511,0.352,0.0,0.0,0.0,0.0,0.105263157895
1449618260795755380,0.352,0.0,0.0,0.0,0.0,0.147368421053
1449618260901654147,0.352,0.0,0.0,0.0,0.0,0.105263157895
1449618260987438634,0.352,0.0,0.0,0.0,0.0,0.147368421053
1449618261052608826,0.352,0.0,0.0,0.0,0.0,0.105263157895
1449618261152266529,0.352,0.0,0.0,0.0,0.0,0.105263157895
1449618261267377763,0.352,0.0,0.0,0.0,0.0,0.105263157895
1449618261346491263,0.352,0.0,0.0,0.0,0.0,0.105263157895
1449618261394085656,0.352,0.0,0.0,0.0,0.0,0.105263157895
1449618261467282013,0.352,0.0,0.0,0.0,0.0,0.105263157895
1449618261594939061,0.352,0.0,0.0,0.0,0.0,0.105263157895
1449618261696911127,0.352,0.0,0.0,0.0,0.0,0.105263157895
1449618261793586663,0.352,0.0,0.0,0.0,0.0,0.147368421053
1449618261910839535,0.352,0.0,0.0,0.0,0.0,0.105263157895
1449618261997708370,0.352,0.0,0.0,0.0,0.0,0.147368421053
1449618262088449034,0.352,0.0,0.0,0.0,0.0,0.105263157895
1449618262175968619,0.352,0.0,0.0,0.0,0.0,0.105263157895
1449618262245048151,0.352,0.0,0.0,0.0,0.0,0.105263157895
1449618262319149498,0.352,0.0,0.0,0.0,0.0,0.105263157895
1449618262390118234,0.352,0.0,0.0,0.0,0.0,0.105263157895
1449618262485862550,0.352,0.0,0.0,0.0,0.0,0.105263157895
1449618262543850840,0.352,0.0,0.0,0.0,0.0,0.105263157895
1449618262658109201,0.352,0.0,0.0,0.0,0.0,0.105263157895
1449618262752692416,0.352,0.0,0.0,0.0,0.0,0.105263157895
1449618262830576679,0.352,0.0,0.0,0.0,0.0,0.105263157895
1449618262937764412,0.352,0.0,0.0,0.0,0.0,0.0631578947368
1449618263030277899,0.352,0.0,0.0,0.0,0.0,0.105263157895
1449618263090624099,0.352,0.0,0.0,0.0,0.0,0.0631578947368
1449618263179655867,0.352,0.0,0.0,0.0,0.0,0.105263157895
1449618263283529470,0.352,0.0,0.0,0.0,0.0,0.0631578947368
1449618263403432532,0.352,0.0,0.0,0.0,0.0,0.105263157895
1449618263510783806,0.352,0.0,0.0,0.0,0.0,0.105263157895
1449618263633582198,0.352,0.0,0.0,0.0,0.0,0.0631578947368
1449618263721018685,0.352,0.0,0.0,0.0,0.0,0.0631578947368
1449618263844879908,0.352,0.0,0.0,0.0,0.0,0.0631578947368
1449618263914533100,0.352,0.0,0.0,0.0,0.0,0.0631578947368
1449618264003462950,0.352,0.0,0.0,0.0,0.0,0.0631578947368
1449618264100044909,0.352,0.0,0.0,0.0,0.0,0.0631578947368
1449618264151259650,0.352,0.0,0.0,0.0,0.0,0.0631578947368
1449618264219544112,0.352,0.0,0.0,0.0,0.0,0.0631578947368
1449618264303372586,0.352,0.0,0.0,0.0,0.0,0.0631578947368
1449618264392119773,0.352,0.0,0.0,0.0,0.0,0.0631578947368
1449618264525711631,0.352,0.0,0.0,0.0,0.0,0.0631578947368
1449618264615958405,0.352,0.0,0.0,0.0,0.0,0.0631578947368
1449618264735163301,0.352,0.0,0.0,0.0,0.0,0.0631578947368
1449618264803869283,0.352,0.0,0.0,0.0,0.0,0.0631578947368
1449618264894459534,0.352,0.0,0.0,0.0,0.0,0.0631578947368
1449618265091101414,0.352,0.0,0.0,0.0,0.0,0.0631578947368
1449618265202798460,0.352,0.0,0.0,0.0,0.0,0.0210526315789
1449618265281730264,0.352,0.0,0.0,0.0,0.0,0.0210526315789
1449618265356279214,0.352,0.0,0.0,0.0,0.0,0.0210526315789
1449618265470632564,0.352,0.0,0.0,0.0,0.0,0.0210526315789
1449618265552758230,0.352,0.0,0.0,0.0,0.0,0.0210526315789
1449618265618468807,0.352,0.0,0.0,0.0,0.0,0.0
1449618265737479234,0.352,0.0,0.0,0.0,0.0,0.0210526315789
1449618265794761666,0.352,0.0,0.0,0.0,0.0,0.0
1449618265894064090,0.352,0.0,0.0,0.0,0.0,0.0
1449618266003640750,0.352,0.0,0.0,0.0,0.0,0.0
1449618266087790896,0.352,0.0,0.0,0.0,0.0,0.0
1449618266153361364,0.352,0.0,0.0,0.0,0.0,0.0
1449618266273260463,0.352,0.0,0.0,0.0,0.0,0.0
1449618266399942636,0.352,0.0,0.0,0.0,0.0,0.0210526315789
1449618266470177534,0.352,0.0,0.0,0.0,0.0,-0.0210526315789
1449618266542601891,0.352,0.0,0.0,0.0,0.0,0.0
1449618266618751148,0.352,0.0,0.0,0.0,0.0,-0.0210526315789
1449618266686470743,0.352,0.0,0.0,0.0,0.0,-0.0210526315789
1449618266786326142,0.352,0.0,0.0,0.0,0.0,-0.0210526315789
1449618266834392702,0.352,0.0,0.0,0.0,0.0,-0.0210526315789
1449618266899143050,0.352,0.0,0.0,0.0,0.0,-0.0210526315789
1449618266972243074,0.352,0.0,0.0,0.0,0.0,-0.0210526315789
1449618267040253424,0.352,0.0,0.0,0.0,0.0,-0.0210526315789
1449618267156662913,0.352,0.0,0.0,0.0,0.0,-0.0210526315789
1449618267241890664,0.349778433511,0.0,0.0,0.0,0.0,-0.0631578947368
1449618267355217607,0.342113847775,0.0,0.0,0.0,0.0,-0.0631578947368
1449618267422597168,0.332534155537,0.0,0.0,0.0,0.0,-0.0631578947368
1449618267497330702,0.328702543626,0.0,0.0,0.0,0.0,-0.0631578947368
1449618267568067071,0.322002936627,0.0,0.0,0.0,0.0,-0.0631578947368
1449618267652682117,0.314343442868,0.0,0.0,0.0,0.0,-0.0631578947368
1449618267725788010,0.305728147091,0.0,0.0,0.0,0.0,-0.0631578947368
1449618267785774010,0.302858053087,0.0,0.0,0.0,0.0,-0.0631578947368
1449618267860254320,0.294241481385,0.0,0.0,0.0,0.0,-0.0631578947368
1449618267910988260,0.286586080643,0.0,0.0,0.0,0.0,-0.0631578947368
1449618268008940936,0.282757525171,0.0,0.0,0.0,0.0,-0.0631578947368
1449618268125415161,0.271271603217,0.0,0.0,0.0,0.0,-0.0631578947368
1449618268295106549,0.231248348956,0.0,0.0,0.0,0.0,0.0210526315789
1449618268350688136,0.221649719675,0.0,0.0,0.0,0.0,0.0210526315789
1449618268451983635,0.21397075077,0.0,0.0,0.0,0.0,0.0210526315789
1449618268531901925,0.2082115947,0.0,0.0,0.0,0.0,0.0210526315789
1449618268593469902,0.202452463373,0.0,0.0,0.0,0.0,0.0210526315789
1449618268665935871,0.19573410581,0.0,0.0,0.0,0.0,0.0
1449618268721107435,0.192854630784,0.0,0.0,0.0,0.0,0.0210526315789
1449618268804825698,0.186137116159,0.0,0.0,0.0,0.0,0.0631578947368
1449618268875616145,0.179418325191,0.0,0.0,0.0,0.0,0.0210526315789
1449618268968582005,0.172700256876,0.0,0.0,0.0,0.0,0.0631578947368
1449618269022246016,0.165023594489,0.0,0.0,0.0,0.0,0.0631578947368
1449618269089824400,0.163104471313,0.0,0.0,0.0,0.0,0.0631578947368
1449618269159351593,0.155428155466,0.0,0.0,0.0,0.0,0.0631578947368
1449618269235028013,0.148712697665,0.0,0.0,0.0,0.0,0.0631578947368
1449618269332112530,0.144876368259,0.0,0.0,0.0,0.0,0.0631578947368
1449618269407079420,0.135286322513,0.0,0.0,0.0,0.0,0.0631578947368
1449618269487203269,0.125142650006,0.0,0.0,0.0,0.0,0.0631578947368
1449618269559446391,0.12151083596,0.0,0.0,0.0,0.0,0.0631578947368
1449618269677958903,0.12,0.0,0.0,0.0,0.0,0.0631578947368
1449618269788417058,0.12,0.0,0.0,0.0,0.0,0.0631578947368
1449618269837123869,0.12,0.0,0.0,0.0,0.0,0.0631578947368
1449618269958190136,0.12,0.0,0.0,0.0,0.0,0.0210526315789
1449618270007104307,0.12,0.0,0.0,0.0,0.0,-0.0631578947368
1449618270065660768,0.12,0.0,0.0,0.0,0.0,0.189473684211
1449618270137523530,0.12,0.0,0.0,0.0,0.0,0.315789473684
1449618270220802968,0.12,0.0,0.0,0.0,0.0,0.273684210526
1449618270274251195,0.12,0.0,0.0,0.0,0.0,0.357894736842
1449618270342239777,0.12,0.0,0.0,0.0,0.0,0.357894736842
1449618270396884269,0.0,0.0,0.0,0.0,0.0,0.31
1449618270523127262,0.0,0.0,0.0,0.0,0.0,-0.315789473684
1449618270530154081,0.0,0.0,0.0,0.0,0.0,0.0
1449618270598593994,0.0,0.0,0.0,0.0,0.0,0.0
1449618270812206840,0.0,0.0,0.0,0.0,0.0,0.0
1449618270908536531,0.0,0.0,0.0,0.0,0.0,0.0
1449618271008707985,0.0,0.0,0.0,0.0,0.0,0.0
1449618271059833526,0.0,0.0,0.0,0.0,0.0,0.0
1449618271249911899,0.0,0.0,0.0,0.0,0.0,0.0
1449618271298257830,0.0,0.0,0.0,0.0,0.0,0.0
1449618271431352173,0.0,0.0,0.0,0.0,0.0,0.0
1449618271649872875,0.0,0.0,0.0,0.0,0.0,-0.4
1449618271747854253,0.0,0.0,0.0,0.0,0.0,-0.4
1449618271794728734,0.0,0.0,0.0,0.0,0.0,-0.4
1449618271858020258,0.0,0.0,0.0,0.0,0.0,-0.4
1449618271958274914,0.0,0.0,0.0,0.0,0.0,-0.4
1449618272014490589,0.0,0.0,0.0,0.0,0.0,-0.4
1449618272097280086,0.0,0.0,0.0,0.0,0.0,-0.4
1449618272168675542,0.0,0.0,0.0,0.0,0.0,-0.4
1449618272231732020,0.0,0.0,0.0,0.0,0.0,-0.4
1449618272299971329,0.0,0.0,0.0,0.0,0.0,-0.4
1449618272364703687,0.0,0.0,0.0,0.0,0.0,-0.4
1449618272466075226,0.0,0.0,0.0,0.0,0.0,-0.4
1449618272577044415,0.12,0.0,0.0,0.0,0.0,-0.4
1449618272671300780,0.12,0.0,0.0,0.0,0.0,-0.4
1449618272733602651,0.12,0.0,0.0,0.0,0.0,-0.4
1449618272803480035,0.12,0.0,0.0,0.0,0.0,-0.4
1449618272878179418,0.0,0.0,0.0,0.0,0.0,0.31
1449618272958851220,0.0,0.0,0.0,0.0,0.0,0.31
1449618273108085777,0.0,0.0,0.0,0.0,0.0,0.31
1449618273181851321,0.0,0.0,0.0,0.0,0.0,0.4
1449618273244279136,0.0,0.0,0.0,0.0,0.0,0.4
1449618273300524811,0.0,0.0,0.0,0.0,0.0,0.4
1449618273374591787,0.0,0.0,0.0,0.0,0.0,0.4
1449618273461436033,0.0,0.0,0.0,0.0,0.0,0.4
1449618273575956760,0.0,0.0,0.0,0.0,0.0,0.4
1449618273657903689,0.0,0.0,0.0,0.0,0.0,0.4
1449618273746181377,0.0,0.0,0.0,0.0,0.0,0.357894736842
1449618273746193310,0.0,0.0,0.0,0.0,0.0,0.0
1449618273770042915,0.0,0.0,0.0,0.0,0.0,0.0
1449618275044610506,0.299018174345,0.0,0.0,0.0,0.0,0.0210526315789
1449618275081322410,0.312455965223,0.0,0.0,0.0,0.0,0.0210526315789
1449618275178304028,0.322053585131,0.0,0.0,0.0,0.0,0.0210526315789
1449618275281889084,0.331651142011,0.0,0.0,0.0,0.0,0.0210526315789
1449618275357469283,0.342206156747,0.0,0.0,0.0,0.0,0.0210526315789
1449618275441816857,0.352,0.0,0.0,0.0,0.0,0.0210526315789
1449618275562963207,0.352,0.0,0.0,0.0,0.0,0.0631578947368
1449618275696363131,0.352,0.0,0.0,0.0,0.0,0.0631578947368
1449618275761931088,0.349660446644,0.0,0.0,0.0,0.0,0.0210526315789
1449618275828549631,0.352,0.0,0.0,0.0,0.0,0.0631578947368
1449618275904933789,0.352,0.0,0.0,0.0,0.0,0.0631578947368
1449618275959946967,0.352,0.0,0.0,0.0,0.0,0.0631578947368
1449618276032117765,0.352,0.0,0.0,0.0,0.0,0.0631578947368
1449618276110577273,0.352,0.0,0.0,0.0,0.0,0.0631578947368
1449618276194091818,0.352,0.0,0.0,0.0,0.0,0.0631578947368
1449618276278918405,0.352,0.0,0.0,0.0,0.0,0.0631578947368
1449618276374627556,0.352,0.0,0.0,0.0,0.0,0.0210526315789
1449618276447657401,0.352,0.0,0.0,0.0,0.0,0.0631578947368
1449618276529775635,0.352,0.0,0.0,0.0,0.0,0.0631578947368
1449618276641958502,0.352,0.0,0.0,0.0,0.0,0.0631578947368
1449618276704763713,0.352,0.0,0.0,0.0,0.0,0.0210526315789
1449618276783837250,0.352,0.0,0.0,0.0,0.0,0.0631578947368
1449618276860513336,0.352,0.0,0.0,0.0,0.0,0.0210526315789
1449618276922777868,0.352,0.0,0.0,0.0,0.0,0.0210526315789
1449618277010363409,0.352,0.0,0.0,0.0,0.0,0.0631578947368
1449618277106241023,0.352,0.0,0.0,0.0,0.0,0.0631578947368
1449618277182516637,0.352,0.0,0.0,0.0,0.0,0.0631578947368
1449618277275249371,0.352,0.0,0.0,0.0,0.0,0.0631578947368
1449618277346119013,0.352,0.0,0.0,0.0,0.0,0.0210526315789
1449618277423043352,0.352,0.0,0.0,0.0,0.0,0.0210526315789
1449618277522673507,0.352,0.0,0.0,0.0,0.0,0.0210526315789
1449618277585881646,0.352,0.0,0.0,0.0,0.0,0.0210526315789
1449618277652581994,0.352,0.0,0.0,0.0,0.0,0.0
1449618277729279761,0.352,0.0,0.0,0.0,0.0,0.0210526315789
1449618277820367481,0.352,0.0,0.0,0.0,0.0,0.0
1449618277898434231,0.352,0.0,0.0,0.0,0.0,0.0
1449618277972093106,0.352,0.0,0.0,0.0,0.0,0.0210526315789
1449618278053027135,0.352,0.0,0.0,0.0,0.0,-0.0210526315789
1449618278123906115,0.352,0.0,0.0,0.0,0.0,-0.0210526315789
1449618278127117040,0.0,0.0,0.0,0.0,0.0,0.0
1449618278244814499,0.352,0.0,0.0,0.0,0.0,-0.0210526315789
1449618278325841696,0.352,0.0,0.0,0.0,0.0,-0.0631578947368
1449618278393438050,0.352,0.0,0.0,0.0,0.0,-0.0631578947368
1449618278473993221,0.352,0.0,0.0,0.0,0.0,-0.0631578947368
1449618278528438883,0.352,0.0,0.0,0.0,0.0,-0.0631578947368
1449618278607527189,0.352,0.0,0.0,0.0,0.0,-0.105263157895
1449618278669408188,0.352,0.0,0.0,0.0,0.0,-0.105263157895
1449618278735820496,0.352,0.0,0.0,0.0,0.0,-0.105263157895
1449618278795447249,0.352,0.0,0.0,0.0,0.0,-0.105263157895
1449618278852240693,0.352,0.0,0.0,0.0,0.0,-0.147368421053
1449618278895742333,0.352,0.0,0.0,0.0,0.0,-0.183349433824
1449618278956727803,0.352,0.0,0.0,0.0,0.0,-0.141681617122
1449618279010557131,0.352,0.0,0.0,0.0,0.0,-0.183349433824
1449618279080917894,0.352,0.0,0.0,0.0,0.0,-0.189473684211
1449618279154522151,0.352,0.0,0.0,0.0,0.0,-0.184281026188
1449618279201816675,0.352,0.0,0.0,0.0,0.0,-0.205158245564
1449618279273641118,0.352,0.0,0.0,0.0,0.0,-0.223248665458
1449618279322595435,0.352,0.0,0.0,0.0,0.0,-0.223248665458
1449618279394439503,0.352,0.0,0.0,0.0,0.0,-0.20515676329
1449618279444109971,0.352,0.0,0.0,0.0,0.0,-0.245491864054
1449618279532836797,0.352,0.0,0.0,0.0,0.0,-0.245498288807
1449618279642377676,0.352,0.0,0.0,0.0,0.0,-0.245498288807
1449618279740932604,0.352,0.0,0.0,0.0,0.0,-0.269175788478
1449618279812147787,0.352,0.0,0.0,0.0,0.0,-0.268412598058
1449618279877679850,0.352,0.0,0.0,0.0,0.0,-0.273684210526
1449618280051751244,-0.0,0.0,0.0,0.0,0.0,0.0
1449618280068681565,-0.0,0.0,0.0,0.0,0.0,0.0
1449618280127285693,-0.0,0.0,0.0,0.0,0.0,0.0
1449618280226569036,-0.0,0.0,0.0,0.0,0.0,0.0
1449618280283874387,-0.0,0.0,0.0,0.0,0.0,0.0
1449618280770013231,-0.0,0.0,0.0,0.0,0.0,0.0
1449618280841254777,-0.0,0.0,0.0,0.0,0.0,0.0
1449618280915416166,-0.0,0.0,0.0,0.0,0.0,0.0
1449618281038132375,0.12,0.0,0.0,0.0,0.0,0.231578947368
1449618281129711629,0.12,0.0,0.0,0.0,0.0,0.231578947368
1449618281246411269,0.12,0.0,0.0,0.0,0.0,0.189473684211
1449618281324826565,0.12,0.0,0.0,0.0,0.0,0.189473684211
1449618281397967986,0.2592,0.0,0.0,0.0,0.0,0.357894736842
1449618281468851342,0.2592,0.0,0.0,0.0,0.0,0.357894736842
1449618281561489787,0.2592,0.0,0.0,0.0,0.0,0.357894736842
1449618281683870310,0.215319920945,0.0,0.0,0.0,0.0,0.147368421053
1449618283313807861,0.300632316225,0.0,0.0,0.0,0.0,0.244047179222
1449618283448794250,0.12,0.0,0.0,0.0,0.0,0.321903181954
1449618283525653855,0.12,0.0,0.0,0.0,0.0,0.358277216836
1449618283561860560,0.12,0.0,0.0,0.0,0.0,0.359403274059
1449618283644388571,0.12,0.0,0.0,0.0,0.0,0.361458649259
1449618283681693595,0.12,0.0,0.0,0.0,0.0,0.322917298518
1449618283743856937,0.12,0.0,0.0,0.0,0.0,0.276210912968
1449618283833223818,0.12,0.0,0.0,0.0,0.0,0.315789473684
1449618283871250743,0.0,0.0,0.0,0.0,0.0,0.31
1449618284020967433,0.0,0.0,0.0,0.0,0.0,0.31
1449618284020989017,0.0,0.0,0.0,0.0,0.0,0.31
1449618284059346229,0.0,0.0,0.0,0.0,0.0,0.31
1449618284129148312,0.0,0.0,0.0,0.0,0.0,0.31
1449618284196337483,0.0,0.0,0.0,0.0,0.0,0.31
1449618284238958424,0.0,0.0,0.0,0.0,0.0,0.31
1449618284308157232,0.0,0.0,0.0,0.0,0.0,0.31
1449618284398167027,0.0,0.0,0.0,0.0,0.0,0.315789473684
1449618284491182430,0.0,0.0,0.0,0.0,0.0,0.31
1449618284548743514,0.0,0.0,0.0,0.0,0.0,0.31
1449618284627172246,0.0,0.0,0.0,0.0,0.0,0.31
1449618284665249922,0.0,0.0,0.0,0.0,0.0,0.31
1449618284787234960,0.0,0.0,0.0,0.0,0.0,0.31
1449618284878247866,0.0,0.0,0.0,0.0,0.0,0.315789473684
1449618284928292940,0.0,0.0,0.0,0.0,0.0,0.31
1449618285004114239,0.0,0.0,0.0,0.0,0.0,0.31
1449618285071754130,0.0,0.0,0.0,0.0,0.0,0.315789473684
1449618285165839408,0.0,0.0,0.0,0.0,0.0,0.31
1449618285216568257,0.0,0.0,0.0,0.0,0.0,0.31
1449618285283229340,0.0,0.0,0.0,0.0,0.0,0.31
1449618285337433957,0.0,0.0,0.0,0.0,0.0,0.31
1449618285420048426,0.0,0.0,0.0,0.0,0.0,0.31
1449618285487720370,0.136537767056,0.0,0.0,0.0,0.0,0.315789473684
1449618285540496479,0.136537767056,0.0,0.0,0.0,0.0,0.315789473684
1449618285585664297,0.135843149751,0.0,0.0,0.0,0.0,0.315789473684
1449618285637812132,0.135843149751,0.0,0.0,0.0,0.0,0.315789473684
1449618285720387984,0.1664,0.0,0.0,0.0,0.0,0.357894736842
1449618285773957368,0.1664,0.0,0.0,0.0,0.0,0.357894736842
1449618285830117162,0.1664,0.0,0.0,0.0,0.0,0.357894736842
1449618285888878559,0.3056,0.0,0.0,0.0,0.0,0.315789473684
1449618285998912504,0.3056,0.0,0.0,0.0,0.0,0.315789473684
1449618286060248330,0.3056,0.0,0.0,0.0,0.0,0.315789473684
1449618286127951528,0.300259889386,0.0,0.0,0.0,0.0,0.273684210526
1449618286221063199,0.262720240442,0.0,0.0,0.0,0.0,0.231578947368
1449618286320894330,0.288405404732,0.0,0.0,0.0,0.0,0.105263157895
1449618286392974544,0.286503369712,0.0,0.0,0.0,0.0,0.105263157895
1449618286438250024,0.285551036526,0.0,0.0,0.0,0.0,0.105263157895
1449618286543134607,0.281742549951,0.0,0.0,0.0,0.0,0.105263157895
1449618286617070105,0.276976616285,0.0,0.0,0.0,0.0,0.0631578947368
1449618286680510037,0.272205974857,0.0,0.0,0.0,0.0,0.0631578947368
1449618286745957884,0.269343050336,0.0,0.0,0.0,0.0,0.0631578947368
1449618286943469117,0.242180815591,0.0,0.0,0.0,0.0,0.0
1449618287028999083,0.236422286651,0.0,0.0,0.0,0.0,-0.0210526315789
1449618287091494335,0.229705682149,0.0,0.0,0.0,0.0,0.0
1449618287180560301,0.22299337349,0.0,0.0,0.0,0.0,-0.0210526315789
1449618287284445952,0.215329208842,0.0,0.0,0.0,0.0,-0.0210526315789
1449618287354753748,0.202890320802,0.0,0.0,0.0,0.0,-0.0631578947368
1449618287452246333,0.200024130358,0.0,0.0,0.0,0.0,-0.0631578947368
1449618287510577069,0.18858281836,0.0,0.0,0.0,0.0,-0.0631578947368
1449618287547264361,0.1838289315,0.0,0.0,0.0,0.0,-0.0631578947368
1449618287630293207,0.180027658006,0.0,0.0,0.0,0.0,-0.105263157895
1449618287708393658,0.171488554932,0.0,0.0,0.0,0.0,-0.105263157895
1449618287774654062,0.164871723996,0.0,0.0,0.0,0.0,-0.105263157895
1449618287830255391,0.156394809199,0.0,0.0,0.0,0.0,-0.147368421053
1449618287888422691,0.152633092507,0.0,0.0,0.0,0.0,-0.147368421053
1449618287933063149,0.145146863493,0.0,0.0,0.0,0.0,-0.147368421053
1449618287972730435,0.141417428919,0.0,0.0,0.0,0.0,-0.147368421053
1449618288015367578,0.136777141029,0.0,0.0,0.0,0.0,-0.189473684211
1449618288061441260,0.133073001023,0.0,0.0,0.0,0.0,-0.189473684211
1449618288109883753,0.129376807317,0.0,0.0,0.0,0.0,-0.189473684211
1449618288202943854,0.121180243926,0.0,0.0,0.0,0.0,-0.189473684211
1449618288251116923,0.12,0.0,0.0,0.0,0.0,-0.273684210526
1449618288321170654,0.12,0.0,0.0,0.0,0.0,-0.315789473684
1449618288365557765,0.12,0.0,0.0,0.0,0.0,-0.315789473684
1449618288443892812,0.12,0.0,0.0,0.0,0.0,-0.315789473684
1449618288511112141,0.12,0.0,0.0,0.0,0.0,-0.315789473684
1449618288567794973,0.12,0.0,0.0,0.0,0.0,-0.357894736842
1449618288638086534,0.12,0.0,0.0,0.0,0.0,-0.357894736842
1449618288709689109,0.12,0.0,0.0,0.0,0.0,-0.357894736842
1449618288780155067,0.12,0.0,0.0,0.0,0.0,-0.4
1449618288865648340,0.12,0.0,0.0,0.0,0.0,-0.4
1449618288919309234,0.0,0.0,0.0,0.0,0.0,-0.315789473684
1449618288973491799,0.0,0.0,0.0,0.0,0.0,-0.4
1449618289106212120,0.0,0.0,0.0,0.0,0.0,-0.4
1449618289106261248,0.0,0.0,0.0,0.0,0.0,0.0
1449618289148596468,0.0,0.0,0.0,0.0,0.0,0.0
1449618296000510786,0.238935598108,0.0,0.0,0.0,0.0,0.0
1449618296040246967,0.230299609123,0.0,0.0,0.0,0.0,0.0210526315789
1449618296113769656,0.226461465716,0.0,0.0,0.0,0.0,0.0210526315789
1449618296178177721,0.221665669266,0.0,0.0,0.0,0.0,0.0210526315789
1449618296221428486,0.213994205519,0.0,0.0,0.0,0.0,0.0210526315789
1449618296320518136,0.206327602828,0.0,0.0,0.0,0.0,0.0631578947368
1449618296363650031,0.197711211244,0.0,0.0,0.0,0.0,0.0631578947368
1449618296430388144,0.193883674044,0.0,0.0,0.0,0.0,0.0631578947368
1449618296482952976,0.189104473145,0.0,0.0,0.0,0.0,0.0631578947368
1449618296526922897,0.180509806434,0.0,0.0,0.0,0.0,0.0631578947368
1449618296617884018,0.176693257163,0.0,0.0,0.0,0.0,0.0631578947368
1449618296699891402,0.170020494087,0.0,0.0,0.0,0.0,0.105263157895
1449618296764785298,0.161466175256,0.0,0.0,0.0,0.0,0.105263157895
1449618296862022675,0.152929360161,0.0,0.0,0.0,0.0,0.105263157895
1449618296955580254,0.146315560763,0.0,0.0,0.0,0.0,0.147368421053
1449618297025838101,0.129758253939,0.0,0.0,0.0,0.0,0.147368421053
1449618297146325261,0.125634606061,0.0,0.0,0.0,0.0,0.147368421053
1449618297191426805,0.12,0.0,0.0,0.0,0.0,0.189473684211
1449618297250737308,0.12,0.0,0.0,0.0,0.0,0.231578947368
1449618297310082594,0.12,0.0,0.0,0.0,0.0,0.231578947368
1449618297401711331,0.12,0.0,0.0,0.0,0.0,0.273684210526
1449618297441663412,0.12,0.0,0.0,0.0,0.0,0.315789473684
1449618297508776545,0.12,0.0,0.0,0.0,0.0,0.315789473684
1449618297560691933,0.12,0.0,0.0,0.0,0.0,0.357894736842
1449618298154649760,0.352,0.0,0.0,0.0,0.0,-0.273684210526
1449618298222240174,0.352,0.0,0.0,0.0,0.0,-0.273684210526
1449618298285692219,0.352,0.0,0.0,0.0,0.0,-0.273684210526
1449618298358172876,0.352,0.0,0.0,0.0,0.0,-0.231578947368
1449618298435399185,0.352,0.0,0.0,0.0,0.0,-0.273684210526
1449618298551135160,0.23870084711,0.0,0.0,0.0,0.0,-0.189473684211
1449618298603543253,0.235905424108,0.0,0.0,0.0,0.0,-0.189473684211
1449618298661415295,0.225618047644,0.0,0.0,0.0,0.0,-0.147368421053
1449618298753111441,0.222803654919,0.0,0.0,0.0,0.0,-0.147368421053
1449618298816982733,0.213409135228,0.0,0.0,0.0,0.0,-0.147368421053
1449618298976442688,0.352,0.0,0.0,0.0,0.0,-0.231578947368
1449618299059379879,0.352,0.0,0.0,0.0,0.0,-0.231578947368
1449618299141970961,0.352,0.0,0.0,0.0,0.0,-0.231578947368
1449618299180311865,0.352,0.0,0.0,0.0,0.0,-0.189473684211
1449618299279588699,0.352,0.0,0.0,0.0,0.0,-0.105263157895
1449618299351628929,0.352,0.0,0.0,0.0,0.0,-0.105263157895
1449618300720408983,0.231074158097,0.0,0.0,0.0,0.0,-0.0631578947368
1449618300840213100,0.352,0.0,0.0,0.0,0.0,-0.189473684211
1449618300904724278,0.352,0.0,0.0,0.0,0.0,-0.231578947368
1449618300978324818,0.352,0.0,0.0,0.0,0.0,-0.231578947368
1449618301055685779,0.352,0.0,0.0,0.0,0.0,-0.231578947368
1449618301112066444,0.352,0.0,0.0,0.0,0.0,-0.231578947368
1449618301156369953,0.352,0.0,0.0,0.0,0.0,-0.231578947368
1449618301204294243,0.352,0.0,0.0,0.0,0.0,-0.231578947368
1449618301257710464,0.352,0.0,0.0,0.0,0.0,-0.231578947368
1449618301358825176,0.352,0.0,0.0,0.0,0.0,-0.231578947368
1449618301450677065,0.352,0.0,0.0,0.0,0.0,-0.231578947368
1449618301565943918,0.352,0.0,0.0,0.0,0.0,-0.231578947368
1449618301620193476,0.352,0.0,0.0,0.0,0.0,-0.231578947368
1449618301714498777,0.352,0.0,0.0,0.0,0.0,-0.231578947368
1449618301780203223,0.349644868098,0.0,0.0,0.0,0.0,-0.231578947368
1449618301907671533,0.346944303853,0.0,0.0,0.0,0.0,-0.231578947368
1449618302044600344,0.248480327698,0.0,0.0,0.0,0.0,-0.0631578947368
1449618302109041132,0.240838217468,0.0,0.0,0.0,0.0,-0.0631578947368
1449618302217367886,0.237970065545,0.0,0.0,0.0,0.0,-0.0631578947368
1449618302290701081,0.225523301045,0.0,0.0,0.0,0.0,-0.0210526315789
1449618302325005793,0.218813275614,0.0,0.0,0.0,0.0,0.0
1449618302396076967,0.214018243879,0.0,0.0,0.0,0.0,-0.0210526315789
1449618302472929138,0.205383962977,0.0,0.0,0.0,0.0,-0.0210526315789
1449618302533353733,0.202505054399,0.0,0.0,0.0,0.0,-0.0210526315789
1449618302575971148,0.19386659285,0.0,0.0,0.0,0.0,0.0
1449618302677376341,0.189066979353,0.0,0.0,0.0,0.0,0.0
1449618302745196923,0.321177741599,0.0,0.0,0.0,0.0,0.0210526315789
1449618302810782899,0.317346182607,0.0,0.0,0.0,0.0,0.0
1449618302845874001,0.309683751248,0.0,0.0,0.0,0.0,0.0210526315789
1449618302888969100,0.30489883202,0.0,0.0,0.0,0.0,0.0631578947368
1449618302934770268,0.30203075814,0.0,0.0,0.0,0.0,0.0631578947368
1449618304661714476,0.154046051541,0.0,0.0,0.0,0.0,-0.315789473684
1449618304758536644,0.14833148909,0.0,0.0,0.0,0.0,-0.4
1449618304841656459,0.141908413784,0.0,0.0,0.0,0.0,-0.357894736842
1449618304875600527,0.140322357386,0.0,0.0,0.0,0.0,-0.357894736842
1449618304932445139,0.129847599443,0.0,0.0,0.0,0.0,-0.4
1449618304962585552,0.12563348187,0.0,0.0,0.0,0.0,-0.4
1449618305032232136,0.13254310394,0.0,0.0,0.0,0.0,-0.4
1449618305082034091,0.131012483392,0.0,0.0,0.0,0.0,-0.4
1449618305147419529,0.126351359791,0.0,0.0,0.0,0.0,-0.4
1449618305218065019,0.12113520661,0.0,0.0,0.0,0.0,-0.357894736842
1449618305275634612,0.122653876273,0.0,0.0,0.0,0.0,-0.4
1449618305329698159,0.12,0.0,0.0,0.0,0.0,-0.4
1449618305374020587,0.12,0.0,0.0,0.0,0.0,-0.357894736842
1449618305418295248,0.12,0.0,0.0,0.0,0.0,-0.4
1449618305508123560,0.12,0.0,0.0,0.0,0.0,-0.4
1449618305562806737,0.12,0.0,0.0,0.0,0.0,-0.4
1449618305658377843,0.12,0.0,0.0,0.0,0.0,-0.4
1449618305752103349,0.12,0.0,0.0,0.0,0.0,-0.4
1449618305820012656,0.12,0.0,0.0,0.0,0.0,-0.4
1449618305875991710,0.12,0.0,0.0,0.0,0.0,-0.4
1449618305944835121,0.12,0.0,0.0,0.0,0.0,-0.4
1449618305989961801,0.12,0.0,0.0,0.0,0.0,-0.4
1449618306040450570,0.12,0.0,0.0,0.0,0.0,-0.4
1449618306099734942,0.12,0.0,0.0,0.0,0.0,-0.4
1449618306208056339,0.12,0.0,0.0,0.0,0.0,-0.4
1449618306271998031,0.12,0.0,0.0,0.0,0.0,-0.4
1449618306347152394,0.12,0.0,0.0,0.0,0.0,-0.4
1449618306435826377,0.12,0.0,0.0,0.0,0.0,-0.4
1449618306476426778,0.0,0.0,0.0,0.0,0.0,-0.4
1449618306549483037,0.0,0.0,0.0,0.0,0.0,-0.4
1449618306591463491,0.0,0.0,0.0,0.0,0.0,-0.4
1449618306630150608,0.0,0.0,0.0,0.0,0.0,-0.4
1449618306718642536,0.0,0.0,0.0,0.0,0.0,-0.4
1449618306774768301,0.0,0.0,0.0,0.0,0.0,-0.4
1449618306860817224,0.0,0.0,0.0,0.0,0.0,-0.4
1449618306934121262,0.0,0.0,0.0,0.0,0.0,-0.4
1449618307003509209,0.0,0.0,0.0,0.0,0.0,-0.4
1449618307052228846,0.0,0.0,0.0,0.0,0.0,-0.4
1449618307104487919,0.0,0.0,0.0,0.0,0.0,-0.4
1449618307152528736,0.0,0.0,0.0,0.0,0.0,-0.4
1449618307239665450,0.0,0.0,0.0,0.0,0.0,-0.4
1449618307310622735,0.0,0.0,0.0,0.0,0.0,-0.4
1449618307358769366,0.0,0.0,0.0,0.0,0.0,-0.4
1449618307423791127,0.0,0.0,0.0,0.0,0.0,-0.4
1449618307491403083,0.0,0.0,0.0,0.0,0.0,-0.4
1449618307551054721,0.0,0.0,0.0,0.0,0.0,-0.4
1449618307585700208,0.0,0.0,0.0,0.0,0.0,-0.4
1449618307624301128,0.0,0.0,0.0,0.0,0.0,-0.4
1449618307659787177,0.0,0.0,0.0,0.0,0.0,-0.4
1449618307756944563,0.0,0.0,0.0,0.0,0.0,-0.4
1449618307785523584,0.0,0.0,0.0,0.0,0.0,-0.4
1449618307854959309,0.0,0.0,0.0,0.0,0.0,-0.4
1449618307931780847,0.0,0.0,0.0,0.0,0.0,-0.4
1449618307988025092,0.0,0.0,0.0,0.0,0.0,-0.4
1449618308042778429,0.0,0.0,0.0,0.0,0.0,-0.4
1449618308101827981,0.0,0.0,0.0,0.0,0.0,-0.4
1449618308161881282,0.0,0.0,0.0,0.0,0.0,-0.4
1449618308240068166,0.0,0.0,0.0,0.0,0.0,-0.4
1449618308281760093,0.0,0.0,0.0,0.0,0.0,-0.4
1449618308377277239,0.0,0.0,0.0,0.0,0.0,-0.4
1449618308420886728,0.0,0.0,0.0,0.0,0.0,-0.4
1449618308522441091,0.0,0.0,0.0,0.0,0.0,-0.4
1449618308576017508,0.0,0.0,0.0,0.0,0.0,-0.4
1449618308649460638,0.0,0.0,0.0,0.0,0.0,-0.4
1449618308726519014,0.0,0.0,0.0,0.0,0.0,-0.4
1449618308771365072,0.0,0.0,0.0,0.0,0.0,-0.4
1449618308850598529,0.0,0.0,0.0,0.0,0.0,-0.4
1449618308894038916,0.0,0.0,0.0,0.0,0.0,-0.4
1449618309009849314,0.0,0.0,0.0,0.0,0.0,-0.4
1449618309083308009,0.0,0.0,0.0,0.0,0.0,-0.4
1449618309147921039,0.0,0.0,0.0,0.0,0.0,-0.4
1449618309246374762,0.0,0.0,0.0,0.0,0.0,-0.4
1449618309334870290,0.0,0.0,0.0,0.0,0.0,-0.4
1449618309440874987,0.0,0.0,0.0,0.0,0.0,-0.4
1449618309535885932,0.0,0.0,0.0,0.0,0.0,-0.4
1449618309582590221,0.0,0.0,0.0,0.0,0.0,-0.4
1449618309630153584,0.0,0.0,0.0,0.0,0.0,-0.4
1449618309721461479,0.0,0.0,0.0,0.0,0.0,-0.4
1449618309809842072,0.0,0.0,0.0,0.0,0.0,-0.4
1449618309874412213,0.0,0.0,0.0,0.0,0.0,-0.4
1449618309957743346,0.0,0.0,0.0,0.0,0.0,-0.4
1449618310077700745,0.0,0.0,0.0,0.0,0.0,-0.4
1449618310136695011,0.0,0.0,0.0,0.0,0.0,-0.4
1449618310229798317,0.0,0.0,0.0,0.0,0.0,-0.4
1449618310229802493,0.0,0.0,0.0,0.0,0.0,0.0
1449618310377234208,0.0,0.0,0.0,0.0,0.0,-0.4
1449618310451939904,0.0,0.0,0.0,0.0,0.0,-0.31
1449618310510598821,0.0,0.0,0.0,0.0,0.0,-0.4
1449618310564655695,0.0,0.0,0.0,0.0,0.0,-0.4
1449618310620805963,0.0,0.0,0.0,0.0,0.0,-0.351232042689
1449618310687262731,0.0,0.0,0.0,0.0,0.0,-0.393389008045
1449618310760967109,0.0,0.0,0.0,0.0,0.0,-0.393389008045
1449618310838156582,0.0,0.0,0.0,0.0,0.0,-0.4
1449618310918781073,0.0,0.0,0.0,0.0,0.0,-0.4
1449618310967755253,0.0,0.0,0.0,0.0,0.0,-0.4
1449618311040020139,0.0,0.0,0.0,0.0,0.0,-0.4
1449618311584182908,0.0,0.0,0.0,0.0,0.0,-0.4
1449618311636864735,0.0,0.0,0.0,0.0,0.0,-0.4
1449618311718450908,0.0,0.0,0.0,0.0,0.0,-0.4
1449618311772254773,0.0,0.0,0.0,0.0,0.0,-0.4
1449618311820991452,0.0,0.0,0.0,0.0,0.0,-0.4
1449618311875954053,0.0,0.0,0.0,0.0,0.0,-0.4
1449618311965059443,0.0,0.0,0.0,0.0,0.0,-0.4
1449618312072821317,0.0,0.0,0.0,0.0,0.0,-0.4
1449618312173739298,0.0,0.0,0.0,0.0,0.0,-0.4
1449618312228224562,0.0,0.0,0.0,0.0,0.0,-0.4
1449618312313687775,0.0,0.0,0.0,0.0,0.0,-0.4
1449618312372302689,0.153709123101,0.0,0.0,0.0,0.0,0.273684210526
1449618312437199006,0.153709123101,0.0,0.0,0.0,0.0,0.273684210526
1449618312504260756,0.152802283021,0.0,0.0,0.0,0.0,0.189473684211
1449618312541811411,0.151892787511,0.0,0.0,0.0,0.0,0.231578947368
1449618312599578130,0.151892787511,0.0,0.0,0.0,0.0,0.231578947368
1449618312642098678,0.150053914961,0.0,0.0,0.0,0.0,0.189473684211
1449618312706358638,0.150053914961,0.0,0.0,0.0,0.0,0.189473684211
1449618312784014102,0.149125532799,0.0,0.0,0.0,0.0,0.191367018537
1449618312861765528,0.147262392411,0.0,0.0,0.0,0.0,0.149640422244
1449618312969458264,0.145380392649,0.0,0.0,0.0,0.0,0.127408564969
1449618312996518495,0.142545896394,0.0,0.0,0.0,0.0,0.0884643966273
1449618313035955284,0.139698006368,0.0,0.0,0.0,0.0,0.0884643966273
1449618313206671412,0.0,0.0,0.0,0.0,0.0,-0.315082839727
1449618313288904254,0.0,0.0,0.0,0.0,0.0,-0.31
1449618313379373041,0.0,0.0,0.0,0.0,0.0,-0.31
1449618313437535648,0.12,0.0,0.0,0.0,0.0,0.330446372158
1449618313489478378,0.0,0.0,0.0,0.0,0.0,-0.31
1449618313581766424,0.12,0.0,0.0,0.0,0.0,0.295678442466
1449618313644827349,0.12,0.0,0.0,0.0,0.0,0.291472508154
1449618313684130705,0.0,0.0,0.0,0.0,0.0,-0.31
1449618313764198545,0.0,0.0,0.0,0.0,0.0,-0.31
1449618313808203098,0.12,0.0,0.0,0.0,0.0,0.212207531615
1449618313870198723,0.12,0.0,0.0,0.0,0.0,0.212207531615
1449618313962431939,0.0,0.0,0.0,0.0,0.0,0.0
1449618314803365851,0.0,0.0,0.0,0.0,0.0,0.0
1449618314858183801,0.0,0.0,0.0,0.0,0.0,0.0
1449618315650207237,0.0,0.0,0.0,0.0,0.0,-0.4
1449618315739930029,0.0,0.0,0.0,0.0,0.0,-0.315789473684
1449618315891637919,0.0,0.0,0.0,0.0,0.0,-0.4
1449618316037293626,0.0,0.0,0.0,0.0,0.0,-0.4
1449618316147955845,0.0,0.0,0.0,0.0,0.0,-0.31
1449618316243276705,0.0,0.0,0.0,0.0,0.0,-0.4
1449618316301534533,0.0,0.0,0.0,0.0,0.0,-0.4
1449618316381943703,0.0,0.0,0.0,0.0,0.0,-0.4
1449618316472402372,0.0,0.0,0.0,0.0,0.0,-0.4
1449618316543113057,0.0,0.0,0.0,0.0,0.0,-0.315789473684
1449618316650395578,0.0,0.0,0.0,0.0,0.0,-0.31
1449618316730496376,0.0,0.0,0.0,0.0,0.0,-0.4
1449618317195194880,-0.0,0.0,0.0,0.0,0.0,0.0
1449618317279991438,-0.0,0.0,0.0,0.0,0.0,0.0
1449618317376998874,-0.0,0.0,0.0,0.0,0.0,0.0
1449618317493507748,0.0,0.0,0.0,0.0,0.0,0.0
1449618317578263386,0.0,0.0,0.0,0.0,0.0,0.0
1449618317661369551,-0.1,0.0,0.0,0.0,0.0,0.0
1449618317720005139,-0.1,0.0,0.0,0.0,0.0,0.0
1449618317858209958,0.0,0.0,0.0,0.0,0.0,-0.31
1449618317947012485,-0.1,0.0,0.0,0.0,0.0,0.0
1449618318019362741,-0.1,0.0,0.0,0.0,0.0,0.0
1449618318063717364,-0.1,0.0,0.0,0.0,0.0,0.0
1449618318166436705,-0.1,0.0,0.0,0.0,0.0,0.0
1449618318275522748,-0.1,0.0,0.0,0.0,0.0,0.0
1449618318453042093,0.0,0.0,0.0,0.0,0.0,-0.315789473684
1449618318510901669,0.0,0.0,0.0,0.0,0.0,-0.315789473684
1449618318583902118,0.0,0.0,0.0,0.0,0.0,-0.31
1449618318665635704,0.0,0.0,0.0,0.0,0.0,-0.31
1449618318774014884,0.0,0.0,0.0,0.0,0.0,-0.31
1449618318897991566,0.0,0.0,0.0,0.0,0.0,-0.31
1449618318980756765,0.2592,0.0,0.0,0.0,0.0,0.369393294861
1449618319032094501,0.2592,0.0,0.0,0.0,0.0,0.369393034483
1449618319163221080,0.2592,0.0,0.0,0.0,0.0,0.370784191207
1449618319256455239,0.177006426964,0.0,0.0,0.0,0.0,0.2399304597
1449618319327259279,0.169806393817,0.0,0.0,0.0,0.0,0.216216736844
1449618319359339363,0.167985333168,0.0,0.0,0.0,0.0,0.185845997083
1449618319447175570,0.166153847283,0.0,0.0,0.0,0.0,0.184315807819
1449618319513834843,0.161550818234,0.0,0.0,0.0,0.0,0.184315807819
1449618319570943430,0.148776730873,0.0,0.0,0.0,0.0,0.144671802521
1449618319688551458,0.154101566035,0.0,0.0,0.0,0.0,0.144799544686
1449618319753766352,0.147513631733,0.0,0.0,0.0,0.0,0.112603880104
1449618319802817127,0.0,0.0,0.0,0.0,0.0,0.0
1449618319850945917,0.0,0.0,0.0,0.0,0.0,0.0
1449618319931540608,0.0,0.0,0.0,0.0,0.0,-0.31
1449618319968904044,0.0,0.0,0.0,0.0,0.0,-0.31
1449618320046367221,0.0,0.0,0.0,0.0,0.0,-0.31
1449618320115668159,0.0,0.0,0.0,0.0,0.0,-0.31
1449618320201330636,0.0,0.0,0.0,0.0,0.0,-0.333380839825
1449618320274485906,0.0,0.0,0.0,0.0,0.0,-0.333380839825
1449618320357750380,0.0,0.0,0.0,0.0,0.0,-0.392946175337
1449618321398153207,0.0,0.0,0.0,0.0,0.0,-0.315789473684
1449618323101747746,0.0,0.0,0.0,0.0,0.0,-0.4
1449618323204187013,-0.0,0.0,0.0,0.0,0.0,0.0
1449618323301734330,0.179017748809,0.0,0.0,0.0,0.0,0.357894736842
1449618323396819593,0.177282305039,0.0,0.0,0.0,0.0,0.315789473684
1449618323457653349,0.175533482166,0.0,0.0,0.0,0.0,0.315789473684
1449618323498759430,0.173784022501,0.0,0.0,0.0,0.0,0.315789473684
1449618323558659892,0.172906477024,0.0,0.0,0.0,0.0,0.315789473684
1449618323636463525,0.170250719818,0.0,0.0,0.0,0.0,0.315789473684
1449618323705665735,0.169360598341,0.0,0.0,0.0,0.0,0.273684210526
1449618323776709844,0.166668660498,0.0,0.0,0.0,0.0,0.273684210526
1449618323858417384,0.163951351374,0.0,0.0,0.0,0.0,0.275007735177
1449618323969664523,0.160289122541,0.0,0.0,0.0,0.0,0.191679558628
1449618324102344252,0.154724638938,0.0,0.0,0.0,0.0,0.184057304859
1449618324176547805,0.14908725111,0.0,0.0,0.0,0.0,0.144002147474
1449618324226658080,0.14529602868,0.0,0.0,0.0,0.0,0.112002415908
1449618324269524960,0.143392364412,0.0,0.0,0.0,0.0,0.112002415908
1449618324314312862,0.141484200471,0.0,0.0,0.0,0.0,0.0800026843422
1449618324415675957,0.0,0.0,0.0,0.0,0.0,-0.31
1449618324538614952,0.0,0.0,0.0,0.0,0.0,-0.31
1449618324578286457,0.0,0.0,0.0,0.0,0.0,-0.31
1449618324643834561,0.0,0.0,0.0,0.0,0.0,-0.31
1449618324703610935,0.0,0.0,0.0,0.0,0.0,-0.31
1449618324750089182,0.0,0.0,0.0,0.0,0.0,-0.31
1449618324803363031,0.0,0.0,0.0,0.0,0.0,-0.31
1449618324886136751,0.0,0.0,0.0,0.0,0.0,-0.31
1449618328944317695,0.0,0.0,0.0,0.0,0.0,0.0
1449618328996236184,0.0,0.0,0.0,0.0,0.0,0.0
1449618329167169229,0.258011569633,0.0,0.0,0.0,0.0,-0.0631578947368
1449618329246182246,0.258011569633,0.0,0.0,0.0,0.0,-0.0631578947368
1449618329311599364,0.258011569633,0.0,0.0,0.0,0.0,-0.0631578947368
1449618329368177212,0.258011569633,0.0,0.0,0.0,0.0,-0.0631578947368
1449618329436295477,0.2560949924,0.0,0.0,0.0,0.0,-0.0631578947368
1449618329497605017,0.2560949924,0.0,0.0,0.0,0.0,-0.0631578947368
1449618329568315870,0.2560949924,0.0,0.0,0.0,0.0,-0.0631578947368
1449618329633556489,0.254178464736,0.0,0.0,0.0,0.0,-0.0631578947368
1449618329773789289,0.252261985296,0.0,0.0,0.0,0.0,-0.0631578947368
1449618329866708088,0.248429188157,0.0,0.0,0.0,0.0,-0.0631578947368
1449618330003681614,0.244596037257,0.0,0.0,0.0,0.0,-0.0631578947368
1449618330072348171,0.239803875043,0.0,0.0,0.0,0.0,-0.0210526315789
1449618330166964918,0.235969418773,0.0,0.0,0.0,0.0,-0.0210526315789
1449618330279683814,0.121088725897,0.0,0.0,0.0,0.0,0.0
1449618330439342069,0.131325142923,0.0,0.0,0.0,0.0,-0.0210526315789
1449618330525528295,0.130176271571,0.0,0.0,0.0,0.0,-0.0210526315789
1449618330591755182,0.129027067879,0.0,0.0,0.0,0.0,-0.0210526315789
1449618330672269851,0.127878367135,0.0,0.0,0.0,0.0,-0.0210526315789
1449618330748025924,0.124869081813,0.0,0.0,0.0,0.0,0.0
1449618330876868282,0.121668275836,0.0,0.0,0.0,0.0,0.0
1449618330921922769,0.12,0.0,0.0,0.0,0.0,0.0
1449618330991855116,0.12,0.0,0.0,0.0,0.0,0.0
1449618331098306057,0.12,0.0,0.0,0.0,0.0,0.0
1449618331153749613,0.12,0.0,0.0,0.0,0.0,0.0
1449618331218058923,0.12,0.0,0.0,0.0,0.0,-0.0210526315789
1449618331329692369,0.167279917679,0.0,0.0,0.0,0.0,-0.0631578947368
1449618331392335325,0.163463486921,0.0,0.0,0.0,0.0,-0.0631578947368
1449618331468043694,0.160605501849,0.0,0.0,0.0,0.0,-0.105263157895
1449618331555841003,0.155837776399,0.0,0.0,0.0,0.0,-0.105263157895
1449618331569920704,0.0,0.0,0.0,0.0,0.0,0.0
1449618331569927350,0.0,0.0,0.0,0.0,0.0,0.0
1449618331681207520,0.0,0.0,0.0,0.0,0.0,0.0
1449618331782184354,0.0,0.0,0.0,0.0,0.0,0.0
1449618331882355220,0.0,0.0,0.0,0.0,0.0,0.0
1449618331981653753,0.0,0.0,0.0,0.0,0.0,0.0
1449618332085704517,0.0,0.0,0.0,0.0,0.0,0.0
1449618332130586356,0.0,0.0,0.0,0.0,0.0,0.0
1449618332286013940,0.0,0.0,0.0,0.0,0.0,0.0
