%time,field.header.seq,field.header.stamp,field.header.frame_id,field.polygon.points0.x,field.polygon.points0.y,field.polygon.points0.z,field.polygon.points1.x,field.polygon.points1.y,field.polygon.points1.z,field.polygon.points2.x,field.polygon.points2.y,field.polygon.points2.z,field.polygon.points3.x,field.polygon.points3.y,field.polygon.points3.z,field.polygon.points4.x,field.polygon.points4.y,field.polygon.points4.z
1449618215470244645,1,1449618215469949684,odom,0.479999989271,0.0,0.0,0.329999983311,-0.264999985695,0.0,-0.539999961853,-0.264999985695,0.0,-0.539999961853,0.264999985695,0.0,0.329999983311,0.264999985695,0.0
1449618215751008870,2,1449618215749556285,odom,0.479999989271,0.0,0.0,0.329999983311,-0.264999985695,0.0,-0.539999961853,-0.264999985695,0.0,-0.539999961853,0.264999985695,0.0,0.329999983311,0.264999985695,0.0
1449618216016384991,3,1449618216016139077,odom,0.479999989271,0.0,0.0,0.329999983311,-0.264999985695,0.0,-0.539999961853,-0.264999985695,0.0,-0.539999961853,0.264999985695,0.0,0.329999983311,0.264999985695,0.0
1449618216174868338,4,1449618216174657160,odom,0.479999989271,0.0,0.0,0.329999983311,-0.264999985695,0.0,-0.539999961853,-0.264999985695,0.0,-0.539999961853,0.264999985695,0.0,0.329999983311,0.264999985695,0.0
1449618216381928939,5,1449618216381302537,odom,0.479999989271,0.0,0.0,0.329999983311,-0.264999985695,0.0,-0.539999961853,-0.264999985695,0.0,-0.539999961853,0.264999985695,0.0,0.329999983311,0.264999985695,0.0
1449618216591549983,6,1449618216591375780,odom,0.479999989271,0.0,0.0,0.329999983311,-0.264999985695,0.0,-0.539999961853,-0.264999985695,0.0,-0.539999961853,0.264999985695,0.0,0.329999983311,0.264999985695,0.0
1449618216766851314,7,1449618216766326169,odom,0.479999989271,0.0,0.0,0.329999983311,-0.264999985695,0.0,-0.539999961853,-0.264999985695,0.0,-0.539999961853,0.264999985695,0.0,0.329999983311,0.264999985695,0.0
1449618216972626272,8,1449618216972352411,odom,0.479999989271,0.0,0.0,0.329999983311,-0.264999985695,0.0,-0.539999961853,-0.264999985695,0.0,-0.539999961853,0.264999985695,0.0,0.329999983311,0.264999985695,0.0
1449618217165951998,9,1449618217165344882,odom,0.479999989271,0.0,0.0,0.329999983311,-0.264999985695,0.0,-0.539999961853,-0.264999985695,0.0,-0.539999961853,0.264999985695,0.0,0.329999983311,0.264999985695,0.0
1449618217415838803,10,1449618217415477149,odom,0.479999989271,0.0,0.0,0.329999983311,-0.264999985695,0.0,-0.539999961853,-0.264999985695,0.0,-0.539999961853,0.264999985695,0.0,0.329999983311,0.264999985695,0.0
1449618217601434923,11,1449618217601061091,odom,0.479999989271,0.0,0.0,0.329999983311,-0.264999985695,0.0,-0.539999961853,-0.264999985695,0.0,-0.539999961853,0.264999985695,0.0,0.329999983311,0.264999985695,0.0
1449618217851341476,12,1449618217851192333,odom,0.479999989271,0.0,0.0,0.329999983311,-0.264999985695,0.0,-0.539999961853,-0.264999985695,0.0,-0.539999961853,0.264999985695,0.0,0.329999983311,0.264999985695,0.0
1449618217972180281,13,1449618217971690517,odom,0.479999989271,0.0,0.0,0.329999983311,-0.264999985695,0.0,-0.539999961853,-0.264999985695,0.0,-0.539999961853,0.264999985695,0.0,0.329999983311,0.264999985695,0.0
1449618218197092031,14,1449618218196628477,odom,0.479999989271,0.0,0.0,0.329999983311,-0.264999985695,0.0,-0.539999961853,-0.264999985695,0.0,-0.539999961853,0.264999985695,0.0,0.329999983311,0.264999985695,0.0
1449618218357584895,15,1449618218357369128,odom,0.479999989271,0.0,0.0,0.329999983311,-0.264999985695,0.0,-0.539999961853,-0.264999985695,0.0,-0.539999961853,0.264999985695,0.0,0.329999983311,0.264999985695,0.0
1449618218631314429,16,1449618218627421601,odom,0.479999989271,0.0,0.0,0.329999983311,-0.264999985695,0.0,-0.539999961853,-0.264999985695,0.0,-0.539999961853,0.264999985695,0.0,0.329999983311,0.264999985695,0.0
1449618218775579853,17,1449618218775423349,odom,0.479999989271,0.0,0.0,0.329999983311,-0.264999985695,0.0,-0.539999961853,-0.264999985695,0.0,-0.539999961853,0.264999985695,0.0,0.329999983311,0.264999985695,0.0
1449618218970264619,18,1449618218970125961,odom,0.479999989271,0.0,0.0,0.329999983311,-0.264999985695,0.0,-0.539999961853,-0.264999985695,0.0,-0.539999961853,0.264999985695,0.0,0.329999983311,0.264999985695,0.0
1449618219190023826,19,1449618219187498521,odom,0.479999989271,0.0,0.0,0.329999983311,-0.264999985695,0.0,-0.539999961853,-0.264999985695,0.0,-0.539999961853,0.264999985695,0.0,0.329999983311,0.264999985695,0.0
1449618219396650504,20,1449618219396307026,odom,0.479999989271,0.0,0.0,0.329999983311,-0.264999985695,0.0,-0.539999961853,-0.264999985695,0.0,-0.539999961853,0.264999985695,0.0,0.329999983311,0.264999985695,0.0
1449618219604857600,21,1449618219603953632,odom,0.479999989271,0.0,0.0,0.329999983311,-0.264999985695,0.0,-0.539999961853,-0.264999985695,0.0,-0.539999961853,0.264999985695,0.0,0.329999983311,0.264999985695,0.0
1449618219817408921,22,1449618219815545879,odom,0.479999989271,0.0,0.0,0.329999983311,-0.264999985695,0.0,-0.539999961853,-0.264999985695,0.0,-0.539999961853,0.264999985695,0.0,0.329999983311,0.264999985695,0.0
1449618220022821073,23,1449618220021552912,odom,0.479999989271,0.0,0.0,0.329999983311,-0.264999985695,0.0,-0.539999961853,-0.264999985695,0.0,-0.539999961853,0.264999985695,0.0,0.329999983311,0.264999985695,0.0
1449618220174976422,24,1449618220173480241,odom,0.479999989271,0.0,0.0,0.329999983311,-0.264999985695,0.0,-0.539999961853,-0.264999985695,0.0,-0.539999961853,0.264999985695,0.0,0.329999983311,0.264999985695,0.0
1449618220395325729,25,1449618220395029489,odom,0.479999989271,0.0,0.0,0.329999983311,-0.264999985695,0.0,-0.539999961853,-0.264999985695,0.0,-0.539999961853,0.264999985695,0.0,0.329999983311,0.264999985695,0.0
1449618220557349972,26,1449618220555689347,odom,0.479999989271,0.0,0.0,0.329999983311,-0.264999985695,0.0,-0.539999961853,-0.264999985695,0.0,-0.539999961853,0.264999985695,0.0,0.329999983311,0.264999985695,0.0
1449618220802711669,27,1449618220802413034,odom,0.479999989271,0.0,0.0,0.329999983311,-0.264999985695,0.0,-0.539999961853,-0.264999985695,0.0,-0.539999961853,0.264999985695,0.0,0.329999983311,0.264999985695,0.0
1449618220961366012,28,1449618220960921532,odom,0.479999989271,0.0,0.0,0.329999983311,-0.264999985695,0.0,-0.539999961853,-0.264999985695,0.0,-0.539999961853,0.264999985695,0.0,0.329999983311,0.264999985695,0.0
1449618221161970108,29,1449618221161766522,odom,0.479999989271,0.0,0.0,0.329999983311,-0.264999985695,0.0,-0.539999961853,-0.264999985695,0.0,-0.539999961853,0.264999985695,0.0,0.329999983311,0.264999985695,0.0
1449618221384832477,30,1449618221384447387,odom,0.479999989271,0.0,0.0,0.329999983311,-0.264999985695,0.0,-0.539999961853,-0.264999985695,0.0,-0.539999961853,0.264999985695,0.0,0.329999983311,0.264999985695,0.0
1449618221578470524,31,1449618221576093857,odom,0.479999989271,0.0,0.0,0.329999983311,-0.264999985695,0.0,-0.539999961853,-0.264999985695,0.0,-0.539999961853,0.264999985695,0.0,0.329999983311,0.264999985695,0.0
1449618221798099134,32,1449618221796820779,odom,0.479999989271,0.0,0.0,0.329999983311,-0.264999985695,0.0,-0.539999961853,-0.264999985695,0.0,-0.539999961853,0.264999985695,0.0,0.329999983311,0.264999985695,0.0
1449618221980421240,33,1449618221980219968,odom,0.479999989271,0.0,0.0,0.329999983311,-0.264999985695,0.0,-0.539999961853,-0.264999985695,0.0,-0.539999961853,0.264999985695,0.0,0.329999983311,0.264999985695,0.0
1449618222165766285,34,1449618222165419941,odom,0.479999989271,0.0,0.0,0.329999983311,-0.264999985695,0.0,-0.539999961853,-0.264999985695,0.0,-0.539999961853,0.264999985695,0.0,0.329999983311,0.264999985695,0.0
1449618222379536542,35,1449618222378660861,odom,0.477093547583,0.00504213571548,0.0,0.329902410507,-0.261528253555,0.0,-0.540048956871,-0.270722270012,0.0,-0.545649945736,0.259248137474,0.0,0.324301451445,0.268442153931,0.0
1449618222604152353,36,1449618222603989905,odom,0.480000168085,-3.04332297674e-05,0.0,0.330000162125,-0.265030413866,0.0,-0.539999783039,-0.265030413866,0.0,-0.539999783039,0.264969557524,0.0,0.330000162125,0.264969557524,0.0
1449618222775967196,37,1449618222775662774,odom,0.480000168085,-3.04332297674e-05,0.0,0.330000162125,-0.265030413866,0.0,-0.539999783039,-0.265030413866,0.0,-0.539999783039,0.264969557524,0.0,0.330000162125,0.264969557524,0.0
1449618223038886938,38,1449618223032259199,odom,0.477093726397,0.00501170242205,0.0,0.329902559519,-0.261558681726,0.0,-0.540048778057,-0.270752698183,0.0,-0.545649766922,0.259217679501,0.0,0.324301600456,0.26841172576,0.0
1449618223217118473,39,1449618223210628511,odom,0.480000317097,-6.08664595347e-05,0.0,0.330000311136,-0.26506087184,0.0,-0.53999966383,-0.26506087184,0.0,-0.53999966383,0.264939129353,0.0,0.330000311136,0.264939129353,0.0
1449618223576152556,40,1449618223575464368,odom,0.480000317097,-6.08664595347e-05,0.0,0.330000311136,-0.26506087184,0.0,-0.53999966383,-0.26506087184,0.0,-0.53999966383,0.264939129353,0.0,0.330000311136,0.264939129353,0.0
1449618224048930582,41,1449618224046461787,odom,0.480000317097,-6.08664595347e-05,0.0,0.330000311136,-0.26506087184,0.0,-0.53999966383,-0.26506087184,0.0,-0.53999966383,0.264939129353,0.0,0.330000311136,0.264939129353,0.0
1449618224397640981,42,1449618224396016205,odom,0.485759735107,-9.12996838451e-05,0.0,0.335759729147,-0.265091300011,0.0,-0.534240245819,-0.265091300011,0.0,-0.534240245819,0.264908701181,0.0,0.335759729147,0.264908701181,0.0
1449618224603897778,43,1449618224601159588,odom,0.49437135458,-0.00528559833765,0.0,0.341579258442,-0.268685609102,0.0,-0.528372108936,-0.259491592646,0.0,-0.522771179676,0.27047881484,0.0,0.347180217505,0.261284768581,0.0
1449618224703736044,44,1449618224701876106,odom,0.505672752857,-0.0157023444772,0.0,0.347347915173,-0.27581435442,0.0,-0.522214829922,-0.248236358166,0.0,-0.505414426327,0.281497299671,0.0,0.364148318768,0.253919303417,0.0
1449618224907795536,45,1449618224905657731,odom,0.517186105251,-0.0160674899817,0.0,0.358861297369,-0.276179492474,0.0,-0.510701477528,-0.24860149622,0.0,-0.493901073933,0.281132131815,0.0,0.375661700964,0.253554165363,0.0
1449618225155370084,46,1449618225153762259,odom,0.530844151974,-0.0319673120975,0.0,0.364353656769,-0.286929875612,0.0,-0.50389790535,-0.231801629066,0.0,-0.470314055681,0.297133266926,0.0,0.39793753624,0.242005005479,0.0
1449618225392950248,47,1449618225392680978,odom,0.550611615181,-0.0383356958628,0.0,0.381435990334,-0.291524589062,0.0,-0.486184507608,-0.227223858237,0.0,-0.447012811899,0.301326572895,0.0,0.420607715845,0.237025856972,0.0
1449618225665616841,48,1449618225664883356,odom,0.579985558987,-0.0301571562886,0.0,0.416198730469,-0.286864936352,0.0,-0.452586948872,-0.240915313363,0.0,-0.424594640732,0.288344949484,0.0,0.444191038609,0.242395326495,0.0
1449618225911197190,49,1449618225906409327,odom,0.612312436104,-0.00580965448171,0.0,0.462312459946,-0.270809650421,0.0,-0.40768751502,-0.270809650421,0.0,-0.40768751502,0.259190350771,0.0,0.462312459946,0.259190350771,0.0
1449618226287500103,50,1449618226286578100,odom,0.66709125042,0.0483488366008,0.0,0.545881330967,-0.230995312333,0.0,-0.319264918566,-0.322766274214,0.0,-0.375171393156,0.204276844859,0.0,0.489974856377,0.29604780674,0.0
1449618226560021142,51,1449618226559585075,odom,0.741733729839,0.1241607517,0.0,0.656827747822,-0.168270394206,0.0,-0.189764052629,-0.368725448847,0.0,-0.311880350113,0.147014394403,0.0,0.534711480141,0.347469449043,0.0
1449618226851994466,52,1449618226851187644,odom,0.793541193008,0.164731323719,0.0,0.724198698997,-0.131776034832,0.0,-0.110624365509,-0.376664608717,0.0,-0.259809374809,0.13190574944,0.0,0.575013697147,0.376794338226,0.0
1449618227184821704,53,1449618227180766951,odom,0.886123716831,0.215756073594,0.0,0.829373419285,-0.0834167897701,0.0,0.00564507301897,-0.363365888596,0.0,-0.164898648858,0.138445645571,0.0,0.658829748631,0.418394774199,0.0
1449618227792289016,54,1449618227790772168,odom,0.969629108906,0.256071686745,0.0,0.919214367867,-0.0442337356508,0.0,0.101586557925,-0.341529428959,0.0,-0.0795246139169,0.1565656811,0.0,0.738103210926,0.453861355782,0.0
1449618227963980438,55,1449618227961874387,odom,1.10053992271,0.273135244846,0.0,1.03433477879,-0.024088351056,0.0,0.202146276832,-0.277785539627,0.0,0.0475951135159,0.229179859161,0.0,0.879783570766,0.48287704587,0.0
1449618228523119680,56,1449618228522414515,odom,1.21281611919,0.265282720327,0.0,1.12482452393,-0.0262348335236,0.0,0.276161581278,-0.217732042074,0.0,0.159502357244,0.299269527197,0.0,1.00816524029,0.490766733885,0.0
1449618228852557239,57,1449618228848869472,odom,1.32617270947,0.25522133708,0.0,1.2198857069,-0.0301347170025,0.0,0.360793918371,-0.167470872402,0.0,0.277129381895,0.355883926153,0.0,1.13622117043,0.493220061064,0.0
1449618229507737476,58,1449618229506939045,odom,1.51486372948,0.222842246294,0.0,1.3790692091,-0.0497102290392,0.0,0.510283529758,-0.0956598520279,0.0,0.482291251421,0.433600395918,0.0,1.35107696056,0.479550033808,0.0
1449618229850187808,59,1449618229847647487,odom,1.59609127045,0.205179914832,0.0,1.44890010357,-0.0613904632628,0.0,0.578948736191,-0.0705844983459,0.0,0.573347747326,0.45938590169,0.0,1.44329917431,0.468579918146,0.0
1449618230102357717,60,1449618230086179329,odom,1.69377207756,0.183613836765,0.0,1.53544735909,-0.0764981657267,0.0,0.665884554386,-0.0489201806486,0.0,0.682684957981,0.480813473463,0.0,1.55224764347,0.453235477209,0.0
1449618230521636289,61,1449618230517458171,odom,1.77644765377,0.164155125618,0.0,1.60995709896,-0.0908074453473,0.0,0.741705536842,-0.0356791913509,0.0,0.775289416313,0.493255704641,0.0,1.64354097843,0.438127428293,0.0
1449618230737628095,62,1449618230733863817,odom,1.85607051849,0.147562399507,0.0,1.68422865868,-0.103824526072,0.0,0.817336142063,-0.0303585007787,0.0,0.862091302872,0.497748464346,0.0,1.72898387909,0.424282431602,0.0
1449618230980964976,63,1449618230979793946,odom,1.92250931263,0.147511377931,0.0,1.75333380699,-0.105677507818,0.0,0.885713219643,-0.0413767807186,0.0,0.924884974957,0.487173646688,0.0,1.7925055027,0.422872930765,0.0
1449618231288459260,64,1449618231284692990,odom,2.02134108543,0.162479817867,0.0,1.86301636696,-0.0976321846247,0.0,0.993453621864,-0.0700542032719,0.0,1.01025402546,0.459679454565,0.0,1.87981677055,0.432101458311,0.0
1449618231600531941,65,1449618231559151500,odom,2.09065675735,0.171344578266,0.0,1.93786466122,-0.092055439949,0.0,1.06791329384,-0.0828614085913,0.0,1.07351434231,0.447108983994,0.0,1.94346570969,0.437914937735,0.0
1449618231831384015,66,1449618231829305103,odom,2.1737434864,0.198344886303,0.0,2.03507614136,-0.0727573111653,0.0,1.16585350037,-0.109523169696,0.0,1.143455863,0.420003354549,0.0,2.0126786232,0.456769198179,0.0
1449618232044056346,67,1449618232040539011,odom,2.24472522736,0.2177336514,0.0,2.11472153664,-0.0576279051602,0.0,1.24710094929,-0.121928632259,0.0,1.20792925358,0.406621813774,0.0,2.07554960251,0.470922529697,0.0
1449618232312049973,68,1449618232310836912,odom,2.30355548859,0.23869343102,0.0,2.18234562874,-0.0406507104635,0.0,1.3171993494,-0.132421687245,0.0,1.26129281521,0.394621431828,0.0,2.12643909454,0.486392408609,0.0
1449618232528767325,69,1449618232524943893,odom,2.38294959068,0.275148481131,0.0,2.27666258812,-0.0102075710893,0.0,1.41757082939,-0.147543728352,0.0,1.33390629292,0.375811070204,0.0,2.19299817085,0.513147234917,0.0
1449618232864202537,70,1449618232863395059,odom,2.43796801567,0.295110940933,0.0,2.33773565292,0.00757230073214,0.0,1.48173820972,-0.14788967371,0.0,1.38703155518,0.373580008745,0.0,2.24302887917,0.529042005539,0.0
1449618233025617475,71,1449618233024257462,odom,2.51286578178,0.331370979548,0.0,2.42487406731,0.039853438735,0.0,1.57621121407,-0.151643767953,0.0,1.45955204964,0.365357786417,0.0,2.30821490288,0.556855022907,0.0
1449618233451434222,72,1449618233450975052,odom,2.56241679192,0.35921061039,0.0,2.483710289,0.0650503411889,0.0,1.64154398441,-0.153252258897,0.0,1.50855505466,0.359791517258,0.0,2.35072135925,0.578094124794,0.0
1449618233585556019,73,1449618233584868298,odom,2.66328287125,0.414783537388,0.0,2.60022234917,0.116876877844,0.0,1.77076148987,-0.14560058713,0.0,1.61086142063,0.359703242779,0.0,2.44032239914,0.622180700302,0.0
1449618233860860220,74,1449618233860405606,odom,2.71036243439,0.446534305811,0.0,2.65677690506,0.146778419614,0.0,1.8360530138,-0.141860097647,0.0,1.66021573544,0.358121156693,0.0,2.48093962669,0.646759688854,0.0
1449618234052308822,75,1449618234051728453,odom,2.76024055481,0.469549715519,0.0,2.70982575417,0.169244274497,0.0,1.89219796658,-0.128051415086,0.0,1.71108675003,0.370043694973,0.0,2.52871441841,0.667339384556,0.0
1449618234386562667,76,1449618234384879615,odom,2.83821940422,0.515582978725,0.0,2.79734945297,0.213830381632,0.0,1.98955643177,-0.109233744442,0.0,1.79274725914,0.382870048285,0.0,2.60054016113,0.705934166908,0.0
1449618234463816427,77,1449618234463025400,odom,2.88748407364,0.54719465971,0.0,2.85300040245,0.244645655155,0.0,2.05221581459,-0.0954186394811,0.0,1.84505009651,0.392415761948,0.0,2.64583492279,0.732480049133,0.0
1449618234612771740,78,1449618234612531435,odom,2.90976953506,0.568109691143,0.0,2.88168787956,0.264899462461,0.0,2.08826899529,-0.0920130759478,0.0,1.87083959579,0.391334027052,0.0,2.66425824165,0.74824655056,0.0
1449618234921034203,79,1449618234919100909,odom,2.95209646225,0.593279540539,0.0,2.92722058296,0.289789527655,0.0,2.13761782646,-0.0754878222942,0.0,1.91509258747,0.405534505844,0.0,2.70469522476,0.770811855793,0.0
1449618235189996361,80,1449618235182533104,odom,3.03573203087,0.676555216312,0.0,3.03335499763,0.372056692839,0.0,2.27290892601,-0.0505802705884,0.0,2.01544046402,0.412679880857,0.0,2.77588629723,0.835316836834,0.0
1449618235426583237,81,1449618235425964224,odom,3.08070588112,0.713957369328,0.0,3.08476471901,0.409476608038,0.0,2.3334209919,-0.0291376188397,0.0,2.06621909142,0.428577572107,0.0,2.81756281853,0.867191791534,0.0
1449618235677893128,82,1449618235644703366,odom,3.12397432327,0.764607071877,0.0,3.14089679718,0.460569858551,0.0,2.40875983238,-0.00940404459834,0.0,2.12245392799,0.436610400677,0.0,2.85459089279,0.906584322453,0.0
1449618235830834478,83,1449618235830014119,odom,3.1617436409,0.801521480083,0.0,3.18508791924,0.497909843922,0.0,2.46304726601,0.0125675620511,0.0,2.16737890244,0.452431470156,0.0,2.88941955566,0.937773764133,0.0
1449618236229827635,84,1449618236229306566,odom,3.23946905136,0.881214916706,0.0,3.27562308311,0.578860998154,0.0,2.57473778725,0.0634391382337,0.0,2.26074528694,0.490415275097,0.0,2.96163058281,1.00583708286,0.0
1449618236610836020,85,1449618236608919147,odom,3.30348658562,0.935079991817,0.0,3.3428337574,0.633125066757,0.0,2.64743447304,0.110325120389,0.0,2.32894706726,0.533959150314,0.0,3.02434635162,1.05675911903,0.0
1449618236982206111,86,1449618236978904799,odom,3.37147951126,0.99315237999,0.0,3.41401553154,0.691630065441,0.0,2.72417998314,0.161510467529,0.0,2.40123343468,0.581755161285,0.0,3.09106898308,1.11187469959,0.0
1449618237111848052,87,1449618237110394781,odom,3.43563652039,1.0419946909,0.0,3.47817254066,0.740472435951,0.0,2.78833699226,0.210352793336,0.0,2.4653904438,0.630597472191,0.0,3.1552259922,1.16071712971,0.0
1449618237507952117,88,1449618237502862138,odom,3.51440906525,1.09540271759,0.0,3.55375647545,0.79344779253,0.0,2.85835719109,0.270647853613,0.0,2.53986978531,0.694281876087,0.0,3.23526906967,1.2170817852,0.0
1449618237756811758,89,1449618237755660570,odom,3.56044602394,1.13001322746,0.0,3.59979343414,0.828058242798,0.0,2.90439414978,0.305258333683,0.0,2.585906744,0.72889238596,0.0,3.28130602837,1.25169229507,0.0
1449618238039430106,90,1449618238036884402,odom,3.60733509064,1.15865159035,0.0,3.64348912239,0.856297671795,0.0,2.94260382652,0.340875774622,0.0,2.6286110878,0.767851889133,0.0,3.32949638367,1.28327381611,0.0
1449618238203689535,91,1449618238202759627,odom,3.65734148026,1.20240211487,0.0,3.69668889046,0.900447189808,0.0,3.00128960609,0.377647250891,0.0,2.68280220032,0.80128133297,0.0,3.37820148468,1.32408130169,0.0
1449618238654039233,92,1449618238653652588,odom,3.76837491989,1.28473460674,0.0,3.80772209167,0.982779681683,0.0,3.11232280731,0.459979742765,0.0,2.79383563995,0.883613824844,0.0,3.48923492432,1.40641379356,0.0
1449618238914303727,93,1449618238904620917,odom,3.80609297752,1.30640208721,0.0,3.84224677086,1.00404810905,0.0,3.14136147499,0.488626271486,0.0,2.82736897469,0.915602385998,0.0,3.52825427055,1.43102419376,0.0
1449618239157555389,94,1449618239156882936,odom,3.83682513237,1.34219896793,0.0,3.87936115265,1.04067671299,0.0,3.18952560425,0.510557055473,0.0,2.8665792942,0.930801689625,0.0,3.55641484261,1.46092128754,0.0
1449618239481805773,95,1449618239480428920,odom,3.86800050735,1.37247693539,0.0,3.91372060776,1.07142102718,0.0,3.22952580452,0.534040927887,0.0,2.902156353,0.950849294662,0.0,3.58635115623,1.48822939396,0.0
1449618239657378982,96,1449618239656848322,odom,3.91685938835,1.41745650768,0.0,3.96575832367,1.11690044403,0.0,3.28728079796,0.572319924831,0.0,2.955524683,0.985645413399,0.0,3.63400244713,1.5302259922,0.0
1449618240054822004,97,1449618240052027129,odom,3.98140668869,1.48406875134,0.0,4.03664684296,1.18461346626,0.0,3.36983036995,0.625815212727,0.0,3.02941298485,1.03203690052,0.0,3.69622969627,1.59083509445,0.0
1449618240235411209,98,1449618240231767997,odom,4.00980854034,1.52174067497,0.0,4.07136535645,1.22351968288,0.0,3.41650748253,0.650753438473,0.0,3.06758093834,1.04968988895,0.0,3.72243881226,1.62245607376,0.0
1449618240592470489,99,1449618240583693349,odom,4.0302324295,1.54646480083,0.0,4.09493732452,1.24891090393,0.0,3.44616913795,0.669256210327,0.0,3.09304618835,1.06448292732,0.0,3.74181437492,1.64413762093,0.0
1449618240896600663,100,1449618240895472815,odom,4.07894134521,1.604159832,0.0,4.14992046356,1.30804002285,0.0,3.51354789734,0.714803338051,0.0,3.15215086937,1.10247862339,0.0,3.78852343559,1.69571530819,0.0
1449618241130965813,101,1449618241129917649,odom,4.10849380493,1.63158428669,0.0,4.17947292328,1.33546435833,0.0,3.54310011864,0.742227733135,0.0,3.18170309067,1.12990307808,0.0,3.81807589531,1.72313976288,0.0
1449618241303474366,102,1449618241293909458,odom,4.14464139938,1.67300713062,0.0,4.2187461853,1.3776538372,0.0,3.58867812157,0.777725219727,0.0,3.22320437431,1.16155970097,0.0,3.85327219963,1.76148831844,0.0
1449618241636617847,103,1449618241636243620,odom,4.1680893898,1.70263147354,0.0,4.24531078339,1.40807795525,0.0,3.62161803246,0.801524341106,0.0,3.25210833549,1.1814750433,0.0,3.87580108643,1.78802871704,0.0
1449618241733862501,104,1449618241732860798,odom,4.2075252533,1.74878120422,0.0,4.28785514832,1.4550601244,0.0,3.67060709,0.841949284077,0.0,3.29710292816,1.21797394753,0.0,3.91435074806,1.83108472824,0.0
1449618242028856539,105,1449618242026913610,odom,4.23425531387,1.78312528133,0.0,4.31768465042,1.49026954174,0.0,3.70695066452,0.870669960976,0.0,3.32949328423,1.2427264452,0.0,3.94022750854,1.86232602596,0.0
1449618242206878636,106,1449618242196711806,odom,4.27079677582,1.83590567112,0.0,4.36039733887,1.54487860203,0.0,3.76289439201,0.912509799004,0.0,3.37765812874,1.2765058279,0.0,3.97516107559,1.90887463093,0.0
1449618242327575078,107,1449618242325963599,odom,4.29830265045,1.88107275963,0.0,4.39403390884,1.59200429916,0.0,3.81002926826,0.947148919106,0.0,3.41718626022,1.30292189121,0.0,4.00119113922,1.94777727127,0.0
1449618242687360260,108,1449618242683024560,odom,4.31734371185,1.91807126999,0.0,4.41916275024,1.63109064102,0.0,3.84891700745,0.974036574364,0.0,3.44864273071,1.32142746449,0.0,4.01888799667,1.97848153114,0.0
1449618242868120334,109,1449618242863708860,odom,4.35704421997,1.99740946293,0.0,4.47090005875,1.71498799324,0.0,3.92893099785,1.03442251682,0.0,3.51433348656,1.3645876646,0.0,4.05630254745,2.04515314102,0.0
1449618243100933874,110,1449618243098723296,odom,4.37389421463,2.03538990021,0.0,4.49369335175,1.75543797016,0.0,3.96622848511,1.063570261,0.0,3.54474592209,1.38489937782,0.0,4.07221031189,2.07676696777,0.0
1449618243236935523,111,1449618243236124140,odom,4.40016937256,2.08764123917,0.0,4.52585840225,1.81028366089,0.0,4.01313352585,1.10742282867,0.0,3.58495402336,1.41977226734,0.0,4.09767866135,2.12263321877,0.0
1449618243417746388,112,1449618243415867832,odom,4.41844654083,2.13120079041,0.0,4.54996919632,1.85656142235,0.0,4.05221366882,1.14302134514,0.0,3.61752843857,1.44625174999,0.0,4.11528396606,2.15979170799,0.0
1449618243731941350,113,1449618243731457687,odom,4.43939685822,2.19000840187,0.0,4.57955932617,1.91967630386,0.0,4.10467243195,1.19071650505,0.0,3.66059350967,1.48001551628,0.0,4.1354804039,2.20897531509,0.0
1449618243890461855,114,1449618243887761191,odom,4.4585943222,2.23923301697,0.0,4.60443878174,1.9719234705,0.0,4.14506435394,1.23309004307,0.0,3.69497036934,1.51293885708,0.0,4.15434503555,2.25177240372,0.0
1449618244060887602,115,1449618244060652203,odom,4.46793603897,2.27398848534,0.0,4.61939716339,2.00982093811,0.0,4.175740242,1.26144385338,0.0,3.71983218193,1.53171777725,0.0,4.16348934174,2.28009486198,0.0
1449618244181082057,116,1449618244180626902,odom,4.48262119293,2.29876041412,0.0,4.63408279419,2.03459310532,0.0,4.19042539597,1.28621590137,0.0,3.73451781273,1.55648982525,0.0,4.17817497253,2.30486702919,0.0
1449618244390429522,117,1449618244389316707,odom,4.49974679947,2.33878850937,0.0,4.65399122238,2.07623648643,0.0,4.2182674408,1.3232126236,0.0,3.75952887535,1.58865344524,0.0,4.19525241852,2.34167718887,0.0
1449618244646454438,118,1449618244646046618,odom,4.51044225693,2.37904715538,0.0,4.67020130157,2.11981368065,0.0,4.25048971176,1.35774922371,0.0,3.78624343872,1.61343550682,0.0,4.20595502853,2.37549996376,0.0
1449618244872558136,119,1449618244872088390,odom,4.53055000305,2.44987225533,0.0,4.6984462738,2.19583296776,0.0,4.30310249329,1.42084717751,0.0,3.83098459244,1.66168892384,0.0,4.22632837296,2.4366748333,0.0
1449618245156046275,120,1449618245155428649,odom,4.54085063934,2.50575661659,0.0,4.71671485901,2.25716733932,0.0,4.3461356163,1.47003901005,0.0,3.86662077904,1.69579410553,0.0,4.23719978333,2.4829223156,0.0
1449618245234116122,121,1449618245233838365,odom,4.54088830948,2.55617380142,0.0,4.72710132599,2.3152384758,0.0,4.39011669159,1.51315271854,0.0,3.90148973465,1.71844208241,0.0,4.23847436905,2.52052783966,0.0
1449618245432237682,122,1449618245429609919,odom,4.54064798355,2.59661221504,0.0,4.7344045639,2.36170077324,0.0,4.42301464081,1.54933607578,0.0,3.92812585831,1.73903346062,0.0,4.2395157814,2.55139803886,0.0
1449618245617962751,123,1449618245608419245,odom,4.53712177277,2.63162326813,0.0,4.7382273674,2.40297174454,0.0,4.45274496078,1.5811445713,0.0,3.95209145546,1.75505912304,0.0,4.23757410049,2.57688617706,0.0
1449618245900349030,124,1449618245900035187,odom,4.51205253601,2.72876691818,0.0,4.73615503311,2.52260422707,0.0,4.53895521164,1.67524838448,0.0,4.02274990082,1.79538178444,0.0,4.21994972229,2.64273762703,0.0
1449618246075506240,125,1449618246075359710,odom,4.49687719345,2.78184747696,0.0,4.73155593872,2.58780860901,0.0,4.57938432693,1.73122012615,0.0,4.05755472183,1.8239222765,0.0,4.20972585678,2.68051075935,0.0
1449618246303742130,126,1449618246285527548,odom,4.48377799988,2.83051943779,0.0,4.72644710541,2.6465716362,0.0,4.61061048508,1.78431761265,0.0,4.08532953262,1.85488450527,0.0,4.20116567612,2.71713852882,0.0
1449618246422824753,127,1449618246421881315,odom,4.47298622131,2.86949205399,0.0,4.7213640213,2.69332885742,0.0,4.63291835785,1.82783639431,0.0,4.10566425323,1.88171708584,0.0,4.19410991669,2.74720954895,0.0
1449618246770675387,128,1449618246768858338,odom,4.47532844543,2.89241123199,0.0,4.72370624542,2.71624803543,0.0,4.63526058197,1.85075545311,0.0,4.10800647736,1.90463602543,0.0,4.19645214081,2.77012848854,0.0
1449618246989347864,129,1449618246988678511,odom,4.4465265274,3.00681114197,0.0,4.70724487305,2.84948706627,0.0,4.68300867081,1.97982466221,0.0,4.15321445465,1.99458920956,0.0,4.17745065689,2.86425161362,0.0
1449618247329460535,130,1449618247328314978,odom,4.4422545433,3.04435348511,0.0,4.704621315,2.889793396,0.0,4.68957710266,2.01992368698,0.0,4.15965604782,2.02908849716,0.0,4.17470026016,2.8989584446,0.0
1449618247624781309,131,1449618247620373692,odom,4.42678833008,3.09332942963,0.0,4.69392251968,2.94716382027,0.0,4.70645952225,2.07725405693,0.0,4.17651462555,2.06961655617,0.0,4.16397762299,2.9395263195,0.0
1449618247720455861,132,1449618247719104642,odom,4.42138767242,3.10762453079,0.0,4.6900510788,2.96429014206,0.0,4.7117805481,2.09456157684,0.0,4.18194627762,2.08132410049,0.0,4.16021680832,2.95105266571,0.0
1449618247872123322,133,1449618247871934891,odom,4.4209561348,3.12489795685,0.0,4.68961954117,2.98156356812,0.0,4.71134901047,2.1118350029,0.0,4.18151473999,2.09859752655,0.0,4.15978527069,2.96832609177,0.0
1449618248070962248,134,1449618248069519729,odom,4.41511678696,3.15065073967,0.0,4.68527984619,3.01016354561,0.0,4.71619939804,2.14071321487,0.0,4.18653440475,2.12187719345,0.0,4.15561485291,2.99132752419,0.0
1449618248286860824,135,1449618248286398787,odom,4.41404056549,3.18519115448,0.0,4.68420410156,3.04470396042,0.0,4.71512365341,2.17525362968,0.0,4.18545818329,2.15641760826,0.0,4.15453863144,3.025867939,0.0
1449618248543296378,136,1449618248543051777,odom,4.42294025421,3.2315030098,0.0,4.69007444382,3.08533740044,0.0,4.70261144638,2.21542787552,0.0,4.17266654968,2.20779037476,0.0,4.16012954712,3.07769989967,0.0
1449618248897818584,137,1449618248896336271,odom,4.44951057434,3.34348988533,0.0,4.7085518837,3.18341946602,0.0,4.67512655258,2.31406188011,0.0,4.14551782608,2.33442425728,0.0,4.1789431572,3.20378184319,0.0
1449618249161618827,138,1449618249151244053,odom,4.46186971664,3.38901472092,0.0,4.71747016907,3.22350525856,0.0,4.66567897797,2.35504841805,0.0,4.13661909103,2.38659930229,0.0,4.18841028214,3.25505638123,0.0
1449618249426122800,139,1449618249423312275,odom,4.46993732452,3.43754887581,0.0,4.72377443314,3.26934742928,0.0,4.66280841827,2.40148639679,0.0,4.13411140442,2.43862652779,0.0,4.19507741928,3.30648779869,0.0
1449618249531144180,140,1449618249525099168,odom,4.47235870361,3.47202134132,0.0,4.72619581223,3.30382013321,0.0,4.66522979736,2.4359588623,0.0,4.13653278351,2.4730989933,0.0,4.19749879837,3.34096026421,0.0
1449618249926830567,141,1449618249921086258,odom,4.46123695374,3.54472279549,0.0,4.72027826309,3.38465237617,0.0,4.68685293198,2.51529479027,0.0,4.15724420547,2.53565716743,0.0,4.19066953659,3.40501475334,0.0
1449618250076533032,142,1449618250076278157,odom,4.44157314301,3.59690070152,0.0,4.70714759827,3.447920084,0.0,4.71049118042,2.57792663574,0.0,4.18049478531,2.57588982582,0.0,4.17715167999,3.4458835125,0.0
1449618250193456077,143,1449618250193271661,odom,4.42556762695,3.62826800346,0.0,4.69573116302,3.48778057098,0.0,4.72665071487,2.61833024025,0.0,4.19698524475,2.59949421883,0.0,4.16606616974,3.46894454956,0.0
1449618250346597418,144,1449618250346277168,odom,4.40857601166,3.65911197662,0.0,4.68305683136,3.5272591114,0.0,4.74152135849,2.6592259407,0.0,4.21271944046,2.62360954285,0.0,4.15425491333,3.49164295197,0.0
1449618250649110074,145,1449618250644576228,odom,4.37855100632,3.70545768738,0.0,4.65961313248,3.588285923,0.0,4.76384162903,2.72455191612,0.0,4.23765897751,2.66105628014,0.0,4.13343000412,3.52479028702,0.0
1449618250855750047,146,1449618250855250614,odom,4.31966972351,3.77432274818,0.0,4.6105890274,3.6843726635,0.0,4.79637479782,2.834441185,0.0,4.27860021591,2.72126150131,0.0,4.0928144455,3.57119297981,0.0
1449618250995882190,147,1449618250993792566,odom,4.29170608521,3.80313038826,0.0,4.58616638184,3.72555494308,0.0,4.80770397186,2.88423395157,0.0,4.29517507553,2.74927425385,0.0,4.0736374855,3.59059524536,0.0
1449618251087929290,148,1449618251087548656,odom,4.27567481995,3.82261824608,0.0,4.57170915604,3.75128316879,0.0,4.81097793579,2.91483211517,0.0,4.30141592026,2.76907062531,0.0,4.0621471405,3.60552167892,0.0
1449618251363669840,149,1449618251361799446,odom,4.24847412109,3.85950684547,0.0,4.54662084579,3.79759168625,0.0,4.81228399277,2.96914553642,0.0,4.30759859085,2.80730485916,0.0,4.04193544388,3.63575100899,0.0
1449618251682178235,150,1449618251665857933,odom,4.21830129623,3.90098047256,0.0,4.51826095581,3.84854722023,0.0,4.81005096436,3.02893853188,0.0,4.31074953079,2.85118126869,0.0,4.01895904541,3.67078995705,0.0
1449618251855961076,151,1449618251854771904,odom,4.1748957634,3.97390580177,0.0,4.47636699677,3.93100738525,0.0,4.79399108887,3.12106013298,0.0,4.30057477951,2.92756485939,0.0,3.98295068741,3.73751211166,0.0
1449618252289920547,152,1449618252287024448,odom,4.12438058853,4.07151603699,0.0,4.4266910553,4.0349984169,0.0,4.76136207581,3.23194479942,0.0,4.27214574814,3.02806472778,0.0,3.93747448921,3.83111834526,0.0
1449618252509175235,153,1449618252507026324,odom,4.08904123306,4.14099121094,0.0,4.39172077179,4.10767030716,0.0,4.73485994339,3.308198452,0.0,4.24782514572,3.09915971756,0.0,3.90468597412,3.89863157272,0.0
1449618252760124399,154,1449618252758642725,odom,4.06693458557,4.1784787178,0.0,4.36994934082,4.14835834503,0.0,4.7215180397,3.35255742073,0.0,4.23671960831,3.13838338852,0.0,3.88515090942,3.93418431282,0.0
1449618252987703471,155,1449618252986782973,odom,4.03778409958,4.23168468475,0.0,4.34109973907,4.20476865768,0.0,4.70105886459,3.41272711754,0.0,4.21855068207,3.19344186783,0.0,3.85859179497,3.98548316956,0.0
1449618253297456428,156,1449618253293542476,odom,4.01633691788,4.27887630463,0.0,4.31965255737,4.25195980072,0.0,4.67961168289,3.45991849899,0.0,4.1971039772,3.24063324928,0.0,3.83714485168,4.03267478943,0.0
1449618253653892777,157,1449618253637167176,odom,3.98612833023,4.3315410614,0.0,4.28971195221,4.30783176422,0.0,4.65802097321,3.51963877678,0.0,4.17785692215,3.29526662827,0.0,3.80954813957,4.08345985413,0.0
1449618253942159744,158,1449618253940958239,odom,3.97040677071,4.35277223587,0.0,4.27422380447,4.3322725296,0.0,4.65084171295,3.54801559448,0.0,4.1730761528,3.31858181953,0.0,3.79645824432,4.10283851624,0.0
1449618254163087691,159,1449618254162757449,odom,3.96292686462,4.36834812164,0.0,4.26674413681,4.34784841537,0.0,4.64336204529,3.56359148026,0.0,4.1655960083,3.33415746689,0.0,3.78897833824,4.11841440201,0.0
1449618254447771298,160,1449618254446883579,odom,3.95544719696,4.38392400742,0.0,4.25926399231,4.36342430115,0.0,4.63588190079,3.57916736603,0.0,4.15811634064,3.34973335266,0.0,3.78149843216,4.13399028778,0.0
1449618254561744140,161,1449618254557189487,odom,3.9445707798,4.39464378357,0.0,4.24858760834,4.3773560524,0.0,4.63347244263,3.59712290764,0.0,4.15815782547,3.36265277863,0.0,3.77327299118,4.14288568497,0.0
1449618254664107317,162,1449618254663737826,odom,3.94788503647,4.39945983887,0.0,4.25170230865,4.3789601326,0.0,4.62832021713,3.59470319748,0.0,4.15055418015,3.36526918411,0.0,3.77393651009,4.14952611923,0.0
1449618254769088406,163,1449618254768913394,odom,3.94788503647,4.39945983887,0.0,4.25170230865,4.3789601326,0.0,4.62832021713,3.59470319748,0.0,4.15055418015,3.36526918411,0.0,3.77393651009,4.14952611923,0.0
1449618254978881229,164,1449618254978546714,odom,3.94459819794,4.39465713501,0.0,4.24861478806,4.37736940384,0.0,4.63349962234,3.59713625908,0.0,4.15818500519,3.36266613007,0.0,3.77330040932,4.14289903641,0.0
1449618255149856165,165,1449618255149510956,odom,3.94459819794,4.39465713501,0.0,4.24861478806,4.37736940384,0.0,4.63349962234,3.59713625908,0.0,4.15818500519,3.36266613007,0.0,3.77330040932,4.14289903641,0.0
1449618255365882954,166,1449618255365510790,odom,3.94459819794,4.39465713501,0.0,4.24861478806,4.37736940384,0.0,4.63349962234,3.59713625908,0.0,4.15818500519,3.36266613007,0.0,3.77330040932,4.14289903641,0.0
1449618255553363149,167,1449618255553020443,odom,3.94459819794,4.39465713501,0.0,4.24861478806,4.37736940384,0.0,4.63349962234,3.59713625908,0.0,4.15818500519,3.36266613007,0.0,3.77330040932,4.14289903641,0.0
1449618255764941339,168,1449618255763972863,odom,3.94459819794,4.39465713501,0.0,4.24861478806,4.37736940384,0.0,4.63349962234,3.59713625908,0.0,4.15818500519,3.36266613007,0.0,3.77330040932,4.14289903641,0.0
1449618255977202248,169,1449618255973707729,odom,3.94459819794,4.39465713501,0.0,4.24861478806,4.37736940384,0.0,4.63349962234,3.59713625908,0.0,4.15818500519,3.36266613007,0.0,3.77330040932,4.14289903641,0.0
1449618256184906537,170,1449618256184527406,odom,3.94459819794,4.39465713501,0.0,4.24861478806,4.37736940384,0.0,4.63349962234,3.59713625908,0.0,4.15818500519,3.36266613007,0.0,3.77330040932,4.14289903641,0.0
1449618256401396840,171,1449618256399798615,odom,3.94459819794,4.39465713501,0.0,4.24861478806,4.37736940384,0.0,4.63349962234,3.59713625908,0.0,4.15818500519,3.36266613007,0.0,3.77330040932,4.14289903641,0.0
1449618256669722673,172,1449618256666141775,odom,3.94459819794,4.39465713501,0.0,4.24861478806,4.37736940384,0.0,4.63349962234,3.59713625908,0.0,4.15818500519,3.36266613007,0.0,3.77330040932,4.14289903641,0.0
1449618256948576199,173,1449618256947635842,odom,3.94459819794,4.39465713501,0.0,4.24861478806,4.37736940384,0.0,4.63349962234,3.59713625908,0.0,4.15818500519,3.36266613007,0.0,3.77330040932,4.14289903641,0.0
1449618257783982721,174,1449618257781187601,odom,3.94791245461,4.39947319031,0.0,4.25172948837,4.37897348404,0.0,4.62834739685,3.59471654892,0.0,4.1505818367,3.36528253555,0.0,3.7739636898,4.14953947067,0.0
1449618258560103035,175,1449618258550593901,odom,3.90637874603,4.47213506699,0.0,4.21039533615,4.45484733582,0.0,4.59528017044,3.67461419106,0.0,4.11996555328,3.44014406204,0.0,3.73508095741,4.22037696838,0.0
1449618258678024910,176,1449618258676056559,odom,3.88506150246,4.5033326149,0.0,4.18924379349,4.48925828934,0.0,4.58235263824,3.71313643456,0.0,4.10954236984,3.47365641594,0.0,3.7164337635,4.24977827072,0.0
1449618259005436208,177,1449618258953757157,odom,3.87141251564,4.51898622513,0.0,4.17572689056,4.50812721252,0.0,4.57701539993,3.73620295525,0.0,4.10676288605,3.49173974991,0.0,3.70547389984,4.26366424561,0.0
1449618259155962306,178,1449618259155789702,odom,3.85821080208,4.54457950592,0.0,4.16252470016,4.53372049332,0.0,4.56381368637,3.76179599762,0.0,4.09356069565,3.51733279228,0.0,3.69227194786,4.28925704956,0.0
1449618259454771109,179,1449618259453664989,odom,3.84758424759,4.56502056122,0.0,4.15189838409,4.55416154861,0.0,4.5531873703,3.78223729134,0.0,4.08293437958,3.537774086,0.0,3.68164563179,4.3096985817,0.0
1449618259609931965,180,1449618259607617007,odom,3.82896113396,4.60077857971,0.0,4.13327503204,4.58991956711,0.0,4.53456401825,3.81799530983,0.0,4.06431102753,3.57353210449,0.0,3.66302227974,4.34545660019,0.0
1449618259890306602,181,1449618259883045132,odom,3.80956506729,4.62636566162,0.0,4.11397695541,4.61872339249,0.0,4.52340078354,3.85108280182,0.0,4.05575752258,3.6016638279,0.0,3.64633393288,4.36930418015,0.0
1449618260084271119,182,1449618260083175214,odom,3.79287791252,4.6468091011,0.0,4.0973534584,4.64238452911,0.0,4.51486682892,3.87911343575,0.0,4.04988574982,3.62476611137,0.0,3.6323723793,4.38803720474,0.0
1449618260397282935,183,1449618260397119306,odom,3.77629375458,4.6771273613,0.0,4.08076953888,4.67270231247,0.0,4.49828290939,3.90943145752,0.0,4.03330183029,3.65508413315,0.0,3.61578822136,4.4183549881,0.0
1449618260825344754,184,1449618260824795265,odom,3.74814915657,4.71750211716,0.0,4.05265474319,4.71629524231,0.0,4.47821092606,3.95747900009,0.0,4.01594352722,3.69823217392,0.0,3.59038734436,4.45704841614,0.0
1449618261091146505,185,1449618261089988160,odom,3.70554637909,4.78272390366,0.0,4.01004743576,4.78473520279,0.0,4.44359922409,4.03045845032,0.0,3.98409724236,3.76634120941,0.0,3.55054593086,4.52061748505,0.0
1449618261343837404,186,1449618261335030158,odom,3.66510033607,4.84248447418,0.0,3.96956324577,4.84771299362,0.0,4.41106176376,4.09806060791,0.0,3.95437669754,3.82910180092,0.0,3.51287817955,4.57875442505,0.0
1449618261633719064,187,1449618261633553362,odom,3.63302946091,4.8870639801,0.0,3.93742012978,4.89551019669,0.0,4.38681602478,4.1505651474,0.0,3.93299889565,3.87679505348,0.0,3.48360300064,4.62174034119,0.0
1449618261951095077,188,1449618261950344991,odom,3.58553314209,4.9660320282,0.0,3.88992381096,4.97447824478,0.0,4.33931970596,4.2295331955,0.0,3.88550257683,3.95576310158,0.0,3.43610668182,4.70070838928,0.0
1449618262374011137,189,1449618262372850189,odom,3.50377368927,5.06774568558,0.0,3.80774354935,5.08583641052,0.0,4.28052759171,4.35551118851,0.0,3.83561658859,4.06749343872,0.0,3.36283278465,4.79781866074,0.0
1449618262491114542,190,1449618262487272371,odom,3.47578382492,5.11137485504,0.0,3.779753685,5.12946557999,0.0,4.25253772736,4.39914035797,0.0,3.80762672424,4.11112213135,0.0,3.33484268188,4.8414478302,0.0
1449618262826110455,191,1449618262823691510,odom,3.43842124939,5.15919589996,0.0,3.74218297005,5.18049764633,0.0,4.22265863419,4.45520925522,0.0,3.7808163166,4.16250562668,0.0,3.30034065247,4.88779401779,0.0
1449618262950754110,192,1449618262950388028,odom,3.39737462997,5.21142053604,0.0,3.70089435577,5.23593139648,0.0,4.18900775909,4.51576137543,0.0,3.75028347969,4.2184047699,0.0,3.26216983795,4.93857479095,0.0
1449618263641804675,193,1449618263640800057,odom,3.31672620773,5.32023000717,0.0,3.61996984482,5.34794712067,0.0,4.1156668663,4.63297557831,0.0,3.68010926247,4.33099937439,0.0,3.1844124794,5.04597091675,0.0
1449618263931071452,194,1449618263930181598,odom,3.23816919327,5.41279506683,0.0,3.54075932503,5.44691467285,0.0,4.05145597458,4.74257898331,0.0,3.62237811089,4.43146514893,0.0,3.11168122292,5.13580083847,0.0
1449618264158182953,195,1449618264152719758,odom,3.18816590309,5.47254610062,0.0,3.49037861824,5.50986194611,0.0,4.0084900856,4.81096220016,0.0,3.58272385597,4.49533128738,0.0,3.06461238861,5.19423055649,0.0
1449618264433546305,196,1449618264431778528,odom,3.13702344894,5.53138113022,0.0,3.43882489204,5.57188844681,0.0,3.96429347992,4.8785033226,0.0,3.54188632965,4.55839014053,0.0,3.01641798019,5.25177526474,0.0
1449618264714481644,197,1449618264711608389,odom,3.08900547028,5.58528661728,0.0,3.39036226273,5.62898111343,0.0,3.92312884331,4.94118785858,0.0,3.50412845612,4.61662864685,0.0,2.97136163712,5.3044219017,0.0
1449618265058956236,198,1449618265056648039,odom,3.03088402748,5.64211463928,0.0,3.33124995232,5.69216823578,0.0,3.87843370438,5.01578855515,0.0,3.46638631821,4.6824464798,0.0,2.91920232773,5.35882663727,0.0
1449618265241868958,199,1449618265240142152,odom,2.97438526154,5.70379161835,0.0,3.27420544624,5.75701665878,0.0,3.82850670815,5.0864572525,0.0,3.42000484467,4.74877929688,0.0,2.86570358276,5.41933870316,0.0
1449618265582088729,200,1449618265580193543,odom,2.8961660862,5.78096532822,0.0,3.19479441643,5.84051513672,0.0,3.76314353943,5.18182039261,0.0,3.36186981201,4.8355846405,0.0,2.79352045059,5.49427938461,0.0
1449618265868801633,201,1449618265866379913,odom,2.8472070694,5.83761405945,0.0,3.14583539963,5.89716386795,0.0,3.71418476105,5.238468647,0.0,3.31291079521,4.8922328949,0.0,2.74456143379,5.55092811584,0.0
1449618265980314443,202,1449618265978717807,odom,2.80139827728,5.87401103973,0.0,3.09870123863,5.93985891342,0.0,3.68084478378,5.29332304001,0.0,3.28697800636,4.93868398666,0.0,2.70483446121,5.58521986008,0.0
1449618266222079116,203,1449618266219429946,odom,2.77274560928,5.91405057907,0.0,3.07072782516,5.97675323486,0.0,3.64600634575,5.32410097122,0.0,3.24841403961,4.97364425659,0.0,2.67313528061,5.6262960434,0.0
1449618266378402828,204,1449618266375680903,odom,2.72078418732,5.964179039,0.0,3.01808714867,6.03002691269,0.0,3.60023069382,5.38349103928,0.0,3.2063639164,5.02885150909,0.0,2.62422037125,5.67538785934,0.0
1449618266808475819,205,1449618266808293671,odom,2.64111566544,6.04353237152,0.0,2.93770623207,6.11251878738,0.0,3.52664971352,5.47217082977,0.0,3.13655281067,5.1133890152,0.0,2.54760932922,5.75373697281,0.0
1449618266982125114,206,1449618266975743782,odom,2.60205960274,6.08586263657,0.0,2.89864993095,6.15484857559,0.0,3.48759365082,5.51450109482,0.0,3.09749650955,5.15571928024,0.0,2.50855302811,5.79606723785,0.0
1449618267258217845,207,1449618267253337526,odom,2.56088066101,6.12228822708,0.0,2.85672569275,6.19440460205,0.0,3.45240330696,5.56031656265,0.0,3.06611967087,5.19743251801,0.0,2.47044205666,5.8315205574,0.0
1449618267600807892,208,1449618267597598000,odom,2.50172805786,6.18525505066,0.0,2.79757285118,6.25737190247,0.0,3.39325070381,5.62328338623,0.0,3.00696706772,5.26039934158,0.0,2.41128921509,5.89448738098,0.0
1449618267847171311,209,1449618267846048972,odom,2.45409679413,6.23533535004,0.0,2.74994158745,6.30745220184,0.0,3.34561944008,5.67336368561,0.0,2.95933580399,5.31047964096,0.0,2.36365795135,5.94456768036,0.0
1449618268207878011,210,1449618268207387782,odom,2.36908435822,6.33323812485,0.0,2.66567492485,6.40222406387,0.0,3.25461864471,5.7618765831,0.0,2.86452150345,5.40309476852,0.0,2.275578022,6.04344272614,0.0
1449618268484910272,211,1449618268483917144,odom,2.33399415016,6.37139129639,0.0,2.63058447838,6.44037723541,0.0,3.21952819824,5.80002975464,0.0,2.82943129539,5.44124794006,0.0,2.24048757553,6.08159589767,0.0
1449618268673927542,212,1449618268669907634,odom,2.30280256271,6.40530538559,0.0,2.59939312935,6.47429132462,0.0,3.18833661079,5.833943367,0.0,2.79823970795,5.47516155243,0.0,2.2092962265,6.11550951004,0.0
1449618268846309032,213,1449618268845025317,odom,2.27363848686,6.44495773315,0.0,2.57094144821,6.51080560684,0.0,3.15308499336,5.86426973343,0.0,2.75921821594,5.50963068008,0.0,2.17707467079,6.1561665535,0.0
1449618269144236998,214,1449618269137712875,odom,2.23870563507,6.48325443268,0.0,2.53600859642,6.54910230637,0.0,3.11815214157,5.90256643295,0.0,2.72428536415,5.54792690277,0.0,2.142141819,6.19446277618,0.0
1449618269684309718,215,1449618269663627657,odom,2.20209527016,6.53163146973,0.0,2.50007748604,6.59433364868,0.0,3.07535624504,5.94168186188,0.0,2.67776370049,5.59122467041,0.0,2.10248494148,6.24387693405,0.0
1449618269777302824,216,1449618269776899093,odom,2.12775444984,6.62345838547,0.0,2.42638278008,6.68300819397,0.0,2.99473214149,6.02431297302,0.0,2.59345817566,5.67807722092,0.0,2.02510881424,6.33677196503,0.0
1449618270191024441,217,1449618270189938807,odom,2.09363889694,6.66248464584,0.0,2.39226698875,6.72203445435,0.0,2.96061635017,6.0633392334,0.0,2.55934238434,5.71710348129,0.0,1.99099314213,6.3757982254,0.0
1449618270513227464,218,1449618270511352118,odom,2.02235794067,6.74551582336,0.0,2.32098603249,6.80506563187,0.0,2.88933539391,6.14637041092,0.0,2.48806142807,5.80013465881,0.0,1.91971218586,6.45882940292,0.0
1449618270645865087,219,1449618270644159888,odom,2.00577616692,6.77301025391,0.0,2.30501699448,6.82940101624,0.0,2.86637377739,6.16473674774,0.0,2.46146321297,5.82276058197,0.0,1.90010666847,6.48742485046,0.0
1449618270848257264,220,1449618270848062275,odom,1.99462735653,6.78621101379,0.0,2.2938683033,6.84260177612,0.0,2.85522484779,6.17793703079,0.0,2.45031428337,5.83596134186,0.0,1.88895773888,6.50062561035,0.0
1449618271056394249,221,1449618271053503465,odom,1.99093437195,6.79063081741,0.0,2.29017519951,6.84702110291,0.0,2.85153198242,6.18235683441,0.0,2.446621418,5.84038114548,0.0,1.8852647543,6.50504541397,0.0
1449618271253373627,222,1449618271251765133,odom,1.99093437195,6.79063081741,0.0,2.29017519951,6.84702110291,0.0,2.85153198242,6.18235683441,0.0,2.446621418,5.84038114548,0.0,1.8852647543,6.50504541397,0.0
1449618271463289646,223,1449618271462472296,odom,1.99093437195,6.79063081741,0.0,2.29017519951,6.84702110291,0.0,2.85153198242,6.18235683441,0.0,2.446621418,5.84038114548,0.0,1.8852647543,6.50504541397,0.0
1449618271634468743,224,1449618271634307666,odom,1.99093437195,6.79063081741,0.0,2.29017519951,6.84702110291,0.0,2.85153198242,6.18235683441,0.0,2.446621418,5.84038114548,0.0,1.8852647543,6.50504541397,0.0
1449618271839780912,225,1449618271839154364,odom,1.99666178226,6.7916636467,0.0,2.29648184776,6.84488868713,0.0,2.85078310966,6.17432928085,0.0,2.44228124619,5.83665132523,0.0,1.88798010349,6.50721120834,0.0
1449618272161312305,226,1449618272151676807,odom,1.99462735653,6.78621101379,0.0,2.2938683033,6.84260177612,0.0,2.85522484779,6.17793703079,0.0,2.45031428337,5.83596134186,0.0,1.88895773888,6.50062561035,0.0
1449618272579312730,227,1449618272576660274,odom,2.00572943687,6.77297115326,0.0,2.30497050285,6.82936191559,0.0,2.86632704735,6.16469764709,0.0,2.46141648293,5.82272148132,0.0,1.90005993843,6.48738622665,0.0
1449618273033999059,228,1449618273031994009,odom,2.04098534584,6.72355461121,0.0,2.33961343765,6.78310441971,0.0,2.90796279907,6.12440919876,0.0,2.50668883324,5.77817344666,0.0,1.93833959103,6.4368686676,0.0
1449618273359144532,229,1449618273358957903,odom,2.12223339081,6.62246465683,0.0,2.42021560669,6.68516683578,0.0,2.99549436569,6.03251504898,0.0,2.59790182114,5.68205785751,0.0,2.02262306213,6.33471012115,0.0
1449618273554638883,230,1449618273551794184,odom,2.1624250412,6.5695643425,0.0,2.45972800255,6.63541221619,0.0,3.0418715477,5.98887634277,0.0,2.64800477028,5.63423728943,0.0,2.06586122513,6.28077316284,0.0
1449618273828617761,231,1449618273828352666,odom,2.20846748352,6.51801967621,0.0,2.50577044487,6.5838675499,0.0,3.08791399002,5.93733167648,0.0,2.6940472126,5.5826921463,0.0,2.11190366745,6.22922849655,0.0
1449618273935197157,232,1449618273918160958,odom,2.2563931942,6.47200965881,0.0,2.5543756485,6.53471183777,0.0,3.12965416908,5.88206005096,0.0,2.73206162453,5.5316028595,0.0,2.15678310394,6.18425512314,0.0
1449618274183635068,233,1449618274179060682,odom,2.30071139336,6.41507196426,0.0,2.59801435471,6.48091983795,0.0,3.18015813828,5.83438396454,0.0,2.78629136086,5.47974491119,0.0,2.2041478157,6.12628078461,0.0
1449618274317037081,234,1449618274316502083,odom,2.33765101433,6.36692047119,0.0,2.63424158096,6.43590641022,0.0,3.22318506241,5.79555892944,0.0,2.83308815956,5.43677711487,0.0,2.2441444397,6.07712507248,0.0
1449618274523934761,235,1449618274523587092,odom,2.37491774559,6.31899738312,0.0,2.67076277733,6.39111423492,0.0,3.26644062996,5.75702571869,0.0,2.88015699387,5.39414167404,0.0,2.28447914124,6.02822971344,0.0
1449618274767793401,236,1449618274767568405,odom,2.41433954239,6.25694465637,0.0,2.7077498436,6.33840274811,0.0,3.3232281208,5.72351551056,0.0,2.94864153862,5.34856891632,0.0,2.33316326141,5.96345615387,0.0
1449618274946490266,237,1449618274946343247,odom,2.45167589188,6.20028734207,0.0,2.74235653877,6.29100561142,0.0,3.37701678276,5.69593715668,0.0,3.01450371742,5.30930519104,0.0,2.37984347343,5.90437316895,0.0
1449618275231650743,238,1449618275230495863,odom,2.5148859024,6.14139604568,0.0,2.8055665493,6.23211431503,0.0,3.44022679329,5.63704586029,0.0,3.07771396637,5.25041341782,0.0,2.44305372238,5.84548187256,0.0
1449618275554759842,239,1449618275554197185,odom,2.562261343,6.10347032547,0.0,2.85388445854,6.19111156464,0.0,3.48222064972,5.58936977386,0.0,3.11564230919,5.20659017563,0.0,2.48730611801,5.8083319664,0.0
1449618275672999043,240,1449618275669039757,odom,2.66155910492,6.03174304962,0.0,2.95662546158,6.10698223114,0.0,3.55897092819,5.47922420502,0.0,3.17654371262,5.11227846146,0.0,2.574198246,5.74003601074,0.0
1449618275829815558,241,1449618275822766657,odom,2.69346046448,5.9984960556,0.0,2.98852658272,6.07373523712,0.0,3.59087204933,5.445977211,0.0,3.20844507217,5.0790309906,0.0,2.60609936714,5.70678901672,0.0
1449618276051288296,242,1449618276048453061,odom,2.77150344849,5.92957115173,0.0,3.06809401512,5.99855709076,0.0,3.65703749657,5.35820913315,0.0,3.26694059372,4.99942779541,0.0,2.67799687386,5.63977527618,0.0
1449618276343517220,243,1449618276343085313,odom,2.84829950333,5.85921478271,0.0,3.14628171921,5.92191696167,0.0,3.72156047821,5.26926517487,0.0,3.32396793365,4.9188079834,0.0,2.74868941307,5.5714597702,0.0
1449618276740534474,244,1449618276738761467,odom,2.89569067955,5.81266069412,0.0,3.19431877136,5.87221050262,0.0,3.76266813278,5.21351575851,0.0,3.36139440536,4.86727952957,0.0,2.79304504395,5.52597475052,0.0
1449618277018317260,245,1449618277011990655,odom,2.99272251129,5.71368360519,0.0,3.29254245758,5.76690864563,0.0,3.84684371948,5.09634923935,0.0,3.438341856,4.75867128372,0.0,2.88404083252,5.42923116684,0.0
1449618277295587950,246,1449618277295185657,odom,3.04971694946,5.65241003036,0.0,3.3500828743,5.70246362686,0.0,3.89726662636,5.02608394623,0.0,3.48521924019,4.69274187088,0.0,2.93803524971,5.36912202835,0.0
1449618277424150841,247,1449618277421638784,odom,3.08239006996,5.61216783524,0.0,3.38275575638,5.66222143173,0.0,3.92993974686,4.9858417511,0.0,3.51789212227,4.65249967575,0.0,2.97070837021,5.32887983322,0.0
1449618277644932491,248,1449618277638197269,odom,3.10219764709,5.58000516891,0.0,3.4020178318,5.63323020935,0.0,3.9563190937,4.96267080307,0.0,3.54781723022,4.62499284744,0.0,2.99351596832,5.29555273056,0.0
1449618277836659502,249,1449618277836212690,odom,3.11686062813,5.54715681076,0.0,3.41548871994,5.60670661926,0.0,3.98383808136,4.94801139832,0.0,3.58256411552,4.60177564621,0.0,3.01421499252,5.26047086716,0.0
1449618278053069611,250,1449618278051682030,odom,3.13258886337,5.49932146072,0.0,3.42843365669,5.57143831253,0.0,4.0241112709,4.9373497963,0.0,3.63782787323,4.57446575165,0.0,3.0421500206,5.20855379105,0.0
1449618278212355848,251,1449618278207013731,odom,3.15038967133,5.45225763321,0.0,3.44292259216,5.53681230545,0.0,4.06486463547,4.92846345901,0.0,3.69426131248,4.54957914352,0.0,3.07231926918,5.15792798996,0.0
1449618278439954241,252,1449618278439098082,odom,3.17330050468,5.39651298523,0.0,3.46095943451,5.49639940262,0.0,4.11416387558,4.92174816132,0.0,3.76408886909,4.52381896973,0.0,3.11088466644,5.09847068787,0.0
1449618278611691643,253,1449618278605655380,odom,3.19468140602,5.34572076797,0.0,3.47666311264,5.46066093445,0.0,4.15930652618,4.92131090164,0.0,3.83073687553,4.50544786453,0.0,3.14809370041,5.04479789734,0.0
1449618279414730016,254,1449618279412925954,odom,3.2690346241,5.2260928154,0.0,3.53578162193,5.3729634285,0.0,4.27637529373,4.916431427,0.0,3.99825787544,4.46526527405,0.0,3.25766444206,4.92179727554,0.0
1449618279670186765,255,1449618279668354149,odom,3.40480518341,5.05912494659,0.0,3.63897037506,5.25378227234,0.0,4.45252561569,4.9455165863,0.0,4.26473140717,4.44990253448,0.0,3.45117640495,4.75816822052,0.0
1449618279883368902,256,1449618279869929378,odom,3.47418212891,4.99391508102,0.0,3.69107341766,5.20765113831,0.0,4.52775382996,4.96918582916,0.0,4.38248205185,4.45948410034,0.0,3.54580163956,4.69794940948,0.0
1449618279994766421,257,1449618279991751128,odom,3.4953045845,4.97261142731,0.0,3.70531153679,5.19311523438,0.0,4.5491309166,4.98129177094,0.0,4.42008876801,4.46724128723,0.0,3.57626986504,4.67906475067,0.0
1449618280178578533,258,1449618280177838848,odom,3.52446770668,4.94512939453,0.0,3.7249686718,5.17431116104,0.0,4.57698583603,4.99833679199,0.0,4.46978282928,4.47929191589,0.0,3.61776566505,4.65526676178,0.0
1449618280885640565,259,1449618280885185907,odom,3.55905556679,4.88343381882,0.0,3.73162126541,5.13432455063,0.0,4.59829854965,5.05836009979,0.0,4.55202150345,4.53038454056,0.0,3.68534421921,4.60634899139,0.0
1449618281058698195,260,1449618281056831887,odom,3.56084060669,4.86806488037,0.0,3.72536659241,5.12429952621,0.0,4.59401607513,5.07584619522,0.0,4.56449842453,4.54666852951,0.0,3.6958489418,4.59512233734,0.0
1449618281272933028,261,1449618281272382304,odom,3.5603826046,4.85793018341,0.0,3.71945643425,5.11758470535,0.0,4.58893585205,5.0875005722,0.0,4.57060909271,4.55781745911,0.0,3.70112919807,4.58790159225,0.0
1449618281470291329,262,1449618281455643038,odom,3.55462551117,4.85809898376,0.0,3.71369934082,5.11775350571,0.0,4.58317899704,5.08766937256,0.0,4.56485176086,4.55798625946,0.0,3.69537234306,4.58807039261,0.0
1449618281683301842,263,1449618281673385332,odom,3.5428647995,4.84817218781,0.0,3.69641542435,5.11113071442,0.0,4.56633663177,5.09942960739,0.0,4.5592083931,4.56947755814,0.0,3.68928718567,4.58117866516,0.0
1449618281844519362,264,1449618281844352132,odom,3.52850317955,4.83284425735,0.0,3.67364120483,5.10053825378,0.0,4.5434961319,5.11641836166,0.0,4.55317020416,4.58650636673,0.0,3.6833152771,4.57062625885,0.0
1449618282054846737,265,1449618282054260671,odom,3.50950288773,4.80653333664,0.0,3.64030003548,5.08151865005,0.0,4.50810241699,5.14331865311,0.0,4.54575014114,4.61465740204,0.0,3.67794823647,4.55285787582,0.0
1449618282270310313,266,1449618282270010781,odom,3.48400259018,4.77312660217,0.0,3.5971121788,5.05584764481,0.0,4.45925426483,5.17251253128,0.0,4.53032588959,4.6472992897,0.0,3.66818380356,4.53063440323,0.0
1449618282464234688,267,1449618282462808565,odom,3.45680832863,4.74297380447,0.0,3.55482769012,5.0312743187,0.0,4.40960502625,5.19331073761,0.0,4.50831699371,4.67258405685,0.0,3.65353965759,4.51054763794,0.0
1449618282637195883,268,1449618282637023142,odom,3.4185385704,4.70287322998,0.0,3.49809265137,4.99680519104,0.0,4.34088468552,5.21267986298,0.0,4.4723944664,4.69925451279,0.0,3.62960243225,4.48338031769,0.0
1449618282878492695,269,1449618282878303915,odom,3.38286304474,4.66051626205,0.0,3.44363188744,4.95889854431,0.0,4.27105093002,5.22774362564,0.0,4.43483018875,4.72368335724,0.0,3.60741090775,4.45483875275,0.0
1449618283006633423,270,1449618283004596402,odom,3.34393525124,4.60775136948,0.0,3.38248491287,4.90980911255,0.0,4.18777084351,5.23907232285,0.0,4.38835668564,4.74849557877,0.0,3.58307051659,4.41923236847,0.0
1449618283258062183,271,1449618283257156285,odom,3.30896282196,4.55236434937,0.0,3.32508230209,4.8564453125,0.0,4.10383033752,5.24432563782,0.0,4.34012556076,4.76991605759,0.0,3.56137728691,4.38203573227,0.0
1449618283476846577,272,1449618283473172855,odom,3.28319334984,4.49738121033,0.0,3.27679443359,4.80182170868,0.0,4.02474498749,5.2461977005,0.0,4.29545688629,4.7905497551,0.0,3.5475063324,4.34617376328,0.0
1449618283685028048,273,1449618283678453506,odom,3.26212954521,4.43485450745,0.0,3.2300453186,4.73766708374,0.0,3.93779969215,5.24361562729,0.0,4.24602127075,4.81245517731,0.0,3.5382668972,4.30650663376,0.0
1449618284038573696,274,1449618283935199732,odom,3.25582242012,4.40481233597,0.0,3.21097016335,4.70599889755,0.0,3.89671087265,5.24140501022,0.0,4.22287797928,4.82365465164,0.0,3.53713703156,4.28824853897,0.0
1449618284250579531,275,1449618284250300309,odom,3.25762224197,4.36666440964,0.0,3.19377541542,4.66440343857,0.0,3.84421157837,5.24218606949,0.0,4.19619417191,4.84594345093,0.0,3.54575777054,4.26816082001,0.0
1449618284526459068,276,1449618284525009874,odom,3.26606011391,4.33262252808,0.0,3.18347501755,4.62571763992,0.0,3.79599261284,5.24355459213,0.0,4.17237567902,4.87041139603,0.0,3.55985832214,4.25257492065,0.0
1449618284686306129,277,1449618284681694046,odom,3.28257369995,4.31314134598,0.0,3.18462395668,4.60146570206,0.0,3.76365494728,5.25079059601,0.0,4.1592206955,4.8980474472,0.0,3.5801897049,4.24872255325,0.0
1449618284898161290,278,1449618284897598958,odom,3.29795217514,4.30000019073,0.0,3.18790531158,4.58392763138,0.0,3.73897886276,5.25714206696,0.0,4.14909791946,4.92143058777,0.0,3.59802436829,4.24821615219,0.0
1449618285116151367,279,1449618285115839634,odom,3.31039142609,4.28293228149,0.0,3.18844413757,4.56195545197,0.0,3.71057581902,5.25785684586,0.0,4.13451576233,4.93977642059,0.0,3.61238408089,4.24387550354,0.0
1449618285550454416,280,1449618285542825027,odom,3.34391713142,4.25992584229,0.0,3.19884371758,4.52765464783,0.0,3.66034579277,5.26516103745,0.0,4.10963153839,4.98401594162,0.0,3.64812922478,4.246509552,0.0
1449618285758525301,281,1449618285756797084,odom,3.36436653137,4.24452733994,0.0,3.20535540581,4.50422000885,0.0,3.62726163864,5.2650718689,0.0,4.09076881409,5.00804853439,0.0,3.66886258125,4.24719667435,0.0
1449618286226830088,282,1449618286213149754,odom,3.38378310204,4.21512937546,0.0,3.20863580704,4.46422433853,0.0,3.58148193359,5.25028133392,0.0,4.06034421921,5.02314519882,0.0,3.68749809265,4.23708820343,0.0
1449618286428350876,283,1449618286427764838,odom,3.37635064125,4.19953107834,0.0,3.20120334625,4.44862604141,0.0,3.57404971123,5.2346830368,0.0,4.05291175842,5.0075469017,0.0,3.68006563187,4.22148990631,0.0
