%time,field.header.seq,field.header.stamp,field.header.frame_id,field.polygon.points0.x,field.polygon.points0.y,field.polygon.points0.z,field.polygon.points1.x,field.polygon.points1.y,field.polygon.points1.z,field.polygon.points2.x,field.polygon.points2.y,field.polygon.points2.z,field.polygon.points3.x,field.polygon.points3.y,field.polygon.points3.z,field.polygon.points4.x,field.polygon.points4.y,field.polygon.points4.z
1449618215287782312,1,1449618215287470800,odom,0.479999989271,0.0,0.0,0.329999983311,-0.264999985695,0.0,-0.539999961853,-0.264999985695,0.0,-0.539999961853,0.264999985695,0.0,0.329999983311,0.264999985695,0.0
1449618215487500703,2,1449618215487274610,odom,0.479999989271,0.0,0.0,0.329999983311,-0.264999985695,0.0,-0.539999961853,-0.264999985695,0.0,-0.539999961853,0.264999985695,0.0,0.329999983311,0.264999985695,0.0
1449618215774203552,3,1449618215773841043,odom,0.479999989271,0.0,0.0,0.329999983311,-0.264999985695,0.0,-0.539999961853,-0.264999985695,0.0,-0.539999961853,0.264999985695,0.0,0.329999983311,0.264999985695,0.0
1449618215991853797,4,1449618215990014050,odom,0.479999989271,0.0,0.0,0.329999983311,-0.264999985695,0.0,-0.539999961853,-0.264999985695,0.0,-0.539999961853,0.264999985695,0.0,0.329999983311,0.264999985695,0.0
1449618216185765520,5,1449618216185343153,odom,0.479999989271,0.0,0.0,0.329999983311,-0.264999985695,0.0,-0.539999961853,-0.264999985695,0.0,-0.539999961853,0.264999985695,0.0,0.329999983311,0.264999985695,0.0
1449618216406281705,6,1449618216406004795,odom,0.479999989271,0.0,0.0,0.329999983311,-0.264999985695,0.0,-0.539999961853,-0.264999985695,0.0,-0.539999961853,0.264999985695,0.0,0.329999983311,0.264999985695,0.0
1449618216609953414,7,1449618216604801722,odom,0.479999989271,0.0,0.0,0.329999983311,-0.264999985695,0.0,-0.539999961853,-0.264999985695,0.0,-0.539999961853,0.264999985695,0.0,0.329999983311,0.264999985695,0.0
1449618216784405829,8,1449618216783972889,odom,0.479999989271,0.0,0.0,0.329999983311,-0.264999985695,0.0,-0.539999961853,-0.264999985695,0.0,-0.539999961853,0.264999985695,0.0,0.329999983311,0.264999985695,0.0
1449618216981237614,9,1449618216980941552,odom,0.479999989271,0.0,0.0,0.329999983311,-0.264999985695,0.0,-0.539999961853,-0.264999985695,0.0,-0.539999961853,0.264999985695,0.0,0.329999983311,0.264999985695,0.0
1449618217187723443,10,1449618217186426371,odom,0.479999989271,0.0,0.0,0.329999983311,-0.264999985695,0.0,-0.539999961853,-0.264999985695,0.0,-0.539999961853,0.264999985695,0.0,0.329999983311,0.264999985695,0.0
1449618217437673242,11,1449618217436051898,odom,0.479999989271,0.0,0.0,0.329999983311,-0.264999985695,0.0,-0.539999961853,-0.264999985695,0.0,-0.539999961853,0.264999985695,0.0,0.329999983311,0.264999985695,0.0
1449618217603466520,12,1449618217603141494,odom,0.479999989271,0.0,0.0,0.329999983311,-0.264999985695,0.0,-0.539999961853,-0.264999985695,0.0,-0.539999961853,0.264999985695,0.0,0.329999983311,0.264999985695,0.0
1449618217832575146,13,1449618217832219151,odom,0.479999989271,0.0,0.0,0.329999983311,-0.264999985695,0.0,-0.539999961853,-0.264999985695,0.0,-0.539999961853,0.264999985695,0.0,0.329999983311,0.264999985695,0.0
1449618217997879424,14,1449618217996936032,odom,0.479999989271,0.0,0.0,0.329999983311,-0.264999985695,0.0,-0.539999961853,-0.264999985695,0.0,-0.539999961853,0.264999985695,0.0,0.329999983311,0.264999985695,0.0
1449618218217637370,15,1449618218216855024,odom,0.479999989271,0.0,0.0,0.329999983311,-0.264999985695,0.0,-0.539999961853,-0.264999985695,0.0,-0.539999961853,0.264999985695,0.0,0.329999983311,0.264999985695,0.0
1449618218418577645,16,1449618218418067791,odom,0.479999989271,0.0,0.0,0.329999983311,-0.264999985695,0.0,-0.539999961853,-0.264999985695,0.0,-0.539999961853,0.264999985695,0.0,0.329999983311,0.264999985695,0.0
1449618218589940757,17,1449618218588129613,odom,0.479999989271,0.0,0.0,0.329999983311,-0.264999985695,0.0,-0.539999961853,-0.264999985695,0.0,-0.539999961853,0.264999985695,0.0,0.329999983311,0.264999985695,0.0
1449618218833283828,18,1449618218832930966,odom,0.479999989271,0.0,0.0,0.329999983311,-0.264999985695,0.0,-0.539999961853,-0.264999985695,0.0,-0.539999961853,0.264999985695,0.0,0.329999983311,0.264999985695,0.0
1449618218995282927,19,1449618218993364936,odom,0.479999989271,0.0,0.0,0.329999983311,-0.264999985695,0.0,-0.539999961853,-0.264999985695,0.0,-0.539999961853,0.264999985695,0.0,0.329999983311,0.264999985695,0.0
1449618219186814456,20,1449618219182106710,odom,0.479999989271,0.0,0.0,0.329999983311,-0.264999985695,0.0,-0.539999961853,-0.264999985695,0.0,-0.539999961853,0.264999985695,0.0,0.329999983311,0.264999985695,0.0
1449618219441012334,21,1449618219440796221,odom,0.479999989271,0.0,0.0,0.329999983311,-0.264999985695,0.0,-0.539999961853,-0.264999985695,0.0,-0.539999961853,0.264999985695,0.0,0.329999983311,0.264999985695,0.0
1449618219615009412,22,1449618219612448421,odom,0.479999989271,0.0,0.0,0.329999983311,-0.264999985695,0.0,-0.539999961853,-0.264999985695,0.0,-0.539999961853,0.264999985695,0.0,0.329999983311,0.264999985695,0.0
1449618219831741393,23,1449618219829064959,odom,0.479999989271,0.0,0.0,0.329999983311,-0.264999985695,0.0,-0.539999961853,-0.264999985695,0.0,-0.539999961853,0.264999985695,0.0,0.329999983311,0.264999985695,0.0
1449618220035484551,24,1449618220030136257,odom,0.479999989271,0.0,0.0,0.329999983311,-0.264999985695,0.0,-0.539999961853,-0.264999985695,0.0,-0.539999961853,0.264999985695,0.0,0.329999983311,0.264999985695,0.0
1449618220196785364,25,1449618220194132300,odom,0.479999989271,0.0,0.0,0.329999983311,-0.264999985695,0.0,-0.539999961853,-0.264999985695,0.0,-0.539999961853,0.264999985695,0.0,0.329999983311,0.264999985695,0.0
1449618220427534822,26,1449618220426825043,odom,0.479999989271,0.0,0.0,0.329999983311,-0.264999985695,0.0,-0.539999961853,-0.264999985695,0.0,-0.539999961853,0.264999985695,0.0,0.329999983311,0.264999985695,0.0
1449618220591349735,27,1449618220590542500,odom,0.479999989271,0.0,0.0,0.329999983311,-0.264999985695,0.0,-0.539999961853,-0.264999985695,0.0,-0.539999961853,0.264999985695,0.0,0.329999983311,0.264999985695,0.0
1449618220819857485,28,1449618220819659885,odom,0.479999989271,0.0,0.0,0.329999983311,-0.264999985695,0.0,-0.539999961853,-0.264999985695,0.0,-0.539999961853,0.264999985695,0.0,0.329999983311,0.264999985695,0.0
1449618221006560611,29,1449618221006249190,odom,0.479999989271,0.0,0.0,0.329999983311,-0.264999985695,0.0,-0.539999961853,-0.264999985695,0.0,-0.539999961853,0.264999985695,0.0,0.329999983311,0.264999985695,0.0
1449618221183145651,30,1449618221182395617,odom,0.479999989271,0.0,0.0,0.329999983311,-0.264999985695,0.0,-0.539999961853,-0.264999985695,0.0,-0.539999961853,0.264999985695,0.0,0.329999983311,0.264999985695,0.0
1449618221386487360,31,1449618221386046675,odom,0.479999989271,0.0,0.0,0.329999983311,-0.264999985695,0.0,-0.539999961853,-0.264999985695,0.0,-0.539999961853,0.264999985695,0.0,0.329999983311,0.264999985695,0.0
1449618221585876653,32,1449618221585408988,odom,0.479999989271,0.0,0.0,0.329999983311,-0.264999985695,0.0,-0.539999961853,-0.264999985695,0.0,-0.539999961853,0.264999985695,0.0,0.329999983311,0.264999985695,0.0
1449618221835401441,33,1449618221835023509,odom,0.479999989271,0.0,0.0,0.329999983311,-0.264999985695,0.0,-0.539999961853,-0.264999985695,0.0,-0.539999961853,0.264999985695,0.0,0.329999983311,0.264999985695,0.0
1449618221987395547,34,1449618221987139988,odom,0.479999989271,0.0,0.0,0.329999983311,-0.264999985695,0.0,-0.539999961853,-0.264999985695,0.0,-0.539999961853,0.264999985695,0.0,0.329999983311,0.264999985695,0.0
1449618222205103171,35,1449618222204664030,odom,0.479999989271,0.0,0.0,0.329999983311,-0.264999985695,0.0,-0.539999961853,-0.264999985695,0.0,-0.539999961853,0.264999985695,0.0,0.329999983311,0.264999985695,0.0
1449618222426769652,36,1449618222426345539,odom,0.477093547583,0.00504213571548,0.0,0.329902410507,-0.261528253555,0.0,-0.540048956871,-0.270722270012,0.0,-0.545649945736,0.259248137474,0.0,0.324301451445,0.268442153931,0.0
1449618222614574107,37,1449618222613507760,odom,0.480000168085,-3.04332297674e-05,0.0,0.330000162125,-0.265030413866,0.0,-0.539999783039,-0.265030413866,0.0,-0.539999783039,0.264969557524,0.0,0.330000162125,0.264969557524,0.0
1449618222787125975,38,1449618222786891362,odom,0.480000168085,-3.04332297674e-05,0.0,0.330000162125,-0.265030413866,0.0,-0.539999783039,-0.265030413866,0.0,-0.539999783039,0.264969557524,0.0,0.330000162125,0.264969557524,0.0
1449618223038875214,39,1449618223036262453,odom,0.477093726397,0.00501170242205,0.0,0.329902559519,-0.261558681726,0.0,-0.540048778057,-0.270752698183,0.0,-0.545649766922,0.259217679501,0.0,0.324301600456,0.26841172576,0.0
1449618223242562019,40,1449618223241388270,odom,0.480000317097,-6.08664595347e-05,0.0,0.330000311136,-0.26506087184,0.0,-0.53999966383,-0.26506087184,0.0,-0.53999966383,0.264939129353,0.0,0.330000311136,0.264939129353,0.0
1449618223480556866,41,1449618223479953382,odom,0.480000317097,-6.08664595347e-05,0.0,0.330000311136,-0.26506087184,0.0,-0.53999966383,-0.26506087184,0.0,-0.53999966383,0.264939129353,0.0,0.330000311136,0.264939129353,0.0
1449618223643604444,42,1449618223641120571,odom,0.480000317097,-6.08664595347e-05,0.0,0.330000311136,-0.26506087184,0.0,-0.53999966383,-0.26506087184,0.0,-0.53999966383,0.264939129353,0.0,0.330000311136,0.264939129353,0.0
1449618223903990523,43,1449618223900925795,odom,0.480000317097,-6.08664595347e-05,0.0,0.330000311136,-0.26506087184,0.0,-0.53999966383,-0.26506087184,0.0,-0.53999966383,0.264939129353,0.0,0.330000311136,0.264939129353,0.0
1449618224057175878,44,1449618224054025085,odom,0.480000317097,-6.08664595347e-05,0.0,0.330000311136,-0.26506087184,0.0,-0.53999966383,-0.26506087184,0.0,-0.53999966383,0.264939129353,0.0,0.330000311136,0.264939129353,0.0
1449618224209944182,45,1449618224209543899,odom,0.482853144407,-0.00516386842355,0.0,0.330061048269,-0.268563896418,0.0,-0.539890348911,-0.259369850159,0.0,-0.534289360046,0.270600527525,0.0,0.335662007332,0.261406511068,0.0
1449618224463258031,46,1449618224461546578,odom,0.488612562418,-0.00519430171698,0.0,0.33582046628,-0.268594324589,0.0,-0.534130930901,-0.25940027833,0.0,-0.528529942036,0.270570099354,0.0,0.341421425343,0.261376082897,0.0
1449618224676450299,47,1449618224656667734,odom,0.497170090675,-0.0104184634984,0.0,0.341602951288,-0.272189080715,0.0,-0.528202712536,-0.253802061081,0.0,-0.517001390457,0.276079565287,0.0,0.352804243565,0.25769251585,0.0
1449618224825023287,48,1449618224824800295,odom,0.511429429054,-0.0158849172294,0.0,0.353104621172,-0.275996923447,0.0,-0.516458153725,-0.248418927193,0.0,-0.49965775013,0.281314730644,0.0,0.369904994965,0.25373673439,0.0
1449618225080000895,49,1449618225078206229,odom,0.525630176067,-0.0215017572045,0.0,0.364565402269,-0.27992606163,0.0,-0.504657387733,-0.243160218,0.0,-0.482259780169,0.286366313696,0.0,0.386962980032,0.249600440264,0.0
1449618225224106306,50,1449618225222238469,odom,0.542341947556,-0.0326668545604,0.0,0.375851452351,-0.287629425526,0.0,-0.49240013957,-0.232501164079,0.0,-0.458816260099,0.296433717012,0.0,0.409435331821,0.241305455565,0.0
1449618225440306751,51,1449618225439161266,odom,0.559577643871,-0.0338831841946,0.0,0.393087118864,-0.288845747709,0.0,-0.475164443254,-0.233717501163,0.0,-0.441580563784,0.295217394829,0.0,0.426670998335,0.240089133382,0.0
1449618225696805630,52,1449618225692561552,odom,0.579985558987,-0.0301571562886,0.0,0.416198730469,-0.286864936352,0.0,-0.452586948872,-0.240915313363,0.0,-0.424594640732,0.288344949484,0.0,0.444191038609,0.242395326495,0.0
1449618225916673968,53,1449618225916123200,odom,0.606445670128,-0.0159542262554,0.0,0.450878500938,-0.277724862099,0.0,-0.418927133083,-0.259337812662,0.0,-0.407725840807,0.270543783903,0.0,0.462079823017,0.252156764269,0.0
1449618226087942981,54,1449618226086974076,odom,0.648398041725,0.0311875585467,0.0,0.518394172192,-0.2441739887,0.0,-0.349226355553,-0.308474719524,0.0,-0.388398051262,0.220075711608,0.0,0.47922244668,0.284376442432,0.0
1449618226287521232,55,1449618226287116528,odom,0.679517686367,0.0653655901551,0.0,0.567223548889,-0.21768039465,0.0,-0.294578880072,-0.3368293643,0.0,-0.367163896561,0.188176721334,0.0,0.494638562202,0.307325720787,0.0
1449618226403467765,56,1449618226402667906,odom,0.715869545937,0.107955597341,0.0,0.624802112579,-0.182615786791,0.0,-0.225837111473,-0.36513376236,0.0,-0.337026208639,0.153071776032,0.0,0.513613045216,0.3355897367,0.0
1449618226757402396,57,1449618226754209612,odom,0.757498145103,0.143998637795,0.0,0.681904554367,-0.150976970792,0.0,-0.157907620072,-0.378167271614,0.0,-0.296310901642,0.133442461491,0.0,0.543501257896,0.360632777214,0.0
1449618226910688671,58,1449618226910371483,odom,0.822387397289,0.178828284144,0.0,0.756182193756,-0.118395321071,0.0,-0.0760063007474,-0.37209251523,0.0,-0.230557471514,0.134872898459,0.0,0.601630985737,0.388570100069,0.0
1449618227157399869,59,1449618227155225854,odom,0.863190948963,0.202604711056,0.0,0.80328220129,-0.0959517136216,0.0,-0.0233586225659,-0.367180138826,0.0,-0.188589736819,0.136405661702,0.0,0.638051092625,0.407634079456,0.0
1449618227262058047,60,1449618227259348114,odom,0.92525613308,0.234766542912,0.0,0.871670663357,-0.0649893432856,0.0,0.0509467273951,-0.353627860546,0.0,-0.12489053607,0.146353393793,0.0,0.695833384991,0.434991896152,0.0
1449618227442018110,61,1449618227432105375,odom,0.957805097103,0.246374920011,0.0,0.90421962738,-0.0533809661865,0.0,0.0834956988692,-0.342019468546,0.0,-0.0923415645957,0.157961770892,0.0,0.728382349014,0.446600288153,0.0
1449618227617628273,62,1449618227613394652,odom,1.00663363934,0.263773143291,0.0,0.953048169613,-0.0359827317297,0.0,0.132324278355,-0.324621260166,0.0,-0.0435129888356,0.175359994173,0.0,0.777210950851,0.463998526335,0.0
1449618227868306523,63,1449618227867861329,odom,1.0687892437,0.26856803894,0.0,1.00572872162,-0.0293386150151,0.0,0.176267787814,-0.291816085577,0.0,0.0163677185774,0.213487744331,0.0,0.845828711987,0.475965201855,0.0
1449618228017707487,64,1449618228011875396,odom,1.12552773952,0.269797444344,0.0,1.05305564404,-0.0259605683386,0.0,0.215691223741,-0.262013196945,0.0,0.0718890503049,0.248105347157,0.0,0.909253418446,0.484157979488,0.0
1449618228244911876,65,1449618228233836748,odom,1.17680287361,0.267400115728,0.0,1.09499204159,-0.0259119793773,0.0,0.250565856695,-0.235302507877,0.0,0.123006105423,0.279118031263,0.0,0.967432260513,0.488508582115,0.0
1449618228489179847,66,1449618228486939240,odom,1.23361647129,0.264557719231,0.0,1.14254903793,-0.026013655588,0.0,0.291909784079,-0.208531633019,0.0,0.180720686913,0.309673905373,0.0,1.03135991096,0.492191880941,0.0
1449618228694028672,67,1449618228688077876,odom,1.28272998333,0.253166884184,0.0,1.17946445942,-0.033296443522,0.0,0.321871995926,-0.179703682661,0.0,0.232681363821,0.342737734318,0.0,1.09027385712,0.489144951105,0.0
1449618228825815638,68,1449618228823877230,odom,1.3390789032,0.246764600277,0.0,1.22678470612,-0.0362813733518,0.0,0.364982306957,-0.155430361629,0.0,0.292397290468,0.369575738907,0.0,1.15419971943,0.488724738359,0.0
1449618229014183660,69,1449618229010136551,odom,1.39748179913,0.244075790048,0.0,1.27923059464,-0.0365336872637,0.0,0.415102541447,-0.137442275882,0.0,0.353629499674,0.388980597258,0.0,1.21775758266,0.489889204502,0.0
1449618229251171879,70,1449618229248142373,odom,1.45346796513,0.234191805124,0.0,1.32638132572,-0.0425282306969,0.0,0.459488809109,-0.115994252264,0.0,0.4147336483,0.41211271286,0.0,1.28162622452,0.485578745604,0.0
1449618229458047053,71,1449618229457265461,odom,1.51486372948,0.222842246294,0.0,1.3790692091,-0.0497102290392,0.0,0.510283529758,-0.0956598520279,0.0,0.482291251421,0.433600395918,0.0,1.35107696056,0.479550033808,0.0
1449618229590432928,72,1449618229585983230,odom,1.57585537434,0.209917157888,0.0,1.43148946762,-0.05819382146,0.0,0.561683833599,-0.0765808597207,0.0,0.550482571125,0.453300744295,0.0,1.42028820515,0.471687793732,0.0
1449618229833466219,73,1449618229828509181,odom,1.62779510021,0.200229078531,0.0,1.47779512405,-0.0647709220648,0.0,0.60779517889,-0.0647709220648,0.0,0.60779517889,0.465229064226,0.0,1.47779512405,0.465229064226,0.0
1449618230029737345,74,1449618230026105128,odom,1.68225872517,0.183978974819,0.0,1.52393388748,-0.0761330202222,0.0,0.654371142387,-0.0485550351441,0.0,0.671171545982,0.481178611517,0.0,1.54073429108,0.453600615263,0.0
1449618230228192664,75,1449618230225826886,odom,1.73674738407,0.176840826869,0.0,1.57568252087,-0.0815834924579,0.0,0.706459760666,-0.0448176339269,0.0,0.728857398033,0.484708875418,0.0,1.59808015823,0.447943031788,0.0
1449618230435599247,76,1449618230434891623,odom,1.78471517563,0.1584559232,0.0,1.61553955078,-0.0947329625487,0.0,0.747919082642,-0.0304322354496,0.0,0.787090778351,0.498118191957,0.0,1.65471124649,0.433817476034,0.0
1449618230659570856,77,1449618230657992308,odom,1.83885347843,0.149021476507,0.0,1.66701161861,-0.10236544162,0.0,0.800119102001,-0.0288994181901,0.0,0.84487426281,0.499207556248,0.0,1.71176683903,0.425741523504,0.0
1449618230834492490,78,1449618230824266886,odom,1.88805353642,0.150156497955,0.0,1.71887803078,-0.103032387793,0.0,0.851257443428,-0.0387316606939,0.0,0.890429198742,0.489818781614,0.0,1.75804972649,0.425518035889,0.0
1449618231098252593,79,1449618231092886911,odom,1.93974089622,0.146234318614,0.0,1.77056527138,-0.106954567134,0.0,0.902944743633,-0.0426538363099,0.0,0.942116439342,0.485896617174,0.0,1.80973696709,0.421595871449,0.0
1449618231212099136,80,1449618231208010613,odom,2.00100755692,0.15811046958,0.0,1.83994269371,-0.100313849747,0.0,0.970719873905,-0.0635479912162,0.0,0.993117451668,0.46597853303,0.0,1.86234021187,0.429212659597,0.0
1449618231451720405,81,1449618231450262347,odom,2.05314254761,0.166759490967,0.0,1.89757549763,-0.0950111299753,0.0,1.027769804,-0.0766240954399,0.0,1.03897118568,0.453257501125,0.0,1.9087767601,0.434870481491,0.0
1449618231651084437,82,1449618231646400599,odom,2.11084222794,0.176417142153,0.0,1.96084213257,-0.0885828509927,0.0,1.09084224701,-0.0885828509927,0.0,1.09084224701,0.441417127848,0.0,1.96084213257,0.441417127848,0.0
1449618231890454353,83,1449618231888842304,odom,2.1737434864,0.198344886303,0.0,2.03507614136,-0.0727573111653,0.0,1.16585350037,-0.109523169696,0.0,1.143455863,0.420003354549,0.0,2.0126786232,0.456769198179,0.0
1449618231996363969,84,1449618231991840495,odom,2.23323774338,0.216882273555,0.0,2.10323381424,-0.0584792755544,0.0,1.23561322689,-0.122780002654,0.0,1.19644153118,0.40577045083,0.0,2.06406211853,0.470071166754,0.0
1449618232241668404,85,1449618232238074242,odom,2.28974533081,0.232127472758,0.0,2.16559004784,-0.0459201410413,0.0,1.29952228069,-0.128543257713,0.0,1.24918866158,0.399061262608,0.0,2.11525630951,0.481684356928,0.0
1449618232417793508,86,1449618232416439618,odom,2.35027980804,0.259929776192,0.0,2.23798561096,-0.0231161918491,0.0,1.3761831522,-0.142265170813,0.0,1.30359816551,0.382740914822,0.0,2.16540050507,0.501889884472,0.0
1449618232606194636,87,1449618232604531735,odom,2.40201330185,0.283425480127,0.0,2.29874777794,-0.00303786341101,0.0,1.44115543365,-0.149445101619,0.0,1.35196471214,0.372996300459,0.0,2.20955729485,0.519403517246,0.0
1449618232841620916,88,1449618232838182002,odom,2.45685243607,0.303788989782,0.0,2.35966444016,0.0152071677148,0.0,1.50535774231,-0.149292185903,0.0,1.40514552593,0.371147543192,0.0,2.25945210457,0.535646855831,0.0
1449618233067815687,89,1449618233065291982,odom,2.51286578178,0.331370979548,0.0,2.42487406731,0.039853438735,0.0,1.57621121407,-0.151643767953,0.0,1.45955204964,0.365357786417,0.0,2.30821490288,0.556855022907,0.0
1449618233183234657,90,1449618233179500371,odom,2.56241679192,0.35921061039,0.0,2.483710289,0.0650503411889,0.0,1.64154398441,-0.153252258897,0.0,1.50855505466,0.359791517258,0.0,2.35072135925,0.578094124794,0.0
1449618233397552846,91,1449618233397295856,odom,2.6111240387,0.38837197423,0.0,2.54178142548,0.0918646007776,0.0,1.70695841312,-0.153023988008,0.0,1.55777347088,0.35554638505,0.0,2.39259648323,0.600434958935,0.0
1449618233581989689,92,1449618233581491636,odom,2.66328287125,0.414783537388,0.0,2.60022234917,0.116876877844,0.0,1.77076148987,-0.14560058713,0.0,1.61086142063,0.359703242779,0.0,2.44032239914,0.622180700302,0.0
1449618233781077030,93,1449618233780123088,odom,2.71036243439,0.446534305811,0.0,2.65677690506,0.146778419614,0.0,1.8360530138,-0.141860097647,0.0,1.66021573544,0.358121156693,0.0,2.48093962669,0.646759688854,0.0
1449618233997597399,94,1449618233996646885,odom,2.76024055481,0.469549715519,0.0,2.70982575417,0.169244274497,0.0,1.89219796658,-0.128051415086,0.0,1.71108675003,0.370043694973,0.0,2.52871441841,0.667339384556,0.0
1449618234227766197,95,1449618234224805128,odom,2.81062102318,0.499213308096,0.0,2.7665643692,0.197909444571,0.0,1.95540225506,-0.116600014269,0.0,1.76380455494,0.377556145191,0.0,2.57496666908,0.692065596581,0.0
1449618234386557791,96,1449618234385854514,odom,2.85494804382,0.527965903282,0.0,2.81726908684,0.225798264146,0.0,2.01293540001,-0.105784468353,0.0,1.81093657017,0.384211987257,0.0,2.61527037621,0.715794742107,0.0
1449618234573288584,97,1449618234572425971,odom,2.90394711494,0.559928357601,0.0,2.87266278267,0.257031857967,0.0,2.07551646233,-0.0914760306478,0.0,1.86320710182,0.394141823053,0.0,2.66035342216,0.74264973402,0.0
1449618234757948468,98,1449618234757405106,odom,2.95209646225,0.593279540539,0.0,2.92722058296,0.289789527655,0.0,2.13761782646,-0.0754878222942,0.0,1.91509258747,0.405534505844,0.0,2.70469522476,0.770811855793,0.0
1449618235014590040,99,1449618235008730685,odom,2.99444961548,0.631414175034,0.0,2.97920680046,0.327288150787,0.0,2.20157957077,-0.0628351122141,0.0,1.96391832829,0.410891711712,0.0,2.74154543877,0.801014959812,0.0
1449618235245710134,100,1449618235236031544,odom,3.03573203087,0.676555216312,0.0,3.03335499763,0.372056692839,0.0,2.27290892601,-0.0505802705884,0.0,2.01544046402,0.412679880857,0.0,2.77588629723,0.835316836834,0.0
1449618235339587067,101,1449618235339370013,odom,3.08070588112,0.713957369328,0.0,3.08476471901,0.409476608038,0.0,2.3334209919,-0.0291376188397,0.0,2.06621909142,0.428577572107,0.0,2.81756281853,0.867191791534,0.0
1449618235611701717,102,1449618235608440475,odom,3.1194217205,0.755656838417,0.0,3.13313007355,0.451457768679,0.0,2.39606738091,-0.0107527663931,0.0,2.11449098587,0.438262432814,0.0,2.85155367851,0.900472939014,0.0
1449618235791511055,103,1449618235791301797,odom,3.15738105774,0.792477071285,0.0,3.17751550674,0.488635659218,0.0,2.45038604736,0.0109508931637,0.0,2.15938282013,0.453914821148,0.0,2.88651227951,0.9315995574,0.0
1449618235988919385,104,1449618235985020056,odom,3.19397830963,0.835962533951,0.0,3.2237341404,0.53291207552,0.0,2.51211214066,0.032418191433,0.0,2.20721364021,0.465935021639,0.0,2.91883563995,0.966428875923,0.0
1449618236173342909,105,1449618236169433482,odom,3.23018908501,0.874390482903,0.0,3.26634311676,0.572036623955,0.0,2.56545782089,0.0566147305071,0.0,2.25146508217,0.483590841293,0.0,2.95235061646,0.999012708664,0.0
1449618236369786058,106,1449618236369564393,odom,3.2765891552,0.908512532711,0.0,3.31274318695,0.606158614159,0.0,2.61185789108,0.0907367616892,0.0,2.29786539078,0.517712891102,0.0,2.99875068665,1.03313469887,0.0
1449618236566082536,107,1449618236565494720,odom,3.3126938343,0.942002117634,0.0,3.35204100609,0.640047132969,0.0,2.65664172173,0.117247216403,0.0,2.33815455437,0.540881276131,0.0,3.03355383873,1.06368124485,0.0
1449618236759616175,108,1449618236754864574,odom,3.35321187973,0.979114353657,0.0,3.39574790001,0.677592039108,0.0,2.70591235161,0.147472441196,0.0,2.38296604156,0.567717134953,0.0,3.07280158997,1.09783673286,0.0
1449618236993327229,109,1449618236991361582,odom,3.39893579483,1.01413667202,0.0,3.44147181511,0.712614417076,0.0,2.75163626671,0.182494804263,0.0,2.42868995667,0.602739453316,0.0,3.11852550507,1.13285911083,0.0
1449618237162581821,110,1449618237162141476,odom,3.44020318985,1.04550421238,0.0,3.48273944855,0.743981897831,0.0,2.79290366173,0.213862299919,0.0,2.46995735168,0.634106993675,0.0,3.15979290009,1.16422653198,0.0
1449618237379513599,111,1449618237373195508,odom,3.48687911034,1.07451534271,0.0,3.52622628212,0.772560358047,0.0,2.83082699776,0.24976041913,0.0,2.5123398304,0.673394501209,0.0,3.20773911476,1.19619441032,0.0
1449618237624715172,112,1449618237621774530,odom,3.53282403946,1.10924696922,0.0,3.57217121124,0.807291984558,0.0,2.87677192688,0.284492045641,0.0,2.5582845211,0.708126068115,0.0,3.25368380547,1.23092603683,0.0
1449618237749943496,113,1449618237744778728,odom,3.57886075974,1.14385735989,0.0,3.61820816994,0.841902434826,0.0,2.92280888557,0.319102525711,0.0,2.6043214798,0.742736577988,0.0,3.29972076416,1.26553654671,0.0
1449618237952145087,114,1449618237938261639,odom,3.62502479553,1.17829692364,0.0,3.66437220573,0.876341998577,0.0,2.96897292137,0.353542029858,0.0,2.65048551559,0.777176082134,0.0,3.34588479996,1.29997599125,0.0
1449618238186773997,115,1449618238186479468,odom,3.66654896736,1.20932424068,0.0,3.70589613914,0.907369315624,0.0,3.01049685478,0.384569346905,0.0,2.69200944901,0.808203399181,0.0,3.38740873337,1.3310033083,0.0
1449618238374339615,116,1449618238371551136,odom,3.71352863312,1.23784053326,0.0,3.74968266487,0.935486555099,0.0,3.048797369,0.420064717531,0.0,2.7348048687,0.847040832043,0.0,3.43569016457,1.36246263981,0.0
1449618238579357173,117,1449618238578692608,odom,3.75528883934,1.26855027676,0.0,3.79144287109,0.966196417809,0.0,3.09055757523,0.450774520636,0.0,2.7765648365,0.877750635147,0.0,3.47745013237,1.39317250252,0.0
1449618238755833185,118,1449618238751922734,odom,3.79217290878,1.29616546631,0.0,3.82832694054,0.993811488152,0.0,3.12744140625,0.478389650583,0.0,2.81344890594,0.905365765095,0.0,3.51433420181,1.42078769207,0.0
1449618238967976351,119,1449618238965313657,odom,3.82456207275,1.32017290592,0.0,3.86071610451,1.01781904697,0.0,3.15983080864,0.502397179604,0.0,2.84583806992,0.929373323917,0.0,3.5467236042,1.44479513168,0.0
1449618239138746120,120,1449618239138222734,odom,3.85140419006,1.3468130827,0.0,3.89075136185,1.04485821724,0.0,3.19535207748,0.52205824852,0.0,2.87686467171,0.945692300797,0.0,3.57226395607,1.46849226952,0.0
1449618239347462062,121,1449618239345553517,odom,3.88164520264,1.38307762146,0.0,3.92736530304,1.08202171326,0.0,3.2431704998,0.544641554356,0.0,2.91580104828,0.961449921131,0.0,3.59999585152,1.49882996082,0.0
1449618239573325864,122,1449618239572173806,odom,3.91685938835,1.41745650768,0.0,3.96575832367,1.11690044403,0.0,3.28728079796,0.572319924831,0.0,2.955524683,0.985645413399,0.0,3.63400244713,1.5302259922,0.0
1449618239787697543,123,1449618239783335777,odom,3.94706296921,1.44878935814,0.0,3.99913573265,1.14876699448,0.0,3.32645082474,0.597046732903,0.0,2.99034547806,1.00684320927,0.0,3.66303014755,1.55856347084,0.0
1449618239970641430,124,1449618239969161196,odom,3.9769923687,1.48036944866,0.0,4.03223276138,1.18091404438,0.0,3.36541581154,0.622115850449,0.0,3.02499866486,1.02833747864,0.0,3.69181513786,1.58713567257,0.0
1449618240146614745,125,1449618240146273754,odom,3.99674296379,1.51043426991,0.0,4.05829954147,1.21221327782,0.0,3.40344190598,0.639446973801,0.0,3.05451536179,1.03838336468,0.0,3.7093732357,1.61114966869,0.0
1449618240370591140,126,1449618240370168993,odom,4.02281427383,1.53311622143,0.0,4.08437108994,1.23489522934,0.0,3.42951345444,0.662128984928,0.0,3.08058691025,1.0610653162,0.0,3.73544478416,1.63383162022,0.0
1449618240556406424,127,1449618240555757914,odom,4.0474729538,1.56174612045,0.0,4.11217784882,1.26419222355,0.0,3.46340942383,0.684537529945,0.0,3.11028647423,1.07976424694,0.0,3.75905489922,1.65941894054,0.0
1449618240784387785,128,1449618240781569752,odom,4.06755304337,1.58677494526,0.0,4.13539886475,1.28992152214,0.0,3.49279236794,0.703443050385,0.0,3.13551235199,1.09491598606,0.0,3.77811861038,1.68139433861,0.0
1449618240949814855,129,1449618240944980630,odom,4.09164190292,1.6158747673,0.0,4.16262102127,1.31975495815,0.0,3.52624845505,0.726518273354,0.0,3.16485142708,1.1141936779,0.0,3.80122423172,1.70743024349,0.0
1449618241209537975,130,1449618241205544385,odom,4.11544322968,1.64520549774,0.0,4.18954753876,1.34985232353,0.0,3.55947971344,0.74992364645,0.0,3.19400596619,1.13375818729,0.0,3.82407402992,1.73368680477,0.0
1449618241380990157,131,1449618241374734795,odom,4.14881277084,1.67697870731,0.0,4.22291707993,1.3816255331,0.0,3.59284925461,0.781696915627,0.0,3.22737550735,1.16553139687,0.0,3.85744333267,1.76546001434,0.0
1449618241561825504,132,1449618241558509880,odom,4.17892074585,1.72036874294,0.0,4.25925111771,1.42664766312,0.0,3.64200305939,0.813536822796,0.0,3.26849865913,1.18956148624,0.0,3.88574671745,1.80267226696,0.0
1449618241756190098,133,1449618241754536384,odom,4.21403932571,1.76261591911,0.0,4.29746866226,1.46976006031,0.0,3.68673467636,0.85016053915,0.0,3.30927729607,1.22221708298,0.0,3.9200117588,1.84181666374,0.0
1449618241963850389,134,1449618241953736428,odom,4.24462270737,1.80117249489,0.0,4.33114242554,1.50921475887,0.0,3.72698998451,0.883195579052,0.0,3.34562206268,1.25124239922,0.0,3.94977426529,1.87726151943,0.0
1449618242166617610,135,1449618242165124699,odom,4.27295827866,1.84571194649,0.0,4.36562919617,1.55564796925,0.0,3.77484226227,0.917000174522,0.0,3.38578104973,1.2769048214,0.0,3.97656774521,1.91555249691,0.0
1449618242365684448,136,1449618242365008018,odom,4.30025625229,1.89092254639,0.0,4.39903688431,1.60288190842,0.0,3.82187962532,0.951890766621,0.0,3.42529892921,1.30349230766,0.0,4.0024561882,1.95448350906,0.0
1449618242596231898,137,1449618242580209161,odom,4.32859992981,1.93118035793,0.0,4.43041849136,1.64419960976,0.0,3.8601732254,0.987145602703,0.0,3.45989894867,1.33453655243,0.0,4.03014421463,1.99159061909,0.0
1449618242787148040,138,1449618242779361229,odom,4.34834289551,1.97853565216,0.0,4.45920801163,1.69492673874,0.0,3.91007685661,1.02012681961,0.0,3.49899172783,1.35465490818,0.0,4.04812288284,2.02945494652,0.0
1449618242954872384,139,1449618242954589806,odom,4.37267398834,2.02542281151,0.0,4.48950767517,1.74422037601,0.0,3.95476102829,1.05796551704,0.0,3.53669762611,1.38373076916,0.0,4.07144451141,2.06998562813,0.0
1449618243184815148,140,1449618243184580252,odom,4.39237117767,2.06834435463,0.0,4.51512241364,1.78967392445,0.0,3.99499845505,1.09227073193,0.0,3.57014369965,1.40912771225,0.0,4.0902671814,2.10653090477,0.0
1449618243370443788,141,1449618243370297922,odom,4.40856075287,2.11702942848,0.0,4.54008340836,1.84239006042,0.0,4.04232788086,1.12884998322,0.0,3.6076426506,1.43208038807,0.0,4.1053981781,2.14562034607,0.0
1449618243558243999,142,1449618243557719423,odom,4.43211889267,2.16025185585,0.0,4.56653690338,1.88701784611,0.0,4.07634973526,1.16825735569,0.0,3.63848423958,1.46687710285,0.0,4.12867116928,2.18563747406,0.0
1449618243749808623,143,1449618243749600013,odom,4.44605875015,2.20969486237,0.0,4.58907032013,1.94085896015,0.0,4.12191343307,1.20692133904,0.0,3.67480182648,1.4915112257,0.0,4.14195871353,2.22544884682,0.0
1449618243971088199,144,1449618243970822757,odom,4.4616355896,2.24412417412,0.0,4.60748004913,1.97681462765,0.0,4.14810562134,1.23798120022,0.0,3.69801163673,1.51783013344,0.0,4.15738630295,2.25666356087,0.0
1449618244161375054,145,1449618244158159755,odom,4.48262119293,2.29876041412,0.0,4.63408279419,2.03459310532,0.0,4.19042539597,1.28621590137,0.0,3.73451781273,1.55648982525,0.0,4.17817497253,2.30486702919,0.0
1449618244372674500,146,1449618244370837583,odom,4.49959039688,2.34882903099,0.0,4.65660095215,2.08792161942,0.0,4.22885942459,1.33033514023,0.0,3.76734113693,1.59091329575,0.0,4.19508266449,2.34849977493,0.0
1449618244544303969,147,1449618244541563618,odom,4.51557731628,2.39920115471,0.0,4.6780667305,2.14167046547,0.0,4.26643228531,1.37521314621,0.0,3.79951000214,1.6259790659,0.0,4.21114444733,2.39243626595,0.0
1449618244762792695,148,1449618244761408567,odom,4.53113079071,2.43984746933,0.0,4.69633293152,2.18404817581,0.0,4.29282093048,1.41328346729,0.0,3.82327461243,1.65910112858,0.0,4.22678661346,2.42986559868,0.0
1449618244946502011,149,1449618244945940454,odom,4.53684186935,2.48533344269,0.0,4.71006965637,2.23489928246,0.0,4.33119249344,1.45173120499,0.0,3.85409021378,1.68254125118,0.0,4.23296689987,2.46570944786,0.0
1449618245201823499,150,1449618245201103153,odom,4.54342269897,2.53625130653,0.0,4.72450208664,2.29143428802,0.0,4.37064123154,1.49664986134,0.0,3.88646197319,1.71222031116,0.0,4.24032306671,2.50700473785,0.0
1449618245399836167,151,1449618245399014190,odom,4.54228305817,2.58670449257,0.0,4.73354625702,2.34975862503,0.0,4.41358852386,1.54073011875,0.0,3.92073202133,1.7356467247,0.0,4.24068975449,2.54467511177,0.0
1449618245603717259,152,1449618245603405292,odom,4.53506946564,2.64145302773,0.0,4.7385802269,2.41493940353,0.0,4.46179866791,1.59014129639,0.0,3.95933556557,1.75875532627,0.0,4.23611688614,2.58355355263,0.0
1449618245776031706,153,1449618245775270064,odom,4.5248298645,2.69578957558,0.0,4.74001979828,2.48034071922,0.0,4.50718688965,1.64207530022,0.0,3.99651956558,1.78391611576,0.0,4.22935247421,2.62218141556,0.0
1449618245962530381,154,1449618245962280031,odom,4.50579690933,2.74785065651,0.0,4.73420667648,2.54647040367,0.0,4.55495882034,1.69513607025,0.0,4.03633022308,1.80433297157,0.0,4.21557760239,2.65566730499,0.0
1449618246166345478,155,1449618246165277205,odom,4.48965263367,2.80056858063,0.0,4.72837924957,2.61153316498,0.0,4.59434556961,1.75191986561,0.0,4.07067298889,1.83357262611,0.0,4.20470714569,2.69318580627,0.0
1449618246421227446,156,1449618246420362021,odom,4.48121976852,2.85117459297,0.0,4.72581911087,2.66980147362,0.0,4.61910152435,1.80637156963,0.0,4.09310388565,1.87138342857,0.0,4.19982147217,2.73481345177,0.0
1449618246561527656,157,1449618246557493310,odom,4.47106647491,2.90150356293,0.0,4.72129201889,2.72797513008,0.0,4.64199781418,1.86159610748,0.0,4.1142039299,1.90990185738,0.0,4.19349813461,2.77628064156,0.0
1449618246737023410,158,1449618246736763648,odom,4.45966625214,2.95723462105,0.0,4.71526670456,2.79172515869,0.0,4.66347551346,1.92326819897,0.0,4.13441514969,1.95481920242,0.0,4.18620634079,2.82327628136,0.0
1449618246961795773,159,1449618246961442943,odom,4.45135545731,2.99800682068,0.0,4.7103972435,2.83793640137,0.0,4.67697191238,1.96857881546,0.0,4.14736318588,1.98894131184,0.0,4.180788517,2.85829901695,0.0
1449618247201663846,160,1449618247200471479,odom,4.43703317642,3.03577637672,0.0,4.70101833344,2.88399767876,0.0,4.6951675415,2.01401734352,0.0,4.16517925262,2.01758170128,0.0,4.17103004456,2.8875617981,0.0
1449618247350092900,161,1449618247348683677,odom,4.43217325211,3.0674598217,0.0,4.69774770737,2.91847920418,0.0,4.70109128952,2.04848575592,0.0,4.17109489441,2.046448946,0.0,4.16775178909,2.91644239426,0.0
1449618247546791473,162,1449618247546397519,odom,4.42678833008,3.09332942963,0.0,4.69392251968,2.94716382027,0.0,4.70645952225,2.07725405693,0.0,4.17651462555,2.06961655617,0.0,4.16397762299,2.9395263195,0.0
1449618247763793713,163,1449618247761584927,odom,4.4212436676,3.11338233948,0.0,4.68990755081,2.97004795074,0.0,4.71163702011,2.10031938553,0.0,4.1818022728,2.08708190918,0.0,4.1600728035,2.9568104744,0.0
1449618247956467803,164,1449618247948357694,odom,4.42049407959,3.14217042923,0.0,4.68915748596,2.9988360405,0.0,4.7108874321,2.12910747528,0.0,4.18105268478,2.11586999893,0.0,4.15932321548,2.98559832573,0.0
1449618248154635735,165,1449618248154117929,odom,4.41941785812,3.17671060562,0.0,4.68808174133,3.03337621689,0.0,4.70981121063,2.16364765167,0.0,4.17997646332,2.15041017532,0.0,4.15824699402,3.02013874054,0.0
1449618248348120729,166,1449618248343760079,odom,4.4179930687,3.22276473045,0.0,4.6866569519,3.07943034172,0.0,4.7083864212,2.2097017765,0.0,4.17855167389,2.19646430016,0.0,4.15682220459,3.06619286537,0.0
1449618248584268559,167,1449618248582605403,odom,4.42780828476,3.26898598671,0.0,4.69338274002,3.12000536919,0.0,4.69672584534,2.25001192093,0.0,4.16672992706,2.24797511101,0.0,4.16338634491,3.11796855927,0.0
1449618248776165230,168,1449618248775542878,odom,4.44362735748,3.31775307655,0.0,4.70434617996,3.16042900085,0.0,4.68010997772,2.290766716,0.0,4.15031576157,2.30553126335,0.0,4.17455148697,3.1751935482,0.0
1449618249005818434,169,1449618249004911728,odom,4.4554438591,3.36340785027,0.0,4.71277952194,3.20060896873,0.0,4.67016887665,2.33165311813,0.0,4.14080476761,2.35761117935,0.0,4.1834154129,3.22656702995,0.0
1449618249232402748,170,1449618249222102581,odom,4.4628071785,3.40626788139,0.0,4.71840763092,3.24075841904,0.0,4.66661643982,2.3723013401,0.0,4.13755655289,2.40385246277,0.0,4.18934774399,3.27230930328,0.0
1449618249398098199,171,1449618249397476522,odom,4.47034072876,3.44329428673,0.0,4.72417783737,3.27509284019,0.0,4.66321182251,2.40723180771,0.0,4.13451480865,2.44437193871,0.0,4.19548082352,3.31223320961,0.0
1449618249557091584,172,1449618249556161853,odom,4.47316598892,3.48351240158,0.0,4.72700309753,3.31531095505,0.0,4.66603708267,2.44744968414,0.0,4.13734006882,2.48459005356,0.0,4.19830608368,3.35245108604,0.0
1449618249790097007,173,1449618249749101924,odom,4.46540880203,3.52436280251,0.0,4.72274398804,3.36156368256,0.0,4.68013334274,2.49260783195,0.0,4.1507692337,2.51856613159,0.0,4.193379879,3.38752198219,0.0
1449618250040333438,174,1449618250039945308,odom,4.45180654526,3.57379436493,0.0,4.71417331696,3.41923427582,0.0,4.69912910461,2.54936432838,0.0,4.16920804977,2.55852937698,0.0,4.18425226212,3.428399086,0.0
1449618250165840209,175,1449618250165010786,odom,4.42556762695,3.62826800346,0.0,4.69573116302,3.48778057098,0.0,4.72665071487,2.61833024025,0.0,4.19698524475,2.59949421883,0.0,4.16606616974,3.46894454956,0.0
1449618250407723052,176,1449618250376689252,odom,4.39651870728,3.68127918243,0.0,4.67372512817,3.55525684357,0.0,4.75052213669,2.68865323067,0.0,4.22259092331,2.64186882973,0.0,4.14579391479,3.50847268105,0.0
1449618250574283710,177,1449618250573510729,odom,4.36054611206,3.72334003448,0.0,4.64518117905,3.61513638496,0.0,4.7767367363,2.75514030457,0.0,4.25283098221,2.67499732971,0.0,4.12127542496,3.53499317169,0.0
1449618250781883736,178,1449618250781666286,odom,4.32647609711,3.76693987846,0.0,4.61642837524,3.67392039299,0.0,4.79322147369,2.82207298279,0.0,4.27428007126,2.71437120438,0.0,4.09748697281,3.56621861458,0.0
1449618250998086272,179,1449618250997606034,odom,4.29170608521,3.80313038826,0.0,4.58616638184,3.72555494308,0.0,4.80770397186,2.88423395157,0.0,4.29517507553,2.74927425385,0.0,4.0736374855,3.59059524536,0.0
1449618251337179337,180,1449618251334944822,odom,4.26505661011,3.84051895142,0.0,4.56182861328,3.77231621742,0.0,4.80992364883,2.93844056129,0.0,4.30192995071,2.78730225563,0.0,4.053835392,3.62117791176,0.0
1449618251509036373,181,1449618251492945348,odom,4.23547744751,3.8825275898,0.0,4.53426170349,3.82376670837,0.0,4.80866479874,2.99817419052,0.0,4.3057179451,2.83100914955,0.0,4.03131484985,3.65660142899,0.0
1449618251610326488,182,1449618251609174083,odom,4.21250629425,3.91725826263,0.0,4.51246547699,3.86482524872,0.0,4.80425596237,3.04521656036,0.0,4.30495405197,2.86745929718,0.0,4.01316404343,3.68706774712,0.0
1449618251780113975,183,1449618251778609268,odom,4.18488502502,3.96232771873,0.0,4.48588562012,3.91624569893,0.0,4.79493284225,3.10298705101,0.0,4.29949951172,2.914716959,0.0,3.99045228958,3.72797560692,0.0
1449618252026074642,184,1449618252022622017,odom,4.15421485901,4.01216554642,0.0,4.45612239838,3.97245526314,0.0,4.78228807449,3.16590976715,0.0,4.29094457626,2.96721076965,0.0,3.96477842331,3.77375626564,0.0
1449618252197578474,185,1449618252197316065,odom,4.12881183624,4.0608830452,0.0,4.43112230301,4.02436590195,0.0,4.76579332352,3.22131204605,0.0,4.27657699585,3.01743197441,0.0,3.9419054985,3.82048559189,0.0
1449618252424885800,186,1449618252424005827,odom,4.10267114639,4.10923480988,0.0,4.40535068512,4.07591438293,0.0,4.74848985672,3.27644228935,0.0,4.26145505905,3.06740355492,0.0,3.91831588745,3.8668756485,0.0
1449618252598998832,187,1449618252596856962,odom,4.07624435425,4.1574048996,0.0,4.3792591095,4.12728500366,0.0,4.73082780838,3.33148384094,0.0,4.24602937698,3.11730980873,0.0,3.8944606781,3.91311097145,0.0
1449618252816601782,188,1449618252816024826,odom,4.05529737473,4.2048201561,0.0,4.35831212997,4.17470026016,0.0,4.70988035202,3.37889909744,0.0,4.22508239746,3.16472506523,0.0,3.87351346016,3.96052622795,0.0
1449618253008787417,189,1449618253007119059,odom,4.03063488007,4.24741506577,0.0,4.3339509964,4.2204990387,0.0,4.69390964508,3.42845773697,0.0,4.21140193939,3.20917224884,0.0,3.85144281387,4.00121355057,0.0
1449618253213362209,190,1449618253211527015,odom,4.00807237625,4.28457975388,0.0,4.31165599823,4.2608704567,0.0,4.67996501923,3.47267746925,0.0,4.19980144501,3.24830532074,0.0,3.83149218559,4.0364985466,0.0
1449618253392419932,191,1449618253387598167,odom,3.9901330471,4.31113243103,0.0,4.29395008087,4.29063272476,0.0,4.67056798935,3.50637578964,0.0,4.1928024292,3.27694177628,0.0,3.81618452072,4.0611987114,0.0
1449618253677914097,192,1449618253673953834,odom,3.98029756546,4.33196544647,0.0,4.28411436081,4.3114657402,0.0,4.66073226929,3.52720880508,0.0,4.18296670914,3.29777479172,0.0,3.80634880066,4.08203172684,0.0
1449618253891987822,193,1449618253879006945,odom,3.97290015221,4.34758043289,0.0,4.27671718597,4.32708072662,0.0,4.65333509445,3.5428237915,0.0,4.1755695343,3.31338977814,0.0,3.79895138741,4.09764671326,0.0
1449618254040016849,194,1449618254038597302,odom,3.96542024612,4.36315631866,0.0,4.26923704147,4.3426566124,0.0,4.64585542679,3.55839943886,0.0,4.1680893898,3.32896566391,0.0,3.79147148132,4.11322259903,0.0
1449618254225690805,195,1449618254225146209,odom,3.95794034004,4.37873220444,0.0,4.26175737381,4.35823249817,0.0,4.63837528229,3.57397532463,0.0,4.16060972214,3.34454154968,0.0,3.78399157524,4.1287984848,0.0
1449618254430458809,196,1449618254429453029,odom,3.95292639732,4.38910245895,0.0,4.25674343109,4.36860275269,0.0,4.63336133957,3.58434605598,0.0,4.15559577942,3.35491204262,0.0,3.77897763252,4.13916873932,0.0
1449618254624261446,197,1449618254621662684,odom,3.9445707798,4.39464378357,0.0,4.24858760834,4.3773560524,0.0,4.63347244263,3.59712290764,0.0,4.15815782547,3.36265277863,0.0,3.77327299118,4.14288568497,0.0
1449618254793042215,198,1449618254791104246,odom,3.94788503647,4.39945983887,0.0,4.25170230865,4.3789601326,0.0,4.62832021713,3.59470319748,0.0,4.15055418015,3.36526918411,0.0,3.77393651009,4.14952611923,0.0
1449618254987721211,199,1449618254984988632,odom,3.94459819794,4.39465713501,0.0,4.24861478806,4.37736940384,0.0,4.63349962234,3.59713625908,0.0,4.15818500519,3.36266613007,0.0,3.77330040932,4.14289903641,0.0
1449618255220595279,200,1449618255220009824,odom,3.94459819794,4.39465713501,0.0,4.24861478806,4.37736940384,0.0,4.63349962234,3.59713625908,0.0,4.15818500519,3.36266613007,0.0,3.77330040932,4.14289903641,0.0
1449618255420335852,201,1449618255419313718,odom,3.94459819794,4.39465713501,0.0,4.24861478806,4.37736940384,0.0,4.63349962234,3.59713625908,0.0,4.15818500519,3.36266613007,0.0,3.77330040932,4.14289903641,0.0
1449618255616482533,202,1449618255616038706,odom,3.94459819794,4.39465713501,0.0,4.24861478806,4.37736940384,0.0,4.63349962234,3.59713625908,0.0,4.15818500519,3.36266613007,0.0,3.77330040932,4.14289903641,0.0
1449618255773894822,203,1449618255771483811,odom,3.94459819794,4.39465713501,0.0,4.24861478806,4.37736940384,0.0,4.63349962234,3.59713625908,0.0,4.15818500519,3.36266613007,0.0,3.77330040932,4.14289903641,0.0
1449618255993885212,204,1449618255989734872,odom,3.94459819794,4.39465713501,0.0,4.24861478806,4.37736940384,0.0,4.63349962234,3.59713625908,0.0,4.15818500519,3.36266613007,0.0,3.77330040932,4.14289903641,0.0
1449618256228330321,205,1449618256228087691,odom,3.94459819794,4.39465713501,0.0,4.24861478806,4.37736940384,0.0,4.63349962234,3.59713625908,0.0,4.15818500519,3.36266613007,0.0,3.77330040932,4.14289903641,0.0
1449618256422129989,206,1449618256421910234,odom,3.94459819794,4.39465713501,0.0,4.24861478806,4.37736940384,0.0,4.63349962234,3.59713625908,0.0,4.15818500519,3.36266613007,0.0,3.77330040932,4.14289903641,0.0
1449618256607414986,207,1449618256607089340,odom,3.94459819794,4.39465713501,0.0,4.24861478806,4.37736940384,0.0,4.63349962234,3.59713625908,0.0,4.15818500519,3.36266613007,0.0,3.77330040932,4.14289903641,0.0
1449618256809665837,208,1449618256805837399,odom,3.94459819794,4.39465713501,0.0,4.24861478806,4.37736940384,0.0,4.63349962234,3.59713625908,0.0,4.15818500519,3.36266613007,0.0,3.77330040932,4.14289903641,0.0
1449618257092694201,209,1449618257091900770,odom,3.94459819794,4.39465713501,0.0,4.24861478806,4.37736940384,0.0,4.63349962234,3.59713625908,0.0,4.15818500519,3.36266613007,0.0,3.77330040932,4.14289903641,0.0
1449618257198550060,210,1449618257197522349,odom,3.94791245461,4.39947319031,0.0,4.25172948837,4.37897348404,0.0,4.62834739685,3.59471654892,0.0,4.1505818367,3.36528253555,0.0,3.7739636898,4.14953947067,0.0
1449618257437716276,211,1449618257432870599,odom,3.93955683708,4.40501451492,0.0,4.24357366562,4.38772630692,0.0,4.62845849991,3.60749340057,0.0,4.15314388275,3.37302327156,0.0,3.76825904846,4.15325641632,0.0
1449618257674012343,212,1449618257673161411,odom,3.93780255318,4.42017459869,0.0,4.24161958694,4.39967441559,0.0,4.61823749542,3.61541771889,0.0,4.14047193527,3.38598370552,0.0,3.76385378838,4.17024087906,0.0
1449618257817252520,213,1449618257816867571,odom,3.92689871788,4.43088102341,0.0,4.23091554642,4.4135928154,0.0,4.61580038071,3.63335990906,0.0,4.14048576355,3.39888978004,0.0,3.75560092926,4.1791229248,0.0
1449618258033300841,214,1449618258032461775,odom,3.91928195953,4.44639015198,0.0,4.22329854965,4.42910242081,0.0,4.60818338394,3.64886927605,0.0,4.13286924362,3.41439914703,0.0,3.74798440933,4.19463205338,0.0
1449618258211102508,215,1449618258209264892,odom,3.90571784973,4.4621462822,0.0,4.20990037918,4.44807195663,0.0,4.6030087471,3.67195010185,0.0,4.13019895554,3.43246984482,0.0,3.73709011078,4.20859193802,0.0
1449618258453736107,216,1449618258449895104,odom,3.90125536919,4.48245191574,0.0,4.20527219772,4.46516418457,0.0,4.59015703201,3.68493103981,0.0,4.11484241486,3.45046114922,0.0,3.72995758057,4.23069429398,0.0
1449618258607178034,217,1449618258604025317,odom,3.88763666153,4.49818086624,0.0,4.19181919098,4.48410654068,0.0,4.5849275589,3.7079846859,0.0,4.11211776733,3.46850466728,0.0,3.71900892258,4.24462652206,0.0
1449618258821440079,218,1449618258821174087,odom,3.87985658646,4.5136089325,0.0,4.18403863907,4.49953460693,0.0,4.57714748383,3.72341251373,0.0,4.10433769226,3.48393249512,0.0,3.7112288475,4.26005458832,0.0
1449618259005793859,219,1449618259000054774,odom,3.86936545372,4.53411960602,0.0,4.17354774475,4.52004528046,0.0,4.56665658951,3.74392318726,0.0,4.09384632111,3.50444316864,0.0,3.70073771477,4.28056526184,0.0
1449618259211904657,220,1449618259209082951,odom,3.85289740562,4.55480003357,0.0,4.15721178055,4.54394102097,0.0,4.55850028992,3.77201676369,0.0,4.08824777603,3.52755355835,0.0,3.68695878983,4.29947805405,0.0
1449618259391654871,221,1449618259390738646,odom,3.83961439133,4.58035135269,0.0,4.14392852783,4.56949281693,0.0,4.54521751404,3.79756832123,0.0,4.07496452332,3.55310487747,0.0,3.67367577553,4.32502937317,0.0
1449618259666528587,222,1449618259664777624,odom,3.82311749458,4.60095596313,0.0,4.12752914429,4.593313694,0.0,4.53695344925,3.82567310333,0.0,4.06931018829,3.57625389099,0.0,3.65988612175,4.34389448166,0.0
1449618259831260917,223,1449618259822419727,odom,3.8122754097,4.62128353119,0.0,4.11668729782,4.61364126205,0.0,4.52611112595,3.84600090981,0.0,4.05846834183,3.59658169746,0.0,3.64904427528,4.36422252655,0.0
1449618260145001445,224,1449618260119285213,odom,3.79872322083,4.64669322968,0.0,4.10313510895,4.63905143738,0.0,4.51255893707,3.87141060829,0.0,4.04491567612,3.62199139595,0.0,3.63549184799,4.38963222504,0.0
1449618260233826134,225,1449618260228870961,odom,3.78182196617,4.66702127457,0.0,4.08629751205,4.66259622574,0.0,4.50381088257,3.89932537079,0.0,4.03882980347,3.64497828484,0.0,3.62131643295,4.4082493782,0.0
1449618260413744539,226,1449618260400631976,odom,3.7707657814,4.68723344803,0.0,4.0752415657,4.6828083992,0.0,4.49275493622,3.91953754425,0.0,4.02777338028,3.66519021988,0.0,3.61026024818,4.42846107483,0.0
1449618260624718998,227,1449618260619022703,odom,3.75096654892,4.7124786377,0.0,4.05547189713,4.71127176285,0.0,4.48102807999,3.95245552063,0.0,4.01876068115,3.69320869446,0.0,3.59320449829,4.45202493668,0.0
1449618260842312945,228,1449618260839367977,odom,3.73132538795,4.74768733978,0.0,4.03583097458,4.74648046494,0.0,4.46138715744,3.98766446114,0.0,3.99911975861,3.72841763496,0.0,3.57356357574,4.48723363876,0.0
1449618261025850894,229,1449618261023062764,odom,3.70554637909,4.78272390366,0.0,4.01004743576,4.78473520279,0.0,4.44359922409,4.03045845032,0.0,3.98409724236,3.76634120941,0.0,3.55054593086,4.52061748505,0.0
1449618261242054533,230,1449618261240979936,odom,3.67971467972,4.82766532898,0.0,3.98421573639,4.82967662811,0.0,4.41776704788,4.07539987564,0.0,3.95826554298,3.81128239632,0.0,3.52471399307,4.56555891037,0.0
1449618261413627872,231,1449618261410183403,odom,3.64769506454,4.87233781815,0.0,3.95215797424,4.87756681442,0.0,4.39365625381,4.12791442871,0.0,3.93697118759,3.8589553833,0.0,3.49547290802,4.60860824585,0.0
1449618261665582181,232,1449618261665036355,odom,3.61541414261,4.91679430008,0.0,3.91980481148,4.92524051666,0.0,4.36920070648,4.18029546738,0.0,3.91538357735,3.90652537346,0.0,3.46598768234,4.65147066116,0.0
1449618261861817691,233,1449618261860885570,odom,3.58553314209,4.9660320282,0.0,3.88992381096,4.97447824478,0.0,4.33931970596,4.2295331955,0.0,3.88550257683,3.95576310158,0.0,3.43610668182,4.70070838928,0.0
1449618262038459102,234,1449618262037254479,odom,3.55244660378,5.00993871689,0.0,3.85673117638,5.0216012001,0.0,4.31397438049,4.28144693375,0.0,3.86307573318,4.0028963089,0.0,3.40583252907,4.74305057526,0.0
1449618262192051203,235,1449618262191778655,odom,3.5190012455,5.05355787277,0.0,3.82314538956,5.06843519211,0.0,4.28818511963,4.33315420151,0.0,3.84025526047,4.04985427856,0.0,3.3752155304,4.78513526917,0.0
1449618262459715327,236,1449618262459410289,odom,3.49101138115,5.09718704224,0.0,3.79515552521,5.11206436157,0.0,4.26019525528,4.37678337097,0.0,3.8122651577,4.09348344803,0.0,3.34722566605,4.82876443863,0.0
1449618262611134799,237,1449618262608971348,odom,3.45687699318,5.14030122757,0.0,3.76084685326,5.15839195251,0.0,4.2336306572,4.42806625366,0.0,3.7887198925,4.14004850388,0.0,3.31593585014,4.87037372589,0.0
1449618262876119513,238,1449618262875482796,odom,3.41658616066,5.18269586563,0.0,3.72010588646,5.20720672607,0.0,4.2082195282,4.48703622818,0.0,3.76949477196,4.18968009949,0.0,3.28138136864,4.90985012054,0.0
1449618262988380068,239,1449618262987732033,odom,3.39040517807,5.23101568222,0.0,3.69416689873,5.25231790543,0.0,4.17464256287,4.52702951431,0.0,3.73280000687,4.23432588577,0.0,3.25232458115,4.95961427689,0.0
1449618263201897996,240,1449618263197357262,odom,3.35536718369,5.27339887619,0.0,3.65888690948,5.29790973663,0.0,4.14700031281,4.57773971558,0.0,3.70827579498,4.28038311005,0.0,3.22016239166,5.00055360794,0.0
1449618263458417211,241,1449618263454902124,odom,3.31672620773,5.32023000717,0.0,3.61996984482,5.34794712067,0.0,4.1156668663,4.63297557831,0.0,3.68010926247,4.33099937439,0.0,3.1844124794,5.04597091675,0.0
1449618263640694787,242,1449618263638913541,odom,3.2810485363,5.36203956604,0.0,3.58398246765,5.39295959473,0.0,4.08720731735,4.68326616287,0.0,3.65486526489,4.37670373917,0.0,3.15164041519,5.08639717102,0.0
1449618263791042288,243,1449618263790125748,odom,3.24493098259,5.40346908569,0.0,3.54752135277,5.43758916855,0.0,4.05821800232,4.733253479,0.0,3.62913990021,4.42213916779,0.0,3.11844325066,5.12647485733,0.0
1449618264078768617,244,1449618264078399723,odom,3.21112179756,5.45009756088,0.0,3.51371216774,5.48421764374,0.0,4.02440881729,4.77988195419,0.0,3.59533071518,4.46876764297,0.0,3.08463406563,5.17310333252,0.0
1449618264232639635,245,1449618264223176905,odom,3.17193126678,5.48556995392,0.0,3.4737329483,5.52607727051,0.0,3.99920129776,4.8326921463,0.0,3.57679438591,4.51257944107,0.0,3.05132579803,5.20596456528,0.0
1449618264438147946,246,1449618264437083373,odom,3.13702344894,5.53138113022,0.0,3.43882489204,5.57188844681,0.0,3.96429347992,4.8785033226,0.0,3.54188632965,4.55839014053,0.0,3.01641798019,5.25177526474,0.0
1449618264630649368,247,1449618264600771960,odom,3.09605956078,5.57617998123,0.0,3.39741611481,5.61987447739,0.0,3.93018293381,4.93208122253,0.0,3.5111823082,4.6075220108,0.0,2.97841572762,5.29531526566,0.0
1449618264835104378,248,1449618264834488181,odom,3.05831956863,5.61612176895,0.0,3.35919737816,5.66299819946,0.0,3.89920282364,4.98087358475,0.0,3.48365569115,4.65190458298,0.0,2.94365024567,5.33402967453,0.0
1449618265045277185,249,1449618265042691092,odom,3.01866221428,5.6655292511,0.0,3.31954026222,5.71240615845,0.0,3.8595457077,5.03028154373,0.0,3.44399857521,4.70131254196,0.0,2.90399312973,5.38343715668,0.0
1449618265212243312,250,1449618265210823023,odom,2.97438526154,5.70379161835,0.0,3.27420544624,5.75701665878,0.0,3.82850670815,5.0864572525,0.0,3.42000484467,4.74877929688,0.0,2.86570358276,5.41933870316,0.0
1449618265404198779,251,1449618265399372974,odom,2.93172836304,5.74695587158,0.0,3.2309691906,5.80334663391,0.0,3.79232597351,5.13868236542,0.0,3.38741540909,4.79670619965,0.0,2.82605886459,5.46137046814,0.0
1449618265592199319,252,1449618265591851586,odom,2.89444971085,5.79085922241,0.0,3.19369053841,5.84724998474,0.0,3.7550470829,5.18258571625,0.0,3.3501367569,4.84060955048,0.0,2.78877997398,5.50527429581,0.0
1449618265769999066,253,1449618265768402712,odom,2.8472070694,5.83761405945,0.0,3.14583539963,5.89716386795,0.0,3.71418476105,5.238468647,0.0,3.31291079521,4.8922328949,0.0,2.74456143379,5.55092811584,0.0
1449618265975406381,254,1449618265975258311,odom,2.80139827728,5.87401103973,0.0,3.09870123863,5.93985891342,0.0,3.68084478378,5.29332304001,0.0,3.28697800636,4.93868398666,0.0,2.70483446121,5.58521986008,0.0
1449618266204474169,255,1449618266198036992,odom,2.76317715645,5.91709661484,0.0,3.0604801178,5.98294448853,0.0,3.64262366295,5.33640861511,0.0,3.24875688553,4.98176956177,0.0,2.66661334038,5.62830543518,0.0
1449618266401325637,256,1449618266397420969,odom,2.72078418732,5.964179039,0.0,3.01808714867,6.03002691269,0.0,3.60023069382,5.38349103928,0.0,3.2063639164,5.02885150909,0.0,2.62422037125,5.67538785934,0.0
1449618266614920856,257,1449618266610795697,odom,2.68010497093,6.00114011765,0.0,2.97669553757,6.07012605667,0.0,3.56563925743,5.42977809906,0.0,3.17554211617,5.07099676132,0.0,2.58659863472,5.7113442421,0.0
1449618266759357320,258,1449618266754320460,odom,2.64111566544,6.04353237152,0.0,2.93770623207,6.11251878738,0.0,3.52664971352,5.47217082977,0.0,3.13655281067,5.1133890152,0.0,2.54760932922,5.75373697281,0.0
1449618267066227016,259,1449618267027988611,odom,2.60205960274,6.08586263657,0.0,2.89864993095,6.15484857559,0.0,3.48759365082,5.51450109482,0.0,3.09749650955,5.15571928024,0.0,2.50855302811,5.79606723785,0.0
1449618267173981621,260,1449618267173773595,odom,2.56088066101,6.12228822708,0.0,2.85672569275,6.19440460205,0.0,3.45240330696,5.56031656265,0.0,3.06611967087,5.19743251801,0.0,2.47044205666,5.8315205574,0.0
1449618267409417166,261,1449618267406658521,odom,2.52144551277,6.16426610947,0.0,2.81729054451,6.23638296127,0.0,3.41296815872,5.60229444504,0.0,3.02668452263,5.23941040039,0.0,2.43100690842,5.87349843979,0.0
1449618267579003740,262,1449618267564364415,odom,2.48409247398,6.19630813599,0.0,2.77915883064,6.2715473175,0.0,3.38150429726,5.64378929138,0.0,2.99907708168,5.27684307098,0.0,2.39673161507,5.90460109711,0.0
1449618267808687353,263,1449618267806611060,odom,2.44443655014,6.23807668686,0.0,2.7395029068,6.31331539154,0.0,3.34184837341,5.68555784225,0.0,2.95942115784,5.31861162186,0.0,2.35707569122,5.94636964798,0.0
1449618268009165615,264,1449618267995554864,odom,2.40664219856,6.28558349609,0.0,2.70248699188,6.35769987106,0.0,3.29816484451,5.72361183167,0.0,2.91188120842,5.36072731018,0.0,2.31620335579,5.99481582642,0.0
1449618268176341541,265,1449618268175809177,odom,2.37121748924,6.32342576981,0.0,2.66706228256,6.39554214478,0.0,3.26274013519,5.76145410538,0.0,2.8764564991,5.39857006073,0.0,2.28077864647,6.03265810013,0.0
1449618268382966578,266,1449618268381585323,odom,2.34179186821,6.36291265488,0.0,2.63838243484,6.43189907074,0.0,3.22732591629,5.79155111313,0.0,2.83722901344,5.43276929855,0.0,2.248285532,6.07311725616,0.0
1449618268602247713,267,1449618268601868194,odom,2.30670142174,6.40106582642,0.0,2.60329198837,6.47005224228,0.0,3.19223570824,5.82970428467,0.0,2.80213856697,5.47092247009,0.0,2.21319508553,6.1112704277,0.0
1449618268804782022,268,1449618268798659326,odom,2.28134632111,6.43639755249,0.0,2.57864928246,6.50224542618,0.0,3.16079282761,5.85570907593,0.0,2.76692605019,5.50107002258,0.0,2.18478250504,6.147605896,0.0
1449618269025231962,269,1449618269020497933,odom,2.24641346931,6.47469377518,0.0,2.54371643066,6.54054164886,0.0,3.12585997581,5.89400577545,0.0,2.73199319839,5.53936672211,0.0,2.14984965324,6.18590259552,0.0
1449618269276522377,270,1449618269274951304,odom,2.21172833443,6.51321554184,0.0,2.50903129578,6.57906341553,0.0,3.09117484093,5.93252754211,0.0,2.69730806351,5.57788848877,0.0,2.11516451836,6.22442436218,0.0
1449618269407113350,271,1449618269396200435,odom,2.18305301666,6.55323505402,0.0,2.48103523254,6.61593723297,0.0,3.05631375313,5.96328544617,0.0,2.65872120857,5.6128282547,0.0,2.08344268799,6.2654800415,0.0
1449618269630325100,272,1449618269629195822,odom,2.15242624283,6.58765888214,0.0,2.45040845871,6.6503610611,0.0,3.02568697929,5.99770927429,0.0,2.62809443474,5.64725208282,0.0,2.05281591415,6.29990434647,0.0
1449618269788153991,273,1449618269787022712,odom,2.11441016197,6.63092565536,0.0,2.41239261627,6.69362831116,0.0,2.98767113686,6.04097604752,0.0,2.5900785923,5.69051933289,0.0,2.01480007172,6.34317111969,0.0
1449618269969831313,274,1449618269969484613,odom,2.08611369133,6.67120599747,0.0,2.38474178314,6.73075580597,0.0,2.95309114456,6.07206058502,0.0,2.55181741714,5.72582483292,0.0,1.98346793652,6.38452005386,0.0
1449618270204843307,275,1449618270204651074,odom,2.05231976509,6.71051120758,0.0,2.3509478569,6.77006101608,0.0,2.91929721832,6.11136627197,0.0,2.51802349091,5.76513051987,0.0,1.94967401028,6.42382526398,0.0
1449618270402549698,276,1449618270393177348,odom,2.02612042427,6.74115467072,0.0,2.3247487545,6.80070447922,0.0,2.89309811592,6.14200973511,0.0,2.49182415009,5.795773983,0.0,1.92347478867,6.45446872711,0.0
1449618270599740936,277,1449618270589133506,odom,2.00949263573,6.76861000061,0.0,2.30873346329,6.82500076294,0.0,2.87009000778,6.16033649445,0.0,2.46517944336,5.81836032867,0.0,1.90382289886,6.48302459717,0.0
1449618270779167279,278,1449618270778700305,odom,1.99834358692,6.7818107605,0.0,2.29758453369,6.83820152283,0.0,2.85894107819,6.17353725433,0.0,2.45403075218,5.83156108856,0.0,1.89267408848,6.49622535706,0.0
1449618271025985856,279,1449618271024650605,odom,1.99093437195,6.79063081741,0.0,2.29017519951,6.84702110291,0.0,2.85153198242,6.18235683441,0.0,2.446621418,5.84038114548,0.0,1.8852647543,6.50504541397,0.0
1449618271222040363,280,1449618271220359992,odom,1.99093437195,6.79063081741,0.0,2.29017519951,6.84702110291,0.0,2.85153198242,6.18235683441,0.0,2.446621418,5.84038114548,0.0,1.8852647543,6.50504541397,0.0
1449618271402967978,281,1449618271402501474,odom,1.99093437195,6.79063081741,0.0,2.29017519951,6.84702110291,0.0,2.85153198242,6.18235683441,0.0,2.446621418,5.84038114548,0.0,1.8852647543,6.50504541397,0.0
1449618271573655358,282,1449618271573391317,odom,1.99093437195,6.79063081741,0.0,2.29017519951,6.84702110291,0.0,2.85153198242,6.18235683441,0.0,2.446621418,5.84038114548,0.0,1.8852647543,6.50504541397,0.0
