%time,field.header.seq,field.header.stamp,field.header.frame_id,field.status.goal_id.stamp,field.status.goal_id.id,field.status.status,field.status.text,field.feedback.base_position.header.seq,field.feedback.base_position.header.stamp,field.feedback.base_position.header.frame_id,field.feedback.base_position.pose.position.x,field.feedback.base_position.pose.position.y,field.feedback.base_position.pose.position.z,field.feedback.base_position.pose.orientation.x,field.feedback.base_position.pose.orientation.y,field.feedback.base_position.pose.orientation.z,field.feedback.base_position.pose.orientation.w
1449618217696602984,0,1449618217694569647,,1449618217690201463,/move_base-1-1449618217.690201463,1,This goal has been accepted by the simple action server,0,1449618217671022651,odom,0.0,0.0,0.0,0.0,0.0,0.0,1.0
1449618217748544355,1,1449618217744673186,,1449618217690201463,/move_base-1-1449618217.690201463,1,This goal has been accepted by the simple action server,0,1449618217710447599,odom,0.0,0.0,0.0,0.0,0.0,0.0,1.0
1449618217795182562,2,1449618217794623309,,1449618217690201463,/move_base-1-1449618217.690201463,1,This goal has been accepted by the simple action server,0,1449618217790173164,odom,0.0,0.0,0.0,0.0,0.0,0.0,1.0
1449618217825852456,3,1449618217825417714,,1449618217825336831,/move_base-2-1449618217.825336831,1,This goal has been accepted by the simple action server,0,1449618217790173164,odom,0.0,0.0,0.0,0.0,0.0,0.0,1.0
1449618217875976683,4,1449618217875499663,,1449618217825336831,/move_base-2-1449618217.825336831,1,This goal has been accepted by the simple action server,0,1449618217870174077,odom,0.0,0.0,0.0,0.0,0.0,0.0,1.0
1449618217926135047,5,1449618217925482235,,1449618217825336831,/move_base-2-1449618217.825336831,1,This goal has been accepted by the simple action server,0,1449618217910377625,odom,0.0,0.0,0.0,0.0,0.0,0.0,1.0
1449618217969922897,6,1449618217945562734,,1449618217945515717,/move_base-3-1449618217.945515717,1,This goal has been accepted by the simple action server,0,1449618217910377625,odom,0.0,0.0,0.0,0.0,0.0,0.0,1.0
1449618217996889135,7,1449618217995868313,,1449618217945515717,/move_base-3-1449618217.945515717,1,This goal has been accepted by the simple action server,0,1449618217990168022,odom,0.0,0.0,0.0,0.0,0.0,0.0,1.0
1449618218045941892,8,1449618218045635521,,1449618217945515717,/move_base-3-1449618217.945515717,1,This goal has been accepted by the simple action server,0,1449618218030185602,odom,0.0,0.0,0.0,0.0,0.0,0.0,1.0
1449618218209784586,9,1449618218208242420,,1449618218208016334,/move_base-4-1449618218.208016334,1,This goal has been accepted by the simple action server,0,1449618218190181575,odom,0.0,0.0,0.0,0.0,0.0,0.0,1.0
1449618218261861820,10,1449618218258455042,,1449618218223360976,/move_base-6-1449618218.223360976,1,This goal has been accepted by the simple action server,0,1449618218230179138,odom,0.0,0.0,0.0,0.0,0.0,0.0,1.0
1449618218308594268,11,1449618218308310214,,1449618218223360976,/move_base-6-1449618218.223360976,1,This goal has been accepted by the simple action server,0,1449618218270309700,odom,0.0,0.0,0.0,0.0,0.0,0.0,1.0
1449618218360780856,12,1449618218358328986,,1449618218223360976,/move_base-6-1449618218.223360976,1,This goal has been accepted by the simple action server,0,1449618218350166320,odom,0.0,0.0,0.0,0.0,0.0,0.0,1.0
1449618218377044687,13,1449618218376783859,,1449618218376692416,/move_base-7-1449618218.376692416,1,This goal has been accepted by the simple action server,0,1449618218350166320,odom,0.0,0.0,0.0,0.0,0.0,0.0,1.0
1449618218427702951,14,1449618218426987469,,1449618218376692416,/move_base-7-1449618218.376692416,1,This goal has been accepted by the simple action server,0,1449618218390171290,odom,0.0,0.0,0.0,0.0,0.0,0.0,1.0
1449618218478529780,15,1449618218476867848,,1449618218376692416,/move_base-7-1449618218.376692416,1,This goal has been accepted by the simple action server,0,1449618218470382572,odom,0.0,0.0,0.0,0.0,0.0,0.0,1.0
1449618218486546230,16,1449618218486269721,,1449618218486189882,/move_base-8-1449618218.486189882,1,This goal has been accepted by the simple action server,0,1449618218470382572,odom,0.0,0.0,0.0,0.0,0.0,0.0,1.0
1449618218537502996,17,1449618218537167988,,1449618218486189882,/move_base-8-1449618218.486189882,1,This goal has been accepted by the simple action server,0,1449618218510173404,odom,0.0,0.0,0.0,0.0,0.0,0.0,1.0
1449618218589935395,18,1449618218586440843,,1449618218560094690,/move_base-9-1449618218.560094690,1,This goal has been accepted by the simple action server,0,1449618218553920200,odom,0.0,0.0,0.0,0.0,0.0,0.0,1.0
1449618218636869877,19,1449618218636350375,,1449618218560094690,/move_base-9-1449618218.560094690,1,This goal has been accepted by the simple action server,0,1449618218630170351,odom,0.0,0.0,0.0,0.0,0.0,0.0,1.0
1449618218686740521,20,1449618218686385924,,1449618218560094690,/move_base-9-1449618218.560094690,1,This goal has been accepted by the simple action server,0,1449618218670320480,odom,0.0,0.0,0.0,0.0,0.0,0.0,1.0
1449618218767693222,21,1449618218767052366,,1449618218765700664,/move_base-10-1449618218.765700664,1,This goal has been accepted by the simple action server,0,1449618218750274194,odom,0.0,0.0,0.0,0.0,0.0,0.0,1.0
1449618218817745456,22,1449618218817195762,,1449618218778586664,/move_base-11-1449618218.778586664,1,This goal has been accepted by the simple action server,0,1449618218790172610,odom,0.0,0.0,0.0,0.0,0.0,0.0,1.0
1449618218868381446,23,1449618218867160615,,1449618218778586664,/move_base-11-1449618218.778586664,1,This goal has been accepted by the simple action server,0,1449618218830172158,odom,0.0,0.0,0.0,0.0,0.0,0.0,1.0
1449618218918608072,24,1449618218917237591,,1449618218908659057,/move_base-12-1449618218.908659057,1,This goal has been accepted by the simple action server,0,1449618218910834849,odom,0.0,0.0,0.0,0.0,0.0,0.0,1.0
1449618218967697251,25,1449618218967121615,,1449618218908659057,/move_base-12-1449618218.908659057,1,This goal has been accepted by the simple action server,0,1449618218950192105,odom,0.0,0.0,0.0,0.0,0.0,0.0,1.0
1449618219018729113,26,1449618219017312334,,1449618219004299824,/move_base-13-1449618219.4299824,1,This goal has been accepted by the simple action server,0,1449618218990172527,odom,0.0,0.0,0.0,0.0,0.0,0.0,1.0
1449618219067585411,27,1449618219067217499,,1449618219018875987,/move_base-14-1449618219.18875987,1,This goal has been accepted by the simple action server,0,1449618219030168214,odom,0.0,0.0,0.0,0.0,0.0,0.0,1.0
1449618219118678398,28,1449618219117213368,,1449618219018875987,/move_base-14-1449618219.18875987,1,This goal has been accepted by the simple action server,0,1449618219110251879,odom,0.0,0.0,0.0,0.0,0.0,0.0,1.0
1449618219170472329,29,1449618219169952408,,1449618219018875987,/move_base-14-1449618219.18875987,1,This goal has been accepted by the simple action server,0,1449618219153782807,odom,0.0,0.0,0.0,0.0,0.0,0.0,1.0
1449618219197194395,30,1449618219195471838,,1449618219195351039,/move_base-15-1449618219.195351039,1,This goal has been accepted by the simple action server,0,1449618219190734021,odom,0.0,0.0,0.0,0.0,0.0,0.0,1.0
1449618219245972607,31,1449618219245655038,,1449618219226909714,/move_base-16-1449618219.226909714,1,This goal has been accepted by the simple action server,0,1449618219230191986,odom,0.0,0.0,0.0,0.0,0.0,0.0,1.0
1449618219310466401,32,1449618219309650015,,1449618219226909714,/move_base-16-1449618219.226909714,1,This goal has been accepted by the simple action server,0,1449618219270183475,odom,0.0,0.0,0.0,0.0,0.0,0.0,1.0
1449618219346506990,33,1449618219345628396,,1449618219226909714,/move_base-16-1449618219.226909714,1,This goal has been accepted by the simple action server,0,1449618219310184427,odom,0.0,0.0,0.0,0.0,0.0,0.0,1.0
1449618219437709566,34,1449618219435440335,,1449618219433419455,/move_base-17-1449618219.433419455,1,This goal has been accepted by the simple action server,0,1449618219430653805,odom,0.0,0.0,0.0,0.0,0.0,0.0,1.0
1449618219489318194,35,1449618219488991504,,1449618219433419455,/move_base-17-1449618219.433419455,1,This goal has been accepted by the simple action server,0,1449618219470172519,odom,0.0,0.0,0.0,0.0,0.0,0.0,1.0
1449618219536209750,36,1449618219535526536,,1449618219433419455,/move_base-17-1449618219.433419455,1,This goal has been accepted by the simple action server,0,1449618219510176915,odom,0.0,0.0,0.0,0.0,0.0,0.0,1.0
1449618219581812759,37,1449618219580556622,,1449618219580490784,/move_base-18-1449618219.580490784,1,This goal has been accepted by the simple action server,0,1449618219550169847,odom,0.0,0.0,0.0,0.0,0.0,0.0,1.0
1449618219631380931,38,1449618219630623931,,1449618219580490784,/move_base-18-1449618219.580490784,1,This goal has been accepted by the simple action server,0,1449618219590166855,odom,0.0,0.0,0.0,0.0,0.0,0.0,1.0
1449618219681017733,39,1449618219680643295,,1449618219580490784,/move_base-18-1449618219.580490784,1,This goal has been accepted by the simple action server,0,1449618219671212931,odom,0.0,0.0,0.0,0.0,0.0,0.0,1.0
1449618219776563066,40,1449618219766641346,,1449618219763913334,/move_base-20-1449618219.763913334,1,This goal has been accepted by the simple action server,0,1449618219750177962,odom,0.0,0.0,0.0,0.0,0.0,0.0,1.0
1449618219817402530,41,1449618219816729138,,1449618219763913334,/move_base-20-1449618219.763913334,1,This goal has been accepted by the simple action server,0,1449618219790165887,odom,0.0,0.0,0.0,0.0,0.0,0.0,1.0
1449618219916352428,42,1449618219915715735,,1449618219914466981,/move_base-21-1449618219.914466981,1,This goal has been accepted by the simple action server,0,1449618219911583575,odom,0.0,0.0,0.0,0.0,0.0,0.0,1.0
1449618219968100400,43,1449618219966152108,,1449618219914466981,/move_base-21-1449618219.914466981,1,This goal has been accepted by the simple action server,0,1449618219950178975,odom,0.0,0.0,0.0,0.0,0.0,0.0,1.0
1449618220019037530,44,1449618220018059664,,1449618219914466981,/move_base-21-1449618219.914466981,1,This goal has been accepted by the simple action server,0,1449618219990191024,odom,0.0,0.0,0.0,0.0,0.0,0.0,1.0
1449618220129218746,45,1449618220125720997,,1449618220124956833,/move_base-22-1449618220.124956833,1,This goal has been accepted by the simple action server,0,1449618220110164937,odom,0.0,0.0,0.0,0.0,0.0,0.0,1.0
1449618220177708793,46,1449618220176325031,,1449618220139690602,/move_base-23-1449618220.139690602,1,This goal has been accepted by the simple action server,0,1449618220150164328,odom,0.0,0.0,0.0,0.0,0.0,0.0,1.0
1449618220226447748,47,1449618220225817845,,1449618220139690602,/move_base-23-1449618220.139690602,1,This goal has been accepted by the simple action server,0,1449618220190175536,odom,0.0,0.0,0.0,0.0,0.0,0.0,1.0
1449618220276469878,48,1449618220275901843,,1449618220265096476,/move_base-24-1449618220.265096476,1,This goal has been accepted by the simple action server,0,1449618220270253302,odom,0.0,0.0,0.0,0.0,0.0,0.0,1.0
1449618220326805538,49,1449618220326266782,,1449618220265096476,/move_base-24-1449618220.265096476,1,This goal has been accepted by the simple action server,0,1449618220310173172,odom,0.0,0.0,0.0,0.0,0.0,0.0,1.0
1449618220376550720,50,1449618220375947812,,1449618220265096476,/move_base-24-1449618220.265096476,1,This goal has been accepted by the simple action server,0,1449618220350178988,odom,0.0,0.0,0.0,0.0,0.0,0.0,1.0
1449618220413004749,51,1449618220408731056,,1449618220408634526,/move_base-25-1449618220.408634526,1,This goal has been accepted by the simple action server,0,1449618220390440777,odom,0.0,0.0,0.0,0.0,0.0,0.0,1.0
1449618220459287316,52,1449618220459012252,,1449618220415242982,/move_base-26-1449618220.415242982,1,This goal has been accepted by the simple action server,0,1449618220431117347,odom,0.0,0.0,0.0,0.0,0.0,0.0,1.0
1449618220509213079,53,1449618220508801735,,1449618220415242982,/move_base-26-1449618220.415242982,1,This goal has been accepted by the simple action server,0,1449618220470517018,odom,0.0,0.0,0.0,0.0,0.0,0.0,1.0
1449618220560426912,54,1449618220559135541,,1449618220415242982,/move_base-26-1449618220.415242982,1,This goal has been accepted by the simple action server,0,1449618220550182128,odom,0.0,0.0,0.0,0.0,0.0,0.0,1.0
1449618220598951020,55,1449618220597679448,,1449618220597419314,/move_base-27-1449618220.597419314,1,This goal has been accepted by the simple action server,0,1449618220590182966,odom,0.0,0.0,0.0,0.0,0.0,0.0,1.0
1449618220648785901,56,1449618220648006922,,1449618220621846098,/move_base-28-1449618220.621846098,1,This goal has been accepted by the simple action server,0,1449618220630242733,odom,0.0,0.0,0.0,0.0,0.0,0.0,1.0
1449618220698118551,57,1449618220697761677,,1449618220621846098,/move_base-28-1449618220.621846098,1,This goal has been accepted by the simple action server,0,1449618220670175215,odom,0.0,0.0,0.0,0.0,0.0,0.0,1.0
1449618220748339934,58,1449618220747957314,,1449618220621846098,/move_base-28-1449618220.621846098,1,This goal has been accepted by the simple action server,0,1449618220710167324,odom,0.0,0.0,0.0,0.0,0.0,0.0,1.0
1449618220790792755,59,1449618220788518795,,1449618220788367882,/move_base-29-1449618220.788367882,1,This goal has been accepted by the simple action server,0,1449618220750171444,odom,0.0,0.0,0.0,0.0,0.0,0.0,1.0
1449618220838936499,60,1449618220838663079,,1449618220816989525,/move_base-30-1449618220.816989525,1,This goal has been accepted by the simple action server,0,1449618220830165976,odom,0.0,0.0,0.0,0.0,0.0,0.0,1.0
1449618220893706279,61,1449618220890673430,,1449618220816989525,/move_base-30-1449618220.816989525,1,This goal has been accepted by the simple action server,0,1449618220870168569,odom,0.0,0.0,0.0,0.0,0.0,0.0,1.0
1449618220939032222,62,1449618220938596397,,1449618220816989525,/move_base-30-1449618220.816989525,1,This goal has been accepted by the simple action server,0,1449618220910177716,odom,0.0,0.0,0.0,0.0,0.0,0.0,1.0
1449618221028884931,63,1449618221026172716,,1449618221025787962,/move_base-32-1449618221.25787962,1,This goal has been accepted by the simple action server,0,1449618220990177998,odom,0.0,0.0,0.0,0.0,0.0,0.0,1.0
1449618221076811723,64,1449618221076243641,,1449618221025787962,/move_base-32-1449618221.25787962,1,This goal has been accepted by the simple action server,0,1449618221070180762,odom,0.0,0.0,0.0,0.0,0.0,0.0,1.0
1449618221128428037,65,1449618221126308327,,1449618221025787962,/move_base-32-1449618221.25787962,1,This goal has been accepted by the simple action server,0,1449618221110169254,odom,0.0,0.0,0.0,0.0,0.0,0.0,1.0
1449618221143837075,66,1449618221143594271,,1449618221142847255,/move_base-33-1449618221.142847255,1,This goal has been accepted by the simple action server,0,1449618221110169254,odom,0.0,0.0,0.0,0.0,0.0,0.0,1.0
1449618221197022402,67,1449618221196186299,,1449618221142847255,/move_base-33-1449618221.142847255,1,This goal has been accepted by the simple action server,0,1449618221190174132,odom,0.0,0.0,0.0,0.0,0.0,0.0,1.0
1449618221244602368,68,1449618221243853288,,1449618221142847255,/move_base-33-1449618221.142847255,1,This goal has been accepted by the simple action server,0,1449618221230186409,odom,0.0,0.0,0.0,0.0,0.0,0.0,1.0
1449618221247419700,69,1449618221244646401,,1449618221244173332,/move_base-34-1449618221.244173332,1,This goal has been accepted by the simple action server,0,1449618221230186409,odom,0.0,0.0,0.0,0.0,0.0,0.0,1.0
1449618221295251232,70,1449618221294739177,,1449618221244173332,/move_base-34-1449618221.244173332,1,This goal has been accepted by the simple action server,0,1449618221270175331,odom,0.0,0.0,0.0,0.0,0.0,0.0,1.0
1449618221345066824,71,1449618221344843900,,1449618221338809645,/move_base-35-1449618221.338809645,1,This goal has been accepted by the simple action server,0,1449618221310180974,odom,0.0,0.0,0.0,0.0,0.0,0.0,1.0
1449618221396790578,72,1449618221394760776,,1449618221338809645,/move_base-35-1449618221.338809645,1,This goal has been accepted by the simple action server,0,1449618221390166183,odom,0.0,0.0,0.0,0.0,0.0,0.0,1.0
1449618221445144933,73,1449618221444740512,,1449618221338809645,/move_base-35-1449618221.338809645,1,This goal has been accepted by the simple action server,0,1449618221430185454,odom,0.0,0.0,0.0,0.0,0.0,0.0,1.0
1449618221531772364,74,1449618221528857534,,1449618221528785096,/move_base-36-1449618221.528785096,1,This goal has been accepted by the simple action server,0,1449618221510175348,odom,0.0,0.0,0.0,0.0,0.0,0.0,1.0
1449618221579312080,75,1449618221578984757,,1449618221536477099,/move_base-37-1449618221.536477099,1,This goal has been accepted by the simple action server,0,1449618221550165988,odom,0.0,0.0,0.0,0.0,0.0,0.0,1.0
1449618221631132129,76,1449618221629806605,,1449618221536477099,/move_base-37-1449618221.536477099,1,This goal has been accepted by the simple action server,0,1449618221590173257,odom,0.0,0.0,0.0,0.0,0.0,0.0,1.0
1449618221682220868,77,1449618221681762481,,1449618221656953593,/move_base-38-1449618221.656953593,1,This goal has been accepted by the simple action server,0,1449618221670216606,odom,0.0,0.0,0.0,0.0,0.0,0.0,1.0
1449618221732483665,78,1449618221731784112,,1449618221656953593,/move_base-38-1449618221.656953593,1,This goal has been accepted by the simple action server,0,1449618221710197352,odom,0.0,0.0,0.0,0.0,0.0,0.0,1.0
1449618221781921349,79,1449618221779055817,,1449618221774453515,/move_base-39-1449618221.774453515,1,This goal has been accepted by the simple action server,0,1449618221750182578,odom,0.0,0.0,0.0,0.0,0.0,0.0,1.0
1449618221831453182,80,1449618221829719943,,1449618221774453515,/move_base-39-1449618221.774453515,1,This goal has been accepted by the simple action server,0,1449618221790167600,odom,0.0,0.0,0.0,0.0,0.0,0.0,1.0
1449618221880329346,81,1449618221879775798,,1449618221846360745,/move_base-40-1449618221.846360745,1,This goal has been accepted by the simple action server,0,1449618221871763377,odom,0.0,0.0,0.0,0.0,0.0,0.0,1.0
1449618221929596379,82,1449618221928960715,,1449618221846360745,/move_base-40-1449618221.846360745,1,This goal has been accepted by the simple action server,0,1449618221910172655,odom,0.0,0.0,0.0,0.0,0.0,0.0,1.0
1449618221979371068,83,1449618221978944869,,1449618221846360745,/move_base-40-1449618221.846360745,1,This goal has been accepted by the simple action server,0,1449618221950168991,odom,0.0,0.0,0.0,0.0,0.0,0.0,1.0
1449618221996424746,84,1449618221995505253,,1449618221995362267,/move_base-41-1449618221.995362267,1,This goal has been accepted by the simple action server,0,1449618221990175248,odom,0.0,0.0,0.0,0.0,0.0,0.0,1.0
1449618222045973340,85,1449618222045661827,,1449618221995362267,/move_base-41-1449618221.995362267,1,This goal has been accepted by the simple action server,0,1449618222030171305,odom,0.0,0.0,0.0,0.0,0.0,0.0,1.0
1449618222097820197,86,1449618222097274732,,1449618222078720253,/move_base-42-1449618222.78720253,1,This goal has been accepted by the simple action server,0,1449618222070178098,odom,0.0,0.0,0.0,0.0,0.0,0.0,1.0
1449618222145957123,87,1449618222145714963,,1449618222078720253,/move_base-42-1449618222.78720253,1,This goal has been accepted by the simple action server,0,1449618222110171537,odom,0.0,0.0,0.0,0.0,0.0,0.0,1.0
1449618222197211158,88,1449618222196195051,,1449618222185406633,/move_base-43-1449618222.185406633,1,This goal has been accepted by the simple action server,0,1449618222190181180,odom,-0.00287963245437,-3.04332289367e-05,0.0,0.0,0.0,0.0052839997518,0.999986039576
1449618222246408642,89,1449618222245611962,,1449618222185406633,/move_base-43-1449618222.185406633,1,This goal has been accepted by the simple action server,0,1449618222230176472,odom,-0.00287963245437,-3.04332289367e-05,0.0,0.0,0.0,0.0052839997518,0.999986039576
1449618222298498537,90,1449618222297940029,,1449618222259872160,/move_base-44-1449618222.259872160,1,This goal has been accepted by the simple action server,0,1449618222270174290,odom,-0.00287963245437,-3.04332289367e-05,0.0,0.0,0.0,0.0052839997518,0.999986039576
1449618222349385827,91,1449618222347735610,,1449618222259872160,/move_base-44-1449618222.259872160,1,This goal has been accepted by the simple action server,0,1449618222310179816,odom,-0.00287963245437,-3.04332289367e-05,0.0,0.0,0.0,0.0052839997518,0.999986039576
1449618222398914515,92,1449618222397756136,,1449618222385731707,/move_base-45-1449618222.385731707,1,This goal has been accepted by the simple action server,0,1449618222390169635,odom,-0.00287963245437,-3.04332289367e-05,0.0,0.0,0.0,0.0052839997518,0.999986039576
1449618222446394482,93,1449618222445811982,,1449618222415201594,/move_base-46-1449618222.415201594,1,This goal has been accepted by the simple action server,0,1449618222430172290,odom,1.60811419144e-07,-3.04332289367e-05,0.0,0.0,0.0,0.0,1.0
1449618222495881719,94,1449618222495677237,,1449618222415201594,/move_base-46-1449618222.415201594,1,This goal has been accepted by the simple action server,0,1449618222470178382,odom,1.60811419144e-07,-3.04332289367e-05,0.0,0.0,0.0,0.0,1.0
1449618222547013760,95,1449618222545666209,,1449618222539342091,/move_base-47-1449618222.539342091,1,This goal has been accepted by the simple action server,0,1449618222510174286,odom,1.60811419144e-07,-3.04332289367e-05,0.0,0.0,0.0,0.0,1.0
1449618222601542951,96,1449618222600945028,,1449618222539342091,/move_base-47-1449618222.539342091,1,This goal has been accepted by the simple action server,0,1449618222590170441,odom,1.60811419144e-07,-3.04332289367e-05,0.0,0.0,0.0,0.0,1.0
1449618222645984564,97,1449618222645585836,,1449618222539342091,/move_base-47-1449618222.539342091,1,This goal has been accepted by the simple action server,0,1449618222630178775,odom,1.60811419144e-07,-3.04332289367e-05,0.0,0.0,0.0,0.0,1.0
1449618222657968572,98,1449618222657421947,,1449618222657303005,/move_base-48-1449618222.657303005,1,This goal has been accepted by the simple action server,0,1449618222630178775,odom,1.60811419144e-07,-3.04332289367e-05,0.0,0.0,0.0,0.0,1.0
1449618222710050587,99,1449618222709644716,,1449618222657303005,/move_base-48-1449618222.657303005,1,This goal has been accepted by the simple action server,0,1449618222670179214,odom,1.60811419144e-07,-3.04332289367e-05,0.0,0.0,0.0,0.0,1.0
1449618222758535184,100,1449618222758156895,,1449618222657303005,/move_base-48-1449618222.657303005,1,This goal has been accepted by the simple action server,0,1449618222750173341,odom,1.60811419144e-07,-3.04332289367e-05,0.0,0.0,0.0,0.0,1.0
1449618222759593015,101,1449618222759194405,,1449618222758995557,/move_base-49-1449618222.758995557,1,This goal has been accepted by the simple action server,0,1449618222750173341,odom,1.60811419144e-07,-3.04332289367e-05,0.0,0.0,0.0,0.0,1.0
1449618222810661998,102,1449618222809280872,,1449618222758995557,/move_base-49-1449618222.758995557,1,This goal has been accepted by the simple action server,0,1449618222790173389,odom,1.60811419144e-07,-3.04332289367e-05,0.0,0.0,0.0,0.0,1.0
1449618222909947988,103,1449618222909044639,,1449618222758995557,/move_base-49-1449618222.758995557,1,This goal has been accepted by the simple action server,0,1449618222870179757,odom,-0.00287947164295,-6.08664578733e-05,0.0,0.0,0.0,0.0052839997518,0.999986039576
1449618223025850181,104,1449618223024832174,,1449618222758995557,/move_base-49-1449618222.758995557,1,This goal has been accepted by the simple action server,0,1449618222990168706,odom,3.21622838287e-07,-6.08664578733e-05,0.0,0.0,0.0,0.0,1.0
1449618223100466587,105,1449618223090929580,,1449618222758995557,/move_base-49-1449618222.758995557,1,This goal has been accepted by the simple action server,0,1449618223070170980,odom,3.21622838287e-07,-6.08664578733e-05,0.0,0.0,0.0,0.0,1.0
1449618223214646847,106,1449618223213753454,,1449618222758995557,/move_base-49-1449618222.758995557,1,This goal has been accepted by the simple action server,0,1449618223190165734,odom,3.21622838287e-07,-6.08664578733e-05,0.0,0.0,0.0,0.0,1.0
1449618223299163857,107,1449618223298862787,,1449618222758995557,/move_base-49-1449618222.758995557,1,This goal has been accepted by the simple action server,0,1449618223270168599,odom,3.21622838287e-07,-6.08664578733e-05,0.0,0.0,0.0,0.0,1.0
1449618223374657153,108,1449618223372699737,,1449618222758995557,/move_base-49-1449618222.758995557,1,This goal has been accepted by the simple action server,0,1449618223350205233,odom,3.21622838287e-07,-6.08664578733e-05,0.0,0.0,0.0,0.0,1.0
1449618223427833018,109,1449618223426367132,,1449618222758995557,/move_base-49-1449618222.758995557,1,This goal has been accepted by the simple action server,0,1449618223390261512,odom,3.21622838287e-07,-6.08664578733e-05,0.0,0.0,0.0,0.0,1.0
1449618223538435210,110,1449618223532901214,,1449618222758995557,/move_base-49-1449618222.758995557,1,This goal has been accepted by the simple action server,0,1449618223512168533,odom,3.21622838287e-07,-6.08664578733e-05,0.0,0.0,0.0,0.0,1.0
1449618223594586502,111,1449618223590945902,,1449618222758995557,/move_base-49-1449618222.758995557,1,This goal has been accepted by the simple action server,0,1449618223550513407,odom,3.21622838287e-07,-6.08664578733e-05,0.0,0.0,0.0,0.0,1.0
1449618223678031096,112,1449618223675334877,,1449618222758995557,/move_base-49-1449618222.758995557,1,This goal has been accepted by the simple action server,0,1449618223671704983,odom,3.21622838287e-07,-6.08664578733e-05,0.0,0.0,0.0,0.0,1.0
1449618223753921397,113,1449618223749221168,,1449618222758995557,/move_base-49-1449618222.758995557,1,This goal has been accepted by the simple action server,0,1449618223710184850,odom,3.21622838287e-07,-6.08664578733e-05,0.0,0.0,0.0,0.0,1.0
1449618223827825799,114,1449618223819640262,,1449618222758995557,/move_base-49-1449618222.758995557,1,This goal has been accepted by the simple action server,0,1449618223795805932,odom,3.21622838287e-07,-6.08664578733e-05,0.0,0.0,0.0,0.0,1.0
1449618223873925544,115,1449618223870776618,,1449618222758995557,/move_base-49-1449618222.758995557,1,This goal has been accepted by the simple action server,0,1449618223830861079,odom,3.21622838287e-07,-6.08664578733e-05,0.0,0.0,0.0,0.0,1.0
1449618223934475239,116,1449618223931772725,,1449618222758995557,/move_base-49-1449618222.758995557,1,This goal has been accepted by the simple action server,0,1449618223910178828,odom,3.21622838287e-07,-6.08664578733e-05,0.0,0.0,0.0,0.0,1.0
1449618224009958301,117,1449618223999485303,,1449618222758995557,/move_base-49-1449618222.758995557,1,This goal has been accepted by the simple action server,0,1449618223990198481,odom,3.21622838287e-07,-6.08664578733e-05,0.0,0.0,0.0,0.0,1.0
1449618224140006320,118,1449618224136152079,,1449618222758995557,/move_base-49-1449618222.758995557,1,This goal has been accepted by the simple action server,0,1449618224110183829,odom,0.005759747343,-9.129968681e-05,0.0,0.0,0.0,0.0,1.0
1449618224259934183,119,1449618224257325730,,1449618222758995557,/move_base-49-1449618222.758995557,1,This goal has been accepted by the simple action server,0,1449618224230171330,odom,0.00863937979737,-0.000121732915747,0.0,0.0,0.0,-0.0052839997518,0.999986039576
1449618224423891060,120,1449618224423428261,,1449618222758995557,/move_base-49-1449618222.758995557,1,This goal has been accepted by the simple action server,0,1449618224390178767,odom,0.0143981622898,-0.000213029203694,0.0,0.0,0.0,-0.0052839997518,0.999986039576
1449618224522548764,121,1449618224522156159,,1449618222758995557,/move_base-49-1449618222.758995557,1,This goal has been accepted by the simple action server,0,1449618224510184853,odom,0.023035612404,-0.000395618380726,0.0,0.0,0.0,-0.0105678519699,0.999944158693
1449618224604410419,122,1449618224601875373,,1449618222758995557,/move_base-49-1449618222.758995557,1,This goal has been accepted by the simple action server,0,1449618224590181902,odom,0.0259139584748,-0.000486904472466,0.0,0.0,0.0,-0.0158514091245,0.999874358521
1449618224701771143,123,1449618224699631372,,1449618222758995557,/move_base-49-1449618222.758995557,1,This goal has been accepted by the simple action server,0,1449618224670184600,odom,0.0316706506164,-0.000669476655944,0.0,0.0,0.0,-0.0158514091245,0.999874358521
1449618224798433676,124,1449618224787405117,,1449618222758995557,/move_base-49-1449618222.758995557,1,This goal has been accepted by the simple action server,0,1449618224750188446,odom,0.0374273427579,-0.000852048839423,0.0,0.0,0.0,-0.0158514091245,0.999874358521
1449618224875399810,125,1449618224868835056,,1449618222758995557,/move_base-49-1449618222.758995557,1,This goal has been accepted by the simple action server,0,1449618224830171401,odom,0.0403045634002,-0.000973747768822,0.0,0.0,0.0,-0.0211345236944,0.999776641009
1449618224992787666,126,1449618224981516502,,1449618222758995557,/move_base-49-1449618222.758995557,1,This goal has been accepted by the simple action server,0,1449618224950176041,odom,0.0518087845032,-0.00155172423771,0.0,0.0,0.0,-0.0316988350601,0.999497465658
1449618225065999496,127,1449618225063517274,,1449618222758995557,/move_base-49-1449618222.758995557,1,This goal has been accepted by the simple action server,0,1449618225030181763,odom,0.0575585643217,-0.0018863028478,0.0,0.0,0.0,-0.0316988350601,0.999497465658
1449618225179547865,128,1449618225178675704,,1449618222758995557,/move_base-49-1449618222.758995557,1,This goal has been accepted by the simple action server,0,1449618225150177627,odom,0.0690524991683,-0.00264658646594,0.0,0.0,0.0,-0.0316988350601,0.999497465658
1449618225241169899,129,1449618225238649279,,1449618222758995557,/move_base-49-1449618222.758995557,1,This goal has been accepted by the simple action server,0,1449618225230165483,odom,0.0776682502456,-0.00328511340817,0.0,0.0,0.0,-0.0369797368913,0.999316015612
1449618225331504613,130,1449618225319107311,,1449618222758995557,/move_base-49-1449618222.758995557,1,This goal has been accepted by the simple action server,0,1449618225270178160,odom,0.0805422561859,-0.00346759384286,0.0,0.0,0.0,-0.0316988350601,0.999497465658
1449618225390786739,131,1449618225387098256,,1449618222758995557,/move_base-49-1449618222.758995557,1,This goal has been accepted by the simple action server,0,1449618225350168901,odom,0.0891580072633,-0.00410612078509,0.0,0.0,0.0,-0.0369797368913,0.999316015612
1449618225504709753,132,1449618225502245135,,1449618222758995557,/move_base-49-1449618222.758995557,1,This goal has been accepted by the simple action server,0,1449618225470304383,odom,0.100655477986,-0.00480563988466,0.0,0.0,0.0,-0.0264170481704,0.999651008886
1449618225751953557,133,1449618225750708566,,1449618222758995557,/move_base-49-1449618222.758995557,1,This goal has been accepted by the simple action server,0,1449618225710176288,odom,0.132312462451,-0.00580965435789,0.0,0.0,0.0,0.0,1.0
1449618225915197878,134,1449618225911302265,,1449618222758995557,/move_base-49-1449618222.758995557,1,This goal has been accepted by the simple action server,0,1449618225870176975,odom,0.163967035517,-0.0047143911732,0.0,0.0,0.0,0.0264170481704,0.999651008886
1449618226035300575,135,1449618226030344199,,1449618222758995557,/move_base-49-1449618222.758995557,1,This goal has been accepted by the simple action server,0,1449618225990190724,odom,0.189769159321,-0.00228342572315,0.0,0.0,0.0,0.0528156577107,0.998604279132
1449618226141752087,136,1449618226138687743,,1449618222758995557,/move_base-49-1449618222.758995557,1,This goal has been accepted by the simple action server,0,1449618226110173508,odom,0.215415213841,0.00144660660465,0.0,0.0,0.0,0.0791774028604,0.996860541338
1449618226268852586,137,1449618226260359944,,1449618222758995557,/move_base-49-1449618222.758995557,1,This goal has been accepted by the simple action server,0,1449618226230289273,odom,0.240919899207,0.00604771627477,0.0,0.0,0.0,0.0949690991753,0.995480220899
1449618226439705882,138,1449618226437953246,,1449618222758995557,/move_base-49-1449618222.758995557,1,This goal has been accepted by the simple action server,0,1449618226430189353,odom,0.283033991681,0.0156441683099,0.0,0.0,0.0,0.121233604752,0.99262400388
1449618226580123396,139,1449618226577624047,,1449618222758995557,/move_base-49-1449618222.758995557,1,This goal has been accepted by the simple action server,0,1449618226550167244,odom,0.313572032352,0.0240631115605,0.0,0.0,0.0,0.136952861975,0.990577565664
1449618226641564454,140,1449618226640970814,,1449618222758995557,/move_base-49-1449618222.758995557,1,This goal has been accepted by the simple action server,0,1449618226632512662,odom,0.332949157882,0.0296203721398,0.0,0.0,0.0,0.142185161666,0.989840077892
1449618226726435247,141,1449618226723017133,,1449618222758995557,/move_base-49-1449618222.758995557,1,This goal has been accepted by the simple action server,0,1449618226710169176,odom,0.354984992928,0.0363381165875,0.0,0.0,0.0,0.152637705278,0.988282212188
1449618226867704132,142,1449618226865912648,,1449618222758995557,/move_base-49-1449618222.758995557,1,This goal has been accepted by the simple action server,0,1449618226830182626,odom,0.387959336358,0.0466768689432,0.0,0.0,0.0,0.152637705278,0.988282212188
1449618227011434809,143,1449618227007481929,,1449618222758995557,/move_base-49-1449618222.758995557,1,This goal has been accepted by the simple action server,0,1449618226990177726,odom,0.43165288966,0.0613013900528,0.0,0.0,0.0,0.163073201911,0.986613972544
1449618227102734386,144,1449618227102618171,,1449618222758995557,/move_base-49-1449618222.758995557,1,This goal has been accepted by the simple action server,0,1449618227070168771,odom,0.456142828266,0.0697851588201,0.0,0.0,0.0,0.168284193326,0.985738520236
1449618227214931021,145,1449618227213152812,,1449618222758995557,/move_base-49-1449618222.758995557,1,This goal has been accepted by the simple action server,0,1449618227190175193,odom,0.485975112616,0.0804381088317,0.0,0.0,0.0,0.173490486104,0.984835545272
1449618227347740016,146,1449618227346945124,,1449618222758995557,/move_base-49-1449618222.758995557,1,This goal has been accepted by the simple action server,0,1449618227310183564,odom,0.518524081219,0.0920464833148,0.0,0.0,0.0,0.173490486104,0.984835545272
1449618227432170904,147,1449618227431282070,,1449618222758995557,/move_base-49-1449618222.758995557,1,This goal has been accepted by the simple action server,0,1449618227430179642,odom,0.548387111032,0.102613464832,0.0,0.0,0.0,0.168284193326,0.985738520236
1449618227523414139,148,1449618227522813941,,1449618222758995557,/move_base-49-1449618222.758995557,1,This goal has been accepted by the simple action server,0,1449618227510200939,odom,0.567453626212,0.109157621787,0.0,0.0,0.0,0.163073201911,0.986613972544
1449618227653145308,149,1449618227646893183,,1449618222758995557,/move_base-49-1449618222.758995557,1,This goal has been accepted by the simple action server,0,1449618227630183218,odom,0.600173178227,0.120277561015,0.0,0.0,0.0,0.163073201911,0.986613972544
1449618227833264030,150,1449618227832952068,,1449618222758995557,/move_base-49-1449618222.758995557,1,This goal has been accepted by the simple action server,0,1449618227790178813,odom,0.641401473024,0.133164380783,0.0,0.0,0.0,0.147413491427,0.989074952946
1449618227921119253,151,1449618227919255983,,1449618222758995557,/move_base-49-1449618222.758995557,1,This goal has been accepted by the simple action server,0,1449618227910203866,odom,0.674620604228,0.142686934921,0.0,0.0,0.0,0.136952861975,0.990577565664
1449618228096809955,152,1449618228077985440,,1449618222758995557,/move_base-49-1449618222.758995557,1,This goal has been accepted by the simple action server,0,1449618228070292125,odom,0.710912556076,0.151874300932,0.0,0.0,0.0,0.121233604752,0.99262400388
1449618228214181238,153,1449618228202275363,,1449618222758995557,/move_base-49-1449618222.758995557,1,This goal has been accepted by the simple action server,0,1449618228190193640,odom,0.744588262605,0.15962907398,0.0,0.0,0.0,0.110736931374,0.993849753247
1449618228330501534,154,1449618228327800932,,1449618222758995557,/move_base-49-1449618222.758995557,1,This goal has been accepted by the simple action server,0,1449618228310169008,odom,0.772764016861,0.165581245612,0.0,0.0,0.0,0.100227890607,0.994964506877
1449618228470043160,155,1449618228458065190,,1449618222758995557,/move_base-49-1449618222.758995557,1,This goal has been accepted by the simple action server,0,1449618228430184101,odom,0.801059274121,0.170936606628,0.0,0.0,0.0,0.0897076561262,0.99596814027
1449618228590442037,156,1449618228587207575,,1449618222758995557,/move_base-49-1449618222.758995557,1,This goal has been accepted by the simple action server,0,1449618228550175290,odom,0.832285228797,0.176267467181,0.0,0.0,0.0,0.0844437083633,0.996428251365
1449618228642033048,157,1449618228637120912,,1449618222758995557,/move_base-49-1449618222.758995557,1,This goal has been accepted by the simple action server,0,1449618228630171271,odom,0.852191031258,0.179449649112,0.0,0.0,0.0,0.0791774028604,0.996860541338
1449618228765140763,158,1449618228754972740,,1449618222758995557,/move_base-49-1449618222.758995557,1,This goal has been accepted by the simple action server,0,1449618228750170350,odom,0.886422934492,0.184182400267,0.0,0.0,0.0,0.0686383068554,0.997641610415
1449618228959451686,159,1449618228948863656,,1449618222758995557,/move_base-49-1449618222.758995557,1,This goal has been accepted by the simple action server,0,1449618228910168082,odom,0.9293125699,0.18931339891,0.0,0.0,0.0,0.0528156577107,0.998604279132
1449618229056530325,160,1449618229054457132,,1449618222758995557,/move_base-49-1449618222.758995557,1,This goal has been accepted by the simple action server,0,1449618229030175420,odom,0.960834918296,0.192442925627,0.0,0.0,0.0,0.0475382956186,0.998869416115
1449618229149661648,161,1449618229141334536,,1449618222758995557,/move_base-49-1449618222.758995557,1,This goal has been accepted by the simple action server,0,1449618229110175815,odom,0.989542040266,0.194723039311,0.0,0.0,0.0,0.0369797368913,0.999316015612
1449618229213033869,162,1449618229208473290,,1449618222758995557,/move_base-49-1449618222.758995557,1,This goal has been accepted by the simple action server,0,1449618229190170754,odom,1.00965172619,0.196121849871,0.0,0.0,0.0,0.0316988350601,0.999497465658
1449618229293720387,163,1449618229292222256,,1449618222758995557,/move_base-49-1449618222.758995557,1,This goal has been accepted by the simple action server,0,1449618229270173693,odom,1.03553369109,0.19749073345,0.0,0.0,0.0,0.0264170481704,0.999651008886
1449618229398217203,164,1449618229395737219,,1449618222758995557,/move_base-49-1449618222.758995557,1,This goal has been accepted by the simple action server,0,1449618229390189387,odom,1.07293177239,0.199194416516,0.0,0.0,0.0,0.0211345236944,0.999776641009
1449618229489859879,165,1449618229486652506,,1449618222758995557,/move_base-49-1449618222.758995557,1,This goal has been accepted by the simple action server,0,1449618229470446390,odom,1.09596256079,0.199772590086,0.0,0.0,0.0,0.0105678519699,0.999944158693
1449618229576844903,166,1449618229574885061,,1449618222758995557,/move_base-49-1449618222.758995557,1,This goal has been accepted by the simple action server,0,1449618229550169390,odom,1.11611805831,0.200107342009,0.0,0.0,0.0,0.0052839997518,0.999986039576
1449618229674887416,167,1449618229671547958,,1449618222758995557,/move_base-49-1449618222.758995557,1,This goal has been accepted by the simple action server,0,1449618229630293297,odom,1.14203555445,0.200229074925,0.0,0.0,0.0,4.4408920985e-16,1.0
1449618229812734013,168,1449618229809678848,,1449618222758995557,/move_base-49-1449618222.758995557,1,This goal has been accepted by the simple action server,0,1449618229790171893,odom,1.18234831835,0.199711727027,0.0,0.0,0.0,-0.0105678519699,0.999944158693
1449618229942947686,169,1449618229941877120,,1449618222758995557,/move_base-49-1449618222.758995557,1,This goal has been accepted by the simple action server,0,1449618229910167322,odom,1.214013341,0.198829272149,0.0,0.0,0.0,-0.0158514091245,0.999874358521
1449618230080057527,170,1449618230078197208,,1449618222758995557,/move_base-49-1449618222.758995557,1,This goal has been accepted by the simple action server,0,1449618230070178661,odom,1.25717615235,0.197125439558,0.0,0.0,0.0,-0.0211345236944,0.999776641009
1449618230247018057,171,1449618230244140609,,1449618222758995557,/move_base-49-1449618222.758995557,1,This goal has been accepted by the simple action server,0,1449618230230176231,odom,1.29741223551,0.194570713473,0.0,0.0,0.0,-0.0316988350601,0.999497465658
1449618230312366462,172,1449618230310823458,,1449618222758995557,/move_base-49-1449618222.758995557,1,This goal has been accepted by the simple action server,0,1449618230270174622,odom,1.30602798659,0.193932186531,0.0,0.0,0.0,-0.0369797368913,0.999316015612
1449618230380173331,173,1449618230376255554,,1449618222758995557,/move_base-49-1449618222.758995557,1,This goal has been accepted by the simple action server,0,1449618230350307952,odom,1.3290033228,0.192229448018,0.0,0.0,0.0,-0.0369797368913,0.999316015612
1449618230469193132,174,1449618230468849279,,1449618222758995557,/move_base-49-1449618222.758995557,1,This goal has been accepted by the simple action server,0,1449618230430212080,odom,1.34908987437,0.190527185059,0.0,0.0,0.0,-0.042259606217,0.999106663816
1449618230572627999,175,1449618230565880547,,1449618222758995557,/move_base-49-1449618222.758995557,1,This goal has been accepted by the simple action server,0,1449618230550176338,odom,1.37778494806,0.188095380832,0.0,0.0,0.0,-0.042259606217,0.999106663816
1449618230660679073,176,1449618230660477076,,1449618230611407902,/move_base-50-1449618230.611407902,1,This goal has been accepted by the simple action server,0,1449618230631269303,odom,1.39787872861,0.186484132199,0.0,0.0,0.0,-0.0369797368913,0.999316015612
1449618230712570080,177,1449618230710580210,,1449618230611407902,/move_base-50-1449618230.611407902,1,This goal has been accepted by the simple action server,0,1449618230670174599,odom,1.40936639671,0.185632762943,0.0,0.0,0.0,-0.0369797368913,0.999316015612
1449618230806599617,178,1449618230799333267,,1449618230611407902,/move_base-50-1449618230.611407902,1,This goal has been accepted by the simple action server,0,1449618230790174111,odom,1.44382217204,0.182987640848,0.0,0.0,0.0,-0.0369797368913,0.999316015612
1449618230916723595,179,1449618230914306440,,1449618230611407902,/move_base-50-1449618230.611407902,1,This goal has been accepted by the simple action server,0,1449618230910186829,odom,1.4754237039,0.18079818479,0.0,0.0,0.0,-0.0316988350601,0.999497465658
1449618231068489526,180,1449618231066321372,,1449618230611407902,/move_base-50-1449618230.611407902,1,This goal has been accepted by the simple action server,0,1449618231030186205,odom,1.50705014481,0.179003575824,0.0,0.0,0.0,-0.0264170481704,0.999651008886
1449618231203369569,181,1449618231197469981,,1449618230611407902,/move_base-50-1449618230.611407902,1,This goal has been accepted by the simple action server,0,1449618231190176552,odom,1.55309580394,0.177330108492,0.0,0.0,0.0,-0.0158514091245,0.999874358521
1449618231284307023,182,1449618231279025152,,1449618230611407902,/move_base-50-1449618230.611407902,1,This goal has been accepted by the simple action server,0,1449618231270170200,odom,1.57324985421,0.176904067079,0.0,0.0,0.0,-0.0105678519699,0.999944158693
1449618231395356179,183,1449618231395027249,,1449618230611407902,/move_base-50-1449618230.611407902,1,This goal has been accepted by the simple action server,0,1449618231390169955,odom,1.61068362887,0.176417145613,0.0,0.0,0.0,-0.0052839997518,0.999986039576
1449618231487910909,184,1449618231487082138,,1449618230611407902,/move_base-50-1449618230.611407902,1,This goal has been accepted by the simple action server,0,1449618231470171120,odom,1.63084218173,0.176417145613,0.0,0.0,0.0,-2.22044604925e-16,1.0
1449618231597067718,185,1449618231569268352,,1449618230611407902,/move_base-50-1449618230.611407902,1,This goal has been accepted by the simple action server,0,1449618231550166993,odom,1.65963609419,0.176873627053,0.0,0.0,0.0,0.0105678519699,0.999944158693
1449618231698636324,186,1449618231690384102,,1449618230611407902,/move_base-50-1449618230.611407902,1,This goal has been accepted by the simple action server,0,1449618231670170120,odom,1.69417222783,0.178060278276,0.0,0.0,0.0,0.0211345236944,0.999776641009
1449618231761127053,187,1449618231752970996,,1449618230611407902,/move_base-50-1449618230.611407902,1,This goal has been accepted by the simple action server,0,1449618231710185113,odom,1.7056811104,0.178547073994,0.0,0.0,0.0,0.0211345236944,0.999776641009
1449618231848310120,188,1449618231846381121,,1449618230611407902,/move_base-50-1449618230.611407902,1,This goal has been accepted by the simple action server,0,1449618231830187712,odom,1.74019088018,0.180341801893,0.0,0.0,0.0,0.0316988350601,0.999497465658
1449618231942268374,189,1449618231930071254,,1449618230611407902,/move_base-50-1449618230.611407902,1,This goal has been accepted by the simple action server,0,1449618231910168449,odom,1.76603813341,0.182257382719,0.0,0.0,0.0,0.0369797368913,0.999316015612
1449618232041359992,190,1449618232038615014,,1449618230611407902,/move_base-50-1449618230.611407902,1,This goal has been accepted by the simple action server,0,1449618232030183993,odom,1.80044765064,0.185448346338,0.0,0.0,0.0,0.0475382956186,0.998869416115
1449618232186910093,191,1449618232185753975,,1449618230611407902,/move_base-50-1449618230.611407902,1,This goal has been accepted by the simple action server,0,1449618232150186634,odom,1.8405351783,0.189731262,0.0,0.0,0.0,0.0580915451448,0.99831126027
1449618232291651620,192,1449618232263089119,,1449618230611407902,/move_base-50-1449618230.611407902,1,This goal has been accepted by the simple action server,0,1449618232230340014,odom,1.86053922803,0.192220435675,0.0,0.0,0.0,0.0633658106137,0.997990367712
1449618232404149331,193,1449618232401494162,,1449618230611407902,/move_base-50-1449618230.611407902,1,This goal has been accepted by the simple action server,0,1449618232390174965,odom,1.90896792553,0.199376796175,0.0,0.0,0.0,0.0791774028604,0.996860541338
1449618232540768770,194,1449618232540514121,,1449618230611407902,/move_base-50-1449618230.611407902,1,This goal has been accepted by the simple action server,0,1449618232510209179,odom,1.94302605526,0.205222036063,0.0,0.0,0.0,0.0897076561262,0.99596814027
1449618232659549220,195,1449618232658599999,,1449618230611407902,/move_base-50-1449618230.611407902,1,This goal has been accepted by the simple action server,0,1449618232630178920,odom,1.9770273737,0.211397186031,0.0,0.0,0.0,0.0897076561262,0.99596814027
1449618232732692594,196,1449618232725475683,,1449618230611407902,/move_base-50-1449618230.611407902,1,This goal has been accepted by the simple action server,0,1449618232710182410,odom,1.99962058707,0.215902539359,0.0,0.0,0.0,0.100227890607,0.994964506877
1449618232815371468,197,1449618232806663353,,1449618230611407902,/move_base-50-1449618230.611407902,1,This goal has been accepted by the simple action server,0,1449618232790690215,odom,2.01935544707,0.220012459046,0.0,0.0,0.0,0.10548388359,0.994421012601
1449618232877265888,198,1449618232874269702,,1449618230611407902,/move_base-50-1449618230.611407902,1,This goal has been accepted by the simple action server,0,1449618232870172617,odom,2.04463793538,0.225717345905,0.0,0.0,0.0,0.110736931374,0.993849753247
1449618232941888034,199,1449618232941432921,,1449618230611407902,/move_base-50-1449618230.611407902,1,This goal has been accepted by the simple action server,0,1449618232910171369,odom,2.05304486475,0.2277079292,0.0,0.0,0.0,0.115986887289,0.993250744765
1449618233017645763,200,1449618233015903569,,1449618230611407902,/move_base-50-1449618230.611407902,1,This goal has been accepted by the simple action server,0,1449618232990166237,odom,2.07822981012,0.233827565798,0.0,0.0,0.0,0.121233604752,0.99262400388
1449618233103565100,201,1449618233103128171,,1449618230611407902,/move_base-50-1449618230.611407902,1,This goal has been accepted by the simple action server,0,1449618233070185948,odom,2.09777335667,0.238767801357,0.0,0.0,0.0,0.126476937269,0.991969548091
1449618233186299268,202,1449618233182379110,,1449618230611407902,/move_base-50-1449618230.611407902,1,This goal has been accepted by the simple action server,0,1449618233150185905,odom,2.1172636042,0.243914294353,0.0,0.0,0.0,0.131716738444,0.99128739567
1449618233286786202,203,1449618233283916340,,1449618230611407902,/move_base-50-1449618230.611407902,1,This goal has been accepted by the simple action server,0,1449618233270229256,odom,2.1505319696,0.253261011554,0.0,0.0,0.0,0.142185161666,0.989840077892
1449618233390250625,204,1449618233388632162,,1449618233382245738,/move_base-51-1449618233.382245738,1,This goal has been accepted by the simple action server,0,1449618233350222343,odom,2.17263880073,0.259745871554,0.0,0.0,0.0,0.142185161666,0.989840077892
1449618233435409905,205,1449618233434050777,,1449618233382245738,/move_base-51-1449618233.382245738,1,This goal has been accepted by the simple action server,0,1449618233430167042,odom,2.19192123316,0.265624226201,0.0,0.0,0.0,0.147413491427,0.989074952946
1449618233526509928,206,1449618233525836381,,1449618233382245738,/move_base-51-1449618233.382245738,1,This goal has been accepted by the simple action server,0,1449618233510177266,odom,2.21663167698,0.273443683708,0.0,0.0,0.0,0.152637705278,0.988282212188
1449618233629470790,207,1449618233626532978,,1449618233382245738,/move_base-51-1449618233.382245738,1,This goal has been accepted by the simple action server,0,1449618233591772069,odom,2.23847363335,0.280770377443,0.0,0.0,0.0,0.163073201911,0.986613972544
1449618233688535067,208,1449618233683971290,,1449618233382245738,/move_base-51-1449618233.382245738,1,This goal has been accepted by the simple action server,0,1449618233670173258,odom,2.25754918006,0.287285461053,0.0,0.0,0.0,0.168284193326,0.985738520236
1449618233769115469,209,1449618233769000926,,1449618233382245738,/move_base-51-1449618233.382245738,1,This goal has been accepted by the simple action server,0,1449618233750176697,odom,2.27928265408,0.294928856825,0.0,0.0,0.0,0.168284193326,0.985738520236
1449618233828391031,210,1449618233825745939,,1449618233382245738,/move_base-51-1449618233.382245738,1,This goal has been accepted by the simple action server,0,1449618233790401313,odom,2.2901493911,0.298750554712,0.0,0.0,0.0,0.168284193326,0.985738520236
1449618233907553487,211,1449618233904160995,,1449618233382245738,/move_base-51-1449618233.382245738,1,This goal has been accepted by the simple action server,0,1449618233871152899,odom,2.30913543541,0.305524494507,0.0,0.0,0.0,0.173490486104,0.984835545272
1449618233963649310,212,1449618233955095451,,1449618233382245738,/move_base-51-1449618233.382245738,1,This goal has been accepted by the simple action server,0,1449618233950466233,odom,2.33078692154,0.313397139599,0.0,0.0,0.0,0.173490486104,0.984835545272
1449618234049915579,213,1449618234049014676,,1449618233382245738,/move_base-51-1449618233.382245738,1,This goal has been accepted by the simple action server,0,1449618234030356419,odom,2.34965811665,0.320485527875,0.0,0.0,0.0,0.17869193488,0.983905072865
1449618234118545462,214,1449618234115595078,,1449618233382245738,/move_base-51-1449618233.382245738,1,This goal has been accepted by the simple action server,0,1449618234110175238,odom,2.3738234153,0.329855068451,0.0,0.0,0.0,0.183888394426,0.982947128993
1449618234174016623,215,1449618234166233915,,1449618233382245738,/move_base-51-1449618233.382245738,1,This goal has been accepted by the simple action server,0,1449618234150167592,odom,2.38184505974,0.333063199341,0.0,0.0,0.0,0.189079719651,0.981961740404
1449618234227712907,216,1449618234222826538,,1449618233382245738,/move_base-51-1449618233.382245738,1,This goal has been accepted by the simple action server,0,1449618234190196378,odom,2.39254058566,0.337340707193,0.0,0.0,0.0,0.189079719651,0.981961740404
1449618234296279062,217,1449618234295874681,,1449618233382245738,/move_base-51-1449618233.382245738,1,This goal has been accepted by the simple action server,0,1449618234270286749,odom,2.4111776037,0.345023728212,0.0,0.0,0.0,0.194265765611,0.98094893461
1449618234422920619,218,1449618234418686803,,1449618233382245738,/move_base-51-1449618233.382245738,1,This goal has been accepted by the simple action server,0,1449618234390184129,odom,2.44567173185,0.359572944702,0.0,0.0,0.0,0.199446387505,0.979908739889
1449618234530294621,219,1449618234526678714,,1449618233382245738,/move_base-51-1449618233.382245738,1,This goal has been accepted by the simple action server,0,1449618234511332156,odom,2.47202111422,0.371192390634,0.0,0.0,0.0,0.209790780666,0.977746300606
1449618234598760061,220,1449618234594379203,,1449618233382245738,/move_base-51-1449618233.382245738,1,This goal has been accepted by the simple action server,0,1449618234590177372,odom,2.49554414098,0.382074355616,0.0,0.0,0.0,0.214954263107,0.976624116419
1449618234659474331,221,1449618234659237102,,1449618233382245738,/move_base-51-1449618233.382245738,1,This goal has been accepted by the simple action server,0,1449618234630169789,odom,2.50599881953,0.386910784498,0.0,0.0,0.0,0.214954263107,0.976624116419
1449618234733026184,222,1449618234729596623,,1449618233382245738,/move_base-51-1449618233.382245738,1,This goal has been accepted by the simple action server,0,1449618234710178861,odom,2.52680362588,0.396803516652,0.0,0.0,0.0,0.225263078873,0.97429797562
1449618234814412918,223,1449618234813195058,,1449618233382245738,/move_base-51-1449618233.382245738,1,This goal has been accepted by the simple action server,0,1449618234790181986,odom,2.54482182811,0.405842965848,0.0,0.0,0.0,0.230408124366,0.973094083954
1449618234886150393,224,1449618234875450548,,1449618233382245738,/move_base-51-1449618233.382245738,1,This goal has been accepted by the simple action server,0,1449618234830187206,odom,2.55511794367,0.411008365389,0.0,0.0,0.0,0.230408124366,0.973094083954
1449618234987593146,225,1449618234986415755,,1449618233382245738,/move_base-51-1449618233.382245738,1,This goal has been accepted by the simple action server,0,1449618234950172042,odom,2.58585373671,0.426802550559,0.0,0.0,0.0,0.240678772307,0.970604826158
1449618235039168892,226,1449618235036239248,,1449618233382245738,/move_base-51-1449618233.382245738,1,This goal has been accepted by the simple action server,0,1449618235030301243,odom,2.6061070142,0.437780294751,0.0,0.0,0.0,0.250922540614,0.968007168678
1449618235119786423,227,1449618235117763335,,1449618233382245738,/move_base-51-1449618233.382245738,1,This goal has been accepted by the simple action server,0,1449618235070170794,odom,2.61617564411,0.443376189643,0.0,0.0,0.0,0.250922540614,0.968007168678
1449618235258035615,228,1449618235251130241,,1449618235180340062,/move_base-52-1449618235.180340062,1,This goal has been accepted by the simple action server,0,1449618235230174700,odom,2.65871025454,0.467607708777,0.0,0.0,0.0,0.266235292001,0.963908070976
1449618235307685945,229,1449618235301099920,,1449618235180340062,/move_base-52-1449618235.180340062,1,This goal has been accepted by the simple action server,0,1449618235270179528,odom,2.66617134036,0.471963289299,0.0,0.0,0.0,0.261138285236,0.965301401628
1449618235376539998,230,1449618235369669705,,1449618235180340062,/move_base-52-1449618235.180340062,1,This goal has been accepted by the simple action server,0,1449618235350171977,odom,2.68340913534,0.482413866462,0.0,0.0,0.0,0.266235292001,0.963908070976
1449618235462201146,231,1449618235455365805,,1449618235180340062,/move_base-52-1449618235.180340062,1,This goal has been accepted by the simple action server,0,1449618235430174186,odom,2.70300734855,0.494524256148,0.0,0.0,0.0,0.276406862881,0.961040709935
1449618235548490337,232,1449618235530346202,,1449618235180340062,/move_base-52-1449618235.180340062,1,This goal has been accepted by the simple action server,0,1449618235510181318,odom,2.72003673004,0.505311114117,0.0,0.0,0.0,0.281481142997,0.959566759604
1449618235588327348,233,1449618235588001301,,1449618235180340062,/move_base-52-1449618235.180340062,1,This goal has been accepted by the simple action server,0,1449618235550194405,odom,2.7297305373,0.511533770214,0.0,0.0,0.0,0.281481142997,0.959566759604
1449618235650922066,234,1449618235648823919,,1449618235180340062,/move_base-52-1449618235.180340062,1,This goal has been accepted by the simple action server,0,1449618235630170471,odom,2.74657867251,0.522602085052,0.0,0.0,0.0,0.28654756392,0.958066017355
1449618235733426830,235,1449618235730074091,,1449618235180340062,/move_base-52-1449618235.180340062,1,This goal has been accepted by the simple action server,0,1449618235710171139,odom,2.76337627523,0.533746441545,0.0,0.0,0.0,0.291605984193,0.956538525091
1449618235849891863,236,1449618235848778275,,1449618235180340062,/move_base-52-1449618235.180340062,1,This goal has been accepted by the simple action server,0,1449618235830264940,odom,2.79429269531,0.554857907396,0.0,0.0,0.0,0.296656262579,0.954984325459
1449618235923447234,237,1449618235912858012,,1449618235180340062,/move_base-52-1449618235.180340062,1,This goal has been accepted by the simple action server,0,1449618235911719585,odom,2.81078151106,0.566454726285,0.0,0.0,0.0,0.30169825807,0.953403461855
1449618235979814809,238,1449618235975338905,,1449618235180340062,/move_base-52-1449618235.180340062,1,This goal has been accepted by the simple action server,0,1449618235950174623,odom,2.81549260128,0.569768103111,0.0,0.0,0.0,0.30169825807,0.953403461855
1449618236052715561,239,1449618236048756320,,1449618235180340062,/move_base-52-1449618235.180340062,1,This goal has been accepted by the simple action server,0,1449618236030725807,odom,2.83653375468,0.584901503688,0.0,0.0,0.0,0.30673182989,0.951795978418
1449618236131905462,240,1449618236126974705,,1449618235180340062,/move_base-52-1449618235.180340062,1,This goal has been accepted by the simple action server,0,1449618236110235692,odom,2.85277379427,0.59684421559,0.0,0.0,0.0,0.311756837497,0.950161920029
1449618236214856494,241,1449618236203096228,,1449618235180340062,/move_base-52-1449618235.180340062,1,This goal has been accepted by the simple action server,0,1449618236190182292,odom,2.87133383952,0.610493029193,0.0,0.0,0.0,0.311756837497,0.950161920029
1449618236276139458,242,1449618236271628548,,1449618235180340062,/move_base-52-1449618235.180340062,1,This goal has been accepted by the simple action server,0,1449618236230359806,odom,2.88061386214,0.617317435994,0.0,0.0,0.0,0.311756837497,0.950161920029
1449618236326901485,243,1449618236323683245,,1449618235180340062,/move_base-52-1449618235.180340062,1,This goal has been accepted by the simple action server,0,1449618236310171900,odom,2.89679942358,0.629333414512,0.0,0.0,0.0,0.316773140589,0.948501332314
1449618236379365859,244,1449618236378118076,,1449618235180340062,/move_base-52-1449618235.180340062,1,This goal has been accepted by the simple action server,0,1449618236350167525,odom,2.90600680867,0.636255510135,0.0,0.0,0.0,0.316773140589,0.948501332314
1449618236459120871,245,1449618236449690198,,1449618235180340062,/move_base-52-1449618235.180340062,1,This goal has been accepted by the simple action server,0,1449618236430186665,odom,2.91981788631,0.64663865357,0.0,0.0,0.0,0.316773140589,0.948501332314
1449618236533688156,246,1449618236528580054,,1449618235180340062,/move_base-52-1449618235.180340062,1,This goal has been accepted by the simple action server,0,1449618236510191266,odom,2.94044242048,0.662334513401,0.0,0.0,0.0,0.321780599107,0.946814261637
1449618236580088104,247,1449618236578797118,,1449618235180340062,/move_base-52-1449618235.180340062,1,This goal has been accepted by the simple action server,0,1449618236550168202,odom,2.9473479593,0.667526085118,0.0,0.0,0.0,0.316773140589,0.948501332314
