%time,field.header.seq,field.header.stamp,field.header.frame_id,field.ns,field.id,field.type,field.action,field.pose.position.x,field.pose.position.y,field.pose.position.z,field.pose.orientation.x,field.pose.orientation.y,field.pose.orientation.z,field.pose.orientation.w,field.scale.x,field.scale.y,field.scale.z,field.color.r,field.color.g,field.color.b,field.color.a,field.lifetime,field.frame_locked,field.text,field.mesh_resource,field.mesh_use_embedded_materials
1449618217939126051,0,1449618217888775279,/odom,doorways,0,1,0,2.49454879761,0.455956399441,1.0,0.0,0.0,0.396748617156,0.917927303649,0.2,0.739244997501,1.8,0.0,1.0,0.0,1.0,2000000000,0,,,0
1449618218083010752,1,1449618218032380147,/odom,doorways,0,1,0,2.52485704422,0.500064253807,1.0,0.0,0.0,0.438654716051,0.898655684946,0.2,0.757705032825,1.8,0.0,1.0,0.0,1.0,2000000000,0,,,0
1449618218250376393,2,1449618218199899209,/odom,doorways,0,1,0,2.47844791412,0.454200923443,1.0,0.0,0.0,0.392178173635,0.919889276013,0.2,0.719124853611,1.8,0.0,1.0,0.0,1.0,2000000000,0,,,0
1449618218385528212,3,1449618218335340033,/odom,doorways,0,1,0,2.52902507782,0.49641045928,1.0,0.0,0.0,0.435768051658,0.90005900093,0.2,0.74807280302,1.8,0.0,1.0,0.0,1.0,2000000000,0,,,0
1449618218632979695,4,1449618218582712663,/odom,doorways,0,1,0,2.4864730835,0.455079346895,1.0,0.0,0.0,0.392052982149,0.919942639075,0.2,0.74920976162,1.8,0.0,1.0,0.0,1.0,2000000000,0,,,0
1449618218805215684,5,1449618218755079532,/odom,doorways,0,1,0,2.47755813599,0.460046619177,1.0,0.0,0.0,0.394419722861,0.918930401183,0.2,0.728966891766,1.8,0.0,1.0,0.0,1.0,2000000000,0,,,0
1449618218943427157,6,1449618218893128251,/odom,doorways,0,1,0,2.53033304214,0.497462362051,1.0,0.0,0.0,0.436329774702,0.89978682348,0.2,0.748337745667,1.8,0.0,1.0,0.0,1.0,2000000000,0,,,0
1449618219100900955,7,1449618219050600178,/odom,doorways,0,1,0,2.48396611214,0.451970756054,1.0,0.0,0.0,0.389346860394,0.921091212802,0.2,0.729234218597,1.8,0.0,1.0,0.0,1.0,2000000000,0,,,0
1449618219244130169,8,1449618219192232287,/odom,doorways,0,1,0,2.52022218704,0.475146442652,1.0,0.0,0.0,0.427529183531,0.904001547139,0.2,0.747990131378,1.8,0.0,1.0,0.0,1.0,2000000000,0,,,0
1449618219439999746,9,1449618219388665642,/odom,doorways,0,1,0,2.47241735458,0.464158475399,1.0,0.0,0.0,0.407240311397,0.91332104365,0.2,0.748252809048,1.8,0.0,1.0,0.0,1.0,2000000000,0,,,0
1449618219567995805,10,1449618219517686053,/odom,doorways,0,1,0,2.46901321411,0.465770155191,1.0,0.0,0.0,0.403460569293,0.91499703225,0.2,0.718981087208,1.8,0.0,1.0,0.0,1.0,2000000000,0,,,0
1449618219777218306,11,1449618219718412808,/odom,doorways,0,1,0,2.51939129829,0.499664127827,1.0,0.0,0.0,0.444050506994,0.89600175627,0.2,0.768067657948,1.8,0.0,1.0,0.0,1.0,2000000000,0,,,0
1449618219892478896,12,1449618219840857766,/odom,doorways,0,1,0,2.49749112129,0.470383137465,1.0,0.0,0.0,0.419232383663,0.907878961365,0.2,0.758593916893,1.8,0.0,1.0,0.0,1.0,2000000000,0,,,0
1449618220076374523,13,1449618220026117607,/odom,doorways,0,1,0,2.46872234344,0.440183579922,1.0,0.0,0.0,0.386058384823,0.922474348428,0.2,0.749215185642,1.8,0.0,1.0,0.0,1.0,2000000000,0,,,0
1449618220267058732,14,1449618220216203733,/odom,doorways,0,1,0,2.48971700668,0.472771406174,1.0,0.0,0.0,0.422623455253,0.906305365244,0.2,0.758023917675,1.8,0.0,1.0,0.0,1.0,2000000000,0,,,0
1449618220384613671,15,1449618220332980941,/odom,doorways,0,1,0,2.53237366676,0.500520467758,1.0,0.0,0.0,0.444557132776,0.895750498575,0.2,0.758146524429,1.8,0.0,1.0,0.0,1.0,2000000000,0,,,0
1449618220580224305,16,1449618220529689181,/odom,doorways,0,1,0,2.51075649261,0.496521413326,1.0,0.0,0.0,0.437296216939,0.89931752938,0.2,0.768209218979,1.8,0.0,1.0,0.0,1.0,2000000000,0,,,0
1449618220764963510,17,1449618220713449323,/odom,doorways,0,1,0,2.45030164719,0.434718489647,1.0,0.0,0.0,0.375968996805,0.926632242824,0.2,0.749187707901,1.8,0.0,1.0,0.0,1.0,2000000000,0,,,0
1449618220978912587,18,1449618220927138461,/odom,doorways,0,1,0,2.48685669899,0.470259636641,1.0,0.0,0.0,0.419401425477,0.907800883624,0.2,0.757877469063,1.8,0.0,1.0,0.0,1.0,2000000000,0,,,0
1449618221159922374,19,1449618221109781364,/odom,doorways,0,1,0,2.45715618134,0.442109048367,1.0,0.0,0.0,0.382289666939,0.924042537198,0.2,0.749141514301,1.8,0.0,1.0,0.0,1.0,2000000000,0,,,0
1449618221273894321,20,1449618221223100916,/odom,doorways,0,1,0,2.48607683182,0.471469968557,1.0,0.0,0.0,0.413718413348,0.910404895888,0.2,0.758778095245,1.8,0.0,1.0,0.0,1.0,2000000000,0,,,0
1449618221509281564,21,1449618221458944963,/odom,doorways,0,1,0,2.51949214935,0.498387813568,1.0,0.0,0.0,0.44516425562,0.895448929598,0.2,0.778814435005,1.8,0.0,1.0,0.0,1.0,2000000000,0,,,0
1449618221658887855,22,1449618221608481817,/odom,doorways,0,1,0,2.50947260857,0.490123927593,1.0,0.0,0.0,0.435769630642,0.900058236455,0.2,0.777519404888,1.8,0.0,1.0,0.0,1.0,2000000000,0,,,0
1449618221858999673,23,1449618221808693001,/odom,doorways,0,1,0,2.49080085754,0.470821648836,1.0,0.0,0.0,0.431966995073,0.901889414045,0.2,0.757816791534,1.8,0.0,1.0,0.0,1.0,2000000000,0,,,0
1449618222084976939,24,1449618222034349856,/odom,doorways,0,1,0,2.4911737442,0.465543091297,1.0,0.0,0.0,0.421647148884,0.906759991309,0.2,0.748564243317,1.8,0.0,1.0,0.0,1.0,2000000000,0,,,0
1449618222278064637,25,1449618222226302829,/odom,doorways,0,1,0,2.50823044777,0.48419469595,1.0,0.0,0.0,0.439301883126,0.89833949901,0.2,0.718238532543,1.8,0.0,1.0,0.0,1.0,2000000000,0,,,0
1449618222439841717,26,1449618222389576606,/odom,doorways,0,1,0,2.50030326843,0.502387404442,1.0,0.0,0.0,0.44145658738,0.897282609582,0.2,0.758508145809,1.8,0.0,1.0,0.0,1.0,2000000000,0,,,0
1449618222675815492,27,1449618222625446529,/odom,doorways,0,1,0,2.46480894089,0.459374666214,1.0,0.0,0.0,0.40126043987,0.915964005513,0.2,0.728970050812,1.8,0.0,1.0,0.0,1.0,2000000000,0,,,0
1449618222872503107,28,1449618222822149027,/odom,doorways,0,1,0,2.49175834656,0.498845279217,1.0,0.0,0.0,0.435195550959,0.900335955311,0.2,0.73823428154,1.8,0.0,1.0,0.0,1.0,2000000000,0,,,0
1449618223078522909,29,1449618223027130677,/odom,doorways,0,1,0,2.5036687851,0.495040595531,1.0,0.0,0.0,0.441957739356,0.89703587254,0.2,0.748087644577,1.8,0.0,1.0,0.0,1.0,2000000000,0,,,0
1449618223284715549,30,1449618223232619639,/odom,doorways,0,1,0,2.45556855202,0.465396881104,1.0,0.0,0.0,0.399211845461,0.916858714549,0.2,0.75888478756,1.8,0.0,1.0,0.0,1.0,2000000000,0,,,0
1449618223472791571,31,1449618223422191057,/odom,doorways,0,1,0,2.46415615082,0.461211383343,1.0,0.0,0.0,0.401922038616,0.915673891118,0.2,0.739003956318,1.8,0.0,1.0,0.0,1.0,2000000000,0,,,0
1449618223660239759,32,1449618223609085654,/odom,doorways,0,1,0,2.4540605545,0.470898389816,1.0,0.0,0.0,0.401073577699,0.916045842342,0.2,0.749102175236,1.8,0.0,1.0,0.0,1.0,2000000000,0,,,0
1449618223910940895,33,1449618223856645327,/odom,doorways,0,1,0,2.46420812607,0.468270868063,1.0,0.0,0.0,0.407082147655,0.913391550793,0.2,0.728970825672,1.8,0.0,1.0,0.0,1.0,2000000000,0,,,0
1449618224076494159,34,1449618224026252406,/odom,doorways,0,1,0,2.46125173569,0.465902000666,1.0,0.0,0.0,0.403199479029,0.915112113411,0.2,0.739027500153,1.8,0.0,1.0,0.0,1.0,2000000000,0,,,0
1449618224387684699,35,1449618224334502227,/odom,doorways,0,1,0,2.48884510994,0.486004859209,1.0,0.0,0.0,0.430326237745,0.902673434365,0.2,0.747720181942,1.8,0.0,1.0,0.0,1.0,2000000000,0,,,0
1449618224556871640,36,1449618224506538655,/odom,doorways,0,1,0,2.46935033798,0.477155804634,1.0,0.0,0.0,0.41368732429,0.910419023155,0.2,0.758703052998,1.8,0.0,1.0,0.0,1.0,2000000000,0,,,0
1449618224676623238,37,1449618224624242029,/odom,doorways,0,1,0,2.47137713432,0.468975007534,1.0,0.0,0.0,0.409316235241,0.912392579742,0.2,0.748950183392,1.8,0.0,1.0,0.0,1.0,2000000000,0,,,0
1449618224856244420,38,1449618224805138467,/odom,doorways,0,1,0,2.4881131649,0.510502636433,1.0,0.0,0.0,0.444148714135,0.895953078979,0.2,0.768262505531,1.8,0.0,1.0,0.0,1.0,2000000000,0,,,0
1449618224992850226,39,1449618224940976517,/odom,doorways,0,1,0,2.51957559586,0.473131626844,1.0,0.0,0.0,0.440250275748,0.897875099724,0.2,0.768297672272,1.8,0.0,1.0,0.0,1.0,2000000000,0,,,0
1449618225184783961,40,1449618225132865709,/odom,doorways,0,1,0,2.47355437279,0.489164710045,1.0,0.0,0.0,0.430461536605,0.902608921684,0.2,0.738593101501,1.8,0.0,1.0,0.0,1.0,2000000000,0,,,0
1449618225392741112,41,1449618225342116471,/odom,doorways,0,1,0,2.47147250175,0.447161734104,1.0,0.0,0.0,0.421848274962,0.906666439718,0.2,0.759232878685,1.8,0.0,1.0,0.0,1.0,2000000000,0,,,0
1449618225560719573,42,1449618225509520187,/odom,doorways,0,1,0,2.4743103981,0.453462302685,1.0,0.0,0.0,0.426050329297,0.9046994622,0.2,0.7491492033,1.8,0.0,1.0,0.0,1.0,2000000000,0,,,0
1449618225818267319,43,1449618225766438756,/odom,doorways,0,1,0,2.46980571747,0.412968665361,1.0,0.0,0.0,0.410759015759,0.911743950335,0.2,0.749452650547,1.8,0.0,1.0,0.0,1.0,2000000000,0,,,0
1449618225959833235,44,1449618225908606000,/odom,doorways,0,1,0,2.45825099945,0.422068834305,1.0,0.0,0.0,0.409684294236,0.912227372455,0.2,0.759434103966,1.8,0.0,1.0,0.0,1.0,2000000000,0,,,0
1449618226170652881,45,1449618226119423344,/odom,doorways,0,1,0,2.49158716202,0.392063856125,1.0,0.0,0.0,0.400852939425,0.916142413031,0.2,0.709027707577,1.8,0.0,1.0,0.0,1.0,2000000000,0,,,0
1449618226381550295,46,1449618226331260624,/odom,doorways,0,1,0,2.47208929062,0.427032858133,1.0,0.0,0.0,0.407963405022,0.912998280482,0.2,0.738767504692,1.8,0.0,1.0,0.0,1.0,2000000000,0,,,0
1449618226583980108,47,1449618226533641086,/odom,doorways,0,1,0,2.46843552589,0.407871603966,1.0,0.0,0.0,0.399661605182,0.916662752239,0.2,0.69815325737,1.8,0.0,1.0,0.0,1.0,2000000000,0,,,0
1449618226774802930,48,1449618226723894537,/odom,doorways,0,1,0,2.53407073021,0.447208940983,1.0,0.0,0.0,0.438569272067,0.89869738711,0.2,0.757932424545,1.8,0.0,1.0,0.0,1.0,2000000000,0,,,0
1449618226982287749,49,1449618226928874530,/odom,doorways,0,1,0,2.48644018173,0.434260249138,1.0,0.0,0.0,0.412069030543,0.911152629403,0.2,0.707369685173,1.8,0.0,1.0,0.0,1.0,2000000000,0,,,0
1449618227161196356,50,1449618227109097939,/odom,doorways,0,1,0,2.45394992828,0.429497241974,1.0,0.0,0.0,0.388718079702,0.921356746604,0.2,0.707999885082,1.8,0.0,1.0,0.0,1.0,2000000000,0,,,0
1449618227884146741,51,1449618227833913891,/odom,doorways,0,1,0,2.37897467613,0.339547008276,1.0,0.0,0.0,0.354180225848,0.935177185146,0.2,0.66853260994,1.8,0.0,1.0,0.0,1.0,2000000000,0,,,0
1449618228384946271,52,1449618228334757669,/odom,doorways,0,1,0,2.4847548008,0.463212162256,1.0,0.0,0.0,0.437641725844,0.899149442418,0.2,0.727487385273,1.8,0.0,1.0,0.0,1.0,2000000000,0,,,0
1449618228593000638,53,1449618228535605597,/odom,doorways,0,1,0,2.46558618546,0.464340567589,1.0,0.0,0.0,0.409853309986,0.912151448112,0.2,0.69746285677,1.8,0.0,1.0,0.0,1.0,2000000000,0,,,0
1449618247722667506,54,1449618247672219292,/odom,doorways,0,1,0,3.58347988129,6.35581064224,1.0,0.0,0.0,0.862031084273,0.506855413058,0.2,0.999975264072,1.8,0.0,1.0,0.0,1.0,2000000000,0,,,0
1449618249087136588,55,1449618249015723304,/odom,doorways,0,1,0,4.54453706741,6.82578897476,1.0,0.0,0.0,0.875047360543,0.484037309312,0.2,0.74834471941,1.8,0.0,1.0,0.0,1.0,2000000000,0,,,0
1449618251141754396,56,1449618251090905302,/odom,doorways,0,1,0,5.3985824585,7.58062505722,1.0,0.0,0.0,0.881286522692,0.472582336659,0.2,0.927899420261,1.8,0.0,1.0,0.0,1.0,2000000000,0,,,0
1449618251275131088,57,1449618251217304977,/odom,doorways,0,1,0,2.84280443192,5.79731559753,1.0,0.0,0.0,0.89777116454,0.440462184666,0.2,0.648365199566,1.8,0.0,1.0,0.0,1.0,2000000000,0,,,0
1449618251397532479,58,1449618251347257988,/odom,doorways,0,1,0,2.82396221161,5.8097410202,1.0,0.0,0.0,0.894894390309,0.446277974129,0.2,0.68743121624,1.8,0.0,1.0,0.0,1.0,2000000000,0,,,0
1449618251456077365,59,1449618251405751474,/odom,doorways,0,1,0,2.84952092171,5.79240512848,1.0,0.0,0.0,0.902572403567,0.430538100892,0.2,0.658108055592,1.8,0.0,1.0,0.0,1.0,2000000000,0,,,0
1449618251667554395,60,1449618251615579040,/odom,doorways,0,1,0,2.95985341072,5.71773433685,1.0,0.0,0.0,0.921000561241,0.389561248321,0.2,0.698019325733,1.8,0.0,1.0,0.0,1.0,2000000000,0,,,0
1449618251713333888,61,1449618251646781204,/odom,doorways,1,1,0,2.85389757156,5.82486152649,1.0,0.0,0.0,0.897338177382,0.441343625095,0.2,0.668027997017,1.8,0.0,1.0,0.0,1.0,2000000000,0,,,0
1449618251741166104,62,1449618251689832428,/odom,doorways,0,1,0,2.81606769562,5.83486747742,1.0,0.0,0.0,0.893095774473,0.449866577574,0.2,0.668384969234,1.8,0.0,1.0,0.0,1.0,2000000000,0,,,0
1449618251891346828,63,1449618251840934745,/odom,doorways,0,1,0,2.83610630035,5.8059129715,1.0,0.0,0.0,0.897708977548,0.440588914557,0.2,0.677424311638,1.8,0.0,1.0,0.0,1.0,2000000000,0,,,0
1449618252008901681,64,1449618251958696736,/odom,doorways,0,1,0,2.85117125511,5.75680923462,1.0,0.0,0.0,0.918657008168,0.39505607367,0.2,0.697792172432,1.8,0.0,1.0,0.0,1.0,2000000000,0,,,0
1449618252048619082,65,1449618251998197310,/odom,doorways,0,1,0,2.9115293026,5.6921005249,1.0,0.0,0.0,0.924395896965,0.381434431683,0.2,0.778366804123,1.8,0.0,1.0,0.0,1.0,2000000000,0,,,0
1449618252076344045,66,1449618252025445759,/odom,doorways,1,1,0,2.85552167892,5.75376224518,1.0,0.0,0.0,0.903468827976,0.428653796058,0.2,0.707552015781,1.8,0.0,1.0,0.0,1.0,2000000000,0,,,0
1449618252091519183,67,1449618252038399708,/odom,doorways,2,1,0,3.69687080383,6.44082260132,1.0,0.0,0.0,0.903468827976,0.428653796058,0.2,0.707552015781,1.8,0.0,1.0,0.0,1.0,2000000000,0,,,0
1449618252164045901,68,1449618252102864824,/odom,doorways,0,1,0,2.82995653152,5.80648994446,1.0,0.0,0.0,0.897056753777,0.441915354455,0.2,0.6875436306,1.8,0.0,1.0,0.0,1.0,2000000000,0,,,0
1449618252356383672,69,1449618252295663341,/odom,doorways,0,1,0,2.95432138443,5.72206401825,1.0,0.0,0.0,0.919387162414,0.393353842727,0.2,0.889767169952,1.8,0.0,1.0,0.0,1.0,2000000000,0,,,0
1449618252377357828,70,1449618252324163201,/odom,doorways,1,1,0,2.82825088501,5.7690577507,1.0,0.0,0.0,0.916819136131,0.399302731801,0.2,0.679142653942,1.8,0.0,1.0,0.0,1.0,2000000000,0,,,0
1449618252524386014,71,1449618252473979976,/odom,doorways,0,1,0,2.92999601364,5.71149349213,1.0,0.0,0.0,0.922556889923,0.385861095287,0.2,0.819350123405,1.8,0.0,1.0,0.0,1.0,2000000000,0,,,0
1449618252551573864,72,1449618252501020690,/odom,doorways,1,1,0,2.79542517662,5.81487989426,1.0,0.0,0.0,0.896431444067,0.443182429805,0.2,0.67848020792,1.8,0.0,1.0,0.0,1.0,2000000000,0,,,0
1449618252594782613,73,1449618252534620419,/odom,doorways,0,1,0,2.91752147675,5.70225906372,1.0,0.0,0.0,0.920383885105,0.391015989493,0.2,0.728009283543,1.8,0.0,1.0,0.0,1.0,2000000000,0,,,0
1449618252702101364,74,1449618252647081458,/odom,doorways,0,1,0,2.8911190033,5.70880031586,1.0,0.0,0.0,0.929597941107,0.36857518621,0.2,0.747217953205,1.8,0.0,1.0,0.0,1.0,2000000000,0,,,0
1449618252734748382,75,1449618252681574174,/odom,doorways,1,1,0,2.83878278732,5.78182554245,1.0,0.0,0.0,0.900542673455,0.43476763137,0.2,0.697513878345,1.8,0.0,1.0,0.0,1.0,2000000000,0,,,0
1449618252741573745,76,1449618252691386222,/odom,doorways,2,1,0,3.50201439857,6.30860900879,1.0,0.0,0.0,0.900542673455,0.43476763137,0.2,0.717442810535,1.8,0.0,1.0,0.0,1.0,2000000000,0,,,0
1449618252913632134,77,1449618252861807000,/odom,doorways,0,1,0,2.89673018456,5.69596624374,1.0,0.0,0.0,0.923020843068,0.384749949009,0.2,0.758631289005,1.8,0.0,1.0,0.0,1.0,2000000000,0,,,0
1449618252936408141,78,1449618252886245665,/odom,doorways,1,1,0,2.80193853378,5.80539560318,1.0,0.0,0.0,0.898295459625,0.43939192894,0.2,0.678374409676,1.8,0.0,1.0,0.0,1.0,2000000000,0,,,0
1449618253095581316,79,1449618253043912598,/odom,doorways,0,1,0,2.92380070686,5.72182655334,1.0,0.0,0.0,0.923724325188,0.38305792128,0.2,0.758559882641,1.8,0.0,1.0,0.0,1.0,2000000000,0,,,0
1449618253191095662,80,1449618253140412765,/odom,doorways,0,1,0,2.91339921951,5.69996833801,1.0,0.0,0.0,0.919594553982,0.392868751986,0.2,0.74897646904,1.8,0.0,1.0,0.0,1.0,2000000000,0,,,0
1449618253223483479,81,1449618253171362518,/odom,doorways,1,1,0,2.79923343658,5.84515380859,1.0,0.0,0.0,0.89227635507,0.451489652355,0.2,0.687737584114,1.8,0.0,1.0,0.0,1.0,2000000000,0,,,0
1449618253458209928,82,1449618253405531240,/odom,doorways,0,1,0,2.89241313934,5.70512628555,1.0,0.0,0.0,0.925057543367,0.379826988852,0.2,0.738886117935,1.8,0.0,1.0,0.0,1.0,2000000000,0,,,0
1449618253513086190,83,1449618253415777894,/odom,doorways,1,1,0,2.81640481949,5.80848550797,1.0,0.0,0.0,0.904938036783,0.425543358053,0.2,0.688959300518,1.8,0.0,1.0,0.0,1.0,2000000000,0,,,0
1449618253925185729,84,1449618253874954455,/odom,doorways,0,1,0,2.83240175247,5.79339981079,1.0,0.0,0.0,0.909559636296,0.415573420735,0.2,0.688346147537,1.8,0.0,1.0,0.0,1.0,2000000000,0,,,0
1449618254168904971,85,1449618254118526848,/odom,doorways,0,1,0,2.91186833382,5.71690940857,1.0,0.0,0.0,0.921505817003,0.388364557124,0.2,0.718604981899,1.8,0.0,1.0,0.0,1.0,2000000000,0,,,0
1449618254344652559,86,1449618254287684896,/odom,doorways,0,1,0,2.89158940315,5.73662376404,1.0,0.0,0.0,0.929755548983,0.368177428879,0.2,0.737436830997,1.8,0.0,1.0,0.0,1.0,2000000000,0,,,0
1449618254359013738,87,1449618254304408053,/odom,doorways,1,1,0,2.85973572731,5.79406356812,1.0,0.0,0.0,0.90125791824,0.433283007755,0.2,0.67774784565,1.8,0.0,1.0,0.0,1.0,2000000000,0,,,0
1449618254361400140,88,1449618254310155162,/odom,doorways,2,1,0,3.52527856827,6.32626962662,1.0,0.0,0.0,0.90125791824,0.433283007755,0.2,0.767449736595,1.8,0.0,1.0,0.0,1.0,2000000000,0,,,0
1449618254521547140,89,1449618254471227479,/odom,doorways,0,1,0,2.86713266373,5.72017192841,1.0,0.0,0.0,0.927321483491,0.374265769549,0.2,0.718123078346,1.8,0.0,1.0,0.0,1.0,2000000000,0,,,0
1449618254634991114,90,1449618254584471192,/odom,doorways,0,1,0,2.88929915428,5.71496391296,1.0,0.0,0.0,0.922497304475,0.386003527493,0.2,0.728906095028,1.8,0.0,1.0,0.0,1.0,2000000000,0,,,0
1449618254894958826,91,1449618254844488389,/odom,doorways,0,1,0,2.80586338043,5.84157133102,1.0,0.0,0.0,0.895229490728,0.445605384765,0.2,0.667502164841,1.8,0.0,1.0,0.0,1.0,2000000000,0,,,0
1449618255601679628,92,1449618255551409658,/odom,doorways,0,1,0,2.8622777462,5.7238740921,1.0,0.0,0.0,0.927811055158,0.373050460295,0.2,0.738071203232,1.8,0.0,1.0,0.0,1.0,2000000000,0,,,0
1449618255621825663,93,1449618255571685653,/odom,doorways,1,1,0,2.82855606079,5.77930164337,1.0,0.0,0.0,0.905146147761,0.425100518929,0.2,0.668100118637,1.8,0.0,1.0,0.0,1.0,2000000000,0,,,0
1449618255633177593,94,1449618255582211073,/odom,doorways,2,1,0,3.48849773407,6.32692241669,1.0,0.0,0.0,0.905146147761,0.425100518929,0.2,0.767816603184,1.8,0.0,1.0,0.0,1.0,2000000000,0,,,0
1449618255836487963,95,1449618255784875508,/odom,doorways,0,1,0,2.87643384933,5.74087047577,1.0,0.0,0.0,0.929306194845,0.369310162631,0.2,0.668070971966,1.8,0.0,1.0,0.0,1.0,2000000000,0,,,0
1449618255869757136,96,1449618255811244093,/odom,doorways,1,1,0,2.81547856331,5.8057551384,1.0,0.0,0.0,0.897705084564,0.440596846502,0.2,0.678234815598,1.8,0.0,1.0,0.0,1.0,2000000000,0,,,0
1449618255881300973,97,1449618255828455539,/odom,doorways,2,1,0,3.48612737656,6.32439184189,1.0,0.0,0.0,0.897705084564,0.440596846502,0.2,0.758027136326,1.8,0.0,1.0,0.0,1.0,2000000000,0,,,0
1449618256054062052,98,1449618256003596676,/odom,doorways,0,1,0,2.86724424362,5.72050380707,1.0,0.0,0.0,0.925627883481,0.378434963134,0.2,0.738628745079,1.8,0.0,1.0,0.0,1.0,2000000000,0,,,0
1449618256203089203,99,1449618256152793845,/odom,doorways,0,1,0,2.86649394035,5.72646808624,1.0,0.0,0.0,0.927600517613,0.373573660372,0.2,0.727920591831,1.8,0.0,1.0,0.0,1.0,2000000000,0,,,0
1449618256233491466,100,1449618256179338297,/odom,doorways,1,1,0,2.81241130829,5.80137968063,1.0,0.0,0.0,0.897321313277,0.441377911475,0.2,0.668513000011,1.8,0.0,1.0,0.0,1.0,2000000000,0,,,0
1449618256238358873,101,1449618256188027814,/odom,doorways,2,1,0,3.50002241135,6.33122396469,1.0,0.0,0.0,0.897321313277,0.441377911475,0.2,0.748335421085,1.8,0.0,1.0,0.0,1.0,2000000000,0,,,0
1449618256430705864,102,1449618256379196166,/odom,doorways,0,1,0,2.85447645187,5.72276687622,1.0,0.0,0.0,0.930374788156,0.366609811058,0.2,0.727416932583,1.8,0.0,1.0,0.0,1.0,2000000000,0,,,0
1449618256694760979,103,1449618256644500975,/odom,doorways,0,1,0,2.86927461624,5.71907758713,1.0,0.0,0.0,0.926899188611,0.375310397075,0.2,0.739090621471,1.8,0.0,1.0,0.0,1.0,2000000000,0,,,0
1449618256719142369,104,1449618256668873875,/odom,doorways,1,1,0,2.76645326614,5.85128927231,1.0,0.0,0.0,0.892715559321,0.45062060555,0.2,0.688193321228,1.8,0.0,1.0,0.0,1.0,2000000000,0,,,0
1449618256827859653,105,1449618256770908332,/odom,doorways,0,1,0,2.85931634903,5.71794605255,1.0,0.0,0.0,0.928884563422,0.370369366762,0.2,0.728270828724,1.8,0.0,1.0,0.0,1.0,2000000000,0,,,0
1449618257023026757,106,1449618256972084188,/odom,doorways,0,1,0,2.8601603508,5.71896076202,1.0,0.0,0.0,0.928305166068,0.371819201562,0.2,0.728127717972,1.8,0.0,1.0,0.0,1.0,2000000000,0,,,0
1449618257273800508,107,1449618257170546819,/odom,doorways,0,1,0,2.88277673721,5.74186611176,1.0,0.0,0.0,0.928761649695,0.370677485229,0.2,0.697999179363,1.8,0.0,1.0,0.0,1.0,2000000000,0,,,0
1449618257273803976,108,1449618257190031143,/odom,doorways,1,1,0,3.46842861176,6.36652183533,1.0,0.0,0.0,0.886073067642,0.463545595167,0.2,0.747301459312,1.8,0.0,1.0,0.0,1.0,2000000000,0,,,0
1449618257450468312,109,1449618257400081423,/odom,doorways,0,1,0,2.86196637154,5.7156791687,1.0,0.0,0.0,0.928272724074,0.371900187872,0.2,0.728297114372,1.8,0.0,1.0,0.0,1.0,2000000000,0,,,0
1449618257485993069,110,1449618257427329017,/odom,doorways,1,1,0,2.81360220909,5.79062843323,1.0,0.0,0.0,0.901883234513,0.431979896876,0.2,0.677947759628,1.8,0.0,1.0,0.0,1.0,2000000000,0,,,0
1449618257496988868,111,1449618257446131635,/odom,doorways,2,1,0,3.49333667755,6.33741188049,1.0,0.0,0.0,0.901883234513,0.431979896876,0.2,0.747736513615,1.8,0.0,1.0,0.0,1.0,2000000000,0,,,0
1449618257659979724,112,1449618257591745068,/odom,doorways,0,1,0,2.88237285614,5.73063898087,1.0,0.0,0.0,0.928845368109,0.3704676533,0.2,0.768431484699,1.8,0.0,1.0,0.0,1.0,2000000000,0,,,0
1449618257814741425,113,1449618257764067261,/odom,doorways,0,1,0,2.86776828766,5.71290779114,1.0,0.0,0.0,0.925918248524,0.377723969388,0.2,0.708755016327,1.8,0.0,1.0,0.0,1.0,2000000000,0,,,0
1449618257950647016,114,1449618257897842149,/odom,doorways,0,1,0,2.87570905685,5.72745990753,1.0,0.0,0.0,0.926038563377,0.377428906073,0.2,0.707981944084,1.8,0.0,1.0,0.0,1.0,2000000000,0,,,0
1449618257963873192,115,1449618257913730663,/odom,doorways,1,1,0,2.79463338852,5.85639381409,1.0,0.0,0.0,0.889346978177,0.457232930143,0.2,0.687748074532,1.8,0.0,1.0,0.0,1.0,2000000000,0,,,0
1449618257969622438,116,1449618257918709289,/odom,doorways,2,1,0,3.49176931381,6.35517406464,1.0,0.0,0.0,0.889346978177,0.457232930143,0.2,0.767486989498,1.8,0.0,1.0,0.0,1.0,2000000000,0,,,0
1449618258171982984,117,1449618258121891392,/odom,doorways,0,1,0,2.87906336784,5.72839355469,1.0,0.0,0.0,0.927345391545,0.374206526909,0.2,0.728394091129,1.8,0.0,1.0,0.0,1.0,2000000000,0,,,0
1449618258195511665,118,1449618258139587465,/odom,doorways,1,1,0,2.83602142334,5.80769586563,1.0,0.0,0.0,0.898188245731,0.439611049941,0.2,0.658989548683,1.8,0.0,1.0,0.0,1.0,2000000000,0,,,0
1449618258201738783,119,1449618258148579689,/odom,doorways,2,1,0,3.51412963867,6.33448457718,1.0,0.0,0.0,0.898188245731,0.439611049941,0.2,0.758836448193,1.8,0.0,1.0,0.0,1.0,2000000000,0,,,0
1449618258352657834,120,1449618258302467967,/odom,doorways,0,1,0,2.89917516708,5.71467590332,1.0,0.0,0.0,0.920804982252,0.390023312971,0.2,0.748395204544,1.8,0.0,1.0,0.0,1.0,2000000000,0,,,0
1449618258548589049,121,1449618258497659148,/odom,doorways,0,1,0,2.89621067047,5.75347995758,1.0,0.0,0.0,0.929151647732,0.369698817305,0.2,0.697755515575,1.8,0.0,1.0,0.0,1.0,2000000000,0,,,0
1449618258567259921,122,1449618258516953013,/odom,doorways,1,1,0,2.85312795639,5.78885698318,1.0,0.0,0.0,0.908665644357,0.417524546302,0.2,0.697964191437,1.8,0.0,1.0,0.0,1.0,2000000000,0,,,0
1449618258575510960,123,1449618258524610315,/odom,doorways,2,1,0,3.49999856949,6.34413862228,1.0,0.0,0.0,0.908665644357,0.417524546302,0.2,0.747818768024,1.8,0.0,1.0,0.0,1.0,2000000000,0,,,0
1449618258733509876,124,1449618258682842020,/odom,doorways,0,1,0,2.88079071045,5.73104333878,1.0,0.0,0.0,0.927341941549,0.374215076451,0.2,0.728455364704,1.8,0.0,1.0,0.0,1.0,2000000000,0,,,0
1449618258750779338,125,1449618258698273110,/odom,doorways,1,1,0,2.84419083595,5.79349470139,1.0,0.0,0.0,0.898585667125,0.438798129938,0.2,0.67880576849,1.8,0.0,1.0,0.0,1.0,2000000000,0,,,0
1449618258758632023,126,1449618258706811898,/odom,doorways,2,1,0,3.52512788773,6.3244600296,1.0,0.0,0.0,0.898585667125,0.438798129938,0.2,0.76864773035,1.8,0.0,1.0,0.0,1.0,2000000000,0,,,0
1449618259005650203,127,1449618258862808724,/odom,doorways,0,1,0,2.87001442909,5.72956371307,1.0,0.0,0.0,0.929170971949,0.369650246703,0.2,0.728018522263,1.8,0.0,1.0,0.0,1.0,2000000000,0,,,0
1449618259005652875,128,1449618258876438534,/odom,doorways,1,1,0,2.83928728104,5.79048061371,1.0,0.0,0.0,0.899835774989,0.43622881387,0.2,0.678798854351,1.8,0.0,1.0,0.0,1.0,2000000000,0,,,0
1449618259005655501,129,1449618258884208647,/odom,doorways,2,1,0,3.51325368881,6.32223129272,1.0,0.0,0.0,0.899835774989,0.43622881387,0.2,0.758657574654,1.8,0.0,1.0,0.0,1.0,2000000000,0,,,0
1449618259294426321,130,1449618259243332313,/odom,doorways,0,1,0,2.87695813179,5.72415018082,1.0,0.0,0.0,0.926763566816,0.375645166644,0.2,0.758890926838,1.8,0.0,1.0,0.0,1.0,2000000000,0,,,0
1449618259450432858,131,1449618259399128263,/odom,doorways,0,1,0,2.86988925934,5.71015787125,1.0,0.0,0.0,0.925873256006,0.377834241186,0.2,0.718857049942,1.8,0.0,1.0,0.0,1.0,2000000000,0,,,0
1449618259577522634,132,1449618259522287278,/odom,doorways,0,1,0,2.87759304047,5.72887611389,1.0,0.0,0.0,0.926239065343,0.376936591262,0.2,0.747991502285,1.8,0.0,1.0,0.0,1.0,2000000000,0,,,0
1449618259731200354,133,1449618259680774520,/odom,doorways,0,1,0,2.90741658211,5.74840641022,1.0,0.0,0.0,0.925128111526,0.3796550767,0.2,0.698924362659,1.8,0.0,1.0,0.0,1.0,2000000000,0,,,0
1449618259808184199,134,1449618259755758688,/odom,doorways,0,1,0,2.89964342117,5.73600435257,1.0,0.0,0.0,0.923840771096,0.382776997297,0.2,0.739096581936,1.8,0.0,1.0,0.0,1.0,2000000000,0,,,0
1449618259957343228,135,1449618259905192107,/odom,doorways,0,1,0,2.86887097359,5.72448730469,1.0,0.0,0.0,0.927530185003,0.373748252047,0.2,0.728087604046,1.8,0.0,1.0,0.0,1.0,2000000000,0,,,0
1449618260132178117,136,1449618260079712995,/odom,doorways,0,1,0,2.89559936523,5.74820756912,1.0,0.0,0.0,0.927273413544,0.374384850835,0.2,0.668374538422,1.8,0.0,1.0,0.0,1.0,2000000000,0,,,0
1449618260212008848,137,1449618260159271586,/odom,doorways,0,1,0,2.87785315514,5.73497200012,1.0,0.0,0.0,0.92845249053,0.371451171526,0.2,0.737641811371,1.8,0.0,1.0,0.0,1.0,2000000000,0,,,0
1449618260324193349,138,1449618260273130148,/odom,doorways,0,1,0,2.87470555305,5.73620176315,1.0,0.0,0.0,0.928630815348,0.3710051331,0.2,0.717807650566,1.8,0.0,1.0,0.0,1.0,2000000000,0,,,0
1449618260510100322,139,1449618260457585058,/odom,doorways,0,1,0,2.87188768387,5.72089481354,1.0,0.0,0.0,0.926998952583,0.375063917099,0.2,0.708762466908,1.8,0.0,1.0,0.0,1.0,2000000000,0,,,0
1449618260624725348,140,1449618260570892070,/odom,doorways,0,1,0,2.87490558624,5.73268222809,1.0,0.0,0.0,0.928140868303,0.37222913452,0.2,0.718284487724,1.8,0.0,1.0,0.0,1.0,2000000000,0,,,0
1449618260825287125,141,1449618260771535813,/odom,doorways,0,1,0,2.8796749115,5.73373031616,1.0,0.0,0.0,0.927508864382,0.373801159032,0.2,0.727925956249,1.8,0.0,1.0,0.0,1.0,2000000000,0,,,0
1449618260980431118,142,1449618260927040534,/odom,doorways,0,1,0,2.88516974449,5.74172306061,1.0,0.0,0.0,0.929018109988,0.370034256947,0.2,0.658160030842,1.8,0.0,1.0,0.0,1.0,2000000000,0,,,0
1449618261176968768,143,1449618261121264581,/odom,doorways,0,1,0,2.88240909576,5.74311447144,1.0,0.0,0.0,0.929367571775,0.369155680619,0.2,0.72762209177,1.8,0.0,1.0,0.0,1.0,2000000000,0,,,0
1449618261453836255,144,1449618261402459659,/odom,doorways,0,1,0,2.87476301193,5.73436927795,1.0,0.0,0.0,0.927747621634,0.373208186609,0.2,0.717596232891,1.8,0.0,1.0,0.0,1.0,2000000000,0,,,0
1449618261650551646,145,1449618261599700581,/odom,doorways,0,1,0,2.87721776962,5.73592567444,1.0,0.0,0.0,0.928225668311,0.372017618788,0.2,0.728280544281,1.8,0.0,1.0,0.0,1.0,2000000000,0,,,0
1449618261812913381,146,1449618261762609894,/odom,doorways,0,1,0,2.89057970047,5.74512434006,1.0,0.0,0.0,0.925651650913,0.378376824292,0.2,0.738043248653,1.8,0.0,1.0,0.0,1.0,2000000000,0,,,0
1449618261911498755,147,1449618261857736501,/odom,doorways,0,1,0,2.89612579346,5.76183509827,1.0,0.0,0.0,0.928067473489,0.37241208983,0.2,0.67751377821,1.8,0.0,1.0,0.0,1.0,2000000000,0,,,0
1449618262103149755,148,1449618262046007406,/odom,doorways,0,1,0,2.89207816124,5.74969148636,1.0,0.0,0.0,0.926117215734,0.377235871467,0.2,0.727239370346,1.8,0.0,1.0,0.0,1.0,2000000000,0,,,0
1449618262214376643,149,1449618262163180186,/odom,doorways,0,1,0,2.87930297852,5.74797916412,1.0,0.0,0.0,0.927498645322,0.373826514476,0.2,0.727432847023,1.8,0.0,1.0,0.0,1.0,2000000000,0,,,0
1449618262321317211,150,1449618262257332600,/odom,doorways,0,1,0,2.87643814087,5.7505812645,1.0,0.0,0.0,0.929109453899,0.369804844039,0.2,0.737397909164,1.8,0.0,1.0,0.0,1.0,2000000000,0,,,0
1449618262420735731,151,1449618262370415479,/odom,doorways,0,1,0,2.92306256294,5.72870826721,1.0,0.0,0.0,0.93150100629,0.363738745917,0.2,0.747558236122,1.8,0.0,1.0,0.0,1.0,2000000000,0,,,0
1449618262495427372,152,1449618262444227282,/odom,doorways,0,1,0,2.87232327461,5.78762149811,1.0,0.0,0.0,0.92201000904,0.387166040906,0.2,0.677436351776,1.8,0.0,1.0,0.0,1.0,2000000000,0,,,0
1449618262623908431,153,1449618262573059910,/odom,doorways,0,1,0,2.87928032875,5.75816726685,1.0,0.0,0.0,0.926635964475,0.375959824107,0.2,0.717460989952,1.8,0.0,1.0,0.0,1.0,2000000000,0,,,0
1449618262917540670,154,1449618262867013324,/odom,doorways,0,1,0,2.88581752777,5.76512384415,1.0,0.0,0.0,0.927397437087,0.374077523629,0.2,0.717460691929,1.8,0.0,1.0,0.0,1.0,2000000000,0,,,0
1449618263274530285,155,1449618263223454075,/odom,doorways,0,1,0,2.90253257751,5.77029800415,1.0,0.0,0.0,0.928100639532,0.372329427926,0.2,0.717625319958,1.8,0.0,1.0,0.0,1.0,2000000000,0,,,0
1449618263569542816,156,1449618263519344597,/odom,doorways,0,1,0,2.89089894295,5.76522636414,1.0,0.0,0.0,0.927485361885,0.373859470242,0.2,0.708256483078,1.8,0.0,1.0,0.0,1.0,2000000000,0,,,0
1449618263758536087,157,1449618263708324818,/odom,doorways,0,1,0,2.87600851059,5.81163597107,1.0,0.0,0.0,0.925767037619,0.378094422146,0.2,0.689238071442,1.8,0.0,1.0,0.0,1.0,2000000000,0,,,0
1449618264041204382,158,1449618263987280364,/odom,doorways,0,1,0,2.87530088425,5.78295707703,1.0,0.0,0.0,0.93654890805,0.350536935043,0.2,0.728028416634,1.8,0.0,1.0,0.0,1.0,2000000000,0,,,0
1449618264166271414,159,1449618264113592107,/odom,doorways,0,1,0,2.8910908699,5.77454090118,1.0,0.0,0.0,0.930433197652,0.366461546015,0.2,0.728533267975,1.8,0.0,1.0,0.0,1.0,2000000000,0,,,0
1449618264276966371,160,1449618264226244290,/odom,doorways,0,1,0,2.87312030792,5.80044269562,1.0,0.0,0.0,0.922218203001,0.38666986701,0.2,0.728089869022,1.8,0.0,1.0,0.0,1.0,2000000000,0,,,0
1449618264399975901,161,1449618264348962129,/odom,doorways,0,1,0,2.84492230415,5.80265235901,1.0,0.0,0.0,0.927592084636,0.373594599159,0.2,0.719599604607,1.8,0.0,1.0,0.0,1.0,2000000000,0,,,0
1449618264506045492,162,1449618264447383548,/odom,doorways,0,1,0,2.87244939804,5.78305053711,1.0,0.0,0.0,0.932074884255,0.362265662383,0.2,0.737939596176,1.8,0.0,1.0,0.0,1.0,2000000000,0,,,0
1449618264661679374,163,1449618264609655638,/odom,doorways,0,1,0,2.8688955307,5.77727890015,1.0,0.0,0.0,0.932786438363,0.360429549851,0.2,0.728555202484,1.8,0.0,1.0,0.0,1.0,2000000000,0,,,0
1449618264759283430,164,1449618264694470165,/odom,doorways,0,1,0,2.88339662552,5.78283548355,1.0,0.0,0.0,0.931428642706,0.363924007928,0.2,0.728079617023,1.8,0.0,1.0,0.0,1.0,2000000000,0,,,0
1449618264888729249,165,1449618264837394650,/odom,doorways,0,1,0,2.83488798141,5.85151958466,1.0,0.0,0.0,0.908706933459,0.417434676427,0.2,0.697444796562,1.8,0.0,1.0,0.0,1.0,2000000000,0,,,0
1449618265261777749,166,1449618265206170929,/odom,doorways,0,1,0,2.88415622711,5.77741861343,1.0,0.0,0.0,0.93797998243,0.346689418012,0.2,0.727331280708,1.8,0.0,1.0,0.0,1.0,2000000000,0,,,0
1449618265289668406,167,1449618265237733804,/odom,doorways,1,1,0,-0.118080317974,7.5166387558,1.0,0.0,0.0,-0.933951448796,0.357399903878,0.2,0.849948883057,1.8,0.0,1.0,0.0,1.0,2000000000,0,,,0
1449618265393798804,168,1449618265341336936,/odom,doorways,0,1,0,2.88936805725,5.78952884674,1.0,0.0,0.0,0.933141701129,0.359508783778,0.2,0.737357676029,1.8,0.0,1.0,0.0,1.0,2000000000,0,,,0
1449618265481846137,169,1449618265428527590,/odom,doorways,0,1,0,-0.239589631557,7.66049003601,1.0,0.0,0.0,-0.933190349456,0.359382486611,0.2,1.01971578598,1.8,0.0,1.0,0.0,1.0,2000000000,0,,,0
1449618265571153624,170,1449618265520671332,/odom,doorways,0,1,0,-0.160496532917,7.58199214935,1.0,0.0,0.0,-0.934071726074,0.357085438723,0.2,1.01978051662,1.8,0.0,1.0,0.0,1.0,2000000000,0,,,0
1449618265676106631,171,1449618265625985303,/odom,doorways,0,1,0,-0.156174272299,7.55930137634,1.0,0.0,0.0,-0.933466024241,0.358665835545,0.2,0.969818294048,1.8,0.0,1.0,0.0,1.0,2000000000,0,,,0
1449618265752579839,172,1449618265701131147,/odom,doorways,0,1,0,-0.17748850584,7.59160995483,1.0,0.0,0.0,-0.933473627079,0.358646047723,0.2,0.929909646511,1.8,0.0,1.0,0.0,1.0,2000000000,0,,,0
1449618265973936425,173,1449618265923690061,/odom,doorways,0,1,0,-0.100084066391,7.45672464371,1.0,0.0,0.0,-0.930840637998,0.365425377677,0.2,0.729970216751,1.8,0.0,1.0,0.0,1.0,2000000000,0,,,0
1449618266098705925,174,1449618266032907718,/odom,doorways,0,1,0,-0.21570661664,7.56664276123,1.0,0.0,0.0,-0.926342052217,0.376683424502,0.2,1.07941007614,1.8,0.0,1.0,0.0,1.0,2000000000,0,,,0
1449618266281456119,175,1449618266230441110,/odom,doorways,0,1,0,-0.0640784054995,7.43158912659,1.0,0.0,0.0,-0.926973063756,0.375127896951,0.2,0.6397767663,1.8,0.0,1.0,0.0,1.0,2000000000,0,,,0
1449618266385720379,176,1449618266335342991,/odom,doorways,0,1,0,-0.203273564577,7.59347057343,1.0,0.0,0.0,-0.930033160277,0.3674756057,0.2,0.97989743948,1.8,0.0,1.0,0.0,1.0,2000000000,0,,,0
1449618266570394534,177,1449618266518130440,/odom,doorways,0,1,0,-0.1656036973,7.55747795105,1.0,0.0,0.0,-0.931237206756,0.364413590243,0.2,0.789969265461,1.8,0.0,1.0,0.0,1.0,2000000000,0,,,0
1449618266838519864,178,1449618266788326020,/odom,doorways,0,1,0,-0.19492739439,7.58630561829,1.0,0.0,0.0,-0.928359663267,0.37168311183,0.2,1.0797752142,1.8,0.0,1.0,0.0,1.0,2000000000,0,,,0
1449618267481568988,179,1449618267429944647,/odom,doorways,0,1,0,-0.216044902802,7.61143875122,1.0,0.0,0.0,-0.926254134147,0.376899560859,0.2,1.06968832016,1.8,0.0,1.0,0.0,1.0,2000000000,0,,,0
1449618269664309407,180,1449618269614075364,/odom,doorways,0,1,0,-1.04040706158,8.51442050934,1.0,0.0,0.0,-0.930145071648,0.367192246226,0.2,0.639986038208,1.8,0.0,1.0,0.0,1.0,2000000000,0,,,0
1449618270617361326,181,1449618270563292509,/odom,doorways,0,1,0,-1.02621054649,8.49392318726,1.0,0.0,0.0,-0.929976885127,0.367617998921,0.2,0.659947752953,1.8,0.0,1.0,0.0,1.0,2000000000,0,,,0
1449618270821818776,182,1449618270771231966,/odom,doorways,0,1,0,-1.01665520668,8.50530147552,1.0,0.0,0.0,-0.930683340331,0.365825805583,0.2,0.639985620975,1.8,0.0,1.0,0.0,1.0,2000000000,0,,,0
1449618271129307093,183,1449618271078035734,/odom,doorways,0,1,0,-1.0358941555,8.55318450928,1.0,0.0,0.0,-0.931885774059,0.36275184921,0.2,0.749986350536,1.8,0.0,1.0,0.0,1.0,2000000000,0,,,0
1449618271526180455,184,1449618271475754724,/odom,doorways,0,1,0,-1.03965365887,8.50434684753,1.0,0.0,0.0,-0.929480909655,0.368870219166,0.2,0.679976403713,1.8,0.0,1.0,0.0,1.0,2000000000,0,,,0
1449618271964367386,185,1449618271914157170,/odom,doorways,0,1,0,-1.03844881058,8.52273845673,1.0,0.0,0.0,-0.930052438102,0.367426812279,0.2,0.639953732491,1.8,0.0,1.0,0.0,1.0,2000000000,0,,,0
1449618272136308911,186,1449618272085406129,/odom,doorways,0,1,0,-1.03523099422,8.50070953369,1.0,0.0,0.0,-0.929216032293,0.369536960709,0.2,0.680005311966,1.8,0.0,1.0,0.0,1.0,2000000000,0,,,0
1449618272767512363,187,1449618272716525170,/odom,doorways,0,1,0,-0.976626873016,8.52528572083,1.0,0.0,0.0,-0.931695690023,0.363239784706,0.2,0.639940977097,1.8,0.0,1.0,0.0,1.0,2000000000,0,,,0
1449618274008341916,188,1449618273957523692,/odom,doorways,0,1,0,-1.08940303326,8.53572750092,1.0,0.0,0.0,-0.928937346236,0.370236960295,0.2,0.799886465073,1.8,0.0,1.0,0.0,1.0,2000000000,0,,,0
1449618276251002683,189,1449618276200724187,/odom,doorways,0,1,0,-0.204438060522,7.62130498886,1.0,0.0,0.0,-0.927611382843,0.373546680375,0.2,0.969428420067,1.8,0.0,1.0,0.0,1.0,2000000000,0,,,0
1449618276499724995,190,1449618276449472281,/odom,doorways,0,1,0,-0.196566015482,7.59154224396,1.0,0.0,0.0,-0.930992883121,0.36503732902,0.2,1.03989756107,1.8,0.0,1.0,0.0,1.0,2000000000,0,,,0
1449618276601726228,191,1449618276550908207,/odom,doorways,0,1,0,-0.219916164875,7.57328224182,1.0,0.0,0.0,-0.926656778565,0.37590851911,0.2,0.979435503483,1.8,0.0,1.0,0.0,1.0,2000000000,0,,,0
1449618276694534646,192,1449618276641669243,/odom,doorways,0,1,0,-0.0938814580441,7.53112983704,1.0,0.0,0.0,-0.930753878662,0.365646300892,0.2,0.759710490704,1.8,0.0,1.0,0.0,1.0,2000000000,0,,,0
1449618276786605299,193,1449618276731558719,/odom,doorways,0,1,0,-0.187682747841,7.60007953644,1.0,0.0,0.0,-0.933515691321,0.358536544939,0.2,0.979634702206,1.8,0.0,1.0,0.0,1.0,2000000000,0,,,0
1449618276899215959,194,1449618276848976367,/odom,doorways,0,1,0,-0.244519412518,7.61605548859,1.0,0.0,0.0,-0.931140450497,0.364660748433,0.2,1.07992637157,1.8,0.0,1.0,0.0,1.0,2000000000,0,,,0
1449618277056252525,195,1449618277005624185,/odom,doorways,0,1,0,-0.190239071846,7.5921497345,1.0,0.0,0.0,-0.932594694234,0.360925388807,0.2,0.999953567982,1.8,0.0,1.0,0.0,1.0,2000000000,0,,,0
1449618277210046483,196,1449618277159857812,/odom,doorways,0,1,0,2.85714578629,5.82151985168,1.0,0.0,0.0,0.933403042742,0.358829708636,0.2,0.737624466419,1.8,0.0,1.0,0.0,1.0,2000000000,0,,,0
1449618277317937545,197,1449618277267796653,/odom,doorways,0,1,0,2.85475754738,5.81871271133,1.0,0.0,0.0,0.931903956221,0.362705136963,0.2,0.737572073936,1.8,0.0,1.0,0.0,1.0,2000000000,0,,,0
1449618277332856851,198,1449618277280770582,/odom,doorways,1,1,0,-0.171316504478,7.63873147964,1.0,0.0,0.0,-0.934900243565,0.354910600831,0.2,1.05923831463,1.8,0.0,1.0,0.0,1.0,2000000000,0,,,0
1449618277491520118,199,1449618277440345463,/odom,doorways,0,1,0,2.87380599976,5.83051919937,1.0,0.0,0.0,0.932494240586,0.361184843638,0.2,0.73766720295,1.8,0.0,1.0,0.0,1.0,2000000000,0,,,0
1449618277524613943,200,1449618277462742930,/odom,doorways,1,1,0,-0.201350748539,7.67515182495,1.0,0.0,0.0,-0.93529602599,0.353866279499,0.2,1.03998148441,1.8,0.0,1.0,0.0,1.0,2000000000,0,,,0
1449618277645568426,201,1449618277594540294,/odom,doorways,0,1,0,2.86173439026,5.81832313538,1.0,0.0,0.0,0.932090899481,0.362224454041,0.2,0.737592816353,1.8,0.0,1.0,0.0,1.0,2000000000,0,,,0
1449618277667179133,202,1449618277614080699,/odom,doorways,1,1,0,-0.0975614190102,7.56639719009,1.0,0.0,0.0,-0.937654578584,0.347568541816,0.2,0.82965362072,1.8,0.0,1.0,0.0,1.0,2000000000,0,,,0
1449618277802002652,203,1449618277749571971,/odom,doorways,0,1,0,2.86018705368,5.81041431427,1.0,0.0,0.0,0.931757811551,0.363080405163,0.2,0.727481365204,1.8,0.0,1.0,0.0,1.0,2000000000,0,,,0
1449618277805960306,204,1449618277754643842,/odom,doorways,1,1,0,-0.156661093235,7.6016163826,1.0,0.0,0.0,-0.934561988401,0.35580035109,0.2,1.04974603653,1.8,0.0,1.0,0.0,1.0,2000000000,0,,,0
1449618277890831132,205,1449618277839070035,/odom,doorways,0,1,0,2.87320423126,5.81926822662,1.0,0.0,0.0,0.932346746598,0.361565407787,0.2,0.727486670017,1.8,0.0,1.0,0.0,1.0,2000000000,0,,,0
1449618278010495197,206,1449618277960183249,/odom,doorways,0,1,0,2.85871505737,5.81173706055,1.0,0.0,0.0,0.932241456437,0.361836795945,0.2,0.727590680122,1.8,0.0,1.0,0.0,1.0,2000000000,0,,,0
1449618278094010683,207,1449618278042709149,/odom,doorways,0,1,0,2.8704419136,5.8214302063,1.0,0.0,0.0,0.932007309324,0.362439478211,0.2,0.727696835995,1.8,0.0,1.0,0.0,1.0,2000000000,0,,,0
1449618278191456066,208,1449618278140793028,/odom,doorways,0,1,0,2.85246086121,5.81334590912,1.0,0.0,0.0,0.929377862234,0.369129772829,0.2,0.727918803692,1.8,0.0,1.0,0.0,1.0,2000000000,0,,,0
1449618278287372065,209,1449618278237190331,/odom,doorways,0,1,0,2.86803388596,5.82405948639,1.0,0.0,0.0,0.932059990599,0.362303980002,0.2,0.727927803993,1.8,0.0,1.0,0.0,1.0,2000000000,0,,,0
1449618278414201433,210,1449618278360644241,/odom,doorways,0,1,0,2.86423206329,5.82824611664,1.0,0.0,0.0,0.930840485239,0.365425766799,0.2,0.727976083755,1.8,0.0,1.0,0.0,1.0,2000000000,0,,,0
1449618278491590752,211,1449618278440947826,/odom,doorways,0,1,0,2.86527109146,5.83184671402,1.0,0.0,0.0,0.930801610429,0.36552477621,0.2,0.718192517757,1.8,0.0,1.0,0.0,1.0,2000000000,0,,,0
1449618278585288095,212,1449618278534361590,/odom,doorways,0,1,0,2.86396312714,5.83345890045,1.0,0.0,0.0,0.929316149795,0.36928511171,0.2,0.728244125843,1.8,0.0,1.0,0.0,1.0,2000000000,0,,,0
1449618278742696370,213,1449618278685445828,/odom,doorways,0,1,0,2.84578824043,5.81468200684,1.0,0.0,0.0,0.930182718579,0.367096867403,0.2,0.728462219238,1.8,0.0,1.0,0.0,1.0,2000000000,0,,,0
1449618278858165674,214,1449618278806763589,/odom,doorways,0,1,0,2.8533782959,5.8367061615,1.0,0.0,0.0,0.929579222174,0.368622394466,0.2,0.718529284,1.8,0.0,1.0,0.0,1.0,2000000000,0,,,0
1449618278993445970,215,1449618278941973611,/odom,doorways,0,1,0,2.83270931244,5.8159570694,1.0,0.0,0.0,0.929935360231,0.36772302864,0.2,0.728713095188,1.8,0.0,1.0,0.0,1.0,2000000000,0,,,0
1449618279141866984,216,1449618279088992044,/odom,doorways,0,1,0,2.8373169899,5.82273817062,1.0,0.0,0.0,0.929268004431,0.369406247836,0.2,0.718869924545,1.8,0.0,1.0,0.0,1.0,2000000000,0,,,0
1449618279306186861,217,1449618279250311353,/odom,doorways,0,1,0,2.82224178314,5.81389951706,1.0,0.0,0.0,0.930527757159,0.366221371792,0.2,0.719052314758,1.8,0.0,1.0,0.0,1.0,2000000000,0,,,0
1449618279409280021,218,1449618279357950873,/odom,doorways,0,1,0,2.82885122299,5.82453918457,1.0,0.0,0.0,0.929298277159,0.36933008552,0.2,0.728980839252,1.8,0.0,1.0,0.0,1.0,2000000000,0,,,0
1449618279519725090,219,1449618279469359609,/odom,doorways,0,1,0,2.80991125107,5.83639240265,1.0,0.0,0.0,0.93434093442,0.356380440355,0.2,0.728812038898,1.8,0.0,1.0,0.0,1.0,2000000000,0,,,0
1449618279623289560,220,1449618279571626061,/odom,doorways,0,1,0,2.82591176033,5.8124370575,1.0,0.0,0.0,0.930587655806,0.366069139456,0.2,0.7189270854,1.8,0.0,1.0,0.0,1.0,2000000000,0,,,0
1449618280066050618,221,1449618280015477715,/odom,doorways,0,1,0,2.39589238167,4.74013757706,1.0,0.0,0.0,-0.932726769252,0.360583934641,0.2,0.658594191074,1.8,0.0,1.0,0.0,1.0,2000000000,0,,,0
1449618282012837554,222,1449618281962134794,/odom,doorways,0,1,0,0.000915825366974,3.51648712158,1.0,0.0,0.0,-0.911436406625,0.411440975936,0.2,0.747986078262,1.8,0.0,1.0,0.0,1.0,2000000000,0,,,0
1449618282503565245,223,1449618282450051651,/odom,doorways,0,1,0,0.0214494764805,3.48553466797,1.0,0.0,0.0,-0.918201359863,0.396113951719,0.2,0.946772158146,1.8,0.0,1.0,0.0,1.0,2000000000,0,,,0
1449618282789623960,224,1449618282737479862,/odom,doorways,0,1,0,-0.00863899290562,3.43748164177,1.0,0.0,0.0,-0.916221366657,0.400672443876,0.2,0.679782629013,1.8,0.0,1.0,0.0,1.0,2000000000,0,,,0
1449618282975615042,225,1449618282925203314,/odom,doorways,0,1,0,0.0474615842104,3.38169622421,1.0,0.0,0.0,-0.922157511745,0.386814585469,0.2,0.658483326435,1.8,0.0,1.0,0.0,1.0,2000000000,0,,,0
1449618283346729995,226,1449618283296431755,/odom,doorways,0,1,0,0.0415691137314,3.35873436928,1.0,0.0,0.0,-0.925861374665,0.377863354805,0.2,0.768054127693,1.8,0.0,1.0,0.0,1.0,2000000000,0,,,0
1449618283574469644,227,1449618283521953014,/odom,doorways,0,1,0,0.0909848213196,3.32515597343,1.0,0.0,0.0,-0.933873198929,0.357604318097,0.2,0.868059754372,1.8,0.0,1.0,0.0,1.0,2000000000,0,,,0
1449618283655699874,228,1449618283605474211,/odom,doorways,1,1,0,2.63079857826,3.82481265068,1.0,0.0,0.0,0.999993168115,0.00369644728326,0.2,0.879777610302,1.8,0.0,1.0,0.0,1.0,2000000000,0,,,0
1449618284039273259,229,1449618283914691066,/odom,doorways,0,1,0,2.51706981659,3.88021206856,1.0,0.0,0.0,-0.999030179249,0.0440306819182,0.2,1.00945830345,1.8,0.0,1.0,0.0,1.0,2000000000,0,,,0
1449618284315756666,230,1449618284262537929,/odom,doorways,0,1,0,1.16887199879,2.19306373596,1.0,0.0,0.0,-0.934695087677,0.355450549405,0.2,1.03693270683,1.8,0.0,1.0,0.0,1.0,2000000000,0,,,0
1449618284398374622,231,1449618284348254058,/odom,doorways,1,1,0,2.5558681488,3.87404584885,1.0,0.0,0.0,-0.999101411251,0.0423836057384,0.2,1.01994264126,1.8,0.0,1.0,0.0,1.0,2000000000,0,,,0
1449618284965701376,232,1449618284901038244,/odom,doorways,0,1,0,2.40185308456,0.587117791176,1.0,0.0,0.0,0.999833527849,0.0182460019865,0.2,0.849816262722,1.8,0.0,1.0,0.0,1.0,2000000000,0,,,0
1449618284967220131,233,1449618284916336239,/odom,doorways,1,1,0,2.52058911324,3.83924388885,1.0,0.0,0.0,0.999833527429,0.0182460250142,0.2,0.959791302681,1.8,0.0,1.0,0.0,1.0,2000000000,0,,,0
1449618285376917205,234,1449618285326670469,/odom,doorways,0,1,0,2.52365279198,3.82422924042,1.0,0.0,0.0,0.999999689566,0.000787951998357,0.2,0.918633401394,1.8,0.0,1.0,0.0,1.0,2000000000,0,,,0
1449618285623878305,235,1449618285573115060,/odom,doorways,0,1,0,2.60023021698,3.77637910843,1.0,0.0,0.0,0.999998780512,0.00156172134883,0.2,0.909954667091,1.8,0.0,1.0,0.0,1.0,2000000000,0,,,0
1449618285814035391,236,1449618285763126545,/odom,doorways,0,1,0,2.59606122971,3.78742051125,1.0,0.0,0.0,0.999960700754,0.00886549193491,0.2,0.947876691818,1.8,0.0,1.0,0.0,1.0,2000000000,0,,,0
1449618286314405659,237,1449618286263739470,/odom,doorways,0,1,0,3.52109694481,0.0215407013893,1.0,0.0,0.0,-0.91326330507,0.40736977749,0.2,0.708939135075,1.8,0.0,1.0,0.0,1.0,2000000000,0,,,0
1449618286979581431,238,1449618286929217938,/odom,doorways,0,1,0,2.66483616829,0.596795260906,1.0,0.0,0.0,-0.909865068508,0.414904274634,0.2,0.679450809956,1.8,0.0,1.0,0.0,1.0,2000000000,0,,,0
1449618287023866727,239,1449618286971534404,/odom,doorways,1,1,0,1.13230633736,2.18641328812,1.0,0.0,0.0,-0.931462666711,0.363836914735,0.2,0.647883236408,1.8,0.0,1.0,0.0,1.0,2000000000,0,,,0
1449618287305572128,240,1449618287250385954,/odom,doorways,0,1,0,1.22521543503,2.01802778244,1.0,0.0,0.0,-0.925708040283,0.378238845382,0.2,1.06785905361,1.8,0.0,1.0,0.0,1.0,2000000000,0,,,0
1449618287308677887,241,1449618287258325690,/odom,doorways,1,1,0,2.6544175148,0.561086416245,1.0,0.0,0.0,-0.925707391584,0.378240433014,0.2,0.65867716074,1.8,0.0,1.0,0.0,1.0,2000000000,0,,,0
1449618287365941623,242,1449618287314672442,/odom,doorways,2,1,0,3.53162002563,-0.0917896777391,1.0,0.0,0.0,-0.923665361647,0.383200077889,0.2,0.698789060116,1.8,0.0,1.0,0.0,1.0,2000000000,0,,,0
1449618287668794642,243,1449618287617899492,/odom,doorways,0,1,0,2.61425542831,0.53589951992,1.0,0.0,0.0,-0.931503140027,0.363733281568,0.2,0.688466370106,1.8,0.0,1.0,0.0,1.0,2000000000,0,,,0
1449618287692464712,244,1449618287641647800,/odom,doorways,1,1,0,3.27782511711,-0.198317274451,1.0,0.0,0.0,-0.869372530766,0.4941572652,0.2,0.899874448776,1.8,0.0,1.0,0.0,1.0,2000000000,0,,,0
1449618287752976209,245,1449618287665740786,/odom,doorways,2,1,0,1.94735312462,1.13337528706,1.0,0.0,0.0,-0.916587528309,0.399834094279,0.2,0.779497027397,1.8,0.0,1.0,0.0,1.0,2000000000,0,,,0
1449618287752979858,246,1449618287678283496,/odom,doorways,3,1,0,2.61025953293,0.51813262701,1.0,0.0,0.0,-0.916587303207,0.399834610307,0.2,0.769502818584,1.8,0.0,1.0,0.0,1.0,2000000000,0,,,0
1449618287936161789,247,1449618287883275028,/odom,doorways,0,1,0,2.65009379387,0.531246304512,1.0,0.0,0.0,-0.927546389353,0.373708035234,0.2,0.719441354275,1.8,0.0,1.0,0.0,1.0,2000000000,0,,,0
1449618288131502830,248,1449618288081134440,/odom,doorways,0,1,0,2.60337996483,0.544169306755,1.0,0.0,0.0,-0.925842272768,0.377910155932,0.2,0.649723231792,1.8,0.0,1.0,0.0,1.0,2000000000,0,,,0
1449618288366524802,249,1449618288316387698,/odom,doorways,0,1,0,2.64128613472,0.506784200668,1.0,0.0,0.0,-0.923042826338,0.384697206574,0.2,0.729968726635,1.8,0.0,1.0,0.0,1.0,2000000000,0,,,0
1449618288558460112,250,1449618288507610558,/odom,doorways,0,1,0,2.64487886429,0.53487187624,1.0,0.0,0.0,-0.924519077704,0.381135769721,0.2,0.709622621536,1.8,0.0,1.0,0.0,1.0,2000000000,0,,,0
1449618288840450029,251,1449618288789760927,/odom,doorways,0,1,0,2.59207105637,0.521459341049,1.0,0.0,0.0,-0.924499998133,0.381182047652,0.2,0.679892122746,1.8,0.0,1.0,0.0,1.0,2000000000,0,,,0
1449618288845720252,252,1449618288795295675,/odom,doorways,1,1,0,3.47998523712,-0.372242212296,1.0,0.0,0.0,-0.924499867857,0.381182363618,0.2,0.639898002148,1.8,0.0,1.0,0.0,1.0,2000000000,0,,,0
1449618289072825275,253,1449618289021809195,/odom,doorways,0,1,0,2.59863710403,0.530864536762,1.0,0.0,0.0,-0.924749362759,0.380576688826,0.2,0.669507443905,1.8,0.0,1.0,0.0,1.0,2000000000,0,,,0
1449618289340845500,254,1449618289290594785,/odom,doorways,0,1,0,2.64878225327,0.503282189369,1.0,0.0,0.0,-0.925907497596,0.377750322164,0.2,0.709802746773,1.8,0.0,1.0,0.0,1.0,2000000000,0,,,0
1449618289545642531,255,1449618289494601533,/odom,doorways,0,1,0,2.63091826439,0.517100691795,1.0,0.0,0.0,-0.927303721601,0.374309775326,0.2,0.679725289345,1.8,0.0,1.0,0.0,1.0,2000000000,0,,,0
1449618289582716357,256,1449618289505922647,/odom,doorways,1,1,0,3.48096704483,-0.364279866219,1.0,0.0,0.0,-0.927303781194,0.374309627692,0.2,0.649737656116,1.8,0.0,1.0,0.0,1.0,2000000000,0,,,0
1449618289729249647,257,1449618289679075378,/odom,doorways,0,1,0,2.66631197929,0.525597810745,1.0,0.0,0.0,-0.925028856472,0.379896847439,0.2,0.668889224529,1.8,0.0,1.0,0.0,1.0,2000000000,0,,,0
1449618289830042176,258,1449618289779825211,/odom,doorways,0,1,0,2.63209247589,0.514839291573,1.0,0.0,0.0,-0.927169222898,0.374642806032,0.2,0.659627616405,1.8,0.0,1.0,0.0,1.0,2000000000,0,,,0
1449618289965979238,259,1449618289915838609,/odom,doorways,0,1,0,2.66423869133,0.491446077824,1.0,0.0,0.0,-0.927808632262,0.373056486207,0.2,0.679717302322,1.8,0.0,1.0,0.0,1.0,2000000000,0,,,0
1449618289976124208,260,1449618289925861317,/odom,doorways,1,1,0,3.50497293472,-0.385002732277,1.0,0.0,0.0,-0.927808551781,0.373056686364,0.2,0.649729430676,1.8,0.0,1.0,0.0,1.0,2000000000,0,,,0
1449618290139856242,261,1449618290088537736,/odom,doorways,0,1,0,2.62274169922,0.509758889675,1.0,0.0,0.0,-0.92464495122,0.38083029578,0.2,0.719487130642,1.8,0.0,1.0,0.0,1.0,2000000000,0,,,0
1449618290146060275,262,1449618290095898199,/odom,doorways,1,1,0,3.50948429108,-0.384123206139,1.0,0.0,0.0,-0.924644860324,0.380830516473,0.2,0.659529566765,1.8,0.0,1.0,0.0,1.0,2000000000,0,,,0
1449618290364914778,263,1449618290314656983,/odom,doorways,0,1,0,2.648198843,0.50461602211,1.0,0.0,0.0,-0.925189222832,0.379506129009,0.2,0.679776966572,1.8,0.0,1.0,0.0,1.0,2000000000,0,,,0
1449618290389597924,264,1449618290339341488,/odom,doorways,1,1,0,3.52920842171,-0.388589441776,1.0,0.0,0.0,-0.925189307179,0.379505923382,0.2,0.729760944843,1.8,0.0,1.0,0.0,1.0,2000000000,0,,,0
1449618290523637887,265,1449618290473353019,/odom,doorways,0,1,0,2.60449242592,0.500756263733,1.0,0.0,0.0,-0.926084270896,0.377316741212,0.2,0.689715862274,1.8,0.0,1.0,0.0,1.0,2000000000,0,,,0
1449618290530046456,266,1449618290478425145,/odom,doorways,1,1,0,3.48119330406,-0.396530866623,1.0,0.0,0.0,-0.92608428318,0.377316711062,0.2,0.639736533165,1.8,0.0,1.0,0.0,1.0,2000000000,0,,,0
1449618290650348387,267,1449618290600097076,/odom,doorways,0,1,0,2.60759043694,0.493579983711,1.0,0.0,0.0,-0.927016555213,0.375020407926,0.2,0.719802320004,1.8,0.0,1.0,0.0,1.0,2000000000,0,,,0
1449618290848162723,268,1449618290797953912,/odom,doorways,0,1,0,2.61006951332,0.520629167557,1.0,0.0,0.0,-0.926436891485,0.376450111032,0.2,0.719584584236,1.8,0.0,1.0,0.0,1.0,2000000000,0,,,0
1449618290854438283,269,1449618290804104032,/odom,doorways,1,1,0,3.48145961761,-0.374567508698,1.0,0.0,0.0,-0.926436963532,0.376449933726,0.2,0.639630973339,1.8,0.0,1.0,0.0,1.0,2000000000,0,,,0
1449618291029805510,270,1449618290979463588,/odom,doorways,0,1,0,2.64674663544,0.489107728004,1.0,0.0,0.0,-0.925756112239,0.378121171918,0.2,0.679741740227,1.8,0.0,1.0,0.0,1.0,2000000000,0,,,0
1449618291238786566,271,1449618291188435682,/odom,doorways,0,1,0,2.62611627579,0.492357611656,1.0,0.0,0.0,-0.926958079364,0.375164922537,0.2,0.689801216125,1.8,0.0,1.0,0.0,1.0,2000000000,0,,,0
1449618291250875387,272,1449618291200634374,/odom,doorways,1,1,0,3.4952712059,-0.40551173687,1.0,0.0,0.0,-0.926958068708,0.375164948866,0.2,0.729789674282,1.8,0.0,1.0,0.0,1.0,2000000000,0,,,0
1449618291440187137,273,1449618291389917252,/odom,doorways,0,1,0,2.59815359116,0.484277427197,1.0,0.0,0.0,-0.92549677238,0.378755494105,0.2,0.709754347801,1.8,0.0,1.0,0.0,1.0,2000000000,0,,,0
1449618291641921901,274,1449618291583786461,/odom,doorways,0,1,0,2.62518811226,0.491693079472,1.0,0.0,0.0,-0.926139706131,0.377180652641,0.2,0.699850678444,1.8,0.0,1.0,0.0,1.0,2000000000,0,,,0
1449618291644174516,275,1449618291594001149,/odom,doorways,1,1,0,3.49830675125,-0.402454078197,1.0,0.0,0.0,-0.926139780298,0.37718047053,0.2,0.639863729477,1.8,0.0,1.0,0.0,1.0,2000000000,0,,,0
1449618292250814189,276,1449618292197450033,/odom,doorways,0,1,0,3.48670554161,-0.420975327492,1.0,0.0,0.0,-0.925685430771,0.378294175555,0.2,0.649925947189,1.8,0.0,1.0,0.0,1.0,2000000000,0,,,0
1449618292660169775,277,1449618292609826201,/odom,doorways,0,1,0,3.49971055984,-0.435278654099,1.0,0.0,0.0,-0.925111315426,0.379696002178,0.2,0.679840445518,1.8,0.0,1.0,0.0,1.0,2000000000,0,,,0
1449618292826908245,278,1449618292776683029,/odom,doorways,0,1,0,3.49937796593,-0.430486738682,1.0,0.0,0.0,-0.925172012139,0.37954808385,0.2,0.649771213531,1.8,0.0,1.0,0.0,1.0,2000000000,0,,,0
1449618292951938199,279,1449618292901729105,/odom,doorways,0,1,0,3.5079741478,-0.437649071217,1.0,0.0,0.0,-0.92432260586,0.381612002295,0.2,0.669765532017,1.8,0.0,1.0,0.0,1.0,2000000000,0,,,0
1449618293144144860,280,1449618293093364413,/odom,doorways,0,1,0,3.47638273239,-0.421237587929,1.0,0.0,0.0,-0.925938897551,0.377673348282,0.2,0.639821827412,1.8,0.0,1.0,0.0,1.0,2000000000,0,,,0
1449618293352751745,281,1449618293302522843,/odom,doorways,0,1,0,3.50501227379,-0.448128283024,1.0,0.0,0.0,-0.923638907462,0.383263836832,0.2,0.719601094723,1.8,0.0,1.0,0.0,1.0,2000000000,0,,,0
1449618293565966214,282,1449618293513824041,/odom,doorways,0,1,0,3.50585961342,-0.43918299675,1.0,0.0,0.0,-0.922870856076,0.385109572727,0.2,0.659587144852,1.8,0.0,1.0,0.0,1.0,2000000000,0,,,0
1449618293736320404,283,1449618293686031307,/odom,doorways,0,1,0,3.51517367363,-0.457356989384,1.0,0.0,0.0,-0.923228947536,0.384250322617,0.2,0.659696757793,1.8,0.0,1.0,0.0,1.0,2000000000,0,,,0
1449618293962515929,284,1449618293907775056,/odom,doorways,0,1,0,3.43291401863,-0.449847340584,1.0,0.0,0.0,-0.923368551491,0.383914727663,0.2,0.67967581749,1.8,0.0,1.0,0.0,1.0,2000000000,0,,,0
1449618294131806031,285,1449618294081400819,/odom,doorways,0,1,0,3.51111316681,-0.483604043722,1.0,0.0,0.0,-0.917413486397,0.397935289937,0.2,0.668941259384,1.8,0.0,1.0,0.0,1.0,2000000000,0,,,0
1449618294346129476,286,1449618294289149700,/odom,doorways,0,1,0,3.47396183014,-0.455823421478,1.0,0.0,0.0,-0.92293174145,0.384963635457,0.2,0.689714848995,1.8,0.0,1.0,0.0,1.0,2000000000,0,,,0
1449618294771849520,287,1449618294721395659,/odom,doorways,0,1,0,3.44711208344,-0.478079259396,1.0,0.0,0.0,-0.920180558009,0.391494240905,0.2,0.709845542908,1.8,0.0,1.0,0.0,1.0,2000000000,0,,,0
1449618294960706803,288,1449618294910497868,/odom,doorways,0,1,0,3.46206235886,-0.466060787439,1.0,0.0,0.0,-0.921255471033,0.388958040272,0.2,0.699443995953,1.8,0.0,1.0,0.0,1.0,2000000000,0,,,0
1449618295821971953,289,1449618295771793392,/odom,doorways,0,1,0,3.43332242966,-0.482920348644,1.0,0.0,0.0,-0.917717499322,0.397233673594,0.2,0.729438364506,1.8,0.0,1.0,0.0,1.0,2000000000,0,,,0
1449618295929609711,290,1449618295879413337,/odom,doorways,0,1,0,3.44230651855,-0.515771627426,1.0,0.0,0.0,-0.913366592784,0.407138142633,0.2,0.709785759449,1.8,0.0,1.0,0.0,1.0,2000000000,0,,,0
1449618296178010016,291,1449618296120326427,/odom,doorways,0,1,0,3.41364574432,-0.495414167643,1.0,0.0,0.0,-0.916610182319,0.399782157768,0.2,0.739408195019,1.8,0.0,1.0,0.0,1.0,2000000000,0,,,0
1449618296341218353,292,1449618296291020650,/odom,doorways,0,1,0,3.45105648041,-0.496813118458,1.0,0.0,0.0,-0.915558561178,0.402184685255,0.2,0.719118058681,1.8,0.0,1.0,0.0,1.0,2000000000,0,,,0
1449618296454467716,293,1449618296403659604,/odom,doorways,0,1,0,3.46034812927,-0.484280645847,1.0,0.0,0.0,-0.91680666562,0.3993313635,0.2,0.729013442993,1.8,0.0,1.0,0.0,1.0,2000000000,0,,,0
1449618296629180967,294,1449618296578632831,/odom,doorways,0,1,0,3.46114397049,-0.488147288561,1.0,0.0,0.0,-0.917271067348,0.398263466825,0.2,0.68928194046,1.8,0.0,1.0,0.0,1.0,2000000000,0,,,0
1449618296859700963,295,1449618296805138883,/odom,doorways,0,1,0,3.43157672882,-0.478420913219,1.0,0.0,0.0,-0.917932347102,0.396736948297,0.2,0.699027597904,1.8,0.0,1.0,0.0,1.0,2000000000,0,,,0
1449618297041282716,296,1449618296990992202,/odom,doorways,0,1,0,3.44959616661,-0.476734936237,1.0,0.0,0.0,-0.917795917575,0.397052457091,0.2,0.718770802021,1.8,0.0,1.0,0.0,1.0,2000000000,0,,,0
1449618297229193300,297,1449618297179042175,/odom,doorways,0,1,0,3.4210190773,-0.482335180044,1.0,0.0,0.0,-0.919610858379,0.392830585814,0.2,0.669205129147,1.8,0.0,1.0,0.0,1.0,2000000000,0,,,0
1449618297462039168,298,1449618297406456895,/odom,doorways,0,1,0,3.48437786102,-0.509363651276,1.0,0.0,0.0,-0.915475886494,0.402372838606,0.2,0.649295389652,1.8,0.0,1.0,0.0,1.0,2000000000,0,,,0
1449618297752048981,299,1449618297701902778,/odom,doorways,0,1,0,3.43535161018,-0.49152225256,1.0,0.0,0.0,-0.920963714086,0.389648350871,0.2,0.698705077171,1.8,0.0,1.0,0.0,1.0,2000000000,0,,,0
1449618298012187241,300,1449618297961901444,/odom,doorways,0,1,0,3.42885708809,-0.488997668028,1.0,0.0,0.0,-0.920025846431,0.391857680669,0.2,0.66852581501,1.8,0.0,1.0,0.0,1.0,2000000000,0,,,0
1449618298056109288,301,1449618298004844513,/odom,doorways,1,1,0,2.40342402458,-1.0253483057,1.0,0.0,0.0,-0.655974649157,0.754782922213,0.2,1.07618916035,1.8,0.0,1.0,0.0,1.0,2000000000,0,,,0
1449618298377660650,302,1449618298316938510,/odom,doorways,0,1,0,1.87607264519,-0.894921839237,1.0,0.0,0.0,-0.367474475688,0.930033606768,0.2,0.72979080677,1.8,0.0,1.0,0.0,1.0,2000000000,0,,,0
1449618298411253576,303,1449618298360769447,/odom,doorways,1,1,0,3.42861151695,-0.487134069204,1.0,0.0,0.0,-0.92008697513,0.391714128155,0.2,0.688460111618,1.8,0.0,1.0,0.0,1.0,2000000000,0,,,0
1449618298739061678,304,1449618298688484518,/odom,doorways,0,1,0,0.414070904255,-1.69811689854,1.0,0.0,0.0,-0.889070424187,0.457770445569,0.2,0.949789643288,1.8,0.0,1.0,0.0,1.0,2000000000,0,,,0
1449618299328194155,305,1449618299277609815,/odom,doorways,0,1,0,1.87268185616,-0.885763347149,1.0,0.0,0.0,-0.360852619349,0.932622853628,0.2,0.729379951954,1.8,0.0,1.0,0.0,1.0,2000000000,0,,,0
1449618300249607383,306,1449618300199324468,/odom,doorways,0,1,0,1.79083025455,-0.989502310753,1.0,0.0,0.0,-0.370057439228,0.929008875992,0.2,0.909687161446,1.8,0.0,1.0,0.0,1.0,2000000000,0,,,0
1449618300516856535,307,1449618300455425406,/odom,doorways,0,1,0,1.79904103279,-0.984197497368,1.0,0.0,0.0,-0.364225931948,0.93131061977,0.2,0.898710012436,1.8,0.0,1.0,0.0,1.0,2000000000,0,,,0
1449618300516873061,308,1449618300458127256,/odom,doorways,1,1,0,2.44261145592,-0.287253081799,1.0,0.0,0.0,-0.364226093997,0.931310556394,0.2,0.639082431793,1.8,0.0,1.0,0.0,1.0,2000000000,0,,,0
1449618300773338720,309,1449618300723228662,/odom,doorways,0,1,0,-0.858388900757,-0.732909083366,1.0,0.0,0.0,-0.946981604977,0.321287783514,0.2,0.907420992851,1.8,0.0,1.0,0.0,1.0,2000000000,0,,,0
1449618300785202132,310,1449618300733871862,/odom,doorways,1,1,0,-0.00282663106918,-1.84864234924,1.0,0.0,0.0,-0.946982082834,0.321286375048,0.2,0.76781898737,1.8,0.0,1.0,0.0,1.0,2000000000,0,,,0
