%time,field.header.seq,field.header.stamp,field.header.frame_id,field.ns,field.id,field.type,field.action,field.pose.position.x,field.pose.position.y,field.pose.position.z,field.pose.orientation.x,field.pose.orientation.y,field.pose.orientation.z,field.pose.orientation.w,field.scale.x,field.scale.y,field.scale.z,field.color.r,field.color.g,field.color.b,field.color.a,field.lifetime,field.frame_locked,field.text,field.mesh_resource,field.mesh_use_embedded_materials
1449618223070294653,0,0,/odom,ucmd_vector,0,0,0,3.21622838287e-07,-6.08664578733e-05,0.0,0.0,0.0,0.0,1.0,0.00559730190992,0.05,0.05,0.0,0.0,1.0,1.0,0,0,,,0
1449618223100619866,1,0,/odom,ucmd_vector,0,0,0,3.21622838287e-07,-6.08664578733e-05,0.0,0.0,0.0,0.0,1.0,0.00559730190992,0.05,0.05,0.0,0.0,1.0,1.0,0,0,,,0
1449618223199328520,2,0,/odom,ucmd_vector,0,0,0,3.21622838287e-07,-6.08664578733e-05,0.0,0.0,0.0,0.0,1.0,0.0111846038198,0.05,0.05,0.0,0.0,1.0,1.0,0,0,,,0
1449618223209674699,3,0,/odom,ucmd_vector,0,0,0,3.21622838287e-07,-6.08664578733e-05,0.0,0.0,0.0,0.0,1.0,0.0111846038198,0.05,0.05,0.0,0.0,1.0,1.0,0,0,,,0
1449618223229038558,4,0,/odom,ucmd_vector,0,0,0,3.21622838287e-07,-6.08664578733e-05,0.0,0.0,0.0,0.0,1.0,0.189978263626,0.05,0.05,0.0,0.0,1.0,1.0,0,0,,,0
1449618223316423247,5,0,/odom,ucmd_vector,0,0,0,3.21622838287e-07,-6.08664578733e-05,0.0,0.0,0.0,0.0,1.0,0.189978263626,0.05,0.05,0.0,0.0,1.0,1.0,0,0,,,0
1449618223366655099,6,0,/odom,ucmd_vector,0,0,0,3.21622838287e-07,-6.08664578733e-05,0.0,0.0,0.0,0.0,1.0,0.189978263626,0.05,0.05,0.0,0.0,1.0,1.0,0,0,,,0
1449618223394256631,7,0,/odom,ucmd_vector,0,0,0,3.21622838287e-07,-6.08664578733e-05,0.0,0.0,0.0,0.0,1.0,0.167629048119,0.05,0.05,0.0,0.0,1.0,1.0,0,0,,,0
1449618223424326524,8,0,/odom,ucmd_vector,0,0,0,3.21622838287e-07,-6.08664578733e-05,0.0,0.0,0.0,0.0,1.0,0.184390962372,0.05,0.05,0.0,0.0,1.0,1.0,0,0,,,0
1449618223517258719,9,0,/odom,ucmd_vector,0,0,0,3.21622838287e-07,-6.08664578733e-05,0.0,0.0,0.0,0.0,1.0,0.184390962372,0.05,0.05,0.0,0.0,1.0,1.0,0,0,,,0
1449618223539478642,10,0,/odom,ucmd_vector,0,0,0,3.21622838287e-07,-6.08664578733e-05,0.0,0.0,0.0,0.0,1.0,0.184390962372,0.05,0.05,0.0,0.0,1.0,1.0,0,0,,,0
1449618223568204457,11,0,/odom,ucmd_vector,0,0,0,3.21622838287e-07,-6.08664578733e-05,0.0,0.0,0.0,0.0,1.0,0.189978263626,0.05,0.05,0.0,0.0,1.0,1.0,0,0,,,0
1449618223614477872,12,0,/odom,ucmd_vector,0,0,0,3.21622838287e-07,-6.08664578733e-05,0.0,0.0,0.0,0.0,1.0,0.173216349373,0.05,0.05,0.0,0.0,1.0,1.0,0,0,,,0
1449618223681166347,13,0,/odom,ucmd_vector,0,0,0,3.21622838287e-07,-6.08664578733e-05,0.0,0.0,0.0,0.0,1.0,0.173216349373,0.05,0.05,0.0,0.0,1.0,1.0,0,0,,,0
1449618223705063167,14,0,/odom,ucmd_vector,0,0,0,3.21622838287e-07,-6.08664578733e-05,0.0,0.0,0.0,0.0,1.0,0.173216349373,0.05,0.05,0.0,0.0,1.0,1.0,0,0,,,0
1449618223730671140,15,0,/odom,ucmd_vector,0,0,0,3.21622838287e-07,-6.08664578733e-05,0.0,0.0,0.0,0.0,1.0,0.189978263626,0.05,0.05,0.0,0.0,1.0,1.0,0,0,,,0
1449618223779323036,16,0,/odom,ucmd_vector,0,0,0,3.21622838287e-07,-6.08664578733e-05,0.0,0.0,0.0,0.0,1.0,0.189978263626,0.05,0.05,0.0,0.0,1.0,1.0,0,0,,,0
1449618223841086020,17,0,/odom,ucmd_vector,0,0,0,3.21622838287e-07,-6.08664578733e-05,0.0,0.0,0.0,0.0,1.0,0.189978263626,0.05,0.05,0.0,0.0,1.0,1.0,0,0,,,0
1449618223858610745,18,0,/odom,ucmd_vector,0,0,0,3.21622838287e-07,-6.08664578733e-05,0.0,0.0,0.0,0.0,1.0,0.189978263626,0.05,0.05,0.0,0.0,1.0,1.0,0,0,,,0
1449618223886198354,19,0,/odom,ucmd_vector,0,0,0,3.21622838287e-07,-6.08664578733e-05,0.0,0.0,0.0,0.0,1.0,0.173216349373,0.05,0.05,0.0,0.0,1.0,1.0,0,0,,,0
1449618223927862468,20,0,/odom,ucmd_vector,0,0,0,3.21622838287e-07,-6.08664578733e-05,0.0,0.0,0.0,0.0,1.0,0.173216349373,0.05,0.05,0.0,0.0,1.0,1.0,0,0,,,0
1449618223962683322,21,0,/odom,ucmd_vector,0,0,0,3.21622838287e-07,-6.08664578733e-05,0.0,0.0,0.0,0.0,1.0,0.173216349373,0.05,0.05,0.0,0.0,1.0,1.0,0,0,,,0
1449618224027779098,22,0,/odom,ucmd_vector,0,0,0,3.21622838287e-07,-6.08664578733e-05,0.0,0.0,0.0,0.0,1.0,0.173216349373,0.05,0.05,0.0,0.0,1.0,1.0,0,0,,,0
1449618224045738543,23,0,/odom,ucmd_vector,0,0,0,3.21622838287e-07,-6.08664578733e-05,0.0,0.0,0.0,0.0,1.0,0.189978263626,0.05,0.05,0.0,0.0,1.0,1.0,0,0,,,0
1449618224085107946,24,0,/odom,ucmd_vector,0,0,0,0.00287995407721,-9.129968681e-05,0.0,0.0,0.0,-0.0052839997518,0.999986039576,0.189978263626,0.05,0.05,0.0,0.0,1.0,1.0,0,0,,,0
1449618224310161812,25,0,/odom,ucmd_vector,0,0,0,0.00287995407721,-9.129968681e-05,0.0,0.0,0.0,-0.0052839997518,0.999986039576,0.189978263626,0.05,0.05,0.0,0.0,1.0,1.0,0,0,,,0
1449618224318250252,26,0,/odom,ucmd_vector,0,0,0,0.00863937979737,-0.000121732915747,0.0,0.0,0.0,-0.0052839997518,0.999986039576,0.189978263626,0.05,0.05,0.0,0.0,1.0,1.0,0,0,,,0
1449618224378830195,27,0,/odom,ucmd_vector,0,0,0,0.00863937979737,-0.000121732915747,0.0,0.0,0.0,-0.0052839997518,0.999986039576,0.189978263626,0.05,0.05,0.0,0.0,1.0,1.0,0,0,,,0
1449618224447597186,28,0,/odom,ucmd_vector,0,0,0,0.0115185298354,-0.000182595974757,0.0,0.0,0.0,-0.0105678519699,0.999944158693,0.189978263626,0.05,0.05,0.0,0.0,1.0,1.0,0,0,,,0
1449618224513262540,29,0,/odom,ucmd_vector,0,0,0,0.0172773123279,-0.000273892262705,0.0,0.0,0.0,-0.0105678519699,0.999944158693,0.189978263626,0.05,0.05,0.0,0.0,1.0,1.0,0,0,,,0
1449618224555178728,30,0,/odom,ucmd_vector,0,0,0,0.023035612404,-0.000395618380726,0.0,0.0,0.0,-0.0105678519699,0.999944158693,0.173216349373,0.05,0.05,0.0,0.0,1.0,1.0,0,0,,,0
1449618224594684664,31,0,/odom,ucmd_vector,0,0,0,0.023035612404,-0.000395618380726,0.0,0.0,0.0,-0.0105678519699,0.999944158693,0.173216349373,0.05,0.05,0.0,0.0,1.0,1.0,0,0,,,0
1449618224636269501,32,0,/odom,ucmd_vector,0,0,0,0.0259139584748,-0.000486904472466,0.0,0.0,0.0,-0.0158514091245,0.999874358521,0.189978263626,0.05,0.05,0.0,0.0,1.0,1.0,0,0,,,0
1449618224676593627,33,0,/odom,ucmd_vector,0,0,0,0.0259139584748,-0.000486904472466,0.0,0.0,0.0,-0.0158514091245,0.999874358521,0.189978263626,0.05,0.05,0.0,0.0,1.0,1.0,0,0,,,0
1449618224710128465,34,0,/odom,ucmd_vector,0,0,0,0.0259139584748,-0.000486904472466,0.0,0.0,0.0,-0.0158514091245,0.999874358521,0.189978263626,0.05,0.05,0.0,0.0,1.0,1.0,0,0,,,0
1449618224821414589,35,0,/odom,ucmd_vector,0,0,0,0.0316706506164,-0.000669476655944,0.0,0.0,0.0,-0.0158514091245,0.999874358521,0.189978263626,0.05,0.05,0.0,0.0,1.0,1.0,0,0,,,0
1449618224848343602,36,0,/odom,ucmd_vector,0,0,0,0.0403045634002,-0.000973747768822,0.0,0.0,0.0,-0.0211345236944,0.999776641009,0.189978263626,0.05,0.05,0.0,0.0,1.0,1.0,0,0,,,0
1449618224941354966,37,0,/odom,ucmd_vector,0,0,0,0.0403045634002,-0.000973747768822,0.0,0.0,0.0,-0.0211345236944,0.999776641009,0.173216349373,0.05,0.05,0.0,0.0,1.0,1.0,0,0,,,0
1449618224976593391,38,0,/odom,ucmd_vector,0,0,0,0.0489347785629,-0.00136924380302,0.0,0.0,0.0,-0.0232434249345,0.999729835104,0.346422698746,0.05,0.05,0.0,0.0,1.0,1.0,0,0,,,0
1449618225069191444,39,0,/odom,ucmd_vector,0,0,0,0.0518087845032,-0.00155172423771,0.0,0.0,0.0,-0.0158304683581,0.999874690285,0.340835397491,0.05,0.05,0.0,0.0,1.0,1.0,0,0,,,0
1449618225121165187,40,0,/odom,ucmd_vector,0,0,0,0.0575585643217,-0.0018863028478,0.0,0.0,0.0,-0.0158304683581,0.999874690285,0.340835397491,0.05,0.05,0.0,0.0,1.0,1.0,0,0,,,0
1449618225169679997,41,0,/odom,ucmd_vector,0,0,0,0.066178493228,-0.00246410603125,0.0,0.0,0.0,0.134035784298,0.990976492419,0.296136987457,0.05,0.05,0.0,0.0,1.0,1.0,0,0,,,0
1449618225207810111,42,0,/odom,ucmd_vector,0,0,0,0.0690524991683,-0.00264658646594,0.0,0.0,0.0,0.139270232642,0.990254412916,0.296136987457,0.05,0.05,0.0,0.0,1.0,1.0,0,0,,,0
1449618225231263967,43,0,/odom,ucmd_vector,0,0,0,0.0719244161941,-0.00285942878001,0.0,0.0,0.0,0.134035784298,0.990976492419,0.301724288712,0.05,0.05,0.0,0.0,1.0,1.0,0,0,,,0
1449618225339651141,44,0,/odom,ucmd_vector,0,0,0,0.0719244161941,-0.00285942878001,0.0,0.0,0.0,0.134035784298,0.990976492419,0.301724288712,0.05,0.05,0.0,0.0,1.0,1.0,0,0,,,0
1449618225376246180,45,0,/odom,ucmd_vector,0,0,0,0.0834141732117,-0.00368043615693,0.0,0.0,0.0,0.134035784298,0.990976492419,0.301724288712,0.05,0.05,0.0,0.0,1.0,1.0,0,0,,,0
1449618225425809392,46,0,/odom,ucmd_vector,0,0,0,0.0891580072633,-0.00410612078509,0.0,0.0,0.0,0.130889157238,0.991397008528,0.296136987457,0.05,0.05,0.0,0.0,1.0,1.0,0,0,,,0
1449618225509808799,47,0,/odom,ucmd_vector,0,0,0,0.0920320132035,-0.00428860121978,0.0,0.0,0.0,0.136125871517,0.99069154993,0.296136987457,0.05,0.05,0.0,0.0,1.0,1.0,0,0,,,0
1449618225564525507,48,0,/odom,ucmd_vector,0,0,0,0.100655477986,-0.00480563988466,0.0,0.0,0.0,0.141358785046,0.989958430385,0.296136987457,0.05,0.05,0.0,0.0,1.0,1.0,0,0,,,0
1449618225588105200,49,0,/odom,ucmd_vector,0,0,0,0.109284246385,-0.00523153516487,0.0,0.0,0.0,0.149727317658,0.988727328613,0.296136987457,0.05,0.05,0.0,0.0,1.0,1.0,0,0,,,0
1449618225648348500,50,0,/odom,ucmd_vector,0,0,0,0.109284246385,-0.00523153516487,0.0,0.0,0.0,0.146587751718,0.98919767036,0.301724288712,0.05,0.05,0.0,0.0,1.0,1.0,0,0,,,0
1449618225689182736,51,0,/odom,ucmd_vector,0,0,0,0.123673725881,-0.00574879129888,0.0,0.0,0.0,0.151812625536,0.988409291098,0.301724288712,0.05,0.05,0.0,0.0,1.0,1.0,0,0,,,0
1449618225779045068,52,0,/odom,ucmd_vector,0,0,0,0.126552875919,-0.00580965435789,0.0,0.0,0.0,0.052899314178,0.998599851071,0.329660794983,0.05,0.05,0.0,0.0,1.0,1.0,0,0,,,0
1449618225815209284,53,0,/odom,ucmd_vector,0,0,0,0.140951359814,-0.00571835467108,0.0,0.0,0.0,0.068721882621,0.997635856838,0.329660794983,0.05,0.05,0.0,0.0,1.0,1.0,0,0,,,0
1449618225830383067,54,0,/odom,ucmd_vector,0,0,0,0.146708051956,-0.0055357824876,0.0,0.0,0.0,0.0190255284129,0.999818998253,0.31289889122,0.05,0.05,0.0,0.0,1.0,1.0,0,0,,,0
1449618225934013594,55,0,/odom,ucmd_vector,0,0,0,0.146708051956,-0.0055357824876,0.0,0.0,0.0,0.0190255284129,0.999818998253,0.31289889122,0.05,0.05,0.0,0.0,1.0,1.0,0,0,,,0
1449618225950622053,56,0,/odom,ucmd_vector,0,0,0,0.169710869569,-0.00428870654504,0.0,0.0,0.0,0.0401519771987,0.99919358421,0.31289889122,0.05,0.05,0.0,0.0,1.0,1.0,0,0,,,0
1449618226040564153,57,0,/odom,ucmd_vector,0,0,0,0.169710869569,-0.00428870654504,0.0,0.0,0.0,0.0338071238985,0.99942837581,0.346422698746,0.05,0.05,0.0,0.0,1.0,1.0,0,0,,,0
1449618226060844450,58,0,/odom,ucmd_vector,0,0,0,0.19548249377,-0.0015549708587,0.0,0.0,0.0,0.0601972730593,0.998186499767,0.307311589966,0.05,0.05,0.0,0.0,1.0,1.0,0,0,,,0
1449618226108129080,59,0,/odom,ucmd_vector,0,0,0,0.19548249377,-0.0015549708587,0.0,0.0,0.0,0.0601972730593,0.998186499767,0.346422698746,0.05,0.05,0.0,0.0,1.0,1.0,0,0,,,0
1449618226153761715,60,0,/odom,ucmd_vector,0,0,0,0.204040469578,-0.000371783069764,0.0,0.0,0.0,0.0654708498969,0.997854482284,0.346422698746,0.05,0.05,0.0,0.0,1.0,1.0,0,0,,,0
1449618226238744890,61,0,/odom,ucmd_vector,0,0,0,0.215415213841,0.00144660660465,0.0,0.0,0.0,0.0760123723753,0.997106874535,0.346422698746,0.05,0.05,0.0,0.0,1.0,1.0,0,0,,,0
1449618226275046371,62,0,/odom,ucmd_vector,0,0,0,0.240919899207,0.00604771627477,0.0,0.0,0.0,0.0918083710776,0.99577669334,0.346422698746,0.05,0.05,0.0,0.0,1.0,1.0,0,0,,,0
1449618226347783148,63,0,/odom,ucmd_vector,0,0,0,0.246551313631,0.00725602442954,0.0,0.0,0.0,0.102326465068,0.994750870594,0.346422698746,0.05,0.05,0.0,0.0,1.0,1.0,0,0,,,0
1449618226473236155,64,0,/odom,ucmd_vector,0,0,0,0.257814142479,0.00967264073909,0.0,0.0,0.0,0.102326465068,0.994750870594,0.346422698746,0.05,0.05,0.0,0.0,1.0,1.0,0,0,,,0
1449618226501567891,65,0,/odom,ucmd_vector,0,0,0,0.283033991681,0.0156441683099,0.0,0.0,0.0,0.118081811647,0.993003869961,0.346422698746,0.05,0.05,0.0,0.0,1.0,1.0,0,0,,,0
1449618226536426650,66,0,/odom,ucmd_vector,0,0,0,0.294153465585,0.018652265411,0.0,0.0,0.0,0.125420237239,0.992103706319,0.346422698746,0.05,0.05,0.0,0.0,1.0,1.0,0,0,,,0
1449618226574450140,67,0,/odom,ucmd_vector,0,0,0,0.299713202536,0.0201563139615,0.0,0.0,0.0,0.125420237239,0.992103706319,0.346422698746,0.05,0.05,0.0,0.0,1.0,1.0,0,0,,,0
1449618226692768583,68,0,/odom,ucmd_vector,0,0,0,0.313572032352,0.0240631115605,0.0,0.0,0.0,0.0738253419416,0.997271186231,0.329660794983,0.05,0.05,0.0,0.0,1.0,1.0,0,0,,,0
1449618226744018838,69,0,/odom,ucmd_vector,0,0,0,0.344002573451,0.03286280214,0.0,0.0,0.0,0.0790938920091,0.996867170814,0.329660794983,0.05,0.05,0.0,0.0,1.0,1.0,0,0,,,0
1449618226774714781,70,0,/odom,ucmd_vector,0,0,0,0.354984992928,0.0363381165875,0.0,0.0,0.0,-0.0181908638471,0.999834532547,0.296136987457,0.05,0.05,0.0,0.0,1.0,1.0,0,0,,,0
1449618226798264380,71,0,/odom,ucmd_vector,0,0,0,0.363248892537,0.0388574114362,0.0,0.0,0.0,-0.0202998941263,0.999793935918,0.301724288712,0.05,0.05,0.0,0.0,1.0,1.0,0,0,,,0
1449618226834746390,72,0,/odom,ucmd_vector,0,0,0,0.363248892537,0.0388574114362,0.0,0.0,0.0,-0.0202998941263,0.999793935918,0.301724288712,0.05,0.05,0.0,0.0,1.0,1.0,0,0,,,0
1449618226930422921,73,0,/odom,ucmd_vector,0,0,0,0.376976916882,0.0432015544956,0.0,0.0,0.0,-0.015016699822,0.999887243006,0.301724288712,0.05,0.05,0.0,0.0,1.0,1.0,0,0,,,0
1449618226962514066,74,0,/odom,ucmd_vector,0,0,0,0.407113225649,0.0529614356315,0.0,0.0,0.0,-0.0129074844731,0.999916694952,0.296136987457,0.05,0.05,0.0,0.0,1.0,1.0,0,0,,,0
1449618226988823984,75,0,/odom,ucmd_vector,0,0,0,0.415293113653,0.0557414204386,0.0,0.0,0.0,-0.00762374471116,0.999970938836,0.296136987457,0.05,0.05,0.0,0.0,1.0,1.0,0,0,,,0
1449618227043870427,76,0,/odom,ucmd_vector,0,0,0,0.415293113653,0.0557414204386,0.0,0.0,0.0,-0.0044492008992,0.999990102257,0.301724288712,0.05,0.05,0.0,0.0,1.0,1.0,0,0,,,0
1449618227111496839,77,0,/odom,ucmd_vector,0,0,0,0.442559406999,0.0650080364623,0.0,0.0,0.0,-0.0044492008992,0.999990102257,0.301724288712,0.05,0.05,0.0,0.0,1.0,1.0,0,0,,,0
1449618227157515634,78,0,/odom,ucmd_vector,0,0,0,0.456142828266,0.0697851588201,0.0,0.0,0.0,0.000834808665665,0.999999651547,0.301724288712,0.05,0.05,0.0,0.0,1.0,1.0,0,0,,,0
1449618227184861209,79,0,/odom,ucmd_vector,0,0,0,0.461576196773,0.0716960077632,0.0,0.0,0.0,0.000834808665665,0.999999651547,0.301724288712,0.05,0.05,0.0,0.0,1.0,1.0,0,0,,,0
1449618227316218404,80,0,/odom,ucmd_vector,0,0,0,0.472442933787,0.0755177056495,0.0,0.0,0.0,-0.00233979208783,0.999997262683,0.301724288712,0.05,0.05,0.0,0.0,1.0,1.0,0,0,,,0
1449618227357629832,81,0,/odom,ucmd_vector,0,0,0,0.50499190239,0.0871260801326,0.0,0.0,0.0,-0.00233979208783,0.999997262683,0.301724288712,0.05,0.05,0.0,0.0,1.0,1.0,0,0,,,0
1449618227397338595,82,0,/odom,ucmd_vector,0,0,0,0.518524081219,0.0920464833148,0.0,0.0,0.0,0.00611879492196,0.999981279999,0.301724288712,0.05,0.05,0.0,0.0,1.0,1.0,0,0,,,0
1449618227494103428,83,0,/odom,ucmd_vector,0,0,0,0.523936952751,0.0940146445877,0.0,0.0,0.0,0.00294422586448,0.999995665758,0.296136987457,0.05,0.05,0.0,0.0,1.0,1.0,0,0,,,0
1449618227554549744,84,0,/odom,ucmd_vector,0,0,0,0.553820479539,0.104524313775,0.0,0.0,0.0,-0.00233979208783,0.999997262683,0.296136987457,0.05,0.05,0.0,0.0,1.0,1.0,0,0,,,0
1449618227643081589,85,0,/odom,ucmd_vector,0,0,0,0.567453626212,0.109157621787,0.0,0.0,0.0,0.020946076362,0.999780606876,0.251438577423,0.05,0.05,0.0,0.0,1.0,1.0,0,0,,,0
1449618227750141747,86,0,/odom,ucmd_vector,0,0,0,0.600173178227,0.120277561015,0.0,0.0,0.0,0.100144538519,0.994972899834,0.329660794983,0.05,0.05,0.0,0.0,1.0,1.0,0,0,,,0
1449618227823936224,87,0,/odom,ucmd_vector,0,0,0,0.619364407399,0.126446261186,0.0,0.0,0.0,0.142164431024,0.989843055515,0.340835397491,0.05,0.05,0.0,0.0,1.0,1.0,0,0,,,0
1449618227866172400,88,0,/odom,ucmd_vector,0,0,0,0.641401473024,0.133164380783,0.0,0.0,0.0,0.137987186825,0.990434014093,0.346422698746,0.05,0.05,0.0,0.0,1.0,1.0,0,0,,,0
1449618227897023808,89,0,/odom,ucmd_vector,0,0,0,0.655218242485,0.137217418283,0.0,0.0,0.0,0.132751807381,0.991149311475,0.346422698746,0.05,0.05,0.0,0.0,1.0,1.0,0,0,,,0
1449618227927770838,90,0,/odom,ucmd_vector,0,0,0,0.663533540375,0.139561496842,0.0,0.0,0.0,0.127512721393,0.991836935127,0.340835397491,0.05,0.05,0.0,0.0,1.0,1.0,0,0,,,0
1449618227985513801,91,0,/odom,ucmd_vector,0,0,0,0.674620604228,0.142686934921,0.0,0.0,0.0,0.127512721393,0.991836935127,0.340835397491,0.05,0.05,0.0,0.0,1.0,1.0,0,0,,,0
1449618228061079719,92,0,/odom,ucmd_vector,0,0,0,0.68577124633,0.145577355092,0.0,0.0,0.0,0.117024015008,0.993129085221,0.340835397491,0.05,0.05,0.0,0.0,1.0,1.0,0,0,,,0
1449618228160669303,93,0,/odom,ucmd_vector,0,0,0,0.705322273592,0.150488090716,0.0,0.0,0.0,0.111774687463,0.993733575584,0.346422698746,0.05,0.05,0.0,0.0,1.0,1.0,0,0,,,0
1449618228230838502,94,0,/odom,ucmd_vector,0,0,0,0.724924105026,0.155191939756,0.0,0.0,0.0,0.106522239074,0.994310320062,0.346422698746,0.05,0.05,0.0,0.0,1.0,1.0,0,0,,,0
1449618228288119411,95,0,/odom,ucmd_vector,0,0,0,0.744588262605,0.15962907398,0.0,0.0,0.0,0.101266816494,0.994859302553,0.340835397491,0.05,0.05,0.0,0.0,1.0,1.0,0,0,,,0
1449618228371029000,96,0,/odom,ucmd_vector,0,0,0,0.753035384242,0.161441536212,0.0,0.0,0.0,0.0960085664586,0.995380507729,0.340835397491,0.05,0.05,0.0,0.0,1.0,1.0,0,0,,,0
1449618228428595673,97,0,/odom,ucmd_vector,0,0,0,0.781247557283,0.167214777122,0.0,0.0,0.0,0.0854841713555,0.996339528699,0.346422698746,0.05,0.05,0.0,0.0,1.0,1.0,0,0,,,0
1449618228481378920,98,0,/odom,ucmd_vector,0,0,0,0.792558944512,0.169392819136,0.0,0.0,0.0,0.0823207627247,0.996605886007,0.346422698746,0.05,0.05,0.0,0.0,1.0,1.0,0,0,,,0
1449618228589318800,99,0,/odom,ucmd_vector,0,0,0,0.801059274121,0.170936606628,0.0,0.0,0.0,0.0770535482376,0.997026955856,0.346422698746,0.05,0.05,0.0,0.0,1.0,1.0,0,0,,,0
1449618228619421000,100,0,/odom,ucmd_vector,0,0,0,0.832285228797,0.176267467181,0.0,0.0,0.0,0.0749502291566,0.997187275866,0.340835397491,0.05,0.05,0.0,0.0,1.0,1.0,0,0,,,0
1449618228657426429,101,0,/odom,ucmd_vector,0,0,0,0.840816286995,0.177631259437,0.0,0.0,0.0,0.0696800455015,0.997569391701,0.346422698746,0.05,0.05,0.0,0.0,1.0,1.0,0,0,,,0
1449618228751286672,102,0,/odom,ucmd_vector,0,0,0,0.852191031258,0.179449649112,0.0,0.0,0.0,0.0696800455015,0.997569391701,0.346422698746,0.05,0.05,0.0,0.0,1.0,1.0,0,0,,,0
1449618228791554423,103,0,/odom,ucmd_vector,0,0,0,0.875012300081,0.182604816549,0.0,0.0,0.0,0.0591339888155,0.998250054529,0.346422698746,0.05,0.05,0.0,0.0,1.0,1.0,0,0,,,0
1449618228870578351,104,0,/odom,ucmd_vector,0,0,0,0.886422934492,0.184182400267,0.0,0.0,0.0,0.0591339888155,0.998250054529,0.340835397491,0.05,0.05,0.0,0.0,1.0,1.0,0,0,,,0
1449618228910894554,105,0,/odom,ucmd_vector,0,0,0,0.906419605063,0.186731992293,0.0,0.0,0.0,0.0538584102396,0.998548582517,0.340835397491,0.05,0.05,0.0,0.0,1.0,1.0,0,0,,,0
1449618229021260096,106,0,/odom,ucmd_vector,0,0,0,0.920721389093,0.188402083578,0.0,0.0,0.0,0.0454102331593,0.998968423287,0.340835397491,0.05,0.05,0.0,0.0,1.0,1.0,0,0,,,0
1449618229063805399,107,0,/odom,ucmd_vector,0,0,0,0.955101363823,0.191895942882,0.0,0.0,0.0,0.0348507469727,0.999392528207,0.340835397491,0.05,0.05,0.0,0.0,1.0,1.0,0,0,,,0
1449618229152099826,108,0,/odom,ucmd_vector,0,0,0,0.960834918296,0.192442925627,0.0,0.0,0.0,0.0380232412771,0.999276855092,0.346422698746,0.05,0.05,0.0,0.0,1.0,1.0,0,0,,,0
1449618229180512322,109,0,/odom,ucmd_vector,0,0,0,0.989542040266,0.194723039311,0.0,0.0,0.0,0.0274609081281,0.999622878152,0.31289889122,0.05,0.05,0.0,0.0,1.0,1.0,0,0,,,0
1449618229224725477,110,0,/odom,ucmd_vector,0,0,0,1.00102970837,0.195574408567,0.0,0.0,0.0,0.0274609081281,0.999622878152,0.346422698746,0.05,0.05,0.0,0.0,1.0,1.0,0,0,,,0
1449618229303430273,111,0,/odom,ucmd_vector,0,0,0,1.00965172619,0.196121849871,0.0,0.0,0.0,0.0221785177222,0.999754026424,0.346422698746,0.05,0.05,0.0,0.0,1.0,1.0,0,0,,,0
1449618229350746539,112,0,/odom,ucmd_vector,0,0,0,1.03553369109,0.19749073345,0.0,0.0,0.0,0.0168955080732,0.999857260716,0.346422698746,0.05,0.05,0.0,0.0,1.0,1.0,0,0,,,0
1449618229398600118,113,0,/odom,ucmd_vector,0,0,0,1.04703678661,0.198099126151,0.0,0.0,0.0,0.0168955080732,0.999857260716,0.296136987457,0.05,0.05,0.0,0.0,1.0,1.0,0,0,,,0
1449618229480391503,114,0,/odom,ucmd_vector,0,0,0,1.06142288982,0.198707620798,0.0,0.0,0.0,0.0116120266872,0.999932578145,0.346422698746,0.05,0.05,0.0,0.0,1.0,1.0,0,0,,,0
1449618229525101090,115,0,/odom,ucmd_vector,0,0,0,1.0815668106,0.199468274791,0.0,0.0,0.0,0.00632822108368,0.999979976608,0.346422698746,0.05,0.05,0.0,0.0,1.0,1.0,0,0,,,0
1449618229597820125,116,0,/odom,ucmd_vector,0,0,0,1.09596256079,0.199772590086,0.0,0.0,0.0,0.00739337796605,0.999972668608,0.301724288712,0.05,0.05,0.0,0.0,1.0,1.0,0,0,,,0
1449618229644951942,117,0,/odom,ucmd_vector,0,0,0,1.11611805831,0.200107342009,0.0,0.0,0.0,0.00210941941862,0.999997775172,0.301724288712,0.05,0.05,0.0,0.0,1.0,1.0,0,0,,,0
1449618229722998748,118,0,/odom,ucmd_vector,0,0,0,1.12763658812,0.200229074925,0.0,0.0,0.0,0.00210941941862,0.999997775172,0.346422698746,0.05,0.05,0.0,0.0,1.0,1.0,0,0,,,0
1449618229759330921,119,0,/odom,ucmd_vector,0,0,0,1.14779514098,0.200229074925,0.0,0.0,0.0,0.00634916405725,0.999979843855,0.296136987457,0.05,0.05,0.0,0.0,1.0,1.0,0,0,,,0
1449618229873279994,120,0,/odom,ucmd_vector,0,0,0,1.16219330325,0.20007690878,0.0,0.0,0.0,0.00106518217349,0.999999432693,0.296136987457,0.05,0.05,0.0,0.0,1.0,1.0,0,0,,,0
1449618229904132446,121,0,/odom,ucmd_vector,0,0,0,1.19386491851,0.199468274791,0.0,0.0,0.0,0.00213036313842,0.999997730774,0.340835397491,0.05,0.05,0.0,0.0,1.0,1.0,0,0,,,0
1449618230002596953,122,0,/odom,ucmd_vector,0,0,0,1.20249995672,0.199194416516,0.0,0.0,0.0,0.0539629741837,0.998542937193,0.27378778244,0.05,0.05,0.0,0.0,1.0,1.0,0,0,,,0
1449618230046437471,123,0,/odom,ucmd_vector,0,0,0,1.22552672528,0.198464127782,0.0,0.0,0.0,0.0539629741837,0.998542937193,0.27378778244,0.05,0.05,0.0,0.0,1.0,1.0,0,0,,,0
1449618230111905759,124,0,/odom,ucmd_vector,0,0,0,1.23415838721,0.198099030994,0.0,0.0,0.0,0.149727317658,0.988727328613,0.296136987457,0.05,0.05,0.0,0.0,1.0,1.0,0,0,,,0
1449618230179607262,125,0,/odom,ucmd_vector,0,0,0,1.25717615235,0.197125439558,0.0,0.0,0.0,0.146587751718,0.98919767036,0.296136987457,0.05,0.05,0.0,0.0,1.0,1.0,0,0,,,0
1449618230194187000,126,0,/odom,ucmd_vector,0,0,0,1.27442018799,0.19603055695,0.0,0.0,0.0,0.136125871517,0.99069154993,0.296136987457,0.05,0.05,0.0,0.0,1.0,1.0,0,0,,,0
1449618230286209750,127,0,/odom,ucmd_vector,0,0,0,1.27442018799,0.19603055695,0.0,0.0,0.0,0.139270232642,0.990254412916,0.301724288712,0.05,0.05,0.0,0.0,1.0,1.0,0,0,,,0
1449618230317387462,128,0,/odom,ucmd_vector,0,0,0,1.29741223551,0.194570713473,0.0,0.0,0.0,0.139270232642,0.990254412916,0.301724288712,0.05,0.05,0.0,0.0,1.0,1.0,0,0,,,0
1449618230344630772,129,0,/odom,ucmd_vector,0,0,0,1.30602798659,0.193932186531,0.0,0.0,0.0,0.130889157238,0.991397008528,0.296136987457,0.05,0.05,0.0,0.0,1.0,1.0,0,0,,,0
1449618230430903069,130,0,/odom,ucmd_vector,0,0,0,1.31751565469,0.193080817274,0.0,0.0,0.0,0.130889157238,0.991397008528,0.296136987457,0.05,0.05,0.0,0.0,1.0,1.0,0,0,,,0
1449618230453502246,131,0,/odom,ucmd_vector,0,0,0,1.3376118449,0.19149990675,0.0,0.0,0.0,0.128797593562,0.991670903018,0.301724288712,0.05,0.05,0.0,0.0,1.0,1.0,0,0,,,0
1449618230510511992,132,0,/odom,ucmd_vector,0,0,0,1.34908987437,0.190527185059,0.0,0.0,0.0,0.128797593562,0.991670903018,0.301724288712,0.05,0.05,0.0,0.0,1.0,1.0,0,0,,,0
1449618230616282566,133,0,/odom,ucmd_vector,0,0,0,1.36056790385,0.189554463368,0.0,0.0,0.0,0.100415428748,0.994945597342,0.245851276169,0.05,0.05,0.0,0.0,1.0,1.0,0,0,,,0
1449618230650479032,134,0,/odom,ucmd_vector,0,0,0,1.38926297753,0.187122659142,0.0,0.0,0.0,0.100415428748,0.994945597342,0.245851276169,0.05,0.05,0.0,0.0,1.0,1.0,0,0,,,0
1449618230681196982,135,0,/odom,ucmd_vector,0,0,0,1.39787872861,0.186484132199,0.0,0.0,0.0,0.134035784298,0.990976492419,0.301724288712,0.05,0.05,0.0,0.0,1.0,1.0,0,0,,,0
1449618230760136756,136,0,/odom,ucmd_vector,0,0,0,1.39787872861,0.186484132199,0.0,0.0,0.0,0.134035784298,0.990976492419,0.296136987457,0.05,0.05,0.0,0.0,1.0,1.0,0,0,,,0
1449618230848051775,137,0,/odom,ucmd_vector,0,0,0,1.42085406481,0.184781393687,0.0,0.0,0.0,0.134035784298,0.990976492419,0.296136987457,0.05,0.05,0.0,0.0,1.0,1.0,0,0,,,0
1449618230875428389,138,0,/odom,ucmd_vector,0,0,0,1.45530984015,0.182136271592,0.0,0.0,0.0,0.00110706819238,0.9999993872,0.284962384949,0.05,0.05,0.0,0.0,1.0,1.0,0,0,,,0
1449618230970022606,139,0,/odom,ucmd_vector,0,0,0,1.45530984015,0.182136271592,0.0,0.0,0.0,-0.0306341701942,0.99953066367,0.346422698746,0.05,0.05,0.0,0.0,1.0,1.0,0,0,,,0
1449618231081374302,140,0,/odom,ucmd_vector,0,0,0,1.48691972766,0.180068263052,0.0,0.0,0.0,-0.0253522227495,0.999678580746,0.346422698746,0.05,0.05,0.0,0.0,1.0,1.0,0,0,,,0
1449618231211858386,141,0,/odom,ucmd_vector,0,0,0,1.50705014481,0.179003575824,0.0,0.0,0.0,-0.0232434249345,0.999729835104,0.346422698746,0.05,0.05,0.0,0.0,1.0,1.0,0,0,,,0
1449618231259781579,142,0,/odom,ucmd_vector,0,0,0,1.55309580394,0.177330108492,0.0,0.0,0.0,-0.0158514091245,0.999874358521,0.346422698746,0.05,0.05,0.0,0.0,1.0,1.0,0,0,,,0
1449618231348627348,143,0,/odom,ucmd_vector,0,0,0,1.56173325406,0.177147519315,0.0,0.0,0.0,-0.0105678519699,0.999944158693,0.307311589966,0.05,0.05,0.0,0.0,1.0,1.0,0,0,,,0
1449618231394289745,144,0,/odom,ucmd_vector,0,0,0,1.58764801648,0.176751900935,0.0,0.0,0.0,-0.00210941941862,0.999997775172,0.346422698746,0.05,0.05,0.0,0.0,1.0,1.0,0,0,,,0
1449618231485171662,145,0,/odom,ucmd_vector,0,0,0,1.59628546659,0.176569311758,0.0,0.0,0.0,-0.0105678519699,0.999944158693,0.346422698746,0.05,0.05,0.0,0.0,1.0,1.0,0,0,,,0
1449618231552649184,146,0,/odom,ucmd_vector,0,0,0,1.6250825952,0.176417145613,0.0,0.0,0.0,-2.22044604925e-16,1.0,0.346422698746,0.05,0.05,0.0,0.0,1.0,1.0,0,0,,,0
1449618231663746345,147,0,/odom,ucmd_vector,0,0,0,1.645240344,0.176569311758,0.0,0.0,0.0,0.0052839997518,0.999986039576,0.346422698746,0.05,0.05,0.0,0.0,1.0,1.0,0,0,,,0
1449618231765826940,148,0,/odom,ucmd_vector,0,0,0,1.67978612462,0.177451783629,0.0,0.0,0.0,0.0158514091245,0.999874358521,0.346422698746,0.05,0.05,0.0,0.0,1.0,1.0,0,0,,,0
1449618231868743660,149,0,/odom,ucmd_vector,0,0,0,1.7056811104,0.178547073994,0.0,0.0,0.0,0.0211345236944,0.999776641009,0.346422698746,0.05,0.05,0.0,0.0,1.0,1.0,0,0,,,0
1449618231906716578,150,0,/odom,ucmd_vector,0,0,0,1.74019088018,0.180341801893,0.0,0.0,0.0,0.0316988350601,0.999497465658,0.346422698746,0.05,0.05,0.0,0.0,1.0,1.0,0,0,,,0
1449618231990987676,151,0,/odom,ucmd_vector,0,0,0,1.75455046531,0.181406013463,0.0,0.0,0.0,0.0369797368913,0.999316015612,0.346422698746,0.05,0.05,0.0,0.0,1.0,1.0,0,0,,,0
1449618232023056076,152,0,/odom,ucmd_vector,0,0,0,1.77464665552,0.182986923987,0.0,0.0,0.0,0.042259606217,0.999106663816,0.346422698746,0.05,0.05,0.0,0.0,1.0,1.0,0,0,,,0
1449618232108568914,153,0,/odom,ucmd_vector,0,0,0,1.7889805417,0.184354380849,0.0,0.0,0.0,0.0475382956186,0.998869416115,0.346422698746,0.05,0.05,0.0,0.0,1.0,1.0,0,0,,,0
1449618232188011764,154,0,/odom,ucmd_vector,0,0,0,1.81191475959,0.186542311827,0.0,0.0,0.0,0.0475382956186,0.998869416115,0.346422698746,0.05,0.05,0.0,0.0,1.0,1.0,0,0,,,0
1449618232223815761,155,0,/odom,ucmd_vector,0,0,0,1.8405351783,0.189731262,0.0,0.0,0.0,0.0580915451448,0.99831126027,0.346422698746,0.05,0.05,0.0,0.0,1.0,1.0,0,0,,,0
1449618232280984414,156,0,/odom,ucmd_vector,0,0,0,1.84625589191,0.190399298513,0.0,0.0,0.0,0.0580915451448,0.99831126027,0.346422698746,0.05,0.05,0.0,0.0,1.0,1.0,0,0,,,0
1449618232302495606,157,0,/odom,ucmd_vector,0,0,0,1.86053922803,0.192220435675,0.0,0.0,0.0,0.0633658106137,0.997990367712,0.346422698746,0.05,0.05,0.0,0.0,1.0,1.0,0,0,,,0
1449618232411926738,158,0,/odom,ucmd_vector,0,0,0,1.87480252105,0.194192415323,0.0,0.0,0.0,0.0686383068554,0.997641610415,0.346422698746,0.05,0.05,0.0,0.0,1.0,1.0,0,0,,,0
1449618232478133383,159,0,/odom,ucmd_vector,0,0,0,1.90896792553,0.199376796175,0.0,0.0,0.0,0.0791774028604,0.996860541338,0.346422698746,0.05,0.05,0.0,0.0,1.0,1.0,0,0,,,0
1449618232514286236,160,0,/odom,ucmd_vector,0,0,0,1.92034266979,0.201195185849,0.0,0.0,0.0,0.0791774028604,0.996860541338,0.346422698746,0.05,0.05,0.0,0.0,1.0,1.0,0,0,,,0
1449618232638796790,161,0,/odom,ucmd_vector,0,0,0,1.92885883925,0.202649056909,0.0,0.0,0.0,0.0844437083633,0.996428251365,0.31289889122,0.05,0.05,0.0,0.0,1.0,1.0,0,0,,,0
1449618232696486728,162,0,/odom,ucmd_vector,0,0,0,1.96569360088,0.209338802708,0.0,0.0,0.0,0.0897076561262,0.99596814027,0.31289889122,0.05,0.05,0.0,0.0,1.0,1.0,0,0,,,0
1449618232721710242,163,0,/odom,ucmd_vector,0,0,0,1.98551091412,0.213030717541,0.0,0.0,0.0,0.0949690991753,0.995480220899,0.31289889122,0.05,0.05,0.0,0.0,1.0,1.0,0,0,,,0
1449618232811126731,164,0,/odom,ucmd_vector,0,0,0,1.98551091412,0.213030717541,0.0,0.0,0.0,0.0949690991753,0.995480220899,0.31289889122,0.05,0.05,0.0,0.0,1.0,1.0,0,0,,,0
1449618232851304087,165,0,/odom,ucmd_vector,0,0,0,2.01935544707,0.220012459046,0.0,0.0,0.0,0.10548388359,0.994421012601,0.31289889122,0.05,0.05,0.0,0.0,1.0,1.0,0,0,,,0
1449618232948675610,166,0,/odom,ucmd_vector,0,0,0,2.03340127391,0.223181840634,0.0,0.0,0.0,0.110736931374,0.993849753247,0.346422698746,0.05,0.05,0.0,0.0,1.0,1.0,0,0,,,0
1449618232983865356,167,0,/odom,ucmd_vector,0,0,0,2.05304486475,0.2277079292,0.0,0.0,0.0,0.115986887289,0.993250744765,0.35201,0.05,0.05,0.0,0.0,1.0,1.0,0,0,,,0
1449618233118763569,168,0,/odom,ucmd_vector,0,0,0,2.06425410391,0.230362040259,0.0,0.0,0.0,0.115986887289,0.993250744765,0.346422698746,0.05,0.05,0.0,0.0,1.0,1.0,0,0,,,0
1449618233186660993,169,0,/odom,ucmd_vector,0,0,0,2.09777335667,0.238767801357,0.0,0.0,0.0,0.126476937269,0.991969548091,0.346422698746,0.05,0.05,0.0,0.0,1.0,1.0,0,0,,,0
1449618233258955601,170,0,/odom,ucmd_vector,0,0,0,2.1172636042,0.243914294353,0.0,0.0,0.0,0.131716738444,0.99128739567,0.346422698746,0.05,0.05,0.0,0.0,1.0,1.0,0,0,,,0
1449618233319750854,171,0,/odom,ucmd_vector,0,0,0,2.14224190792,0.250829189053,0.0,0.0,0.0,0.136952861975,0.990577565664,0.346422698746,0.05,0.05,0.0,0.0,1.0,1.0,0,0,,,0
1449618233379283043,172,0,/odom,ucmd_vector,0,0,0,2.1505319696,0.253261011554,0.0,0.0,0.0,0.142185161666,0.989840077892,0.346422698746,0.05,0.05,0.0,0.0,1.0,1.0,0,0,,,0
1449618233403875859,173,0,/odom,ucmd_vector,0,0,0,2.17263880073,0.259745871554,0.0,0.0,0.0,0.142185161666,0.989840077892,0.346422698746,0.05,0.05,0.0,0.0,1.0,1.0,0,0,,,0
1449618233449083159,174,0,/odom,ucmd_vector,0,0,0,2.17263880073,0.259745871554,0.0,0.0,0.0,0.142185161666,0.989840077892,0.346422698746,0.05,0.05,0.0,0.0,1.0,1.0,0,0,,,0
1449618233530429011,175,0,/odom,ucmd_vector,0,0,0,2.19192123316,0.265624226201,0.0,0.0,0.0,0.147413491427,0.989074952946,0.346422698746,0.05,0.05,0.0,0.0,1.0,1.0,0,0,,,0
1449618233601239052,176,0,/odom,ucmd_vector,0,0,0,2.21663167698,0.273443683708,0.0,0.0,0.0,0.152637705278,0.988282212188,0.346422698746,0.05,0.05,0.0,0.0,1.0,1.0,0,0,,,0
1449618233641439988,177,0,/odom,ucmd_vector,0,0,0,2.22484048667,0.276137069431,0.0,0.0,0.0,0.157857657354,0.987461877753,0.346422698746,0.05,0.05,0.0,0.0,1.0,1.0,0,0,,,0
1449618233717024236,178,0,/odom,ucmd_vector,0,0,0,2.23847363335,0.280770377443,0.0,0.0,0.0,0.163073201911,0.986613972544,0.346422698746,0.05,0.05,0.0,0.0,1.0,1.0,0,0,,,0
1449618233784993502,179,0,/odom,ucmd_vector,0,0,0,2.25754918006,0.287285461053,0.0,0.0,0.0,0.171412668894,0.985199318383,0.346422698746,0.05,0.05,0.0,0.0,1.0,1.0,0,0,,,0
1449618233881420249,180,0,/odom,ucmd_vector,0,0,0,2.27928265408,0.294928856825,0.0,0.0,0.0,0.171412668894,0.985199318383,0.346422698746,0.05,0.05,0.0,0.0,1.0,1.0,0,0,,,0
1449618233897790496,181,0,/odom,ucmd_vector,0,0,0,2.30101612811,0.302572252598,0.0,0.0,0.0,0.174539416948,0.984650187595,0.346422698746,0.05,0.05,0.0,0.0,1.0,1.0,0,0,,,0
1449618233970073841,182,0,/odom,ucmd_vector,0,0,0,2.30913543541,0.305524494507,0.0,0.0,0.0,0.232541753526,0.972586414087,0.329660794983,0.05,0.05,0.0,0.0,1.0,1.0,0,0,,,0
1449618234022242532,183,0,/odom,ucmd_vector,0,0,0,2.33078692154,0.313397139599,0.0,0.0,0.0,0.232541753526,0.972586414087,0.329660794983,0.05,0.05,0.0,0.0,1.0,1.0,0,0,,,0
1449618234043755629,184,0,/odom,ucmd_vector,0,0,0,2.33887457658,0.316435020289,0.0,0.0,0.0,0.343917201093,0.938999978058,0.301724288712,0.05,0.05,0.0,0.0,1.0,1.0,0,0,,,0
1449618234071961029,185,0,/odom,ucmd_vector,0,0,0,2.33887457658,0.316435020289,0.0,0.0,0.0,0.343917201093,0.938999978058,0.301724288712,0.05,0.05,0.0,0.0,1.0,1.0,0,0,,,0
1449618234156455825,186,0,/odom,ucmd_vector,0,0,0,2.34965811665,0.320485527875,0.0,0.0,0.0,0.316951917085,0.948441607194,0.251438577423,0.05,0.05,0.0,0.0,1.0,1.0,0,0,,,0
1449618234196301579,187,0,/odom,ucmd_vector,0,0,0,2.3738234153,0.329855068451,0.0,0.0,0.0,0.321959057518,0.946753592696,0.251438577423,0.05,0.05,0.0,0.0,1.0,1.0,0,0,,,0
1449618234225792774,188,0,/odom,ucmd_vector,0,0,0,2.38184505974,0.333063199341,0.0,0.0,0.0,0.353821209075,0.935313077001,0.301724288712,0.05,0.05,0.0,0.0,1.0,1.0,0,0,,,0
1449618234246458881,189,0,/odom,ucmd_vector,0,0,0,2.39254058566,0.337340707193,0.0,0.0,0.0,0.353821209075,0.935313077001,0.301724288712,0.05,0.05,0.0,0.0,1.0,1.0,0,0,,,0
1449618234282317985,190,0,/odom,ucmd_vector,0,0,0,2.4058527414,0.34282857935,0.0,0.0,0.0,0.358758463648,0.933430428453,0.301724288712,0.05,0.05,0.0,0.0,1.0,1.0,0,0,,,0
1449618234341364913,191,0,/odom,ucmd_vector,0,0,0,2.4058527414,0.34282857935,0.0,0.0,0.0,0.358758463648,0.933430428453,0.296136987457,0.05,0.05,0.0,0.0,1.0,1.0,0,0,,,0
1449618234382363685,192,0,/odom,ucmd_vector,0,0,0,2.42443102105,0.35065197481,0.0,0.0,0.0,0.36368570138,0.931521717735,0.296136987457,0.05,0.05,0.0,0.0,1.0,1.0,0,0,,,0
1449618234472967236,193,0,/odom,ucmd_vector,0,0,0,2.4324183145,0.353944698104,0.0,0.0,0.0,0.331946230723,0.943298309078,0.251438577423,0.05,0.05,0.0,0.0,1.0,1.0,0,0,,,0
1449618234494343550,194,0,/odom,ucmd_vector,0,0,0,2.45358765113,0.363033740179,0.0,0.0,0.0,0.341896331306,0.939737675439,0.251438577423,0.05,0.05,0.0,0.0,1.0,1.0,0,0,,,0
1449618234538937015,195,0,/odom,ucmd_vector,0,0,0,2.46414221016,0.367648134149,0.0,0.0,0.0,0.368602784698,0.929586998141,0.301724288712,0.05,0.05,0.0,0.0,1.0,1.0,0,0,,,0
1449618234606867119,196,0,/odom,ucmd_vector,0,0,0,2.47202111422,0.371192390634,0.0,0.0,0.0,0.373509576314,0.927626323689,0.301724288712,0.05,0.05,0.0,0.0,1.0,1.0,0,0,,,0
1449618234623709011,197,0,/odom,ucmd_vector,0,0,0,2.49554414098,0.382074355616,0.0,0.0,0.0,0.378405939227,0.925639749124,0.301724288712,0.05,0.05,0.0,0.0,1.0,1.0,0,0,,,0
1449618234659312541,198,0,/odom,ucmd_vector,0,0,0,2.49554414098,0.382074355616,0.0,0.0,0.0,0.378405939227,0.925639749124,0.301724288712,0.05,0.05,0.0,0.0,1.0,1.0,0,0,,,0
1449618234726044731,199,0,/odom,ucmd_vector,0,0,0,2.50599881953,0.386910784498,0.0,0.0,0.0,0.378405939227,0.925639749124,0.301724288712,0.05,0.05,0.0,0.0,1.0,1.0,0,0,,,0
1449618234788172979,200,0,/odom,ucmd_vector,0,0,0,2.51645349809,0.391747213379,0.0,0.0,0.0,0.378405939227,0.925639749124,0.296136987457,0.05,0.05,0.0,0.0,1.0,1.0,0,0,,,0
1449618234847611285,201,0,/odom,ucmd_vector,0,0,0,2.53452571255,0.400677566307,0.0,0.0,0.0,0.39303109011,0.919525183019,0.296136987457,0.05,0.05,0.0,0.0,1.0,1.0,0,0,,,0
1449618234921892564,202,0,/odom,ucmd_vector,0,0,0,2.55511794367,0.411008365389,0.0,0.0,0.0,0.39010998712,0.920768265064,0.301724288712,0.05,0.05,0.0,0.0,1.0,1.0,0,0,,,0
1449618234952562225,203,0,/odom,ucmd_vector,0,0,0,2.56541405923,0.41617376493,0.0,0.0,0.0,0.248900333216,0.968529103396,0.340835397491,0.05,0.05,0.0,0.0,1.0,1.0,0,0,,,0
1449618234987651859,204,0,/odom,ucmd_vector,0,0,0,2.57821525103,0.422766163584,0.0,0.0,0.0,0.254014566004,0.96720039302,0.340835397491,0.05,0.05,0.0,0.0,1.0,1.0,0,0,,,0
1449618234998629829,205,0,/odom,ucmd_vector,0,0,0,2.58585373671,0.426802550559,0.0,0.0,0.0,0.246836450427,0.969057153495,0.346422698746,0.05,0.05,0.0,0.0,1.0,1.0,0,0,,,0
1449618235030209348,206,0,/odom,ucmd_vector,0,0,0,2.58585373671,0.426802550559,0.0,0.0,0.0,0.246836450427,0.969057153495,0.346422698746,0.05,0.05,0.0,0.0,1.0,1.0,0,0,,,0
1449618235076322872,207,0,/odom,ucmd_vector,0,0,0,2.59603838428,0.43218439986,0.0,0.0,0.0,0.246836450427,0.969057153495,0.346422698746,0.05,0.05,0.0,0.0,1.0,1.0,0,0,,,0
1449618235135598306,208,0,/odom,ucmd_vector,0,0,0,2.6061070142,0.437780294751,0.0,0.0,0.0,0.257063519305,0.966394509009,0.346422698746,0.05,0.05,0.0,0.0,1.0,1.0,0,0,,,0
1449618235159830927,209,0,/odom,ucmd_vector,0,0,0,2.62624427403,0.448972084535,0.0,0.0,0.0,0.253994309849,0.96720571264,0.346422698746,0.05,0.05,0.0,0.0,1.0,1.0,0,0,,,0
1449618235200204341,210,0,/odom,ucmd_vector,0,0,0,2.62624427403,0.448972084535,0.0,0.0,0.0,0.250922540614,0.968007168678,0.346422698746,0.05,0.05,0.0,0.0,1.0,1.0,0,0,,,0
1449618235224225482,211,0,/odom,ucmd_vector,0,0,0,2.63631290395,0.454567979426,0.0,0.0,0.0,0.250922540614,0.968007168678,0.346422698746,0.05,0.05,0.0,0.0,1.0,1.0,0,0,,,0
1449618235257868474,212,0,/odom,ucmd_vector,0,0,0,2.6488240678,0.461695462176,0.0,0.0,0.0,0.256033987268,0.966667780245,0.346422698746,0.05,0.05,0.0,0.0,1.0,1.0,0,0,,,0
1449618235300106470,213,0,/odom,ucmd_vector,0,0,0,2.65871025454,0.467607708777,0.0,0.0,0.0,0.266235292001,0.963908070976,0.346422698746,0.05,0.05,0.0,0.0,1.0,1.0,0,0,,,0
1449618235340082625,214,0,/odom,ucmd_vector,0,0,0,2.66617134036,0.471963289299,0.0,0.0,0.0,0.258072525423,0.966125546511,0.346422698746,0.05,0.05,0.0,0.0,1.0,1.0,0,0,,,0
1449618235376709029,215,0,/odom,ucmd_vector,0,0,0,2.67599449529,0.477979681511,0.0,0.0,0.0,0.268267986076,0.963344324552,0.346422698746,0.05,0.05,0.0,0.0,1.0,1.0,0,0,,,0
1449618235422271842,216,0,/odom,ucmd_vector,0,0,0,2.68340913534,0.482413866462,0.0,0.0,0.0,0.263173929769,0.964748403829,0.346422698746,0.05,0.05,0.0,0.0,1.0,1.0,0,0,,,0
1449618235505889273,217,0,/odom,ucmd_vector,0,0,0,2.69568807901,0.489934356727,0.0,0.0,0.0,0.268267986076,0.963344324552,0.346422698746,0.05,0.05,0.0,0.0,1.0,1.0,0,0,,,0
1449618235517925999,218,0,/odom,ucmd_vector,0,0,0,2.7127663746,0.500644122044,0.0,0.0,0.0,0.273354552113,0.961913347885,0.346422698746,0.05,0.05,0.0,0.0,1.0,1.0,0,0,,,0
1449618235548720697,219,0,/odom,ucmd_vector,0,0,0,2.7127663746,0.500644122044,0.0,0.0,0.0,0.270299486451,0.962776291578,0.346422698746,0.05,0.05,0.0,0.0,1.0,1.0,0,0,,,0
1449618235575179751,220,0,/odom,ucmd_vector,0,0,0,2.72003673004,0.505311114117,0.0,0.0,0.0,0.275383022641,0.961334588393,0.346422698746,0.05,0.05,0.0,0.0,1.0,1.0,0,0,,,0
1449618235616992411,221,0,/odom,ucmd_vector,0,0,0,2.7297305373,0.511533770214,0.0,0.0,0.0,0.266215104436,0.963913646636,0.346422698746,0.05,0.05,0.0,0.0,1.0,1.0,0,0,,,0
1449618235678609419,222,0,/odom,ucmd_vector,0,0,0,2.73695116668,0.516277333716,0.0,0.0,0.0,0.27130470743,0.962493509446,0.346422698746,0.05,0.05,0.0,0.0,1.0,1.0,0,0,,,0
1449618235701750744,223,0,/odom,ucmd_vector,0,0,0,2.74657867251,0.522602085052,0.0,0.0,0.0,0.27130470743,0.962493509446,0.346422698746,0.05,0.05,0.0,0.0,1.0,1.0,0,0,,,0
1449618235739831874,224,0,/odom,ucmd_vector,0,0,0,2.75620617835,0.528926836388,0.0,0.0,0.0,0.262125936285,0.965033674815,0.335248096237,0.05,0.05,0.0,0.0,1.0,1.0,0,0,,,0
1449618235784804974,225,0,/odom,ucmd_vector,0,0,0,2.76337627523,0.533746441545,0.0,0.0,0.0,0.267221514594,0.963635129153,0.335248096237,0.05,0.05,0.0,0.0,1.0,1.0,0,0,,,0
1449618235828230486,226,0,/odom,ucmd_vector,0,0,0,2.77293640442,0.540172581755,0.0,0.0,0.0,0.267221514594,0.963635129153,0.340835397491,0.05,0.05,0.0,0.0,1.0,1.0,0,0,,,0
1449618235861440838,227,0,/odom,ucmd_vector,0,0,0,2.78480101047,0.548331096,0.0,0.0,0.0,0.272309631851,0.962209677981,0.340835397491,0.05,0.05,0.0,0.0,1.0,1.0,0,0,,,0
1449618235900772272,228,0,/odom,ucmd_vector,0,0,0,2.79429269531,0.554857907396,0.0,0.0,0.0,0.272309631851,0.962209677981,0.340835397491,0.05,0.05,0.0,0.0,1.0,1.0,0,0,,,0
1449618235951666815,229,0,/odom,ucmd_vector,0,0,0,2.80135933063,0.559827972634,0.0,0.0,0.0,0.277390145993,0.960757361099,0.340835397491,0.05,0.05,0.0,0.0,1.0,1.0,0,0,,,0
1449618235988127898,230,0,/odom,ucmd_vector,0,0,0,2.81078151106,0.566454726285,0.0,0.0,0.0,0.277390145993,0.960757361099,0.340835397491,0.05,0.05,0.0,0.0,1.0,1.0,0,0,,,0
1449618236032364620,231,0,/odom,ucmd_vector,0,0,0,2.81549260128,0.569768103111,0.0,0.0,0.0,0.277390145993,0.960757361099,0.340835397491,0.05,0.05,0.0,0.0,1.0,1.0,0,0,,,0
1449618236057958281,232,0,/odom,ucmd_vector,0,0,0,2.82718213095,0.578175547876,0.0,0.0,0.0,0.282462915166,0.959278219056,0.340835397491,0.05,0.05,0.0,0.0,1.0,1.0,0,0,,,0
1449618236096123660,233,0,/odom,ucmd_vector,0,0,0,2.83653375468,0.584901503688,0.0,0.0,0.0,0.282462915166,0.959278219056,0.340835397491,0.05,0.05,0.0,0.0,1.0,1.0,0,0,,,0
1449618236142199914,234,0,/odom,ucmd_vector,0,0,0,2.84349377165,0.590019808789,0.0,0.0,0.0,0.284485807195,0.958680251963,0.340835397491,0.05,0.05,0.0,0.0,1.0,1.0,0,0,,,0
1449618236176346852,235,0,/odom,ucmd_vector,0,0,0,2.85277379427,0.59684421559,0.0,0.0,0.0,0.284485807195,0.958680251963,0.340835397491,0.05,0.05,0.0,0.0,1.0,1.0,0,0,,,0
1449618236227944573,236,0,/odom,ucmd_vector,0,0,0,2.86205381689,0.603668622391,0.0,0.0,0.0,0.287527797736,0.957772293152,0.340835397491,0.05,0.05,0.0,0.0,1.0,1.0,0,0,,,0
1449618236262099925,237,0,/odom,ucmd_vector,0,0,0,2.87133383952,0.610493029193,0.0,0.0,0.0,0.287527797736,0.957772293152,0.340835397491,0.05,0.05,0.0,0.0,1.0,1.0,0,0,,,0
1449618236301957595,238,0,/odom,ucmd_vector,0,0,0,2.88061386214,0.617317435994,0.0,0.0,0.0,0.287527797736,0.957772293152,0.340835397491,0.05,0.05,0.0,0.0,1.0,1.0,0,0,,,0
1449618236352142031,239,0,/odom,ucmd_vector,0,0,0,2.88989388476,0.624141842795,0.0,0.0,0.0,0.284485807195,0.958680251963,0.340835397491,0.05,0.05,0.0,0.0,1.0,1.0,0,0,,,0
1449618236376193554,240,0,/odom,ucmd_vector,0,0,0,2.89679942358,0.629333414512,0.0,0.0,0.0,0.289547501866,0.957163645446,0.340835397491,0.05,0.05,0.0,0.0,1.0,1.0,0,0,,,0
1449618236423691580,241,0,/odom,ucmd_vector,0,0,0,2.90600680867,0.636255510135,0.0,0.0,0.0,0.289547501866,0.957163645446,0.340835397491,0.05,0.05,0.0,0.0,1.0,1.0,0,0,,,0
1449618236456137382,242,0,/odom,ucmd_vector,0,0,0,2.91521419377,0.643177605758,0.0,0.0,0.0,0.289547501866,0.957163645446,0.340835397491,0.05,0.05,0.0,0.0,1.0,1.0,0,0,,,0
1449618236503961370,243,0,/odom,ucmd_vector,0,0,0,2.91981788631,0.64663865357,0.0,0.0,0.0,0.289547501866,0.957163645446,0.340835397491,0.05,0.05,0.0,0.0,1.0,1.0,0,0,,,0
1449618236536952181,244,0,/odom,ucmd_vector,0,0,0,2.92902527141,0.653560749192,0.0,0.0,0.0,0.289547501866,0.957163645446,0.340835397491,0.05,0.05,0.0,0.0,1.0,1.0,0,0,,,0
1449618236582431751,245,0,/odom,ucmd_vector,0,0,0,2.94044242048,0.662334513401,0.0,0.0,0.0,0.294601112125,0.955620314107,0.340835397491,0.05,0.05,0.0,0.0,1.0,1.0,0,0,,,0
1449618236615858046,246,0,/odom,ucmd_vector,0,0,0,2.9473479593,0.667526085118,0.0,0.0,0.0,0.289547501866,0.957163645446,0.340835397491,0.05,0.05,0.0,0.0,1.0,1.0,0,0,,,0
1449618236655617085,247,0,/odom,ucmd_vector,0,0,0,2.95655534439,0.674448180741,0.0,0.0,0.0,0.289547501866,0.957163645446,0.340835397491,0.05,0.05,0.0,0.0,1.0,1.0,0,0,,,0
1449618236699872074,248,0,/odom,ucmd_vector,0,0,0,2.96576272948,0.681370276364,0.0,0.0,0.0,0.289547501866,0.957163645446,0.340835397491,0.05,0.05,0.0,0.0,1.0,1.0,0,0,,,0
1449618236749146044,249,0,/odom,ucmd_vector,0,0,0,2.97261301893,0.686634534889,0.0,0.0,0.0,0.294601112125,0.955620314107,0.340835397491,0.05,0.05,0.0,0.0,1.0,1.0,0,0,,,0
1449618236773452393,250,0,/odom,ucmd_vector,0,0,0,2.98174673819,0.693653546255,0.0,0.0,0.0,0.294601112125,0.955620314107,0.340835397491,0.05,0.05,0.0,0.0,1.0,1.0,0,0,,,0
1449618236822074977,251,0,/odom,ucmd_vector,0,0,0,2.99088045744,0.700672557622,0.0,0.0,0.0,0.306711895984,0.951802402215,0.346422698746,0.05,0.05,0.0,0.0,1.0,1.0,0,0,,,0
1449618236857514793,252,0,/odom,ucmd_vector,0,0,0,2.99778599626,0.705864129339,0.0,0.0,0.0,0.301678290499,0.953409780232,0.346422698746,0.05,0.05,0.0,0.0,1.0,1.0,0,0,,,0
1449618236897979919,253,0,/odom,ucmd_vector,0,0,0,3.00920314534,0.714637893547,0.0,0.0,0.0,0.306711895984,0.951802402215,0.346422698746,0.05,0.05,0.0,0.0,1.0,1.0,0,0,,,0
1449618236949475527,254,0,/odom,ucmd_vector,0,0,0,3.0183368646,0.721656904914,0.0,0.0,0.0,0.303688760776,0.952771292902,0.340835397491,0.05,0.05,0.0,0.0,1.0,1.0,0,0,,,0
1449618236982230065,255,0,/odom,ucmd_vector,0,0,0,3.02290372423,0.725166410597,0.0,0.0,0.0,0.303688760776,0.952771292902,0.340835397491,0.05,0.05,0.0,0.0,1.0,1.0,0,0,,,0
1449618237054665567,256,0,/odom,ucmd_vector,0,0,0,3.03441295559,0.733819030126,0.0,0.0,0.0,0.301678290499,0.953409780232,0.340835397491,0.05,0.05,0.0,0.0,1.0,1.0,0,0,,,0
1449618237057693217,257,0,/odom,ucmd_vector,0,0,0,3.05503748976,0.749514889957,0.0,0.0,0.0,0.306711895984,0.951802402215,0.340835397491,0.05,0.05,0.0,0.0,1.0,1.0,0,0,,,0
1449618237092852386,258,0,/odom,ucmd_vector,0,0,0,3.05503748976,0.749514889957,0.0,0.0,0.0,0.306711895984,0.951802402215,0.340835397491,0.05,0.05,0.0,0.0,1.0,1.0,0,0,,,0
1449618237145082827,259,0,/odom,ucmd_vector,0,0,0,3.05960434939,0.753024395641,0.0,0.0,0.0,0.306711895984,0.951802402215,0.340835397491,0.05,0.05,0.0,0.0,1.0,1.0,0,0,,,0
1449618237176554444,260,0,/odom,ucmd_vector,0,0,0,3.07111358075,0.761677015169,0.0,0.0,0.0,0.301678290499,0.953409780232,0.340835397491,0.05,0.05,0.0,0.0,1.0,1.0,0,0,,,0
1449618237236260602,261,0,/odom,ucmd_vector,0,0,0,3.0779638702,0.766941273694,0.0,0.0,0.0,0.306711895984,0.951802402215,0.340835397491,0.05,0.05,0.0,0.0,1.0,1.0,0,0,,,0
1449618237265137705,262,0,/odom,ucmd_vector,0,0,0,3.08709758946,0.773960285061,0.0,0.0,0.0,0.306711895984,0.951802402215,0.340835397491,0.05,0.05,0.0,0.0,1.0,1.0,0,0,,,0
1449618237307860179,263,0,/odom,ucmd_vector,0,0,0,3.09860682082,0.782612904589,0.0,0.0,0.0,0.301678290499,0.953409780232,0.340835397491,0.05,0.05,0.0,0.0,1.0,1.0,0,0,,,0
1449618237346603005,264,0,/odom,ucmd_vector,0,0,0,3.10321051337,0.786073952401,0.0,0.0,0.0,0.301678290499,0.953409780232,0.340835397491,0.05,0.05,0.0,0.0,1.0,1.0,0,0,,,0
1449618237381173535,265,0,/odom,ucmd_vector,0,0,0,3.11462766244,0.794847716609,0.0,0.0,0.0,0.306711895984,0.951802402215,0.340835397491,0.05,0.05,0.0,0.0,1.0,1.0,0,0,,,0
1449618237445445760,266,0,/odom,ucmd_vector,0,0,0,3.12613689381,0.803500336138,0.0,0.0,0.0,0.307725564936,0.951475158207,0.346422698746,0.05,0.05,0.0,0.0,1.0,1.0,0,0,,,0
1449618237468199631,267,0,/odom,ucmd_vector,0,0,0,3.13074058635,0.806961383949,0.0,0.0,0.0,0.307725564936,0.951475158207,0.346422698746,0.05,0.05,0.0,0.0,1.0,1.0,0,0,,,0
1449618237510441280,268,0,/odom,ucmd_vector,0,0,0,3.13994797145,0.813883479572,0.0,0.0,0.0,0.304703462779,0.952447268761,0.340835397491,0.05,0.05,0.0,0.0,1.0,1.0,0,0,,,0
1449618237537954128,269,0,/odom,ucmd_vector,0,0,0,3.14915535654,0.820805575195,0.0,0.0,0.0,0.304703462779,0.952447268761,0.340835397491,0.05,0.05,0.0,0.0,1.0,1.0,0,0,,,0
1449618237593549094,270,0,/odom,ucmd_vector,0,0,0,3.16296643418,0.831188718629,0.0,0.0,0.0,0.304703462779,0.952447268761,0.340835397491,0.05,0.05,0.0,0.0,1.0,1.0,0,0,,,0
1449618237624243445,271,0,/odom,ucmd_vector,0,0,0,3.16757012672,0.83464976644,0.0,0.0,0.0,0.304703462779,0.952447268761,0.346422698746,0.05,0.05,0.0,0.0,1.0,1.0,0,0,,,0
1449618237672111342,272,0,/odom,ucmd_vector,0,0,0,3.17677751182,0.841571862063,0.0,0.0,0.0,0.304703462779,0.952447268761,0.346422698746,0.05,0.05,0.0,0.0,1.0,1.0,0,0,,,0
1449618237696419586,273,0,/odom,ucmd_vector,0,0,0,3.18598489691,0.848493957686,0.0,0.0,0.0,0.304703462779,0.952447268761,0.346422698746,0.05,0.05,0.0,0.0,1.0,1.0,0,0,,,0
1449618237740188337,274,0,/odom,ucmd_vector,0,0,0,3.195192282,0.855416053309,0.0,0.0,0.0,0.307725564936,0.951475158207,0.346422698746,0.05,0.05,0.0,0.0,1.0,1.0,0,0,,,0
1449618237778653361,275,0,/odom,ucmd_vector,0,0,0,3.2043996671,0.862338148932,0.0,0.0,0.0,0.307725564936,0.951475158207,0.346422698746,0.05,0.05,0.0,0.0,1.0,1.0,0,0,,,0
1449618237814549205,276,0,/odom,ucmd_vector,0,0,0,3.21135968406,0.867456454033,0.0,0.0,0.0,0.299666477857,0.954044025215,0.346422698746,0.05,0.05,0.0,0.0,1.0,1.0,0,0,,,0
1449618237864826697,277,0,/odom,ucmd_vector,0,0,0,3.22063970668,0.874280860834,0.0,0.0,0.0,0.299666477857,0.954044025215,0.346422698746,0.05,0.05,0.0,0.0,1.0,1.0,0,0,,,0
1449618237897806382,278,0,/odom,ucmd_vector,0,0,0,3.23214893805,0.882933480363,0.0,0.0,0.0,0.304703462779,0.952447268761,0.346422698746,0.05,0.05,0.0,0.0,1.0,1.0,0,0,,,0
1449618237956874988,279,0,/odom,ucmd_vector,0,0,0,3.24135632314,0.889855575986,0.0,0.0,0.0,0.304703462779,0.952447268761,0.346422698746,0.05,0.05,0.0,0.0,1.0,1.0,0,0,,,0
1449618237976262215,280,0,/odom,ucmd_vector,0,0,0,3.24596001569,0.893316623797,0.0,0.0,0.0,0.304703462779,0.952447268761,0.346422698746,0.05,0.05,0.0,0.0,1.0,1.0,0,0,,,0
1449618238035167323,281,0,/odom,ucmd_vector,0,0,0,3.25516740078,0.90023871942,0.0,0.0,0.0,0.307725564936,0.951475158207,0.340835397491,0.05,0.05,0.0,0.0,1.0,1.0,0,0,,,0
1449618238053771248,282,0,/odom,ucmd_vector,0,0,0,3.26676742906,0.908769227921,0.0,0.0,0.0,0.302693674457,0.953087897019,0.340835397491,0.05,0.05,0.0,0.0,1.0,1.0,0,0,,,0
1449618238131679733,283,0,/odom,ucmd_vector,0,0,0,3.27367296788,0.913960799639,0.0,0.0,0.0,0.307725564936,0.951475158207,0.346422698746,0.05,0.05,0.0,0.0,1.0,1.0,0,0,,,0
1449618238144909828,284,0,/odom,ucmd_vector,0,0,0,3.29208773807,0.927804990884,0.0,0.0,0.0,0.307725564936,0.951475158207,0.346422698746,0.05,0.05,0.0,0.0,1.0,1.0,0,0,,,0
1449618238228196410,285,0,/odom,ucmd_vector,0,0,0,3.29208773807,0.927804990884,0.0,0.0,0.0,0.307725564936,0.951475158207,0.346422698746,0.05,0.05,0.0,0.0,1.0,1.0,0,0,,,0
1449618238260437338,286,0,/odom,ucmd_vector,0,0,0,3.30832777765,0.939747702787,0.0,0.0,0.0,0.302693674457,0.953087897019,0.346422698746,0.05,0.05,0.0,0.0,1.0,1.0,0,0,,,0
1449618238298404366,287,0,/odom,ucmd_vector,0,0,0,3.31523331647,0.944939274504,0.0,0.0,0.0,0.307725564936,0.951475158207,0.346422698746,0.05,0.05,0.0,0.0,1.0,1.0,0,0,,,0
1449618238345931836,288,0,/odom,ucmd_vector,0,0,0,3.32683334475,0.953469783005,0.0,0.0,0.0,0.302693674457,0.953087897019,0.340835397491,0.05,0.05,0.0,0.0,1.0,1.0,0,0,,,0
1449618238356195193,289,0,/odom,ucmd_vector,0,0,0,3.33611336737,0.960294189807,0.0,0.0,0.0,0.302693674457,0.953087897019,0.340835397491,0.05,0.05,0.0,0.0,1.0,1.0,0,0,,,0
1449618238430439133,290,0,/odom,ucmd_vector,0,0,0,3.33611336737,0.960294189807,0.0,0.0,0.0,0.302693674457,0.953087897019,0.340835397491,0.05,0.05,0.0,0.0,1.0,1.0,0,0,,,0
1449618238473295432,291,0,/odom,ucmd_vector,0,0,0,3.35003340131,0.970530800008,0.0,0.0,0.0,0.308738884384,0.951146834757,0.346422698746,0.05,0.05,0.0,0.0,1.0,1.0,0,0,,,0
1449618238496784320,292,0,/odom,ucmd_vector,0,0,0,3.35931342393,0.97735520681,0.0,0.0,0.0,0.308738884384,0.951146834757,0.346422698746,0.05,0.05,0.0,0.0,1.0,1.0,0,0,,,0
1449618238564140888,293,0,/odom,ucmd_vector,0,0,0,3.36859344655,0.984179613611,0.0,0.0,0.0,0.314771648695,0.949167429476,0.346422698746,0.05,0.05,0.0,0.0,1.0,1.0,0,0,,,0
1449618238593288522,294,0,/odom,ucmd_vector,0,0,0,3.37549898537,0.989371185328,0.0,0.0,0.0,0.319782654811,0.947490925382,0.346422698746,0.05,0.05,0.0,0.0,1.0,1.0,0,0,,,0
1449618238601803958,295,0,/odom,ucmd_vector,0,0,0,3.38470637046,0.996293280951,0.0,0.0,0.0,0.473934892803,0.880559888584,0.301724288712,0.05,0.05,0.0,0.0,1.0,1.0,0,0,,,0
1449618238615166076,296,0,/odom,ucmd_vector,0,0,0,3.38470637046,0.996293280951,0.0,0.0,0.0,0.473934892803,0.880559888584,0.301724288712,0.05,0.05,0.0,0.0,1.0,1.0,0,0,,,0
1449618238653821111,297,0,/odom,ucmd_vector,0,0,0,3.38931006301,0.999754328762,0.0,0.0,0.0,0.473934892803,0.880559888584,0.301724288712,0.05,0.05,0.0,0.0,1.0,1.0,0,0,,,0
1449618238708366144,298,0,/odom,ucmd_vector,0,0,0,3.3985174481,1.00667642439,0.0,0.0,0.0,0.473934892803,0.880559888584,0.301724288712,0.05,0.05,0.0,0.0,1.0,1.0,0,0,,,0
1449618238755553320,299,0,/odom,ucmd_vector,0,0,0,3.40547746507,1.01179472949,0.0,0.0,0.0,0.466469699151,0.884537178288,0.301724288712,0.05,0.05,0.0,0.0,1.0,1.0,0,0,,,0
1449618238787649022,300,0,/odom,ucmd_vector,0,0,0,3.41011747638,1.01520693289,0.0,0.0,0.0,0.466469699151,0.884537178288,0.301724288712,0.05,0.05,0.0,0.0,1.0,1.0,0,0,,,0
1449618238825018811,301,0,/odom,ucmd_vector,0,0,0,3.419397499,1.02203133969,0.0,0.0,0.0,0.466469699151,0.884537178288,0.296136987457,0.05,0.05,0.0,0.0,1.0,1.0,0,0,,,0
1449618238853885888,302,0,/odom,ucmd_vector,0,0,0,3.42630303782,1.02722291141,0.0,0.0,0.0,0.471137081267,0.882060003999,0.296136987457,0.05,0.05,0.0,0.0,1.0,1.0,0,0,,,0
1449618238914363482,303,0,/odom,ucmd_vector,0,0,0,3.43090673037,1.03068395922,0.0,0.0,0.0,0.471137081267,0.882060003999,0.296136987457,0.05,0.05,0.0,0.0,1.0,1.0,0,0,,,0
1449618238935881802,304,0,/odom,ucmd_vector,0,0,0,3.43786674734,1.03580226432,0.0,0.0,0.0,0.397788302179,0.917477229499,0.324073493729,0.05,0.05,0.0,0.0,1.0,1.0,0,0,,,0
1449618238998528363,305,0,/odom,ucmd_vector,0,0,0,3.44477228616,1.04099383603,0.0,0.0,0.0,0.402630698339,0.915362507838,0.324073493729,0.05,0.05,0.0,0.0,1.0,1.0,0,0,,,0
1449618239012487798,306,0,/odom,ucmd_vector,0,0,0,3.4493759787,1.04445488385,0.0,0.0,0.0,0.352667955966,0.935748530768,0.335248096237,0.05,0.05,0.0,0.0,1.0,1.0,0,0,,,0
1449618239067086695,307,0,/odom,ucmd_vector,0,0,0,3.45622626815,1.04971914237,0.0,0.0,0.0,0.357607527576,0.93387196993,0.335248096237,0.05,0.05,0.0,0.0,1.0,1.0,0,0,,,0
1449618239094242037,308,0,/odom,ucmd_vector,0,0,0,3.46313180697,1.05491071409,0.0,0.0,0.0,0.352667955966,0.935748530768,0.335248096237,0.05,0.05,0.0,0.0,1.0,1.0,0,0,,,0
1449618239140471776,309,0,/odom,ucmd_vector,0,0,0,3.46773549951,1.0583717619,0.0,0.0,0.0,0.331788180523,0.943353911989,0.340835397491,0.05,0.05,0.0,0.0,1.0,1.0,0,0,,,0
1449618239199002695,310,0,/odom,ucmd_vector,0,0,0,3.47458578896,1.06363602042,0.0,0.0,0.0,0.336768230456,0.941587573705,0.340835397491,0.05,0.05,0.0,0.0,1.0,1.0,0,0,,,0
1449618239220747122,311,0,/odom,ucmd_vector,0,0,0,3.48371950821,1.07065503179,0.0,0.0,0.0,0.336768230456,0.941587573705,0.340835397491,0.05,0.05,0.0,0.0,1.0,1.0,0,0,,,0
1449618239301010991,312,0,/odom,ucmd_vector,0,0,0,3.49051378322,1.0759913892,0.0,0.0,0.0,0.341738877535,0.939794945497,0.340835397491,0.05,0.05,0.0,0.0,1.0,1.0,0,0,,,0
1449618239311383535,313,0,/odom,ucmd_vector,0,0,0,3.50415834768,1.08659200513,0.0,0.0,0.0,0.341738877535,0.939794945497,0.340835397491,0.05,0.05,0.0,0.0,1.0,1.0,0,0,,,0
1449618239345549579,314,0,/odom,ucmd_vector,0,0,0,3.50415834768,1.08659200513,0.0,0.0,0.0,0.341738877535,0.939794945497,0.340835397491,0.05,0.05,0.0,0.0,1.0,1.0,0,0,,,0
1449618239415792432,315,0,/odom,ucmd_vector,0,0,0,3.51321738103,1.09370714834,0.0,0.0,0.0,0.341738877535,0.939794945497,0.340835397491,0.05,0.05,0.0,0.0,1.0,1.0,0,0,,,0
1449618239458675991,316,0,/odom,ucmd_vector,0,0,0,3.52680593105,1.10437986315,0.0,0.0,0.0,0.341738877535,0.939794945497,0.340835397491,0.05,0.05,0.0,0.0,1.0,1.0,0,0,,,0
1449618239469885273,317,0,/odom,ucmd_vector,0,0,0,3.53354343282,1.10978772346,0.0,0.0,0.0,0.346699982974,0.937976077417,0.340835397491,0.05,0.05,0.0,0.0,1.0,1.0,0,0,,,0
1449618239520073807,318,0,/odom,ucmd_vector,0,0,0,3.53354343282,1.10978772346,0.0,0.0,0.0,0.346699982974,0.937976077417,0.340835397491,0.05,0.05,0.0,0.0,1.0,1.0,0,0,,,0
1449618239539280693,319,0,/odom,ucmd_vector,0,0,0,3.54252676852,1.11699820388,0.0,0.0,0.0,0.346699982974,0.937976077417,0.340835397491,0.05,0.05,0.0,0.0,1.0,1.0,0,0,,,0
1449618239594477204,320,0,/odom,ucmd_vector,0,0,0,3.54920674459,1.12247696313,0.0,0.0,0.0,0.351651408255,0.936131020249,0.340835397491,0.05,0.05,0.0,0.0,1.0,1.0,0,0,,,0
1449618239622590315,321,0,/odom,ucmd_vector,0,0,0,3.55811337936,1.12978197546,0.0,0.0,0.0,0.351651408255,0.936131020249,0.340835397491,0.05,0.05,0.0,0.0,1.0,1.0,0,0,,,0
1449618239670202960,322,0,/odom,ucmd_vector,0,0,0,3.56256669674,1.13343448162,0.0,0.0,0.0,0.351651408255,0.936131020249,0.340835397491,0.05,0.05,0.0,0.0,1.0,1.0,0,0,,,0
1449618239703039092,323,0,/odom,ucmd_vector,0,0,0,3.57147333151,1.14073949396,0.0,0.0,0.0,0.351651408255,0.936131020249,0.340835397491,0.05,0.05,0.0,0.0,1.0,1.0,0,0,,,0
1449618239745435277,324,0,/odom,ucmd_vector,0,0,0,3.57592664889,1.14439200012,0.0,0.0,0.0,0.351651408255,0.936131020249,0.346422698746,0.05,0.05,0.0,0.0,1.0,1.0,0,0,,,0
1449618239787855934,325,0,/odom,ucmd_vector,0,0,0,3.58254835323,1.14994104643,0.0,0.0,0.0,0.356593015131,0.934259825509,0.346422698746,0.05,0.05,0.0,0.0,1.0,1.0,0,0,,,0
1449618239863446100,326,0,/odom,ucmd_vector,0,0,0,3.58922832931,1.15541980568,0.0,0.0,0.0,0.351651408255,0.936131020249,0.346422698746,0.05,0.05,0.0,0.0,1.0,1.0,0,0,,,0
1449618239916032022,327,0,/odom,ucmd_vector,0,0,0,3.60026450321,1.16466821619,0.0,0.0,0.0,0.356593015131,0.934259825509,0.346422698746,0.05,0.05,0.0,0.0,1.0,1.0,0,0,,,0
1449618239947629788,328,0,/odom,ucmd_vector,0,0,0,3.60909344233,1.1720669446,0.0,0.0,0.0,0.356593015131,0.934259825509,0.346422698746,0.05,0.05,0.0,0.0,1.0,1.0,0,0,,,0
1449618239965966224,329,0,/odom,ucmd_vector,0,0,0,3.61350791189,1.1757663088,0.0,0.0,0.0,0.356593015131,0.934259825509,0.346422698746,0.05,0.05,0.0,0.0,1.0,1.0,0,0,,,0
1449618239993773692,330,0,/odom,ucmd_vector,0,0,0,3.61350791189,1.1757663088,0.0,0.0,0.0,0.356593015131,0.934259825509,0.346422698746,0.05,0.05,0.0,0.0,1.0,1.0,0,0,,,0
1449618240027481314,331,0,/odom,ucmd_vector,0,0,0,3.61792238145,1.17946567301,0.0,0.0,0.0,0.356593015131,0.934259825509,0.346422698746,0.05,0.05,0.0,0.0,1.0,1.0,0,0,,,0
1449618240065261062,332,0,/odom,ucmd_vector,0,0,0,3.62448507453,1.18508438664,0.0,0.0,0.0,0.361524665627,0.932362545442,0.346422698746,0.05,0.05,0.0,0.0,1.0,1.0,0,0,,,0
1449618240100137232,333,0,/odom,ucmd_vector,0,0,0,3.63110677887,1.19063343295,0.0,0.0,0.0,0.356593015131,0.934259825509,0.346422698746,0.05,0.05,0.0,0.0,1.0,1.0,0,0,,,0
1449618240139915145,334,0,/odom,ucmd_vector,0,0,0,3.63544207811,1.19442526858,0.0,0.0,0.0,0.366446222048,0.930439233022,0.346422698746,0.05,0.05,0.0,0.0,1.0,1.0,0,0,,,0
1449618240180794266,335,0,/odom,ucmd_vector,0,0,0,3.64200477119,1.20004398221,0.0,0.0,0.0,0.361524665627,0.932362545442,0.346422698746,0.05,0.05,0.0,0.0,1.0,1.0,0,0,,,0
1449618240226163752,336,0,/odom,ucmd_vector,0,0,0,3.64850772006,1.20573173565,0.0,0.0,0.0,0.366446222048,0.930439233022,0.346422698746,0.05,0.05,0.0,0.0,1.0,1.0,0,0,,,0
1449618240263091680,337,0,/odom,ucmd_vector,0,0,0,3.65284301931,1.20952357128,0.0,0.0,0.0,0.366446222048,0.930439233022,0.346422698746,0.05,0.05,0.0,0.0,1.0,1.0,0,0,,,0
1449618240303906226,338,0,/odom,ucmd_vector,0,0,0,3.65717831856,1.21331540691,0.0,0.0,0.0,0.366446222048,0.930439233022,0.346422698746,0.05,0.05,0.0,0.0,1.0,1.0,0,0,,,0
1449618240349910278,339,0,/odom,ucmd_vector,0,0,0,3.66151361781,1.21710724254,0.0,0.0,0.0,0.366446222048,0.930439233022,0.340835397491,0.05,0.05,0.0,0.0,1.0,1.0,0,0,,,0
1449618240388253713,340,0,/odom,ucmd_vector,0,0,0,3.66584891706,1.22089907817,0.0,0.0,0.0,0.366446222048,0.930439233022,0.340835397491,0.05,0.05,0.0,0.0,1.0,1.0,0,0,,,0
1449618240414383704,341,0,/odom,ucmd_vector,0,0,0,3.67229139546,1.22665523621,0.0,0.0,0.0,0.37135754698,0.928489941949,0.346422698746,0.05,0.05,0.0,0.0,1.0,1.0,0,0,,,0
1449618240480419146,342,0,/odom,ucmd_vector,0,0,0,3.67879434433,1.23234298965,0.0,0.0,0.0,0.366446222048,0.930439233022,0.346422698746,0.05,0.05,0.0,0.0,1.0,1.0,0,0,,,0
1449618240497187199,343,0,/odom,ucmd_vector,0,0,0,3.68094183713,1.234261709,0.0,0.0,0.0,0.37135754698,0.928489941949,0.346422698746,0.05,0.05,0.0,0.0,1.0,1.0,0,0,,,0
1449618240547792999,344,0,/odom,ucmd_vector,0,0,0,3.68953180834,1.24193658638,0.0,0.0,0.0,0.37135754698,0.928489941949,0.340835397491,0.05,0.05,0.0,0.0,1.0,1.0,0,0,,,0
1449618240585727701,345,0,/odom,ucmd_vector,0,0,0,3.69382679394,1.24577402507,0.0,0.0,0.0,0.37135754698,0.928489941949,0.340835397491,0.05,0.05,0.0,0.0,1.0,1.0,0,0,,,0
1449618240613662519,346,0,/odom,ucmd_vector,0,0,0,3.69812177954,1.24961146375,0.0,0.0,0.0,0.37135754698,0.928489941949,0.340835397491,0.05,0.05,0.0,0.0,1.0,1.0,0,0,,,0
1449618240666722205,347,0,/odom,ucmd_vector,0,0,0,3.70450306796,1.25543538352,0.0,0.0,0.0,0.376258503294,0.92651472665,0.340835397491,0.05,0.05,0.0,0.0,1.0,1.0,0,0,,,0
1449618240733177069,348,0,/odom,ucmd_vector,0,0,0,3.70875726024,1.25931799669,0.0,0.0,0.0,0.376258503294,0.92651472665,0.340835397491,0.05,0.05,0.0,0.0,1.0,1.0,0,0,,,0
1449618240749438231,349,0,/odom,ucmd_vector,0,0,0,3.7172656448,1.26708322304,0.0,0.0,0.0,0.373315295833,0.927704527259,0.340835397491,0.05,0.05,0.0,0.0,1.0,1.0,0,0,,,0
1449618240789130655,350,0,/odom,ucmd_vector,0,0,0,3.7172656448,1.26708322304,0.0,0.0,0.0,0.373315295833,0.927704527259,0.340835397491,0.05,0.05,0.0,0.0,1.0,1.0,0,0,,,0
