%time,field.header.seq,field.header.stamp,field.header.frame_id,field.ns,field.id,field.type,field.action,field.pose.position.x,field.pose.position.y,field.pose.position.z,field.pose.orientation.x,field.pose.orientation.y,field.pose.orientation.z,field.pose.orientation.w,field.scale.x,field.scale.y,field.scale.z,field.color.r,field.color.g,field.color.b,field.color.a,field.lifetime,field.frame_locked,field.text,field.mesh_resource,field.mesh_use_embedded_materials
1449618217450299505,0,1449618217449558040,/odom,ga,1,0,0,nan,nan,0.0,nan,nan,nan,nan,0.25,0.15,0.0,1.0,0.0,0.0,1.0,2000000000,0,,,0
1449618217450318971,1,1449618217449991731,/odom,ga,2,2,0,nan,nan,0.0,0.0,0.0,0.0,0.0,0.15,0.15,0.01,0.0,1.0,0.0,1.0,2000000000,0,,,0
1449618217610029688,2,1449618217609611505,/odom,ga,1,0,0,nan,nan,0.0,nan,nan,nan,nan,0.25,0.15,0.0,1.0,0.0,0.0,1.0,2000000000,0,,,0
1449618217611188833,3,1449618217610024829,/odom,ga,2,2,0,nan,nan,0.0,0.0,0.0,0.0,0.0,0.15,0.15,0.01,0.0,1.0,0.0,1.0,2000000000,0,,,0
1449618217654735126,4,1449618217654469611,/odom,ga,1,0,0,0.0,0.0,0.0,0.0,0.0,0.0,1.0,0.25,0.15,0.0,1.0,0.0,0.0,1.0,2000000000,0,,,0
1449618217655001809,5,1449618217654667654,/odom,ga,2,2,0,0.0,0.0,0.0,0.0,0.0,0.0,0.0,0.15,0.15,0.01,0.0,1.0,0.0,1.0,2000000000,0,,,0
1449618217773959221,6,1449618217773798416,/odom,ga,1,0,0,0.0,0.0,0.0,0.0,0.0,0.0,1.0,0.25,0.15,0.0,1.0,0.0,0.0,1.0,2000000000,0,,,0
1449618217774531763,7,1449618217773964662,/odom,ga,2,2,0,0.0,0.0,0.0,0.0,0.0,0.0,0.0,0.15,0.15,0.01,0.0,1.0,0.0,1.0,2000000000,0,,,0
1449618217814414099,8,1449618217813725792,/odom,ga,1,0,0,0.0,0.0,0.0,0.0,0.0,0.0,1.0,0.25,0.15,0.0,1.0,0.0,0.0,1.0,2000000000,0,,,0
1449618217814417632,9,1449618217813927082,/odom,ga,2,2,0,0.0,0.0,0.0,0.0,0.0,0.0,0.0,0.15,0.15,0.01,0.0,1.0,0.0,1.0,2000000000,0,,,0
1449618217922046304,10,1449618217921630028,/odom,ga,1,0,0,0.0,0.0,0.0,0.0,0.0,0.0,1.0,0.25,0.15,0.0,1.0,0.0,0.0,1.0,2000000000,0,,,0
1449618217922050076,11,1449618217921903849,/odom,ga,2,2,0,0.0,0.0,0.0,0.0,0.0,0.0,0.0,0.15,0.15,0.01,0.0,1.0,0.0,1.0,2000000000,0,,,0
1449618218000397549,12,1449618218000133076,/odom,ga,1,0,0,0.0,0.0,0.0,0.0,0.0,0.0,1.0,0.25,0.15,0.0,1.0,0.0,0.0,1.0,2000000000,0,,,0
1449618218003025947,13,1449618218000375436,/odom,ga,2,2,0,0.0,0.0,0.0,0.0,0.0,0.0,0.0,0.15,0.15,0.01,0.0,1.0,0.0,1.0,2000000000,0,,,0
1449618218102281998,14,1449618218101785083,/odom,ga,1,0,0,0.0,0.0,0.0,0.0,0.0,0.0,1.0,0.25,0.15,0.0,1.0,0.0,0.0,1.0,2000000000,0,,,0
1449618218102654701,15,1449618218102369319,/odom,ga,2,2,0,0.0,0.0,0.0,0.0,0.0,0.0,0.0,0.15,0.15,0.01,0.0,1.0,0.0,1.0,2000000000,0,,,0
1449618218202957313,16,1449618218202781158,/odom,ga,1,0,0,0.0,0.0,0.0,0.0,0.0,0.0,1.0,0.25,0.15,0.0,1.0,0.0,0.0,1.0,2000000000,0,,,0
1449618218204185993,17,1449618218203472283,/odom,ga,2,2,0,0.0,0.0,0.0,0.0,0.0,0.0,0.0,0.15,0.15,0.01,0.0,1.0,0.0,1.0,2000000000,0,,,0
1449618218334243218,18,1449618218334065460,/odom,ga,1,0,0,0.0,0.0,0.0,0.0,0.0,0.0,1.0,0.25,0.15,0.0,1.0,0.0,0.0,1.0,2000000000,0,,,0
1449618218335491021,19,1449618218334754153,/odom,ga,2,2,0,0.0,0.0,0.0,0.0,0.0,0.0,0.0,0.15,0.15,0.01,0.0,1.0,0.0,1.0,2000000000,0,,,0
1449618218396890686,20,1449618218396704096,/odom,ga,1,0,0,0.0,0.0,0.0,0.0,0.0,0.0,1.0,0.25,0.15,0.0,1.0,0.0,0.0,1.0,2000000000,0,,,0
1449618218397333930,21,1449618218396983826,/odom,ga,2,2,0,0.0,0.0,0.0,0.0,0.0,0.0,0.0,0.15,0.15,0.01,0.0,1.0,0.0,1.0,2000000000,0,,,0
1449618218502385062,22,1449618218499917511,/odom,ga,1,0,0,0.0,0.0,0.0,0.0,0.0,0.0,1.0,0.25,0.15,0.0,1.0,0.0,0.0,1.0,2000000000,0,,,0
1449618218502405358,23,1449618218501436894,/odom,ga,2,2,0,0.0,0.0,0.0,0.0,0.0,0.0,0.0,0.15,0.15,0.01,0.0,1.0,0.0,1.0,2000000000,0,,,0
1449618218597245371,24,1449618218597128228,/odom,ga,1,0,0,0.0,0.0,0.0,0.0,0.0,0.0,1.0,0.25,0.15,0.0,1.0,0.0,0.0,1.0,2000000000,0,,,0
1449618218597913556,25,1449618218597503638,/odom,ga,2,2,0,0.0,0.0,0.0,0.0,0.0,0.0,0.0,0.15,0.15,0.01,0.0,1.0,0.0,1.0,2000000000,0,,,0
1449618218750670204,26,1449618218748942142,/odom,ga,1,0,0,0.0,0.0,0.0,0.0,0.0,0.0,1.0,0.25,0.15,0.0,1.0,0.0,0.0,1.0,2000000000,0,,,0
1449618218750676215,27,1449618218749633889,/odom,ga,2,2,0,0.0,0.0,0.0,0.0,0.0,0.0,0.0,0.15,0.15,0.01,0.0,1.0,0.0,1.0,2000000000,0,,,0
1449618218810059905,28,1449618218809632882,/odom,ga,1,0,0,0.0,0.0,0.0,0.0,0.0,0.0,1.0,0.25,0.15,0.0,1.0,0.0,0.0,1.0,2000000000,0,,,0
1449618218810599054,29,1449618218809965846,/odom,ga,2,2,0,0.0,0.0,0.0,0.0,0.0,0.0,0.0,0.15,0.15,0.01,0.0,1.0,0.0,1.0,2000000000,0,,,0
1449618218899059471,30,1449618218898868178,/odom,ga,1,0,0,0.0,0.0,0.0,0.0,0.0,0.0,1.0,0.25,0.15,0.0,1.0,0.0,0.0,1.0,2000000000,0,,,0
1449618218902276984,31,1449618218899224542,/odom,ga,2,2,0,0.0,0.0,0.0,0.0,0.0,0.0,0.0,0.15,0.15,0.01,0.0,1.0,0.0,1.0,2000000000,0,,,0
1449618219004962761,32,1449618219004741524,/odom,ga,1,0,0,0.0,0.0,0.0,0.0,0.0,0.0,1.0,0.25,0.15,0.0,1.0,0.0,0.0,1.0,2000000000,0,,,0
1449618219005416874,33,1449618219005194156,/odom,ga,2,2,0,0.0,0.0,0.0,0.0,0.0,0.0,0.0,0.15,0.15,0.01,0.0,1.0,0.0,1.0,2000000000,0,,,0
1449618219101212417,34,1449618219100642458,/odom,ga,1,0,0,0.0,0.0,0.0,0.0,0.0,0.0,1.0,0.25,0.15,0.0,1.0,0.0,0.0,1.0,2000000000,0,,,0
1449618219101225793,35,1449618219100864651,/odom,ga,2,2,0,0.0,0.0,0.0,0.0,0.0,0.0,0.0,0.15,0.15,0.01,0.0,1.0,0.0,1.0,2000000000,0,,,0
1449618219203724765,36,1449618219203100704,/odom,ga,1,0,0,0.0,0.0,0.0,0.0,0.0,0.0,1.0,0.25,0.15,0.0,1.0,0.0,0.0,1.0,2000000000,0,,,0
1449618219204911292,37,1449618219204427699,/odom,ga,2,2,0,0.0,0.0,0.0,0.0,0.0,0.0,0.0,0.15,0.15,0.01,0.0,1.0,0.0,1.0,2000000000,0,,,0
1449618219318802189,38,1449618219318639030,/odom,ga,1,0,0,0.0,0.0,0.0,0.0,0.0,0.0,1.0,0.25,0.15,0.0,1.0,0.0,0.0,1.0,2000000000,0,,,0
1449618219319344766,39,1449618219319008239,/odom,ga,2,2,0,0.0,0.0,0.0,0.0,0.0,0.0,0.0,0.15,0.15,0.01,0.0,1.0,0.0,1.0,2000000000,0,,,0
1449618219403627736,40,1449618219403253042,/odom,ga,1,0,0,0.0,0.0,0.0,0.0,0.0,0.0,1.0,0.25,0.15,0.0,1.0,0.0,0.0,1.0,2000000000,0,,,0
1449618219408765002,41,1449618219403903951,/odom,ga,2,2,0,0.0,0.0,0.0,0.0,0.0,0.0,0.0,0.15,0.15,0.01,0.0,1.0,0.0,1.0,2000000000,0,,,0
1449618219533381115,42,1449618219532592389,/odom,ga,1,0,0,0.0,0.0,0.0,0.0,0.0,0.0,1.0,0.25,0.15,0.0,1.0,0.0,0.0,1.0,2000000000,0,,,0
1449618219533433392,43,1449618219532904223,/odom,ga,2,2,0,0.0,0.0,0.0,0.0,0.0,0.0,0.0,0.15,0.15,0.01,0.0,1.0,0.0,1.0,2000000000,0,,,0
1449618219598215287,44,1449618219597792306,/odom,ga,1,0,0,0.0,0.0,0.0,0.0,0.0,0.0,1.0,0.25,0.15,0.0,1.0,0.0,0.0,1.0,2000000000,0,,,0
1449618219598218117,45,1449618219598045609,/odom,ga,2,2,0,0.0,0.0,0.0,0.0,0.0,0.0,0.0,0.15,0.15,0.01,0.0,1.0,0.0,1.0,2000000000,0,,,0
1449618219707347650,46,1449618219702928149,/odom,ga,1,0,0,0.0,0.0,0.0,0.0,0.0,0.0,1.0,0.25,0.15,0.0,1.0,0.0,0.0,1.0,2000000000,0,,,0
1449618219707354243,47,1449618219704239845,/odom,ga,2,2,0,0.0,0.0,0.0,0.0,0.0,0.0,0.0,0.15,0.15,0.01,0.0,1.0,0.0,1.0,2000000000,0,,,0
1449618219796420519,48,1449618219796186694,/odom,ga,1,0,0,0.0,0.0,0.0,0.0,0.0,0.0,1.0,0.25,0.15,0.0,1.0,0.0,0.0,1.0,2000000000,0,,,0
1449618219796982582,49,1449618219796364169,/odom,ga,2,2,0,0.0,0.0,0.0,0.0,0.0,0.0,0.0,0.15,0.15,0.01,0.0,1.0,0.0,1.0,2000000000,0,,,0
1449618219908809256,50,1449618219908048574,/odom,ga,1,0,0,0.0,0.0,0.0,0.0,0.0,0.0,1.0,0.25,0.15,0.0,1.0,0.0,0.0,1.0,2000000000,0,,,0
1449618219908813084,51,1449618219908351403,/odom,ga,2,2,0,0.0,0.0,0.0,0.0,0.0,0.0,0.0,0.15,0.15,0.01,0.0,1.0,0.0,1.0,2000000000,0,,,0
1449618220018514704,52,1449618220017824302,/odom,ga,1,0,0,0.0,0.0,0.0,0.0,0.0,0.0,1.0,0.25,0.15,0.0,1.0,0.0,0.0,1.0,2000000000,0,,,0
1449618220019060269,53,1449618220018205671,/odom,ga,2,2,0,0.0,0.0,0.0,0.0,0.0,0.0,0.0,0.15,0.15,0.01,0.0,1.0,0.0,1.0,2000000000,0,,,0
1449618220107899314,54,1449618220103643074,/odom,ga,1,0,0,0.0,0.0,0.0,0.0,0.0,0.0,1.0,0.25,0.15,0.0,1.0,0.0,0.0,1.0,2000000000,0,,,0
1449618220107940320,55,1449618220103979144,/odom,ga,2,2,0,0.0,0.0,0.0,0.0,0.0,0.0,0.0,0.15,0.15,0.01,0.0,1.0,0.0,1.0,2000000000,0,,,0
1449618220219287563,56,1449618220218509886,/odom,ga,1,0,0,0.0,0.0,0.0,0.0,0.0,0.0,1.0,0.25,0.15,0.0,1.0,0.0,0.0,1.0,2000000000,0,,,0
1449618220219292819,57,1449618220218729738,/odom,ga,2,2,0,0.0,0.0,0.0,0.0,0.0,0.0,0.0,0.15,0.15,0.01,0.0,1.0,0.0,1.0,2000000000,0,,,0
1449618220333146814,58,1449618220332465426,/odom,ga,1,0,0,0.0,0.0,0.0,0.0,0.0,0.0,1.0,0.25,0.15,0.0,1.0,0.0,0.0,1.0,2000000000,0,,,0
1449618220333164946,59,1449618220332757428,/odom,ga,2,2,0,0.0,0.0,0.0,0.0,0.0,0.0,0.0,0.15,0.15,0.01,0.0,1.0,0.0,1.0,2000000000,0,,,0
1449618220413044570,60,1449618220408620541,/odom,ga,1,0,0,0.0,0.0,0.0,0.0,0.0,0.0,1.0,0.25,0.15,0.0,1.0,0.0,0.0,1.0,2000000000,0,,,0
1449618220413048494,61,1449618220409035757,/odom,ga,2,2,0,0.0,0.0,0.0,0.0,0.0,0.0,0.0,0.15,0.15,0.01,0.0,1.0,0.0,1.0,2000000000,0,,,0
1449618220520378388,62,1449618220519128900,/odom,ga,1,0,0,0.0,0.0,0.0,0.0,0.0,0.0,1.0,0.25,0.15,0.0,1.0,0.0,0.0,1.0,2000000000,0,,,0
1449618220520381584,63,1449618220519318329,/odom,ga,2,2,0,0.0,0.0,0.0,0.0,0.0,0.0,0.0,0.15,0.15,0.01,0.0,1.0,0.0,1.0,2000000000,0,,,0
1449618220601189843,64,1449618220599644222,/odom,ga,1,0,0,0.0,0.0,0.0,0.0,0.0,0.0,1.0,0.25,0.15,0.0,1.0,0.0,0.0,1.0,2000000000,0,,,0
1449618220601193471,65,1449618220600099514,/odom,ga,2,2,0,0.0,0.0,0.0,0.0,0.0,0.0,0.0,0.15,0.15,0.01,0.0,1.0,0.0,1.0,2000000000,0,,,0
1449618220697645115,66,1449618220697432281,/odom,ga,1,0,0,0.0,0.0,0.0,0.0,0.0,0.0,1.0,0.25,0.15,0.0,1.0,0.0,0.0,1.0,2000000000,0,,,0
1449618220698131865,67,1449618220697705072,/odom,ga,2,2,0,0.0,0.0,0.0,0.0,0.0,0.0,0.0,0.15,0.15,0.01,0.0,1.0,0.0,1.0,2000000000,0,,,0
1449618220802603450,68,1449618220802397619,/odom,ga,1,0,0,0.0,0.0,0.0,0.0,0.0,0.0,1.0,0.25,0.15,0.0,1.0,0.0,0.0,1.0,2000000000,0,,,0
1449618220803261620,69,1449618220802852937,/odom,ga,2,2,0,0.0,0.0,0.0,0.0,0.0,0.0,0.0,0.15,0.15,0.01,0.0,1.0,0.0,1.0,2000000000,0,,,0
1449618220915755098,70,1449618220914674366,/odom,ga,1,0,0,0.0,0.0,0.0,0.0,0.0,0.0,1.0,0.25,0.15,0.0,1.0,0.0,0.0,1.0,2000000000,0,,,0
1449618220915882548,71,1449618220915015826,/odom,ga,2,2,0,0.0,0.0,0.0,0.0,0.0,0.0,0.0,0.15,0.15,0.01,0.0,1.0,0.0,1.0,2000000000,0,,,0
1449618221006145111,72,1449618221005990514,/odom,ga,1,0,0,0.0,0.0,0.0,0.0,0.0,0.0,1.0,0.25,0.15,0.0,1.0,0.0,0.0,1.0,2000000000,0,,,0
1449618221006655376,73,1449618221006414974,/odom,ga,2,2,0,0.0,0.0,0.0,0.0,0.0,0.0,0.0,0.15,0.15,0.01,0.0,1.0,0.0,1.0,2000000000,0,,,0
1449618221110434271,74,1449618221109801970,/odom,ga,1,0,0,0.0,0.0,0.0,0.0,0.0,0.0,1.0,0.25,0.15,0.0,1.0,0.0,0.0,1.0,2000000000,0,,,0
1449618221110438807,75,1449618221110174814,/odom,ga,2,2,0,0.0,0.0,0.0,0.0,0.0,0.0,0.0,0.15,0.15,0.01,0.0,1.0,0.0,1.0,2000000000,0,,,0
1449618221202719496,76,1449618221202464274,/odom,ga,1,0,0,0.0,0.0,0.0,0.0,0.0,0.0,1.0,0.25,0.15,0.0,1.0,0.0,0.0,1.0,2000000000,0,,,0
1449618221203395770,77,1449618221202850531,/odom,ga,2,2,0,0.0,0.0,0.0,0.0,0.0,0.0,0.0,0.15,0.15,0.01,0.0,1.0,0.0,1.0,2000000000,0,,,0
1449618221309298711,78,1449618221307891636,/odom,ga,1,0,0,0.0,0.0,0.0,0.0,0.0,0.0,1.0,0.25,0.15,0.0,1.0,0.0,0.0,1.0,2000000000,0,,,0
1449618221309303312,79,1449618221308263131,/odom,ga,2,2,0,0.0,0.0,0.0,0.0,0.0,0.0,0.0,0.15,0.15,0.01,0.0,1.0,0.0,1.0,2000000000,0,,,0
1449618221399107099,80,1449618221398974939,/odom,ga,1,0,0,0.0,0.0,0.0,0.0,0.0,0.0,1.0,0.25,0.15,0.0,1.0,0.0,0.0,1.0,2000000000,0,,,0
1449618221399619304,81,1449618221399209572,/odom,ga,2,2,0,0.0,0.0,0.0,0.0,0.0,0.0,0.0,0.15,0.15,0.01,0.0,1.0,0.0,1.0,2000000000,0,,,0
1449618221529791171,82,1449618221529077268,/odom,ga,1,0,0,0.0,0.0,0.0,0.0,0.0,0.0,1.0,0.25,0.15,0.0,1.0,0.0,0.0,1.0,2000000000,0,,,0
1449618221531510729,83,1449618221529506985,/odom,ga,2,2,0,0.0,0.0,0.0,0.0,0.0,0.0,0.0,0.15,0.15,0.01,0.0,1.0,0.0,1.0,2000000000,0,,,0
1449618221609900031,84,1449618221608513931,/odom,ga,1,0,0,0.0,0.0,0.0,0.0,0.0,0.0,1.0,0.25,0.15,0.0,1.0,0.0,0.0,1.0,2000000000,0,,,0
1449618221609903312,85,1449618221609413077,/odom,ga,2,2,0,0.0,0.0,0.0,0.0,0.0,0.0,0.0,0.15,0.15,0.01,0.0,1.0,0.0,1.0,2000000000,0,,,0
1449618221735680942,86,1449618221735527284,/odom,ga,1,0,0,0.0,0.0,0.0,0.0,0.0,0.0,1.0,0.25,0.15,0.0,1.0,0.0,0.0,1.0,2000000000,0,,,0
1449618221736240574,87,1449618221735943059,/odom,ga,2,2,0,0.0,0.0,0.0,0.0,0.0,0.0,0.0,0.15,0.15,0.01,0.0,1.0,0.0,1.0,2000000000,0,,,0
1449618221803093352,88,1449618221801772648,/odom,ga,1,0,0,0.0,0.0,0.0,0.0,0.0,0.0,1.0,0.25,0.15,0.0,1.0,0.0,0.0,1.0,2000000000,0,,,0
1449618221803102275,89,1449618221802233200,/odom,ga,2,2,0,0.0,0.0,0.0,0.0,0.0,0.0,0.0,0.15,0.15,0.01,0.0,1.0,0.0,1.0,2000000000,0,,,0
1449618221901108287,90,1449618221900649661,/odom,ga,1,0,0,0.0,0.0,0.0,0.0,0.0,0.0,1.0,0.25,0.15,0.0,1.0,0.0,0.0,1.0,2000000000,0,,,0
1449618221901131525,91,1449618221900822937,/odom,ga,2,2,0,0.0,0.0,0.0,0.0,0.0,0.0,0.0,0.15,0.15,0.01,0.0,1.0,0.0,1.0,2000000000,0,,,0
1449618222041905270,92,1449618222036338225,/odom,ga,1,0,0,0.0,0.0,0.0,0.0,0.0,0.0,1.0,0.25,0.15,0.0,1.0,0.0,0.0,1.0,2000000000,0,,,0
1449618222041913764,93,1449618222036691319,/odom,ga,2,2,0,0.0,0.0,0.0,0.0,0.0,0.0,0.0,0.15,0.15,0.01,0.0,1.0,0.0,1.0,2000000000,0,,,0
1449618222134856149,94,1449618222134249161,/odom,ga,1,0,0,0.0,0.0,0.0,0.0,0.0,0.0,1.0,0.25,0.15,0.0,1.0,0.0,0.0,1.0,2000000000,0,,,0
1449618222134896438,95,1449618222134541575,/odom,ga,2,2,0,0.0,0.0,0.0,0.0,0.0,0.0,0.0,0.15,0.15,0.01,0.0,1.0,0.0,1.0,2000000000,0,,,0
1449618222223224056,96,1449618222222280611,/odom,ga,1,0,0,0.0,0.0,0.0,0.0,0.0,0.0,1.0,0.25,0.15,0.0,1.0,0.0,0.0,1.0,2000000000,0,,,0
1449618222223240751,97,1449618222222585040,/odom,ga,2,2,0,0.0,0.0,0.0,0.0,0.0,0.0,0.0,0.15,0.15,0.01,0.0,1.0,0.0,1.0,2000000000,0,,,0
1449618222330967342,98,1449618222330644723,/odom,ga,1,0,0,-0.00287963245437,-3.04332289367e-05,0.0,0.0,0.0,0.0052839997518,0.999986039576,0.25,0.15,0.0,1.0,0.0,0.0,1.0,2000000000,0,,,0
1449618222330971090,99,1449618222330816055,/odom,ga,2,2,0,-0.00287963245437,-3.04332289367e-05,0.0,0.0,0.0,0.0,0.0,0.15,0.15,0.01,0.0,1.0,0.0,1.0,2000000000,0,,,0
1449618222397078650,100,1449618222396949608,/odom,ga,1,0,0,-0.00287963245437,-3.04332289367e-05,0.0,0.0,0.0,0.0052839997518,0.999986039576,0.25,0.15,0.0,1.0,0.0,0.0,1.0,2000000000,0,,,0
1449618222398049287,101,1449618222397113353,/odom,ga,2,2,0,-0.00287963245437,-3.04332289367e-05,0.0,0.0,0.0,0.0,0.0,0.15,0.15,0.01,0.0,1.0,0.0,1.0,2000000000,0,,,0
1449618222499606645,102,1449618222498543281,/odom,ga,1,0,0,-0.00287963245437,-3.04332289367e-05,0.0,0.0,0.0,0.0052839997518,0.999986039576,0.25,0.15,0.0,1.0,0.0,0.0,1.0,2000000000,0,,,0
1449618222505650400,103,1449618222499198764,/odom,ga,2,2,0,-0.00287963245437,-3.04332289367e-05,0.0,0.0,0.0,0.0,0.0,0.15,0.15,0.01,0.0,1.0,0.0,1.0,2000000000,0,,,0
1449618222610415707,104,1449618222610275250,/odom,ga,1,0,0,1.60811419144e-07,-3.04332289367e-05,0.0,0.0,0.0,0.0,1.0,0.25,0.15,0.0,1.0,0.0,0.0,1.0,2000000000,0,,,0
1449618222610702835,105,1449618222610504198,/odom,ga,2,2,0,1.60811419144e-07,-3.04332289367e-05,0.0,0.0,0.0,0.0,0.0,0.15,0.15,0.01,0.0,1.0,0.0,1.0,2000000000,0,,,0
1449618222702790273,106,1449618222702059846,/odom,ga,1,0,0,1.60811419144e-07,-3.04332289367e-05,0.0,0.0,0.0,0.0,1.0,0.25,0.15,0.0,1.0,0.0,0.0,1.0,2000000000,0,,,0
1449618222703538075,107,1449618222702357482,/odom,ga,2,2,0,2.50030326843,0.502387404442,0.758508145809,0.0,0.0,0.0,0.0,0.15,0.15,0.01,0.0,1.0,0.0,1.0,2000000000,0,,,0
1449618222840011831,108,1449618222825120184,/odom,ga,1,0,0,1.60811419144e-07,-3.04332289367e-05,0.0,0.0,0.0,0.0,1.0,0.25,0.15,0.0,1.0,0.0,0.0,1.0,2000000000,0,,,0
1449618222840014802,109,1449618222826421396,/odom,ga,2,2,0,2.50030326843,0.502387404442,0.758508145809,0.0,0.0,0.0,0.0,0.15,0.15,0.01,0.0,1.0,0.0,1.0,2000000000,0,,,0
1449618222900587880,110,1449618222898714394,/odom,ga,1,0,0,1.60811419144e-07,-3.04332289367e-05,0.0,0.0,0.0,0.0,1.0,0.25,0.15,0.0,1.0,0.0,0.0,1.0,2000000000,0,,,0
1449618222900596336,111,1449618222898971838,/odom,ga,2,2,0,2.46480894089,0.459374666214,0.728970050812,0.0,0.0,0.0,0.0,0.15,0.15,0.01,0.0,1.0,0.0,1.0,2000000000,0,,,0
1449618223016504991,112,1449618223016264646,/odom,ga,1,0,0,-0.00287947164295,-6.08664578733e-05,0.0,0.0,0.0,0.0052839997518,0.999986039576,0.25,0.15,0.0,1.0,0.0,0.0,1.0,2000000000,0,,,0
1449618223016563047,113,1449618223016455447,/odom,ga,2,2,0,2.46480894089,0.459374666214,0.728970050812,0.0,0.0,0.0,0.0,0.15,0.15,0.01,0.0,1.0,0.0,1.0,2000000000,0,,,0
1449618223102121221,114,1449618223099916882,/odom,ga,1,0,0,0.00369132557682,-6.08664578733e-05,0.0,0.0,0.0,0.0,1.0,0.25,0.15,0.0,1.0,0.0,0.0,1.0,2000000000,0,,,0
1449618223102126553,115,1449618223100316297,/odom,ga,2,2,0,2.49175834656,0.498845279217,0.73823428154,0.0,0.0,0.0,0.0,0.15,0.15,0.01,0.0,1.0,0.0,1.0,2000000000,0,,,0
1449618223209645124,116,1449618223208263749,/odom,ga,1,0,0,0.012521552657,-6.08664578733e-05,0.0,0.0,0.0,0.0,1.0,0.25,0.15,0.0,1.0,0.0,0.0,1.0,2000000000,0,,,0
1449618223209648359,117,1449618223208789793,/odom,ga,2,2,0,2.49175834656,0.498845279217,0.73823428154,0.0,0.0,0.0,0.0,0.15,0.15,0.01,0.0,1.0,0.0,1.0,2000000000,0,,,0
1449618223312336774,118,1449618223312101978,/odom,ga,1,0,0,0.0205088609914,-6.08664578733e-05,0.0,0.0,0.0,0.0,1.0,0.25,0.15,0.0,1.0,0.0,0.0,1.0,2000000000,0,,,0
1449618223312926804,119,1449618223312638254,/odom,ga,2,2,0,2.5036687851,0.495040595531,0.748087644577,0.0,0.0,0.0,0.0,0.15,0.15,0.01,0.0,1.0,0.0,1.0,2000000000,0,,,0
1449618223404099661,120,1449618223402866222,/odom,ga,1,0,0,0.162365217202,-6.08664578733e-05,0.0,0.0,0.0,0.0,1.0,0.25,0.15,0.0,1.0,0.0,0.0,1.0,2000000000,0,,,0
1449618223404109609,121,1449618223403327426,/odom,ga,2,2,0,2.5036687851,0.495040595531,0.748087644577,0.0,0.0,0.0,0.0,0.15,0.15,0.01,0.0,1.0,0.0,1.0,2000000000,0,,,0
1449618223518971085,122,1449618223518619866,/odom,ga,1,0,0,0.210152476483,-6.08664578733e-05,0.0,0.0,0.0,0.0,1.0,0.25,0.15,0.0,1.0,0.0,0.0,1.0,2000000000,0,,,0
1449618223519216194,123,1449618223518845612,/odom,ga,2,2,0,2.45556855202,0.465396881104,0.75888478756,0.0,0.0,0.0,0.0,0.15,0.15,0.01,0.0,1.0,0.0,1.0,2000000000,0,,,0
1449618223598601439,124,1449618223597882484,/odom,ga,1,0,0,0.317218772731,-6.08664578733e-05,0.0,0.0,0.0,0.0,1.0,0.25,0.15,0.0,1.0,0.0,0.0,1.0,2000000000,0,,,0
1449618223598604864,125,1449618223598455077,/odom,ga,2,2,0,2.45556855202,0.465396881104,0.75888478756,0.0,0.0,0.0,0.0,0.15,0.15,0.01,0.0,1.0,0.0,1.0,2000000000,0,,,0
1449618223718404735,126,1449618223718098033,/odom,ga,1,0,0,0.335533132361,-6.08664578733e-05,0.0,0.0,0.0,0.0,1.0,0.25,0.15,0.0,1.0,0.0,0.0,1.0,2000000000,0,,,0
1449618223719299821,127,1449618223718752045,/odom,ga,2,2,0,2.46415615082,0.461211383343,0.739003956318,0.0,0.0,0.0,0.0,0.15,0.15,0.01,0.0,1.0,0.0,1.0,2000000000,0,,,0
1449618223840862694,128,1449618223838135118,/odom,ga,1,0,0,0.35767840382,-6.08664578733e-05,0.0,0.0,0.0,0.0,1.0,0.25,0.15,0.0,1.0,0.0,0.0,1.0,2000000000,0,,,0
1449618223840879435,129,1449618223838910276,/odom,ga,2,2,0,2.46415615082,0.461211383343,0.739003956318,0.0,0.0,0.0,0.0,0.15,0.15,0.01,0.0,1.0,0.0,1.0,2000000000,0,,,0
1449618223903996442,130,1449618223903469018,/odom,ga,1,0,0,0.393876821689,-6.08664578733e-05,0.0,0.0,0.0,0.0,1.0,0.25,0.15,0.0,1.0,0.0,0.0,1.0,2000000000,0,,,0
1449618223904007511,131,1449618223903855708,/odom,ga,2,2,0,2.4540605545,0.470898389816,0.749102175236,0.0,0.0,0.0,0.0,0.15,0.15,0.01,0.0,1.0,0.0,1.0,2000000000,0,,,0
1449618224027768523,132,1449618224027517443,/odom,ga,1,0,0,0.390786151223,-6.08664578733e-05,0.0,0.0,0.0,0.0,1.0,0.25,0.15,0.0,1.0,0.0,0.0,1.0,2000000000,0,,,0
1449618224028301095,133,1449618224028040334,/odom,ga,2,2,0,2.4540605545,0.470898389816,0.749102175236,0.0,0.0,0.0,0.0,0.15,0.15,0.01,0.0,1.0,0.0,1.0,2000000000,0,,,0
1449618224103855784,134,1449618224103372683,/odom,ga,1,0,0,0.385802706968,-6.08664578733e-05,0.0,0.0,0.0,0.0,1.0,0.25,0.15,0.0,1.0,0.0,0.0,1.0,2000000000,0,,,0
1449618224103858930,135,1449618224103549684,/odom,ga,2,2,0,2.46420812607,0.468270868063,0.728970825672,0.0,0.0,0.0,0.0,0.15,0.15,0.01,0.0,1.0,0.0,1.0,2000000000,0,,,0
1449618224305827475,136,1449618224304154458,/odom,ga,1,0,0,0.399824208554,-0.00428638206729,0.0,0.0,0.0,-0.0052839997518,0.999986039576,0.25,0.15,0.0,1.0,0.0,0.0,1.0,2000000000,0,,,0
1449618224305846743,137,1449618224304581341,/odom,ga,2,2,0,2.46420812607,0.468270868063,0.728970825672,0.0,0.0,0.0,0.0,0.15,0.15,0.01,0.0,1.0,0.0,1.0,2000000000,0,,,0
1449618224319830324,138,1449618224318232425,/odom,ga,1,0,0,0.426546222574,-0.00453835719746,0.0,0.0,0.0,-0.0052839997518,0.999986039576,0.25,0.15,0.0,1.0,0.0,0.0,1.0,2000000000,0,,,0
1449618224319860543,139,1449618224319183571,/odom,ga,2,2,0,2.46125173569,0.465902000666,0.739027500153,0.0,0.0,0.0,0.0,0.15,0.15,0.01,0.0,1.0,0.0,1.0,2000000000,0,,,0
1449618224412198441,140,1449618224411647822,/odom,ga,1,0,0,0.426546225687,-0.00453835723037,0.0,0.0,0.0,-0.0052839997518,0.999986039576,0.25,0.15,0.0,1.0,0.0,0.0,1.0,2000000000,0,,,0
1449618224413071932,141,1449618224412345513,/odom,ga,2,2,0,2.46125173569,0.465902000666,0.739027500153,0.0,0.0,0.0,0.0,0.15,0.15,0.01,0.0,1.0,0.0,1.0,2000000000,0,,,0
1449618224511315001,142,1449618224510551798,/odom,ga,1,0,0,0.43230500595,-0.00462965349476,0.0,0.0,0.0,-0.0052839997518,0.999986039576,0.25,0.15,0.0,1.0,0.0,0.0,1.0,2000000000,0,,,0
1449618224511527182,143,1449618224511185368,/odom,ga,2,2,0,2.46125173569,0.465902000666,0.739027500153,0.0,0.0,0.0,0.0,0.15,0.15,0.01,0.0,1.0,0.0,1.0,2000000000,0,,,0
1449618224615541747,144,1449618224614265343,/odom,ga,1,0,0,0.440872444757,-0.00922837368978,0.0,0.0,0.0,-0.0105678519699,0.999944158693,0.25,0.15,0.0,1.0,0.0,0.0,1.0,2000000000,0,,,0
1449618224615549341,145,1449618224614951053,/odom,ga,2,2,0,2.48884510994,0.486004859209,0.747720181942,0.0,0.0,0.0,0.0,0.15,0.15,0.01,0.0,1.0,0.0,1.0,2000000000,0,,,0
1449618224707438509,146,1449618224706151129,/odom,ga,1,0,0,0.4436341212,-0.0137348045367,0.0,0.0,0.0,-0.0158514091245,0.999874358521,0.25,0.15,0.0,1.0,0.0,0.0,1.0,2000000000,0,,,0
1449618224707442160,147,1449618224706849807,/odom,ga,2,2,0,2.46935033798,0.477155804634,0.758703052998,0.0,0.0,0.0,0.0,0.15,0.15,0.01,0.0,1.0,0.0,1.0,2000000000,0,,,0
1449618224807144533,148,1449618224805738549,/odom,ga,1,0,0,0.44939081052,-0.0139173766307,0.0,0.0,0.0,-0.0158514091245,0.999874358521,0.25,0.15,0.0,1.0,0.0,0.0,1.0,2000000000,0,,,0
1449618224807155041,149,1449618224806649080,/odom,ga,2,2,0,2.46935033798,0.477155804634,0.758703052998,0.0,0.0,0.0,0.0,0.15,0.15,0.01,0.0,1.0,0.0,1.0,2000000000,0,,,0
1449618224938331811,150,1449618224937875965,/odom,ga,1,0,0,0.457861392585,-0.0186353126584,0.0,0.0,0.0,-0.0211345236944,0.999776641009,0.25,0.15,0.0,1.0,0.0,0.0,1.0,2000000000,0,,,0
1449618224938854320,151,1449618224938639346,/odom,ga,2,2,0,2.47137713432,0.468975007534,0.748950183392,0.0,0.0,0.0,0.0,0.15,0.15,0.01,0.0,1.0,0.0,1.0,2000000000,0,,,0
1449618225007485003,152,1449618225006890948,/odom,ga,1,0,0,0.458765629845,-0.0230449830452,0.0,0.0,0.0,-0.0264170481704,0.999651008886,0.25,0.15,0.0,1.0,0.0,0.0,1.0,2000000000,0,,,0
1449618225007487846,153,1449618225007086349,/odom,ga,2,2,0,2.4881131649,0.510502636433,0.768262505531,0.0,0.0,0.0,0.0,0.15,0.15,0.01,0.0,1.0,0.0,1.0,2000000000,0,,,0
1449618225120972048,154,1449618225118576740,/odom,ga,1,0,0,0.566504734172,-0.0229089031053,0.0,0.0,0.0,-0.0159390135129,0.999872965855,0.25,0.15,0.0,1.0,0.0,0.0,1.0,2000000000,0,,,0
1449618225120976810,155,1449618225119235798,/odom,ga,2,2,0,2.4881131649,0.510502636433,0.768262505531,0.0,0.0,0.0,0.0,0.15,0.15,0.01,0.0,1.0,0.0,1.0,2000000000,0,,,0
1449618225201209931,156,1449618225200058180,/odom,ga,1,0,0,0.745009130184,-0.0321925923834,0.0,0.0,0.0,-0.00929495578773,0.999956800965,0.25,0.15,0.0,1.0,0.0,0.0,1.0,2000000000,0,,,0
1449618225201214431,157,1449618225200536070,/odom,ga,2,2,0,2.51957559586,0.473131626844,0.768297672272,0.0,0.0,0.0,0.0,0.15,0.15,0.01,0.0,1.0,0.0,1.0,2000000000,0,,,0
1449618225320542869,158,1449618225319640156,/odom,ga,1,0,0,0.742917010982,0.0275274397541,0.0,0.0,0.0,0.072244712443,0.997386936712,0.25,0.15,0.0,1.0,0.0,0.0,1.0,2000000000,0,,,0
1449618225320554639,159,1449618225320090413,/odom,ga,2,2,0,2.51957559586,0.473131626844,0.768297672272,0.0,0.0,0.0,0.0,0.15,0.15,0.01,0.0,1.0,0.0,1.0,2000000000,0,,,0
1449618225407640337,160,1449618225406942490,/odom,ga,1,0,0,0.737658302905,0.107681370832,0.0,0.0,0.0,0.184312343423,0.982867722566,0.25,0.15,0.0,1.0,0.0,0.0,1.0,2000000000,0,,,0
1449618225407643776,161,1449618225407325143,/odom,ga,2,2,0,2.47355437279,0.489164710045,0.738593101501,0.0,0.0,0.0,0.0,0.15,0.15,0.01,0.0,1.0,0.0,1.0,2000000000,0,,,0
1449618225512255276,162,1449618225510176742,/odom,ga,1,0,0,0.732816108263,0.14041201048,0.0,0.0,0.0,0.227982693924,0.973665184379,0.25,0.15,0.0,1.0,0.0,0.0,1.0,2000000000,0,,,0
1449618225512264074,163,1449618225510795632,/odom,ga,2,2,0,2.47355437279,0.489164710045,0.738593101501,0.0,0.0,0.0,0.0,0.15,0.15,0.01,0.0,1.0,0.0,1.0,2000000000,0,,,0
1449618225615079308,164,1449618225614256824,/odom,ga,1,0,0,0.723505076426,0.176295194784,0.0,0.0,0.0,0.277697687182,0.960668514386,0.25,0.15,0.0,1.0,0.0,0.0,1.0,2000000000,0,,,0
1449618225615240363,165,1449618225614742931,/odom,ga,2,2,0,2.47147250175,0.447161734104,0.759232878685,0.0,0.0,0.0,0.0,0.15,0.15,0.01,0.0,1.0,0.0,1.0,2000000000,0,,,0
1449618225756932204,166,1449618225755696476,/odom,ga,1,0,0,0.732800832212,0.192716131998,0.0,0.0,0.0,0.297611959498,0.954686923323,0.25,0.15,0.0,1.0,0.0,0.0,1.0,2000000000,0,,,0
1449618225756940209,167,1449618225755933292,/odom,ga,2,2,0,2.47147250175,0.447161734104,0.759232878685,0.0,0.0,0.0,0.0,0.15,0.15,0.01,0.0,1.0,0.0,1.0,2000000000,0,,,0
1449618225806585810,168,1449618225801730999,/odom,ga,1,0,0,0.797204670127,0.179783130683,0.0,0.0,0.0,0.245582447395,0.969375707108,0.25,0.15,0.0,1.0,0.0,0.0,1.0,2000000000,0,,,0
1449618225806634068,169,1449618225802367827,/odom,ga,2,2,0,2.4743103981,0.453462302685,0.7491492033,0.0,0.0,0.0,0.0,0.15,0.15,0.01,0.0,1.0,0.0,1.0,2000000000,0,,,0
1449618225915174803,170,1449618225909209958,/odom,ga,1,0,0,0.838172998374,0.151195070914,0.0,0.0,0.0,0.189952374494,0.981793305856,0.25,0.15,0.0,1.0,0.0,0.0,1.0,2000000000,0,,,0
1449618225915179489,171,1449618225910208337,/odom,ga,2,2,0,2.4743103981,0.453462302685,0.7491492033,0.0,0.0,0.0,0.0,0.15,0.15,0.01,0.0,1.0,0.0,1.0,2000000000,0,,,0
1449618226040453925,172,1449618226035819677,/odom,ga,1,0,0,0.854910468551,0.12884365277,0.0,0.0,0.0,0.152418085582,0.988316106915,0.25,0.15,0.0,1.0,0.0,0.0,1.0,2000000000,0,,,0
1449618226040465857,173,1449618226036630681,/odom,ga,2,2,0,2.46980571747,0.412968665361,0.749452650547,0.0,0.0,0.0,0.0,0.15,0.15,0.01,0.0,1.0,0.0,1.0,2000000000,0,,,0
1449618226105325323,174,1449618226103795287,/odom,ga,1,0,0,0.900423624488,0.155817716805,0.0,0.0,0.0,0.147952015156,0.988994540537,0.25,0.15,0.0,1.0,0.0,0.0,1.0,2000000000,0,,,0
1449618226105357285,175,1449618226104453988,/odom,ga,2,2,0,2.46980571747,0.412968665361,0.749452650547,0.0,0.0,0.0,0.0,0.15,0.15,0.01,0.0,1.0,0.0,1.0,2000000000,0,,,0
1449618226212858961,176,1449618226212723640,/odom,ga,1,0,0,0.925686419968,0.143377447746,0.0,0.0,0.0,0.122684004107,0.992445784482,0.25,0.15,0.0,1.0,0.0,0.0,1.0,2000000000,0,,,0
1449618226213310404,177,1449618226212980372,/odom,ga,2,2,0,2.45825099945,0.422068834305,0.759434103966,0.0,0.0,0.0,0.0,0.15,0.15,0.01,0.0,1.0,0.0,1.0,2000000000,0,,,0
1449618226307210160,178,1449618226304501545,/odom,ga,1,0,0,0.965530350777,0.157517594916,0.0,0.0,0.0,0.113626106568,0.993523581958,0.25,0.15,0.0,1.0,0.0,0.0,1.0,2000000000,0,,,0
1449618226307393494,179,1449618226305502595,/odom,ga,2,2,0,2.45825099945,0.422068834305,0.759434103966,0.0,0.0,0.0,0.0,0.15,0.15,0.01,0.0,1.0,0.0,1.0,2000000000,0,,,0
1449618226405043272,180,1449618226404481892,/odom,ga,1,0,0,0.97965482761,0.177487563805,0.0,0.0,0.0,0.120786875076,0.992678462952,0.25,0.15,0.0,1.0,0.0,0.0,1.0,2000000000,0,,,0
1449618226405194540,181,1449618226405040119,/odom,ga,2,2,0,2.49158716202,0.392063856125,0.709027707577,0.0,0.0,0.0,0.0,0.15,0.15,0.01,0.0,1.0,0.0,1.0,2000000000,0,,,0
1449618226505417867,182,1449618226504547631,/odom,ga,1,0,0,1.01346522735,0.18837540796,0.0,0.0,0.0,0.115840286628,0.993267853096,0.25,0.15,0.0,1.0,0.0,0.0,1.0,2000000000,0,,,0
1449618226505580292,183,1449618226505103762,/odom,ga,2,2,0,2.49158716202,0.392063856125,0.709027707577,0.0,0.0,0.0,0.0,0.15,0.15,0.01,0.0,1.0,0.0,1.0,2000000000,0,,,0
1449618226608641802,184,1449618226608082409,/odom,ga,1,0,0,1.02786186257,0.215356935921,0.0,0.0,0.0,0.129658865887,0.991558661148,0.25,0.15,0.0,1.0,0.0,0.0,1.0,2000000000,0,,,0
1449618226608680430,185,1449618226608283550,/odom,ga,2,2,0,2.47208929062,0.427032858133,0.738767504692,0.0,0.0,0.0,0.0,0.15,0.15,0.01,0.0,1.0,0.0,1.0,2000000000,0,,,0
1449618226717603269,186,1449618226714787701,/odom,ga,1,0,0,1.05186780599,0.171184193143,0.0,0.0,0.0,0.064660188163,0.997907340421,0.25,0.15,0.0,1.0,0.0,0.0,1.0,2000000000,0,,,0
1449618226717607679,187,1449618226715301694,/odom,ga,2,2,0,2.47208929062,0.427032858133,0.738767504692,0.0,0.0,0.0,0.0,0.15,0.15,0.01,0.0,1.0,0.0,1.0,2000000000,0,,,0
1449618226798223180,188,1449618226797784038,/odom,ga,1,0,0,1.06386877974,0.145561464976,0.0,0.0,0.0,0.0234605650655,0.999724763066,0.25,0.15,0.0,1.0,0.0,0.0,1.0,2000000000,0,,,0
1449618226798889084,189,1449618226798653753,/odom,ga,2,2,0,2.46843552589,0.407871603966,0.69815325737,0.0,0.0,0.0,0.0,0.15,0.15,0.01,0.0,1.0,0.0,1.0,2000000000,0,,,0
1449618226934655555,190,1449618226932179634,/odom,ga,1,0,0,1.07536957244,0.129228555619,0.0,0.0,0.0,-0.0075834430093,0.999971245283,0.25,0.15,0.0,1.0,0.0,0.0,1.0,2000000000,0,,,0
1449618226934672032,191,1449618226932762077,/odom,ga,2,2,0,2.46843552589,0.407871603966,0.69815325737,0.0,0.0,0.0,0.0,0.15,0.15,0.01,0.0,1.0,0.0,1.0,2000000000,0,,,0
1449618227018937364,192,1449618227016628199,/odom,ga,1,0,0,1.08347200017,0.067766434255,0.0,0.0,0.0,-0.111804399653,0.993730233121,0.25,0.15,0.0,1.0,0.0,0.0,1.0,2000000000,0,,,0
1449618227018954820,193,1449618227016925361,/odom,ga,2,2,0,2.53407073021,0.447208940983,0.757932424545,0.0,0.0,0.0,0.0,0.15,0.15,0.01,0.0,1.0,0.0,1.0,2000000000,0,,,0
1449618227102676047,194,1449618227102494468,/odom,ga,1,0,0,1.10085378737,0.0633536525768,0.0,0.0,0.0,-0.133294886423,0.9910764215,0.25,0.15,0.0,1.0,0.0,0.0,1.0,2000000000,0,,,0
1449618227104510918,195,1449618227102912102,/odom,ga,2,2,0,2.53407073021,0.447208940983,0.757932424545,0.0,0.0,0.0,0.0,0.15,0.15,0.01,0.0,1.0,0.0,1.0,2000000000,0,,,0
1449618227629100554,196,1449618227628413349,/odom,ga,1,0,0,1.69907731338,-0.855337703145,0.0,0.0,0.0,-0.701335061959,0.71283176898,0.25,0.15,0.0,1.0,0.0,0.0,1.0,2000000000,0,,,0
1449618227629103959,197,1449618227628595551,/odom,ga,2,2,0,2.48644018173,0.434260249138,0.707369685173,0.0,0.0,0.0,0.0,0.15,0.15,0.01,0.0,1.0,0.0,1.0,2000000000,0,,,0
1449618227652879237,198,1449618227644968988,/odom,ga,1,0,0,1.24216156009,0.0813812735904,0.0,0.0,0.0,-0.184794326058,0.982777216391,0.25,0.15,0.0,1.0,0.0,0.0,1.0,2000000000,0,,,0
1449618227652882384,199,1449618227645811530,/odom,ga,2,2,0,2.45394992828,0.429497241974,0.707999885082,0.0,0.0,0.0,0.0,0.15,0.15,0.01,0.0,1.0,0.0,1.0,2000000000,0,,,0
1449618227741051264,200,1449618227739207327,/odom,ga,1,0,0,1.29127041211,0.170449624272,0.0,0.0,0.0,-0.0700152918092,0.997545918198,0.25,0.15,0.0,1.0,0.0,0.0,1.0,2000000000,0,,,0
1449618227741056104,201,1449618227740316369,/odom,ga,2,2,0,2.45394992828,0.429497241974,0.707999885082,0.0,0.0,0.0,0.0,0.15,0.15,0.01,0.0,1.0,0.0,1.0,2000000000,0,,,0
1449618227858516453,202,1449618227855007353,/odom,ga,1,0,0,1.33248169132,0.24494137489,0.0,0.0,0.0,0.0188370713805,0.99982256663,0.25,0.15,0.0,1.0,0.0,0.0,1.0,2000000000,0,,,0
1449618227858521658,203,1449618227855467463,/odom,ga,2,2,0,2.45394992828,0.429497241974,0.707999885082,0.0,0.0,0.0,0.0,0.15,0.15,0.01,0.0,1.0,0.0,1.0,2000000000,0,,,0
1449618227953942250,204,1449618227953044591,/odom,ga,1,0,0,1.37554950287,0.247125756786,0.0,0.0,0.0,0.0199029107539,0.999801917453,0.25,0.15,0.0,1.0,0.0,0.0,1.0,2000000000,0,,,0
1449618227953949008,205,1449618227953424972,/odom,ga,2,2,0,2.45394992828,0.429497241974,0.707999885082,0.0,0.0,0.0,0.0,0.15,0.15,0.01,0.0,1.0,0.0,1.0,2000000000,0,,,0
1449618228042030237,206,1449618228041351145,/odom,ga,1,0,0,1.39822808387,0.264287325843,0.0,0.0,0.0,0.0381210865024,0.99927312721,0.25,0.15,0.0,1.0,0.0,0.0,1.0,2000000000,0,,,0
1449618228042034070,207,1449618228041672352,/odom,ga,2,2,0,2.45394992828,0.429497241974,0.707999885082,0.0,0.0,0.0,0.0,0.15,0.15,0.01,0.0,1.0,0.0,1.0,2000000000,0,,,0
1449618228166452290,208,1449618228165759857,/odom,ga,1,0,0,1.42090308651,0.300750402942,0.0,0.0,0.0,0.084588002902,0.996416012399,0.25,0.15,0.0,1.0,0.0,0.0,1.0,2000000000,0,,,0
1449618228168368816,209,1449618228166533372,/odom,ga,2,2,0,2.37897467613,0.339547008276,0.66853260994,0.0,0.0,0.0,0.0,0.15,0.15,0.01,0.0,1.0,0.0,1.0,2000000000,0,,,0
1449618228245211793,210,1449618228238105790,/odom,ga,1,0,0,1.47089118905,0.292879640513,0.0,0.0,0.0,0.0743565611726,0.997231719216,0.25,0.15,0.0,1.0,0.0,0.0,1.0,2000000000,0,,,0
1449618228245215667,211,1449618228238291275,/odom,ga,2,2,0,2.37897467613,0.339547008276,0.66853260994,0.0,0.0,0.0,0.0,0.15,0.15,0.01,0.0,1.0,0.0,1.0,2000000000,0,,,0
1449618228358490432,212,1449618228352301693,/odom,ga,1,0,0,1.48119887112,0.300061169893,0.0,0.0,0.0,0.0801304340486,0.996784386685,0.25,0.15,0.0,1.0,0.0,0.0,1.0,2000000000,0,,,0
1449618228358496478,213,1449618228352588458,/odom,ga,2,2,0,2.37897467613,0.339547008276,0.66853260994,0.0,0.0,0.0,0.0,0.15,0.15,0.01,0.0,1.0,0.0,1.0,2000000000,0,,,0
1449618228459489505,214,1449618228458055551,/odom,ga,1,0,0,1.51141244116,0.294532088183,0.0,0.0,0.0,0.0746986894852,0.997206150096,0.25,0.15,0.0,1.0,0.0,0.0,1.0,2000000000,0,,,0
1449618228459493794,215,1449618228458378451,/odom,ga,2,2,0,2.37897467613,0.339547008276,0.66853260994,0.0,0.0,0.0,0.0,0.15,0.15,0.01,0.0,1.0,0.0,1.0,2000000000,0,,,0
1449618228552940663,216,1449618228549094001,/odom,ga,1,0,0,1.54511569852,0.2842404083,0.0,0.0,0.0,0.0636244217867,0.997973913964,0.25,0.15,0.0,1.0,0.0,0.0,1.0,2000000000,0,,,0
1449618228552947520,217,1449618228549836916,/odom,ga,2,2,0,2.37897467613,0.339547008276,0.66853260994,0.0,0.0,0.0,0.0,0.15,0.15,0.01,0.0,1.0,0.0,1.0,2000000000,0,,,0
1449618228633853277,218,1449618228633259610,/odom,ga,1,0,0,1.5714810122,0.279684491916,0.0,0.0,0.0,0.0573529596167,0.998353964295,0.25,0.15,0.0,1.0,0.0,0.0,1.0,2000000000,0,,,0
1449618228634098619,219,1449618228633677951,/odom,ga,2,2,0,2.4847548008,0.463212162256,0.727487385273,0.0,0.0,0.0,0.0,0.15,0.15,0.01,0.0,1.0,0.0,1.0,2000000000,0,,,0
1449618228743802673,220,1449618228741854692,/odom,ga,1,0,0,1.59316182695,0.276229715701,0.0,0.0,0.0,0.0533770609335,0.998574428556,0.25,0.15,0.0,1.0,0.0,0.0,1.0,2000000000,0,,,0
1449618228743925275,221,1449618228742124389,/odom,ga,2,2,0,2.46558618546,0.464340567589,0.69746285677,0.0,0.0,0.0,0.0,0.15,0.15,0.01,0.0,1.0,0.0,1.0,2000000000,0,,,0
1449618228860062340,222,1449618228858275403,/odom,ga,1,0,0,1.63125615433,0.268395489029,0.0,0.0,0.0,0.0462867189056,0.998928195444,0.25,0.15,0.0,1.0,0.0,0.0,1.0,2000000000,0,,,0
1449618228860075818,223,1449618228859101506,/odom,ga,2,2,0,2.46558618546,0.464340567589,0.69746285677,0.0,0.0,0.0,0.0,0.15,0.15,0.01,0.0,1.0,0.0,1.0,2000000000,0,,,0
1449618228969627302,224,1449618228968040451,/odom,ga,1,0,0,1.66044682323,0.264532338721,0.0,0.0,0.0,0.0413958579506,0.999142824097,0.25,0.15,0.0,1.0,0.0,0.0,1.0,2000000000,0,,,0
1449618228969631957,225,1449618228968944021,/odom,ga,2,2,0,2.46558618546,0.464340567589,0.69746285677,0.0,0.0,0.0,0.0,0.15,0.15,0.01,0.0,1.0,0.0,1.0,2000000000,0,,,0
1449618229045914532,226,1449618229044981674,/odom,ga,1,0,0,1.69388468985,0.250695081554,0.0,0.0,0.0,0.029039748949,0.999578257557,0.25,0.15,0.0,1.0,0.0,0.0,1.0,2000000000,0,,,0
1449618229045923183,227,1449618229045537637,/odom,ga,2,2,0,2.46558618546,0.464340567589,0.69746285677,0.0,0.0,0.0,0.0,0.15,0.15,0.01,0.0,1.0,0.0,1.0,2000000000,0,,,0
1449618229149790558,228,1449618229144203160,/odom,ga,1,0,0,1.7051532739,0.241604662584,0.0,0.0,0.0,0.0210304542044,0.999778835541,0.25,0.15,0.0,1.0,0.0,0.0,1.0,2000000000,0,,,0
1449618229149801812,229,1449618229145004971,/odom,ga,2,2,0,2.46558618546,0.464340567589,0.69746285677,0.0,0.0,0.0,0.0,0.15,0.15,0.01,0.0,1.0,0.0,1.0,2000000000,0,,,0
1449618229232979403,230,1449618229232231777,/odom,ga,1,0,0,1.74382325281,0.230236328328,0.0,0.0,0.0,0.0123031345417,0.999924313576,0.25,0.15,0.0,1.0,0.0,0.0,1.0,2000000000,0,,,0
1449618229232995199,231,1449618229232599374,/odom,ga,2,2,0,2.46558618546,0.464340567589,0.69746285677,0.0,0.0,0.0,0.0,0.15,0.15,0.01,0.0,1.0,0.0,1.0,2000000000,0,,,0
1449618229346004934,232,1449618229344535716,/odom,ga,1,0,0,1.76558564033,0.224306594379,0.0,0.0,0.0,0.00774158858149,0.999970033454,0.25,0.15,0.0,1.0,0.0,0.0,1.0,2000000000,0,,,0
1449618229346077180,233,1449618229345146376,/odom,ga,2,2,0,2.46558618546,0.464340567589,0.69746285677,0.0,0.0,0.0,0.0,0.15,0.15,0.01,0.0,1.0,0.0,1.0,2000000000,0,,,0
1449618229479923642,234,1449618229472512274,/odom,ga,1,0,0,1.80707588092,0.220137639688,0.0,0.0,0.0,0.00455594353995,0.999989621635,0.25,0.15,0.0,1.0,0.0,0.0,1.0,2000000000,0,,,0
1449618229479926941,235,1449618229473200437,/odom,ga,2,2,0,2.46558618546,0.464340567589,0.69746285677,0.0,0.0,0.0,0.0,0.15,0.15,0.01,0.0,1.0,0.0,1.0,2000000000,0,,,0
1449618229549238500,236,1449618229548997972,/odom,ga,1,0,0,1.84237623655,0.205655187395,0.0,0.0,0.0,-0.00575584757445,0.999983434972,0.25,0.15,0.0,1.0,0.0,0.0,1.0,2000000000,0,,,0
1449618229550051628,237,1449618229549445192,/odom,ga,2,2,0,2.46558618546,0.464340567589,0.69746285677,0.0,0.0,0.0,0.0,0.15,0.15,0.01,0.0,1.0,0.0,1.0,2000000000,0,,,0
1449618229690482136,238,1449618229689906887,/odom,ga,1,0,0,1.84059180137,0.201570777846,0.0,0.0,0.0,-0.00686265183803,0.999976451728,0.25,0.15,0.0,1.0,0.0,0.0,1.0,2000000000,0,,,0
1449618229697677728,239,1449618229690760820,/odom,ga,2,2,0,2.46558618546,0.464340567589,0.69746285677,0.0,0.0,0.0,0.0,0.15,0.15,0.01,0.0,1.0,0.0,1.0,2000000000,0,,,0
1449618230061356322,240,1449618230059745721,/odom,ga,1,0,0,3.1517428005,0.119905879103,0.0,0.0,0.0,-0.0387564720239,0.999248685702,0.25,0.15,0.0,1.0,0.0,0.0,1.0,2000000000,0,,,0
1449618230061363978,241,1449618230060358422,/odom,ga,2,2,0,2.46558618546,0.464340567589,0.69746285677,0.0,0.0,0.0,0.0,0.15,0.15,0.01,0.0,1.0,0.0,1.0,2000000000,0,,,0
1449618230369471748,242,1449618230364766508,/odom,ga,1,0,0,3.24336257204,0.0702495335461,0.0,0.0,0.0,-0.0418287667556,0.999124794143,0.25,0.15,0.0,1.0,0.0,0.0,1.0,2000000000,0,,,0
1449618230369475039,243,1449618230364929258,/odom,ga,2,2,0,3.24336257204,0.0702495335461,0.0,0.0,0.0,0.0,0.0,0.15,0.15,0.01,0.0,1.0,0.0,1.0,2000000000,0,,,0
1449618230759835626,244,1449618230757181109,/odom,ga,1,0,0,3.3065424239,0.0919964256249,0.0,0.0,0.0,-0.0145385015939,0.999894310401,0.25,0.15,0.0,1.0,0.0,0.0,1.0,2000000000,0,,,0
1449618230759839435,245,1449618230757524607,/odom,ga,2,2,0,3.3065424239,0.0919964256249,0.0,0.0,0.0,0.0,0.0,0.15,0.15,0.01,0.0,1.0,0.0,1.0,2000000000,0,,,0
1449618231153051003,246,1449618231149777069,/odom,ga,1,0,0,3.40287352265,0.159049681185,0.0,0.0,0.0,0.0220330675573,0.999757242501,0.25,0.15,0.0,1.0,0.0,0.0,1.0,2000000000,0,,,0
1449618231153055981,247,1449618231150589551,/odom,ga,2,2,0,3.40287352265,0.159049681185,0.0,0.0,0.0,0.0,0.0,0.15,0.15,0.01,0.0,1.0,0.0,1.0,2000000000,0,,,0
1449618231552095891,248,1449618231551220730,/odom,ga,1,0,0,3.51234457962,0.211942904342,0.0,0.0,0.0,0.0362320235484,0.999343404676,0.25,0.15,0.0,1.0,0.0,0.0,1.0,2000000000,0,,,0
1449618231552099140,249,1449618231551387741,/odom,ga,2,2,0,3.51234457962,0.211942904342,0.0,0.0,0.0,0.0,0.0,0.15,0.15,0.01,0.0,1.0,0.0,1.0,2000000000,0,,,0
1449618231985075169,250,1449618231984043245,/odom,ga,1,0,0,3.6270792232,0.31351875984,0.0,0.0,0.0,0.061780734568,0.998089745883,0.25,0.15,0.0,1.0,0.0,0.0,1.0,2000000000,0,,,0
1449618231985094998,251,1449618231984213880,/odom,ga,2,2,0,3.6270792232,0.31351875984,0.0,0.0,0.0,0.0,0.0,0.15,0.15,0.01,0.0,1.0,0.0,1.0,2000000000,0,,,0
1449618232252625569,252,1449618232239915758,/odom,ga,1,0,0,3.65978778562,0.448855838868,0.0,0.0,0.0,0.0958228116676,0.995398407053,0.25,0.15,0.0,1.0,0.0,0.0,1.0,2000000000,0,,,0
1449618232252631445,253,1449618232240295165,/odom,ga,2,2,0,3.65978778562,0.448855838868,0.0,0.0,0.0,0.0,0.0,0.15,0.15,0.01,0.0,1.0,0.0,1.0,2000000000,0,,,0
1449618232477110875,254,1449618232469062469,/odom,ga,1,0,0,3.64398506174,0.493954751944,0.0,0.0,0.0,0.107152333191,0.994242615005,0.25,0.15,0.0,1.0,0.0,0.0,1.0,2000000000,0,,,0
1449618232477118040,255,1449618232469276713,/odom,ga,2,2,0,3.64398506174,0.493954751944,0.0,0.0,0.0,0.0,0.0,0.15,0.15,0.01,0.0,1.0,0.0,1.0,2000000000,0,,,0
1449618232717992560,256,1449618232716456019,/odom,ga,1,0,0,3.63130198877,0.55148884257,0.0,0.0,0.0,0.120780244099,0.992679269772,0.25,0.15,0.0,1.0,0.0,0.0,1.0,2000000000,0,,,0
1449618232717998535,257,1449618232717084172,/odom,ga,2,2,0,3.63130198877,0.55148884257,0.0,0.0,0.0,0.0,0.0,0.15,0.15,0.01,0.0,1.0,0.0,1.0,2000000000,0,,,0
1449618232984323144,258,1449618232983929358,/odom,ga,1,0,0,3.67455263184,0.607186021188,0.0,0.0,0.0,0.13231031699,0.991208343396,0.25,0.15,0.0,1.0,0.0,0.0,1.0,2000000000,0,,,0
1449618232985502048,259,1449618232984597167,/odom,ga,2,2,0,3.67455263184,0.607186021188,0.0,0.0,0.0,0.0,0.0,0.15,0.15,0.01,0.0,1.0,0.0,1.0,2000000000,0,,,0
1449618233306534883,260,1449618233300791245,/odom,ga,1,0,0,3.6591320621,0.668402769397,0.0,0.0,0.0,0.149859502509,0.988707302242,0.25,0.15,0.0,1.0,0.0,0.0,1.0,2000000000,0,,,0
1449618233306562121,261,1449618233301519206,/odom,ga,2,2,0,2.46558618546,0.464340567589,0.69746285677,0.0,0.0,0.0,0.0,0.15,0.15,0.01,0.0,1.0,0.0,1.0,2000000000,0,,,0
1449618233430336005,262,1449618233428979937,/odom,ga,1,0,0,3.56933969469,0.714757941692,0.0,0.0,0.0,0.169739251035,0.985489008898,0.25,0.15,0.0,1.0,0.0,0.0,1.0,2000000000,0,,,0
1449618233430350094,263,1449618233429434967,/odom,ga,2,2,0,2.46558618546,0.464340567589,0.69746285677,0.0,0.0,0.0,0.0,0.15,0.15,0.01,0.0,1.0,0.0,1.0,2000000000,0,,,0
1449618233561434667,264,1449618233558741037,/odom,ga,1,0,0,3.52984688514,0.708338067343,0.0,0.0,0.0,0.169611588355,0.985510988826,0.25,0.15,0.0,1.0,0.0,0.0,1.0,2000000000,0,,,0
1449618233561459414,265,1449618233559525645,/odom,ga,2,2,0,2.46558618546,0.464340567589,0.69746285677,0.0,0.0,0.0,0.0,0.15,0.15,0.01,0.0,1.0,0.0,1.0,2000000000,0,,,0
1449618233666283057,266,1449618233661570173,/odom,ga,1,0,0,3.41814073317,0.667302083742,0.0,0.0,0.0,0.16228647358,0.986743685307,0.25,0.15,0.0,1.0,0.0,0.0,1.0,2000000000,0,,,0
1449618233666288433,267,1449618233661790591,/odom,ga,2,2,0,2.46558618546,0.464340567589,0.69746285677,0.0,0.0,0.0,0.0,0.15,0.15,0.01,0.0,1.0,0.0,1.0,2000000000,0,,,0
1449618233885194818,268,1449618233884345292,/odom,ga,1,0,0,3.5293670321,0.71657018889,0.0,0.0,0.0,0.165933842092,0.986136887074,0.25,0.15,0.0,1.0,0.0,0.0,1.0,2000000000,0,,,0
1449618233885217156,269,1449618233884911016,/odom,ga,2,2,0,2.46558618546,0.464340567589,0.69746285677,0.0,0.0,0.0,0.0,0.15,0.15,0.01,0.0,1.0,0.0,1.0,2000000000,0,,,0
1449618234018554180,270,1449618234017661697,/odom,ga,1,0,0,3.49477200645,0.736833835686,0.0,0.0,0.0,0.178305726857,0.983975135748,0.25,0.15,0.0,1.0,0.0,0.0,1.0,2000000000,0,,,0
1449618234018705833,271,1449618234018126524,/odom,ga,2,2,0,2.46558618546,0.464340567589,0.69746285677,0.0,0.0,0.0,0.0,0.15,0.15,0.01,0.0,1.0,0.0,1.0,2000000000,0,,,0
1449618234022874367,272,1449618234022732568,/odom,ga,1,0,0,3.02633357638,0.609100848881,0.0,0.0,0.0,0.217475354127,0.976065812508,0.25,0.15,0.0,1.0,0.0,0.0,1.0,2000000000,0,,,0
1449618234023769820,273,1449618234022923053,/odom,ga,2,2,0,2.46558618546,0.464340567589,0.69746285677,0.0,0.0,0.0,0.0,0.15,0.15,0.01,0.0,1.0,0.0,1.0,2000000000,0,,,0
1449618234176921104,274,1449618234165297596,/odom,ga,1,0,0,3.08209555657,0.978471865653,0.0,0.0,0.0,0.502393312458,0.864639207761,0.25,0.15,0.0,1.0,0.0,0.0,1.0,2000000000,0,,,0
1449618234176926261,275,1449618234165809553,/odom,ga,2,2,0,2.46558618546,0.464340567589,0.69746285677,0.0,0.0,0.0,0.0,0.15,0.15,0.01,0.0,1.0,0.0,1.0,2000000000,0,,,0
1449618234232549954,276,1449618234231370772,/odom,ga,1,0,0,3.03850593692,0.988943757138,0.0,0.0,0.0,0.540299719638,0.841472645402,0.25,0.15,0.0,1.0,0.0,0.0,1.0,2000000000,0,,,0
1449618234232556399,277,1449618234231643592,/odom,ga,2,2,0,2.46558618546,0.464340567589,0.69746285677,0.0,0.0,0.0,0.0,0.15,0.15,0.01,0.0,1.0,0.0,1.0,2000000000,0,,,0
1449618234373656742,278,1449618234372765319,/odom,ga,1,0,0,2.98309377852,0.959240294459,0.0,0.0,0.0,0.559664608816,0.828719207958,0.25,0.15,0.0,1.0,0.0,0.0,1.0,2000000000,0,,,0
1449618234373661392,279,1449618234373162664,/odom,ga,2,2,0,2.46558618546,0.464340567589,0.69746285677,0.0,0.0,0.0,0.0,0.15,0.15,0.01,0.0,1.0,0.0,1.0,2000000000,0,,,0
1449618234452299915,280,1449618234451089884,/odom,ga,1,0,0,2.9838823145,1.00059631543,0.0,0.0,0.0,0.596743362163,0.802432152717,0.25,0.15,0.0,1.0,0.0,0.0,1.0,2000000000,0,,,0
1449618234452303693,281,1449618234451600521,/odom,ga,2,2,0,2.46558618546,0.464340567589,0.69746285677,0.0,0.0,0.0,0.0,0.15,0.15,0.01,0.0,1.0,0.0,1.0,2000000000,0,,,0
1449618234824496793,282,1449618234820808384,/odom,ga,1,0,0,2.8186306006,1.72692065165,0.0,0.0,0.0,0.879190858746,0.476469761788,0.25,0.15,0.0,1.0,0.0,0.0,1.0,2000000000,0,,,0
1449618234824499817,283,1449618234821536538,/odom,ga,2,2,0,2.46558618546,0.464340567589,0.69746285677,0.0,0.0,0.0,0.0,0.15,0.15,0.01,0.0,1.0,0.0,1.0,2000000000,0,,,0
1449618234848160925,284,1449618234847078317,/odom,ga,1,0,0,2.99312039208,0.958342997365,0.0,0.0,0.0,0.587428682101,0.809275937765,0.25,0.15,0.0,1.0,0.0,0.0,1.0,2000000000,0,,,0
1449618234848164433,285,1449618234847535049,/odom,ga,2,2,0,2.46558618546,0.464340567589,0.69746285677,0.0,0.0,0.0,0.0,0.15,0.15,0.01,0.0,1.0,0.0,1.0,2000000000,0,,,0
1449618234956228479,286,1449618234955650313,/odom,ga,1,0,0,3.00909260657,1.01072164529,0.0,0.0,0.0,0.612551814677,0.790430436115,0.25,0.15,0.0,1.0,0.0,0.0,1.0,2000000000,0,,,0
1449618234956744349,287,1449618234956002435,/odom,ga,2,2,0,2.46558618546,0.464340567589,0.69746285677,0.0,0.0,0.0,0.0,0.15,0.15,0.01,0.0,1.0,0.0,1.0,2000000000,0,,,0
1449618235049505633,288,1449618235041869658,/odom,ga,1,0,0,3.08689796427,0.942958581482,0.0,0.0,0.0,0.509763798856,0.860314401469,0.25,0.15,0.0,1.0,0.0,0.0,1.0,2000000000,0,,,0
1449618235049530844,289,1449618235042756108,/odom,ga,2,2,0,3.08689796427,0.942958581482,0.0,0.0,0.0,0.0,0.0,0.15,0.15,0.01,0.0,1.0,0.0,1.0,2000000000,0,,,0
1449618235177701328,290,1449618235176983121,/odom,ga,1,0,0,3.23928418439,0.990732158279,0.0,0.0,0.0,0.44076927428,0.897620435847,0.25,0.15,0.0,1.0,0.0,0.0,1.0,2000000000,0,,,0
1449618235177955712,291,1449618235177398736,/odom,ga,2,2,0,3.23928418439,0.990732158279,0.0,0.0,0.0,0.0,0.0,0.15,0.15,0.01,0.0,1.0,0.0,1.0,2000000000,0,,,0
1449618235231655419,292,1449618235231482434,/odom,ga,1,0,0,3.27262760717,0.937718403425,0.0,0.0,0.0,0.375756130831,0.926718581956,0.25,0.15,0.0,1.0,0.0,0.0,1.0,2000000000,0,,,0
1449618235232228142,293,1449618235231715373,/odom,ga,2,2,0,3.27262760717,0.937718403425,0.0,0.0,0.0,0.0,0.0,0.15,0.15,0.01,0.0,1.0,0.0,1.0,2000000000,0,,,0
1449618235327762980,294,1449618235326411611,/odom,ga,1,0,0,3.26962217097,0.867329175579,0.0,0.0,0.0,0.309599282804,0.950867122203,0.25,0.15,0.0,1.0,0.0,0.0,1.0,2000000000,0,,,0
1449618235327777847,295,1449618235327046715,/odom,ga,2,2,0,3.26962217097,0.867329175579,0.0,0.0,0.0,0.0,0.0,0.15,0.15,0.01,0.0,1.0,0.0,1.0,2000000000,0,,,0
1449618235462271917,296,1449618235454618881,/odom,ga,1,0,0,3.30988620114,0.885291339644,0.0,0.0,0.0,0.290315995363,0.956930834928,0.25,0.15,0.0,1.0,0.0,0.0,1.0,2000000000,0,,,0
1449618235462274460,297,1449618235454913728,/odom,ga,2,2,0,3.30988620114,0.885291339644,0.0,0.0,0.0,0.0,0.0,0.15,0.15,0.01,0.0,1.0,0.0,1.0,2000000000,0,,,0
1449618235548657198,298,1449618235541323332,/odom,ga,1,0,0,3.33842976336,0.904338652254,0.0,0.0,0.0,0.287583828931,0.957755470534,0.25,0.15,0.0,1.0,0.0,0.0,1.0,2000000000,0,,,0
1449618235548659932,299,1449618235541523242,/odom,ga,2,2,0,3.33842976336,0.904338652254,0.0,0.0,0.0,0.0,0.0,0.15,0.15,0.01,0.0,1.0,0.0,1.0,2000000000,0,,,0
1449618235629707401,300,1449618235628433017,/odom,ga,1,0,0,3.3555350223,0.917972301581,0.0,0.0,0.0,0.28609044475,0.958202618147,0.25,0.15,0.0,1.0,0.0,0.0,1.0,2000000000,0,,,0
1449618235629711909,301,1449618235628781808,/odom,ga,2,2,0,3.3555350223,0.917972301581,0.0,0.0,0.0,0.0,0.0,0.15,0.15,0.01,0.0,1.0,0.0,1.0,2000000000,0,,,0
1449618235733291469,302,1449618235728912779,/odom,ga,1,0,0,3.37600221266,0.926387301284,0.0,0.0,0.0,0.277145584943,0.960827937118,0.25,0.15,0.0,1.0,0.0,0.0,1.0,2000000000,0,,,0
1449618235733294984,303,1449618235729127911,/odom,ga,2,2,0,3.37600221266,0.926387301284,0.0,0.0,0.0,0.0,0.0,0.15,0.15,0.01,0.0,1.0,0.0,1.0,2000000000,0,,,0
1449618235827044938,304,1449618235826213344,/odom,ga,1,0,0,3.39897758109,0.928100308621,0.0,0.0,0.0,0.259448414116,0.965756967571,0.25,0.15,0.0,1.0,0.0,0.0,1.0,2000000000,0,,,0
1449618235827053268,305,1449618235826470675,/odom,ga,2,2,0,3.39897758109,0.928100308621,0.0,0.0,0.0,0.0,0.0,0.15,0.15,0.01,0.0,1.0,0.0,1.0,2000000000,0,,,0
1449618235950082755,306,1449618235943136590,/odom,ga,1,0,0,3.42176876273,0.941887998738,0.0,0.0,0.0,0.253538558747,0.967325280983,0.25,0.15,0.0,1.0,0.0,0.0,1.0,2000000000,0,,,0
1449618235950091119,307,1449618235943808943,/odom,ga,2,2,0,3.42176876273,0.941887998738,0.0,0.0,0.0,0.0,0.0,0.15,0.15,0.01,0.0,1.0,0.0,1.0,2000000000,0,,,0
1449618236033863876,308,1449618236033147725,/odom,ga,1,0,0,3.44517018369,0.964549013273,0.0,0.0,0.0,0.255453668848,0.966821298417,0.25,0.15,0.0,1.0,0.0,0.0,1.0,2000000000,0,,,0
1449618236034597263,309,1449618236033819027,/odom,ga,2,2,0,3.44517018369,0.964549013273,0.0,0.0,0.0,0.0,0.0,0.15,0.15,0.01,0.0,1.0,0.0,1.0,2000000000,0,,,0
1449618236140644043,310,1449618236137742803,/odom,ga,1,0,0,3.45842392625,0.98149926739,0.0,0.0,0.0,0.25841482932,0.966034044942,0.25,0.15,0.0,1.0,0.0,0.0,1.0,2000000000,0,,,0
1449618236140649357,311,1449618236138666480,/odom,ga,2,2,0,3.45842392625,0.98149926739,0.0,0.0,0.0,0.0,0.0,0.15,0.15,0.01,0.0,1.0,0.0,1.0,2000000000,0,,,0
1449618236231423559,312,1449618236231179960,/odom,ga,1,0,0,3.48250175506,1.00274699085,0.0,0.0,0.0,0.257693117299,0.966226814623,0.25,0.15,0.0,1.0,0.0,0.0,1.0,2000000000,0,,,0
1449618236239900514,313,1449618236231778125,/odom,ga,2,2,0,3.48250175506,1.00274699085,0.0,0.0,0.0,0.0,0.0,0.15,0.15,0.01,0.0,1.0,0.0,1.0,2000000000,0,,,0
1449618236331001308,314,1449618236329861936,/odom,ga,1,0,0,3.50104571272,1.01654631686,0.0,0.0,0.0,0.25785296105,0.966184170062,0.25,0.15,0.0,1.0,0.0,0.0,1.0,2000000000,0,,,0
1449618236331010263,315,1449618236330427057,/odom,ga,2,2,0,3.50104571272,1.01654631686,0.0,0.0,0.0,0.0,0.0,0.15,0.15,0.01,0.0,1.0,0.0,1.0,2000000000,0,,,0
1449618236432084756,316,1449618236430089644,/odom,ga,1,0,0,3.52346470033,1.04011336496,0.0,0.0,0.0,0.260244664573,0.96554270468,0.25,0.15,0.0,1.0,0.0,0.0,1.0,2000000000,0,,,0
1449618236432090544,317,1449618236430703764,/odom,ga,2,2,0,3.52346470033,1.04011336496,0.0,0.0,0.0,0.0,0.0,0.15,0.15,0.01,0.0,1.0,0.0,1.0,2000000000,0,,,0
1449618236531089778,318,1449618236526224394,/odom,ga,1,0,0,3.54242767142,1.05313631784,0.0,0.0,0.0,0.25907820266,0.965856347966,0.25,0.15,0.0,1.0,0.0,0.0,1.0,2000000000,0,,,0
1449618236531223450,319,1449618236526486740,/odom,ga,2,2,0,3.54242767142,1.05313631784,0.0,0.0,0.0,0.0,0.0,0.15,0.15,0.01,0.0,1.0,0.0,1.0,2000000000,0,,,0
1449618236626089154,320,1449618236625725915,/odom,ga,1,0,0,3.56382400709,1.07811173366,0.0,0.0,0.0,0.263054981937,0.964780843756,0.25,0.15,0.0,1.0,0.0,0.0,1.0,2000000000,0,,,0
1449618236626435018,321,1449618236626214302,/odom,ga,2,2,0,3.56382400709,1.07811173366,0.0,0.0,0.0,0.0,0.0,0.15,0.15,0.01,0.0,1.0,0.0,1.0,2000000000,0,,,0
1449618236730624962,322,1449618236730116092,/odom,ga,1,0,0,3.58447883318,1.08333885542,0.0,0.0,0.0,0.257562568311,0.966261622649,0.25,0.15,0.0,1.0,0.0,0.0,1.0,2000000000,0,,,0
1449618236732187191,323,1449618236731117792,/odom,ga,2,2,0,3.58447883318,1.08333885542,0.0,0.0,0.0,0.0,0.0,0.15,0.15,0.01,0.0,1.0,0.0,1.0,2000000000,0,,,0
1449618236830268004,324,1449618236827713331,/odom,ga,1,0,0,3.60554157461,1.10882168463,0.0,0.0,0.0,0.262186195957,0.965017304845,0.25,0.15,0.0,1.0,0.0,0.0,1.0,2000000000,0,,,0
1449618236830286673,325,1449618236828018891,/odom,ga,2,2,0,3.60554157461,1.10882168463,0.0,0.0,0.0,0.0,0.0,0.15,0.15,0.01,0.0,1.0,0.0,1.0,2000000000,0,,,0
1449618236948343974,326,1449618236946335378,/odom,ga,1,0,0,3.62540685715,1.1222871977,0.0,0.0,0.0,0.265171554513,0.964201248017,0.25,0.15,0.0,1.0,0.0,0.0,1.0,2000000000,0,,,0
1449618236948524864,327,1449618236946928810,/odom,ga,2,2,0,3.62540685715,1.1222871977,0.0,0.0,0.0,0.0,0.0,0.15,0.15,0.01,0.0,1.0,0.0,1.0,2000000000,0,,,0
1449618237041630323,328,1449618237040930578,/odom,ga,1,0,0,3.64235030744,1.15088263912,0.0,0.0,0.0,0.275331726879,0.961349281049,0.25,0.15,0.0,1.0,0.0,0.0,1.0,2000000000,0,,,0
1449618237041684269,329,1449618237041455422,/odom,ga,2,2,0,3.64235030744,1.15088263912,0.0,0.0,0.0,0.0,0.0,0.15,0.15,0.01,0.0,1.0,0.0,1.0,2000000000,0,,,0
1449618237140252676,330,1449618237131798806,/odom,ga,1,0,0,3.66434086459,1.16320401017,0.0,0.0,0.0,0.275571196547,0.96128066434,0.25,0.15,0.0,1.0,0.0,0.0,1.0,2000000000,0,,,0
1449618237140255763,331,1449618237132046761,/odom,ga,2,2,0,3.66434086459,1.16320401017,0.0,0.0,0.0,0.0,0.0,0.15,0.15,0.01,0.0,1.0,0.0,1.0,2000000000,0,,,0
1449618237246393130,332,1449618237245222603,/odom,ga,1,0,0,3.69018070903,1.18583834826,0.0,0.0,0.0,0.278311139151,0.960490973318,0.25,0.15,0.0,1.0,0.0,0.0,1.0,2000000000,0,,,0
1449618237246402885,333,1449618237245622958,/odom,ga,2,2,0,3.69018070903,1.18583834826,0.0,0.0,0.0,0.0,0.0,0.15,0.15,0.01,0.0,1.0,0.0,1.0,2000000000,0,,,0
1449618237332373285,334,1449618237331589366,/odom,ga,1,0,0,3.70071877755,1.20556852045,0.0,0.0,0.0,0.284897689105,0.958557930823,0.25,0.15,0.0,1.0,0.0,0.0,1.0,2000000000,0,,,0
1449618237332407308,335,1449618237331759050,/odom,ga,2,2,0,3.70071877755,1.20556852045,0.0,0.0,0.0,0.0,0.0,0.15,0.15,0.01,0.0,1.0,0.0,1.0,2000000000,0,,,0
1449618237448603655,336,1449618237448344928,/odom,ga,1,0,0,3.72736830095,1.22733213887,0.0,0.0,0.0,0.286330508228,0.958130909666,0.25,0.15,0.0,1.0,0.0,0.0,1.0,2000000000,0,,,0
1449618237449147635,337,1449618237448626206,/odom,ga,2,2,0,3.72736830095,1.22733213887,0.0,0.0,0.0,0.0,0.0,0.15,0.15,0.01,0.0,1.0,0.0,1.0,2000000000,0,,,0
1449618237532242188,338,1449618237531977878,/odom,ga,1,0,0,3.75830878443,1.24837864699,0.0,0.0,0.0,0.288691399602,0.957422203521,0.25,0.15,0.0,1.0,0.0,0.0,1.0,2000000000,0,,,0
1449618237534272179,339,1449618237532486665,/odom,ga,2,2,0,3.75830878443,1.24837864699,0.0,0.0,0.0,0.0,0.0,0.15,0.15,0.01,0.0,1.0,0.0,1.0,2000000000,0,,,0
1449618237629549197,340,1449618237628878727,/odom,ga,1,0,0,3.77992309607,1.26507897169,0.0,0.0,0.0,0.289054799271,0.957312552419,0.25,0.15,0.0,1.0,0.0,0.0,1.0,2000000000,0,,,0
1449618237629552977,341,1449618237629333681,/odom,ga,2,2,0,3.77992309607,1.26507897169,0.0,0.0,0.0,0.0,0.0,0.15,0.15,0.01,0.0,1.0,0.0,1.0,2000000000,0,,,0
1449618237735529258,342,1449618237735065357,/odom,ga,1,0,0,3.79567392949,1.27721444025,0.0,0.0,0.0,0.289422896074,0.957201330561,0.25,0.15,0.0,1.0,0.0,0.0,1.0,2000000000,0,,,0
1449618237735533049,343,1449618237735266674,/odom,ga,2,2,0,3.79567392949,1.27721444025,0.0,0.0,0.0,0.0,0.0,0.15,0.15,0.01,0.0,1.0,0.0,1.0,2000000000,0,,,0
1449618237833127862,344,1449618237832728301,/odom,ga,1,0,0,3.82355791966,1.30186977279,0.0,0.0,0.0,0.292921749311,0.956136417453,0.25,0.15,0.0,1.0,0.0,0.0,1.0,2000000000,0,,,0
1449618237836728511,345,1449618237834142354,/odom,ga,2,2,0,3.82355791966,1.30186977279,0.0,0.0,0.0,0.0,0.0,0.15,0.15,0.01,0.0,1.0,0.0,1.0,2000000000,0,,,0
1449618237944804460,346,1449618237942718924,/odom,ga,1,0,0,3.84559072298,1.30710349144,0.0,0.0,0.0,0.286952683792,0.957944756896,0.25,0.15,0.0,1.0,0.0,0.0,1.0,2000000000,0,,,0
1449618237944810987,347,1449618237942979011,/odom,ga,2,2,0,3.84559072298,1.30710349144,0.0,0.0,0.0,0.0,0.0,0.15,0.15,0.01,0.0,1.0,0.0,1.0,2000000000,0,,,0
1449618238034926917,348,1449618238034055579,/odom,ga,1,0,0,3.86731860205,1.33260721122,0.0,0.0,0.0,0.291227909057,0.956653701705,0.25,0.15,0.0,1.0,0.0,0.0,1.0,2000000000,0,,,0
1449618238034931789,349,1449618238034375878,/odom,ga,2,2,0,3.86731860205,1.33260721122,0.0,0.0,0.0,0.0,0.0,0.15,0.15,0.01,0.0,1.0,0.0,1.0,2000000000,0,,,0
1449618238128826921,350,1449618238128654373,/odom,ga,1,0,0,3.88780807932,1.34048460936,0.0,0.0,0.0,0.288480329887,0.957485821967,0.25,0.15,0.0,1.0,0.0,0.0,1.0,2000000000,0,,,0
1449618238129546279,351,1449618238129065097,/odom,ga,2,2,0,3.88780807932,1.34048460936,0.0,0.0,0.0,0.0,0.0,0.15,0.15,0.01,0.0,1.0,0.0,1.0,2000000000,0,,,0
1449618238236288992,352,1449618238235180235,/odom,ga,1,0,0,3.90985111062,1.3685445134,0.0,0.0,0.0,0.29499119262,0.955499971887,0.25,0.15,0.0,1.0,0.0,0.0,1.0,2000000000,0,,,0
1449618238236424335,353,1449618238235909834,/odom,ga,2,2,0,3.90985111062,1.3685445134,0.0,0.0,0.0,0.0,0.0,0.15,0.15,0.01,0.0,1.0,0.0,1.0,2000000000,0,,,0
1449618238337114345,354,1449618238330820168,/odom,ga,1,0,0,3.93128704582,1.37499126495,0.0,0.0,0.0,0.290560709084,0.956856558914,0.25,0.15,0.0,1.0,0.0,0.0,1.0,2000000000,0,,,0
1449618238337119676,355,1449618238331363804,/odom,ga,2,2,0,3.93128704582,1.37499126495,0.0,0.0,0.0,0.0,0.0,0.15,0.15,0.01,0.0,1.0,0.0,1.0,2000000000,0,,,0
1449618238457786613,356,1449618238457458355,/odom,ga,1,0,0,3.95634335711,1.3940228583,0.0,0.0,0.0,0.29093306999,0.956743408018,0.25,0.15,0.0,1.0,0.0,0.0,1.0,2000000000,0,,,0
1449618238458748611,357,1449618238458020454,/odom,ga,2,2,0,3.95634335711,1.3940228583,0.0,0.0,0.0,0.0,0.0,0.15,0.15,0.01,0.0,1.0,0.0,1.0,2000000000,0,,,0
1449618238564069629,358,1449618238563237143,/odom,ga,1,0,0,3.97851080533,1.41599349839,0.0,0.0,0.0,0.296262621432,0.955106517171,0.25,0.15,0.0,1.0,0.0,0.0,1.0,2000000000,0,,,0
1449618238564074551,359,1449618238563631746,/odom,ga,2,2,0,3.97851080533,1.41599349839,0.0,0.0,0.0,0.0,0.0,0.15,0.15,0.01,0.0,1.0,0.0,1.0,2000000000,0,,,0
1449618238646356412,360,1449618238641575980,/odom,ga,1,0,0,3.9871983789,1.44023646357,0.0,0.0,0.0,0.308521822577,0.951217264874,0.25,0.15,0.0,1.0,0.0,0.0,1.0,2000000000,0,,,0
1449618238646360424,361,1449618238641804515,/odom,ga,2,2,0,3.9871983789,1.44023646357,0.0,0.0,0.0,0.0,0.0,0.15,0.15,0.01,0.0,1.0,0.0,1.0,2000000000,0,,,0
1449618238755192748,362,1449618238747630741,/odom,ga,1,0,0,3.92819571086,1.49753514241,0.0,0.0,0.0,0.403204618315,0.915109849018,0.25,0.15,0.0,1.0,0.0,0.0,1.0,2000000000,0,,,0
1449618238755226882,363,1449618238748215792,/odom,ga,2,2,0,3.92819571086,1.49753514241,0.0,0.0,0.0,0.0,0.0,0.15,0.15,0.01,0.0,1.0,0.0,1.0,2000000000,0,,,0
1449618238831477914,364,1449618238829341331,/odom,ga,1,0,0,3.84500340988,1.55320785676,0.0,0.0,0.0,0.524852666965,0.851193090891,0.25,0.15,0.0,1.0,0.0,0.0,1.0,2000000000,0,,,0
1449618238831508843,365,1449618238829968766,/odom,ga,2,2,0,3.84500340988,1.55320785676,0.0,0.0,0.0,0.0,0.0,0.15,0.15,0.01,0.0,1.0,0.0,1.0,2000000000,0,,,0
1449618238929077083,366,1449618238926900128,/odom,ga,1,0,0,3.81954901224,1.57529385067,0.0,0.0,0.0,0.56528307759,0.824896988836,0.25,0.15,0.0,1.0,0.0,0.0,1.0,2000000000,0,,,0
1449618238929085213,367,1449618238927284952,/odom,ga,2,2,0,3.81954901224,1.57529385067,0.0,0.0,0.0,0.0,0.0,0.15,0.15,0.01,0.0,1.0,0.0,1.0,2000000000,0,,,0
1449618239036516607,368,1449618239034283826,/odom,ga,1,0,0,3.87179532849,1.58549039339,0.0,0.0,0.0,0.532582668132,0.846377989793,0.25,0.15,0.0,1.0,0.0,0.0,1.0,2000000000,0,,,0
1449618239036527290,369,1449618239034866966,/odom,ga,2,2,0,3.87179532849,1.58549039339,0.0,0.0,0.0,0.0,0.0,0.15,0.15,0.01,0.0,1.0,0.0,1.0,2000000000,0,,,0
1449618239136782258,370,1449618239128839284,/odom,ga,1,0,0,3.90609635258,1.5898616889,0.0,0.0,0.0,0.505787361416,0.862658185513,0.25,0.15,0.0,1.0,0.0,0.0,1.0,2000000000,0,,,0
1449618239136790973,371,1449618239129345175,/odom,ga,2,2,0,3.90609635258,1.5898616889,0.0,0.0,0.0,0.0,0.0,0.15,0.15,0.01,0.0,1.0,0.0,1.0,2000000000,0,,,0
