%time,field.header.seq,field.header.stamp,field.header.frame_id,field.command.linear.x,field.command.linear.y,field.command.linear.z,field.command.angular.x,field.command.angular.y,field.command.angular.z,field.goal_source
1449618213779790675,8,1449618213778966631,base_footprint,0.0,0.0,0.0,0.0,0.0,0.0,teleoperation
1449618213813044325,9,1449618213812297661,base_footprint,0.0,0.0,0.0,0.0,0.0,0.0,teleoperation
1449618213846248049,10,1449618213845634723,base_footprint,0.0,0.0,0.0,0.0,0.0,0.0,teleoperation
1449618213879508024,11,1449618213878973700,base_footprint,-0.0,0.0,0.0,0.0,0.0,-0.0,teleoperation
1449618213913246942,12,1449618213912297698,base_footprint,-0.0,0.0,0.0,0.0,0.0,-0.0,teleoperation
1449618213946319836,13,1449618213945633093,base_footprint,-0.0,0.0,0.0,0.0,0.0,-0.0,teleoperation
1449618213979491727,14,1449618213978974328,base_footprint,-0.0,0.0,0.0,0.0,0.0,-0.0,teleoperation
1449618214012942354,15,1449618214012298448,base_footprint,-0.0,0.0,0.0,0.0,0.0,-0.0,teleoperation
1449618214048455066,16,1449618214045747102,base_footprint,-0.0,0.0,0.0,0.0,0.0,-0.0,teleoperation
1449618214079611734,17,1449618214078976650,base_footprint,-0.0,0.0,0.0,0.0,0.0,-0.0,teleoperation
1449618214113725589,18,1449618214112492086,base_footprint,-0.0,0.0,0.0,0.0,0.0,-0.0,teleoperation
1449618214146439060,19,1449618214145610582,base_footprint,-0.0,0.0,0.0,0.0,0.0,-0.0,teleoperation
1449618214179705877,20,1449618214178972915,base_footprint,-0.0,0.0,0.0,0.0,0.0,-0.0,teleoperation
1449618214212992471,21,1449618214212297923,base_footprint,-0.0,0.0,0.0,0.0,0.0,-0.0,teleoperation
1449618214246215663,22,1449618214245632393,base_footprint,-0.0,0.0,0.0,0.0,0.0,-0.0,teleoperation
1449618214279658916,23,1449618214278976350,base_footprint,-0.0,0.0,0.0,0.0,0.0,-0.0,teleoperation
1449618214313088725,24,1449618214312295718,base_footprint,-0.0,0.0,0.0,0.0,0.0,-0.0,teleoperation
1449618214347151131,25,1449618214345604625,base_footprint,-0.0,0.0,0.0,0.0,0.0,-0.0,teleoperation
1449618214379560946,26,1449618214378977938,base_footprint,-0.0,0.0,0.0,0.0,0.0,-0.0,teleoperation
1449618214412865590,27,1449618214412297170,base_footprint,-0.0,0.0,0.0,0.0,0.0,-0.0,teleoperation
1449618214446212848,28,1449618214445628069,base_footprint,-0.0,0.0,0.0,0.0,0.0,-0.0,teleoperation
1449618214479491227,29,1449618214478961983,base_footprint,-0.0,0.0,0.0,0.0,0.0,-0.0,teleoperation
1449618214512812019,30,1449618214512307617,base_footprint,-0.0,0.0,0.0,0.0,0.0,-0.0,teleoperation
1449618214546341697,31,1449618214545612583,base_footprint,-0.0,0.0,0.0,0.0,0.0,-0.0,teleoperation
1449618214579763922,32,1449618214578977367,base_footprint,-0.0,0.0,0.0,0.0,0.0,-0.0,teleoperation
1449618214612770271,33,1449618214612296701,base_footprint,-0.0,0.0,0.0,0.0,0.0,-0.0,teleoperation
1449618214646316721,34,1449618214645644303,base_footprint,-0.0,0.0,0.0,0.0,0.0,-0.0,teleoperation
1449618214679511364,35,1449618214678962513,base_footprint,-0.0,0.0,0.0,0.0,0.0,-0.0,teleoperation
1449618214712845365,36,1449618214712298462,base_footprint,-0.0,0.0,0.0,0.0,0.0,-0.0,teleoperation
1449618214746204452,37,1449618214745598040,base_footprint,-0.0,0.0,0.0,0.0,0.0,-0.0,teleoperation
1449618214779719746,38,1449618214778963502,base_footprint,-0.0,0.0,0.0,0.0,0.0,-0.0,teleoperation
1449618214813680814,39,1449618214812296895,base_footprint,-0.0,0.0,0.0,0.0,0.0,-0.0,teleoperation
1449618214846523324,40,1449618214845629428,base_footprint,-0.0,0.0,0.0,0.0,0.0,-0.0,teleoperation
1449618214880401280,41,1449618214878962503,base_footprint,-0.0,0.0,0.0,0.0,0.0,-0.0,teleoperation
1449618214912741155,42,1449618214912299549,base_footprint,-0.0,0.0,0.0,0.0,0.0,-0.0,teleoperation
1449618214946133335,43,1449618214945629231,base_footprint,-0.0,0.0,0.0,0.0,0.0,-0.0,teleoperation
1449618214979556322,44,1449618214978964346,base_footprint,-0.0,0.0,0.0,0.0,0.0,-0.0,teleoperation
1449618215013178986,45,1449618215012297810,base_footprint,-0.0,0.0,0.0,0.0,0.0,-0.0,teleoperation
1449618215046103360,46,1449618215045629302,base_footprint,-0.0,0.0,0.0,0.0,0.0,-0.0,teleoperation
1449618215079804002,47,1449618215078964759,base_footprint,-0.0,0.0,0.0,0.0,0.0,-0.0,teleoperation
1449618215112901164,48,1449618215112348769,base_footprint,-0.0,0.0,0.0,0.0,0.0,-0.0,teleoperation
1449618215149133854,49,1449618215145631505,base_footprint,-0.0,0.0,0.0,0.0,0.0,-0.0,teleoperation
1449618215181764732,50,1449618215178966038,base_footprint,-0.0,0.0,0.0,0.0,0.0,-0.0,teleoperation
1449618215215309635,51,1449618215212299260,base_footprint,-0.0,0.0,0.0,0.0,0.0,-0.0,teleoperation
1449618215246263033,52,1449618215245631566,base_footprint,-0.0,0.0,0.0,0.0,0.0,-0.0,teleoperation
1449618215279602180,53,1449618215278976361,base_footprint,-0.0,0.0,0.0,0.0,0.0,-0.0,teleoperation
1449618215313127430,54,1449618215312312995,base_footprint,-0.0,0.0,0.0,0.0,0.0,-0.0,teleoperation
1449618215346720281,55,1449618215345611042,base_footprint,-0.0,0.0,0.0,0.0,0.0,-0.0,teleoperation
1449618215379685051,56,1449618215378974414,base_footprint,-0.0,0.0,0.0,0.0,0.0,-0.0,teleoperation
1449618215413000385,57,1449618215412302693,base_footprint,-0.0,0.0,0.0,0.0,0.0,-0.0,teleoperation
1449618215446441260,58,1449618215445647268,base_footprint,-0.0,0.0,0.0,0.0,0.0,-0.0,teleoperation
1449618215480567554,59,1449618215478968261,base_footprint,-0.0,0.0,0.0,0.0,0.0,-0.0,teleoperation
1449618215512907370,60,1449618215512301184,base_footprint,-0.0,0.0,0.0,0.0,0.0,-0.0,teleoperation
1449618215548129190,61,1449618215545633348,base_footprint,-0.0,0.0,0.0,0.0,0.0,-0.0,teleoperation
1449618215580530617,62,1449618215578968168,base_footprint,-0.0,0.0,0.0,0.0,0.0,-0.0,teleoperation
1449618215613545120,63,1449618215612379862,base_footprint,-0.0,0.0,0.0,0.0,0.0,-0.0,teleoperation
1449618215646889602,64,1449618215645635606,base_footprint,-0.0,0.0,0.0,0.0,0.0,-0.0,teleoperation
1449618215680829989,65,1449618215678983646,base_footprint,-0.0,0.0,0.0,0.0,0.0,-0.0,teleoperation
1449618215715584022,66,1449618215712628758,base_footprint,-0.0,0.0,0.0,0.0,0.0,-0.0,teleoperation
1449618215746571193,67,1449618215745600110,base_footprint,-0.0,0.0,0.0,0.0,0.0,-0.0,teleoperation
1449618215782741546,68,1449618215778985720,base_footprint,-0.0,0.0,0.0,0.0,0.0,-0.0,teleoperation
1449618215817118521,69,1449618215812314223,base_footprint,-0.0,0.0,0.0,0.0,0.0,-0.0,teleoperation
1449618215849044564,70,1449618215845646139,base_footprint,-0.0,0.0,0.0,0.0,0.0,-0.0,teleoperation
1449618215882389691,71,1449618215879028233,base_footprint,-0.0,0.0,0.0,0.0,0.0,-0.0,teleoperation
1449618215914473141,72,1449618215912725944,base_footprint,-0.0,0.0,0.0,0.0,0.0,-0.0,teleoperation
1449618215950459082,73,1449618215945599688,base_footprint,-0.0,0.0,0.0,0.0,0.0,-0.0,teleoperation
1449618215981528101,74,1449618215978968636,base_footprint,-0.0,0.0,0.0,0.0,0.0,-0.0,teleoperation
1449618216016665150,75,1449618216012313852,base_footprint,-0.0,0.0,0.0,0.0,0.0,-0.0,teleoperation
1449618216048782727,76,1449618216045610997,base_footprint,-0.0,0.0,0.0,0.0,0.0,-0.0,teleoperation
1449618216082669445,77,1449618216078979719,base_footprint,-0.0,0.0,0.0,0.0,0.0,-0.0,teleoperation
1449618216113689189,78,1449618216112302251,base_footprint,-0.0,0.0,0.0,0.0,0.0,-0.0,teleoperation
1449618216146680532,79,1449618216145600346,base_footprint,-0.0,0.0,0.0,0.0,0.0,-0.0,teleoperation
1449618216183034313,80,1449618216178972464,base_footprint,-0.0,0.0,0.0,0.0,0.0,-0.0,teleoperation
1449618216214974380,81,1449618216212561207,base_footprint,-0.0,0.0,0.0,0.0,0.0,-0.0,teleoperation
1449618216246867952,82,1449618216245612610,base_footprint,-0.0,0.0,0.0,0.0,0.0,-0.0,teleoperation
1449618216280836948,83,1449618216278976561,base_footprint,-0.0,0.0,0.0,0.0,0.0,-0.0,teleoperation
1449618216315627040,84,1449618216313113186,base_footprint,-0.0,0.0,0.0,0.0,0.0,-0.0,teleoperation
1449618216347980762,85,1449618216345602470,base_footprint,-0.0,0.0,0.0,0.0,0.0,-0.0,teleoperation
1449618216381741870,86,1449618216378972376,base_footprint,-0.0,0.0,0.0,0.0,0.0,-0.0,teleoperation
1449618216413986423,87,1449618216412359437,base_footprint,-0.0,0.0,0.0,0.0,0.0,-0.0,teleoperation
1449618216447538822,88,1449618216445699769,base_footprint,-0.0,0.0,0.0,0.0,0.0,-0.0,teleoperation
1449618216482292026,89,1449618216478972362,base_footprint,-0.0,0.0,0.0,0.0,0.0,-0.0,teleoperation
1449618216516599382,90,1449618216512315133,base_footprint,-0.0,0.0,0.0,0.0,0.0,-0.0,teleoperation
1449618216548473502,91,1449618216545601485,base_footprint,-0.0,0.0,0.0,0.0,0.0,-0.0,teleoperation
1449618216581098457,92,1449618216578979368,base_footprint,-0.0,0.0,0.0,0.0,0.0,-0.0,teleoperation
1449618216614783890,93,1449618216613115614,base_footprint,-0.0,0.0,0.0,0.0,0.0,-0.0,teleoperation
1449618216647092770,94,1449618216645611272,base_footprint,-0.0,0.0,0.0,0.0,0.0,-0.0,teleoperation
1449618216681399635,95,1449618216678981501,base_footprint,-0.0,0.0,0.0,0.0,0.0,-0.0,teleoperation
1449618216717566881,96,1449618216712314993,base_footprint,-0.0,0.0,0.0,0.0,0.0,-0.0,teleoperation
1449618216747781811,97,1449618216745600895,base_footprint,-0.0,0.0,0.0,0.0,0.0,-0.0,teleoperation
1449618216780603805,98,1449618216778979719,base_footprint,-0.0,0.0,0.0,0.0,0.0,-0.0,teleoperation
1449618216816792301,99,1449618216812386393,base_footprint,-0.0,0.0,0.0,0.0,0.0,-0.0,teleoperation
1449618216849468693,100,1449618216845638714,base_footprint,-0.0,0.0,0.0,0.0,0.0,-0.0,teleoperation
1449618216881364556,101,1449618216878978151,base_footprint,-0.0,0.0,0.0,0.0,0.0,-0.0,teleoperation
1449618216918976412,102,1449618216912528470,base_footprint,-0.0,0.0,0.0,0.0,0.0,-0.0,teleoperation
1449618216953954213,103,1449618216945610388,base_footprint,-0.0,0.0,0.0,0.0,0.0,-0.0,teleoperation
1449618216980782428,104,1449618216978974401,base_footprint,-0.0,0.0,0.0,0.0,0.0,-0.0,teleoperation
1449618217016127754,105,1449618217012328004,base_footprint,-0.0,0.0,0.0,0.0,0.0,-0.0,teleoperation
1449618217049697013,106,1449618217045599450,base_footprint,-0.0,0.0,0.0,0.0,0.0,-0.0,teleoperation
1449618217086698998,107,1449618217078987348,base_footprint,-0.0,0.0,0.0,0.0,0.0,-0.0,teleoperation
1449618217116572714,108,1449618217113213184,base_footprint,-0.0,0.0,0.0,0.0,0.0,-0.0,teleoperation
1449618217155179424,109,1449618217149601572,base_footprint,-0.0,0.0,0.0,0.0,0.0,-0.0,teleoperation
1449618217185109308,110,1449618217181339975,base_footprint,-0.0,0.0,0.0,0.0,0.0,-0.0,teleoperation
1449618217217910870,111,1449618217212308128,base_footprint,-0.0,0.0,0.0,0.0,0.0,-0.0,teleoperation
1449618217247586245,112,1449618217245614825,base_footprint,-0.0,0.0,0.0,0.0,0.0,-0.0,teleoperation
1449618217291379657,113,1449618217278982925,base_footprint,-0.0,0.0,0.0,0.0,0.0,-0.0,teleoperation
1449618217336934811,114,1449618217312458813,base_footprint,-0.0,0.0,0.0,0.0,0.0,-0.0,teleoperation
1449618217353278117,115,1449618217345601032,base_footprint,-0.0,0.0,0.0,0.0,0.0,-0.0,teleoperation
1449618217389313732,116,1449618217382264056,base_footprint,-0.0,0.0,0.0,0.0,0.0,-0.0,teleoperation
1449618217419825136,117,1449618217413662583,base_footprint,-0.0,0.0,0.0,0.0,0.0,-0.0,teleoperation
1449618217458101916,118,1449618217445612488,base_footprint,-0.0,0.0,0.0,0.0,0.0,-0.0,teleoperation
1449618217487068842,119,1449618217478981661,base_footprint,-0.0,0.0,0.0,0.0,0.0,-0.0,teleoperation
1449618217518190637,120,1449618217512307328,base_footprint,-0.0,0.0,0.0,0.0,0.0,-0.0,teleoperation
1449618217611457737,121,1449618217545599068,base_footprint,-0.0,0.0,0.0,0.0,0.0,-0.0,teleoperation
1449618217666494273,122,1449618217610494064,base_footprint,-0.0,0.0,0.0,0.0,0.0,-0.0,teleoperation
1449618217691815219,123,1449618217665449641,base_footprint,-0.0,0.0,0.0,0.0,0.0,-0.0,teleoperation
1449618217734624959,124,1449618217698853046,base_footprint,-0.0,0.0,0.0,0.0,0.0,-0.0,teleoperation
1449618217771337367,125,1449618217734043802,base_footprint,-0.0,0.0,0.0,0.0,0.0,-0.0,teleoperation
1449618217810011375,126,1449618217770360845,base_footprint,-0.0,0.0,0.0,0.0,0.0,-0.0,teleoperation
1449618217864060692,127,1449618217809659893,base_footprint,-0.0,0.0,0.0,0.0,0.0,-0.0,teleoperation
1449618217901102676,128,1449618217863784435,base_footprint,-0.0,0.0,0.0,0.0,0.0,-0.0,teleoperation
1449618217933731845,129,1449618217900727918,base_footprint,-0.0,0.0,0.0,0.0,0.0,-0.0,teleoperation
1449618217970025863,130,1449618217934122682,base_footprint,-0.0,0.0,0.0,0.0,0.0,-0.0,teleoperation
1449618218010255844,131,1449618217969762755,base_footprint,-0.0,0.0,0.0,0.0,0.0,-0.0,teleoperation
1449618218049948180,132,1449618218009857338,base_footprint,-0.0,0.0,0.0,0.0,0.0,-0.0,teleoperation
1449618218089820994,133,1449618218049506612,base_footprint,-0.0,0.0,0.0,0.0,0.0,-0.0,teleoperation
1449618218130492174,134,1449618218089494115,base_footprint,-0.0,0.0,0.0,0.0,0.0,-0.0,teleoperation
1449618218169833065,135,1449618218129866322,base_footprint,-0.0,0.0,0.0,0.0,0.0,-0.0,teleoperation
1449618218210072867,136,1449618218169637186,base_footprint,-0.0,0.0,0.0,0.0,0.0,-0.0,teleoperation
1449618218250346496,137,1449618218209774548,base_footprint,-0.0,0.0,0.0,0.0,0.0,-0.0,teleoperation
1449618218290157184,138,1449618218249660617,base_footprint,-0.0,0.0,0.0,0.0,0.0,-0.0,teleoperation
1449618218330683260,139,1449618218289740436,base_footprint,-0.0,0.0,0.0,0.0,0.0,-0.0,teleoperation
1449618218370151317,140,1449618218329731096,base_footprint,-0.0,0.0,0.0,0.0,0.0,-0.0,teleoperation
1449618218410742110,141,1449618218369802098,base_footprint,-0.0,0.0,0.0,0.0,0.0,-0.0,teleoperation
1449618218450712097,142,1449618218409815951,base_footprint,-0.0,0.0,0.0,0.0,0.0,-0.0,teleoperation
1449618218490348541,143,1449618218450146824,base_footprint,-0.0,0.0,0.0,0.0,0.0,-0.0,teleoperation
1449618218529930179,144,1449618218489699181,base_footprint,-0.0,0.0,0.0,0.0,0.0,-0.0,teleoperation
1449618218570115041,145,1449618218529635165,base_footprint,-0.0,0.0,0.0,0.0,0.0,-0.0,teleoperation
1449618218610449676,146,1449618218569572004,base_footprint,-0.0,0.0,0.0,0.0,0.0,-0.0,teleoperation
1449618218651313523,147,1449618218609946848,base_footprint,-0.0,0.0,0.0,0.0,0.0,-0.0,teleoperation
1449618218693373114,148,1449618218650861185,base_footprint,-0.0,0.0,0.0,0.0,0.0,-0.0,teleoperation
1449618218731405487,149,1449618218690953169,base_footprint,-0.0,0.0,0.0,0.0,0.0,-0.0,teleoperation
1449618218770495977,150,1449618218730830886,base_footprint,-0.0,0.0,0.0,0.0,0.0,-0.0,teleoperation
1449618218810024108,151,1449618218770072459,base_footprint,-0.0,0.0,0.0,0.0,0.0,-0.0,teleoperation
1449618218855185642,152,1449618218809747341,base_footprint,-0.0,0.0,0.0,0.0,0.0,-0.0,teleoperation
1449618218890530521,153,1449618218853714063,base_footprint,-0.0,0.0,0.0,0.0,0.0,-0.0,teleoperation
1449618218931320691,154,1449618218889916803,base_footprint,-0.0,0.0,0.0,0.0,0.0,-0.0,teleoperation
1449618218970185245,155,1449618218929786212,base_footprint,-0.0,0.0,0.0,0.0,0.0,-0.0,teleoperation
1449618219010926998,156,1449618218970095144,base_footprint,-0.0,0.0,0.0,0.0,0.0,-0.0,teleoperation
1449618219053368053,157,1449618219010125038,base_footprint,-0.0,0.0,0.0,0.0,0.0,-0.0,teleoperation
1449618219092797813,158,1449618219052089042,base_footprint,-0.0,0.0,0.0,0.0,0.0,-0.0,teleoperation
1449618219131167638,159,1449618219091496568,base_footprint,-0.0,0.0,0.0,0.0,0.0,-0.0,teleoperation
1449618219170135778,160,1449618219129896753,base_footprint,-0.0,0.0,0.0,0.0,0.0,-0.0,teleoperation
1449618219213225172,161,1449618219169649102,base_footprint,-0.0,0.0,0.0,0.0,0.0,-0.0,teleoperation
1449618219250629798,162,1449618219210130010,base_footprint,-0.0,0.0,0.0,0.0,0.0,-0.0,teleoperation
1449618219291107324,163,1449618219250161974,base_footprint,-0.0,0.0,0.0,0.0,0.0,-0.0,teleoperation
1449618219330406180,164,1449618219289963994,base_footprint,-0.0,0.0,0.0,0.0,0.0,-0.0,teleoperation
1449618219370775328,165,1449618219329739349,base_footprint,-0.0,0.0,0.0,0.0,0.0,-0.0,teleoperation
1449618219411586325,166,1449618219370137499,base_footprint,-0.0,0.0,0.0,0.0,0.0,-0.0,teleoperation
1449618219450319022,167,1449618219410311722,base_footprint,-0.0,0.0,0.0,0.0,0.0,-0.0,teleoperation
1449618219492115947,168,1449618219449621060,base_footprint,-0.0,0.0,0.0,0.0,0.0,-0.0,teleoperation
1449618219530719911,169,1449618219491521150,base_footprint,-0.0,0.0,0.0,0.0,0.0,-0.0,teleoperation
1449618219570690633,170,1449618219529856017,base_footprint,-0.0,0.0,0.0,0.0,0.0,-0.0,teleoperation
1449618219610944916,171,1449618219570192211,base_footprint,-0.0,0.0,0.0,0.0,0.0,-0.0,teleoperation
1449618219655481469,172,1449618219610531953,base_footprint,-0.0,0.0,0.0,0.0,0.0,-0.0,teleoperation
1449618219690617867,173,1449618219653805095,base_footprint,-0.0,0.0,0.0,0.0,0.0,-0.0,teleoperation
1449618219730611612,174,1449618219689740995,base_footprint,-0.0,0.0,0.0,0.0,0.0,-0.0,teleoperation
1449618219776445446,175,1449618219730109676,base_footprint,-0.0,0.0,0.0,0.0,0.0,-0.0,teleoperation
1449618219810113452,176,1449618219769695963,base_footprint,-0.0,0.0,0.0,0.0,0.0,-0.0,teleoperation
1449618219851650910,177,1449618219809754523,base_footprint,-0.0,0.0,0.0,0.0,0.0,-0.0,teleoperation
1449618219892117297,178,1449618219851062815,base_footprint,-0.0,0.0,0.0,0.0,0.0,-0.0,teleoperation
1449618219930917561,179,1449618219890009026,base_footprint,-0.0,0.0,0.0,0.0,0.0,-0.0,teleoperation
1449618219970070965,180,1449618219929860082,base_footprint,-0.0,0.0,0.0,0.0,0.0,-0.0,teleoperation
1449618220010622500,181,1449618219969567481,base_footprint,-0.0,0.0,0.0,0.0,0.0,-0.0,teleoperation
1449618220050854890,182,1449618220009865534,base_footprint,-0.0,0.0,0.0,0.0,0.0,-0.0,teleoperation
1449618220092421197,183,1449618220049909064,base_footprint,-0.0,0.0,0.0,0.0,0.0,-0.0,teleoperation
1449618220130044085,184,1449618220090597037,base_footprint,-0.0,0.0,0.0,0.0,0.0,-0.0,teleoperation
1449618220170629883,185,1449618220129581482,base_footprint,-0.0,0.0,0.0,0.0,0.0,-0.0,teleoperation
1449618220211459006,186,1449618220169821821,base_footprint,-0.0,0.0,0.0,0.0,0.0,-0.0,teleoperation
1449618220254094431,187,1449618220210538808,base_footprint,-0.0,0.0,0.0,0.0,0.0,-0.0,teleoperation
1449618220290481611,188,1449618220253211804,base_footprint,-0.0,0.0,0.0,0.0,0.0,-0.0,teleoperation
1449618220331156786,189,1449618220289947795,base_footprint,-0.0,0.0,0.0,0.0,0.0,-0.0,teleoperation
1449618220372087635,190,1449618220330018603,base_footprint,-0.0,0.0,0.0,0.0,0.0,-0.0,teleoperation
1449618220412896646,191,1449618220370114220,base_footprint,-0.0,0.0,0.0,0.0,0.0,-0.0,teleoperation
1449618220453722370,192,1449618220409866596,base_footprint,-0.0,0.0,0.0,0.0,0.0,-0.0,teleoperation
1449618220490686246,193,1449618220449787483,base_footprint,-0.0,0.0,0.0,0.0,0.0,-0.0,teleoperation
1449618220530331443,194,1449618220489926544,base_footprint,-0.0,0.0,0.0,0.0,0.0,-0.0,teleoperation
1449618220570509928,195,1449618220529823893,base_footprint,-0.0,0.0,0.0,0.0,0.0,-0.0,teleoperation
1449618220609736281,196,1449618220570227546,base_footprint,-0.0,0.0,0.0,0.0,0.0,-0.0,teleoperation
1449618220650026881,197,1449618220609465995,base_footprint,-0.0,0.0,0.0,0.0,0.0,-0.0,teleoperation
1449618220690115280,198,1449618220649621983,base_footprint,-0.0,0.0,0.0,0.0,0.0,-0.0,teleoperation
1449618220731687805,199,1449618220689819936,base_footprint,-0.0,0.0,0.0,0.0,0.0,-0.0,teleoperation
1449618220770313632,200,1449618220730998767,base_footprint,-0.0,0.0,0.0,0.0,0.0,-0.0,teleoperation
1449618220810115013,201,1449618220770126526,base_footprint,-0.0,0.0,0.0,0.0,0.0,-0.0,teleoperation
1449618220850291744,202,1449618220809774986,base_footprint,-0.0,0.0,0.0,0.0,0.0,-0.0,teleoperation
1449618220890956347,203,1449618220849721886,base_footprint,-0.0,0.0,0.0,0.0,0.0,-0.0,teleoperation
1449618220930773636,204,1449618220890175140,base_footprint,-0.0,0.0,0.0,0.0,0.0,-0.0,teleoperation
1449618220978230871,205,1449618220930056660,base_footprint,-0.0,0.0,0.0,0.0,0.0,-0.0,teleoperation
1449618221010680852,206,1449618220969628774,base_footprint,-0.0,0.0,0.0,0.0,0.0,-0.0,teleoperation
1449618221050704106,207,1449618221009845212,base_footprint,-0.0,0.0,0.0,0.0,0.0,-0.0,teleoperation
1449618221090744886,208,1449618221049821880,base_footprint,-0.0,0.0,0.0,0.0,0.0,-0.0,teleoperation
1449618221130007765,209,1449618221089935941,base_footprint,-0.0,0.0,0.0,0.0,0.0,-0.0,teleoperation
1449618221170325001,210,1449618221129750553,base_footprint,-0.0,0.0,0.0,0.0,0.0,-0.0,teleoperation
1449618221209810114,211,1449618221169747444,base_footprint,-0.0,0.0,0.0,0.0,0.0,-0.0,teleoperation
1449618221250332808,212,1449618221209636806,base_footprint,-0.0,0.0,0.0,0.0,0.0,-0.0,teleoperation
1449618221290443711,213,1449618221249755380,base_footprint,-0.0,0.0,0.0,0.0,0.0,-0.0,teleoperation
1449618221330678274,214,1449618221289681752,base_footprint,-0.0,0.0,0.0,0.0,0.0,-0.0,teleoperation
1449618221370529624,215,1449618221329846835,base_footprint,-0.0,0.0,0.0,0.0,0.0,-0.0,teleoperation
1449618221410832575,216,1449618221369862598,base_footprint,-0.0,0.0,0.0,0.0,0.0,-0.0,teleoperation
1449618221449935661,217,1449618221409825704,base_footprint,-0.0,0.0,0.0,0.0,0.0,-0.0,teleoperation
1449618221490584672,218,1449618221449733617,base_footprint,-0.0,0.0,0.0,0.0,0.0,-0.0,teleoperation
1449618221531741692,219,1449618221490065181,base_footprint,-0.0,0.0,0.0,0.0,0.0,-0.0,teleoperation
1449618221570080036,220,1449618221530220947,base_footprint,-0.0,0.0,0.0,0.0,0.0,-0.0,teleoperation
1449618221610024482,221,1449618221569710966,base_footprint,-0.0,0.0,0.0,0.0,0.0,-0.0,teleoperation
1449618221650932569,222,1449618221609919055,base_footprint,-0.0,0.0,0.0,0.0,0.0,-0.0,teleoperation
1449618221691843518,223,1449618221649819824,base_footprint,-0.0,0.0,0.0,0.0,0.0,-0.0,teleoperation
1449618221730896918,224,1449618221690608877,base_footprint,-0.0,0.0,0.0,0.0,0.0,-0.0,teleoperation
1449618221769872536,225,1449618221730314447,base_footprint,-0.0,0.0,0.0,0.0,0.0,-0.0,teleoperation
1449618221810246929,226,1449618221769580649,base_footprint,-0.0,0.0,0.0,0.0,0.0,-0.0,teleoperation
1449618221849931113,227,1449618221809834431,base_footprint,-0.0,0.0,0.0,0.0,0.0,-0.0,teleoperation
1449618221890473460,228,1449618221849586162,base_footprint,-0.0,0.0,0.0,0.0,0.0,-0.0,teleoperation
1449618221930252343,229,1449618221889888235,base_footprint,-0.0,0.0,0.0,0.0,0.0,-0.0,teleoperation
1449618221970310534,230,1449618221930082088,base_footprint,-0.0,0.0,0.0,0.0,0.0,-0.0,teleoperation
1449618222014763335,231,1449618221969580606,base_footprint,-0.0,0.0,0.0,0.0,0.0,-0.0,teleoperation
1449618222050180947,232,1449618222014061163,base_footprint,-0.0,0.0,0.0,0.0,0.0,-0.0,teleoperation
1449618222090471861,233,1449618222049551839,base_footprint,-0.0,0.0,0.0,0.0,0.0,-0.0,teleoperation
1449618222130443167,234,1449618222090021429,base_footprint,-0.0,0.0,0.0,0.0,0.0,-0.0,teleoperation
1449618222170202790,235,1449618222130116999,base_footprint,-0.0,0.0,0.0,0.0,0.0,-0.0,teleoperation
1449618222211052369,236,1449618222169851356,base_footprint,-0.0,0.0,0.0,0.0,0.0,-0.0,teleoperation
1449618222250401066,237,1449618222209754827,base_footprint,-0.0,0.0,0.0,0.0,0.0,-0.0,teleoperation
1449618222290352676,238,1449618222249977798,base_footprint,-0.0,0.0,0.0,0.0,0.0,-0.0,teleoperation
1449618222330877762,239,1449618222289901972,base_footprint,-0.0,0.0,0.0,0.0,0.0,-0.0,teleoperation
1449618222370926601,240,1449618222330608411,base_footprint,-0.0,0.0,0.0,0.0,0.0,-0.0,teleoperation
1449618222409775567,241,1449618222370450470,base_footprint,-0.0,0.0,0.0,0.0,0.0,-0.0,teleoperation
1449618222450056997,242,1449618222409606005,base_footprint,-0.0,0.0,0.0,0.0,0.0,-0.0,teleoperation
1449618222490125232,243,1449618222449491237,base_footprint,-0.0,0.0,0.0,0.0,0.0,-0.0,teleoperation
1449618222530040912,244,1449618222489788578,base_footprint,-0.0,0.0,0.0,0.0,0.0,-0.0,teleoperation
1449618222570002035,245,1449618222529777766,base_footprint,-0.0,0.0,0.0,0.0,0.0,-0.0,teleoperation
1449618222609933192,246,1449618222569635405,base_footprint,-0.0,0.0,0.0,0.0,0.0,-0.0,teleoperation
1449618222650687898,247,1449618222609867927,base_footprint,-0.0,0.0,0.0,0.0,0.0,-0.0,teleoperation
1449618222690029432,248,1449618222649959968,base_footprint,-0.0,0.0,0.0,0.0,0.0,-0.0,teleoperation
1449618222730105851,249,1449618222689584622,base_footprint,-0.0,0.0,0.0,0.0,0.0,-0.0,teleoperation
1449618222770714085,250,1449618222729863584,base_footprint,-0.0,0.0,0.0,0.0,0.0,-0.0,teleoperation
1449618222812346658,251,1449618222769792652,base_footprint,-0.0,0.0,0.0,0.0,0.0,-0.0,teleoperation
1449618222851087468,252,1449618222811239826,base_footprint,-0.0,0.0,0.0,0.0,0.0,-0.0,teleoperation
1449618222890504113,253,1449618222850196386,base_footprint,-0.0,0.0,0.0,0.0,0.0,-0.0,teleoperation
1449618222930670239,254,1449618222890067634,base_footprint,-0.0,0.0,0.0,0.0,0.0,-0.0,teleoperation
1449618222971440866,255,1449618222929798579,base_footprint,-0.0,0.0,0.0,0.0,0.0,-0.0,teleoperation
1449618223009805964,256,1449618222970501789,base_footprint,0.00558730190992,0.0,0.0,0.0,0.0,0.0,teleoperation
1449618223070103135,257,1449618223009554465,base_footprint,0.00558730190992,0.0,0.0,0.0,0.0,0.0,teleoperation
1449618223102028590,258,1449618223056625741,base_footprint,0.0111746038198,0.0,0.0,0.0,0.0,0.0,teleoperation
1449618223201629917,259,1449618223097853916,base_footprint,0.0111746038198,0.0,0.0,0.0,0.0,0.0,teleoperation
1449618223209671001,260,1449618223200872066,base_footprint,0.189968263626,0.0,0.0,0.0,0.0,0.0,teleoperation
1449618223314426138,261,1449618223234270150,base_footprint,0.189968263626,0.0,0.0,0.0,0.0,0.0,teleoperation
1449618223365454876,262,1449618223313891901,base_footprint,0.167619048119,0.0,0.0,0.0,0.0,0.0,teleoperation
1449618223394475931,263,1449618223363614855,base_footprint,0.184380962372,0.0,0.0,0.0,0.0,0.0,teleoperation
1449618223424058115,264,1449618223394157772,base_footprint,0.184380962372,0.0,0.0,0.0,0.0,0.0,teleoperation
1449618223515929343,265,1449618223423818760,base_footprint,0.184380962372,0.0,0.0,0.0,0.0,0.0,teleoperation
1449618223539422688,266,1449618223515287669,base_footprint,0.189968263626,0.0,0.0,0.0,0.0,0.0,teleoperation
1449618223570924098,267,1449618223548681324,base_footprint,0.173206349373,0.0,0.0,0.0,0.0,0.0,teleoperation
1449618223612953314,268,1449618223582536586,base_footprint,0.173206349373,0.0,0.0,0.0,0.0,0.0,teleoperation
1449618223681004761,269,1449618223618021815,base_footprint,0.173206349373,0.0,0.0,0.0,0.0,0.0,teleoperation
1449618223706519209,270,1449618223680074165,base_footprint,0.189968263626,0.0,0.0,0.0,0.0,0.0,teleoperation
1449618223732167573,271,1449618223705879728,base_footprint,0.189968263626,0.0,0.0,0.0,0.0,0.0,teleoperation
1449618223779276572,272,1449618223731026292,base_footprint,0.189968263626,0.0,0.0,0.0,0.0,0.0,teleoperation
1449618223840677555,273,1449618223778462940,base_footprint,0.189968263626,0.0,0.0,0.0,0.0,0.0,teleoperation
1449618223858573982,274,1449618223839912210,base_footprint,0.173206349373,0.0,0.0,0.0,0.0,0.0,teleoperation
1449618223886136516,275,1449618223873308118,base_footprint,0.173206349373,0.0,0.0,0.0,0.0,0.0,teleoperation
1449618223927948120,276,1449618223906654231,base_footprint,0.173206349373,0.0,0.0,0.0,0.0,0.0,teleoperation
1449618223962651540,277,1449618223940236577,base_footprint,0.173206349373,0.0,0.0,0.0,0.0,0.0,teleoperation
1449618224028229283,278,1449618223973302026,base_footprint,0.189968263626,0.0,0.0,0.0,0.0,0.0,teleoperation
1449618224047130849,279,1449618224027863291,base_footprint,0.189968263626,0.0,0.0,0.0,0.0,0.0,teleoperation
1449618224084877907,280,1449618224045938955,base_footprint,0.189968263626,0.0,0.0,0.0,0.0,0.0,teleoperation
1449618224310090981,281,1449618224084573002,base_footprint,0.189968263626,0.0,0.0,0.0,0.0,0.0,teleoperation
1449618224318216025,282,1449618224307869990,base_footprint,0.189968263626,0.0,0.0,0.0,0.0,0.0,teleoperation
1449618224378578963,283,1449618224341268934,base_footprint,0.189968263626,0.0,0.0,0.0,0.0,0.0,teleoperation
1449618224447894305,284,1449618224378136318,base_footprint,0.189968263626,0.0,0.0,0.0,0.0,0.0,teleoperation
1449618224512945288,285,1449618224447546436,base_footprint,0.173206349373,0.0,0.0,0.0,0.0,0.0,teleoperation
1449618224555155789,286,1449618224512405576,base_footprint,0.173206349373,0.0,0.0,0.0,0.0,0.0,teleoperation
1449618224597843837,287,1449618224554205482,base_footprint,0.189968263626,0.0,0.0,0.0,0.0,0.0,teleoperation
1449618224637945693,288,1449618224594766084,base_footprint,0.189968263626,0.0,0.0,0.0,0.0,0.0,teleoperation
1449618224675997397,289,1449618224636867450,base_footprint,0.189968263626,0.0,0.0,0.0,0.0,0.0,teleoperation
1449618224710330664,290,1449618224661567602,base_footprint,0.189968263626,0.0,0.0,0.0,0.0,0.0,teleoperation
1449618224820667815,291,1449618224710046402,base_footprint,0.189968263626,0.0,0.0,0.0,0.0,0.0,teleoperation
1449618224848280118,292,1449618224820481106,base_footprint,0.173206349373,0.0,0.0,0.0,0.0,0.0,teleoperation
1449618224941278156,293,1449618224853843540,base_footprint,0.346412698746,0.0,0.0,0.0,0.0,0.00634920671582,teleoperation
1449618224976276405,294,1449618224940837847,base_footprint,0.340825397491,0.0,0.0,0.0,0.0,0.0317460328341,teleoperation
1449618225069873173,295,1449618224975896251,base_footprint,0.340825397491,0.0,0.0,0.0,0.0,0.0317460328341,teleoperation
1449618225122132657,296,1449618225069285695,base_footprint,0.296126987457,0.0,0.0,0.0,0.0,0.342857146263,teleoperation
1449618225169648514,297,1449618225121345979,base_footprint,0.296126987457,0.0,0.0,0.0,0.0,0.342857146263,teleoperation
1449618225207878614,298,1449618225168405324,base_footprint,0.301714288712,0.0,0.0,0.0,0.0,0.342857146263,teleoperation
1449618225230775587,299,1449618225207591875,base_footprint,0.301714288712,0.0,0.0,0.0,0.0,0.342857146263,teleoperation
1449618225340064914,300,1449618225241567417,base_footprint,0.301714288712,0.0,0.0,0.0,0.0,0.342857146263,teleoperation
1449618225376200393,301,1449618225339929359,base_footprint,0.296126987457,0.0,0.0,0.0,0.0,0.336507940292,teleoperation
1449618225425601586,302,1449618225375542538,base_footprint,0.296126987457,0.0,0.0,0.0,0.0,0.336507940292,teleoperation
1449618225511817428,303,1449618225425460329,base_footprint,0.296126987457,0.0,0.0,0.0,0.0,0.336507940292,teleoperation
1449618225565522625,304,1449618225510344818,base_footprint,0.296126987457,0.0,0.0,0.0,0.0,0.342857146263,teleoperation
1449618225590861211,305,1449618225564577993,base_footprint,0.301714288712,0.0,0.0,0.0,0.0,0.336507940292,teleoperation
1449618225647325883,306,1449618225588171619,base_footprint,0.301714288712,0.0,0.0,0.0,0.0,0.336507940292,teleoperation
1449618225690306458,307,1449618225647064704,base_footprint,0.329650794983,0.0,0.0,0.0,0.0,0.126984131336,teleoperation
1449618225779993475,308,1449618225689363257,base_footprint,0.329650794983,0.0,0.0,0.0,0.0,0.126984131336,teleoperation
1449618225813979360,309,1449618225778565664,base_footprint,0.31288889122,0.0,0.0,0.0,0.0,0.00634920671582,teleoperation
1449618225830076842,310,1449618225813424007,base_footprint,0.31288889122,0.0,0.0,0.0,0.0,0.00634920671582,teleoperation
1449618225933707078,311,1449618225845304327,base_footprint,0.31288889122,0.0,0.0,0.0,0.0,0.00634920671582,teleoperation
1449618225951046478,312,1449618225930310393,base_footprint,0.346412698746,0.0,0.0,0.0,0.0,-0.00634920671582,teleoperation
1449618226040791575,313,1449618225963684010,base_footprint,0.307301589966,0.0,0.0,0.0,0.0,-0.00634920671582,teleoperation
1449618226060058213,314,1449618226039858346,base_footprint,0.346412698746,0.0,0.0,0.0,0.0,-0.00634920671582,teleoperation
1449618226110997925,315,1449618226073261631,base_footprint,0.346412698746,0.0,0.0,0.0,0.0,-0.00634920671582,teleoperation
1449618226153932611,316,1449618226110437265,base_footprint,0.346412698746,0.0,0.0,0.0,0.0,-0.00634920671582,teleoperation
1449618226238394425,317,1449618226153106857,base_footprint,0.346412698746,0.0,0.0,0.0,0.0,-0.00634920671582,teleoperation
1449618226275110956,318,1449618226238266777,base_footprint,0.346412698746,0.0,0.0,0.0,0.0,-0.00634920671582,teleoperation
1449618226347091603,319,1449618226274707376,base_footprint,0.346412698746,0.0,0.0,0.0,0.0,-0.00634920671582,teleoperation
1449618226473163729,320,1449618226343753130,base_footprint,0.346412698746,0.0,0.0,0.0,0.0,-0.00634920671582,teleoperation
1449618226502082621,321,1449618226471671355,base_footprint,0.346412698746,0.0,0.0,0.0,0.0,-0.0126984134316,teleoperation
1449618226536148762,322,1449618226505219860,base_footprint,0.346412698746,0.0,0.0,0.0,0.0,-0.0126984134316,teleoperation
1449618226575153483,323,1449618226538403255,base_footprint,0.329650794983,0.0,0.0,0.0,0.0,-0.126984131336,teleoperation
1449618226695933156,324,1449618226574874872,base_footprint,0.329650794983,0.0,0.0,0.0,0.0,-0.126984131336,teleoperation
1449618226744043941,325,1449618226695071187,base_footprint,0.296126987457,0.0,0.0,0.0,0.0,-0.342857146263,teleoperation
1449618226774561367,326,1449618226743652574,base_footprint,0.301714288712,0.0,0.0,0.0,0.0,-0.336507940292,teleoperation
1449618226798371616,327,1449618226768136189,base_footprint,0.301714288712,0.0,0.0,0.0,0.0,-0.336507940292,teleoperation
1449618226834659914,328,1449618226797994192,base_footprint,0.301714288712,0.0,0.0,0.0,0.0,-0.336507940292,teleoperation
1449618226930678053,329,1449618226833713234,base_footprint,0.296126987457,0.0,0.0,0.0,0.0,-0.342857146263,teleoperation
1449618226963029950,330,1449618226930390878,base_footprint,0.296126987457,0.0,0.0,0.0,0.0,-0.342857146263,teleoperation
1449618226989337894,331,1449618226964474449,base_footprint,0.301714288712,0.0,0.0,0.0,0.0,-0.336507940292,teleoperation
1449618227043806732,332,1449618226997133671,base_footprint,0.301714288712,0.0,0.0,0.0,0.0,-0.336507940292,teleoperation
1449618227121638768,333,1449618227043346419,base_footprint,0.301714288712,0.0,0.0,0.0,0.0,-0.336507940292,teleoperation
1449618227157350855,334,1449618227116883457,base_footprint,0.301714288712,0.0,0.0,0.0,0.0,-0.336507940292,teleoperation
1449618227184800238,335,1449618227154398249,base_footprint,0.301714288712,0.0,0.0,0.0,0.0,-0.342857146263,teleoperation
1449618227315398504,336,1449618227183605693,base_footprint,0.301714288712,0.0,0.0,0.0,0.0,-0.342857146263,teleoperation
1449618227354027055,337,1449618227314031158,base_footprint,0.301714288712,0.0,0.0,0.0,0.0,-0.336507940292,teleoperation
1449618227397308739,338,1449618227352012343,base_footprint,0.296126987457,0.0,0.0,0.0,0.0,-0.342857146263,teleoperation
1449618227496743047,339,1449618227396497329,base_footprint,0.296126987457,0.0,0.0,0.0,0.0,-0.342857146263,teleoperation
1449618227554504663,340,1449618227494552815,base_footprint,0.251428577423,0.0,0.0,0.0,0.0,-0.285714292526,teleoperation
1449618227642770589,341,1449618227554078654,base_footprint,0.329650794983,0.0,0.0,0.0,0.0,-0.126984131336,teleoperation
1449618227750085157,342,1449618227642639013,base_footprint,0.340825397491,0.0,0.0,0.0,0.0,-0.0317460328341,teleoperation
1449618227823876358,343,1449618227748925544,base_footprint,0.346412698746,0.0,0.0,0.0,0.0,-0.0190476194024,teleoperation
1449618227866262506,344,1449618227823423861,base_footprint,0.346412698746,0.0,0.0,0.0,0.0,-0.0190476194024,teleoperation
1449618227895856128,345,1449618227866077845,base_footprint,0.340825397491,0.0,0.0,0.0,0.0,-0.0190476194024,teleoperation
1449618227927672437,346,1449618227895495212,base_footprint,0.340825397491,0.0,0.0,0.0,0.0,-0.0190476194024,teleoperation
1449618227985452532,347,1449618227927024957,base_footprint,0.340825397491,0.0,0.0,0.0,0.0,-0.0190476194024,teleoperation
1449618228060909290,348,1449618227984412091,base_footprint,0.346412698746,0.0,0.0,0.0,0.0,-0.0190476194024,teleoperation
1449618228160539242,349,1449618228060242689,base_footprint,0.346412698746,0.0,0.0,0.0,0.0,-0.0190476194024,teleoperation
1449618228224440802,350,1449618228159251927,base_footprint,0.340825397491,0.0,0.0,0.0,0.0,-0.0190476194024,teleoperation
1449618228275323194,351,1449618228224131833,base_footprint,0.340825397491,0.0,0.0,0.0,0.0,-0.0190476194024,teleoperation
1449618228371332846,352,1449618228274951353,base_footprint,0.346412698746,0.0,0.0,0.0,0.0,-0.0190476194024,teleoperation
1449618228428552727,353,1449618228370736375,base_footprint,0.346412698746,0.0,0.0,0.0,0.0,-0.0253968268633,teleoperation
1449618228481161894,354,1449618228428250587,base_footprint,0.346412698746,0.0,0.0,0.0,0.0,-0.0253968268633,teleoperation
1449618228590152728,355,1449618228475715051,base_footprint,0.340825397491,0.0,0.0,0.0,0.0,-0.0190476194024,teleoperation
1449618228619441293,356,1449618228584435859,base_footprint,0.346412698746,0.0,0.0,0.0,0.0,-0.0190476194024,teleoperation
1449618228657422103,357,1449618228619089535,base_footprint,0.346412698746,0.0,0.0,0.0,0.0,-0.0190476194024,teleoperation
1449618228751205728,358,1449618228657278355,base_footprint,0.346412698746,0.0,0.0,0.0,0.0,-0.0190476194024,teleoperation
1449618228792804468,359,1449618228749881291,base_footprint,0.340825397491,0.0,0.0,0.0,0.0,-0.0190476194024,teleoperation
1449618228871135312,360,1449618228791950061,base_footprint,0.340825397491,0.0,0.0,0.0,0.0,-0.0190476194024,teleoperation
1449618228913995271,361,1449618228869437611,base_footprint,0.340825397491,0.0,0.0,0.0,0.0,-0.0253968268633,teleoperation
1449618229023616261,362,1449618228911159892,base_footprint,0.340825397491,0.0,0.0,0.0,0.0,-0.0253968268633,teleoperation
1449618229061488448,363,1449618229021983741,base_footprint,0.346412698746,0.0,0.0,0.0,0.0,-0.0190476194024,teleoperation
1449618229153510103,364,1449618229056526817,base_footprint,0.31288889122,0.0,0.0,0.0,0.0,-0.0190476194024,teleoperation
1449618229181480283,365,1449618229152242314,base_footprint,0.346412698746,0.0,0.0,0.0,0.0,-0.0190476194024,teleoperation
1449618229224602234,366,1449618229186226403,base_footprint,0.346412698746,0.0,0.0,0.0,0.0,-0.0190476194024,teleoperation
1449618229304603963,367,1449618229222310159,base_footprint,0.346412698746,0.0,0.0,0.0,0.0,-0.0190476194024,teleoperation
1449618229350642021,368,1449618229303699510,base_footprint,0.296126987457,0.0,0.0,0.0,0.0,-0.0190476194024,teleoperation
1449618229398413533,369,1449618229349250508,base_footprint,0.346412698746,0.0,0.0,0.0,0.0,-0.0190476194024,teleoperation
1449618229480218261,370,1449618229398285288,base_footprint,0.346412698746,0.0,0.0,0.0,0.0,-0.0190476194024,teleoperation
1449618229525654725,371,1449618229474551709,base_footprint,0.301714288712,0.0,0.0,0.0,0.0,-0.00634920671582,teleoperation
1449618229597864649,372,1449618229524947026,base_footprint,0.301714288712,0.0,0.0,0.0,0.0,-0.00634920671582,teleoperation
1449618229645174081,373,1449618229596134971,base_footprint,0.346412698746,0.0,0.0,0.0,0.0,-0.00634920671582,teleoperation
1449618229721823505,374,1449618229644446166,base_footprint,0.296126987457,0.0,0.0,0.0,0.0,0.0126984134316,teleoperation
1449618229759274943,375,1449618229717236882,base_footprint,0.296126987457,0.0,0.0,0.0,0.0,0.0126984134316,teleoperation
1449618229873495946,376,1449618229758736609,base_footprint,0.340825397491,0.0,0.0,0.0,0.0,0.0253968268633,teleoperation
1449618229903712389,377,1449618229872827957,base_footprint,0.27377778244,0.0,0.0,0.0,0.0,0.139682543278,teleoperation
1449618230003794874,378,1449618229906241529,base_footprint,0.27377778244,0.0,0.0,0.0,0.0,0.139682543278,teleoperation
1449618230046814814,379,1449618230003243783,base_footprint,0.296126987457,0.0,0.0,0.0,0.0,0.342857146263,teleoperation
1449618230111867268,380,1449618230046072396,base_footprint,0.296126987457,0.0,0.0,0.0,0.0,0.336507940292,teleoperation
1449618230181714677,381,1449618230111676186,base_footprint,0.296126987457,0.0,0.0,0.0,0.0,0.336507940292,teleoperation
1449618230194159184,382,1449618230179816186,base_footprint,0.301714288712,0.0,0.0,0.0,0.0,0.342857146263,teleoperation
1449618230286098959,383,1449618230213213019,base_footprint,0.301714288712,0.0,0.0,0.0,0.0,0.342857146263,teleoperation
1449618230317182601,384,1449618230285585495,base_footprint,0.296126987457,0.0,0.0,0.0,0.0,0.336507940292,teleoperation
1449618230353495896,385,1449618230319699693,base_footprint,0.296126987457,0.0,0.0,0.0,0.0,0.336507940292,teleoperation
1449618230432480862,386,1449618230352390626,base_footprint,0.301714288712,0.0,0.0,0.0,0.0,0.342857146263,teleoperation
1449618230453316836,387,1449618230431145558,base_footprint,0.301714288712,0.0,0.0,0.0,0.0,0.342857146263,teleoperation
1449618230510412234,388,1449618230464556268,base_footprint,0.245841276169,0.0,0.0,0.0,0.0,0.285714292526,teleoperation
1449618230616003764,389,1449618230509068330,base_footprint,0.245841276169,0.0,0.0,0.0,0.0,0.285714292526,teleoperation
1449618230650805183,390,1449618230615316867,base_footprint,0.301714288712,0.0,0.0,0.0,0.0,0.342857146263,teleoperation
1449618230681056394,391,1449618230650296665,base_footprint,0.296126987457,0.0,0.0,0.0,0.0,0.342857146263,teleoperation
1449618230760112720,392,1449618230682048584,base_footprint,0.296126987457,0.0,0.0,0.0,0.0,0.342857146263,teleoperation
1449618230848278389,393,1449618230759483625,base_footprint,0.284952384949,0.0,0.0,0.0,0.0,0.0761904776096,teleoperation
1449618230875374289,394,1449618230847644207,base_footprint,0.346412698746,0.0,0.0,0.0,0.0,0.0126984134316,teleoperation
1449618230970228568,395,1449618230882092852,base_footprint,0.346412698746,0.0,0.0,0.0,0.0,0.0126984134316,teleoperation
1449618231080690001,396,1449618230969625787,base_footprint,0.346412698746,0.0,0.0,0.0,0.0,0.00634920671582,teleoperation
1449618231212077871,397,1449618231079882593,base_footprint,0.346412698746,0.0,0.0,0.0,0.0,0.0,teleoperation
1449618231260271386,398,1449618231211433687,base_footprint,0.307301589966,0.0,0.0,0.0,0.0,0.0,teleoperation
1449618231347847333,399,1449618231259946079,base_footprint,0.346412698746,0.0,0.0,0.0,0.0,0.00634920671582,teleoperation
1449618231394109997,400,1449618231347482692,base_footprint,0.346412698746,0.0,0.0,0.0,0.0,0.0,teleoperation
1449618231486026587,401,1449618231392026900,base_footprint,0.346412698746,0.0,0.0,0.0,0.0,0.0,teleoperation
1449618231552604685,402,1449618231483262877,base_footprint,0.346412698746,0.0,0.0,0.0,0.0,0.0,teleoperation
1449618231663518496,403,1449618231551973789,base_footprint,0.346412698746,0.0,0.0,0.0,0.0,0.0,teleoperation
1449618231765743693,404,1449618231663125402,base_footprint,0.346412698746,0.0,0.0,0.0,0.0,0.0,teleoperation
1449618231868658756,405,1449618231763335089,base_footprint,0.346412698746,0.0,0.0,0.0,0.0,0.0,teleoperation
1449618231907489990,406,1449618231868279945,base_footprint,0.346412698746,0.0,0.0,0.0,0.0,0.0,teleoperation
1449618231991117801,407,1449618231907177809,base_footprint,0.346412698746,0.0,0.0,0.0,0.0,0.0,teleoperation
1449618232022530839,408,1449618231990706170,base_footprint,0.346412698746,0.0,0.0,0.0,0.0,0.0,teleoperation
1449618232108683550,409,1449618232024101853,base_footprint,0.346412698746,0.0,0.0,0.0,0.0,0.0,teleoperation
1449618232187934429,410,1449618232108405823,base_footprint,0.346412698746,0.0,0.0,0.0,0.0,0.0,teleoperation
1449618232223791868,411,1449618232187533654,base_footprint,0.346412698746,0.0,0.0,0.0,0.0,0.0,teleoperation
1449618232280533557,412,1449618232223637527,base_footprint,0.346412698746,0.0,0.0,0.0,0.0,0.0,teleoperation
1449618232302746582,413,1449618232274946984,base_footprint,0.346412698746,0.0,0.0,0.0,0.0,0.0,teleoperation
1449618232410663091,414,1449618232302407184,base_footprint,0.346412698746,0.0,0.0,0.0,0.0,0.0,teleoperation
1449618232476912028,415,1449618232408398057,base_footprint,0.346412698746,0.0,0.0,0.0,0.0,0.0,teleoperation
1449618232514673440,416,1449618232467948875,base_footprint,0.31288889122,0.0,0.0,0.0,0.0,0.0,teleoperation
1449618232638670897,417,1449618232514306642,base_footprint,0.31288889122,0.0,0.0,0.0,0.0,0.0,teleoperation
1449618232696007640,418,1449618232637540369,base_footprint,0.31288889122,0.0,0.0,0.0,0.0,0.0,teleoperation
1449618232721697353,419,1449618232695574467,base_footprint,0.31288889122,0.0,0.0,0.0,0.0,0.0,teleoperation
1449618232810845289,420,1449618232721183203,base_footprint,0.31288889122,0.0,0.0,0.0,0.0,0.0,teleoperation
1449618232853453137,421,1449618232810112718,base_footprint,0.346412698746,0.0,0.0,0.0,0.0,0.0,teleoperation
1449618232949038183,422,1449618232851162063,base_footprint,0.352,0.0,0.0,0.0,0.0,0.0,teleoperation
1449618232983423189,423,1449618232948135706,base_footprint,0.346412698746,0.0,0.0,0.0,0.0,0.0,teleoperation
1449618233118482629,424,1449618232981528181,base_footprint,0.346412698746,0.0,0.0,0.0,0.0,0.0,teleoperation
1449618233187406625,425,1449618233118067963,base_footprint,0.346412698746,0.0,0.0,0.0,0.0,0.0,teleoperation
1449618233258555267,426,1449618233186654537,base_footprint,0.346412698746,0.0,0.0,0.0,0.0,0.0,teleoperation
1449618233319893420,427,1449618233257130086,base_footprint,0.346412698746,0.0,0.0,0.0,0.0,0.0,teleoperation
1449618233379409970,428,1449618233319617840,base_footprint,0.346412698746,0.0,0.0,0.0,0.0,0.0,teleoperation
1449618233404039027,429,1449618233379009944,base_footprint,0.346412698746,0.0,0.0,0.0,0.0,0.0,teleoperation
1449618233448089439,430,1449618233412484240,base_footprint,0.346412698746,0.0,0.0,0.0,0.0,0.0,teleoperation
1449618233530310005,431,1449618233446995962,base_footprint,0.346412698746,0.0,0.0,0.0,0.0,0.0,teleoperation
1449618233601037928,432,1449618233529541016,base_footprint,0.346412698746,0.0,0.0,0.0,0.0,0.0,teleoperation
1449618233641195882,433,1449618233600526555,base_footprint,0.346412698746,0.0,0.0,0.0,0.0,0.0,teleoperation
1449618233716982571,434,1449618233640687719,base_footprint,0.346412698746,0.0,0.0,0.0,0.0,0.00634920671582,teleoperation
1449618233784953008,435,1449618233716302523,base_footprint,0.346412698746,0.0,0.0,0.0,0.0,0.00634920671582,teleoperation
1449618233881364662,436,1449618233784688993,base_footprint,0.346412698746,0.0,0.0,0.0,0.0,0.0126984134316,teleoperation
1449618233896803577,437,1449618233880880763,base_footprint,0.329650794983,0.0,0.0,0.0,0.0,0.120634925365,teleoperation
1449618233971068591,438,1449618233917615956,base_footprint,0.329650794983,0.0,0.0,0.0,0.0,0.120634925365,teleoperation
1449618234022450014,439,1449618233970568484,base_footprint,0.301714288712,0.0,0.0,0.0,0.0,0.342857146263,teleoperation
1449618234043304035,440,1449618234022026713,base_footprint,0.301714288712,0.0,0.0,0.0,0.0,0.342857146263,teleoperation
1449618234071868781,441,1449618234055428495,base_footprint,0.251428577423,0.0,0.0,0.0,0.0,0.285714292526,teleoperation
1449618234156393447,442,1449618234088785902,base_footprint,0.251428577423,0.0,0.0,0.0,0.0,0.285714292526,teleoperation
1449618234196636253,443,1449618234155896913,base_footprint,0.301714288712,0.0,0.0,0.0,0.0,0.342857146263,teleoperation
1449618234225811363,444,1449618234196171941,base_footprint,0.301714288712,0.0,0.0,0.0,0.0,0.342857146263,teleoperation
1449618234246637357,445,1449618234224086441,base_footprint,0.301714288712,0.0,0.0,0.0,0.0,0.342857146263,teleoperation
1449618234277316146,446,1449618234255967760,base_footprint,0.296126987457,0.0,0.0,0.0,0.0,0.342857146263,teleoperation
1449618234341326825,447,1449618234289312550,base_footprint,0.296126987457,0.0,0.0,0.0,0.0,0.342857146263,teleoperation
1449618234382232162,448,1449618234340147947,base_footprint,0.251428577423,0.0,0.0,0.0,0.0,0.285714292526,teleoperation
1449618234473676594,449,1449618234381643662,base_footprint,0.251428577423,0.0,0.0,0.0,0.0,0.285714292526,teleoperation
1449618234494318178,450,1449618234473418229,base_footprint,0.301714288712,0.0,0.0,0.0,0.0,0.342857146263,teleoperation
1449618234538827193,451,1449618234506813304,base_footprint,0.301714288712,0.0,0.0,0.0,0.0,0.342857146263,teleoperation
1449618234606661702,452,1449618234540141941,base_footprint,0.301714288712,0.0,0.0,0.0,0.0,0.342857146263,teleoperation
1449618234623837295,453,1449618234606431013,base_footprint,0.301714288712,0.0,0.0,0.0,0.0,0.342857146263,teleoperation
1449618234659467922,454,1449618234623508183,base_footprint,0.301714288712,0.0,0.0,0.0,0.0,0.342857146263,teleoperation
1449618234726006341,455,1449618234658813545,base_footprint,0.296126987457,0.0,0.0,0.0,0.0,0.342857146263,teleoperation
1449618234788703183,456,1449618234725613450,base_footprint,0.296126987457,0.0,0.0,0.0,0.0,0.342857146263,teleoperation
1449618234847372614,457,1449618234788502508,base_footprint,0.301714288712,0.0,0.0,0.0,0.0,0.336507940292,teleoperation
1449618234921819332,458,1449618234846855144,base_footprint,0.340825397491,0.0,0.0,0.0,0.0,0.0380952388048,teleoperation
1449618234952482161,459,1449618234921436471,base_footprint,0.340825397491,0.0,0.0,0.0,0.0,0.0380952388048,teleoperation
1449618234987566330,460,1449618234954852057,base_footprint,0.346412698746,0.0,0.0,0.0,0.0,0.0126984134316,teleoperation
1449618234998895665,461,1449618234988165789,base_footprint,0.346412698746,0.0,0.0,0.0,0.0,0.0126984134316,teleoperation
1449618235030250449,462,1449618235021521517,base_footprint,0.346412698746,0.0,0.0,0.0,0.0,0.0126984134316,teleoperation
1449618235076511152,463,1449618235054835950,base_footprint,0.346412698746,0.0,0.0,0.0,0.0,0.0126984134316,teleoperation
1449618235136898737,464,1449618235088167563,base_footprint,0.346412698746,0.0,0.0,0.0,0.0,0.00634920671582,teleoperation
1449618235159783406,465,1449618235135319141,base_footprint,0.346412698746,0.0,0.0,0.0,0.0,0.0,teleoperation
1449618235199983583,466,1449618235158938998,base_footprint,0.346412698746,0.0,0.0,0.0,0.0,0.0,teleoperation
1449618235224419893,467,1449618235199323462,base_footprint,0.346412698746,0.0,0.0,0.0,0.0,0.0,teleoperation
1449618235255061422,468,1449618235224122072,base_footprint,0.346412698746,0.0,0.0,0.0,0.0,0.0,teleoperation
1449618235300083651,469,1449618235254843366,base_footprint,0.346412698746,0.0,0.0,0.0,0.0,-0.00634920671582,teleoperation
1449618235339984864,470,1449618235299813185,base_footprint,0.346412698746,0.0,0.0,0.0,0.0,-0.00634920671582,teleoperation
1449618235376484694,471,1449618235339807462,base_footprint,0.346412698746,0.0,0.0,0.0,0.0,-0.00634920671582,teleoperation
1449618235422557182,472,1449618235373925162,base_footprint,0.346412698746,0.0,0.0,0.0,0.0,-0.00634920671582,teleoperation
1449618235507148659,473,1449618235421895087,base_footprint,0.346412698746,0.0,0.0,0.0,0.0,-0.00634920671582,teleoperation
1449618235517763765,474,1449618235505933840,base_footprint,0.346412698746,0.0,0.0,0.0,0.0,-0.0126984134316,teleoperation
1449618235548322596,475,1449618235539471312,base_footprint,0.346412698746,0.0,0.0,0.0,0.0,-0.0126984134316,teleoperation
1449618235575148865,476,1449618235572671190,base_footprint,0.346412698746,0.0,0.0,0.0,0.0,-0.0317460328341,teleoperation
1449618235619601103,477,1449618235605993618,base_footprint,0.346412698746,0.0,0.0,0.0,0.0,-0.0317460328341,teleoperation
1449618235678390575,478,1449618235639343810,base_footprint,0.346412698746,0.0,0.0,0.0,0.0,-0.0317460328341,teleoperation
1449618235700353273,479,1449618235672660125,base_footprint,0.335238096237,0.0,0.0,0.0,0.0,-0.0507936537266,teleoperation
1449618235740457600,480,1449618235705997376,base_footprint,0.335238096237,0.0,0.0,0.0,0.0,-0.0507936537266,teleoperation
1449618235784696480,481,1449618235740301797,base_footprint,0.340825397491,0.0,0.0,0.0,0.0,-0.0507936537266,teleoperation
1449618235828599450,482,1449618235784475745,base_footprint,0.340825397491,0.0,0.0,0.0,0.0,-0.0507936537266,teleoperation
1449618235861369720,483,1449618235828062456,base_footprint,0.340825397491,0.0,0.0,0.0,0.0,-0.0507936537266,teleoperation
1449618235900732546,484,1449618235860770532,base_footprint,0.340825397491,0.0,0.0,0.0,0.0,-0.0507936537266,teleoperation
1449618235951939607,485,1449618235899407489,base_footprint,0.340825397491,0.0,0.0,0.0,0.0,-0.0507936537266,teleoperation
1449618235987039264,486,1449618235949766241,base_footprint,0.340825397491,0.0,0.0,0.0,0.0,-0.0507936537266,teleoperation
1449618236032134555,487,1449618235985356142,base_footprint,0.340825397491,0.0,0.0,0.0,0.0,-0.0507936537266,teleoperation
1449618236058591507,488,1449618236030994244,base_footprint,0.340825397491,0.0,0.0,0.0,0.0,-0.0507936537266,teleoperation
1449618236096105570,489,1449618236058082139,base_footprint,0.340825397491,0.0,0.0,0.0,0.0,-0.0571428596973,teleoperation
1449618236142502045,490,1449618236095913179,base_footprint,0.340825397491,0.0,0.0,0.0,0.0,-0.0571428596973,teleoperation
1449618236176177588,491,1449618236141523401,base_footprint,0.340825397491,0.0,0.0,0.0,0.0,-0.0507936537266,teleoperation
1449618236227656804,492,1449618236175362089,base_footprint,0.340825397491,0.0,0.0,0.0,0.0,-0.0507936537266,teleoperation
1449618236261924595,493,1449618236227054709,base_footprint,0.340825397491,0.0,0.0,0.0,0.0,-0.0507936537266,teleoperation
1449618236301934474,494,1449618236261056811,base_footprint,0.340825397491,0.0,0.0,0.0,0.0,-0.0571428596973,teleoperation
1449618236352364584,495,1449618236301416482,base_footprint,0.340825397491,0.0,0.0,0.0,0.0,-0.0571428596973,teleoperation
1449618236376111397,496,1449618236351902355,base_footprint,0.340825397491,0.0,0.0,0.0,0.0,-0.0571428596973,teleoperation
1449618236423631531,497,1449618236375859730,base_footprint,0.340825397491,0.0,0.0,0.0,0.0,-0.0571428596973,teleoperation
1449618236456364270,498,1449618236422145751,base_footprint,0.340825397491,0.0,0.0,0.0,0.0,-0.0571428596973,teleoperation
1449618236505672624,499,1449618236456167660,base_footprint,0.340825397491,0.0,0.0,0.0,0.0,-0.0571428596973,teleoperation
1449618236536932903,500,1449618236503974476,base_footprint,0.340825397491,0.0,0.0,0.0,0.0,-0.0571428596973,teleoperation
1449618236582911779,501,1449618236539163266,base_footprint,0.340825397491,0.0,0.0,0.0,0.0,-0.0571428596973,teleoperation
1449618236616556385,502,1449618236582791213,base_footprint,0.340825397491,0.0,0.0,0.0,0.0,-0.0571428596973,teleoperation
1449618236656792113,503,1449618236615411149,base_footprint,0.340825397491,0.0,0.0,0.0,0.0,-0.0571428596973,teleoperation
1449618236700864674,504,1449618236655935366,base_footprint,0.340825397491,0.0,0.0,0.0,0.0,-0.0571428596973,teleoperation
1449618236748900236,505,1449618236700631354,base_footprint,0.340825397491,0.0,0.0,0.0,0.0,-0.0571428596973,teleoperation
1449618236773441825,506,1449618236741035163,base_footprint,0.346412698746,0.0,0.0,0.0,0.0,-0.0317460328341,teleoperation
1449618236821874586,507,1449618236774424805,base_footprint,0.346412698746,0.0,0.0,0.0,0.0,-0.0317460328341,teleoperation
1449618236857461888,508,1449618236818837638,base_footprint,0.346412698746,0.0,0.0,0.0,0.0,-0.0317460328341,teleoperation
1449618236897919262,509,1449618236857057172,base_footprint,0.340825397491,0.0,0.0,0.0,0.0,-0.0380952388048,teleoperation
1449618236948909477,510,1449618236897199307,base_footprint,0.340825397491,0.0,0.0,0.0,0.0,-0.0380952388048,teleoperation
1449618236982169905,511,1449618236948115653,base_footprint,0.340825397491,0.0,0.0,0.0,0.0,-0.0317460328341,teleoperation
1449618237050280701,512,1449618236981523946,base_footprint,0.340825397491,0.0,0.0,0.0,0.0,-0.0317460328341,teleoperation
1449618237057650430,513,1449618237047622129,base_footprint,0.340825397491,0.0,0.0,0.0,0.0,-0.0317460328341,teleoperation
1449618237092932735,514,1449618237054001116,base_footprint,0.340825397491,0.0,0.0,0.0,0.0,-0.0317460328341,teleoperation
1449618237145283994,515,1449618237092722217,base_footprint,0.340825397491,0.0,0.0,0.0,0.0,-0.0317460328341,teleoperation
1449618237176577411,516,1449618237142854146,base_footprint,0.340825397491,0.0,0.0,0.0,0.0,-0.0317460328341,teleoperation
1449618237236904519,517,1449618237176311022,base_footprint,0.340825397491,0.0,0.0,0.0,0.0,-0.0317460328341,teleoperation
1449618237265552131,518,1449618237235899895,base_footprint,0.340825397491,0.0,0.0,0.0,0.0,-0.0317460328341,teleoperation
1449618237307811404,519,1449618237269306826,base_footprint,0.340825397491,0.0,0.0,0.0,0.0,-0.0317460328341,teleoperation
1449618237345831243,520,1449618237306756155,base_footprint,0.340825397491,0.0,0.0,0.0,0.0,-0.0317460328341,teleoperation
1449618237381128761,521,1449618237343435715,base_footprint,0.346412698746,0.0,0.0,0.0,0.0,-0.0190476194024,teleoperation
1449618237451238950,522,1449618237380437801,base_footprint,0.346412698746,0.0,0.0,0.0,0.0,-0.0190476194024,teleoperation
1449618237466995775,523,1449618237449378712,base_footprint,0.340825397491,0.0,0.0,0.0,0.0,-0.0253968268633,teleoperation
1449618237511082414,524,1449618237482779800,base_footprint,0.340825397491,0.0,0.0,0.0,0.0,-0.0253968268633,teleoperation
1449618237537901946,525,1449618237516111634,base_footprint,0.340825397491,0.0,0.0,0.0,0.0,-0.0253968268633,teleoperation
1449618237592835060,526,1449618237549444539,base_footprint,0.346412698746,0.0,0.0,0.0,0.0,-0.0253968268633,teleoperation
1449618237624270413,527,1449618237592296621,base_footprint,0.346412698746,0.0,0.0,0.0,0.0,-0.0253968268633,teleoperation
1449618237669270567,528,1449618237623999864,base_footprint,0.346412698746,0.0,0.0,0.0,0.0,-0.0253968268633,teleoperation
1449618237695810428,529,1449618237667382717,base_footprint,0.346412698746,0.0,0.0,0.0,0.0,-0.0190476194024,teleoperation
1449618237740155323,530,1449618237695397925,base_footprint,0.346412698746,0.0,0.0,0.0,0.0,-0.0190476194024,teleoperation
1449618237778783548,531,1449618237739422219,base_footprint,0.346412698746,0.0,0.0,0.0,0.0,-0.0253968268633,teleoperation
1449618237814662418,532,1449618237778403853,base_footprint,0.346412698746,0.0,0.0,0.0,0.0,-0.0253968268633,teleoperation
1449618237865349685,533,1449618237814099710,base_footprint,0.346412698746,0.0,0.0,0.0,0.0,-0.0253968268633,teleoperation
1449618237897671038,534,1449618237864710922,base_footprint,0.346412698746,0.0,0.0,0.0,0.0,-0.0253968268633,teleoperation
1449618237957092265,535,1449618237898106027,base_footprint,0.346412698746,0.0,0.0,0.0,0.0,-0.0253968268633,teleoperation
1449618237976141242,536,1449618237953480867,base_footprint,0.340825397491,0.0,0.0,0.0,0.0,-0.0190476194024,teleoperation
1449618238037349731,537,1449618237975894314,base_footprint,0.340825397491,0.0,0.0,0.0,0.0,-0.0190476194024,teleoperation
1449618238053917293,538,1449618238035245733,base_footprint,0.346412698746,0.0,0.0,0.0,0.0,-0.0190476194024,teleoperation
1449618238132108430,539,1449618238068641560,base_footprint,0.346412698746,0.0,0.0,0.0,0.0,-0.0190476194024,teleoperation
1449618238144892317,540,1449618238131823955,base_footprint,0.346412698746,0.0,0.0,0.0,0.0,-0.0190476194024,teleoperation
1449618238227577491,541,1449618238143833506,base_footprint,0.346412698746,0.0,0.0,0.0,0.0,-0.0190476194024,teleoperation
1449618238261387399,542,1449618238227211477,base_footprint,0.346412698746,0.0,0.0,0.0,0.0,-0.0190476194024,teleoperation
1449618238298101162,543,1449618238262603155,base_footprint,0.340825397491,0.0,0.0,0.0,0.0,-0.0190476194024,teleoperation
1449618238337227840,544,1449618238296889053,base_footprint,0.340825397491,0.0,0.0,0.0,0.0,-0.0190476194024,teleoperation
1449618238356681791,545,1449618238336289187,base_footprint,0.340825397491,0.0,0.0,0.0,0.0,-0.0190476194024,teleoperation
1449618238425335960,546,1449618238360605218,base_footprint,0.346412698746,0.0,0.0,0.0,0.0,-0.00634920671582,teleoperation
1449618238473443123,547,1449618238424423235,base_footprint,0.346412698746,0.0,0.0,0.0,0.0,-0.00634920671582,teleoperation
1449618238496711846,548,1449618238472711656,base_footprint,0.346412698746,0.0,0.0,0.0,0.0,0.00634920671582,teleoperation
1449618238564356506,549,1449618238509636167,base_footprint,0.346412698746,0.0,0.0,0.0,0.0,0.00634920671582,teleoperation
1449618238593467848,550,1449618238564197962,base_footprint,0.301714288712,0.0,0.0,0.0,0.0,0.342857146263,teleoperation
1449618238602264791,551,1449618238593193504,base_footprint,0.301714288712,0.0,0.0,0.0,0.0,0.342857146263,teleoperation
1449618238614536903,552,1449618238606366255,base_footprint,0.301714288712,0.0,0.0,0.0,0.0,0.342857146263,teleoperation
1449618238653666944,553,1449618238639459916,base_footprint,0.301714288712,0.0,0.0,0.0,0.0,0.342857146263,teleoperation
1449618238708305849,554,1449618238672785211,base_footprint,0.301714288712,0.0,0.0,0.0,0.0,0.336507940292,teleoperation
1449618238749749620,555,1449618238707965483,base_footprint,0.301714288712,0.0,0.0,0.0,0.0,0.336507940292,teleoperation
1449618238787589565,556,1449618238748252003,base_footprint,0.296126987457,0.0,0.0,0.0,0.0,0.336507940292,teleoperation
