%time,field.x,field.y,field.z
1449618211403080387,6.0,6.0,0.0
1449618211436489524,6.0,6.0,0.0
1449618211469750951,6.0,6.0,0.0
1449618211503037515,6.0,6.0,0.0
1449618211536420154,6.0,6.0,0.0
1449618211569721479,6.0,6.0,0.0
1449618211603108215,6.0,6.0,0.0
1449618211636451501,6.0,6.0,0.0
1449618211669784405,6.0,6.0,0.0
1449618211703112527,6.0,6.0,0.0
1449618211736408280,6.0,6.0,0.0
1449618211769718866,6.0,6.0,0.0
1449618211803112557,6.0,6.0,0.0
1449618211836415749,6.0,6.0,0.0
1449618211869729705,6.0,6.0,0.0
1449618211903102915,6.0,6.0,0.0
1449618211936458959,6.0,6.0,0.0
1449618211969828543,6.0,6.0,0.0
1449618212003105262,6.0,6.0,0.0
1449618212036407201,6.0,6.0,0.0
1449618212069741951,6.0,6.0,0.0
1449618212103112721,6.0,6.0,0.0
1449618212136420883,6.0,6.0,0.0
1449618212169739457,6.0,6.0,0.0
1449618212203033884,6.0,6.0,0.0
1449618212236391849,6.0,6.0,0.0
1449618212269754380,6.0,6.0,0.0
1449618212304000682,6.0,6.0,0.0
1449618212336384356,6.0,6.0,0.0
1449618212369831972,6.0,6.0,0.0
1449618212403047009,6.0,6.0,0.0
1449618212436430438,6.0,6.0,0.0
1449618212469699899,6.0,6.0,0.0
1449618212503051431,6.0,6.0,0.0
1449618212536476949,6.0,6.0,0.0
1449618212569729322,6.0,6.0,0.0
1449618212603026535,6.0,6.0,0.0
1449618212636400361,6.0,6.0,0.0
1449618212669765831,6.0,6.0,0.0
1449618212703080067,6.0,6.0,0.0
1449618212736666699,6.0,6.0,0.0
1449618212769792901,6.0,6.0,0.0
1449618212803088466,6.0,6.0,0.0
1449618212836522491,6.0,6.0,0.0
1449618212869937249,6.0,6.0,0.0
1449618212903082213,6.0,6.0,0.0
1449618212936676920,6.0,6.0,0.0
1449618212969899075,6.0,6.0,0.0
1449618213003126352,6.0,6.0,0.0
1449618213036432394,6.0,6.0,0.0
1449618213069834073,6.0,6.0,0.0
1449618213103121398,6.0,6.0,0.0
1449618213136401106,6.0,6.0,0.0
1449618213169831664,6.0,6.0,0.0
1449618213203139623,6.0,6.0,0.0
1449618213236464531,6.0,6.0,0.0
1449618213269772630,6.0,6.0,0.0
1449618213303115791,6.0,6.0,0.0
1449618213336433249,6.0,6.0,0.0
1449618213369759362,6.0,6.0,0.0
1449618213403097307,6.0,6.0,0.0
1449618213436468462,6.0,6.0,0.0
1449618213469785970,6.0,6.0,0.0
1449618213503084752,6.0,6.0,0.0
1449618213536428431,6.0,6.0,0.0
1449618213569762776,6.0,6.0,0.0
1449618213603101530,6.0,6.0,0.0
1449618213636630413,6.0,6.0,0.0
1449618213669770956,6.0,6.0,0.0
1449618213703096595,6.0,6.0,0.0
1449618213736432821,6.0,6.0,0.0
1449618213769804313,6.0,6.0,0.0
1449618213803142830,6.0,6.0,0.0
1449618213836428309,6.0,6.0,0.0
1449618213869782236,6.0,6.0,0.0
1449618213903126833,6.0,6.0,0.0
1449618213936494023,6.0,6.0,0.0
1449618213969723492,6.0,6.0,0.0
1449618214003048733,6.0,6.0,0.0
1449618214036490269,6.0,6.0,0.0
1449618214069775251,6.0,6.0,0.0
1449618214103267637,6.0,6.0,0.0
1449618214136400418,6.0,6.0,0.0
1449618214169824648,6.0,6.0,0.0
1449618214203109338,6.0,6.0,0.0
1449618214236448229,6.0,6.0,0.0
1449618214269770456,6.0,6.0,0.0
1449618214303181669,6.0,6.0,0.0
1449618214336385625,6.0,6.0,0.0
1449618214369693324,6.0,6.0,0.0
1449618214403021115,6.0,6.0,0.0
1449618214436421526,6.0,6.0,0.0
1449618214469708558,6.0,6.0,0.0
1449618214503087168,6.0,6.0,0.0
1449618214536418489,6.0,6.0,0.0
1449618214569800623,6.0,6.0,0.0
1449618214603096298,6.0,6.0,0.0
1449618214636448678,6.0,6.0,0.0
1449618214669819372,6.0,6.0,0.0
1449618214703091512,6.0,6.0,0.0
1449618214736385041,6.0,6.0,0.0
1449618214769720185,6.0,6.0,0.0
1449618214803020764,6.0,6.0,0.0
1449618214836380581,6.0,6.0,0.0
1449618214869720617,6.0,6.0,0.0
1449618214903060827,6.0,6.0,0.0
1449618214936389723,6.0,6.0,0.0
1449618214970166965,6.0,6.0,0.0
1449618215003114253,6.0,6.0,0.0
1449618215036412021,6.0,6.0,0.0
1449618215069754129,6.0,6.0,0.0
1449618215103070737,6.0,6.0,0.0
1449618215136581953,6.0,6.0,0.0
1449618215169768218,6.0,6.0,0.0
1449618215203562608,6.0,6.0,0.0
1449618215236461852,6.0,6.0,0.0
1449618215269970950,6.0,6.0,0.0
1449618215303213231,6.0,6.0,0.0
1449618215336501266,6.0,6.0,0.0
1449618215370392618,6.0,6.0,0.0
1449618215403617950,6.0,6.0,0.0
1449618215436511449,6.0,6.0,0.0
1449618215470219637,6.0,6.0,0.0
1449618215503122276,6.0,6.0,0.0
1449618215536487978,6.0,6.0,0.0
1449618215569817290,6.0,6.0,0.0
1449618215603730889,6.0,6.0,0.0
1449618215636592001,6.0,6.0,0.0
1449618215670029153,6.0,6.0,0.0
1449618215703318026,6.0,6.0,0.0
1449618215736868114,6.0,6.0,0.0
1449618215770165621,6.0,6.0,0.0
1449618215805382312,6.0,6.0,0.0
1449618215836680961,6.0,6.0,0.0
1449618215870349785,6.0,6.0,0.0
1449618215906692125,6.0,6.0,0.0
1449618215937343290,6.0,6.0,0.0
1449618215970509163,6.0,6.0,0.0
1449618216003584577,6.0,6.0,0.0
1449618216036732671,6.0,6.0,0.0
1449618216072227281,6.0,6.0,0.0
1449618216103464649,6.0,6.0,0.0
1449618216136831977,6.0,6.0,0.0
1449618216171146746,6.0,6.0,0.0
1449618216203613375,6.0,6.0,0.0
1449618216236553620,6.0,6.0,0.0
1449618216270172128,6.0,6.0,0.0
1449618216303580681,6.0,6.0,0.0
1449618216336962543,6.0,6.0,0.0
1449618216370010051,6.0,6.0,0.0
1449618216403461253,6.0,6.0,0.0
1449618216436890504,6.0,6.0,0.0
1449618216470098807,6.0,6.0,0.0
1449618216504515077,6.0,6.0,0.0
1449618216536506308,6.0,6.0,0.0
1449618216570069495,6.0,6.0,0.0
1449618216603673789,6.0,6.0,0.0
1449618216637089692,6.0,6.0,0.0
1449618216671072102,6.0,6.0,0.0
1449618216703437679,6.0,6.0,0.0
1449618216736748896,6.0,6.0,0.0
1449618216770771539,6.0,6.0,0.0
1449618216803685216,6.0,6.0,0.0
1449618216837042754,6.0,6.0,0.0
1449618216870237923,6.0,6.0,0.0
1449618216903336661,6.0,6.0,0.0
1449618216936803659,6.0,6.0,0.0
1449618216969836519,6.0,6.0,0.0
1449618217003726621,6.0,6.0,0.0
1449618217037061251,6.0,6.0,0.0
1449618217070504038,6.0,6.0,0.0
1449618217103103876,6.0,6.0,0.0
1449618217136660643,6.0,6.0,0.0
1449618217170492473,6.0,6.0,0.0
1449618217203580363,6.0,6.0,0.0
1449618217237195788,6.0,6.0,0.0
1449618217270842237,6.0,6.0,0.0
1449618217303601180,6.0,6.0,0.0
1449618217336999125,6.0,6.0,0.0
1449618217369996889,6.0,6.0,0.0
1449618217404156477,6.0,6.0,0.0
1449618217438246537,6.0,6.0,0.0
1449618217470318398,6.0,6.0,0.0
1449618217504796402,6.0,6.0,0.0
1449618217537151258,6.0,6.0,0.0
1449618217570506635,6.0,6.0,0.0
1449618217603657162,6.0,6.0,0.0
1449618217636532011,6.0,6.0,0.0
1449618217671907803,6.0,6.0,0.0
1449618217704823109,6.0,6.0,0.0
1449618217737129889,6.0,6.0,0.0
1449618217770796262,6.0,6.0,0.0
1449618217805670896,6.0,6.0,0.0
1449618217836954748,6.0,6.0,0.0
1449618217870792801,6.0,6.0,0.0
1449618217903664673,6.0,6.0,0.0
1449618217936870969,6.0,6.0,0.0
1449618217969907216,6.0,6.0,0.0
1449618218003768223,6.0,6.0,0.0
1449618218037038318,6.0,6.0,0.0
1449618218070239148,6.0,6.0,0.0
1449618218104568094,6.0,6.0,0.0
1449618218137521749,6.0,6.0,0.0
1449618218169816313,6.0,6.0,0.0
1449618218204038393,6.0,6.0,0.0
1449618218237153294,6.0,6.0,0.0
1449618218270739190,6.0,6.0,0.0
1449618218303184134,6.0,6.0,0.0
1449618218337143862,6.0,6.0,0.0
1449618218370150045,6.0,6.0,0.0
1449618218404013414,6.0,6.0,0.0
1449618218436868613,6.0,6.0,0.0
1449618218470486818,6.0,6.0,0.0
1449618218509239397,6.0,6.0,0.0
1449618218536803858,6.0,6.0,0.0
1449618218570090252,6.0,6.0,0.0
1449618218603352405,6.0,6.0,0.0
1449618218636860604,6.0,6.0,0.0
1449618218670167567,6.0,6.0,0.0
1449618218703722355,6.0,6.0,0.0
1449618218737131018,6.0,6.0,0.0
1449618218770487768,6.0,6.0,0.0
1449618218803293947,6.0,6.0,0.0
1449618218837517430,6.0,6.0,0.0
1449618218871248612,6.0,6.0,0.0
1449618218903820964,6.0,6.0,0.0
1449618218936850379,6.0,6.0,0.0
1449618218970177524,6.0,6.0,0.0
1449618219003235206,6.0,6.0,0.0
1449618219037045484,6.0,6.0,0.0
1449618219073657613,6.0,6.0,0.0
1449618219103559514,6.0,6.0,0.0
1449618219136719085,6.0,6.0,0.0
1449618219170128873,6.0,6.0,0.0
1449618219203717549,6.0,6.0,0.0
1449618219236822172,6.0,6.0,0.0
1449618219270584874,6.0,6.0,0.0
1449618219306072118,6.0,6.0,0.0
1449618219336678983,6.0,6.0,0.0
1449618219370777021,6.0,6.0,0.0
1449618219403610575,6.0,6.0,0.0
1449618219437197577,6.0,6.0,0.0
1449618219471131299,6.0,6.0,0.0
1449618219503574143,6.0,6.0,0.0
1449618219537088456,6.0,6.0,0.0
1449618219570675616,6.0,6.0,0.0
1449618219603606146,6.0,6.0,0.0
1449618219638131433,6.0,6.0,0.0
1449618219670664202,6.0,6.0,0.0
1449618219704838840,6.0,6.0,0.0
1449618219738834335,6.0,6.0,0.0
1449618219776157554,6.0,6.0,0.0
1449618219803183485,6.0,6.0,0.0
1449618219837451755,6.0,6.0,0.0
1449618219870406404,6.0,6.0,0.0
1449618219903687149,6.0,6.0,0.0
1449618219936968024,6.0,6.0,0.0
1449618219970127422,6.0,6.0,0.0
1449618220006448155,6.0,6.0,0.0
1449618220036828856,6.0,6.0,0.0
1449618220070265961,6.0,6.0,0.0
1449618220103584036,6.0,6.0,0.0
1449618220136931845,6.0,6.0,0.0
1449618220170630307,6.0,6.0,0.0
1449618220203665338,6.0,6.0,0.0
1449618220237608893,6.0,6.0,0.0
1449618220273048224,6.0,6.0,0.0
1449618220303896733,6.0,6.0,0.0
1449618220337723548,6.0,6.0,0.0
1449618220372080389,6.0,6.0,0.0
1449618220408543938,6.0,6.0,0.0
1449618220436404999,6.0,6.0,0.0
1449618220470788761,6.0,6.0,0.0
1449618220504297476,6.0,6.0,0.0
1449618220536721194,6.0,6.0,0.0
1449618220570500426,6.0,6.0,0.0
1449618220603219325,6.0,6.0,0.0
1449618220636582220,6.0,6.0,0.0
1449618220670586914,6.0,6.0,0.0
1449618220705017652,6.0,6.0,0.0
1449618220736626608,6.0,6.0,0.0
1449618220770142021,6.0,6.0,0.0
1449618220803244140,6.0,6.0,0.0
1449618220836568357,6.0,6.0,0.0
1449618220870393102,6.0,6.0,0.0
1449618220904066018,6.0,6.0,0.0
1449618220936564134,6.0,6.0,0.0
1449618220974158778,6.0,6.0,0.0
1449618221003379702,6.0,6.0,0.0
1449618221036660903,6.0,6.0,0.0
1449618221070529158,6.0,6.0,0.0
1449618221103450959,6.0,6.0,0.0
1449618221136492423,6.0,6.0,0.0
1449618221170199693,6.0,6.0,0.0
1449618221204386057,6.0,6.0,0.0
1449618221237363095,6.0,6.0,0.0
1449618221271214990,6.0,6.0,0.0
1449618221303701877,6.0,6.0,0.0
1449618221336495697,6.0,6.0,0.0
1449618221370521696,6.0,6.0,0.0
1449618221403346836,6.0,6.0,0.0
1449618221436910698,6.0,6.0,0.0
1449618221470441291,6.0,6.0,0.0
1449618221503215966,6.0,6.0,0.0
1449618221536464249,6.0,6.0,0.0
1449618221570071629,6.0,6.0,0.0
1449618221603213126,6.0,6.0,0.0
1449618221636655201,6.0,6.0,0.0
1449618221671018446,6.0,6.0,0.0
1449618221703920130,6.0,6.0,0.0
1449618221736412651,6.0,6.0,0.0
1449618221769859511,6.0,6.0,0.0
1449618221804353545,6.0,6.0,0.0
1449618221836564321,6.0,6.0,0.0
1449618221870013617,6.0,6.0,0.0
1449618221903221433,6.0,6.0,0.0
1449618221936909354,6.0,6.0,0.0
1449618221970299257,6.0,6.0,0.0
1449618222003515479,6.0,6.0,0.0
1449618222036721475,6.0,6.0,0.0
1449618222070094933,6.0,6.0,0.0
1449618222103421361,6.0,6.0,0.0
1449618222136703632,6.0,6.0,0.0
1449618222170125249,6.0,6.0,0.0
1449618222203447315,6.0,6.0,0.0
1449618222237660263,6.0,6.0,0.0
1449618222275378335,6.0,6.0,0.0
1449618222304884542,6.0,6.0,0.0
1449618222336787477,6.0,6.0,0.0
1449618222370919845,6.0,6.0,0.0
1449618222403145044,6.0,6.0,0.0
1449618222437284451,6.0,6.0,0.0
1449618222470159266,6.0,6.0,0.0
1449618222506186830,6.0,6.0,0.0
1449618222536746373,6.0,6.0,0.0
1449618222571836223,6.0,6.0,0.0
1449618222603154249,6.0,6.0,0.0
1449618222637260963,6.0,6.0,0.0
1449618222673753091,6.0,6.0,0.0
1449618222703839965,6.0,6.0,0.0
1449618222736695745,6.0,6.0,0.0
1449618222770678861,6.0,6.0,0.0
1449618222803963546,6.0,6.0,0.0
1449618222840525605,6.0,6.0,0.0
1449618222870408973,6.0,6.0,0.0
1449618222904494091,6.0,6.0,0.0
1449618222936945500,6.0,6.0,0.0
1449618222970895027,6.0,6.0,0.0
1449618223006031639,6.0,6.0,0.0
1449618223038716682,6.0,6.0,0.0
1449618223070045492,6.0,6.0,0.0
1449618223106104669,6.03789301882,5.99547360325,0.0
1449618223138249160,6.03789301882,5.99547360325,0.0
1449618223170297177,6.03789301882,5.99547360325,0.0
1449618223205647240,6.03789301882,5.99547360325,0.0
1449618223237810640,6.05468013376,5.99686918016,0.0
1449618223270572148,6.33940420373,5.99561685223,0.0
1449618223310045446,6.33940420373,5.99561685223,0.0
1449618223337141002,6.33940420373,5.99561685223,0.0
1449618223369934318,6.33940420373,5.99561685223,0.0
1449618223404051245,6.34025370306,5.99488099509,0.0
1449618223437030907,6.30173419575,5.99488099509,0.0
1449618223470070256,6.33062383075,5.99488099509,0.0
1449618223503928179,6.33062383075,5.99488099509,0.0
1449618223539393608,6.33062383075,5.99488099509,0.0
1449618223570908408,6.33048799484,5.99499473734,0.0
1449618223606290252,6.34012239501,5.99499473734,0.0
1449618223638144727,6.34012239501,5.99499473734,0.0
1449618223670789726,6.31121917641,5.99499473734,0.0
1449618223704885166,6.31121917641,5.99499473734,0.0
1449618223741436865,6.31121917641,5.99499473734,0.0
1449618223771505928,6.34026152205,5.99487422209,0.0
1449618223804055414,6.34026152205,5.99487422209,0.0
1449618223836654226,6.34026152205,5.99487422209,0.0
1449618223870708860,6.34026152205,5.99487422209,0.0
1449618223903921842,6.34026152205,5.99487422209,0.0
1449618223937154502,6.31137269591,5.99487422209,0.0
1449618223970318632,6.31137269591,5.99487422209,0.0
1449618224005021261,6.31119381803,5.99501464407,0.0
1449618224040377426,6.31119381803,5.99501464407,0.0
1449618224070218404,6.31119381803,5.99501464407,0.0
1449618224103754410,6.34009941398,5.99501464407,0.0
1449618224136911767,6.3401472628,5.99497319625,0.0
1449618224170707272,6.3401472628,5.99497319625,0.0
1449618224204391147,6.3401472628,5.99497319625,0.0
1449618224237503321,6.3401472628,5.99497319625,0.0
1449618224271052677,6.3401472628,5.99497319625,0.0
1449618224305721219,6.3401472628,5.99497319625,0.0
1449618224336643790,6.3401472628,5.99497319625,0.0
1449618224370044482,6.34030236778,5.99483884052,0.0
1449618224403570513,6.34030236778,5.99483884052,0.0
1449618224437303219,6.34030236778,5.99483884052,0.0
1449618224470980858,6.34030236778,5.99483884052,0.0
1449618224503959019,6.3403517634,5.99479605282,0.0
1449618224536625537,6.3403517634,5.99479605282,0.0
1449618224573416721,6.3399226368,5.9951677728,0.0
1449618224603981706,6.31110121867,5.99649095432,0.0
1449618224637919740,6.31110121867,5.99649095432,0.0
1449618224675798382,6.31110121867,5.99649095432,0.0
1449618224703728350,6.34042245728,5.99623915432,0.0
1449618224737016272,6.34042245728,5.99623915432,0.0
1449618224770520521,6.34042245728,5.99473481605,0.0
1449618224804665222,6.34042245728,5.99473481605,0.0
1449618224836918768,6.34042245728,5.99473481605,0.0
1449618224870128037,6.34051545227,5.99465426151,0.0
1449618224903983505,6.34066943539,5.99452087756,0.0
1449618224938155005,6.34066943539,5.99452087756,0.0
1449618224970067446,6.34066943539,5.99452087756,0.0
1449618225007453754,6.31182280721,5.99608634111,0.0
1449618225037258634,6.60989434139,5.98585021001,0.0
1449618225069991971,6.60989434139,5.98585021001,0.0
1449618225104446273,6.60027207765,5.94415793692,0.0
1449618225136573968,6.60027207765,5.94415793692,0.0
1449618225170222292,6.6002506569,5.94429215693,0.0
1449618225203272437,6.5232226133,5.43208067865,0.0
1449618225236844925,6.5232226133,5.43208067865,0.0
1449618225271414777,6.53312632905,5.43309509787,0.0
1449618225304032145,6.53312632905,5.43309509787,0.0
1449618225339604628,6.53312632905,5.43309509787,0.0
1449618225373905690,6.53312632905,5.43309509787,0.0
1449618225404250529,6.53312632905,5.43141307559,0.0
1449618225436652916,6.53319572405,5.43335203772,0.0
1449618225471990314,6.52364357274,5.44209438561,0.0
1449618225504008659,6.52364357274,5.44209438561,0.0
1449618225537343398,6.52364357274,5.44209438561,0.0
1449618225570002817,6.52373855531,5.44233244563,0.0
1449618225603818523,6.52380164061,5.44249055979,0.0
1449618225637793394,6.52383551314,5.43412305258,0.0
1449618225670500554,6.52383551314,5.43412305258,0.0
1449618225703363469,6.53340396182,5.44447888426,0.0
1449618225736730922,6.53350333041,5.44483485386,0.0
1449618225770815524,6.53350333041,5.44483485386,0.0
1449618225806126456,6.53350333041,5.44483485386,0.0
1449618225836970896,6.58129944238,5.78617510323,0.0
1449618225870510990,6.55274954184,5.98226554664,0.0
1449618225903580091,6.55274954184,5.98226554664,0.0
1449618225937477839,6.55274954184,5.98226554664,0.0
1449618225970449180,6.55282222094,5.98201596431,0.0
1449618226003582975,6.5529683628,5.98151410856,0.0
1449618226040172674,6.5529683628,5.98151410856,0.0
1449618226071624944,6.5529683628,5.98151410856,0.0
1449618226103738880,6.54374278388,6.00117059276,0.0
1449618226137244948,6.54374278388,6.00117059276,0.0
1449618226170601672,6.61004784799,6.00635974662,0.0
1449618226204102117,6.61005693185,6.006252119,0.0
1449618226237402680,6.61005693185,6.006252119,0.0
1449618226271694941,6.61005693185,6.006252119,0.0
1449618226303607738,6.61006939358,6.00610446957,0.0
1449618226337990108,6.61006764515,6.00701986313,0.0
1449618226369893516,6.61006764515,6.00701986313,0.0
1449618226404958005,6.61007399413,6.00695953641,0.0
1449618226437599143,6.61007399413,6.00695953641,0.0
1449618226473103069,6.61007399413,6.00695953641,0.0
1449618226503489055,6.61007399413,6.00695953641,0.0
1449618226536619053,6.61013406848,6.0093618088,0.0
1449618226569860522,6.61013406848,6.0093618088,0.0
1449618226603917306,6.61014894097,6.02028440024,0.0
1449618226637470757,6.6101565513,6.02026792708,0.0
1449618226671157406,6.6101565513,6.02026792708,0.0
1449618226703415358,6.6101565513,6.02026792708,0.0
1449618226737649516,6.58214431069,6.20225660217,0.0
1449618226774465144,6.58214431069,6.20225660217,0.0
1449618226803144931,6.52682205103,6.54783096447,0.0
1449618226838225734,6.53621545924,6.54130391445,0.0
1449618226870158701,6.53526407506,6.54547077909,0.0
1449618226904139157,6.53526407506,6.54547077909,0.0
1449618226937033303,6.53526407506,6.54547077909,0.0
1449618226970187497,6.535439823,6.54470103973,0.0
1449618227003899293,6.52655374946,6.55296454938,0.0
1449618227037055153,6.52668459153,6.54848633979,0.0
1449618227069992478,6.52668459153,6.54848633979,0.0
1449618227104656646,6.53596813238,6.53843886088,0.0
1449618227136611650,6.53596813238,6.53843886088,0.0
1449618227175121357,6.53716694365,6.53223229324,0.0
1449618227204906286,6.53741336318,6.53605734459,0.0
1449618227236992206,6.53751441455,6.53043334314,0.0
1449618227270468711,6.53751441455,6.53043334314,0.0
1449618227304248925,6.53751441455,6.53043334314,0.0
1449618227337300561,6.53751441455,6.53043334314,0.0
1449618227369977985,6.53835068372,6.53586471986,0.0
1449618227403587492,6.53906030635,6.53210547784,0.0
1449618227441912998,6.53937312986,6.52081027516,0.0
1449618227471344549,6.53937312986,6.52081027516,0.0
1449618227504602418,6.53937312986,6.52081027516,0.0
1449618227538230886,6.53061024059,6.55006728247,0.0
1449618227570090425,6.53061024059,6.55006728247,0.0
1449618227603693701,6.53142907178,6.54792637969,0.0
1449618227639251233,6.53142907178,6.54792637969,0.0
1449618227689349448,6.53142907178,6.54792637969,0.0
1449618227703967265,6.46166336172,6.44620515952,0.0
1449618227737045371,6.46166336172,6.44620515952,0.0
1449618227770312613,6.46166336172,6.44620515952,0.0
1449618227807280878,6.58483899977,6.20854957924,0.0
1449618227839754711,6.58483899977,6.20854957924,0.0
1449618227870200313,6.60230309503,6.06856818839,0.0
1449618227903414724,6.61098566674,6.05102379278,0.0
1449618227937700924,6.61103391003,6.04206096421,0.0
1449618227969987682,6.60260718109,6.0422841339,0.0
1449618228003490504,6.60260718109,6.0422841339,0.0
1449618228036774795,6.60336243227,6.04512352505,0.0
1449618228072093667,6.60336243227,6.04512352505,0.0
1449618228103955086,6.60345972654,6.05843364304,0.0
1449618228137211364,6.60345972654,6.05843364304,0.0
1449618228171715579,6.60345972654,6.05843364304,0.0
1449618228213121983,6.61157746996,6.0597211419,0.0
1449618228243061745,6.61157746996,6.0597211419,0.0
1449618228270670360,6.61166824235,6.06105516493,0.0
1449618228304241582,6.61166824235,6.06105516493,0.0
1449618228343970352,6.60400442064,6.04753710096,0.0
1449618228372851942,6.60400442064,6.04753710096,0.0
1449618228405749253,6.60400442064,6.04753710096,0.0
1449618228437410481,6.60408691861,6.04784725474,0.0
1449618228469956170,6.61194508678,6.04891216084,0.0
1449618228504337606,6.61194508678,6.04891216084,0.0
1449618228536802721,6.61143350851,6.05381749792,0.0
1449618228570021627,6.61143350851,6.05381749792,0.0
1449618228603427087,6.61143350851,6.05381749792,0.0
1449618228641972997,6.61147013644,6.05405326363,0.0
1449618228670428973,6.60369866294,6.04638759505,0.0
1449618228703640379,6.61173557358,6.04733681765,0.0
1449618228737142412,6.61173557358,6.04733681765,0.0
1449618228771610990,6.61173557358,6.04733681765,0.0
1449618228803505824,6.61179048939,6.04774973314,0.0
1449618228837727522,6.61190326104,6.03268625819,0.0
1449618228871063994,6.61190326104,6.03268625819,0.0
1449618228903997102,6.60440226658,6.03270603751,0.0
1449618228937966141,6.60440226658,6.03270603751,0.0
1449618228970176538,6.60460941708,6.04981160458,0.0
1449618229004381320,6.60460941708,6.04981160458,0.0
1449618229037169285,6.60460941708,6.04981160458,0.0
1449618229071094229,6.60476088863,6.05836788436,0.0
1449618229103761863,6.60513585905,6.0595746844,0.0
1449618229139067572,6.60513585905,6.0595746844,0.0
1449618229170143978,6.60513585905,6.0595746844,0.0
1449618229203251913,6.61235994812,6.02324774905,0.0
1449618229237212695,6.57054107697,6.01253853695,0.0
1449618229270242848,6.61258964239,6.01208307715,0.0
1449618229303344422,6.61258964239,6.01208307715,0.0
1449618229336536032,6.61258964239,6.01208307715,0.0
1449618229371570140,6.61264007195,6.01173836524,0.0
1449618229403409536,6.61279367936,5.98838617808,0.0
1449618229436837860,6.55295098987,5.98741341463,0.0
1449618229470176924,6.55295098987,5.98741341463,0.0
1449618229503317761,6.55295098987,5.98741341463,0.0
1449618229536952467,6.61295067344,5.98618625116,0.0
1449618229570270223,6.61307480255,5.98444685448,0.0
1449618229603873185,6.61307480255,5.98444685448,0.0
1449618229637284473,6.56231853739,5.96943554281,0.0
1449618229671217797,6.56231853739,5.96943554281,0.0
1449618229707976439,6.56345687926,5.99380687507,0.0
1449618229736502560,6.56345687926,5.99380687507,0.0
1449618229770398055,6.6133635771,5.94068172693,0.0
1449618229803915053,6.5592366846,5.91867152093,0.0
1449618229838339599,6.5592366846,5.91867152093,0.0
1449618229870411211,6.5592366846,5.91867152093,0.0
1449618229903707023,6.5592366846,5.91867152093,0.0
1449618229936657459,6.56015579698,5.94519283085,0.0
1449618229972041389,6.60805349839,5.9310352222,0.0
1449618230003754963,6.60805349839,5.9310352222,0.0
1449618230037018536,6.54003120401,5.79024030013,0.0
1449618230070440575,6.54003120401,5.79024030013,0.0
1449618230103307720,6.5421061238,5.79110986186,0.0
1449618230137917045,6.5421061238,5.79110986186,0.0
1449618230170366816,6.56477912976,5.60184983057,0.0
1449618230204318139,6.56477912976,5.60184983057,0.0
1449618230237256426,6.56735794891,5.61793959945,0.0
1449618230270380793,6.56735794891,5.61793959945,0.0
1449618230304409856,6.56735794891,5.61793959945,0.0
1449618230337445468,6.57257415402,5.61229415535,0.0
1449618230370306685,6.57388904037,5.6182112047,0.0
1449618230403555443,6.56936269355,5.59126232714,0.0
1449618230438487827,6.56936269355,5.59126232714,0.0
1449618230472507178,6.57008524682,5.59359189941,0.0
1449618230504011196,6.57615803817,5.59242292348,0.0
1449618230537009647,6.57615803817,5.59242292348,0.0
1449618230572155510,6.57679739011,5.59479032005,0.0
1449618230604341596,6.57679739011,5.59479032005,0.0
1449618230636841798,6.57679739011,5.59479032005,0.0
1449618230671082838,6.52610032303,5.601733077,0.0
1449618230703455582,6.52610032303,5.601733077,0.0
1449618230737974686,6.57526857407,5.55384022271,0.0
1449618230769950132,6.57526857407,5.55384022271,0.0
1449618230806414877,6.57035174896,5.55384022271,0.0
1449618230837039270,6.57035174896,5.55384022271,0.0
1449618230870120685,6.57035174896,5.55384022271,0.0
1449618230903959645,6.61952,5.68239473684,0.0
1449618230937713751,6.61952,5.68239473684,0.0
1449618230970067024,6.61952,5.68239473684,0.0
1449618231004002469,6.61952,5.68239473684,0.0
1449618231038987404,6.61952,5.68239473684,0.0
1449618231072357137,6.61952,5.68239473684,0.0
1449618231105850265,6.61952,5.68239473684,0.0
1449618231136794614,6.61952,5.68239473684,0.0
1449618231170050930,6.61952,5.68239473684,0.0
1449618231203305701,6.61952,5.68239473684,0.0
1449618231236950732,6.61952,5.68239473684,0.0
1449618231269954968,6.61952,5.68239473684,0.0
1449618231303916169,6.61952,5.61181578947,0.0
1449618231337029208,6.61952,5.61181578947,0.0
1449618231370074755,6.61952,5.61181578947,0.0
1449618231403214488,6.61952,5.61181578947,0.0
1449618231436706006,6.61952,5.61181578947,0.0
1449618231470386587,6.61952,5.61181578947,0.0
1449618231503347507,6.61952,5.61181578947,0.0
1449618231537274539,6.61952,5.68239473684,0.0
1449618231570635392,6.61952,5.68239473684,0.0
1449618231608530750,6.61952,5.68239473684,0.0
1449618231640626449,6.61952,5.68239473684,0.0
1449618231670012392,6.61952,5.68239473684,0.0
1449618231703488449,6.61952,5.68239473684,0.0
1449618231738906632,6.61952,5.68239473684,0.0
1449618231772686995,6.61952,5.68239473684,0.0
1449618231803689077,6.61952,5.75297368421,0.0
1449618231837306446,6.61952,5.75297368421,0.0
1449618231869975950,6.61952,5.75297368421,0.0
1449618231903716008,6.61952,5.75297368421,0.0
1449618231937757196,6.61952,5.75297368421,0.0
1449618231971007281,6.61952,5.75297368421,0.0
1449618232003238897,6.61952,5.75297368421,0.0
1449618232041336900,6.61952,5.75297368421,0.0
1449618232070359706,6.61952,5.75297368421,0.0
1449618232103792326,6.61952,5.75297368421,0.0
1449618232136749835,6.61952,5.75297368421,0.0
1449618232173890314,6.61952,5.75297368421,0.0
1449618232203237837,6.61952,5.75297368421,0.0
1449618232236532734,6.61952,5.75297368421,0.0
1449618232270815754,6.61952,5.82355263158,0.0
1449618232303280581,6.61952,5.82355263158,0.0
1449618232337094492,6.61952,5.82355263158,0.0
1449618232370266476,6.61952,5.82355263158,0.0
1449618232410513769,6.61952,5.82355263158,0.0
1449618232439654779,6.61952,5.82355263158,0.0
1449618232470154605,6.61952,5.82355263158,0.0
1449618232511390784,6.61952,5.75297368421,0.0
1449618232537549126,6.61952,5.75297368421,0.0
1449618232573641989,6.61952,5.82355263158,0.0
1449618232603414830,6.61952,5.82355263158,0.0
1449618232637234888,6.61952,5.82355263158,0.0
1449618232670873939,6.61952,5.82355263158,0.0
1449618232703510832,6.61952,5.82355263158,0.0
1449618232738187637,6.61952,5.82355263158,0.0
1449618232770444951,6.61952,5.82355263158,0.0
1449618232803502819,6.61952,5.82355263158,0.0
1449618232837199598,6.61952,5.82355263158,0.0
1449618232873122319,6.61952,5.82355263158,0.0
1449618232904206013,6.61952,5.82355263158,0.0
1449618232937379212,6.61952,5.82355263158,0.0
1449618232971064562,6.61952,5.82355263158,0.0
1449618233003700875,6.61952,5.82355263158,0.0
1449618233039253477,6.61952,5.89413157895,0.0
1449618233071591912,6.61952,5.89413157895,0.0
1449618233103329527,6.61952,5.89413157895,0.0
1449618233137793507,6.61952,5.89413157895,0.0
1449618233170631054,6.61952,5.82355263158,0.0
1449618233204537038,6.61952,5.82355263158,0.0
1449618233238643154,6.61952,5.82355263158,0.0
1449618233271103287,6.61952,5.82355263158,0.0
1449618233306962149,6.537856,5.82355263158,0.0
1449618233338644798,6.537856,5.82355263158,0.0
1449618233370456780,6.61952,5.96471052632,0.0
1449618233404002790,6.61952,5.96471052632,0.0
1449618233437133525,6.61952,5.96471052632,0.0
1449618233473730016,6.61796771555,5.97028109059,0.0
1449618233503311883,6.61796771555,5.97028109059,0.0
1449618233539718597,6.61796771555,5.97028109059,0.0
1449618233569878254,6.61799749395,6.0,0.0
1449618233604319883,6.61799749395,6.0,0.0
1449618233637642287,6.61803350234,6.0,0.0
1449618233669990687,6.61803350234,6.0,0.0
1449618233703474700,6.61804497439,5.67004255571,0.0
1449618233736841798,6.61804497439,5.67004255571,0.0
1449618233770738666,6.61806352017,5.66931045948,0.0
1449618233803770684,6.61806352017,5.66931045948,0.0
1449618233843317380,6.61808820567,5.72708892689,0.0
1449618233870997444,6.61808820567,5.72708892689,0.0
1449618233903648303,6.61808820567,5.72708892689,0.0
1449618233936871900,6.61813940013,5.78466705667,0.0
1449618233969933451,6.61813940013,5.78466705667,0.0
1449618234003732031,6.61813940013,5.78466705667,0.0
1449618234037035154,6.61403281221,5.69849183163,0.0
1449618234070226337,6.61412190885,5.69823046004,0.0
1449618234103738100,6.60744564338,5.5254177814,0.0
1449618234137931099,6.60744564338,5.5254177814,0.0
1449618234173914314,6.60744564338,5.5254177814,0.0
1449618234203524514,6.59555453995,5.53850657817,0.0
1449618234237410507,6.59593895954,5.53855036539,0.0
1449618234277132055,6.60778919482,5.5870916991,0.0
1449618234305455360,6.60786488311,5.58725122102,0.0
1449618234336727961,6.60795367496,5.58743836019,0.0
1449618234369870438,6.60795367496,5.58743836019,0.0
1449618234404634881,6.60666852568,5.52608329822,0.0
1449618234439006367,6.60679269187,5.52622975897,0.0
1449618234472029318,6.60679269187,5.52622975897,0.0
1449618234506098358,6.60679269187,5.52622975897,0.0
1449618234536606522,6.5968889748,5.66176880569,0.0
1449618234570728577,6.5968889748,5.66176880569,0.0
1449618234603699370,6.6082422722,5.64963191868,0.0
1449618234636549611,6.6082422722,5.64963191868,0.0
1449618234805932214,6.5369894778,5.64981722548,0.0
1449618234805935672,6.60114054241,5.64979540283,0.0
1449618234847289559,6.60114054241,5.64979540283,0.0
1449618234873300268,6.60114054241,5.64979540283,0.0
1449618234907782721,6.60110314083,5.64969044445,0.0
1449618234938931090,6.60110314083,5.64969044445,0.0
1449618234972025059,6.5970802612,5.58929637532,0.0
1449618235014277250,6.52861071981,5.71502123996,0.0
1449618235039108751,6.58759620102,5.72087567132,0.0
1449618235072034576,6.58759620102,5.72087567132,0.0
1449618235107291566,6.58759620102,5.72087567132,0.0
1449618235138343609,6.51857288758,5.72109296748,0.0
1449618235172880303,6.51865424964,5.72132306893,0.0
1449618235204901999,6.60968634979,5.98935714224,0.0
1449618235245696736,6.60968634979,6.0,0.0
1449618235272757054,6.60968634979,6.0,0.0
1449618235306542495,6.60968634979,6.0,0.0
1449618235338350111,6.60968634979,6.0,0.0
1449618235373380708,6.60968634979,6.0,0.0
1449618235405118362,6.60968634979,6.01064285776,0.0
1449618235438935868,6.60968634979,6.01064285776,0.0
1449618235472634770,6.60968634979,6.01064285776,0.0
1449618235505616204,6.60968634979,6.01064285776,0.0
1449618235548073669,6.60968634979,6.01064285776,0.0
1449618235572401814,6.60968634979,6.01064285776,0.0
1449618235605511182,6.60968634979,6.02128571551,0.0
1449618235638642805,6.60968634979,6.02128571551,0.0
1449618235678159429,6.60968634979,6.05321428754,0.0
1449618235705129017,6.60968634979,6.05321428754,0.0
1449618235738515400,6.60968634979,6.05321428754,0.0
1449618235773359116,6.60968634979,6.05321428754,0.0
1449618235806171619,6.5187909961,6.0021005676,0.0
1449618235838520062,6.59001904938,6.08514286206,0.0
1449618235871956439,6.52921392979,6.0021005676,0.0
1449618235905837476,6.59985269958,6.08514286206,0.0
1449618235939017092,6.59985269958,6.08514286206,0.0
1449618235971715715,6.59985269958,6.08514286206,0.0
1449618236005488034,6.59985269958,6.08514286206,0.0
1449618236039176755,6.59985269958,6.08514286206,0.0
1449618236082312326,6.59985269958,6.08514286206,0.0
1449618236105902051,6.59985269958,6.08514286206,0.0
1449618236141744781,6.59985269958,6.08514286206,0.0
1449618236171739195,6.59985269958,6.08514286206,0.0
1449618236214411576,6.59985269958,6.09578571857,0.0
1449618236239613407,6.59985269958,6.09578571857,0.0
1449618236273098166,6.59985269958,6.08514286206,0.0
1449618236306282901,6.59985269958,6.08514286206,0.0
1449618236338462247,6.59985269958,6.08514286206,0.0
1449618236372079557,6.59985269958,6.08514286206,0.0
1449618236406593044,6.59985269958,6.09578571857,0.0
1449618236438622727,6.59985269958,6.09578571857,0.0
1449618236472077545,6.59985269958,6.09578571857,0.0
1449618236507163361,6.59985269958,6.09578571857,0.0
1449618236538726934,6.59985269958,6.09578571857,0.0
1449618236573157849,6.59985269958,6.09578571857,0.0
1449618236605083606,6.59985269958,6.09578571857,0.0
1449618236638775215,6.59985269958,6.09578571857,0.0
1449618236673384764,6.59985269958,6.09578571857,0.0
1449618236707553321,6.59985269958,6.09578571857,0.0
1449618236739941643,6.59985269958,6.09578571857,0.0
1449618236772229387,6.59985269958,6.09578571857,0.0
1449618236806292133,6.59985269958,6.09578571857,0.0
1449618236838491544,6.59985269958,6.09578571857,0.0
1449618236875120549,6.60968634979,6.05321428754,0.0
1449618236907347613,6.60968634979,6.05321428754,0.0
1449618236940281264,6.60968634979,6.05321428754,0.0
1449618236981796580,6.60968634979,6.05321428754,0.0
1449618237005914472,6.59985269958,6.06385714405,0.0
1449618237039160222,6.59985269958,6.06385714405,0.0
1449618237071902735,6.59985269958,6.06385714405,0.0
1449618237105616534,6.59985269958,6.05321428754,0.0
1449618237140145134,6.59985269958,6.05321428754,0.0
1449618237172146466,6.59985269958,6.05321428754,0.0
1449618237205392447,6.59985269958,6.05321428754,0.0
1449618237240472895,6.59985269958,6.05321428754,0.0
1449618237272813079,6.59985269958,6.05321428754,0.0
1449618237305243779,6.59985269958,6.05321428754,0.0
1449618237340737649,6.59985269958,6.05321428754,0.0
1449618237371908889,6.59985269958,6.05321428754,0.0
1449618237405952961,6.59985269958,6.05321428754,0.0
1449618237440321873,6.59985269958,6.05321428754,0.0
1449618237472008610,6.59985269958,6.05321428754,0.0
1449618237505900013,6.60968634979,6.03192857202,0.0
1449618237538247051,6.60968634979,6.03192857202,0.0
1449618237573893307,6.59985269958,6.04257143103,0.0
1449618237605933259,6.59985269958,6.04257143103,0.0
1449618237638499577,6.59985269958,6.04257143103,0.0
1449618237673975441,6.60968634979,6.04257143103,0.0
1449618237705768235,6.60968634979,6.04257143103,0.0
1449618237739024562,6.60968634979,6.04257143103,0.0
1449618237772318978,6.60968634979,6.04257143103,0.0
1449618237805474002,6.60968634979,6.03192857202,0.0
1449618237839051977,6.60968634979,6.03192857202,0.0
1449618237872668425,6.60968634979,6.04257143103,0.0
1449618237906300219,6.60968634979,6.04257143103,0.0
1449618237938841413,6.60968634979,6.04257143103,0.0
1449618237972250030,6.60968634979,6.04257143103,0.0
1449618238004983944,6.60968634979,6.04257143103,0.0
1449618238039447620,6.60968634979,6.04257143103,0.0
1449618238074695529,6.59985269958,6.03192857202,0.0
1449618238105543121,6.59985269958,6.03192857202,0.0
1449618238138587682,6.59985269958,6.03192857202,0.0
1449618238172293625,6.45726476234,5.85632142902,0.0
1449618238206020641,6.45726476234,5.85632142902,0.0
1449618238238742909,6.45726476234,5.85632142902,0.0
1449618238272705390,6.45726476234,5.85632142902,0.0
1449618238305749236,6.45726476234,5.85632142902,0.0
1449618238346108800,6.45726476234,5.85632142902,0.0
1449618238374323316,6.44988952469,5.85632142902,0.0
1449618238405808400,6.44988952469,5.85632142902,0.0
1449618238440322898,6.44988952469,5.85632142902,0.0
1449618238472228577,6.44988952469,5.85632142902,0.0
1449618238505842362,6.44988952469,5.85632142902,0.0
1449618238538764250,6.45726476234,5.84035714332,0.0
1449618238578669343,6.45726476234,5.84035714332,0.0
1449618238607751950,6.45726476234,5.82439285668,0.0
1449618238642430268,6.53101714813,5.42528570858,0.0
1449618238673080478,6.53101714813,5.42528570858,0.0
1449618238705399411,6.53101714813,5.42528570858,0.0
1449618238739495226,6.53101714813,5.42528570858,0.0
1449618238772215747,6.53101714813,5.42528570858,0.0
1449618238806860942,6.53101714813,5.43592856508,0.0
1449618238841486182,6.53101714813,5.43592856508,0.0
1449618238875107808,6.52118349792,5.43592856508,0.0
1449618238910853275,6.52118349792,5.43592856508,0.0
1449618238940463635,6.52118349792,5.43592856508,0.0
1449618238972532941,6.57035174896,5.69135714127,0.0
1449618239005362445,6.57035174896,5.69135714127,0.0
1449618239038333741,6.57035174896,5.69135714127,0.0
1449618239071857620,6.59001904938,5.87228571191,0.0
1449618239105081281,6.59001904938,5.87228571191,0.0
1449618239138419683,6.59001904938,5.87228571191,0.0
1449618239172101005,6.59001904938,5.87228571191,0.0
1449618239204989620,6.44988952469,5.79246428435,0.0
1449618239238269638,6.44988952469,5.79246428435,0.0
1449618239272917226,6.44988952469,5.79246428435,0.0
1449618239305057543,6.44988952469,5.79246428435,0.0
1449618239341663242,6.44988952469,5.79246428435,0.0
1449618239371841875,6.44988952469,5.79246428435,0.0
1449618239405586790,6.44988952469,5.79246428435,0.0
1449618239439605317,6.44988952469,5.79246428435,0.0
1449618239471990501,6.44988952469,5.79246428435,0.0
1449618239505079878,6.44988952469,5.79246428435,0.0
1449618239539265049,6.44988952469,5.79246428435,0.0
1449618239571816757,6.44988952469,5.79246428435,0.0
1449618239605750485,6.44988952469,5.79246428435,0.0
1449618239639200166,6.44988952469,5.79246428435,0.0
1449618239672787976,6.44988952469,5.79246428435,0.0
1449618239706504495,6.44988952469,5.79246428435,0.0
1449618239739275343,6.44988952469,5.79246428435,0.0
1449618239773158737,6.44988952469,5.79246428435,0.0
1449618239805362225,6.45726476234,5.79246428435,0.0
1449618239839891086,6.45726476234,5.79246428435,0.0
1449618239873568695,6.45726476234,5.79246428435,0.0
1449618239906115440,6.45726476234,5.79246428435,0.0
1449618239938552551,6.45726476234,5.79246428435,0.0
1449618239972193815,6.45726476234,5.79246428435,0.0
1449618240006246744,6.45726476234,5.79246428435,0.0
1449618240038663320,6.45726476234,5.79246428435,0.0
1449618240072116612,6.45726476234,5.79246428435,0.0
1449618240105533090,6.45726476234,5.79246428435,0.0
1449618240142554829,6.45726476234,5.79246428435,0.0
1449618240172021220,6.60968634979,5.94678571246,0.0
1449618240205166694,6.60968634979,5.94678571246,0.0
1449618240239181747,6.45726476234,5.79246428435,0.0
1449618240272342655,6.45726476234,5.79246428435,0.0
1449618240305067211,6.45726476234,5.79246428435,0.0
1449618240338654815,6.45726476234,5.79246428435,0.0
1449618240372054422,6.45726476234,5.79246428435,0.0
1449618240405161003,6.44988952469,5.79246428435,0.0
1449618240441644743,6.44988952469,5.79246428435,0.0
1449618240473679297,6.60968634979,5.94678571246,0.0
1449618240511744610,6.60968634979,5.94678571246,0.0
1449618240538581947,6.60968634979,5.94678571246,0.0
1449618240572039287,6.60968634979,5.94678571246,0.0
1449618240605350105,6.59985269958,5.94678571246,0.0
1449618240639302361,6.59985269958,5.94678571246,0.0
1449618240672853424,6.59985269958,5.94678571246,0.0
1449618240705466619,6.59985269958,5.94678571246,0.0
1449618240738589333,6.59985269958,5.94678571246,0.0
1449618240771727925,6.59985269958,5.94678571246,0.0
1449618240805370608,6.59985269958,5.95742856897,0.0
1449618240838671747,6.59985269958,5.95742856897,0.0
1449618240871600080,6.60968634979,5.94678571246,0.0
1449618240905469524,6.60968634979,5.94678571246,0.0
1449618240939321714,6.60968634979,5.94678571246,0.0
1449618240972947493,6.59985269958,5.94678571246,0.0
1449618241008414652,6.59985269958,5.94678571246,0.0
1449618241038914574,6.59985269958,5.94678571246,0.0
1449618241071990863,6.60968634979,5.94678571246,0.0
1449618241107369062,6.60968634979,5.94678571246,0.0
1449618241138641192,6.60968634979,5.94678571246,0.0
1449618241171807694,6.60968634979,5.94678571246,0.0
1449618241205107322,6.59001904938,5.87228571191,0.0
1449618241240506331,6.59001904938,5.87228571191,0.0
1449618241272500248,6.58018539917,5.79778570636,0.0
1449618241305895499,6.58018539917,5.79778570636,0.0
1449618241339134570,6.58018539917,5.79778570636,0.0
1449618241374321878,6.58018539917,5.79778570636,0.0
1449618241405043663,6.56051809875,5.70199999778,0.0
1449618241438393474,6.56051809875,5.70199999778,0.0
1449618241471965239,6.56051809875,5.69135714127,0.0
1449618241509659855,6.56051809875,5.69135714127,0.0
1449618241539666712,6.57035174896,5.69135714127,0.0
1449618241572103606,6.57035174896,5.69135714127,0.0
1449618241605027349,6.57035174896,5.69135714127,0.0
1449618241639439156,6.57035174896,5.69135714127,0.0
1449618241672041735,6.57035174896,5.69135714127,0.0
1449618241705913153,6.57035174896,5.69135714127,0.0
1449618241738610692,6.57035174896,5.69135714127,0.0
1449618241772338931,6.56051809875,5.70199999778,0.0
1449618241805257948,6.56051809875,5.70199999778,0.0
1449618241838628065,6.56051809875,5.70199999778,0.0
1449618241871913998,6.57035174896,5.70199999778,0.0
1449618241904964051,6.57035174896,5.70199999778,0.0
1449618241939643394,6.57035174896,5.70199999778,0.0
1449618241972193986,6.57035174896,5.70199999778,0.0
1449618242005690035,6.57035174896,5.69135714127,0.0
1449618242038842634,6.57035174896,5.69135714127,0.0
1449618242071933451,6.48184889709,5.74457142381,0.0
1449618242106122143,6.48184889709,5.74457142381,0.0
1449618242141136473,6.48184889709,5.74457142381,0.0
1449618242172032153,6.48184889709,5.74457142381,0.0
1449618242205321984,6.56051809875,5.69135714127,0.0
1449618242239641576,6.56051809875,5.69135714127,0.0
1449618242273546116,6.56051809875,5.69135714127,0.0
1449618242305376961,6.56051809875,5.69135714127,0.0
1449618242339263720,6.56051809875,5.69135714127,0.0
1449618242372194170,6.57035174896,5.69135714127,0.0
1449618242405727786,6.57035174896,5.69135714127,0.0
1449618242454987810,6.57035174896,5.69135714127,0.0
1449618242471877989,6.57035174896,5.69135714127,0.0
1449618242505810725,6.57035174896,5.70199999778,0.0
1449618242538568621,6.57035174896,5.70199999778,0.0
1449618242571757336,6.57035174896,5.70199999778,0.0
1449618242606090862,6.48184889709,5.73392856731,0.0
1449618242639084101,6.48184889709,5.73392856731,0.0
1449618242677984933,6.48184889709,5.73392856731,0.0
1449618242706469704,6.57035174896,5.69135714127,0.0
1449618242738970193,6.58018539917,5.78714284985,0.0
1449618242771736403,6.58018539917,5.78714284985,0.0
1449618242805331234,6.58018539917,5.78714284985,0.0
1449618242838416029,6.58018539917,5.78714284985,0.0
1449618242872519402,6.58018539917,5.79778570636,0.0
1449618242906176242,6.58018539917,5.79778570636,0.0
1449618242940100687,6.58018539917,5.79778570636,0.0
1449618242972315809,6.58018539917,5.79778570636,0.0
1449618243005214081,6.58018539917,5.79778570636,0.0
1449618243049942172,6.58018539917,5.79778570636,0.0
1449618243072179997,6.59985269958,5.93614285595,0.0
1449618243106465543,6.59985269958,5.93614285595,0.0
1449618243139763218,6.59985269958,5.93614285595,0.0
1449618243171971227,6.59985269958,5.93614285595,0.0
1449618243206957631,6.45726476234,5.82439285668,0.0
1449618243238541152,6.45726476234,5.82439285668,0.0
1449618243271529257,6.45726476234,5.82439285668,0.0
1449618243305424092,6.45726476234,5.832375,0.0
1449618243338620956,6.45726476234,5.832375,0.0
1449618243373997872,6.45726476234,5.832375,0.0
1449618243405443279,6.45726476234,5.832375,0.0
1449618243441753909,6.45726476234,5.832375,0.0
1449618243472969960,6.60968634979,5.98935714224,0.0
1449618243510333945,6.60968634979,5.98935714224,0.0
1449618243538264019,6.60968634979,5.98935714224,0.0
1449618243573705631,6.60968634979,5.98935714224,0.0
1449618243605082816,6.60968634979,5.98935714224,0.0
1449618243639136438,6.60968634979,5.98935714224,0.0
1449618243671839099,6.60968634979,5.98935714224,0.0
1449618243705631287,6.60968634979,5.98935714224,0.0
1449618243738243031,6.60968634979,5.98935714224,0.0
1449618243772626571,6.60968634979,5.98935714224,0.0
1449618243807093097,6.60968634979,5.98935714224,0.0
1449618243838384592,6.60968634979,5.98935714224,0.0
1449618243872247039,6.59985269958,5.98935714224,0.0
1449618243905160883,6.59985269958,5.98935714224,0.0
1449618243938756424,6.59985269958,5.98935714224,0.0
1449618243972443866,6.59985269958,5.98935714224,0.0
1449618244005322508,6.60968634979,5.98935714224,0.0
1449618244038888070,6.60968634979,5.98935714224,0.0
1449618244071708126,6.52118349792,5.43592856508,0.0
1449618244105266610,6.52118349792,5.43592856508,0.0
1449618244138469224,6.52118349792,5.43592856508,0.0
1449618244173955878,6.52118349792,5.43592856508,0.0
1449618244205048676,6.53101714813,5.42528570858,0.0
1449618244238286221,6.53101714813,5.42528570858,0.0
1449618244272804901,6.44251429626,5.52107141715,0.0
1449618244305507290,6.44251429626,5.52107141715,0.0
1449618244338871638,6.44251429626,5.52107141715,0.0
1449618244372506203,6.52118349792,5.43592856508,0.0
1449618244405004825,6.52118349792,5.43592856508,0.0
1449618244439074526,6.52118349792,5.43592856508,0.0
1449618244472375371,6.52118349792,5.43592856508,0.0
1449618244505603308,6.52118349792,5.42528570858,0.0
1449618244538661787,6.52118349792,5.42528570858,0.0
1449618244571961975,6.53101714813,5.43592856508,0.0
1449618244605228776,6.53101714813,5.43592856508,0.0
1449618244638401886,6.53101714813,5.43592856508,0.0
1449618244676499896,6.53101714813,5.43592856508,0.0
1449618244704954261,6.53101714813,5.43592856508,0.0
1449618244738695740,6.52118349792,5.42528570858,0.0
1449618244771811601,6.52118349792,5.42528570858,0.0
1449618244805906646,6.52118349792,5.43592856508,0.0
1449618244838412023,6.52118349792,5.43592856508,0.0
1449618244872531820,6.52118349792,5.43592856508,0.0
1449618244905465256,6.52118349792,5.43592856508,0.0
1449618244939057122,6.52118349792,5.43592856508,0.0
1449618244971514763,6.52118349792,5.43592856508,0.0
1449618245007370195,6.52118349792,5.43592856508,0.0
1449618245048044474,6.52118349792,5.43592856508,0.0
1449618245072039645,6.52118349792,5.43592856508,0.0
1449618245105646880,6.52118349792,5.42528570858,0.0
1449618245139676493,6.52118349792,5.42528570858,0.0
1449618245171743806,6.52118349792,5.43592856508,0.0
1449618245205206222,6.52118349792,5.43592856508,0.0
1449618245238558624,6.52118349792,5.43592856508,0.0
1449618245272005811,6.53101714813,5.42528570858,0.0
1449618245305637917,6.53101714813,5.42528570858,0.0
1449618245340597613,6.53101714813,5.42528570858,0.0
1449618245371899243,6.53101714813,5.42528570858,0.0
1449618245404965964,6.52118349792,5.43592856508,0.0
1449618245438592898,6.52118349792,5.43592856508,0.0
1449618245471529266,6.53101714813,5.42528570858,0.0
1449618245505363603,6.53101714813,5.42528570858,0.0
1449618245538751474,6.53101714813,5.42528570858,0.0
1449618245571948324,6.52118349792,5.43592856508,0.0
1449618245608888457,6.52118349792,5.43592856508,0.0
1449618245638538959,6.52118349792,5.43592856508,0.0
1449618245673773125,6.56051809875,5.70199999778,0.0
1449618245705164828,6.56051809875,5.70199999778,0.0
1449618245739592371,6.56051809875,5.70199999778,0.0
1449618245773005361,6.56051809875,5.70199999778,0.0
1449618245806602449,6.59985269958,5.94678571246,0.0
1449618245838843231,6.59985269958,5.94678571246,0.0
1449618245872694839,6.60968634979,5.98935714224,0.0
1449618245907739767,6.60968634979,5.98935714224,0.0
1449618245939533248,6.60968634979,5.98935714224,0.0
1449618245972426138,6.60968634979,5.98935714224,0.0
1449618246006756222,6.60968634979,5.98935714224,0.0
1449618246038643946,6.60968634979,5.98935714224,0.0
1449618246071902135,6.60968634979,5.98935714224,0.0
1449618246106419640,6.60968634979,5.98935714224,0.0
1449618246141825535,6.60968634979,5.98935714224,0.0
1449618246172317989,6.60968634979,5.98935714224,0.0
1449618246206140759,6.53101714813,5.98935714224,0.0
1449618246239606891,6.53101714813,5.98935714224,0.0
1449618246272930582,6.53101714813,5.98935714224,0.0
1449618246305103855,6.60968634979,5.98935714224,0.0
1449618246339597759,6.60968634979,5.98935714224,0.0
1449618246371774307,6.60968634979,5.98935714224,0.0
1449618246405629355,6.55068444855,6.0,0.0
1449618246438229630,6.55068444855,6.0,0.0
1449618246477021060,6.32451049377,6.0,0.0
1449618246505011527,6.32451049377,6.0,0.0
1449618246538500482,6.32451049377,6.0,0.0
1449618246574153040,6.33434414398,6.0,0.0
1449618246606226000,6.33434414398,6.0,0.0
1449618246639275163,6.33434414398,6.0,0.0
1449618246671901238,6.40317969543,6.0,0.0
1449618246705038676,6.40317969543,6.0,0.0
1449618246739938097,6.40317969543,6.0,0.0
1449618246773281404,6.40317969543,6.0,0.0
1449618246805869585,6.60968634979,6.0,0.0
1449618246838747657,6.60968634979,6.0,0.0
1449618246872538607,6.60968634979,6.0,0.0
1449618246905306891,6.59985269958,6.0,0.0
1449618246943296954,6.33434414398,6.0,0.0
1449618246972026743,6.33434414398,6.0,0.0
1449618247005205972,6.33434414398,6.0,0.0
1449618247042027889,6.33434414398,6.0,0.0
1449618247071970555,6.33434414398,6.0,0.0
1449618247110581652,6.32451049377,6.0,0.0
1449618247139556065,6.32451049377,6.0,0.0
1449618247172384935,6.38351239502,6.0,0.0
1449618247205402885,6.38351239502,6.0,0.0
1449618247238856254,6.38351239502,6.0,0.0
1449618247271692547,6.38351239502,6.0,0.0
1449618247305437055,6.60968634979,6.01064285776,0.0
1449618247338346996,6.60968634979,6.01064285776,0.0
1449618247371841231,6.53101714813,6.01064285776,0.0
1449618247408312104,6.53101714813,6.01064285776,0.0
1449618247438900604,6.53101714813,6.01064285776,0.0
1449618247481283758,6.53101714813,6.01064285776,0.0
1449618247505681025,6.53101714813,6.01064285776,0.0
1449618247539475367,6.60968634979,6.02128571551,0.0
1449618247572450761,6.57035174896,6.20221429364,0.0
1449618247604860504,6.57035174896,6.20221429364,0.0
1449618247645837576,6.57035174896,6.20221429364,0.0
1449618247677943431,6.53101714813,6.57471429142,0.0
1449618247710941508,6.53101714813,6.57471429142,0.0
1449618247738362226,6.53101714813,6.57471429142,0.0
1449618247772906535,6.52118349792,6.56407143492,0.0
1449618247805639989,6.52118349792,6.56407143492,0.0
1449618247842290932,6.52118349792,6.56407143492,0.0
1449618247871557681,6.53101714813,6.56407143492,0.0
1449618247905362726,6.53101714813,6.56407143492,0.0
1449618247938378414,6.53101714813,6.56407143492,0.0
1449618247971895344,6.53101714813,6.56407143492,0.0
1449618248006510601,6.52118349792,6.56407143492,0.0
1449618248039607267,6.52118349792,6.56407143492,0.0
1449618248071690345,6.52118349792,6.57471429142,0.0
1449618248109492936,6.52118349792,6.57471429142,0.0
1449618248139036309,6.52118349792,6.57471429142,0.0
1449618248173217900,6.44251429626,6.47892858285,0.0
1449618248213221576,6.44251429626,6.47892858285,0.0
1449618248244258663,6.44251429626,6.47892858285,0.0
1449618248272955349,6.52118349792,6.56407143492,0.0
1449618248305966431,6.52118349792,6.56407143492,0.0
1449618248339738210,6.52118349792,6.56407143492,0.0
1449618248371959938,6.59001904938,6.12771428809,0.0
1449618248405872697,6.59001904938,6.12771428809,0.0
1449618248438788918,6.59001904938,6.12771428809,0.0
1449618248481060935,6.60968634979,5.98935714224,0.0
1449618248513709830,6.60968634979,5.98935714224,0.0
1449618248538376503,6.60968634979,5.98935714224,0.0
1449618248572917375,6.58018539917,5.79778570636,0.0
1449618248605330483,6.58018539917,5.79778570636,0.0
1449618248638689819,6.58018539917,5.79778570636,0.0
1449618248672252464,6.58018539917,5.79778570636,0.0
1449618248711070495,6.53101714813,5.42528570858,0.0
1449618248738399144,6.53101714813,5.43592856508,0.0
1449618248772872719,6.53101714813,5.43592856508,0.0
1449618248828386257,6.53101714813,5.43592856508,0.0
1449618248838253969,6.53101714813,5.43592856508,0.0
1449618248878188911,6.53101714813,5.43592856508,0.0
1449618248906329861,6.52118349792,5.42528570858,0.0
1449618248940635193,6.44251429626,5.53171427366,0.0
1449618248971636269,6.44251429626,5.53171427366,0.0
1449618249005122522,6.44251429626,5.53171427366,0.0
1449618249042519685,6.44251429626,5.53171427366,0.0
1449618249086084815,6.44251429626,5.53171427366,0.0
1449618249105829364,6.53101714813,5.42528570858,0.0
1449618249159180041,6.53101714813,5.42528570858,0.0
1449618249172839093,6.53101714813,5.43592856508,0.0
1449618249206388080,6.53101714813,5.43592856508,0.0
1449618249240063645,6.53101714813,5.43592856508,0.0
1449618249273059663,6.53101714813,5.43592856508,0.0
1449618249305767199,6.53101714813,5.42528570858,0.0
1449618249338672879,6.53101714813,5.42528570858,0.0
1449618249371931201,6.52118349792,5.43592856508,0.0
1449618249405293538,6.52118349792,5.43592856508,0.0
1449618249438585536,6.52118349792,5.43592856508,0.0
1449618249474063672,6.53101714813,5.42528570858,0.0
1449618249505271474,6.53101714813,5.42528570858,0.0
1449618249539172374,6.53101714813,5.42528570858,0.0
1449618249575018769,6.53101714813,5.42528570858,0.0
1449618249605271795,6.53101714813,5.43592856508,0.0
1449618249638416374,6.53101714813,5.43592856508,0.0
1449618249673448747,6.53101714813,5.42528570858,0.0
1449618249705452437,6.53101714813,5.42528570858,0.0
1449618249739254575,6.53101714813,5.42528570858,0.0
1449618249785554348,6.52118349792,5.43592856508,0.0
1449618249805024037,6.52118349792,5.43592856508,0.0
1449618249839183976,6.52118349792,5.43592856508,0.0
1449618249871675639,6.53101714813,5.42528570858,0.0
1449618249906707403,6.53101714813,5.42528570858,0.0
1449618249939652351,6.53101714813,5.42528570858,0.0
1449618249974400539,6.53101714813,5.42528570858,0.0
1449618250004865702,6.53101714813,5.42528570858,0.0
1449618250039186984,6.53101714813,5.42528570858,0.0
1449618250072737824,6.53101714813,5.42528570858,0.0
1449618250105801961,6.53101714813,5.42528570858,0.0
1449618250138398016,6.53101714813,5.42528570858,0.0
1449618250176732978,6.53101714813,5.42528570858,0.0
1449618250205755675,6.52118349792,5.42528570858,0.0
1449618250239817767,6.52118349792,5.42528570858,0.0
1449618250272244840,6.53101714813,5.42528570858,0.0
1449618250305460496,6.53101714813,5.42528570858,0.0
1449618250338410340,6.53101714813,5.42528570858,0.0
1449618250389357490,6.59001904938,5.79778570636,0.0
1449618250408424264,6.59001904938,5.79778570636,0.0
1449618250439728056,6.59001904938,5.79778570636,0.0
1449618250478446663,6.51134984772,5.93614285595,0.0
1449618250507863236,6.51134984772,5.93614285595,0.0
1449618250538593440,6.51134984772,5.93614285595,0.0
1449618250572117960,6.60968634979,5.98935714224,0.0
1449618250604972382,6.60968634979,5.98935714224,0.0
1449618250642268808,6.60968634979,5.98935714224,0.0
1449618250671790943,6.54085079834,6.0,0.0
1449618250705733375,6.54085079834,6.0,0.0
1449618250739601388,6.54085079834,6.0,0.0
1449618250772172905,6.61952,5.98935714224,0.0
1449618250804933854,6.61952,5.98935714224,0.0
1449618250838635490,6.61952,5.98935714224,0.0
1449618250876765210,6.60968634979,6.0,0.0
1449618250906177897,6.60968634979,6.0,0.0
1449618250940995441,6.60968634979,6.0,0.0
1449618250974020403,6.60968634979,6.0,0.0
1449618251005977351,6.60968634979,6.0,0.0
1449618251039634336,6.60968634979,6.0,0.0
1449618251075060982,6.60968634979,6.0,0.0
1449618251105295398,6.60968634979,6.0,0.0
1449618251139001349,6.60968634979,6.0,0.0
1449618251172552457,6.60968634979,6.0,0.0
1449618251205169261,6.60968634979,6.0,0.0
1449618251238845781,6.60968634979,6.0,0.0
1449618251274189626,6.61952,6.0,0.0
1449618251316285208,6.61952,6.0,0.0
1449618251338855741,6.61952,6.0,0.0
1449618251371733374,6.60968634979,6.0,0.0
1449618251405559931,6.60968634979,6.0,0.0
1449618251438689630,6.60968634979,6.0,0.0
1449618251472054215,6.60968634979,6.0,0.0
1449618251509307239,6.60968634979,6.0,0.0
1449618251542921523,6.60968634979,6.0,0.0
1449618251572279789,6.60968634979,6.0,0.0
1449618251606280732,6.61952,6.0,0.0
1449618251638597467,6.61952,6.0,0.0
1449618251671665339,6.60968634979,6.0,0.0
1449618251712246782,6.60968634979,6.0,0.0
1449618251740843976,6.60968634979,6.0,0.0
1449618251771557612,6.60968634979,6.0,0.0
1449618251805110420,6.60968634979,6.0,0.0
1449618251838797145,6.60968634979,6.0,0.0
1449618251872816498,6.60968634979,6.0,0.0
1449618251906373100,6.60968634979,6.0,0.0
1449618251942837735,6.60968634979,6.0,0.0
1449618251971763903,6.60968634979,6.0,0.0
1449618252005425953,6.60968634979,6.0,0.0
1449618252038608957,6.60968634979,6.0,0.0
1449618252072451591,6.60968634979,6.0,0.0
1449618252104921600,6.60968634979,6.0,0.0
1449618252152573580,6.60968634979,6.0,0.0
1449618252173976746,6.60968634979,6.0,0.0
1449618252205630404,6.60968634979,6.0,0.0
1449618252238816269,6.60968634979,6.0,0.0
1449618252271786048,6.60968634979,6.0,0.0
1449618252306796481,6.61952,6.0,0.0
1449618252343817272,6.61952,6.0,0.0
1449618252372819563,6.55068444855,6.0,0.0
1449618252405133027,6.55068444855,6.0,0.0
1449618252439314149,6.55068444855,6.0,0.0
1449618252472165239,6.55068444855,6.0,0.0
1449618252508499417,6.60968634979,6.0,0.0
1449618252540334958,6.55068444855,6.0,0.0
1449618252573493546,6.55068444855,6.0,0.0
1449618252604910949,6.55068444855,6.0,0.0
1449618252644287467,6.55068444855,6.0,0.0
1449618252672182356,6.33434414398,6.0,0.0
1449618252704988707,6.33434414398,6.0,0.0
1449618252738357724,6.33434414398,6.0,0.0
1449618252771776221,6.32451049377,6.0,0.0
1449618252805354103,6.32451049377,6.0,0.0
1449618252838367892,6.32451049377,6.0,0.0
1449618252871697535,6.32451049377,6.0,0.0
1449618252905548125,6.3048431749,6.0,0.0
1449618252939952833,6.3048431749,6.0,0.0
1449618252972316960,6.32451049377,6.0,0.0
1449618253006210521,6.32451049377,6.0,0.0
1449618253042737749,6.32451049377,6.0,0.0
1449618253072955385,6.32451049377,6.0,0.0
1449618253105215481,6.32451049377,6.0,0.0
1449618253141856938,6.32451049377,6.0,0.0
1449618253172472479,6.33434414398,6.0,0.0
1449618253210188331,6.33434414398,6.0,0.0
1449618253238399270,6.33434414398,6.0,0.0
1449618253271953789,6.33434414398,6.0,0.0
1449618253305194758,6.33434414398,6.0,0.0
1449618253338600294,6.33434414398,6.0,0.0
1449618253374189968,6.33434414398,6.0,0.0
1449618253405670086,6.33434414398,6.0,0.0
1449618253438375225,6.33434414398,6.0,0.0
1449618253506489297,6.33434414398,6.0,0.0
1449618253506514136,6.29500952469,6.0,0.0
1449618253542321799,6.29500952469,6.0,0.0
1449618253571698799,6.29500952469,6.0,0.0
1449618253604991762,6.33434414398,6.0,0.0
1449618253638582352,6.33434414398,6.0,0.0
1449618253671762973,6.33434414398,6.0,0.0
1449618253705608177,6.33434414398,6.0,0.0
1449618253739834693,6.33434414398,6.0,0.0
1449618253771610856,6.33434414398,6.0,0.0
1449618253805461565,6.33434414398,6.0,0.0
1449618253839676915,6.33434414398,6.0,0.0
1449618253871885587,6.33434414398,6.0,0.0
1449618253906108289,6.33434414398,6.0,0.0
1449618253940852761,6.33434414398,6.0,0.0
1449618253972072459,6.13767111214,6.0,0.0
1449618254005115629,6.13767111214,6.0,0.0
1449618254040008445,6.13767111214,6.0,0.0
1449618254073742952,6.10643809722,6.0,0.0
1449618254107803197,6.10643809722,6.0,0.0
1449618254138403134,6.10643809722,6.0,0.0
1449618254171742222,6.10643809722,6.0,0.0
1449618254205052990,6.05321904861,6.0,0.0
1449618254239017623,6.01773968356,6.0,0.0
1449618254271908356,6.01773968356,6.0,0.0
1449618254305237725,6.01773968356,6.0,0.0
1449618254344583234,6.01773968356,6.0,0.0
1449618254371686605,6.01773968356,6.0,0.0
1449618254405160898,6.01773968356,6.0,0.0
1449618254438383896,6.01773968356,6.0,0.0
1449618254472548540,6.01773968356,6.0,0.0
1449618254505475377,6.01773968356,6.0,0.0
1449618254538784553,6.01773968356,6.0,0.0
1449618254573779697,6.0,6.0,0.0
1449618254605732246,6.0,6.0,0.0
1449618254639564974,6.0,6.0,0.0
1449618254673654778,6.0,6.0,0.0
1449618254705137168,6.0,6.0,0.0
1449618254738551555,6.0,6.0,0.0
1449618254771845346,6.0,6.0,0.0
1449618254837776557,6.0,6.0,0.0
1449618254841495457,6.0,6.0,0.0
1449618254872510693,6.0,6.0,0.0
1449618254909157862,6.0,6.0,0.0
1449618254938581804,6.0,6.0,0.0
1449618254971828552,6.0,6.0,0.0
1449618255005528178,6.0,6.0,0.0
1449618255038438279,6.0,6.0,0.0
1449618255071936022,6.0,6.0,0.0
1449618255105874250,6.0,6.0,0.0
1449618255138837040,6.0,6.0,0.0
1449618255172283225,6.0,6.0,0.0
1449618255205491367,6.0,6.0,0.0
1449618255239120079,6.0,6.0,0.0
1449618255271695953,6.0,6.0,0.0
1449618255305600279,6.0,6.0,0.0
1449618255338657998,6.0,6.0,0.0
1449618255371773564,6.0,6.0,0.0
1449618255405243914,6.0,6.0,0.0
1449618255438714946,6.0,6.0,0.0
1449618255472396481,6.0,6.0,0.0
1449618255505128944,6.0,6.0,0.0
1449618255538370136,6.0,6.0,0.0
1449618255571761025,6.0,6.0,0.0
1449618255604952891,6.0,6.0,0.0
1449618255639187448,6.0,6.0,0.0
1449618255672328111,6.0,6.0,0.0
1449618255705207201,6.0,6.0,0.0
1449618255738351262,6.0,6.0,0.0
1449618255773863455,6.0,6.0,0.0
1449618255805406868,6.0,6.0,0.0
1449618255838322624,6.0,6.0,0.0
1449618255874288119,6.0,6.0,0.0
1449618255905448302,6.0,6.0,0.0
1449618255938991399,6.0,6.0,0.0
1449618255972266740,6.0,6.0,0.0
1449618256005160781,6.0,6.0,0.0
1449618256038604137,6.0,6.0,0.0
1449618256071921642,6.0,6.0,0.0
1449618256106887326,6.0,6.0,0.0
1449618256138741108,6.01773968356,6.0,0.0
1449618256173961907,6.01773968356,6.0,0.0
1449618256204962034,6.33434414398,6.0,0.0
1449618256239273628,6.33434414398,6.0,0.0
1449618256271718487,6.52192265905,6.0,0.0
1449618256306735846,6.52192265905,6.0,0.0
1449618256338423014,6.52192265905,6.0,0.0
1449618256371868647,6.52890523615,6.0,0.0
1449618256405274012,6.52890523615,6.0,0.0
